{"data": {"bikes": [{"is_disabled": 0, "is_reserved": 0, "fusion_lat": 0.0, "lat": 38.92855683333333, "fusion_lon": 0.0, "rental_uris": {"ios": "https://dc.lft.to/lastmile_qr_scan", "android": "https://dc.lft.to/lastmile_qr_scan"}, "lon": -77.03732683333334, "bike_id": "ac097ce48491e63981c1aaaf13083a7d", "type": "electric_scooter", "name": "ac097ce48491e63981c1aaaf13083a7d"}, {"is_disabled": 0, "is_reserved": 0, "fusion_lat": 0.0, "lat": 38.93663733333333, "fusion_lon": 0.0, "rental_uris": {"ios": "https://dc.lft.to/lastmile_qr_scan", "android": "https://dc.lft.to/lastmile_qr_scan"}, "lon": -77.0660575, "bike_id": "7ce12762d138873247d879c768b8f3e5", "type": "electric_scooter", "name": "7ce12762d138873247d879c768b8f3e5"}, {"is_disabled": 0, "is_reserved": 0, "fusion_lat": 0.0, "lat": 38.92893383333333, "fusion_lon": 0.0, "rental_uris": {"ios": "https://dc.lft.to/lastmile_qr_scan", "android": "https://dc.lft.to/lastmile_qr_scan"}, "lon": -77.01938816666667, "bike_id": "0fa92ec6d6482ce6ab2a6f553b34b87b", "type": "electric_scooter", "name": "0fa92ec6d6482ce6ab2a6f553b34b87b"}, {"is_disabled": 0, "is_reserved": 0, "fusion_lat": 0.0, "lat": 38.895017833333334, "fusion_lon": 0.0, "rental_uris": {"ios": "https://dc.lft.to/lastmile_qr_scan", "android": "https://dc.lft.to/lastmile_qr_scan"}, "lon": -77.023018, "bike_id": "b840df5d594b38f6d8e41fb3ba0d87e8", "type": "electric_scooter", "name": "b840df5d594b38f6d8e41fb3ba0d87e8"}, {"is_disabled": 0, "is_reserved": 0, "fusion_lat": 0.0, "lat": 38.922590666666665, "fusion_lon": 0.0, "rental_uris": {"ios": "https://dc.lft.to/lastmile_qr_scan", "android": "https://dc.lft.to/lastmile_qr_scan"}, "lon": -77.03653383333334, "bike_id": "a8168369d4b06b1dec270dadbf7cb063", "type": "electric_scooter", "name": "a8168369d4b06b1dec270dadbf7cb063"}, {"is_disabled": 0, "is_reserved": 0, "fusion_lat": 0.0, "lat": 38.874436, "fusion_lon": 0.0, "rental_uris": {"ios": "https://dc.lft.to/lastmile_qr_scan", "android": "https://dc.lft.to/lastmile_qr_scan"}, "lon": -77.00286216666667, "bike_id": "a290944a176a24fb6d9199625e952931", "type": "electric_scooter", "name": "a290944a176a24fb6d9199625e952931"}, {"is_disabled": 0, "is_reserved": 0, "fusion_lat": 0.0, "lat": 38.94721283333333, "fusion_lon": 0.0, "rental_uris": {"ios": "https://dc.lft.to/lastmile_qr_scan", "android": "https://dc.lft.to/lastmile_qr_scan"}, "lon": -77.02613316666667, "bike_id": "c57829eb07fb9fad52f81d04ef7e1914", "type": "electric_scooter", "name": "c57829eb07fb9fad52f81d04ef7e1914"}, {"is_disabled": 0, "is_reserved": 0, "fusion_lat": 0.0, "lat": 38.93866283333333, "fusion_lon": 0.0, "rental_uris": {"ios": "https://dc.lft.to/lastmile_qr_scan", "android": "https://dc.lft.to/lastmile_qr_scan"}, "lon": -77.030436, "bike_id": "8de8fe9a9c3fc8f521fda15f7ff5d0f7", "type": "electric_scooter", "name": "8de8fe9a9c3fc8f521fda15f7ff5d0f7"}, {"is_disabled": 0, "is_reserved": 0, "fusion_lat": 0.0, "lat": 38.9297075, "fusion_lon": 0.0, "rental_uris": {"ios": "https://dc.lft.to/lastmile_qr_scan", "android": "https://dc.lft.to/lastmile_qr_scan"}, "lon": -77.02819366666667, "bike_id": "66a550bb9176ee06eaedccbab03160d4", "type": "electric_scooter", "name": "66a550bb9176ee06eaedccbab03160d4"}, {"is_disabled": 0, "is_reserved": 0, "fusion_lat": 0.0, "lat": 38.8470385, "fusion_lon": 0.0, "rental_uris": {"ios": "https://dc.lft.to/lastmile_qr_scan", "android": "https://dc.lft.to/lastmile_qr_scan"}, "lon": -76.99617766666667, "bike_id": "e16139c834d2f927edc3d6b3b37591c4", "type": "electric_bike", "name": "e16139c834d2f927edc3d6b3b37591c4"}, {"is_disabled": 0, "is_reserved": 0, "fusion_lat": 0.0, "lat": 38.92242383333333, "fusion_lon": 0.0, "rental_uris": {"ios": "https://dc.lft.to/lastmile_qr_scan", "android": "https://dc.lft.to/lastmile_qr_scan"}, "lon": -77.04478283333333, "bike_id": "8bf0787febbca53e8113444f8278f36a", "type": "electric_scooter", "name": "8bf0787febbca53e8113444f8278f36a"}, {"is_disabled": 0, "is_reserved": 0, "fusion_lat": 0.0, "lat": 38.900003833333336, "fusion_lon": 0.0, "rental_uris": {"ios": "https://dc.lft.to/lastmile_qr_scan", "android": "https://dc.lft.to/lastmile_qr_scan"}, "lon": -77.02189266666667, "bike_id": "f51ccc96878834f1862161ce6b9b4f6f", "type": "electric_scooter", "name": "f51ccc96878834f1862161ce6b9b4f6f"}, {"is_disabled": 0, "is_reserved": 0, "fusion_lat": 0.0, "lat": 38.87697683333333, "fusion_lon": 0.0, "rental_uris": {"ios": "https://dc.lft.to/lastmile_qr_scan", "android": "https://dc.lft.to/lastmile_qr_scan"}, "lon": -76.996255, "bike_id": "c7886b49fca79fbf212b5c8502871a74", "type": "electric_scooter", "name": "c7886b49fca79fbf212b5c8502871a74"}, {"is_disabled": 0, "is_reserved": 0, "fusion_lat": 0.0, "lat": 38.892362166666665, "fusion_lon": 0.0, "rental_uris": {"ios": "https://dc.lft.to/lastmile_qr_scan", "android": "https://dc.lft.to/lastmile_qr_scan"}, "lon": -77.02206433333333, "bike_id": "760f0256ac257891ac6344956f5e7a56", "type": "electric_scooter", "name": "760f0256ac257891ac6344956f5e7a56"}, {"is_disabled": 0, "is_reserved": 0, "fusion_lat": 0.0, "lat": 38.913646, "fusion_lon": 0.0, "rental_uris": {"ios": "https://dc.lft.to/lastmile_qr_scan", "android": "https://dc.lft.to/lastmile_qr_scan"}, "lon": -77.04650816666667, "bike_id": "fc12832a00401c1a27a590c41ad87887", "type": "electric_scooter", "name": "fc12832a00401c1a27a590c41ad87887"}, {"is_disabled": 0, "is_reserved": 0, "fusion_lat": 0.0, "lat": 38.90254933333333, "fusion_lon": 0.0, "rental_uris": {"ios": "https://dc.lft.to/lastmile_qr_scan", "android": "https://dc.lft.to/lastmile_qr_scan"}, "lon": -77.03851466666667, "bike_id": "adc064787601b57db85e9c492fb7767e", "type": "electric_scooter", "name": "adc064787601b57db85e9c492fb7767e"}, {"is_disabled": 0, "is_reserved": 0, "fusion_lat": 0.0, "lat": 38.912249833333334, "fusion_lon": 0.0, "rental_uris": {"ios": "https://dc.lft.to/lastmile_qr_scan", "android": "https://dc.lft.to/lastmile_qr_scan"}, "lon": -77.0066055, "bike_id": "8cb2b60ac4d8b43c54f08d1e9113dbd8", "type": "electric_scooter", "name": "8cb2b60ac4d8b43c54f08d1e9113dbd8"}, {"is_disabled": 0, "is_reserved": 0, "fusion_lat": 0.0, "lat": 38.86185283333333, "fusion_lon": 0.0, "rental_uris": {"ios": "https://dc.lft.to/lastmile_qr_scan", "android": "https://dc.lft.to/lastmile_qr_scan"}, "lon": -77.08843233333333, "bike_id": "15619b402d7a9341d91204c31ae611b2", "type": "electric_bike", "name": "15619b402d7a9341d91204c31ae611b2"}, {"is_disabled": 0, "is_reserved": 0, "fusion_lat": 0.0, "lat": 38.935339, "fusion_lon": 0.0, "rental_uris": {"ios": "https://dc.lft.to/lastmile_qr_scan", "android": "https://dc.lft.to/lastmile_qr_scan"}, "lon": -77.054431, "bike_id": "09516604a779c2d588bf7720c937ec01", "type": "electric_scooter", "name": "09516604a779c2d588bf7720c937ec01"}, {"is_disabled": 0, "is_reserved": 0, "fusion_lat": 0.0, "lat": 38.90565683333333, "fusion_lon": 0.0, "rental_uris": {"ios": "https://dc.lft.to/lastmile_qr_scan", "android": "https://dc.lft.to/lastmile_qr_scan"}, "lon": -77.020123, "bike_id": "c9c179fb16e5837cfae14af3a6ce455e", "type": "electric_scooter", "name": "c9c179fb16e5837cfae14af3a6ce455e"}, {"is_disabled": 0, "is_reserved": 0, "fusion_lat": 0.0, "lat": 38.94220383333333, "fusion_lon": 0.0, "rental_uris": {"ios": "https://dc.lft.to/lastmile_qr_scan", "android": "https://dc.lft.to/lastmile_qr_scan"}, "lon": -76.961332, "bike_id": "77decf958d04c02b0c5cbe520b9e4967", "type": "electric_bike", "name": "77decf958d04c02b0c5cbe520b9e4967"}, {"is_disabled": 0, "is_reserved": 0, "fusion_lat": 0.0, "lat": 38.905252833333336, "fusion_lon": 0.0, "rental_uris": {"ios": "https://dc.lft.to/lastmile_qr_scan", "android": "https://dc.lft.to/lastmile_qr_scan"}, "lon": -77.06258483333333, "bike_id": "3e60dbacd0090f9299606fc735a81bdd", "type": "electric_scooter", "name": "3e60dbacd0090f9299606fc735a81bdd"}, {"is_disabled": 0, "is_reserved": 0, "fusion_lat": 0.0, "lat": 38.92758883333333, "fusion_lon": 0.0, "rental_uris": {"ios": "https://dc.lft.to/lastmile_qr_scan", "android": "https://dc.lft.to/lastmile_qr_scan"}, "lon": -77.03271266666667, "bike_id": "1001a13155145a280b93af7104125069", "type": "electric_scooter", "name": "1001a13155145a280b93af7104125069"}, {"is_disabled": 0, "is_reserved": 0, "fusion_lat": 0.0, "lat": 38.91017866666667, "fusion_lon": 0.0, "rental_uris": {"ios": "https://dc.lft.to/lastmile_qr_scan", "android": "https://dc.lft.to/lastmile_qr_scan"}, "lon": -77.043996, "bike_id": "de32c043b5b7013adfc0994c39ec3f4f", "type": "electric_scooter", "name": "de32c043b5b7013adfc0994c39ec3f4f"}, {"is_disabled": 0, "is_reserved": 0, "fusion_lat": 0.0, "lat": 38.9253115, "fusion_lon": 0.0, "rental_uris": {"ios": "https://dc.lft.to/lastmile_qr_scan", "android": "https://dc.lft.to/lastmile_qr_scan"}, "lon": -77.02558233333333, "bike_id": "1e914da865861a07a2393b14dcba4dbd", "type": "electric_scooter", "name": "1e914da865861a07a2393b14dcba4dbd"}, {"is_disabled": 0, "is_reserved": 0, "fusion_lat": 0.0, "lat": 38.80981583333333, "fusion_lon": 0.0, "rental_uris": {"ios": "https://dc.lft.to/lastmile_qr_scan", "android": "https://dc.lft.to/lastmile_qr_scan"}, "lon": -77.07657266666666, "bike_id": "a2c3831d09fad9ad4dcda36b0507301b", "type": "electric_bike", "name": "a2c3831d09fad9ad4dcda36b0507301b"}, {"is_disabled": 0, "is_reserved": 0, "fusion_lat": 0.0, "lat": 38.8986925, "fusion_lon": 0.0, "rental_uris": {"ios": "https://dc.lft.to/lastmile_qr_scan", "android": "https://dc.lft.to/lastmile_qr_scan"}, "lon": -77.05017833333333, "bike_id": "763a7c956a930cd7685157cce99da850", "type": "electric_scooter", "name": "763a7c956a930cd7685157cce99da850"}, {"is_disabled": 0, "is_reserved": 0, "fusion_lat": 0.0, "lat": 38.893367833333336, "fusion_lon": 0.0, "rental_uris": {"ios": "https://dc.lft.to/lastmile_qr_scan", "android": "https://dc.lft.to/lastmile_qr_scan"}, "lon": -76.9289395, "bike_id": "b6289adcaf135cbc8b5a65666a25289d", "type": "electric_scooter", "name": "b6289adcaf135cbc8b5a65666a25289d"}, {"is_disabled": 0, "is_reserved": 0, "fusion_lat": 0.0, "lat": 38.908699, "fusion_lon": 0.0, "rental_uris": {"ios": "https://dc.lft.to/lastmile_qr_scan", "android": "https://dc.lft.to/lastmile_qr_scan"}, "lon": -77.0162445, "bike_id": "575def961db2b3f88936a8d2f72163e4", "type": "electric_scooter", "name": "575def961db2b3f88936a8d2f72163e4"}, {"is_disabled": 0, "is_reserved": 0, "fusion_lat": 0.0, "lat": 38.929998499999996, "fusion_lon": 0.0, "rental_uris": {"ios": "https://dc.lft.to/lastmile_qr_scan", "android": "https://dc.lft.to/lastmile_qr_scan"}, "lon": -77.03803066666667, "bike_id": "17bfce989974f833ac5c4cac55ed1fce", "type": "electric_scooter", "name": "17bfce989974f833ac5c4cac55ed1fce"}, {"is_disabled": 0, "is_reserved": 0, "fusion_lat": 0.0, "lat": 38.902709333333334, "fusion_lon": 0.0, "rental_uris": {"ios": "https://dc.lft.to/lastmile_qr_scan", "android": "https://dc.lft.to/lastmile_qr_scan"}, "lon": -77.03960233333333, "bike_id": "4b79f33e5b7bc4aaab3f10d3cd14dd19", "type": "electric_scooter", "name": "4b79f33e5b7bc4aaab3f10d3cd14dd19"}, {"is_disabled": 0, "is_reserved": 0, "fusion_lat": 0.0, "lat": 38.911913166666665, "fusion_lon": 0.0, "rental_uris": {"ios": "https://dc.lft.to/lastmile_qr_scan", "android": "https://dc.lft.to/lastmile_qr_scan"}, "lon": -77.029849, "bike_id": "6010f9297dc58f0feadeaf0dad79cd4a", "type": "electric_scooter", "name": "6010f9297dc58f0feadeaf0dad79cd4a"}, {"is_disabled": 0, "is_reserved": 0, "fusion_lat": 0.0, "lat": 38.89249383333333, "fusion_lon": 0.0, "rental_uris": {"ios": "https://dc.lft.to/lastmile_qr_scan", "android": "https://dc.lft.to/lastmile_qr_scan"}, "lon": -77.046546, "bike_id": "4ff3b6fc4d10f85b4ad3a49794028437", "type": "electric_scooter", "name": "4ff3b6fc4d10f85b4ad3a49794028437"}, {"is_disabled": 0, "is_reserved": 0, "fusion_lat": 0.0, "lat": 38.921519833333335, "fusion_lon": 0.0, "rental_uris": {"ios": "https://dc.lft.to/lastmile_qr_scan", "android": "https://dc.lft.to/lastmile_qr_scan"}, "lon": -77.0337335, "bike_id": "7f7ddc1f4daa61de24e29167ca7691ec", "type": "electric_scooter", "name": "7f7ddc1f4daa61de24e29167ca7691ec"}, {"is_disabled": 0, "is_reserved": 0, "fusion_lat": 0.0, "lat": 38.8949575, "fusion_lon": 0.0, "rental_uris": {"ios": "https://dc.lft.to/lastmile_qr_scan", "android": "https://dc.lft.to/lastmile_qr_scan"}, "lon": -77.02292166666666, "bike_id": "101807ae174bae00a9072849baebc915", "type": "electric_scooter", "name": "101807ae174bae00a9072849baebc915"}, {"is_disabled": 0, "is_reserved": 0, "fusion_lat": 0.0, "lat": 38.92063233333333, "fusion_lon": 0.0, "rental_uris": {"ios": "https://dc.lft.to/lastmile_qr_scan", "android": "https://dc.lft.to/lastmile_qr_scan"}, "lon": -77.02938766666666, "bike_id": "865511f2719e446900e12e03d9702bea", "type": "electric_scooter", "name": "865511f2719e446900e12e03d9702bea"}, {"is_disabled": 0, "is_reserved": 0, "fusion_lat": 0.0, "lat": 38.90501883333334, "fusion_lon": 0.0, "rental_uris": {"ios": "https://dc.lft.to/lastmile_qr_scan", "android": "https://dc.lft.to/lastmile_qr_scan"}, "lon": -77.0294575, "bike_id": "900894bdafdef9d9ba980fd1788ccb06", "type": "electric_scooter", "name": "900894bdafdef9d9ba980fd1788ccb06"}, {"is_disabled": 0, "is_reserved": 0, "fusion_lat": 0.0, "lat": 38.846000833333335, "fusion_lon": 0.0, "rental_uris": {"ios": "https://dc.lft.to/lastmile_qr_scan", "android": "https://dc.lft.to/lastmile_qr_scan"}, "lon": -76.97415616666666, "bike_id": "f9b8b8bd1cd6b3192d07411075331535", "type": "electric_scooter", "name": "f9b8b8bd1cd6b3192d07411075331535"}, {"is_disabled": 0, "is_reserved": 0, "fusion_lat": 0.0, "lat": 38.929861333333335, "fusion_lon": 0.0, "rental_uris": {"ios": "https://dc.lft.to/lastmile_qr_scan", "android": "https://dc.lft.to/lastmile_qr_scan"}, "lon": -77.034726, "bike_id": "053ff073c6b9e51dff6f103bca87478e", "type": "electric_scooter", "name": "053ff073c6b9e51dff6f103bca87478e"}, {"is_disabled": 0, "is_reserved": 0, "fusion_lat": 0.0, "lat": 38.842788, "fusion_lon": 0.0, "rental_uris": {"ios": "https://dc.lft.to/lastmile_qr_scan", "android": "https://dc.lft.to/lastmile_qr_scan"}, "lon": -76.98836166666666, "bike_id": "d68ef7438a7a49aa64bc14d13a5ae6bb", "type": "electric_scooter", "name": "d68ef7438a7a49aa64bc14d13a5ae6bb"}, {"is_disabled": 0, "is_reserved": 0, "fusion_lat": 0.0, "lat": 38.8955765, "fusion_lon": 0.0, "rental_uris": {"ios": "https://dc.lft.to/lastmile_qr_scan", "android": "https://dc.lft.to/lastmile_qr_scan"}, "lon": -77.04663, "bike_id": "cad207987ea8a2cc94f5545d157cd118", "type": "electric_scooter", "name": "cad207987ea8a2cc94f5545d157cd118"}, {"is_disabled": 0, "is_reserved": 0, "fusion_lat": 0.0, "lat": 38.877489, "fusion_lon": 0.0, "rental_uris": {"ios": "https://dc.lft.to/lastmile_qr_scan", "android": "https://dc.lft.to/lastmile_qr_scan"}, "lon": -77.004417, "bike_id": "6f06efc367db15a2a3a8c1fed6a079ce", "type": "electric_scooter", "name": "6f06efc367db15a2a3a8c1fed6a079ce"}, {"is_disabled": 0, "is_reserved": 0, "fusion_lat": 0.0, "lat": 38.96359116666667, "fusion_lon": 0.0, "rental_uris": {"ios": "https://dc.lft.to/lastmile_qr_scan", "android": "https://dc.lft.to/lastmile_qr_scan"}, "lon": -77.03439533333334, "bike_id": "c73fff1688f39125f28dfc72e902b7c8", "type": "electric_scooter", "name": "c73fff1688f39125f28dfc72e902b7c8"}, {"is_disabled": 0, "is_reserved": 0, "fusion_lat": 0.0, "lat": 38.89217516666667, "fusion_lon": 0.0, "rental_uris": {"ios": "https://dc.lft.to/lastmile_qr_scan", "android": "https://dc.lft.to/lastmile_qr_scan"}, "lon": -77.0277335, "bike_id": "48cb91d5ee79b814cd776251a4efc6d1", "type": "electric_scooter", "name": "48cb91d5ee79b814cd776251a4efc6d1"}, {"is_disabled": 0, "is_reserved": 0, "fusion_lat": 0.0, "lat": 38.9053835, "fusion_lon": 0.0, "rental_uris": {"ios": "https://dc.lft.to/lastmile_qr_scan", "android": "https://dc.lft.to/lastmile_qr_scan"}, "lon": -77.00290466666667, "bike_id": "d971a017ba882c31a6fa4fb20d9d83a1", "type": "electric_scooter", "name": "d971a017ba882c31a6fa4fb20d9d83a1"}, {"is_disabled": 0, "is_reserved": 0, "fusion_lat": 0.0, "lat": 38.904462333333335, "fusion_lon": 0.0, "rental_uris": {"ios": "https://dc.lft.to/lastmile_qr_scan", "android": "https://dc.lft.to/lastmile_qr_scan"}, "lon": -76.97306466666667, "bike_id": "aa19d1a4f5bb08f7547590a3961b9174", "type": "electric_scooter", "name": "aa19d1a4f5bb08f7547590a3961b9174"}, {"is_disabled": 0, "is_reserved": 0, "fusion_lat": 0.0, "lat": 38.902669833333334, "fusion_lon": 0.0, "rental_uris": {"ios": "https://dc.lft.to/lastmile_qr_scan", "android": "https://dc.lft.to/lastmile_qr_scan"}, "lon": -77.002138, "bike_id": "88f942671e239e922bb25a7f8c5a0579", "type": "electric_scooter", "name": "88f942671e239e922bb25a7f8c5a0579"}, {"is_disabled": 0, "is_reserved": 0, "fusion_lat": 0.0, "lat": 38.89746483333333, "fusion_lon": 0.0, "rental_uris": {"ios": "https://dc.lft.to/lastmile_qr_scan", "android": "https://dc.lft.to/lastmile_qr_scan"}, "lon": -77.02585383333333, "bike_id": "293f4d789c9a933790a7c312fca9910a", "type": "electric_scooter", "name": "293f4d789c9a933790a7c312fca9910a"}, {"is_disabled": 0, "is_reserved": 0, "fusion_lat": 0.0, "lat": 38.87904416666667, "fusion_lon": 0.0, "rental_uris": {"ios": "https://dc.lft.to/lastmile_qr_scan", "android": "https://dc.lft.to/lastmile_qr_scan"}, "lon": -77.01104833333333, "bike_id": "b14ea13673049aaa36f448819768e0c8", "type": "electric_scooter", "name": "b14ea13673049aaa36f448819768e0c8"}, {"is_disabled": 0, "is_reserved": 0, "fusion_lat": 0.0, "lat": 38.91271316666667, "fusion_lon": 0.0, "rental_uris": {"ios": "https://dc.lft.to/lastmile_qr_scan", "android": "https://dc.lft.to/lastmile_qr_scan"}, "lon": -77.04168133333333, "bike_id": "1ef1025277fdca23de4dfb4a746b7012", "type": "electric_scooter", "name": "1ef1025277fdca23de4dfb4a746b7012"}, {"is_disabled": 0, "is_reserved": 0, "fusion_lat": 0.0, "lat": 38.92974183333333, "fusion_lon": 0.0, "rental_uris": {"ios": "https://dc.lft.to/lastmile_qr_scan", "android": "https://dc.lft.to/lastmile_qr_scan"}, "lon": -77.030814, "bike_id": "bb7a5f548f586925097368e862802928", "type": "electric_scooter", "name": "bb7a5f548f586925097368e862802928"}, {"is_disabled": 0, "is_reserved": 0, "fusion_lat": 0.0, "lat": 38.8994815, "fusion_lon": 0.0, "rental_uris": {"ios": "https://dc.lft.to/lastmile_qr_scan", "android": "https://dc.lft.to/lastmile_qr_scan"}, "lon": -77.05055483333334, "bike_id": "78506a6c70de15a58fb090fe4bf20561", "type": "electric_scooter", "name": "78506a6c70de15a58fb090fe4bf20561"}, {"is_disabled": 0, "is_reserved": 0, "fusion_lat": 0.0, "lat": 38.930615333333336, "fusion_lon": 0.0, "rental_uris": {"ios": "https://dc.lft.to/lastmile_qr_scan", "android": "https://dc.lft.to/lastmile_qr_scan"}, "lon": -77.0321145, "bike_id": "1bebe3c5168a8d44ffca13f8a0fd9cee", "type": "electric_scooter", "name": "1bebe3c5168a8d44ffca13f8a0fd9cee"}, {"is_disabled": 0, "is_reserved": 0, "fusion_lat": 0.0, "lat": 38.9353595, "fusion_lon": 0.0, "rental_uris": {"ios": "https://dc.lft.to/lastmile_qr_scan", "android": "https://dc.lft.to/lastmile_qr_scan"}, "lon": -77.02348916666666, "bike_id": "0a0e02ae17c866f0ab1999368f6d13ca", "type": "electric_scooter", "name": "0a0e02ae17c866f0ab1999368f6d13ca"}, {"is_disabled": 0, "is_reserved": 0, "fusion_lat": 0.0, "lat": 38.92811916666667, "fusion_lon": 0.0, "rental_uris": {"ios": "https://dc.lft.to/lastmile_qr_scan", "android": "https://dc.lft.to/lastmile_qr_scan"}, "lon": -77.043579, "bike_id": "aa2d38e8bb880f36d1441191eabca0f1", "type": "electric_scooter", "name": "aa2d38e8bb880f36d1441191eabca0f1"}, {"is_disabled": 0, "is_reserved": 0, "fusion_lat": 0.0, "lat": 38.91343916666667, "fusion_lon": 0.0, "rental_uris": {"ios": "https://dc.lft.to/lastmile_qr_scan", "android": "https://dc.lft.to/lastmile_qr_scan"}, "lon": -77.02874483333333, "bike_id": "000bed8421efab48b52b44f8c55f040e", "type": "electric_scooter", "name": "000bed8421efab48b52b44f8c55f040e"}, {"is_disabled": 0, "is_reserved": 0, "fusion_lat": 0.0, "lat": 38.94143116666667, "fusion_lon": 0.0, "rental_uris": {"ios": "https://dc.lft.to/lastmile_qr_scan", "android": "https://dc.lft.to/lastmile_qr_scan"}, "lon": -77.0231885, "bike_id": "452d252fb328ddb5a99d01dfba2fbecf", "type": "electric_scooter", "name": "452d252fb328ddb5a99d01dfba2fbecf"}, {"is_disabled": 0, "is_reserved": 0, "fusion_lat": 0.0, "lat": 38.89609133333333, "fusion_lon": 0.0, "rental_uris": {"ios": "https://dc.lft.to/lastmile_qr_scan", "android": "https://dc.lft.to/lastmile_qr_scan"}, "lon": -77.04685133333334, "bike_id": "523156c5a8d8eaa250ceb2a347a5c0dd", "type": "electric_scooter", "name": "523156c5a8d8eaa250ceb2a347a5c0dd"}, {"is_disabled": 0, "is_reserved": 0, "fusion_lat": 0.0, "lat": 38.922063666666666, "fusion_lon": 0.0, "rental_uris": {"ios": "https://dc.lft.to/lastmile_qr_scan", "android": "https://dc.lft.to/lastmile_qr_scan"}, "lon": -77.0377665, "bike_id": "139431e4d34cb61a9ce3e450dbe5201a", "type": "electric_scooter", "name": "139431e4d34cb61a9ce3e450dbe5201a"}, {"is_disabled": 0, "is_reserved": 0, "fusion_lat": 0.0, "lat": 38.91669316666667, "fusion_lon": 0.0, "rental_uris": {"ios": "https://dc.lft.to/lastmile_qr_scan", "android": "https://dc.lft.to/lastmile_qr_scan"}, "lon": -77.0319055, "bike_id": "1236f3933fa7939e46b0a655264485ad", "type": "electric_scooter", "name": "1236f3933fa7939e46b0a655264485ad"}, {"is_disabled": 0, "is_reserved": 0, "fusion_lat": 0.0, "lat": 38.915547, "fusion_lon": 0.0, "rental_uris": {"ios": "https://dc.lft.to/lastmile_qr_scan", "android": "https://dc.lft.to/lastmile_qr_scan"}, "lon": -77.05406933333333, "bike_id": "152ee54b0adef22c58f3ef24914450a0", "type": "electric_scooter", "name": "152ee54b0adef22c58f3ef24914450a0"}, {"is_disabled": 0, "is_reserved": 0, "fusion_lat": 0.0, "lat": 38.90960333333334, "fusion_lon": 0.0, "rental_uris": {"ios": "https://dc.lft.to/lastmile_qr_scan", "android": "https://dc.lft.to/lastmile_qr_scan"}, "lon": -77.03421733333333, "bike_id": "5945180c963af67c09afdfa64afc8d4f", "type": "electric_scooter", "name": "5945180c963af67c09afdfa64afc8d4f"}, {"is_disabled": 0, "is_reserved": 0, "fusion_lat": 0.0, "lat": 38.90958933333334, "fusion_lon": 0.0, "rental_uris": {"ios": "https://dc.lft.to/lastmile_qr_scan", "android": "https://dc.lft.to/lastmile_qr_scan"}, "lon": -77.03419266666667, "bike_id": "72c34dea7382bdc22cb4857f138bb0af", "type": "electric_scooter", "name": "72c34dea7382bdc22cb4857f138bb0af"}, {"is_disabled": 0, "is_reserved": 0, "fusion_lat": 0.0, "lat": 38.91203183333333, "fusion_lon": 0.0, "rental_uris": {"ios": "https://dc.lft.to/lastmile_qr_scan", "android": "https://dc.lft.to/lastmile_qr_scan"}, "lon": -77.02102333333333, "bike_id": "3eca6eea4b2023cda263d9aa60a5b62e", "type": "electric_scooter", "name": "3eca6eea4b2023cda263d9aa60a5b62e"}, {"is_disabled": 0, "is_reserved": 0, "fusion_lat": 0.0, "lat": 38.91814433333333, "fusion_lon": 0.0, "rental_uris": {"ios": "https://dc.lft.to/lastmile_qr_scan", "android": "https://dc.lft.to/lastmile_qr_scan"}, "lon": -77.02521716666666, "bike_id": "a30c77ba44bcf782a157900270439c6f", "type": "electric_scooter", "name": "a30c77ba44bcf782a157900270439c6f"}, {"is_disabled": 0, "is_reserved": 0, "fusion_lat": 0.0, "lat": 38.9307385, "fusion_lon": 0.0, "rental_uris": {"ios": "https://dc.lft.to/lastmile_qr_scan", "android": "https://dc.lft.to/lastmile_qr_scan"}, "lon": -77.031984, "bike_id": "fd337c09fcedea9013a2885dfdc3875c", "type": "electric_scooter", "name": "fd337c09fcedea9013a2885dfdc3875c"}, {"is_disabled": 0, "is_reserved": 0, "fusion_lat": 0.0, "lat": 38.91460433333334, "fusion_lon": 0.0, "rental_uris": {"ios": "https://dc.lft.to/lastmile_qr_scan", "android": "https://dc.lft.to/lastmile_qr_scan"}, "lon": -77.02176916666667, "bike_id": "d485e6a6e708472a3da5b28ec4ac3d57", "type": "electric_scooter", "name": "d485e6a6e708472a3da5b28ec4ac3d57"}, {"is_disabled": 0, "is_reserved": 0, "fusion_lat": 0.0, "lat": 38.92162783333333, "fusion_lon": 0.0, "rental_uris": {"ios": "https://dc.lft.to/lastmile_qr_scan", "android": "https://dc.lft.to/lastmile_qr_scan"}, "lon": -77.03666983333333, "bike_id": "547fe6d546e1e30e08f6304de89eb97d", "type": "electric_scooter", "name": "547fe6d546e1e30e08f6304de89eb97d"}, {"is_disabled": 0, "is_reserved": 0, "fusion_lat": 0.0, "lat": 38.90837466666667, "fusion_lon": 0.0, "rental_uris": {"ios": "https://dc.lft.to/lastmile_qr_scan", "android": "https://dc.lft.to/lastmile_qr_scan"}, "lon": -77.02950166666666, "bike_id": "93cb35b8cb2760aa583fc36ee7bc1eb3", "type": "electric_scooter", "name": "93cb35b8cb2760aa583fc36ee7bc1eb3"}, {"is_disabled": 0, "is_reserved": 0, "fusion_lat": 0.0, "lat": 38.899313, "fusion_lon": 0.0, "rental_uris": {"ios": "https://dc.lft.to/lastmile_qr_scan", "android": "https://dc.lft.to/lastmile_qr_scan"}, "lon": -77.0035625, "bike_id": "96850fb92e49085d3a2e9ef7ae5cdac8", "type": "electric_scooter", "name": "96850fb92e49085d3a2e9ef7ae5cdac8"}, {"is_disabled": 0, "is_reserved": 0, "fusion_lat": 0.0, "lat": 38.9026395, "fusion_lon": 0.0, "rental_uris": {"ios": "https://dc.lft.to/lastmile_qr_scan", "android": "https://dc.lft.to/lastmile_qr_scan"}, "lon": -77.018369, "bike_id": "cc7edc02bf0d99c77da166718fded480", "type": "electric_scooter", "name": "cc7edc02bf0d99c77da166718fded480"}, {"is_disabled": 0, "is_reserved": 0, "fusion_lat": 0.0, "lat": 38.90546366666667, "fusion_lon": 0.0, "rental_uris": {"ios": "https://dc.lft.to/lastmile_qr_scan", "android": "https://dc.lft.to/lastmile_qr_scan"}, "lon": -77.0217285, "bike_id": "6c35957a1bffa700c6171a5ecb3c6d03", "type": "electric_scooter", "name": "6c35957a1bffa700c6171a5ecb3c6d03"}, {"is_disabled": 0, "is_reserved": 0, "fusion_lat": 0.0, "lat": 38.960138666666666, "fusion_lon": 0.0, "rental_uris": {"ios": "https://dc.lft.to/lastmile_qr_scan", "android": "https://dc.lft.to/lastmile_qr_scan"}, "lon": -77.02819483333333, "bike_id": "07c75772a6ed73c1467be49ce092c6d9", "type": "electric_scooter", "name": "07c75772a6ed73c1467be49ce092c6d9"}, {"is_disabled": 0, "is_reserved": 0, "fusion_lat": 0.0, "lat": 38.90785566666667, "fusion_lon": 0.0, "rental_uris": {"ios": "https://dc.lft.to/lastmile_qr_scan", "android": "https://dc.lft.to/lastmile_qr_scan"}, "lon": -77.0451525, "bike_id": "7e26c9d5665d1e971859de6383726ca1", "type": "electric_scooter", "name": "7e26c9d5665d1e971859de6383726ca1"}, {"is_disabled": 0, "is_reserved": 0, "fusion_lat": 0.0, "lat": 38.957369666666665, "fusion_lon": 0.0, "rental_uris": {"ios": "https://dc.lft.to/lastmile_qr_scan", "android": "https://dc.lft.to/lastmile_qr_scan"}, "lon": -77.02420833333333, "bike_id": "d6170ef7c7386ba3e22ee9a9610b38c4", "type": "electric_scooter", "name": "d6170ef7c7386ba3e22ee9a9610b38c4"}, {"is_disabled": 0, "is_reserved": 0, "fusion_lat": 0.0, "lat": 38.920299166666666, "fusion_lon": 0.0, "rental_uris": {"ios": "https://dc.lft.to/lastmile_qr_scan", "android": "https://dc.lft.to/lastmile_qr_scan"}, "lon": -76.99983133333333, "bike_id": "f4eaca29d76f76fd570c3b3b6a98b85d", "type": "electric_scooter", "name": "f4eaca29d76f76fd570c3b3b6a98b85d"}, {"is_disabled": 0, "is_reserved": 0, "fusion_lat": 0.0, "lat": 38.898479333333334, "fusion_lon": 0.0, "rental_uris": {"ios": "https://dc.lft.to/lastmile_qr_scan", "android": "https://dc.lft.to/lastmile_qr_scan"}, "lon": -77.001917, "bike_id": "d987cebe04fd34488ee916638cf1a903", "type": "electric_scooter", "name": "d987cebe04fd34488ee916638cf1a903"}, {"is_disabled": 0, "is_reserved": 0, "fusion_lat": 0.0, "lat": 38.930331, "fusion_lon": 0.0, "rental_uris": {"ios": "https://dc.lft.to/lastmile_qr_scan", "android": "https://dc.lft.to/lastmile_qr_scan"}, "lon": -77.02958933333333, "bike_id": "6c17f91ca041a9526afb383a75332d4c", "type": "electric_scooter", "name": "6c17f91ca041a9526afb383a75332d4c"}, {"is_disabled": 0, "is_reserved": 0, "fusion_lat": 0.0, "lat": 38.921625166666665, "fusion_lon": 0.0, "rental_uris": {"ios": "https://dc.lft.to/lastmile_qr_scan", "android": "https://dc.lft.to/lastmile_qr_scan"}, "lon": -77.01815683333334, "bike_id": "6a3f14637b2cf08638689fda790a44a8", "type": "electric_scooter", "name": "6a3f14637b2cf08638689fda790a44a8"}, {"is_disabled": 0, "is_reserved": 0, "fusion_lat": 0.0, "lat": 38.928457, "fusion_lon": 0.0, "rental_uris": {"ios": "https://dc.lft.to/lastmile_qr_scan", "android": "https://dc.lft.to/lastmile_qr_scan"}, "lon": -77.01366516666667, "bike_id": "69ee702fedbe8b1bd5b20428d248b18e", "type": "electric_scooter", "name": "69ee702fedbe8b1bd5b20428d248b18e"}, {"is_disabled": 0, "is_reserved": 0, "fusion_lat": 0.0, "lat": 38.9140745, "fusion_lon": 0.0, "rental_uris": {"ios": "https://dc.lft.to/lastmile_qr_scan", "android": "https://dc.lft.to/lastmile_qr_scan"}, "lon": -77.03083216666667, "bike_id": "41a5ae876e9618338cbc6e8cec70e4c0", "type": "electric_scooter", "name": "41a5ae876e9618338cbc6e8cec70e4c0"}, {"is_disabled": 0, "is_reserved": 0, "fusion_lat": 0.0, "lat": 38.881232833333335, "fusion_lon": 0.0, "rental_uris": {"ios": "https://dc.lft.to/lastmile_qr_scan", "android": "https://dc.lft.to/lastmile_qr_scan"}, "lon": -76.99283133333333, "bike_id": "f18f022319e4e49e89b5a629312c9299", "type": "electric_scooter", "name": "f18f022319e4e49e89b5a629312c9299"}, {"is_disabled": 0, "is_reserved": 0, "fusion_lat": 0.0, "lat": 38.90397566666667, "fusion_lon": 0.0, "rental_uris": {"ios": "https://dc.lft.to/lastmile_qr_scan", "android": "https://dc.lft.to/lastmile_qr_scan"}, "lon": -77.018548, "bike_id": "91cf7a06ccb2bd5df5f9e727afdae2af", "type": "electric_scooter", "name": "91cf7a06ccb2bd5df5f9e727afdae2af"}, {"is_disabled": 0, "is_reserved": 0, "fusion_lat": 0.0, "lat": 38.953102666666666, "fusion_lon": 0.0, "rental_uris": {"ios": "https://dc.lft.to/lastmile_qr_scan", "android": "https://dc.lft.to/lastmile_qr_scan"}, "lon": -77.02015733333333, "bike_id": "1e0d771dc784be29cbaf57ebc483b656", "type": "electric_scooter", "name": "1e0d771dc784be29cbaf57ebc483b656"}, {"is_disabled": 0, "is_reserved": 0, "fusion_lat": 0.0, "lat": 38.900333333333336, "fusion_lon": 0.0, "rental_uris": {"ios": "https://dc.lft.to/lastmile_qr_scan", "android": "https://dc.lft.to/lastmile_qr_scan"}, "lon": -77.01208583333333, "bike_id": "6563e01609f8059db4802cba649af529", "type": "electric_scooter", "name": "6563e01609f8059db4802cba649af529"}, {"is_disabled": 0, "is_reserved": 0, "fusion_lat": 0.0, "lat": 38.95365533333333, "fusion_lon": 0.0, "rental_uris": {"ios": "https://dc.lft.to/lastmile_qr_scan", "android": "https://dc.lft.to/lastmile_qr_scan"}, "lon": -76.998482, "bike_id": "7f47aedadcbde4ae4ef15467d405a925", "type": "electric_scooter", "name": "7f47aedadcbde4ae4ef15467d405a925"}, {"is_disabled": 0, "is_reserved": 0, "fusion_lat": 0.0, "lat": 38.93461416666667, "fusion_lon": 0.0, "rental_uris": {"ios": "https://dc.lft.to/lastmile_qr_scan", "android": "https://dc.lft.to/lastmile_qr_scan"}, "lon": -77.02407083333334, "bike_id": "9b2e0b4d43366d60f191f95ccafa88a6", "type": "electric_scooter", "name": "9b2e0b4d43366d60f191f95ccafa88a6"}, {"is_disabled": 0, "is_reserved": 0, "fusion_lat": 0.0, "lat": 38.946084, "fusion_lon": 0.0, "rental_uris": {"ios": "https://dc.lft.to/lastmile_qr_scan", "android": "https://dc.lft.to/lastmile_qr_scan"}, "lon": -77.0173595, "bike_id": "e20f047a977f53f78de44cd3390649f3", "type": "electric_bike", "name": "e20f047a977f53f78de44cd3390649f3"}, {"is_disabled": 0, "is_reserved": 0, "fusion_lat": 0.0, "lat": 38.88581966666667, "fusion_lon": 0.0, "rental_uris": {"ios": "https://dc.lft.to/lastmile_qr_scan", "android": "https://dc.lft.to/lastmile_qr_scan"}, "lon": -77.01226133333333, "bike_id": "6fc654f8969915df27bd6290b87f911d", "type": "electric_scooter", "name": "6fc654f8969915df27bd6290b87f911d"}, {"is_disabled": 0, "is_reserved": 0, "fusion_lat": 0.0, "lat": 38.920818, "fusion_lon": 0.0, "rental_uris": {"ios": "https://dc.lft.to/lastmile_qr_scan", "android": "https://dc.lft.to/lastmile_qr_scan"}, "lon": -77.004546, "bike_id": "ecf6827e661c4eaac93e5eb8da79fe98", "type": "electric_scooter", "name": "ecf6827e661c4eaac93e5eb8da79fe98"}, {"is_disabled": 0, "is_reserved": 0, "fusion_lat": 0.0, "lat": 38.931944333333334, "fusion_lon": 0.0, "rental_uris": {"ios": "https://dc.lft.to/lastmile_qr_scan", "android": "https://dc.lft.to/lastmile_qr_scan"}, "lon": -77.02451533333333, "bike_id": "b82712fe380df1c8ae3c99265b5f7852", "type": "electric_scooter", "name": "b82712fe380df1c8ae3c99265b5f7852"}, {"is_disabled": 0, "is_reserved": 0, "fusion_lat": 0.0, "lat": 38.91911, "fusion_lon": 0.0, "rental_uris": {"ios": "https://dc.lft.to/lastmile_qr_scan", "android": "https://dc.lft.to/lastmile_qr_scan"}, "lon": -77.04456666666667, "bike_id": "529e0b2190e4416cb56f9dff13565998", "type": "electric_scooter", "name": "529e0b2190e4416cb56f9dff13565998"}, {"is_disabled": 0, "is_reserved": 0, "fusion_lat": 0.0, "lat": 38.9369955, "fusion_lon": 0.0, "rental_uris": {"ios": "https://dc.lft.to/lastmile_qr_scan", "android": "https://dc.lft.to/lastmile_qr_scan"}, "lon": -77.055972, "bike_id": "27e81edb6801a1925cf2039c3307e49a", "type": "electric_scooter", "name": "27e81edb6801a1925cf2039c3307e49a"}, {"is_disabled": 0, "is_reserved": 0, "fusion_lat": 0.0, "lat": 38.891269333333334, "fusion_lon": 0.0, "rental_uris": {"ios": "https://dc.lft.to/lastmile_qr_scan", "android": "https://dc.lft.to/lastmile_qr_scan"}, "lon": -76.9994085, "bike_id": "691b3578988fbf2b1965fda510ccacee", "type": "electric_scooter", "name": "691b3578988fbf2b1965fda510ccacee"}, {"is_disabled": 0, "is_reserved": 0, "fusion_lat": 0.0, "lat": 38.86471366666667, "fusion_lon": 0.0, "rental_uris": {"ios": "https://dc.lft.to/lastmile_qr_scan", "android": "https://dc.lft.to/lastmile_qr_scan"}, "lon": -76.977582, "bike_id": "38cf4924f9b8610dc5661ff0ae4dff81", "type": "electric_scooter", "name": "38cf4924f9b8610dc5661ff0ae4dff81"}, {"is_disabled": 0, "is_reserved": 0, "fusion_lat": 0.0, "lat": 38.954291, "fusion_lon": 0.0, "rental_uris": {"ios": "https://dc.lft.to/lastmile_qr_scan", "android": "https://dc.lft.to/lastmile_qr_scan"}, "lon": -76.98798066666667, "bike_id": "11ac74ba5e60916a5ede2e3ceeffd02e", "type": "electric_scooter", "name": "11ac74ba5e60916a5ede2e3ceeffd02e"}, {"is_disabled": 0, "is_reserved": 0, "fusion_lat": 0.0, "lat": 38.92885733333333, "fusion_lon": 0.0, "rental_uris": {"ios": "https://dc.lft.to/lastmile_qr_scan", "android": "https://dc.lft.to/lastmile_qr_scan"}, "lon": -77.01375516666667, "bike_id": "b5ff539bfc60b09481328741ff642d8e", "type": "electric_scooter", "name": "b5ff539bfc60b09481328741ff642d8e"}, {"is_disabled": 0, "is_reserved": 0, "fusion_lat": 0.0, "lat": 38.9156265, "fusion_lon": 0.0, "rental_uris": {"ios": "https://dc.lft.to/lastmile_qr_scan", "android": "https://dc.lft.to/lastmile_qr_scan"}, "lon": -77.03189333333333, "bike_id": "3e3743ae66f8cea07a427218912db577", "type": "electric_scooter", "name": "3e3743ae66f8cea07a427218912db577"}, {"is_disabled": 0, "is_reserved": 0, "fusion_lat": 0.0, "lat": 38.9053685, "fusion_lon": 0.0, "rental_uris": {"ios": "https://dc.lft.to/lastmile_qr_scan", "android": "https://dc.lft.to/lastmile_qr_scan"}, "lon": -77.05912433333333, "bike_id": "077e18d79d8a0be6d5812f672a137f2e", "type": "electric_bike", "name": "077e18d79d8a0be6d5812f672a137f2e"}, {"is_disabled": 0, "is_reserved": 0, "fusion_lat": 0.0, "lat": 38.9064255, "fusion_lon": 0.0, "rental_uris": {"ios": "https://dc.lft.to/lastmile_qr_scan", "android": "https://dc.lft.to/lastmile_qr_scan"}, "lon": -77.06891666666667, "bike_id": "83cb7f7c1a0d11fff4e35cebfd217834", "type": "electric_scooter", "name": "83cb7f7c1a0d11fff4e35cebfd217834"}, {"is_disabled": 0, "is_reserved": 0, "fusion_lat": 0.0, "lat": 38.87641583333333, "fusion_lon": 0.0, "rental_uris": {"ios": "https://dc.lft.to/lastmile_qr_scan", "android": "https://dc.lft.to/lastmile_qr_scan"}, "lon": -76.99294933333333, "bike_id": "18698c89461cabdcc6be305bae15b2bb", "type": "electric_scooter", "name": "18698c89461cabdcc6be305bae15b2bb"}, {"is_disabled": 0, "is_reserved": 0, "fusion_lat": 0.0, "lat": 38.9058375, "fusion_lon": 0.0, "rental_uris": {"ios": "https://dc.lft.to/lastmile_qr_scan", "android": "https://dc.lft.to/lastmile_qr_scan"}, "lon": -77.03147666666666, "bike_id": "b29413e4ca87d5e8fceac536f783d839", "type": "electric_scooter", "name": "b29413e4ca87d5e8fceac536f783d839"}, {"is_disabled": 0, "is_reserved": 0, "fusion_lat": 0.0, "lat": 38.907279, "fusion_lon": 0.0, "rental_uris": {"ios": "https://dc.lft.to/lastmile_qr_scan", "android": "https://dc.lft.to/lastmile_qr_scan"}, "lon": -77.041686, "bike_id": "867e9f2bf710d78dd1861ee10633c688", "type": "electric_scooter", "name": "867e9f2bf710d78dd1861ee10633c688"}, {"is_disabled": 0, "is_reserved": 0, "fusion_lat": 0.0, "lat": 38.89207066666667, "fusion_lon": 0.0, "rental_uris": {"ios": "https://dc.lft.to/lastmile_qr_scan", "android": "https://dc.lft.to/lastmile_qr_scan"}, "lon": -76.92919883333333, "bike_id": "4fcc6fc0120a1017ac95403cf428452e", "type": "electric_scooter", "name": "4fcc6fc0120a1017ac95403cf428452e"}, {"is_disabled": 0, "is_reserved": 0, "fusion_lat": 0.0, "lat": 38.909137666666666, "fusion_lon": 0.0, "rental_uris": {"ios": "https://dc.lft.to/lastmile_qr_scan", "android": "https://dc.lft.to/lastmile_qr_scan"}, "lon": -77.045745, "bike_id": "77c469f2378a3f22799bef6550a43be7", "type": "electric_scooter", "name": "77c469f2378a3f22799bef6550a43be7"}, {"is_disabled": 0, "is_reserved": 0, "fusion_lat": 0.0, "lat": 38.905161666666665, "fusion_lon": 0.0, "rental_uris": {"ios": "https://dc.lft.to/lastmile_qr_scan", "android": "https://dc.lft.to/lastmile_qr_scan"}, "lon": -77.06447983333334, "bike_id": "c74ed4f5e8805ad3a5ad9960ee5dd49a", "type": "electric_bike", "name": "c74ed4f5e8805ad3a5ad9960ee5dd49a"}, {"is_disabled": 0, "is_reserved": 0, "fusion_lat": 0.0, "lat": 38.92442066666667, "fusion_lon": 0.0, "rental_uris": {"ios": "https://dc.lft.to/lastmile_qr_scan", "android": "https://dc.lft.to/lastmile_qr_scan"}, "lon": -77.02022783333334, "bike_id": "c1841c733dfefa80daa427b02e553722", "type": "electric_scooter", "name": "c1841c733dfefa80daa427b02e553722"}, {"is_disabled": 0, "is_reserved": 0, "fusion_lat": 0.0, "lat": 38.916680166666666, "fusion_lon": 0.0, "rental_uris": {"ios": "https://dc.lft.to/lastmile_qr_scan", "android": "https://dc.lft.to/lastmile_qr_scan"}, "lon": -77.00048766666667, "bike_id": "bd53b9a828fd4d99740b7dd81dce98a4", "type": "electric_scooter", "name": "bd53b9a828fd4d99740b7dd81dce98a4"}, {"is_disabled": 0, "is_reserved": 0, "fusion_lat": 0.0, "lat": 38.91936, "fusion_lon": 0.0, "rental_uris": {"ios": "https://dc.lft.to/lastmile_qr_scan", "android": "https://dc.lft.to/lastmile_qr_scan"}, "lon": -77.04495616666667, "bike_id": "307cfd0b5b85323a44632b1aeca914a3", "type": "electric_scooter", "name": "307cfd0b5b85323a44632b1aeca914a3"}, {"is_disabled": 0, "is_reserved": 0, "fusion_lat": 0.0, "lat": 38.93066866666667, "fusion_lon": 0.0, "rental_uris": {"ios": "https://dc.lft.to/lastmile_qr_scan", "android": "https://dc.lft.to/lastmile_qr_scan"}, "lon": -77.04033416666667, "bike_id": "d9716ffe48c4e38e1a7893e12e5fe72c", "type": "electric_scooter", "name": "d9716ffe48c4e38e1a7893e12e5fe72c"}, {"is_disabled": 0, "is_reserved": 0, "fusion_lat": 0.0, "lat": 38.9255165, "fusion_lon": 0.0, "rental_uris": {"ios": "https://dc.lft.to/lastmile_qr_scan", "android": "https://dc.lft.to/lastmile_qr_scan"}, "lon": -77.0032115, "bike_id": "f9ff74d8c396203d6d8c1360f72d8c0e", "type": "electric_scooter", "name": "f9ff74d8c396203d6d8c1360f72d8c0e"}, {"is_disabled": 0, "is_reserved": 0, "fusion_lat": 0.0, "lat": 38.87778383333333, "fusion_lon": 0.0, "rental_uris": {"ios": "https://dc.lft.to/lastmile_qr_scan", "android": "https://dc.lft.to/lastmile_qr_scan"}, "lon": -77.0012985, "bike_id": "89e9a7352c3c790014a2ccb97af442b6", "type": "electric_scooter", "name": "89e9a7352c3c790014a2ccb97af442b6"}, {"is_disabled": 0, "is_reserved": 0, "fusion_lat": 0.0, "lat": 38.9366195, "fusion_lon": 0.0, "rental_uris": {"ios": "https://dc.lft.to/lastmile_qr_scan", "android": "https://dc.lft.to/lastmile_qr_scan"}, "lon": -77.06607016666666, "bike_id": "03b40499ceb88fa468b0c07e48c29b1b", "type": "electric_scooter", "name": "03b40499ceb88fa468b0c07e48c29b1b"}, {"is_disabled": 0, "is_reserved": 0, "fusion_lat": 0.0, "lat": 38.91631816666667, "fusion_lon": 0.0, "rental_uris": {"ios": "https://dc.lft.to/lastmile_qr_scan", "android": "https://dc.lft.to/lastmile_qr_scan"}, "lon": -77.00847866666666, "bike_id": "ae7b69b60b335d888474df94fb06f4d2", "type": "electric_scooter", "name": "ae7b69b60b335d888474df94fb06f4d2"}, {"is_disabled": 0, "is_reserved": 0, "fusion_lat": 0.0, "lat": 38.9311585, "fusion_lon": 0.0, "rental_uris": {"ios": "https://dc.lft.to/lastmile_qr_scan", "android": "https://dc.lft.to/lastmile_qr_scan"}, "lon": -77.02070316666666, "bike_id": "bbd26162d41a4ea1bb597bdad8dce33b", "type": "electric_scooter", "name": "bbd26162d41a4ea1bb597bdad8dce33b"}, {"is_disabled": 0, "is_reserved": 0, "fusion_lat": 0.0, "lat": 38.89235866666667, "fusion_lon": 0.0, "rental_uris": {"ios": "https://dc.lft.to/lastmile_qr_scan", "android": "https://dc.lft.to/lastmile_qr_scan"}, "lon": -77.02209183333333, "bike_id": "bfa876cc41f59a42aed37a6f33c0fca9", "type": "electric_scooter", "name": "bfa876cc41f59a42aed37a6f33c0fca9"}, {"is_disabled": 0, "is_reserved": 0, "fusion_lat": 0.0, "lat": 38.902792833333336, "fusion_lon": 0.0, "rental_uris": {"ios": "https://dc.lft.to/lastmile_qr_scan", "android": "https://dc.lft.to/lastmile_qr_scan"}, "lon": -77.02275983333334, "bike_id": "9f3aa693aee437a4d8795c22aa6a8be3", "type": "electric_scooter", "name": "9f3aa693aee437a4d8795c22aa6a8be3"}, {"is_disabled": 0, "is_reserved": 0, "fusion_lat": 0.0, "lat": 38.913349333333336, "fusion_lon": 0.0, "rental_uris": {"ios": "https://dc.lft.to/lastmile_qr_scan", "android": "https://dc.lft.to/lastmile_qr_scan"}, "lon": -77.0165335, "bike_id": "7df9e1e734a491a02de1948851de1b67", "type": "electric_scooter", "name": "7df9e1e734a491a02de1948851de1b67"}, {"is_disabled": 0, "is_reserved": 0, "fusion_lat": 0.0, "lat": 38.8950525, "fusion_lon": 0.0, "rental_uris": {"ios": "https://dc.lft.to/lastmile_qr_scan", "android": "https://dc.lft.to/lastmile_qr_scan"}, "lon": -77.03959366666666, "bike_id": "0b3e6ec4ebff377265517f05b8eade71", "type": "electric_scooter", "name": "0b3e6ec4ebff377265517f05b8eade71"}, {"is_disabled": 0, "is_reserved": 0, "fusion_lat": 0.0, "lat": 38.88512033333333, "fusion_lon": 0.0, "rental_uris": {"ios": "https://dc.lft.to/lastmile_qr_scan", "android": "https://dc.lft.to/lastmile_qr_scan"}, "lon": -77.01116216666667, "bike_id": "6c31e88ffa2a2bfef2d49e1caef9b1cc", "type": "electric_scooter", "name": "6c31e88ffa2a2bfef2d49e1caef9b1cc"}, {"is_disabled": 0, "is_reserved": 0, "fusion_lat": 0.0, "lat": 38.9436845, "fusion_lon": 0.0, "rental_uris": {"ios": "https://dc.lft.to/lastmile_qr_scan", "android": "https://dc.lft.to/lastmile_qr_scan"}, "lon": -77.061138, "bike_id": "c684efd46a4a1b758065efae3353d158", "type": "electric_scooter", "name": "c684efd46a4a1b758065efae3353d158"}, {"is_disabled": 0, "is_reserved": 0, "fusion_lat": 0.0, "lat": 38.96173133333333, "fusion_lon": 0.0, "rental_uris": {"ios": "https://dc.lft.to/lastmile_qr_scan", "android": "https://dc.lft.to/lastmile_qr_scan"}, "lon": -77.032263, "bike_id": "78268e8228a644c84a238bb730d9c857", "type": "electric_scooter", "name": "78268e8228a644c84a238bb730d9c857"}, {"is_disabled": 0, "is_reserved": 0, "fusion_lat": 0.0, "lat": 38.94978166666667, "fusion_lon": 0.0, "rental_uris": {"ios": "https://dc.lft.to/lastmile_qr_scan", "android": "https://dc.lft.to/lastmile_qr_scan"}, "lon": -77.02445783333333, "bike_id": "a87be95cf59833e5a0a5f90af251c3bc", "type": "electric_scooter", "name": "a87be95cf59833e5a0a5f90af251c3bc"}, {"is_disabled": 0, "is_reserved": 0, "fusion_lat": 0.0, "lat": 38.93699616666667, "fusion_lon": 0.0, "rental_uris": {"ios": "https://dc.lft.to/lastmile_qr_scan", "android": "https://dc.lft.to/lastmile_qr_scan"}, "lon": -77.05685166666666, "bike_id": "9a940664231ea7fec0dd8a267a1713a6", "type": "electric_scooter", "name": "9a940664231ea7fec0dd8a267a1713a6"}, {"is_disabled": 0, "is_reserved": 0, "fusion_lat": 0.0, "lat": 38.89424366666667, "fusion_lon": 0.0, "rental_uris": {"ios": "https://dc.lft.to/lastmile_qr_scan", "android": "https://dc.lft.to/lastmile_qr_scan"}, "lon": -77.0213365, "bike_id": "1253e3857b60cf4251c80ea9a5f70a42", "type": "electric_scooter", "name": "1253e3857b60cf4251c80ea9a5f70a42"}, {"is_disabled": 0, "is_reserved": 0, "fusion_lat": 0.0, "lat": 38.93210633333333, "fusion_lon": 0.0, "rental_uris": {"ios": "https://dc.lft.to/lastmile_qr_scan", "android": "https://dc.lft.to/lastmile_qr_scan"}, "lon": -77.036496, "bike_id": "1dadc8386e254adb02daa212e9c14a6f", "type": "electric_scooter", "name": "1dadc8386e254adb02daa212e9c14a6f"}, {"is_disabled": 0, "is_reserved": 0, "fusion_lat": 0.0, "lat": 38.924474833333335, "fusion_lon": 0.0, "rental_uris": {"ios": "https://dc.lft.to/lastmile_qr_scan", "android": "https://dc.lft.to/lastmile_qr_scan"}, "lon": -77.03306133333334, "bike_id": "40a1c71f18b99ee814b5b3a120a416c4", "type": "electric_scooter", "name": "40a1c71f18b99ee814b5b3a120a416c4"}, {"is_disabled": 0, "is_reserved": 0, "fusion_lat": 0.0, "lat": 38.9246135, "fusion_lon": 0.0, "rental_uris": {"ios": "https://dc.lft.to/lastmile_qr_scan", "android": "https://dc.lft.to/lastmile_qr_scan"}, "lon": -77.032939, "bike_id": "fe7b5a8f70e53565e0aa7a0b57f3eb2f", "type": "electric_scooter", "name": "fe7b5a8f70e53565e0aa7a0b57f3eb2f"}, {"is_disabled": 0, "is_reserved": 0, "fusion_lat": 0.0, "lat": 38.93947083333333, "fusion_lon": 0.0, "rental_uris": {"ios": "https://dc.lft.to/lastmile_qr_scan", "android": "https://dc.lft.to/lastmile_qr_scan"}, "lon": -77.02181183333333, "bike_id": "3b126f7ea07c406b179116e918ef619a", "type": "electric_scooter", "name": "3b126f7ea07c406b179116e918ef619a"}, {"is_disabled": 0, "is_reserved": 0, "fusion_lat": 0.0, "lat": 38.91902833333333, "fusion_lon": 0.0, "rental_uris": {"ios": "https://dc.lft.to/lastmile_qr_scan", "android": "https://dc.lft.to/lastmile_qr_scan"}, "lon": -77.00049483333333, "bike_id": "efd3cfc00b70a26e0c942d19eedefd6e", "type": "electric_scooter", "name": "efd3cfc00b70a26e0c942d19eedefd6e"}, {"is_disabled": 0, "is_reserved": 0, "fusion_lat": 0.0, "lat": 39.00080533333333, "fusion_lon": 0.0, "rental_uris": {"ios": "https://dc.lft.to/lastmile_qr_scan", "android": "https://dc.lft.to/lastmile_qr_scan"}, "lon": -77.00629033333334, "bike_id": "9d916fbfe46182becfe4d337f6f0eaef", "type": "electric_bike", "name": "9d916fbfe46182becfe4d337f6f0eaef"}, {"is_disabled": 0, "is_reserved": 0, "fusion_lat": 0.0, "lat": 38.8752695, "fusion_lon": 0.0, "rental_uris": {"ios": "https://dc.lft.to/lastmile_qr_scan", "android": "https://dc.lft.to/lastmile_qr_scan"}, "lon": -77.01225783333334, "bike_id": "36b6867f1a5b5bc114f08b9d001e38da", "type": "electric_scooter", "name": "36b6867f1a5b5bc114f08b9d001e38da"}, {"is_disabled": 0, "is_reserved": 0, "fusion_lat": 0.0, "lat": 38.9270425, "fusion_lon": 0.0, "rental_uris": {"ios": "https://dc.lft.to/lastmile_qr_scan", "android": "https://dc.lft.to/lastmile_qr_scan"}, "lon": -76.96081083333334, "bike_id": "52ddf72bc6ac6661e793f29277247f2a", "type": "electric_scooter", "name": "52ddf72bc6ac6661e793f29277247f2a"}, {"is_disabled": 0, "is_reserved": 0, "fusion_lat": 0.0, "lat": 38.91780283333333, "fusion_lon": 0.0, "rental_uris": {"ios": "https://dc.lft.to/lastmile_qr_scan", "android": "https://dc.lft.to/lastmile_qr_scan"}, "lon": -77.02354816666667, "bike_id": "a380cf9a45e15d63939d86845b2b32ab", "type": "electric_scooter", "name": "a380cf9a45e15d63939d86845b2b32ab"}, {"is_disabled": 0, "is_reserved": 0, "fusion_lat": 0.0, "lat": 38.8422895, "fusion_lon": 0.0, "rental_uris": {"ios": "https://dc.lft.to/lastmile_qr_scan", "android": "https://dc.lft.to/lastmile_qr_scan"}, "lon": -76.94891566666666, "bike_id": "ef8daad75b007c4c2f376d23d05af944", "type": "electric_bike", "name": "ef8daad75b007c4c2f376d23d05af944"}, {"is_disabled": 0, "is_reserved": 0, "fusion_lat": 0.0, "lat": 38.887752166666665, "fusion_lon": 0.0, "rental_uris": {"ios": "https://dc.lft.to/lastmile_qr_scan", "android": "https://dc.lft.to/lastmile_qr_scan"}, "lon": -76.93260466666666, "bike_id": "3074639ff4d918d258c610d507d96710", "type": "electric_scooter", "name": "3074639ff4d918d258c610d507d96710"}, {"is_disabled": 0, "is_reserved": 0, "fusion_lat": 0.0, "lat": 38.8974135, "fusion_lon": 0.0, "rental_uris": {"ios": "https://dc.lft.to/lastmile_qr_scan", "android": "https://dc.lft.to/lastmile_qr_scan"}, "lon": -77.01992983333334, "bike_id": "830e0a363f9d304955b46260c002f780", "type": "electric_scooter", "name": "830e0a363f9d304955b46260c002f780"}, {"is_disabled": 0, "is_reserved": 0, "fusion_lat": 0.0, "lat": 38.92150766666666, "fusion_lon": 0.0, "rental_uris": {"ios": "https://dc.lft.to/lastmile_qr_scan", "android": "https://dc.lft.to/lastmile_qr_scan"}, "lon": -77.036534, "bike_id": "48203501042ab2f2b6b488071e950068", "type": "electric_scooter", "name": "48203501042ab2f2b6b488071e950068"}, {"is_disabled": 0, "is_reserved": 0, "fusion_lat": 0.0, "lat": 38.920753833333336, "fusion_lon": 0.0, "rental_uris": {"ios": "https://dc.lft.to/lastmile_qr_scan", "android": "https://dc.lft.to/lastmile_qr_scan"}, "lon": -77.02570933333334, "bike_id": "4573a989bb83f3e5272554adefa5855b", "type": "electric_scooter", "name": "4573a989bb83f3e5272554adefa5855b"}, {"is_disabled": 0, "is_reserved": 0, "fusion_lat": 0.0, "lat": 38.879009, "fusion_lon": 0.0, "rental_uris": {"ios": "https://dc.lft.to/lastmile_qr_scan", "android": "https://dc.lft.to/lastmile_qr_scan"}, "lon": -77.0055445, "bike_id": "83a68d6d40bbd4d91c94d7f40705829e", "type": "electric_scooter", "name": "83a68d6d40bbd4d91c94d7f40705829e"}, {"is_disabled": 0, "is_reserved": 0, "fusion_lat": 0.0, "lat": 38.9543115, "fusion_lon": 0.0, "rental_uris": {"ios": "https://dc.lft.to/lastmile_qr_scan", "android": "https://dc.lft.to/lastmile_qr_scan"}, "lon": -77.01847766666667, "bike_id": "f0735e77a65ae47e570b78d7ee6204d5", "type": "electric_scooter", "name": "f0735e77a65ae47e570b78d7ee6204d5"}, {"is_disabled": 0, "is_reserved": 0, "fusion_lat": 0.0, "lat": 38.9837035, "fusion_lon": 0.0, "rental_uris": {"ios": "https://dc.lft.to/lastmile_qr_scan", "android": "https://dc.lft.to/lastmile_qr_scan"}, "lon": -76.98850933333334, "bike_id": "77146397818e8bce7a19dd6e2aae3f57", "type": "electric_bike", "name": "77146397818e8bce7a19dd6e2aae3f57"}, {"is_disabled": 0, "is_reserved": 0, "fusion_lat": 0.0, "lat": 38.9111375, "fusion_lon": 0.0, "rental_uris": {"ios": "https://dc.lft.to/lastmile_qr_scan", "android": "https://dc.lft.to/lastmile_qr_scan"}, "lon": -77.03302783333334, "bike_id": "bd853e07cdde3d394a79737008421063", "type": "electric_scooter", "name": "bd853e07cdde3d394a79737008421063"}, {"is_disabled": 0, "is_reserved": 0, "fusion_lat": 0.0, "lat": 38.896072, "fusion_lon": 0.0, "rental_uris": {"ios": "https://dc.lft.to/lastmile_qr_scan", "android": "https://dc.lft.to/lastmile_qr_scan"}, "lon": -77.04683566666667, "bike_id": "62fddfdce65b788d58e97d11fbcb7f0f", "type": "electric_scooter", "name": "62fddfdce65b788d58e97d11fbcb7f0f"}, {"is_disabled": 0, "is_reserved": 0, "fusion_lat": 0.0, "lat": 38.92486866666667, "fusion_lon": 0.0, "rental_uris": {"ios": "https://dc.lft.to/lastmile_qr_scan", "android": "https://dc.lft.to/lastmile_qr_scan"}, "lon": -77.02694466666667, "bike_id": "bee8c7bf47b6f7ef83bd95a60e215427", "type": "electric_scooter", "name": "bee8c7bf47b6f7ef83bd95a60e215427"}, {"is_disabled": 0, "is_reserved": 0, "fusion_lat": 0.0, "lat": 38.9177485, "fusion_lon": 0.0, "rental_uris": {"ios": "https://dc.lft.to/lastmile_qr_scan", "android": "https://dc.lft.to/lastmile_qr_scan"}, "lon": -77.0269315, "bike_id": "894488e17a9ed9f6517c456245e0d1e5", "type": "electric_scooter", "name": "894488e17a9ed9f6517c456245e0d1e5"}, {"is_disabled": 0, "is_reserved": 0, "fusion_lat": 0.0, "lat": 38.93740116666667, "fusion_lon": 0.0, "rental_uris": {"ios": "https://dc.lft.to/lastmile_qr_scan", "android": "https://dc.lft.to/lastmile_qr_scan"}, "lon": -77.07359216666667, "bike_id": "14779b7d43efbb9843f45dfb8544f2ae", "type": "electric_scooter", "name": "14779b7d43efbb9843f45dfb8544f2ae"}, {"is_disabled": 0, "is_reserved": 0, "fusion_lat": 0.0, "lat": 38.85902566666667, "fusion_lon": 0.0, "rental_uris": {"ios": "https://dc.lft.to/lastmile_qr_scan", "android": "https://dc.lft.to/lastmile_qr_scan"}, "lon": -77.095535, "bike_id": "9df359ae69feceb820cb9e4c5c0f120b", "type": "electric_bike", "name": "9df359ae69feceb820cb9e4c5c0f120b"}, {"is_disabled": 0, "is_reserved": 0, "fusion_lat": 0.0, "lat": 38.8839925, "fusion_lon": 0.0, "rental_uris": {"ios": "https://dc.lft.to/lastmile_qr_scan", "android": "https://dc.lft.to/lastmile_qr_scan"}, "lon": -76.93042466666667, "bike_id": "d9cac152a56f4697c8de145497e91cda", "type": "electric_scooter", "name": "d9cac152a56f4697c8de145497e91cda"}, {"is_disabled": 0, "is_reserved": 0, "fusion_lat": 0.0, "lat": 38.957014, "fusion_lon": 0.0, "rental_uris": {"ios": "https://dc.lft.to/lastmile_qr_scan", "android": "https://dc.lft.to/lastmile_qr_scan"}, "lon": -77.35967616666667, "bike_id": "d787f5e1e41e284660517655ed795adc", "type": "electric_bike", "name": "d787f5e1e41e284660517655ed795adc"}, {"is_disabled": 0, "is_reserved": 0, "fusion_lat": 0.0, "lat": 38.884535666666665, "fusion_lon": 0.0, "rental_uris": {"ios": "https://dc.lft.to/lastmile_qr_scan", "android": "https://dc.lft.to/lastmile_qr_scan"}, "lon": -77.00899033333333, "bike_id": "89b0a3576a291deeb198278252aaea5d", "type": "electric_scooter", "name": "89b0a3576a291deeb198278252aaea5d"}, {"is_disabled": 0, "is_reserved": 0, "fusion_lat": 0.0, "lat": 39.0843325, "fusion_lon": 0.0, "rental_uris": {"ios": "https://dc.lft.to/lastmile_qr_scan", "android": "https://dc.lft.to/lastmile_qr_scan"}, "lon": -76.95140533333333, "bike_id": "095c66b9386d32f8b6fa13ce0f5b5438", "type": "electric_bike", "name": "095c66b9386d32f8b6fa13ce0f5b5438"}, {"is_disabled": 0, "is_reserved": 0, "fusion_lat": 0.0, "lat": 38.908565833333334, "fusion_lon": 0.0, "rental_uris": {"ios": "https://dc.lft.to/lastmile_qr_scan", "android": "https://dc.lft.to/lastmile_qr_scan"}, "lon": -77.0007255, "bike_id": "22b6ba8655229f16f8173b2ccf7ab097", "type": "electric_scooter", "name": "22b6ba8655229f16f8173b2ccf7ab097"}, {"is_disabled": 0, "is_reserved": 0, "fusion_lat": 0.0, "lat": 38.88374916666667, "fusion_lon": 0.0, "rental_uris": {"ios": "https://dc.lft.to/lastmile_qr_scan", "android": "https://dc.lft.to/lastmile_qr_scan"}, "lon": -76.92371183333333, "bike_id": "0400e3cfa6c67ae80e4928708e9bb59a", "type": "electric_bike", "name": "0400e3cfa6c67ae80e4928708e9bb59a"}, {"is_disabled": 0, "is_reserved": 0, "fusion_lat": 0.0, "lat": 38.89263483333333, "fusion_lon": 0.0, "rental_uris": {"ios": "https://dc.lft.to/lastmile_qr_scan", "android": "https://dc.lft.to/lastmile_qr_scan"}, "lon": -77.05026066666667, "bike_id": "547596b2365aa14b146aff22afcb33dc", "type": "electric_scooter", "name": "547596b2365aa14b146aff22afcb33dc"}, {"is_disabled": 0, "is_reserved": 0, "fusion_lat": 0.0, "lat": 38.89551066666667, "fusion_lon": 0.0, "rental_uris": {"ios": "https://dc.lft.to/lastmile_qr_scan", "android": "https://dc.lft.to/lastmile_qr_scan"}, "lon": -77.02711816666667, "bike_id": "0bd9757c4e2ec4cade17e921e5041b8e", "type": "electric_scooter", "name": "0bd9757c4e2ec4cade17e921e5041b8e"}, {"is_disabled": 0, "is_reserved": 0, "fusion_lat": 0.0, "lat": 38.90233466666667, "fusion_lon": 0.0, "rental_uris": {"ios": "https://dc.lft.to/lastmile_qr_scan", "android": "https://dc.lft.to/lastmile_qr_scan"}, "lon": -77.05338266666666, "bike_id": "ac8f7b3c355ed1c8ad32342d550e95a6", "type": "electric_scooter", "name": "ac8f7b3c355ed1c8ad32342d550e95a6"}, {"is_disabled": 0, "is_reserved": 0, "fusion_lat": 0.0, "lat": 38.892367666666665, "fusion_lon": 0.0, "rental_uris": {"ios": "https://dc.lft.to/lastmile_qr_scan", "android": "https://dc.lft.to/lastmile_qr_scan"}, "lon": -77.02964483333334, "bike_id": "842825b618ebe86e4d144ecae9ce6874", "type": "electric_scooter", "name": "842825b618ebe86e4d144ecae9ce6874"}, {"is_disabled": 0, "is_reserved": 0, "fusion_lat": 0.0, "lat": 38.9104735, "fusion_lon": 0.0, "rental_uris": {"ios": "https://dc.lft.to/lastmile_qr_scan", "android": "https://dc.lft.to/lastmile_qr_scan"}, "lon": -77.04350633333334, "bike_id": "92e79b3c0d1c2f39084457c821970af5", "type": "electric_scooter", "name": "92e79b3c0d1c2f39084457c821970af5"}, {"is_disabled": 0, "is_reserved": 0, "fusion_lat": 0.0, "lat": 38.928549, "fusion_lon": 0.0, "rental_uris": {"ios": "https://dc.lft.to/lastmile_qr_scan", "android": "https://dc.lft.to/lastmile_qr_scan"}, "lon": -77.02878783333334, "bike_id": "45164b0de3ce4381d143ce141a320c72", "type": "electric_scooter", "name": "45164b0de3ce4381d143ce141a320c72"}, {"is_disabled": 0, "is_reserved": 0, "fusion_lat": 0.0, "lat": 38.93600816666667, "fusion_lon": 0.0, "rental_uris": {"ios": "https://dc.lft.to/lastmile_qr_scan", "android": "https://dc.lft.to/lastmile_qr_scan"}, "lon": -77.03873033333333, "bike_id": "40732bfe4e9731f096e63b6b4a6c665d", "type": "electric_scooter", "name": "40732bfe4e9731f096e63b6b4a6c665d"}, {"is_disabled": 0, "is_reserved": 0, "fusion_lat": 0.0, "lat": 38.900027, "fusion_lon": 0.0, "rental_uris": {"ios": "https://dc.lft.to/lastmile_qr_scan", "android": "https://dc.lft.to/lastmile_qr_scan"}, "lon": -77.02195583333334, "bike_id": "9d719725e3bebc1641b88ed2ca16c5a5", "type": "electric_scooter", "name": "9d719725e3bebc1641b88ed2ca16c5a5"}, {"is_disabled": 0, "is_reserved": 0, "fusion_lat": 0.0, "lat": 38.93415616666667, "fusion_lon": 0.0, "rental_uris": {"ios": "https://dc.lft.to/lastmile_qr_scan", "android": "https://dc.lft.to/lastmile_qr_scan"}, "lon": -77.04272866666666, "bike_id": "dc3c44786c51e0f78dff6e6acaa16af0", "type": "electric_scooter", "name": "dc3c44786c51e0f78dff6e6acaa16af0"}, {"is_disabled": 0, "is_reserved": 0, "fusion_lat": 0.0, "lat": 38.929906833333334, "fusion_lon": 0.0, "rental_uris": {"ios": "https://dc.lft.to/lastmile_qr_scan", "android": "https://dc.lft.to/lastmile_qr_scan"}, "lon": -77.03473683333333, "bike_id": "e3c10396fb573a869dc4fa8cebc76106", "type": "electric_scooter", "name": "e3c10396fb573a869dc4fa8cebc76106"}, {"is_disabled": 0, "is_reserved": 0, "fusion_lat": 0.0, "lat": 38.922466666666665, "fusion_lon": 0.0, "rental_uris": {"ios": "https://dc.lft.to/lastmile_qr_scan", "android": "https://dc.lft.to/lastmile_qr_scan"}, "lon": -77.02271066666667, "bike_id": "d426b5cd5ad93aca52fcf1e8c41f47b5", "type": "electric_scooter", "name": "d426b5cd5ad93aca52fcf1e8c41f47b5"}, {"is_disabled": 0, "is_reserved": 0, "fusion_lat": 0.0, "lat": 38.842810166666666, "fusion_lon": 0.0, "rental_uris": {"ios": "https://dc.lft.to/lastmile_qr_scan", "android": "https://dc.lft.to/lastmile_qr_scan"}, "lon": -76.98840083333333, "bike_id": "7b13a63f45a3fbc4f259613e89c72caa", "type": "electric_bike", "name": "7b13a63f45a3fbc4f259613e89c72caa"}, {"is_disabled": 0, "is_reserved": 0, "fusion_lat": 0.0, "lat": 38.90898883333333, "fusion_lon": 0.0, "rental_uris": {"ios": "https://dc.lft.to/lastmile_qr_scan", "android": "https://dc.lft.to/lastmile_qr_scan"}, "lon": -76.99792816666667, "bike_id": "8d43e320bb1431ba3993505c781b3ed3", "type": "electric_scooter", "name": "8d43e320bb1431ba3993505c781b3ed3"}, {"is_disabled": 0, "is_reserved": 0, "fusion_lat": 0.0, "lat": 38.89509983333333, "fusion_lon": 0.0, "rental_uris": {"ios": "https://dc.lft.to/lastmile_qr_scan", "android": "https://dc.lft.to/lastmile_qr_scan"}, "lon": -77.0256775, "bike_id": "af6574843e23caf541f51c94a0318937", "type": "electric_scooter", "name": "af6574843e23caf541f51c94a0318937"}, {"is_disabled": 0, "is_reserved": 0, "fusion_lat": 0.0, "lat": 38.925137, "fusion_lon": 0.0, "rental_uris": {"ios": "https://dc.lft.to/lastmile_qr_scan", "android": "https://dc.lft.to/lastmile_qr_scan"}, "lon": -77.023576, "bike_id": "c5d550489182654d5927568bf9ca570b", "type": "electric_scooter", "name": "c5d550489182654d5927568bf9ca570b"}, {"is_disabled": 0, "is_reserved": 0, "fusion_lat": 0.0, "lat": 38.87741466666667, "fusion_lon": 0.0, "rental_uris": {"ios": "https://dc.lft.to/lastmile_qr_scan", "android": "https://dc.lft.to/lastmile_qr_scan"}, "lon": -77.148698, "bike_id": "c035b9d109e49e85dace6286f559c3f6", "type": "electric_bike", "name": "c035b9d109e49e85dace6286f559c3f6"}, {"is_disabled": 0, "is_reserved": 0, "fusion_lat": 0.0, "lat": 38.92196583333333, "fusion_lon": 0.0, "rental_uris": {"ios": "https://dc.lft.to/lastmile_qr_scan", "android": "https://dc.lft.to/lastmile_qr_scan"}, "lon": -76.99679433333333, "bike_id": "3e9767eccb7291b252f6afae9c62d734", "type": "electric_scooter", "name": "3e9767eccb7291b252f6afae9c62d734"}, {"is_disabled": 0, "is_reserved": 0, "fusion_lat": 0.0, "lat": 38.90032466666667, "fusion_lon": 0.0, "rental_uris": {"ios": "https://dc.lft.to/lastmile_qr_scan", "android": "https://dc.lft.to/lastmile_qr_scan"}, "lon": -77.01204583333333, "bike_id": "b1db9a2eeaa24019e598e244351ef73a", "type": "electric_scooter", "name": "b1db9a2eeaa24019e598e244351ef73a"}, {"is_disabled": 0, "is_reserved": 0, "fusion_lat": 0.0, "lat": 38.885227666666665, "fusion_lon": 0.0, "rental_uris": {"ios": "https://dc.lft.to/lastmile_qr_scan", "android": "https://dc.lft.to/lastmile_qr_scan"}, "lon": -76.99614366666667, "bike_id": "f8046018dbcb80aef051b9800fa9cd1e", "type": "electric_scooter", "name": "f8046018dbcb80aef051b9800fa9cd1e"}, {"is_disabled": 0, "is_reserved": 0, "fusion_lat": 0.0, "lat": 39.0053615, "fusion_lon": 0.0, "rental_uris": {"ios": "https://dc.lft.to/lastmile_qr_scan", "android": "https://dc.lft.to/lastmile_qr_scan"}, "lon": -77.1039825, "bike_id": "0a6f43af9749b746b596ff7f64a80885", "type": "electric_bike", "name": "0a6f43af9749b746b596ff7f64a80885"}, {"is_disabled": 0, "is_reserved": 0, "fusion_lat": 0.0, "lat": 38.88108316666667, "fusion_lon": 0.0, "rental_uris": {"ios": "https://dc.lft.to/lastmile_qr_scan", "android": "https://dc.lft.to/lastmile_qr_scan"}, "lon": -77.01236316666666, "bike_id": "55886350a105ce8e101cf78d6295fa71", "type": "electric_scooter", "name": "55886350a105ce8e101cf78d6295fa71"}, {"is_disabled": 0, "is_reserved": 0, "fusion_lat": 0.0, "lat": 38.90464166666667, "fusion_lon": 0.0, "rental_uris": {"ios": "https://dc.lft.to/lastmile_qr_scan", "android": "https://dc.lft.to/lastmile_qr_scan"}, "lon": -77.06610033333334, "bike_id": "78b9501539bf48c686d0b9e95ab0a6d6", "type": "electric_bike", "name": "78b9501539bf48c686d0b9e95ab0a6d6"}, {"is_disabled": 0, "is_reserved": 0, "fusion_lat": 0.0, "lat": 38.8985965, "fusion_lon": 0.0, "rental_uris": {"ios": "https://dc.lft.to/lastmile_qr_scan", "android": "https://dc.lft.to/lastmile_qr_scan"}, "lon": -77.04878283333333, "bike_id": "39960d20214efc425a37a1d25502741c", "type": "electric_scooter", "name": "39960d20214efc425a37a1d25502741c"}, {"is_disabled": 0, "is_reserved": 0, "fusion_lat": 0.0, "lat": 38.90113783333334, "fusion_lon": 0.0, "rental_uris": {"ios": "https://dc.lft.to/lastmile_qr_scan", "android": "https://dc.lft.to/lastmile_qr_scan"}, "lon": -77.0390335, "bike_id": "f3cf1d3f6cac401b4a810ccf2835e7a5", "type": "electric_scooter", "name": "f3cf1d3f6cac401b4a810ccf2835e7a5"}, {"is_disabled": 0, "is_reserved": 0, "fusion_lat": 0.0, "lat": 38.892206333333334, "fusion_lon": 0.0, "rental_uris": {"ios": "https://dc.lft.to/lastmile_qr_scan", "android": "https://dc.lft.to/lastmile_qr_scan"}, "lon": -77.02775633333333, "bike_id": "68bbed2379d49ce70c2323908345d7d4", "type": "electric_scooter", "name": "68bbed2379d49ce70c2323908345d7d4"}, {"is_disabled": 0, "is_reserved": 0, "fusion_lat": 0.0, "lat": 38.897529166666665, "fusion_lon": 0.0, "rental_uris": {"ios": "https://dc.lft.to/lastmile_qr_scan", "android": "https://dc.lft.to/lastmile_qr_scan"}, "lon": -77.02168766666666, "bike_id": "7b35349199965a6e4fb7c3980f56f33b", "type": "electric_scooter", "name": "7b35349199965a6e4fb7c3980f56f33b"}, {"is_disabled": 0, "is_reserved": 0, "fusion_lat": 0.0, "lat": 38.92070666666667, "fusion_lon": 0.0, "rental_uris": {"ios": "https://dc.lft.to/lastmile_qr_scan", "android": "https://dc.lft.to/lastmile_qr_scan"}, "lon": -77.0256415, "bike_id": "5bb3fef93f9dc43f9c3dc4b48ad27fa8", "type": "electric_scooter", "name": "5bb3fef93f9dc43f9c3dc4b48ad27fa8"}, {"is_disabled": 0, "is_reserved": 0, "fusion_lat": 0.0, "lat": 38.909550333333335, "fusion_lon": 0.0, "rental_uris": {"ios": "https://dc.lft.to/lastmile_qr_scan", "android": "https://dc.lft.to/lastmile_qr_scan"}, "lon": -77.04926683333333, "bike_id": "e936d8e95c2183202756d8381bfe1547", "type": "electric_scooter", "name": "e936d8e95c2183202756d8381bfe1547"}, {"is_disabled": 0, "is_reserved": 0, "fusion_lat": 0.0, "lat": 38.894237333333336, "fusion_lon": 0.0, "rental_uris": {"ios": "https://dc.lft.to/lastmile_qr_scan", "android": "https://dc.lft.to/lastmile_qr_scan"}, "lon": -77.05595116666667, "bike_id": "227e4e06081966f76d11fc4b72a344be", "type": "electric_scooter", "name": "227e4e06081966f76d11fc4b72a344be"}, {"is_disabled": 0, "is_reserved": 0, "fusion_lat": 0.0, "lat": 38.895062, "fusion_lon": 0.0, "rental_uris": {"ios": "https://dc.lft.to/lastmile_qr_scan", "android": "https://dc.lft.to/lastmile_qr_scan"}, "lon": -77.0228465, "bike_id": "113c8a455c5f847000067684c595d026", "type": "electric_scooter", "name": "113c8a455c5f847000067684c595d026"}, {"is_disabled": 0, "is_reserved": 0, "fusion_lat": 0.0, "lat": 38.892266166666666, "fusion_lon": 0.0, "rental_uris": {"ios": "https://dc.lft.to/lastmile_qr_scan", "android": "https://dc.lft.to/lastmile_qr_scan"}, "lon": -77.04331266666667, "bike_id": "6da809732f4684937d69308fb079b408", "type": "electric_scooter", "name": "6da809732f4684937d69308fb079b408"}, {"is_disabled": 0, "is_reserved": 0, "fusion_lat": 0.0, "lat": 38.920486333333336, "fusion_lon": 0.0, "rental_uris": {"ios": "https://dc.lft.to/lastmile_qr_scan", "android": "https://dc.lft.to/lastmile_qr_scan"}, "lon": -77.02573283333334, "bike_id": "e39b88177000d5f50cfa7a9d667fb71c", "type": "electric_scooter", "name": "e39b88177000d5f50cfa7a9d667fb71c"}, {"is_disabled": 0, "is_reserved": 0, "fusion_lat": 0.0, "lat": 38.824306166666666, "fusion_lon": 0.0, "rental_uris": {"ios": "https://dc.lft.to/lastmile_qr_scan", "android": "https://dc.lft.to/lastmile_qr_scan"}, "lon": -77.120405, "bike_id": "e65645b0fab300b55d0628bed0d46051", "type": "electric_bike", "name": "e65645b0fab300b55d0628bed0d46051"}, {"is_disabled": 0, "is_reserved": 0, "fusion_lat": 0.0, "lat": 38.86568183333333, "fusion_lon": 0.0, "rental_uris": {"ios": "https://dc.lft.to/lastmile_qr_scan", "android": "https://dc.lft.to/lastmile_qr_scan"}, "lon": -76.97468, "bike_id": "a6600f99f34de1aa52bbacf89d1d7550", "type": "electric_bike", "name": "a6600f99f34de1aa52bbacf89d1d7550"}, {"is_disabled": 0, "is_reserved": 0, "fusion_lat": 0.0, "lat": 38.882191666666664, "fusion_lon": 0.0, "rental_uris": {"ios": "https://dc.lft.to/lastmile_qr_scan", "android": "https://dc.lft.to/lastmile_qr_scan"}, "lon": -76.99736616666667, "bike_id": "a1206bfc25013c2da6e1ec9c90b191ca", "type": "electric_scooter", "name": "a1206bfc25013c2da6e1ec9c90b191ca"}, {"is_disabled": 0, "is_reserved": 0, "fusion_lat": 0.0, "lat": 38.873072, "fusion_lon": 0.0, "rental_uris": {"ios": "https://dc.lft.to/lastmile_qr_scan", "android": "https://dc.lft.to/lastmile_qr_scan"}, "lon": -77.010726, "bike_id": "3b814d0b05180349cbab76cedb7dfa58", "type": "electric_scooter", "name": "3b814d0b05180349cbab76cedb7dfa58"}, {"is_disabled": 0, "is_reserved": 0, "fusion_lat": 0.0, "lat": 38.9294885, "fusion_lon": 0.0, "rental_uris": {"ios": "https://dc.lft.to/lastmile_qr_scan", "android": "https://dc.lft.to/lastmile_qr_scan"}, "lon": -77.05482916666666, "bike_id": "97a9e4bdb9559c2d0cde7e1319f58065", "type": "electric_scooter", "name": "97a9e4bdb9559c2d0cde7e1319f58065"}, {"is_disabled": 0, "is_reserved": 0, "fusion_lat": 0.0, "lat": 38.94598583333333, "fusion_lon": 0.0, "rental_uris": {"ios": "https://dc.lft.to/lastmile_qr_scan", "android": "https://dc.lft.to/lastmile_qr_scan"}, "lon": -77.02670833333333, "bike_id": "a06e14023a8a2385f3916c6ac68fa3d4", "type": "electric_scooter", "name": "a06e14023a8a2385f3916c6ac68fa3d4"}, {"is_disabled": 0, "is_reserved": 0, "fusion_lat": 0.0, "lat": 38.856397, "fusion_lon": 0.0, "rental_uris": {"ios": "https://dc.lft.to/lastmile_qr_scan", "android": "https://dc.lft.to/lastmile_qr_scan"}, "lon": -77.06830116666667, "bike_id": "3f41f063077f22c490667e76d1ba6138", "type": "electric_bike", "name": "3f41f063077f22c490667e76d1ba6138"}, {"is_disabled": 0, "is_reserved": 0, "fusion_lat": 0.0, "lat": 38.917835333333336, "fusion_lon": 0.0, "rental_uris": {"ios": "https://dc.lft.to/lastmile_qr_scan", "android": "https://dc.lft.to/lastmile_qr_scan"}, "lon": -77.02355833333333, "bike_id": "572f846775255d08abae5f308f3a850a", "type": "electric_scooter", "name": "572f846775255d08abae5f308f3a850a"}, {"is_disabled": 0, "is_reserved": 0, "fusion_lat": 0.0, "lat": 38.898228833333334, "fusion_lon": 0.0, "rental_uris": {"ios": "https://dc.lft.to/lastmile_qr_scan", "android": "https://dc.lft.to/lastmile_qr_scan"}, "lon": -77.00210583333333, "bike_id": "8de2fa028f6e9433a162531ded6fa143", "type": "electric_scooter", "name": "8de2fa028f6e9433a162531ded6fa143"}, {"is_disabled": 0, "is_reserved": 0, "fusion_lat": 0.0, "lat": 38.89252283333333, "fusion_lon": 0.0, "rental_uris": {"ios": "https://dc.lft.to/lastmile_qr_scan", "android": "https://dc.lft.to/lastmile_qr_scan"}, "lon": -77.03955216666667, "bike_id": "a06e403ce41fc4dee5935fe1156ee98e", "type": "electric_scooter", "name": "a06e403ce41fc4dee5935fe1156ee98e"}, {"is_disabled": 0, "is_reserved": 0, "fusion_lat": 0.0, "lat": 38.924422, "fusion_lon": 0.0, "rental_uris": {"ios": "https://dc.lft.to/lastmile_qr_scan", "android": "https://dc.lft.to/lastmile_qr_scan"}, "lon": -77.03402233333334, "bike_id": "602bed8e575361d1cc8072eb3bd278f0", "type": "electric_scooter", "name": "602bed8e575361d1cc8072eb3bd278f0"}, {"is_disabled": 0, "is_reserved": 0, "fusion_lat": 0.0, "lat": 38.94202216666667, "fusion_lon": 0.0, "rental_uris": {"ios": "https://dc.lft.to/lastmile_qr_scan", "android": "https://dc.lft.to/lastmile_qr_scan"}, "lon": -77.02562783333333, "bike_id": "98533bc6c4a1b910a9a76f705436e249", "type": "electric_scooter", "name": "98533bc6c4a1b910a9a76f705436e249"}, {"is_disabled": 0, "is_reserved": 0, "fusion_lat": 0.0, "lat": 38.92070566666666, "fusion_lon": 0.0, "rental_uris": {"ios": "https://dc.lft.to/lastmile_qr_scan", "android": "https://dc.lft.to/lastmile_qr_scan"}, "lon": -77.02560783333334, "bike_id": "0d2bda671c59f18f17cea7bbfdbe6f26", "type": "electric_scooter", "name": "0d2bda671c59f18f17cea7bbfdbe6f26"}, {"is_disabled": 0, "is_reserved": 0, "fusion_lat": 0.0, "lat": 38.892361333333334, "fusion_lon": 0.0, "rental_uris": {"ios": "https://dc.lft.to/lastmile_qr_scan", "android": "https://dc.lft.to/lastmile_qr_scan"}, "lon": -77.02209133333334, "bike_id": "ca0a9f56e17d9b6ef56741cd0a1c767c", "type": "electric_scooter", "name": "ca0a9f56e17d9b6ef56741cd0a1c767c"}, {"is_disabled": 0, "is_reserved": 0, "fusion_lat": 0.0, "lat": 38.8999885, "fusion_lon": 0.0, "rental_uris": {"ios": "https://dc.lft.to/lastmile_qr_scan", "android": "https://dc.lft.to/lastmile_qr_scan"}, "lon": -77.021986, "bike_id": "a6a886804c2e690f25f6a7200d0ca680", "type": "electric_scooter", "name": "a6a886804c2e690f25f6a7200d0ca680"}, {"is_disabled": 0, "is_reserved": 0, "fusion_lat": 0.0, "lat": 38.938588333333335, "fusion_lon": 0.0, "rental_uris": {"ios": "https://dc.lft.to/lastmile_qr_scan", "android": "https://dc.lft.to/lastmile_qr_scan"}, "lon": -76.99432533333334, "bike_id": "317095102a913aa8d3c3a85f9a4fa58c", "type": "electric_scooter", "name": "317095102a913aa8d3c3a85f9a4fa58c"}, {"is_disabled": 0, "is_reserved": 0, "fusion_lat": 0.0, "lat": 38.92376016666667, "fusion_lon": 0.0, "rental_uris": {"ios": "https://dc.lft.to/lastmile_qr_scan", "android": "https://dc.lft.to/lastmile_qr_scan"}, "lon": -77.0402085, "bike_id": "af2ee06d4f21f9107951a2505103dcf5", "type": "electric_scooter", "name": "af2ee06d4f21f9107951a2505103dcf5"}, {"is_disabled": 0, "is_reserved": 0, "fusion_lat": 0.0, "lat": 38.876656833333335, "fusion_lon": 0.0, "rental_uris": {"ios": "https://dc.lft.to/lastmile_qr_scan", "android": "https://dc.lft.to/lastmile_qr_scan"}, "lon": -77.002106, "bike_id": "386f3d359a08952c8213eb2fe7d22e56", "type": "electric_scooter", "name": "386f3d359a08952c8213eb2fe7d22e56"}, {"is_disabled": 0, "is_reserved": 0, "fusion_lat": 0.0, "lat": 38.9355475, "fusion_lon": 0.0, "rental_uris": {"ios": "https://dc.lft.to/lastmile_qr_scan", "android": "https://dc.lft.to/lastmile_qr_scan"}, "lon": -77.07706316666666, "bike_id": "2550bf46b83d909ec75243fff9eef606", "type": "electric_scooter", "name": "2550bf46b83d909ec75243fff9eef606"}, {"is_disabled": 0, "is_reserved": 0, "fusion_lat": 0.0, "lat": 38.922399666666664, "fusion_lon": 0.0, "rental_uris": {"ios": "https://dc.lft.to/lastmile_qr_scan", "android": "https://dc.lft.to/lastmile_qr_scan"}, "lon": -77.03662616666666, "bike_id": "c5e4c3c61775936924c883a7c88fa512", "type": "electric_scooter", "name": "c5e4c3c61775936924c883a7c88fa512"}, {"is_disabled": 0, "is_reserved": 0, "fusion_lat": 0.0, "lat": 38.8946595, "fusion_lon": 0.0, "rental_uris": {"ios": "https://dc.lft.to/lastmile_qr_scan", "android": "https://dc.lft.to/lastmile_qr_scan"}, "lon": -77.00234033333334, "bike_id": "0e476245018c40e41b192cbd82b01e15", "type": "electric_scooter", "name": "0e476245018c40e41b192cbd82b01e15"}, {"is_disabled": 0, "is_reserved": 0, "fusion_lat": 0.0, "lat": 38.899693166666665, "fusion_lon": 0.0, "rental_uris": {"ios": "https://dc.lft.to/lastmile_qr_scan", "android": "https://dc.lft.to/lastmile_qr_scan"}, "lon": -76.92630866666667, "bike_id": "a90be25b8c55e609cca7c88996cd3fd6", "type": "electric_scooter", "name": "a90be25b8c55e609cca7c88996cd3fd6"}, {"is_disabled": 0, "is_reserved": 0, "fusion_lat": 0.0, "lat": 38.88883416666667, "fusion_lon": 0.0, "rental_uris": {"ios": "https://dc.lft.to/lastmile_qr_scan", "android": "https://dc.lft.to/lastmile_qr_scan"}, "lon": -76.99035116666667, "bike_id": "e3495fd215500a6e0634af15972de259", "type": "electric_scooter", "name": "e3495fd215500a6e0634af15972de259"}, {"is_disabled": 0, "is_reserved": 0, "fusion_lat": 0.0, "lat": 38.90301866666667, "fusion_lon": 0.0, "rental_uris": {"ios": "https://dc.lft.to/lastmile_qr_scan", "android": "https://dc.lft.to/lastmile_qr_scan"}, "lon": -77.03203616666667, "bike_id": "b901922a4330c02283d892ed889e439d", "type": "electric_scooter", "name": "b901922a4330c02283d892ed889e439d"}, {"is_disabled": 0, "is_reserved": 0, "fusion_lat": 0.0, "lat": 38.905967, "fusion_lon": 0.0, "rental_uris": {"ios": "https://dc.lft.to/lastmile_qr_scan", "android": "https://dc.lft.to/lastmile_qr_scan"}, "lon": -77.00697966666667, "bike_id": "d87c22d118486dfc739520ddff3d08a8", "type": "electric_scooter", "name": "d87c22d118486dfc739520ddff3d08a8"}, {"is_disabled": 0, "is_reserved": 0, "fusion_lat": 0.0, "lat": 38.923534, "fusion_lon": 0.0, "rental_uris": {"ios": "https://dc.lft.to/lastmile_qr_scan", "android": "https://dc.lft.to/lastmile_qr_scan"}, "lon": -76.97206933333334, "bike_id": "10ebf07551d96f024d93605da698d724", "type": "electric_scooter", "name": "10ebf07551d96f024d93605da698d724"}, {"is_disabled": 0, "is_reserved": 0, "fusion_lat": 0.0, "lat": 38.9534825, "fusion_lon": 0.0, "rental_uris": {"ios": "https://dc.lft.to/lastmile_qr_scan", "android": "https://dc.lft.to/lastmile_qr_scan"}, "lon": -77.08152133333333, "bike_id": "7017971fb751cf1cd19bed0a0f2811d3", "type": "electric_scooter", "name": "7017971fb751cf1cd19bed0a0f2811d3"}, {"is_disabled": 0, "is_reserved": 0, "fusion_lat": 0.0, "lat": 39.08472783333333, "fusion_lon": 0.0, "rental_uris": {"ios": "https://dc.lft.to/lastmile_qr_scan", "android": "https://dc.lft.to/lastmile_qr_scan"}, "lon": -76.9507015, "bike_id": "c51705d55ae91b6500bce29aa3892013", "type": "electric_bike", "name": "c51705d55ae91b6500bce29aa3892013"}, {"is_disabled": 0, "is_reserved": 0, "fusion_lat": 0.0, "lat": 38.917890166666666, "fusion_lon": 0.0, "rental_uris": {"ios": "https://dc.lft.to/lastmile_qr_scan", "android": "https://dc.lft.to/lastmile_qr_scan"}, "lon": -77.03211683333333, "bike_id": "e5ae19038c13b8734f0ef4d4f7ffc750", "type": "electric_scooter", "name": "e5ae19038c13b8734f0ef4d4f7ffc750"}, {"is_disabled": 0, "is_reserved": 0, "fusion_lat": 0.0, "lat": 39.025189833333336, "fusion_lon": 0.0, "rental_uris": {"ios": "https://dc.lft.to/lastmile_qr_scan", "android": "https://dc.lft.to/lastmile_qr_scan"}, "lon": -77.01964433333333, "bike_id": "fac048066470ff9f566b72a2fed7f0d7", "type": "electric_bike", "name": "fac048066470ff9f566b72a2fed7f0d7"}, {"is_disabled": 0, "is_reserved": 0, "fusion_lat": 0.0, "lat": 38.96780783333333, "fusion_lon": 0.0, "rental_uris": {"ios": "https://dc.lft.to/lastmile_qr_scan", "android": "https://dc.lft.to/lastmile_qr_scan"}, "lon": -76.996466, "bike_id": "9376240d7f7e85238bd39afedf5a4fb6", "type": "electric_bike", "name": "9376240d7f7e85238bd39afedf5a4fb6"}, {"is_disabled": 0, "is_reserved": 0, "fusion_lat": 0.0, "lat": 38.91074783333333, "fusion_lon": 0.0, "rental_uris": {"ios": "https://dc.lft.to/lastmile_qr_scan", "android": "https://dc.lft.to/lastmile_qr_scan"}, "lon": -77.02182416666666, "bike_id": "30939daa413168087df90fd308d9bcaf", "type": "electric_scooter", "name": "30939daa413168087df90fd308d9bcaf"}, {"is_disabled": 0, "is_reserved": 0, "fusion_lat": 0.0, "lat": 38.911307666666666, "fusion_lon": 0.0, "rental_uris": {"ios": "https://dc.lft.to/lastmile_qr_scan", "android": "https://dc.lft.to/lastmile_qr_scan"}, "lon": -76.99746783333333, "bike_id": "41a64b2f11c0263464e4f4a9823114cc", "type": "electric_scooter", "name": "41a64b2f11c0263464e4f4a9823114cc"}, {"is_disabled": 0, "is_reserved": 0, "fusion_lat": 0.0, "lat": 38.90508583333333, "fusion_lon": 0.0, "rental_uris": {"ios": "https://dc.lft.to/lastmile_qr_scan", "android": "https://dc.lft.to/lastmile_qr_scan"}, "lon": -77.06113166666667, "bike_id": "b939d4a4140fc9d5bc7083c7d8e94381", "type": "electric_scooter", "name": "b939d4a4140fc9d5bc7083c7d8e94381"}, {"is_disabled": 0, "is_reserved": 0, "fusion_lat": 0.0, "lat": 38.879377166666664, "fusion_lon": 0.0, "rental_uris": {"ios": "https://dc.lft.to/lastmile_qr_scan", "android": "https://dc.lft.to/lastmile_qr_scan"}, "lon": -77.004056, "bike_id": "72ec85f1b2b8a9db3183ece127a5f027", "type": "electric_scooter", "name": "72ec85f1b2b8a9db3183ece127a5f027"}, {"is_disabled": 0, "is_reserved": 0, "fusion_lat": 0.0, "lat": 38.963805, "fusion_lon": 0.0, "rental_uris": {"ios": "https://dc.lft.to/lastmile_qr_scan", "android": "https://dc.lft.to/lastmile_qr_scan"}, "lon": -77.01973666666666, "bike_id": "848763c17372962a72df164d9a20437a", "type": "electric_bike", "name": "848763c17372962a72df164d9a20437a"}, {"is_disabled": 0, "is_reserved": 0, "fusion_lat": 0.0, "lat": 38.95099833333333, "fusion_lon": 0.0, "rental_uris": {"ios": "https://dc.lft.to/lastmile_qr_scan", "android": "https://dc.lft.to/lastmile_qr_scan"}, "lon": -77.02195883333333, "bike_id": "2c03e43e0d3888ed2bbff0aa7855db95", "type": "electric_scooter", "name": "2c03e43e0d3888ed2bbff0aa7855db95"}, {"is_disabled": 0, "is_reserved": 0, "fusion_lat": 0.0, "lat": 38.88476, "fusion_lon": 0.0, "rental_uris": {"ios": "https://dc.lft.to/lastmile_qr_scan", "android": "https://dc.lft.to/lastmile_qr_scan"}, "lon": -77.0317165, "bike_id": "055cbb86d593e8093135533a0216d85c", "type": "electric_bike", "name": "055cbb86d593e8093135533a0216d85c"}, {"is_disabled": 0, "is_reserved": 0, "fusion_lat": 0.0, "lat": 38.9479285, "fusion_lon": 0.0, "rental_uris": {"ios": "https://dc.lft.to/lastmile_qr_scan", "android": "https://dc.lft.to/lastmile_qr_scan"}, "lon": -77.07895966666666, "bike_id": "3936ce03fcaf1db422f33def29d50d5a", "type": "electric_scooter", "name": "3936ce03fcaf1db422f33def29d50d5a"}, {"is_disabled": 0, "is_reserved": 0, "fusion_lat": 0.0, "lat": 38.92287833333334, "fusion_lon": 0.0, "rental_uris": {"ios": "https://dc.lft.to/lastmile_qr_scan", "android": "https://dc.lft.to/lastmile_qr_scan"}, "lon": -77.029711, "bike_id": "9ff1420bd2b898f0370dbe12a923ca67", "type": "electric_scooter", "name": "9ff1420bd2b898f0370dbe12a923ca67"}, {"is_disabled": 0, "is_reserved": 0, "fusion_lat": 0.0, "lat": 38.92695916666667, "fusion_lon": 0.0, "rental_uris": {"ios": "https://dc.lft.to/lastmile_qr_scan", "android": "https://dc.lft.to/lastmile_qr_scan"}, "lon": -77.014556, "bike_id": "9af80d7c6c4f5c83f39d238a134b60fc", "type": "electric_scooter", "name": "9af80d7c6c4f5c83f39d238a134b60fc"}, {"is_disabled": 0, "is_reserved": 0, "fusion_lat": 0.0, "lat": 38.89606466666667, "fusion_lon": 0.0, "rental_uris": {"ios": "https://dc.lft.to/lastmile_qr_scan", "android": "https://dc.lft.to/lastmile_qr_scan"}, "lon": -77.0450715, "bike_id": "860ceecc35fedf34807ab8338c31fc15", "type": "electric_scooter", "name": "860ceecc35fedf34807ab8338c31fc15"}, {"is_disabled": 0, "is_reserved": 0, "fusion_lat": 0.0, "lat": 38.8824325, "fusion_lon": 0.0, "rental_uris": {"ios": "https://dc.lft.to/lastmile_qr_scan", "android": "https://dc.lft.to/lastmile_qr_scan"}, "lon": -77.00918683333333, "bike_id": "6540eaabb9378296f6a7b2d95ce15060", "type": "electric_scooter", "name": "6540eaabb9378296f6a7b2d95ce15060"}, {"is_disabled": 0, "is_reserved": 0, "fusion_lat": 0.0, "lat": 38.89221916666666, "fusion_lon": 0.0, "rental_uris": {"ios": "https://dc.lft.to/lastmile_qr_scan", "android": "https://dc.lft.to/lastmile_qr_scan"}, "lon": -77.0277335, "bike_id": "a096b6de617bd7265dea9c6125e36805", "type": "electric_scooter", "name": "a096b6de617bd7265dea9c6125e36805"}, {"is_disabled": 0, "is_reserved": 0, "fusion_lat": 0.0, "lat": 38.9403055, "fusion_lon": 0.0, "rental_uris": {"ios": "https://dc.lft.to/lastmile_qr_scan", "android": "https://dc.lft.to/lastmile_qr_scan"}, "lon": -77.021254, "bike_id": "04cbe36cdcf732661b09f35168c4f73a", "type": "electric_scooter", "name": "04cbe36cdcf732661b09f35168c4f73a"}, {"is_disabled": 0, "is_reserved": 0, "fusion_lat": 0.0, "lat": 38.860213333333334, "fusion_lon": 0.0, "rental_uris": {"ios": "https://dc.lft.to/lastmile_qr_scan", "android": "https://dc.lft.to/lastmile_qr_scan"}, "lon": -77.06536816666667, "bike_id": "0c2bf2cbf0c5f3548bedf149a90c96ff", "type": "electric_bike", "name": "0c2bf2cbf0c5f3548bedf149a90c96ff"}, {"is_disabled": 0, "is_reserved": 0, "fusion_lat": 0.0, "lat": 38.885489, "fusion_lon": 0.0, "rental_uris": {"ios": "https://dc.lft.to/lastmile_qr_scan", "android": "https://dc.lft.to/lastmile_qr_scan"}, "lon": -76.95972566666667, "bike_id": "b5bd26cc9f7f127dacc0bf73597538cc", "type": "electric_scooter", "name": "b5bd26cc9f7f127dacc0bf73597538cc"}, {"is_disabled": 0, "is_reserved": 0, "fusion_lat": 0.0, "lat": 38.8747355, "fusion_lon": 0.0, "rental_uris": {"ios": "https://dc.lft.to/lastmile_qr_scan", "android": "https://dc.lft.to/lastmile_qr_scan"}, "lon": -77.00939483333333, "bike_id": "fe89433192e7cf5b19f10d3c9ce747a5", "type": "electric_scooter", "name": "fe89433192e7cf5b19f10d3c9ce747a5"}, {"is_disabled": 0, "is_reserved": 0, "fusion_lat": 0.0, "lat": 38.8966855, "fusion_lon": 0.0, "rental_uris": {"ios": "https://dc.lft.to/lastmile_qr_scan", "android": "https://dc.lft.to/lastmile_qr_scan"}, "lon": -76.93209366666666, "bike_id": "b82c49fa660e8e3f9da9aa3de234933d", "type": "electric_scooter", "name": "b82c49fa660e8e3f9da9aa3de234933d"}, {"is_disabled": 0, "is_reserved": 0, "fusion_lat": 0.0, "lat": 38.918094833333335, "fusion_lon": 0.0, "rental_uris": {"ios": "https://dc.lft.to/lastmile_qr_scan", "android": "https://dc.lft.to/lastmile_qr_scan"}, "lon": -77.02491833333333, "bike_id": "4853ba7bf902c56e2c0f850b306301cc", "type": "electric_scooter", "name": "4853ba7bf902c56e2c0f850b306301cc"}, {"is_disabled": 0, "is_reserved": 0, "fusion_lat": 0.0, "lat": 38.935323833333335, "fusion_lon": 0.0, "rental_uris": {"ios": "https://dc.lft.to/lastmile_qr_scan", "android": "https://dc.lft.to/lastmile_qr_scan"}, "lon": -77.02350233333334, "bike_id": "1c0bc963d29c2a9533176aaa91e72362", "type": "electric_scooter", "name": "1c0bc963d29c2a9533176aaa91e72362"}, {"is_disabled": 0, "is_reserved": 0, "fusion_lat": 0.0, "lat": 38.9147815, "fusion_lon": 0.0, "rental_uris": {"ios": "https://dc.lft.to/lastmile_qr_scan", "android": "https://dc.lft.to/lastmile_qr_scan"}, "lon": -77.02196083333334, "bike_id": "0fa94e755272b752dd2b5baa4bb15d9d", "type": "electric_scooter", "name": "0fa94e755272b752dd2b5baa4bb15d9d"}, {"is_disabled": 0, "is_reserved": 0, "fusion_lat": 0.0, "lat": 38.92661483333333, "fusion_lon": 0.0, "rental_uris": {"ios": "https://dc.lft.to/lastmile_qr_scan", "android": "https://dc.lft.to/lastmile_qr_scan"}, "lon": -77.05197533333333, "bike_id": "f9e5b5bc544bf627417005a2c427495f", "type": "electric_scooter", "name": "f9e5b5bc544bf627417005a2c427495f"}, {"is_disabled": 0, "is_reserved": 0, "fusion_lat": 0.0, "lat": 38.905080166666664, "fusion_lon": 0.0, "rental_uris": {"ios": "https://dc.lft.to/lastmile_qr_scan", "android": "https://dc.lft.to/lastmile_qr_scan"}, "lon": -76.95208933333333, "bike_id": "f1e1374a2922ce28fe26ab8e31772633", "type": "electric_scooter", "name": "f1e1374a2922ce28fe26ab8e31772633"}, {"is_disabled": 0, "is_reserved": 0, "fusion_lat": 0.0, "lat": 38.92035966666667, "fusion_lon": 0.0, "rental_uris": {"ios": "https://dc.lft.to/lastmile_qr_scan", "android": "https://dc.lft.to/lastmile_qr_scan"}, "lon": -77.02605983333333, "bike_id": "2f279abc3d9f08196d1967edaccb0cdd", "type": "electric_scooter", "name": "2f279abc3d9f08196d1967edaccb0cdd"}, {"is_disabled": 0, "is_reserved": 0, "fusion_lat": 0.0, "lat": 38.89549866666667, "fusion_lon": 0.0, "rental_uris": {"ios": "https://dc.lft.to/lastmile_qr_scan", "android": "https://dc.lft.to/lastmile_qr_scan"}, "lon": -77.01686216666667, "bike_id": "ebab3b7956f92b6773fe154810c6f4b5", "type": "electric_scooter", "name": "ebab3b7956f92b6773fe154810c6f4b5"}, {"is_disabled": 0, "is_reserved": 0, "fusion_lat": 0.0, "lat": 38.8769005, "fusion_lon": 0.0, "rental_uris": {"ios": "https://dc.lft.to/lastmile_qr_scan", "android": "https://dc.lft.to/lastmile_qr_scan"}, "lon": -77.0176095, "bike_id": "63ab47cd51cbb5ecf55379020509a5c5", "type": "electric_scooter", "name": "63ab47cd51cbb5ecf55379020509a5c5"}, {"is_disabled": 0, "is_reserved": 0, "fusion_lat": 0.0, "lat": 38.92340383333333, "fusion_lon": 0.0, "rental_uris": {"ios": "https://dc.lft.to/lastmile_qr_scan", "android": "https://dc.lft.to/lastmile_qr_scan"}, "lon": -77.0352165, "bike_id": "695b545812e9a8f40d26fab12e11e030", "type": "electric_scooter", "name": "695b545812e9a8f40d26fab12e11e030"}, {"is_disabled": 0, "is_reserved": 0, "fusion_lat": 0.0, "lat": 38.9288095, "fusion_lon": 0.0, "rental_uris": {"ios": "https://dc.lft.to/lastmile_qr_scan", "android": "https://dc.lft.to/lastmile_qr_scan"}, "lon": -77.03251566666667, "bike_id": "f1b045c8e12b25572de16a4a2c39faea", "type": "electric_scooter", "name": "f1b045c8e12b25572de16a4a2c39faea"}, {"is_disabled": 0, "is_reserved": 0, "fusion_lat": 0.0, "lat": 38.921164, "fusion_lon": 0.0, "rental_uris": {"ios": "https://dc.lft.to/lastmile_qr_scan", "android": "https://dc.lft.to/lastmile_qr_scan"}, "lon": -77.01755133333333, "bike_id": "9caac7d37bc4a084c5fe2ccb67b5f134", "type": "electric_scooter", "name": "9caac7d37bc4a084c5fe2ccb67b5f134"}, {"is_disabled": 0, "is_reserved": 0, "fusion_lat": 0.0, "lat": 38.925612666666666, "fusion_lon": 0.0, "rental_uris": {"ios": "https://dc.lft.to/lastmile_qr_scan", "android": "https://dc.lft.to/lastmile_qr_scan"}, "lon": -77.02282083333333, "bike_id": "1c6dbe88af131edf88bb3caff5233126", "type": "electric_scooter", "name": "1c6dbe88af131edf88bb3caff5233126"}, {"is_disabled": 0, "is_reserved": 0, "fusion_lat": 0.0, "lat": 38.927273166666666, "fusion_lon": 0.0, "rental_uris": {"ios": "https://dc.lft.to/lastmile_qr_scan", "android": "https://dc.lft.to/lastmile_qr_scan"}, "lon": -77.02270566666667, "bike_id": "51700d2d09957da5fc3b6d2eeeb60817", "type": "electric_scooter", "name": "51700d2d09957da5fc3b6d2eeeb60817"}, {"is_disabled": 0, "is_reserved": 0, "fusion_lat": 0.0, "lat": 38.933421333333335, "fusion_lon": 0.0, "rental_uris": {"ios": "https://dc.lft.to/lastmile_qr_scan", "android": "https://dc.lft.to/lastmile_qr_scan"}, "lon": -77.01935266666666, "bike_id": "e7f3dc98d7049c73fd401eb88a70d063", "type": "electric_scooter", "name": "e7f3dc98d7049c73fd401eb88a70d063"}, {"is_disabled": 0, "is_reserved": 0, "fusion_lat": 0.0, "lat": 38.9259805, "fusion_lon": 0.0, "rental_uris": {"ios": "https://dc.lft.to/lastmile_qr_scan", "android": "https://dc.lft.to/lastmile_qr_scan"}, "lon": -77.02492733333334, "bike_id": "5edaf5149981900b67b2540c4b2d61ca", "type": "electric_scooter", "name": "5edaf5149981900b67b2540c4b2d61ca"}, {"is_disabled": 0, "is_reserved": 0, "fusion_lat": 0.0, "lat": 38.93242683333333, "fusion_lon": 0.0, "rental_uris": {"ios": "https://dc.lft.to/lastmile_qr_scan", "android": "https://dc.lft.to/lastmile_qr_scan"}, "lon": -77.02033866666666, "bike_id": "fa2202528f8c645c159eff9819b8e652", "type": "electric_scooter", "name": "fa2202528f8c645c159eff9819b8e652"}, {"is_disabled": 0, "is_reserved": 0, "fusion_lat": 0.0, "lat": 38.91740166666666, "fusion_lon": 0.0, "rental_uris": {"ios": "https://dc.lft.to/lastmile_qr_scan", "android": "https://dc.lft.to/lastmile_qr_scan"}, "lon": -77.02609283333334, "bike_id": "743b6bb8b69e576770690a7ff7fc6b8b", "type": "electric_scooter", "name": "743b6bb8b69e576770690a7ff7fc6b8b"}, {"is_disabled": 0, "is_reserved": 0, "fusion_lat": 0.0, "lat": 38.89088066666667, "fusion_lon": 0.0, "rental_uris": {"ios": "https://dc.lft.to/lastmile_qr_scan", "android": "https://dc.lft.to/lastmile_qr_scan"}, "lon": -76.95459916666667, "bike_id": "281e2937115bb4416e757dab2b9577aa", "type": "electric_bike", "name": "281e2937115bb4416e757dab2b9577aa"}, {"is_disabled": 0, "is_reserved": 0, "fusion_lat": 0.0, "lat": 38.9306055, "fusion_lon": 0.0, "rental_uris": {"ios": "https://dc.lft.to/lastmile_qr_scan", "android": "https://dc.lft.to/lastmile_qr_scan"}, "lon": -76.97323566666667, "bike_id": "ee72d39175ec1902ba2531ad428a6175", "type": "electric_scooter", "name": "ee72d39175ec1902ba2531ad428a6175"}, {"is_disabled": 0, "is_reserved": 0, "fusion_lat": 0.0, "lat": 38.91637766666667, "fusion_lon": 0.0, "rental_uris": {"ios": "https://dc.lft.to/lastmile_qr_scan", "android": "https://dc.lft.to/lastmile_qr_scan"}, "lon": -77.032068, "bike_id": "8fb78b97eda4e0d0079d4963ab7b4319", "type": "electric_scooter", "name": "8fb78b97eda4e0d0079d4963ab7b4319"}, {"is_disabled": 0, "is_reserved": 0, "fusion_lat": 0.0, "lat": 38.95639166666667, "fusion_lon": 0.0, "rental_uris": {"ios": "https://dc.lft.to/lastmile_qr_scan", "android": "https://dc.lft.to/lastmile_qr_scan"}, "lon": -77.036273, "bike_id": "6f88a4b8b2992d57d7123fdada8b92a0", "type": "electric_scooter", "name": "6f88a4b8b2992d57d7123fdada8b92a0"}, {"is_disabled": 0, "is_reserved": 0, "fusion_lat": 0.0, "lat": 38.93063516666667, "fusion_lon": 0.0, "rental_uris": {"ios": "https://dc.lft.to/lastmile_qr_scan", "android": "https://dc.lft.to/lastmile_qr_scan"}, "lon": -77.0421275, "bike_id": "ac7db756efa6e0310e829689fcf43671", "type": "electric_scooter", "name": "ac7db756efa6e0310e829689fcf43671"}, {"is_disabled": 0, "is_reserved": 0, "fusion_lat": 0.0, "lat": 38.919274333333334, "fusion_lon": 0.0, "rental_uris": {"ios": "https://dc.lft.to/lastmile_qr_scan", "android": "https://dc.lft.to/lastmile_qr_scan"}, "lon": -77.00974383333333, "bike_id": "dee18fff9a6f41ac4b0573576bb665ab", "type": "electric_scooter", "name": "dee18fff9a6f41ac4b0573576bb665ab"}, {"is_disabled": 0, "is_reserved": 0, "fusion_lat": 0.0, "lat": 38.89761283333333, "fusion_lon": 0.0, "rental_uris": {"ios": "https://dc.lft.to/lastmile_qr_scan", "android": "https://dc.lft.to/lastmile_qr_scan"}, "lon": -77.04807383333333, "bike_id": "c07357f65a4f7fa22f7b14595eec6673", "type": "electric_scooter", "name": "c07357f65a4f7fa22f7b14595eec6673"}, {"is_disabled": 0, "is_reserved": 0, "fusion_lat": 0.0, "lat": 38.932450833333334, "fusion_lon": 0.0, "rental_uris": {"ios": "https://dc.lft.to/lastmile_qr_scan", "android": "https://dc.lft.to/lastmile_qr_scan"}, "lon": -77.03411283333334, "bike_id": "7281b133571b821cd3e1f176855ab465", "type": "electric_scooter", "name": "7281b133571b821cd3e1f176855ab465"}, {"is_disabled": 0, "is_reserved": 0, "fusion_lat": 0.0, "lat": 38.950989166666666, "fusion_lon": 0.0, "rental_uris": {"ios": "https://dc.lft.to/lastmile_qr_scan", "android": "https://dc.lft.to/lastmile_qr_scan"}, "lon": -77.01909066666667, "bike_id": "d493602c7789b0fac910144c86d34547", "type": "electric_scooter", "name": "d493602c7789b0fac910144c86d34547"}, {"is_disabled": 0, "is_reserved": 0, "fusion_lat": 0.0, "lat": 38.90540383333333, "fusion_lon": 0.0, "rental_uris": {"ios": "https://dc.lft.to/lastmile_qr_scan", "android": "https://dc.lft.to/lastmile_qr_scan"}, "lon": -77.057043, "bike_id": "fe8606d4fc72e4b6d5553646f01fcabc", "type": "electric_scooter", "name": "fe8606d4fc72e4b6d5553646f01fcabc"}, {"is_disabled": 0, "is_reserved": 0, "fusion_lat": 0.0, "lat": 38.9134305, "fusion_lon": 0.0, "rental_uris": {"ios": "https://dc.lft.to/lastmile_qr_scan", "android": "https://dc.lft.to/lastmile_qr_scan"}, "lon": -77.04419366666667, "bike_id": "d2dcabe11ebe151f07f11454043dff52", "type": "electric_scooter", "name": "d2dcabe11ebe151f07f11454043dff52"}, {"is_disabled": 0, "is_reserved": 0, "fusion_lat": 0.0, "lat": 38.908576833333335, "fusion_lon": 0.0, "rental_uris": {"ios": "https://dc.lft.to/lastmile_qr_scan", "android": "https://dc.lft.to/lastmile_qr_scan"}, "lon": -77.06396066666667, "bike_id": "342ef34f748e12e7233a8c5755b75065", "type": "electric_scooter", "name": "342ef34f748e12e7233a8c5755b75065"}, {"is_disabled": 0, "is_reserved": 0, "fusion_lat": 0.0, "lat": 38.92380883333333, "fusion_lon": 0.0, "rental_uris": {"ios": "https://dc.lft.to/lastmile_qr_scan", "android": "https://dc.lft.to/lastmile_qr_scan"}, "lon": -77.02029116666667, "bike_id": "53c03d2c0e9071f4a8dd16be210dbac1", "type": "electric_scooter", "name": "53c03d2c0e9071f4a8dd16be210dbac1"}, {"is_disabled": 0, "is_reserved": 0, "fusion_lat": 0.0, "lat": 38.940418666666666, "fusion_lon": 0.0, "rental_uris": {"ios": "https://dc.lft.to/lastmile_qr_scan", "android": "https://dc.lft.to/lastmile_qr_scan"}, "lon": -77.0251085, "bike_id": "cbfc4f0d794b1587b5fd013d8eaa8093", "type": "electric_scooter", "name": "cbfc4f0d794b1587b5fd013d8eaa8093"}, {"is_disabled": 0, "is_reserved": 0, "fusion_lat": 0.0, "lat": 38.92481166666666, "fusion_lon": 0.0, "rental_uris": {"ios": "https://dc.lft.to/lastmile_qr_scan", "android": "https://dc.lft.to/lastmile_qr_scan"}, "lon": -77.02832366666667, "bike_id": "fcedb2c03184bf0a6a126522f46aee15", "type": "electric_scooter", "name": "fcedb2c03184bf0a6a126522f46aee15"}, {"is_disabled": 0, "is_reserved": 0, "fusion_lat": 0.0, "lat": 38.916714166666665, "fusion_lon": 0.0, "rental_uris": {"ios": "https://dc.lft.to/lastmile_qr_scan", "android": "https://dc.lft.to/lastmile_qr_scan"}, "lon": -77.0318105, "bike_id": "078b5dfb8ab2a683d44f8075117adab7", "type": "electric_scooter", "name": "078b5dfb8ab2a683d44f8075117adab7"}, {"is_disabled": 0, "is_reserved": 0, "fusion_lat": 0.0, "lat": 38.92251816666667, "fusion_lon": 0.0, "rental_uris": {"ios": "https://dc.lft.to/lastmile_qr_scan", "android": "https://dc.lft.to/lastmile_qr_scan"}, "lon": -77.07273333333333, "bike_id": "8cc9fa148632f006ebbc01d6832fc045", "type": "electric_scooter", "name": "8cc9fa148632f006ebbc01d6832fc045"}, {"is_disabled": 0, "is_reserved": 0, "fusion_lat": 0.0, "lat": 38.927588166666666, "fusion_lon": 0.0, "rental_uris": {"ios": "https://dc.lft.to/lastmile_qr_scan", "android": "https://dc.lft.to/lastmile_qr_scan"}, "lon": -77.02949883333334, "bike_id": "24d997003ca20d35c7b37343c6bc0168", "type": "electric_scooter", "name": "24d997003ca20d35c7b37343c6bc0168"}, {"is_disabled": 0, "is_reserved": 0, "fusion_lat": 0.0, "lat": 38.897499, "fusion_lon": 0.0, "rental_uris": {"ios": "https://dc.lft.to/lastmile_qr_scan", "android": "https://dc.lft.to/lastmile_qr_scan"}, "lon": -77.02173666666667, "bike_id": "8c85ecdfe1eb965e31aebeffb4986b2b", "type": "electric_scooter", "name": "8c85ecdfe1eb965e31aebeffb4986b2b"}, {"is_disabled": 0, "is_reserved": 0, "fusion_lat": 0.0, "lat": 38.896104333333334, "fusion_lon": 0.0, "rental_uris": {"ios": "https://dc.lft.to/lastmile_qr_scan", "android": "https://dc.lft.to/lastmile_qr_scan"}, "lon": -77.00331383333334, "bike_id": "725186882154cce1ae84bd05a2f4415b", "type": "electric_scooter", "name": "725186882154cce1ae84bd05a2f4415b"}, {"is_disabled": 0, "is_reserved": 0, "fusion_lat": 0.0, "lat": 38.92871066666667, "fusion_lon": 0.0, "rental_uris": {"ios": "https://dc.lft.to/lastmile_qr_scan", "android": "https://dc.lft.to/lastmile_qr_scan"}, "lon": -77.05648916666667, "bike_id": "858e834d7fc3e7fd92557dc0b008727b", "type": "electric_scooter", "name": "858e834d7fc3e7fd92557dc0b008727b"}, {"is_disabled": 0, "is_reserved": 0, "fusion_lat": 0.0, "lat": 38.9202395, "fusion_lon": 0.0, "rental_uris": {"ios": "https://dc.lft.to/lastmile_qr_scan", "android": "https://dc.lft.to/lastmile_qr_scan"}, "lon": -77.03158733333333, "bike_id": "10214e3da073d3ce712145f97c706ca8", "type": "electric_scooter", "name": "10214e3da073d3ce712145f97c706ca8"}, {"is_disabled": 0, "is_reserved": 0, "fusion_lat": 0.0, "lat": 38.899159833333336, "fusion_lon": 0.0, "rental_uris": {"ios": "https://dc.lft.to/lastmile_qr_scan", "android": "https://dc.lft.to/lastmile_qr_scan"}, "lon": -76.933815, "bike_id": "56a92aec2b5fac4b94739a745ee5cafb", "type": "electric_scooter", "name": "56a92aec2b5fac4b94739a745ee5cafb"}, {"is_disabled": 0, "is_reserved": 0, "fusion_lat": 0.0, "lat": 38.899166666666666, "fusion_lon": 0.0, "rental_uris": {"ios": "https://dc.lft.to/lastmile_qr_scan", "android": "https://dc.lft.to/lastmile_qr_scan"}, "lon": -77.03976183333333, "bike_id": "c7306e012bdd3306b5b973e7c05dbcce", "type": "electric_scooter", "name": "c7306e012bdd3306b5b973e7c05dbcce"}, {"is_disabled": 0, "is_reserved": 0, "fusion_lat": 0.0, "lat": 38.829253333333334, "fusion_lon": 0.0, "rental_uris": {"ios": "https://dc.lft.to/lastmile_qr_scan", "android": "https://dc.lft.to/lastmile_qr_scan"}, "lon": -77.068781, "bike_id": "67432d781e044e8a66c806648bdf6207", "type": "electric_bike", "name": "67432d781e044e8a66c806648bdf6207"}, {"is_disabled": 0, "is_reserved": 0, "fusion_lat": 0.0, "lat": 38.91264833333334, "fusion_lon": 0.0, "rental_uris": {"ios": "https://dc.lft.to/lastmile_qr_scan", "android": "https://dc.lft.to/lastmile_qr_scan"}, "lon": -77.016074, "bike_id": "70fa12924ba3d3ea844661be626d1d30", "type": "electric_scooter", "name": "70fa12924ba3d3ea844661be626d1d30"}, {"is_disabled": 0, "is_reserved": 0, "fusion_lat": 0.0, "lat": 38.880365166666664, "fusion_lon": 0.0, "rental_uris": {"ios": "https://dc.lft.to/lastmile_qr_scan", "android": "https://dc.lft.to/lastmile_qr_scan"}, "lon": -76.92722183333333, "bike_id": "5580f092ab6c660f1e5139ca66938bbf", "type": "electric_scooter", "name": "5580f092ab6c660f1e5139ca66938bbf"}, {"is_disabled": 0, "is_reserved": 0, "fusion_lat": 0.0, "lat": 38.902897833333334, "fusion_lon": 0.0, "rental_uris": {"ios": "https://dc.lft.to/lastmile_qr_scan", "android": "https://dc.lft.to/lastmile_qr_scan"}, "lon": -77.024176, "bike_id": "02b87789a1ae5cd8ebefa27981fa7ec2", "type": "electric_scooter", "name": "02b87789a1ae5cd8ebefa27981fa7ec2"}, {"is_disabled": 0, "is_reserved": 0, "fusion_lat": 0.0, "lat": 38.9245575, "fusion_lon": 0.0, "rental_uris": {"ios": "https://dc.lft.to/lastmile_qr_scan", "android": "https://dc.lft.to/lastmile_qr_scan"}, "lon": -77.03892666666667, "bike_id": "b3330136f8aeea751fb90aa7a5edf6ba", "type": "electric_scooter", "name": "b3330136f8aeea751fb90aa7a5edf6ba"}, {"is_disabled": 0, "is_reserved": 0, "fusion_lat": 0.0, "lat": 38.90695516666667, "fusion_lon": 0.0, "rental_uris": {"ios": "https://dc.lft.to/lastmile_qr_scan", "android": "https://dc.lft.to/lastmile_qr_scan"}, "lon": -76.952538, "bike_id": "82ba2ce544566e46a5f451aca034b1f0", "type": "electric_bike", "name": "82ba2ce544566e46a5f451aca034b1f0"},