{"data": {"bikes": [{"fusion_lat": 0.0, "type": "electric_scooter", "name": "1770a0fb16db4c90341a76b48fc8705e", "fusion_lon": 0.0, "bike_id": "1770a0fb16db4c90341a76b48fc8705e", "is_reserved": 0, "rental_uris": {"android": "https://dc.lft.to/lastmile_qr_scan", "ios": "https://dc.lft.to/lastmile_qr_scan"}, "lat": 38.91123066666667, "is_disabled": 0, "lon": -77.06518783333334}, {"fusion_lat": 0.0, "type": "electric_scooter", "name": "ea093e0ba9d5f16c7f661be654f1b652", "fusion_lon": 0.0, "bike_id": "ea093e0ba9d5f16c7f661be654f1b652", "is_reserved": 0, "rental_uris": {"android": "https://dc.lft.to/lastmile_qr_scan", "ios": "https://dc.lft.to/lastmile_qr_scan"}, "lat": 38.88088466666667, "is_disabled": 0, "lon": -76.93008983333333}, {"fusion_lat": 0.0, "type": "electric_scooter", "name": "e80c331ecb4155e551ed998b128f7f39", "fusion_lon": 0.0, "bike_id": "e80c331ecb4155e551ed998b128f7f39", "is_reserved": 0, "rental_uris": {"android": "https://dc.lft.to/lastmile_qr_scan", "ios": "https://dc.lft.to/lastmile_qr_scan"}, "lat": 38.91799816666666, "is_disabled": 0, "lon": -77.031676}, {"fusion_lat": 0.0, "type": "electric_scooter", "name": "0003eed7bcf80b8e1af2007a8a62961b", "fusion_lon": 0.0, "bike_id": "0003eed7bcf80b8e1af2007a8a62961b", "is_reserved": 0, "rental_uris": {"android": "https://dc.lft.to/lastmile_qr_scan", "ios": "https://dc.lft.to/lastmile_qr_scan"}, "lat": 38.851956333333334, "is_disabled": 0, "lon": -76.970744}, {"fusion_lat": 0.0, "type": "electric_scooter", "name": "a7b70486f41e78bb4de33eca0085c32a", "fusion_lon": 0.0, "bike_id": "a7b70486f41e78bb4de33eca0085c32a", "is_reserved": 0, "rental_uris": {"android": "https://dc.lft.to/lastmile_qr_scan", "ios": "https://dc.lft.to/lastmile_qr_scan"}, "lat": 38.9007975, "is_disabled": 0, "lon": -77.02694066666666}, {"fusion_lat": 0.0, "type": "electric_scooter", "name": "92ea3265f185dde2730d258c19e9a91b", "fusion_lon": 0.0, "bike_id": "92ea3265f185dde2730d258c19e9a91b", "is_reserved": 0, "rental_uris": {"android": "https://dc.lft.to/lastmile_qr_scan", "ios": "https://dc.lft.to/lastmile_qr_scan"}, "lat": 38.89226466666667, "is_disabled": 0, "lon": -77.031894}, {"fusion_lat": 0.0, "type": "electric_scooter", "name": "bab6b5026014bc974f48ce18cdcfe534", "fusion_lon": 0.0, "bike_id": "bab6b5026014bc974f48ce18cdcfe534", "is_reserved": 0, "rental_uris": {"android": "https://dc.lft.to/lastmile_qr_scan", "ios": "https://dc.lft.to/lastmile_qr_scan"}, "lat": 38.93381083333333, "is_disabled": 0, "lon": -77.035574}, {"fusion_lat": 0.0, "type": "electric_scooter", "name": "82fe65da19dcd06ca950326c25075ed3", "fusion_lon": 0.0, "bike_id": "82fe65da19dcd06ca950326c25075ed3", "is_reserved": 0, "rental_uris": {"android": "https://dc.lft.to/lastmile_qr_scan", "ios": "https://dc.lft.to/lastmile_qr_scan"}, "lat": 38.895712, "is_disabled": 0, "lon": -77.04672183333334}, {"fusion_lat": 0.0, "type": "electric_scooter", "name": "cb965e0d67e1f13e8ee0026941db373e", "fusion_lon": 0.0, "bike_id": "cb965e0d67e1f13e8ee0026941db373e", "is_reserved": 0, "rental_uris": {"android": "https://dc.lft.to/lastmile_qr_scan", "ios": "https://dc.lft.to/lastmile_qr_scan"}, "lat": 38.9187985, "is_disabled": 0, "lon": -77.03480766666667}, {"fusion_lat": 0.0, "type": "electric_scooter", "name": "5f3b2f0fec0c847c4a254906bae661a5", "fusion_lon": 0.0, "bike_id": "5f3b2f0fec0c847c4a254906bae661a5", "is_reserved": 0, "rental_uris": {"android": "https://dc.lft.to/lastmile_qr_scan", "ios": "https://dc.lft.to/lastmile_qr_scan"}, "lat": 38.9040965, "is_disabled": 0, "lon": -77.02940566666666}, {"fusion_lat": 0.0, "type": "electric_scooter", "name": "b85274a3fc0cc1d69b7e15849fc22183", "fusion_lon": 0.0, "bike_id": "b85274a3fc0cc1d69b7e15849fc22183", "is_reserved": 0, "rental_uris": {"android": "https://dc.lft.to/lastmile_qr_scan", "ios": "https://dc.lft.to/lastmile_qr_scan"}, "lat": 38.92901583333333, "is_disabled": 0, "lon": -77.05458333333333}, {"fusion_lat": 0.0, "type": "electric_bike", "name": "9486c42833be9e27383639042f24596e", "fusion_lon": 0.0, "bike_id": "9486c42833be9e27383639042f24596e", "is_reserved": 0, "rental_uris": {"android": "https://dc.lft.to/lastmile_qr_scan", "ios": "https://dc.lft.to/lastmile_qr_scan"}, "lat": 38.898124333333335, "is_disabled": 0, "lon": -76.99066283333333}, {"fusion_lat": 0.0, "type": "electric_scooter", "name": "87bca368b4824e0bff22523c1f3d4099", "fusion_lon": 0.0, "bike_id": "87bca368b4824e0bff22523c1f3d4099", "is_reserved": 0, "rental_uris": {"android": "https://dc.lft.to/lastmile_qr_scan", "ios": "https://dc.lft.to/lastmile_qr_scan"}, "lat": 38.9248575, "is_disabled": 0, "lon": -77.0214155}, {"fusion_lat": 0.0, "type": "electric_scooter", "name": "5b20ff143ef3d8e77e83800b815d226b", "fusion_lon": 0.0, "bike_id": "5b20ff143ef3d8e77e83800b815d226b", "is_reserved": 0, "rental_uris": {"android": "https://dc.lft.to/lastmile_qr_scan", "ios": "https://dc.lft.to/lastmile_qr_scan"}, "lat": 38.90170666666667, "is_disabled": 0, "lon": -76.98060333333333}, {"fusion_lat": 0.0, "type": "electric_scooter", "name": "c5362e7abf65afc4c3147af026aef0ae", "fusion_lon": 0.0, "bike_id": "c5362e7abf65afc4c3147af026aef0ae", "is_reserved": 0, "rental_uris": {"android": "https://dc.lft.to/lastmile_qr_scan", "ios": "https://dc.lft.to/lastmile_qr_scan"}, "lat": 38.891905666666666, "is_disabled": 0, "lon": -76.98853316666667}, {"fusion_lat": 0.0, "type": "electric_scooter", "name": "9059695cdc9974fcf1a51d4105085e28", "fusion_lon": 0.0, "bike_id": "9059695cdc9974fcf1a51d4105085e28", "is_reserved": 0, "rental_uris": {"android": "https://dc.lft.to/lastmile_qr_scan", "ios": "https://dc.lft.to/lastmile_qr_scan"}, "lat": 38.93672983333333, "is_disabled": 0, "lon": -77.0359495}, {"fusion_lat": 0.0, "type": "electric_scooter", "name": "fe425ddd36091fbdb830a43ec614df2c", "fusion_lon": 0.0, "bike_id": "fe425ddd36091fbdb830a43ec614df2c", "is_reserved": 0, "rental_uris": {"android": "https://dc.lft.to/lastmile_qr_scan", "ios": "https://dc.lft.to/lastmile_qr_scan"}, "lat": 38.91046216666667, "is_disabled": 0, "lon": -77.03497733333333}, {"fusion_lat": 0.0, "type": "electric_bike", "name": "f3b926a8708a9b6f57d75559eb1a0db9", "fusion_lon": 0.0, "bike_id": "f3b926a8708a9b6f57d75559eb1a0db9", "is_reserved": 0, "rental_uris": {"android": "https://dc.lft.to/lastmile_qr_scan", "ios": "https://dc.lft.to/lastmile_qr_scan"}, "lat": 38.951547, "is_disabled": 0, "lon": -77.0128405}, {"fusion_lat": 0.0, "type": "electric_bike", "name": "a4a41edb71865e9024c15eab27a0b396", "fusion_lon": 0.0, "bike_id": "a4a41edb71865e9024c15eab27a0b396", "is_reserved": 0, "rental_uris": {"android": "https://dc.lft.to/lastmile_qr_scan", "ios": "https://dc.lft.to/lastmile_qr_scan"}, "lat": 38.932095833333335, "is_disabled": 0, "lon": -77.01873966666666}, {"fusion_lat": 0.0, "type": "electric_scooter", "name": "b28e13347ef512820a8c85cc87f83995", "fusion_lon": 0.0, "bike_id": "b28e13347ef512820a8c85cc87f83995", "is_reserved": 0, "rental_uris": {"android": "https://dc.lft.to/lastmile_qr_scan", "ios": "https://dc.lft.to/lastmile_qr_scan"}, "lat": 38.91498816666667, "is_disabled": 0, "lon": -77.00775616666667}, {"fusion_lat": 0.0, "type": "electric_bike", "name": "da073430db936a51cf072d8c45c8b624", "fusion_lon": 0.0, "bike_id": "da073430db936a51cf072d8c45c8b624", "is_reserved": 0, "rental_uris": {"android": "https://dc.lft.to/lastmile_qr_scan", "ios": "https://dc.lft.to/lastmile_qr_scan"}, "lat": 38.98362016666667, "is_disabled": 0, "lon": -76.972105}, {"fusion_lat": 0.0, "type": "electric_scooter", "name": "c9c0361365ed7cd707880e18ba312ac6", "fusion_lon": 0.0, "bike_id": "c9c0361365ed7cd707880e18ba312ac6", "is_reserved": 0, "rental_uris": {"android": "https://dc.lft.to/lastmile_qr_scan", "ios": "https://dc.lft.to/lastmile_qr_scan"}, "lat": 38.879202666666664, "is_disabled": 0, "lon": -77.02132566666667}, {"fusion_lat": 0.0, "type": "electric_scooter", "name": "e7c013d72fb468bf590abc053d3d874d", "fusion_lon": 0.0, "bike_id": "e7c013d72fb468bf590abc053d3d874d", "is_reserved": 0, "rental_uris": {"android": "https://dc.lft.to/lastmile_qr_scan", "ios": "https://dc.lft.to/lastmile_qr_scan"}, "lat": 38.913449166666666, "is_disabled": 0, "lon": -77.03190033333334}, {"fusion_lat": 0.0, "type": "electric_scooter", "name": "e5313ec3d613ea002030261f4d09546f", "fusion_lon": 0.0, "bike_id": "e5313ec3d613ea002030261f4d09546f", "is_reserved": 0, "rental_uris": {"android": "https://dc.lft.to/lastmile_qr_scan", "ios": "https://dc.lft.to/lastmile_qr_scan"}, "lat": 38.89954433333333, "is_disabled": 0, "lon": -76.975252}, {"fusion_lat": 0.0, "type": "electric_scooter", "name": "83835c98d6bf8f08acbe919e3ee81b6c", "fusion_lon": 0.0, "bike_id": "83835c98d6bf8f08acbe919e3ee81b6c", "is_reserved": 0, "rental_uris": {"android": "https://dc.lft.to/lastmile_qr_scan", "ios": "https://dc.lft.to/lastmile_qr_scan"}, "lat": 38.9574085, "is_disabled": 0, "lon": -77.02070566666667}, {"fusion_lat": 0.0, "type": "electric_bike", "name": "61d857e3be957357019a2311819fc785", "fusion_lon": 0.0, "bike_id": "61d857e3be957357019a2311819fc785", "is_reserved": 0, "rental_uris": {"android": "https://dc.lft.to/lastmile_qr_scan", "ios": "https://dc.lft.to/lastmile_qr_scan"}, "lat": 38.92335766666667, "is_disabled": 0, "lon": -76.97142416666667}, {"fusion_lat": 0.0, "type": "electric_scooter", "name": "70e89639196cfb03d450de45defc6305", "fusion_lon": 0.0, "bike_id": "70e89639196cfb03d450de45defc6305", "is_reserved": 0, "rental_uris": {"android": "https://dc.lft.to/lastmile_qr_scan", "ios": "https://dc.lft.to/lastmile_qr_scan"}, "lat": 38.83695983333333, "is_disabled": 0, "lon": -77.00575616666667}, {"fusion_lat": 0.0, "type": "electric_scooter", "name": "2a7c47a6a4088a7d2540cd9f24ae4d82", "fusion_lon": 0.0, "bike_id": "2a7c47a6a4088a7d2540cd9f24ae4d82", "is_reserved": 0, "rental_uris": {"android": "https://dc.lft.to/lastmile_qr_scan", "ios": "https://dc.lft.to/lastmile_qr_scan"}, "lat": 38.924792833333335, "is_disabled": 0, "lon": -77.03494383333333}, {"fusion_lat": 0.0, "type": "electric_scooter", "name": "69dee281ca8ea9dc81c7e00a05b98442", "fusion_lon": 0.0, "bike_id": "69dee281ca8ea9dc81c7e00a05b98442", "is_reserved": 0, "rental_uris": {"android": "https://dc.lft.to/lastmile_qr_scan", "ios": "https://dc.lft.to/lastmile_qr_scan"}, "lat": 38.92648283333333, "is_disabled": 0, "lon": -77.041393}, {"fusion_lat": 0.0, "type": "electric_scooter", "name": "036c744f6673edbdcb8eccc42ac14103", "fusion_lon": 0.0, "bike_id": "036c744f6673edbdcb8eccc42ac14103", "is_reserved": 0, "rental_uris": {"android": "https://dc.lft.to/lastmile_qr_scan", "ios": "https://dc.lft.to/lastmile_qr_scan"}, "lat": 38.918023, "is_disabled": 0, "lon": -77.03019916666666}, {"fusion_lat": 0.0, "type": "electric_scooter", "name": "500d9e3784d3407d94aa255c35b04de5", "fusion_lon": 0.0, "bike_id": "500d9e3784d3407d94aa255c35b04de5", "is_reserved": 0, "rental_uris": {"android": "https://dc.lft.to/lastmile_qr_scan", "ios": "https://dc.lft.to/lastmile_qr_scan"}, "lat": 38.920907166666666, "is_disabled": 0, "lon": -77.07369016666667}, {"fusion_lat": 0.0, "type": "electric_scooter", "name": "c84a1b6ac5a5876d4f9796dbf8eb8640", "fusion_lon": 0.0, "bike_id": "c84a1b6ac5a5876d4f9796dbf8eb8640", "is_reserved": 0, "rental_uris": {"android": "https://dc.lft.to/lastmile_qr_scan", "ios": "https://dc.lft.to/lastmile_qr_scan"}, "lat": 38.94119533333333, "is_disabled": 0, "lon": -77.015416}, {"fusion_lat": 0.0, "type": "electric_scooter", "name": "7c43e88c735b7ea5d7f2b4f16e2db7e7", "fusion_lon": 0.0, "bike_id": "7c43e88c735b7ea5d7f2b4f16e2db7e7", "is_reserved": 0, "rental_uris": {"android": "https://dc.lft.to/lastmile_qr_scan", "ios": "https://dc.lft.to/lastmile_qr_scan"}, "lat": 38.844259666666666, "is_disabled": 0, "lon": -76.99782416666666}, {"fusion_lat": 0.0, "type": "electric_scooter", "name": "fbd2846c5fd2071d44bad58a897a6338", "fusion_lon": 0.0, "bike_id": "fbd2846c5fd2071d44bad58a897a6338", "is_reserved": 0, "rental_uris": {"android": "https://dc.lft.to/lastmile_qr_scan", "ios": "https://dc.lft.to/lastmile_qr_scan"}, "lat": 38.905734, "is_disabled": 0, "lon": -77.03437966666667}, {"fusion_lat": 0.0, "type": "electric_scooter", "name": "18935a6466236444cd7cb1fa0971a64c", "fusion_lon": 0.0, "bike_id": "18935a6466236444cd7cb1fa0971a64c", "is_reserved": 0, "rental_uris": {"android": "https://dc.lft.to/lastmile_qr_scan", "ios": "https://dc.lft.to/lastmile_qr_scan"}, "lat": 38.934782, "is_disabled": 0, "lon": -77.024106}, {"fusion_lat": 0.0, "type": "electric_scooter", "name": "018fa9932ccc3530263a2f5fdede8a97", "fusion_lon": 0.0, "bike_id": "018fa9932ccc3530263a2f5fdede8a97", "is_reserved": 0, "rental_uris": {"android": "https://dc.lft.to/lastmile_qr_scan", "ios": "https://dc.lft.to/lastmile_qr_scan"}, "lat": 38.903537666666665, "is_disabled": 0, "lon": -77.06109533333333}, {"fusion_lat": 0.0, "type": "electric_scooter", "name": "7730612412fdc5da9c4786afa9581e32", "fusion_lon": 0.0, "bike_id": "7730612412fdc5da9c4786afa9581e32", "is_reserved": 0, "rental_uris": {"android": "https://dc.lft.to/lastmile_qr_scan", "ios": "https://dc.lft.to/lastmile_qr_scan"}, "lat": 38.936068666666664, "is_disabled": 0, "lon": -77.02922033333333}, {"fusion_lat": 0.0, "type": "electric_scooter", "name": "ca59cd2b9648acf9b14bc17d1a7b7019", "fusion_lon": 0.0, "bike_id": "ca59cd2b9648acf9b14bc17d1a7b7019", "is_reserved": 0, "rental_uris": {"android": "https://dc.lft.to/lastmile_qr_scan", "ios": "https://dc.lft.to/lastmile_qr_scan"}, "lat": 38.92030333333334, "is_disabled": 0, "lon": -77.04186183333333}, {"fusion_lat": 0.0, "type": "electric_scooter", "name": "39d12626ff0cd6099d2dbd52648c6700", "fusion_lon": 0.0, "bike_id": "39d12626ff0cd6099d2dbd52648c6700", "is_reserved": 0, "rental_uris": {"android": "https://dc.lft.to/lastmile_qr_scan", "ios": "https://dc.lft.to/lastmile_qr_scan"}, "lat": 38.92459566666667, "is_disabled": 0, "lon": -77.032875}, {"fusion_lat": 0.0, "type": "electric_scooter", "name": "0f457127d9ab2952cc37ad42e450c1b2", "fusion_lon": 0.0, "bike_id": "0f457127d9ab2952cc37ad42e450c1b2", "is_reserved": 0, "rental_uris": {"android": "https://dc.lft.to/lastmile_qr_scan", "ios": "https://dc.lft.to/lastmile_qr_scan"}, "lat": 38.89195633333333, "is_disabled": 0, "lon": -77.027735}, {"fusion_lat": 0.0, "type": "electric_scooter", "name": "84e366ee0f72cbfb61af74f69a614c39", "fusion_lon": 0.0, "bike_id": "84e366ee0f72cbfb61af74f69a614c39", "is_reserved": 0, "rental_uris": {"android": "https://dc.lft.to/lastmile_qr_scan", "ios": "https://dc.lft.to/lastmile_qr_scan"}, "lat": 38.916392333333334, "is_disabled": 0, "lon": -77.04820983333333}, {"fusion_lat": 0.0, "type": "electric_scooter", "name": "21f0e35360d66da245124cfa834594cc", "fusion_lon": 0.0, "bike_id": "21f0e35360d66da245124cfa834594cc", "is_reserved": 0, "rental_uris": {"android": "https://dc.lft.to/lastmile_qr_scan", "ios": "https://dc.lft.to/lastmile_qr_scan"}, "lat": 38.902436333333334, "is_disabled": 0, "lon": -76.99888033333333}, {"fusion_lat": 0.0, "type": "electric_scooter", "name": "3f457c7bd291995aad43e6ff92bb9a3c", "fusion_lon": 0.0, "bike_id": "3f457c7bd291995aad43e6ff92bb9a3c", "is_reserved": 0, "rental_uris": {"android": "https://dc.lft.to/lastmile_qr_scan", "ios": "https://dc.lft.to/lastmile_qr_scan"}, "lat": 38.91393883333333, "is_disabled": 0, "lon": -77.04168533333333}, {"fusion_lat": 0.0, "type": "electric_scooter", "name": "6fd096e21a79ebbbd6fa6da0c22a4d7a", "fusion_lon": 0.0, "bike_id": "6fd096e21a79ebbbd6fa6da0c22a4d7a", "is_reserved": 0, "rental_uris": {"android": "https://dc.lft.to/lastmile_qr_scan", "ios": "https://dc.lft.to/lastmile_qr_scan"}, "lat": 38.93473766666666, "is_disabled": 0, "lon": -77.02850283333333}, {"fusion_lat": 0.0, "type": "electric_scooter", "name": "36d61d7b5c888caf530e674d736fdbd3", "fusion_lon": 0.0, "bike_id": "36d61d7b5c888caf530e674d736fdbd3", "is_reserved": 0, "rental_uris": {"android": "https://dc.lft.to/lastmile_qr_scan", "ios": "https://dc.lft.to/lastmile_qr_scan"}, "lat": 38.89221333333333, "is_disabled": 0, "lon": -77.026288}, {"fusion_lat": 0.0, "type": "electric_scooter", "name": "9e7f524d8f31799065b88873b927d935", "fusion_lon": 0.0, "bike_id": "9e7f524d8f31799065b88873b927d935", "is_reserved": 0, "rental_uris": {"android": "https://dc.lft.to/lastmile_qr_scan", "ios": "https://dc.lft.to/lastmile_qr_scan"}, "lat": 38.90779883333333, "is_disabled": 0, "lon": -77.02298866666666}, {"fusion_lat": 0.0, "type": "electric_scooter", "name": "b69c31d86bf9e9683ed5a16518911397", "fusion_lon": 0.0, "bike_id": "b69c31d86bf9e9683ed5a16518911397", "is_reserved": 0, "rental_uris": {"android": "https://dc.lft.to/lastmile_qr_scan", "ios": "https://dc.lft.to/lastmile_qr_scan"}, "lat": 38.915487666666664, "is_disabled": 0, "lon": -77.0317735}, {"fusion_lat": 0.0, "type": "electric_bike", "name": "8450c4d089c9d2dc6c1f5c8935879846", "fusion_lon": 0.0, "bike_id": "8450c4d089c9d2dc6c1f5c8935879846", "is_reserved": 0, "rental_uris": {"android": "https://dc.lft.to/lastmile_qr_scan", "ios": "https://dc.lft.to/lastmile_qr_scan"}, "lat": 38.96743433333333, "is_disabled": 0, "lon": -76.9819425}, {"fusion_lat": 0.0, "type": "electric_bike", "name": "39966dffe47beec5958c3bccda1ee668", "fusion_lon": 0.0, "bike_id": "39966dffe47beec5958c3bccda1ee668", "is_reserved": 0, "rental_uris": {"android": "https://dc.lft.to/lastmile_qr_scan", "ios": "https://dc.lft.to/lastmile_qr_scan"}, "lat": 39.0147645, "is_disabled": 0, "lon": -77.05494216666666}, {"fusion_lat": 0.0, "type": "electric_scooter", "name": "1c1bba31db1de07f117dafb9ce643a01", "fusion_lon": 0.0, "bike_id": "1c1bba31db1de07f117dafb9ce643a01", "is_reserved": 0, "rental_uris": {"android": "https://dc.lft.to/lastmile_qr_scan", "ios": "https://dc.lft.to/lastmile_qr_scan"}, "lat": 38.892230833333336, "is_disabled": 0, "lon": -77.0437485}, {"fusion_lat": 0.0, "type": "electric_bike", "name": "004e52e404a404bc0fe244cf7d8cdf06", "fusion_lon": 0.0, "bike_id": "004e52e404a404bc0fe244cf7d8cdf06", "is_reserved": 0, "rental_uris": {"android": "https://dc.lft.to/lastmile_qr_scan", "ios": "https://dc.lft.to/lastmile_qr_scan"}, "lat": 39.04236433333333, "is_disabled": 0, "lon": -76.99738483333333}, {"fusion_lat": 0.0, "type": "electric_scooter", "name": "6d823e9b3f01ea9025cb33d3aaaa0db7", "fusion_lon": 0.0, "bike_id": "6d823e9b3f01ea9025cb33d3aaaa0db7", "is_reserved": 0, "rental_uris": {"android": "https://dc.lft.to/lastmile_qr_scan", "ios": "https://dc.lft.to/lastmile_qr_scan"}, "lat": 38.909572, "is_disabled": 0, "lon": -77.0080745}, {"fusion_lat": 0.0, "type": "electric_scooter", "name": "85d79571b769519f715fb83699bbbee0", "fusion_lon": 0.0, "bike_id": "85d79571b769519f715fb83699bbbee0", "is_reserved": 0, "rental_uris": {"android": "https://dc.lft.to/lastmile_qr_scan", "ios": "https://dc.lft.to/lastmile_qr_scan"}, "lat": 38.900404333333334, "is_disabled": 0, "lon": -77.02953733333334}, {"fusion_lat": 0.0, "type": "electric_scooter", "name": "45266b7d0baa88e55acc76ca4e15f443", "fusion_lon": 0.0, "bike_id": "45266b7d0baa88e55acc76ca4e15f443", "is_reserved": 0, "rental_uris": {"android": "https://dc.lft.to/lastmile_qr_scan", "ios": "https://dc.lft.to/lastmile_qr_scan"}, "lat": 38.894266, "is_disabled": 0, "lon": -76.91114416666667}, {"fusion_lat": 0.0, "type": "electric_scooter", "name": "c8133ec65445c668ba5ce6a130b4e6de", "fusion_lon": 0.0, "bike_id": "c8133ec65445c668ba5ce6a130b4e6de", "is_reserved": 0, "rental_uris": {"android": "https://dc.lft.to/lastmile_qr_scan", "ios": "https://dc.lft.to/lastmile_qr_scan"}, "lat": 38.876794, "is_disabled": 0, "lon": -76.99826916666666}, {"fusion_lat": 0.0, "type": "electric_scooter", "name": "00ffe26f924ac3fba8ff3a954dee404b", "fusion_lon": 0.0, "bike_id": "00ffe26f924ac3fba8ff3a954dee404b", "is_reserved": 0, "rental_uris": {"android": "https://dc.lft.to/lastmile_qr_scan", "ios": "https://dc.lft.to/lastmile_qr_scan"}, "lat": 38.91855916666667, "is_disabled": 0, "lon": -77.04499716666666}, {"fusion_lat": 0.0, "type": "electric_scooter", "name": "35d50168925b4f29a9f60f41a77bb0e6", "fusion_lon": 0.0, "bike_id": "35d50168925b4f29a9f60f41a77bb0e6", "is_reserved": 0, "rental_uris": {"android": "https://dc.lft.to/lastmile_qr_scan", "ios": "https://dc.lft.to/lastmile_qr_scan"}, "lat": 38.94181433333333, "is_disabled": 0, "lon": -77.02532583333333}, {"fusion_lat": 0.0, "type": "electric_scooter", "name": "5434ba4dfceba3006337b8a77a5ec65a", "fusion_lon": 0.0, "bike_id": "5434ba4dfceba3006337b8a77a5ec65a", "is_reserved": 0, "rental_uris": {"android": "https://dc.lft.to/lastmile_qr_scan", "ios": "https://dc.lft.to/lastmile_qr_scan"}, "lat": 38.91628216666667, "is_disabled": 0, "lon": -77.0315485}, {"fusion_lat": 0.0, "type": "electric_scooter", "name": "9df617f768e03e287511e671071d4e52", "fusion_lon": 0.0, "bike_id": "9df617f768e03e287511e671071d4e52", "is_reserved": 0, "rental_uris": {"android": "https://dc.lft.to/lastmile_qr_scan", "ios": "https://dc.lft.to/lastmile_qr_scan"}, "lat": 38.916839333333336, "is_disabled": 0, "lon": -77.02816783333333}, {"fusion_lat": 0.0, "type": "electric_bike", "name": "c2aaef3798e55f68a9989f23b6b6ddeb", "fusion_lon": 0.0, "bike_id": "c2aaef3798e55f68a9989f23b6b6ddeb", "is_reserved": 0, "rental_uris": {"android": "https://dc.lft.to/lastmile_qr_scan", "ios": "https://dc.lft.to/lastmile_qr_scan"}, "lat": 38.902705166666664, "is_disabled": 0, "lon": -76.92925566666666}, {"fusion_lat": 0.0, "type": "electric_scooter", "name": "e221b91a56dbc38d08210146b63ddb07", "fusion_lon": 0.0, "bike_id": "e221b91a56dbc38d08210146b63ddb07", "is_reserved": 0, "rental_uris": {"android": "https://dc.lft.to/lastmile_qr_scan", "ios": "https://dc.lft.to/lastmile_qr_scan"}, "lat": 38.909541833333336, "is_disabled": 0, "lon": -77.05487333333333}, {"fusion_lat": 0.0, "type": "electric_scooter", "name": "3ad03a6c2d63f9485d777f2ecc162296", "fusion_lon": 0.0, "bike_id": "3ad03a6c2d63f9485d777f2ecc162296", "is_reserved": 0, "rental_uris": {"android": "https://dc.lft.to/lastmile_qr_scan", "ios": "https://dc.lft.to/lastmile_qr_scan"}, "lat": 38.9117295, "is_disabled": 0, "lon": -77.02954583333333}, {"fusion_lat": 0.0, "type": "electric_scooter", "name": "38f9603a66b725db7529f701c81e048e", "fusion_lon": 0.0, "bike_id": "38f9603a66b725db7529f701c81e048e", "is_reserved": 0, "rental_uris": {"android": "https://dc.lft.to/lastmile_qr_scan", "ios": "https://dc.lft.to/lastmile_qr_scan"}, "lat": 38.90814483333333, "is_disabled": 0, "lon": -77.04335983333333}, {"fusion_lat": 0.0, "type": "electric_scooter", "name": "be7c68d33299c48dfab4a7211a98234b", "fusion_lon": 0.0, "bike_id": "be7c68d33299c48dfab4a7211a98234b", "is_reserved": 0, "rental_uris": {"android": "https://dc.lft.to/lastmile_qr_scan", "ios": "https://dc.lft.to/lastmile_qr_scan"}, "lat": 38.90005333333333, "is_disabled": 0, "lon": -77.00658183333333}, {"fusion_lat": 0.0, "type": "electric_scooter", "name": "42c81fd58a0325b8d8e75b7a48ae342e", "fusion_lon": 0.0, "bike_id": "42c81fd58a0325b8d8e75b7a48ae342e", "is_reserved": 0, "rental_uris": {"android": "https://dc.lft.to/lastmile_qr_scan", "ios": "https://dc.lft.to/lastmile_qr_scan"}, "lat": 38.918263833333334, "is_disabled": 0, "lon": -77.0319005}, {"fusion_lat": 0.0, "type": "electric_scooter", "name": "124ea733e3924423b33467b2ea797c70", "fusion_lon": 0.0, "bike_id": "124ea733e3924423b33467b2ea797c70", "is_reserved": 0, "rental_uris": {"android": "https://dc.lft.to/lastmile_qr_scan", "ios": "https://dc.lft.to/lastmile_qr_scan"}, "lat": 38.892208833333335, "is_disabled": 0, "lon": -77.0322465}, {"fusion_lat": 0.0, "type": "electric_scooter", "name": "fa9f3c7e56e7af6a08e5db66f5c9d235", "fusion_lon": 0.0, "bike_id": "fa9f3c7e56e7af6a08e5db66f5c9d235", "is_reserved": 0, "rental_uris": {"android": "https://dc.lft.to/lastmile_qr_scan", "ios": "https://dc.lft.to/lastmile_qr_scan"}, "lat": 38.92351383333333, "is_disabled": 0, "lon": -77.035459}, {"fusion_lat": 0.0, "type": "electric_scooter", "name": "dce293426aa3c45ff75fcd20fb5f9bf8", "fusion_lon": 0.0, "bike_id": "dce293426aa3c45ff75fcd20fb5f9bf8", "is_reserved": 0, "rental_uris": {"android": "https://dc.lft.to/lastmile_qr_scan", "ios": "https://dc.lft.to/lastmile_qr_scan"}, "lat": 38.92257016666667, "is_disabled": 0, "lon": -77.0296405}, {"fusion_lat": 0.0, "type": "electric_scooter", "name": "5e040474990b535729ef81d7bde582a3", "fusion_lon": 0.0, "bike_id": "5e040474990b535729ef81d7bde582a3", "is_reserved": 0, "rental_uris": {"android": "https://dc.lft.to/lastmile_qr_scan", "ios": "https://dc.lft.to/lastmile_qr_scan"}, "lat": 38.89144483333333, "is_disabled": 0, "lon": -76.98383216666667}, {"fusion_lat": 0.0, "type": "electric_scooter", "name": "8c0224aae537f0d36b8049ca49f14ef3", "fusion_lon": 0.0, "bike_id": "8c0224aae537f0d36b8049ca49f14ef3", "is_reserved": 0, "rental_uris": {"android": "https://dc.lft.to/lastmile_qr_scan", "ios": "https://dc.lft.to/lastmile_qr_scan"}, "lat": 38.90769683333333, "is_disabled": 0, "lon": -77.034995}, {"fusion_lat": 0.0, "type": "electric_scooter", "name": "09d71a2c90fc282775dd69ca8335515e", "fusion_lon": 0.0, "bike_id": "09d71a2c90fc282775dd69ca8335515e", "is_reserved": 0, "rental_uris": {"android": "https://dc.lft.to/lastmile_qr_scan", "ios": "https://dc.lft.to/lastmile_qr_scan"}, "lat": 38.92334233333333, "is_disabled": 0, "lon": -77.0445975}, {"fusion_lat": 0.0, "type": "electric_scooter", "name": "2157d0132a007753d46977edae7aaaa3", "fusion_lon": 0.0, "bike_id": "2157d0132a007753d46977edae7aaaa3", "is_reserved": 0, "rental_uris": {"android": "https://dc.lft.to/lastmile_qr_scan", "ios": "https://dc.lft.to/lastmile_qr_scan"}, "lat": 38.89167483333333, "is_disabled": 0, "lon": -76.911931}, {"fusion_lat": 0.0, "type": "electric_scooter", "name": "2964472fb1d6b575ec35aef63936266a", "fusion_lon": 0.0, "bike_id": "2964472fb1d6b575ec35aef63936266a", "is_reserved": 0, "rental_uris": {"android": "https://dc.lft.to/lastmile_qr_scan", "ios": "https://dc.lft.to/lastmile_qr_scan"}, "lat": 38.864294666666666, "is_disabled": 0, "lon": -76.974398}, {"fusion_lat": 0.0, "type": "electric_scooter", "name": "cf9b1d25dc1c1b3d129f83b111de4772", "fusion_lon": 0.0, "bike_id": "cf9b1d25dc1c1b3d129f83b111de4772", "is_reserved": 0, "rental_uris": {"android": "https://dc.lft.to/lastmile_qr_scan", "ios": "https://dc.lft.to/lastmile_qr_scan"}, "lat": 38.929737, "is_disabled": 0, "lon": -77.05503166666666}, {"fusion_lat": 0.0, "type": "electric_scooter", "name": "6bf81823e17d6cf5c9911ff85ef91667", "fusion_lon": 0.0, "bike_id": "6bf81823e17d6cf5c9911ff85ef91667", "is_reserved": 0, "rental_uris": {"android": "https://dc.lft.to/lastmile_qr_scan", "ios": "https://dc.lft.to/lastmile_qr_scan"}, "lat": 38.91495466666667, "is_disabled": 0, "lon": -77.02568633333334}, {"fusion_lat": 0.0, "type": "electric_scooter", "name": "a11436f1d1f7006d535da70f4bb3dc82", "fusion_lon": 0.0, "bike_id": "a11436f1d1f7006d535da70f4bb3dc82", "is_reserved": 0, "rental_uris": {"android": "https://dc.lft.to/lastmile_qr_scan", "ios": "https://dc.lft.to/lastmile_qr_scan"}, "lat": 38.90661, "is_disabled": 0, "lon": -77.03152483333334}, {"fusion_lat": 0.0, "type": "electric_scooter", "name": "578239600757d172c00e47f196f9ccbf", "fusion_lon": 0.0, "bike_id": "578239600757d172c00e47f196f9ccbf", "is_reserved": 0, "rental_uris": {"android": "https://dc.lft.to/lastmile_qr_scan", "ios": "https://dc.lft.to/lastmile_qr_scan"}, "lat": 38.89975, "is_disabled": 0, "lon": -77.01572783333333}, {"fusion_lat": 0.0, "type": "electric_scooter", "name": "4f96071a9c213bd106a9a0a2d8d74665", "fusion_lon": 0.0, "bike_id": "4f96071a9c213bd106a9a0a2d8d74665", "is_reserved": 0, "rental_uris": {"android": "https://dc.lft.to/lastmile_qr_scan", "ios": "https://dc.lft.to/lastmile_qr_scan"}, "lat": 38.90972333333333, "is_disabled": 0, "lon": -77.03872033333333}, {"fusion_lat": 0.0, "type": "electric_scooter", "name": "e71fa5d62a795c2c1cb8a35aeb655e78", "fusion_lon": 0.0, "bike_id": "e71fa5d62a795c2c1cb8a35aeb655e78", "is_reserved": 0, "rental_uris": {"android": "https://dc.lft.to/lastmile_qr_scan", "ios": "https://dc.lft.to/lastmile_qr_scan"}, "lat": 38.916979833333336, "is_disabled": 0, "lon": -77.04264133333334}, {"fusion_lat": 0.0, "type": "electric_scooter", "name": "76f3314ea57cf4fccf087c652d6762f0", "fusion_lon": 0.0, "bike_id": "76f3314ea57cf4fccf087c652d6762f0", "is_reserved": 0, "rental_uris": {"android": "https://dc.lft.to/lastmile_qr_scan", "ios": "https://dc.lft.to/lastmile_qr_scan"}, "lat": 38.907243666666666, "is_disabled": 0, "lon": -76.99821733333333}, {"fusion_lat": 0.0, "type": "electric_scooter", "name": "39671f7ce1e9d4b81aea80833d8d2ea6", "fusion_lon": 0.0, "bike_id": "39671f7ce1e9d4b81aea80833d8d2ea6", "is_reserved": 0, "rental_uris": {"android": "https://dc.lft.to/lastmile_qr_scan", "ios": "https://dc.lft.to/lastmile_qr_scan"}, "lat": 38.94268866666667, "is_disabled": 0, "lon": -77.02850766666667}, {"fusion_lat": 0.0, "type": "electric_scooter", "name": "d6ff1684b449eacd11e8733778d7c0fd", "fusion_lon": 0.0, "bike_id": "d6ff1684b449eacd11e8733778d7c0fd", "is_reserved": 0, "rental_uris": {"android": "https://dc.lft.to/lastmile_qr_scan", "ios": "https://dc.lft.to/lastmile_qr_scan"}, "lat": 38.89758833333333, "is_disabled": 0, "lon": -77.03949316666667}, {"fusion_lat": 0.0, "type": "electric_bike", "name": "8cbba77a27496f349eca30c7c02bb3c7", "fusion_lon": 0.0, "bike_id": "8cbba77a27496f349eca30c7c02bb3c7", "is_reserved": 0, "rental_uris": {"android": "https://dc.lft.to/lastmile_qr_scan", "ios": "https://dc.lft.to/lastmile_qr_scan"}, "lat": 38.945516166666664, "is_disabled": 0, "lon": -76.89540516666666}, {"fusion_lat": 0.0, "type": "electric_scooter", "name": "8ce6d9edfcbe7303872b0623dcd1bddc", "fusion_lon": 0.0, "bike_id": "8ce6d9edfcbe7303872b0623dcd1bddc", "is_reserved": 0, "rental_uris": {"android": "https://dc.lft.to/lastmile_qr_scan", "ios": "https://dc.lft.to/lastmile_qr_scan"}, "lat": 38.9200715, "is_disabled": 0, "lon": -77.023801}, {"fusion_lat": 0.0, "type": "electric_scooter", "name": "9bf9ac93757656d8aea787c2aab208cb", "fusion_lon": 0.0, "bike_id": "9bf9ac93757656d8aea787c2aab208cb", "is_reserved": 0, "rental_uris": {"android": "https://dc.lft.to/lastmile_qr_scan", "ios": "https://dc.lft.to/lastmile_qr_scan"}, "lat": 38.90949333333333, "is_disabled": 0, "lon": -77.03199166666667}, {"fusion_lat": 0.0, "type": "electric_scooter", "name": "e3711070d51e74fa28bc4a9dafd93852", "fusion_lon": 0.0, "bike_id": "e3711070d51e74fa28bc4a9dafd93852", "is_reserved": 0, "rental_uris": {"android": "https://dc.lft.to/lastmile_qr_scan", "ios": "https://dc.lft.to/lastmile_qr_scan"}, "lat": 38.87753133333333, "is_disabled": 0, "lon": -77.01778233333333}, {"fusion_lat": 0.0, "type": "electric_scooter", "name": "8fa8b47313e0357f8e0171c963120f87", "fusion_lon": 0.0, "bike_id": "8fa8b47313e0357f8e0171c963120f87", "is_reserved": 0, "rental_uris": {"android": "https://dc.lft.to/lastmile_qr_scan", "ios": "https://dc.lft.to/lastmile_qr_scan"}, "lat": 38.91712233333333, "is_disabled": 0, "lon": -77.03418083333334}, {"fusion_lat": 0.0, "type": "electric_bike", "name": "f91f4820de8a816875a329bdffdcca3b", "fusion_lon": 0.0, "bike_id": "f91f4820de8a816875a329bdffdcca3b", "is_reserved": 0, "rental_uris": {"android": "https://dc.lft.to/lastmile_qr_scan", "ios": "https://dc.lft.to/lastmile_qr_scan"}, "lat": 38.94974233333333, "is_disabled": 0, "lon": -77.0738795}, {"fusion_lat": 0.0, "type": "electric_scooter", "name": "a0aef7f195c0577d3a16d1ecf3528cd8", "fusion_lon": 0.0, "bike_id": "a0aef7f195c0577d3a16d1ecf3528cd8", "is_reserved": 0, "rental_uris": {"android": "https://dc.lft.to/lastmile_qr_scan", "ios": "https://dc.lft.to/lastmile_qr_scan"}, "lat": 38.921399666666666, "is_disabled": 0, "lon": -77.02063166666667}, {"fusion_lat": 0.0, "type": "electric_bike", "name": "33fd20460488a1d44cd9b6e82212fae9", "fusion_lon": 0.0, "bike_id": "33fd20460488a1d44cd9b6e82212fae9", "is_reserved": 0, "rental_uris": {"android": "https://dc.lft.to/lastmile_qr_scan", "ios": "https://dc.lft.to/lastmile_qr_scan"}, "lat": 38.8131475, "is_disabled": 0, "lon": -77.10971833333333}, {"fusion_lat": 0.0, "type": "electric_bike", "name": "f7ca9d7a0d9c1ebea550530bd94606a2", "fusion_lon": 0.0, "bike_id": "f7ca9d7a0d9c1ebea550530bd94606a2", "is_reserved": 0, "rental_uris": {"android": "https://dc.lft.to/lastmile_qr_scan", "ios": "https://dc.lft.to/lastmile_qr_scan"}, "lat": 38.945097833333335, "is_disabled": 0, "lon": -77.00676616666667}, {"fusion_lat": 0.0, "type": "electric_scooter", "name": "b402be412a1c16da0ee434e274dbda47", "fusion_lon": 0.0, "bike_id": "b402be412a1c16da0ee434e274dbda47", "is_reserved": 0, "rental_uris": {"android": "https://dc.lft.to/lastmile_qr_scan", "ios": "https://dc.lft.to/lastmile_qr_scan"}, "lat": 38.920855, "is_disabled": 0, "lon": -77.01205566666667}, {"fusion_lat": 0.0, "type": "electric_scooter", "name": "40d1f79e3dafb909fc0e17e539500a4c", "fusion_lon": 0.0, "bike_id": "40d1f79e3dafb909fc0e17e539500a4c", "is_reserved": 0, "rental_uris": {"android": "https://dc.lft.to/lastmile_qr_scan", "ios": "https://dc.lft.to/lastmile_qr_scan"}, "lat": 38.929336666666664, "is_disabled": 0, "lon": -77.037505}, {"fusion_lat": 0.0, "type": "electric_scooter", "name": "adad99f4c3e3046585a045af898db6ad", "fusion_lon": 0.0, "bike_id": "adad99f4c3e3046585a045af898db6ad", "is_reserved": 0, "rental_uris": {"android": "https://dc.lft.to/lastmile_qr_scan", "ios": "https://dc.lft.to/lastmile_qr_scan"}, "lat": 38.89232066666667, "is_disabled": 0, "lon": -77.01981183333334}, {"fusion_lat": 0.0, "type": "electric_scooter", "name": "4e2e3cd34ff0a008643426ff4931fd2c", "fusion_lon": 0.0, "bike_id": "4e2e3cd34ff0a008643426ff4931fd2c", "is_reserved": 0, "rental_uris": {"android": "https://dc.lft.to/lastmile_qr_scan", "ios": "https://dc.lft.to/lastmile_qr_scan"}, "lat": 38.922403, "is_disabled": 0, "lon": -77.04254633333333}, {"fusion_lat": 0.0, "type": "electric_bike", "name": "a5311c549d73a77574ae9f6050eddb6c", "fusion_lon": 0.0, "bike_id": "a5311c549d73a77574ae9f6050eddb6c", "is_reserved": 0, "rental_uris": {"android": "https://dc.lft.to/lastmile_qr_scan", "ios": "https://dc.lft.to/lastmile_qr_scan"}, "lat": 38.9934485, "is_disabled": 0, "lon": -77.115746}, {"fusion_lat": 0.0, "type": "electric_scooter", "name": "58dd1cee30d12695eb3c66bffa1e96f0", "fusion_lon": 0.0, "bike_id": "58dd1cee30d12695eb3c66bffa1e96f0", "is_reserved": 0, "rental_uris": {"android": "https://dc.lft.to/lastmile_qr_scan", "ios": "https://dc.lft.to/lastmile_qr_scan"}, "lat": 38.916736666666665, "is_disabled": 0, "lon": -77.02290366666666}, {"fusion_lat": 0.0, "type": "electric_scooter", "name": "a40a13b1e779dac559d487ceece3e16f", "fusion_lon": 0.0, "bike_id": "a40a13b1e779dac559d487ceece3e16f", "is_reserved": 0, "rental_uris": {"android": "https://dc.lft.to/lastmile_qr_scan", "ios": "https://dc.lft.to/lastmile_qr_scan"}, "lat": 38.892261833333336, "is_disabled": 0, "lon": -77.04336883333333}, {"fusion_lat": 0.0, "type": "electric_scooter", "name": "f49c2e7ea5f594941aecdde506897e32", "fusion_lon": 0.0, "bike_id": "f49c2e7ea5f594941aecdde506897e32", "is_reserved": 0, "rental_uris": {"android": "https://dc.lft.to/lastmile_qr_scan", "ios": "https://dc.lft.to/lastmile_qr_scan"}, "lat": 38.90155266666667, "is_disabled": 0, "lon": -77.04401683333333}, {"fusion_lat": 0.0, "type": "electric_scooter", "name": "b736d26ff463705e77ff5e29c4415a9a", "fusion_lon": 0.0, "bike_id": "b736d26ff463705e77ff5e29c4415a9a", "is_reserved": 0, "rental_uris": {"android": "https://dc.lft.to/lastmile_qr_scan", "ios": "https://dc.lft.to/lastmile_qr_scan"}, "lat": 38.917164, "is_disabled": 0, "lon": -77.0386045}, {"fusion_lat": 0.0, "type": "electric_scooter", "name": "505afdd3cbd3a5f66b4fabdebc10dd41", "fusion_lon": 0.0, "bike_id": "505afdd3cbd3a5f66b4fabdebc10dd41", "is_reserved": 0, "rental_uris": {"android": "https://dc.lft.to/lastmile_qr_scan", "ios": "https://dc.lft.to/lastmile_qr_scan"}, "lat": 38.90704483333333, "is_disabled": 0, "lon": -77.02698333333333}, {"fusion_lat": 0.0, "type": "electric_scooter", "name": "a6f370a1cb4516997757bc91edef2548", "fusion_lon": 0.0, "bike_id": "a6f370a1cb4516997757bc91edef2548", "is_reserved": 0, "rental_uris": {"android": "https://dc.lft.to/lastmile_qr_scan", "ios": "https://dc.lft.to/lastmile_qr_scan"}, "lat": 38.866535, "is_disabled": 0, "lon": -76.9852525}, {"fusion_lat": 0.0, "type": "electric_scooter", "name": "b84c668ccb11f8c18a0f88387dc2828e", "fusion_lon": 0.0, "bike_id": "b84c668ccb11f8c18a0f88387dc2828e", "is_reserved": 0, "rental_uris": {"android": "https://dc.lft.to/lastmile_qr_scan", "ios": "https://dc.lft.to/lastmile_qr_scan"}, "lat": 38.90704, "is_disabled": 0, "lon": -77.03704683333333}, {"fusion_lat": 0.0, "type": "electric_bike", "name": "14f734b091564b9765a1cd21646fdfc3", "fusion_lon": 0.0, "bike_id": "14f734b091564b9765a1cd21646fdfc3", "is_reserved": 0, "rental_uris": {"android": "https://dc.lft.to/lastmile_qr_scan", "ios": "https://dc.lft.to/lastmile_qr_scan"}, "lat": 38.846085, "is_disabled": 0, "lon": -77.08972583333333}, {"fusion_lat": 0.0, "type": "electric_scooter", "name": "e7a31ae93413ae1f19baf1d65fd4f533", "fusion_lon": 0.0, "bike_id": "e7a31ae93413ae1f19baf1d65fd4f533", "is_reserved": 0, "rental_uris": {"android": "https://dc.lft.to/lastmile_qr_scan", "ios": "https://dc.lft.to/lastmile_qr_scan"}, "lat": 38.9300615, "is_disabled": 0, "lon": -77.05522466666666}, {"fusion_lat": 0.0, "type": "electric_scooter", "name": "e7e79ab00fd6f089df4146760503e85e", "fusion_lon": 0.0, "bike_id": "e7e79ab00fd6f089df4146760503e85e", "is_reserved": 0, "rental_uris": {"android": "https://dc.lft.to/lastmile_qr_scan", "ios": "https://dc.lft.to/lastmile_qr_scan"}, "lat": 38.924292666666666, "is_disabled": 0, "lon": -77.04246816666667}, {"fusion_lat": 0.0, "type": "electric_scooter", "name": "dcb5a2714238f62a2d9bce4156fc7f17", "fusion_lon": 0.0, "bike_id": "dcb5a2714238f62a2d9bce4156fc7f17", "is_reserved": 0, "rental_uris": {"android": "https://dc.lft.to/lastmile_qr_scan", "ios": "https://dc.lft.to/lastmile_qr_scan"}, "lat": 38.8930035, "is_disabled": 0, "lon": -77.01238466666666}, {"fusion_lat": 0.0, "type": "electric_bike", "name": "037abe4d66e01c4ecc68736a452988e5", "fusion_lon": 0.0, "bike_id": "037abe4d66e01c4ecc68736a452988e5", "is_reserved": 0, "rental_uris": {"android": "https://dc.lft.to/lastmile_qr_scan", "ios": "https://dc.lft.to/lastmile_qr_scan"}, "lat": 38.878357666666666, "is_disabled": 0, "lon": -76.98376533333334}, {"fusion_lat": 0.0, "type": "electric_bike", "name": "bffe57aa26760ae7da2d93e1facfbf5c", "fusion_lon": 0.0, "bike_id": "bffe57aa26760ae7da2d93e1facfbf5c", "is_reserved": 0, "rental_uris": {"android": "https://dc.lft.to/lastmile_qr_scan", "ios": "https://dc.lft.to/lastmile_qr_scan"}, "lat": 38.9364715, "is_disabled": 0, "lon": -77.03694083333333}, {"fusion_lat": 0.0, "type": "electric_scooter", "name": "771e84555aabadcb592676124784d6de", "fusion_lon": 0.0, "bike_id": "771e84555aabadcb592676124784d6de", "is_reserved": 0, "rental_uris": {"android": "https://dc.lft.to/lastmile_qr_scan", "ios": "https://dc.lft.to/lastmile_qr_scan"}, "lat": 38.92854, "is_disabled": 0, "lon": -77.030894}, {"fusion_lat": 0.0, "type": "electric_scooter", "name": "26075f5e6d5ad56b85f2663ba9ccc5f0", "fusion_lon": 0.0, "bike_id": "26075f5e6d5ad56b85f2663ba9ccc5f0", "is_reserved": 0, "rental_uris": {"android": "https://dc.lft.to/lastmile_qr_scan", "ios": "https://dc.lft.to/lastmile_qr_scan"}, "lat": 38.91479183333333, "is_disabled": 0, "lon": -77.025817}, {"fusion_lat": 0.0, "type": "electric_scooter", "name": "2ca8ff1c6e92280f6df3d29bb62e677b", "fusion_lon": 0.0, "bike_id": "2ca8ff1c6e92280f6df3d29bb62e677b", "is_reserved": 0, "rental_uris": {"android": "https://dc.lft.to/lastmile_qr_scan", "ios": "https://dc.lft.to/lastmile_qr_scan"}, "lat": 38.90745166666667, "is_disabled": 0, "lon": -77.00177833333333}, {"fusion_lat": 0.0, "type": "electric_scooter", "name": "88398b5bb1cf3ac4cfe3487bdc48f511", "fusion_lon": 0.0, "bike_id": "88398b5bb1cf3ac4cfe3487bdc48f511", "is_reserved": 0, "rental_uris": {"android": "https://dc.lft.to/lastmile_qr_scan", "ios": "https://dc.lft.to/lastmile_qr_scan"}, "lat": 38.928011833333336, "is_disabled": 0, "lon": -77.0247865}, {"fusion_lat": 0.0, "type": "electric_scooter", "name": "e62c08a262b6b2995731645d0587e037", "fusion_lon": 0.0, "bike_id": "e62c08a262b6b2995731645d0587e037", "is_reserved": 0, "rental_uris": {"android": "https://dc.lft.to/lastmile_qr_scan", "ios": "https://dc.lft.to/lastmile_qr_scan"}, "lat": 38.92059733333333, "is_disabled": 0, "lon": -77.0399755}, {"fusion_lat": 0.0, "type": "electric_scooter", "name": "c901052f898e104491196ab73c1d346b", "fusion_lon": 0.0, "bike_id": "c901052f898e104491196ab73c1d346b", "is_reserved": 0, "rental_uris": {"android": "https://dc.lft.to/lastmile_qr_scan", "ios": "https://dc.lft.to/lastmile_qr_scan"}, "lat": 38.973675666666665, "is_disabled": 0, "lon": -77.018713}, {"fusion_lat": 0.0, "type": "electric_scooter", "name": "02e01ce672e2984074ec137df1a448e3", "fusion_lon": 0.0, "bike_id": "02e01ce672e2984074ec137df1a448e3", "is_reserved": 0, "rental_uris": {"android": "https://dc.lft.to/lastmile_qr_scan", "ios": "https://dc.lft.to/lastmile_qr_scan"}, "lat": 38.93584216666667, "is_disabled": 0, "lon": -77.05853833333333}, {"fusion_lat": 0.0, "type": "electric_scooter", "name": "d0bf0d555a055c0c5d25f74036d97ae3", "fusion_lon": 0.0, "bike_id": "d0bf0d555a055c0c5d25f74036d97ae3", "is_reserved": 0, "rental_uris": {"android": "https://dc.lft.to/lastmile_qr_scan", "ios": "https://dc.lft.to/lastmile_qr_scan"}, "lat": 38.87077566666667, "is_disabled": 0, "lon": -76.98940433333334}, {"fusion_lat": 0.0, "type": "electric_scooter", "name": "a040883f3c7723df791a9337c340fba4", "fusion_lon": 0.0, "bike_id": "a040883f3c7723df791a9337c340fba4", "is_reserved": 0, "rental_uris": {"android": "https://dc.lft.to/lastmile_qr_scan", "ios": "https://dc.lft.to/lastmile_qr_scan"}, "lat": 38.901066, "is_disabled": 0, "lon": -77.04314816666667}, {"fusion_lat": 0.0, "type": "electric_scooter", "name": "1e4bb547af3e880be0aaeebe3a70579b", "fusion_lon": 0.0, "bike_id": "1e4bb547af3e880be0aaeebe3a70579b", "is_reserved": 0, "rental_uris": {"android": "https://dc.lft.to/lastmile_qr_scan", "ios": "https://dc.lft.to/lastmile_qr_scan"}, "lat": 38.88577183333334, "is_disabled": 0, "lon": -77.0174295}, {"fusion_lat": 0.0, "type": "electric_scooter", "name": "4a1ce0a9f10b82d1d367d0bd5e74a88f", "fusion_lon": 0.0, "bike_id": "4a1ce0a9f10b82d1d367d0bd5e74a88f", "is_reserved": 0, "rental_uris": {"android": "https://dc.lft.to/lastmile_qr_scan", "ios": "https://dc.lft.to/lastmile_qr_scan"}, "lat": 38.9584115, "is_disabled": 0, "lon": -77.06857716666667}, {"fusion_lat": 0.0, "type": "electric_scooter", "name": "d543312a3da3e01b5c10ea646f69d08b", "fusion_lon": 0.0, "bike_id": "d543312a3da3e01b5c10ea646f69d08b", "is_reserved": 0, "rental_uris": {"android": "https://dc.lft.to/lastmile_qr_scan", "ios": "https://dc.lft.to/lastmile_qr_scan"}, "lat": 38.916690833333334, "is_disabled": 0, "lon": -77.03211516666667}, {"fusion_lat": 0.0, "type": "electric_scooter", "name": "c45879737408a14d9286f01d1d2d7d14", "fusion_lon": 0.0, "bike_id": "c45879737408a14d9286f01d1d2d7d14", "is_reserved": 0, "rental_uris": {"android": "https://dc.lft.to/lastmile_qr_scan", "ios": "https://dc.lft.to/lastmile_qr_scan"}, "lat": 38.92026383333334, "is_disabled": 0, "lon": -77.01115033333333}, {"fusion_lat": 0.0, "type": "electric_scooter", "name": "a771d0d79be4a7f49258fa560a64ec1e", "fusion_lon": 0.0, "bike_id": "a771d0d79be4a7f49258fa560a64ec1e", "is_reserved": 0, "rental_uris": {"android": "https://dc.lft.to/lastmile_qr_scan", "ios": "https://dc.lft.to/lastmile_qr_scan"}, "lat": 38.906855, "is_disabled": 0, "lon": -77.00607233333334}, {"fusion_lat": 0.0, "type": "electric_scooter", "name": "ffcd7f3551190c740b276ef34ba38dad", "fusion_lon": 0.0, "bike_id": "ffcd7f3551190c740b276ef34ba38dad", "is_reserved": 0, "rental_uris": {"android": "https://dc.lft.to/lastmile_qr_scan", "ios": "https://dc.lft.to/lastmile_qr_scan"}, "lat": 38.89234783333333, "is_disabled": 0, "lon": -77.023845}, {"fusion_lat": 0.0, "type": "electric_scooter", "name": "2bcbe3118341e62d3b49659d526bb7f9", "fusion_lon": 0.0, "bike_id": "2bcbe3118341e62d3b49659d526bb7f9", "is_reserved": 0, "rental_uris": {"android": "https://dc.lft.to/lastmile_qr_scan", "ios": "https://dc.lft.to/lastmile_qr_scan"}, "lat": 38.91092666666667, "is_disabled": 0, "lon": -77.04483666666667}, {"fusion_lat": 0.0, "type": "electric_scooter", "name": "a00be21805119fc834207f2fd6b2a6da", "fusion_lon": 0.0, "bike_id": "a00be21805119fc834207f2fd6b2a6da", "is_reserved": 0, "rental_uris": {"android": "https://dc.lft.to/lastmile_qr_scan", "ios": "https://dc.lft.to/lastmile_qr_scan"}, "lat": 38.87245566666667, "is_disabled": 0, "lon": -76.97726433333334}, {"fusion_lat": 0.0, "type": "electric_scooter", "name": "882e0d9f1362813b719a0975aba0e5a5", "fusion_lon": 0.0, "bike_id": "882e0d9f1362813b719a0975aba0e5a5", "is_reserved": 0, "rental_uris": {"android": "https://dc.lft.to/lastmile_qr_scan", "ios": "https://dc.lft.to/lastmile_qr_scan"}, "lat": 38.899936833333335, "is_disabled": 0, "lon": -77.0013555}, {"fusion_lat": 0.0, "type": "electric_scooter", "name": "cb4e469d6aaf035df4644b954c67018f", "fusion_lon": 0.0, "bike_id": "cb4e469d6aaf035df4644b954c67018f", "is_reserved": 0, "rental_uris": {"android": "https://dc.lft.to/lastmile_qr_scan", "ios": "https://dc.lft.to/lastmile_qr_scan"}, "lat": 38.893271666666664, "is_disabled": 0, "lon": -77.0467685}, {"fusion_lat": 0.0, "type": "electric_scooter", "name": "a6f026c2542a979411236fdba3ee9846", "fusion_lon": 0.0, "bike_id": "a6f026c2542a979411236fdba3ee9846", "is_reserved": 0, "rental_uris": {"android": "https://dc.lft.to/lastmile_qr_scan", "ios": "https://dc.lft.to/lastmile_qr_scan"}, "lat": 38.9003435, "is_disabled": 0, "lon": -77.04396816666667}, {"fusion_lat": 0.0, "type": "electric_scooter", "name": "faf435583d75e23fb4dc006d1e8267c0", "fusion_lon": 0.0, "bike_id": "faf435583d75e23fb4dc006d1e8267c0", "is_reserved": 0, "rental_uris": {"android": "https://dc.lft.to/lastmile_qr_scan", "ios": "https://dc.lft.to/lastmile_qr_scan"}, "lat": 38.89354, "is_disabled": 0, "lon": -77.0222135}, {"fusion_lat": 0.0, "type": "electric_scooter", "name": "356de7c6d6282e48426efd0f7ea99af1", "fusion_lon": 0.0, "bike_id": "356de7c6d6282e48426efd0f7ea99af1", "is_reserved": 0, "rental_uris": {"android": "https://dc.lft.to/lastmile_qr_scan", "ios": "https://dc.lft.to/lastmile_qr_scan"}, "lat": 38.919804166666665, "is_disabled": 0, "lon": -77.01207766666667}, {"fusion_lat": 0.0, "type": "electric_scooter", "name": "4319049b0cbb6ab7d2502410174fbb1f", "fusion_lon": 0.0, "bike_id": "4319049b0cbb6ab7d2502410174fbb1f", "is_reserved": 0, "rental_uris": {"android": "https://dc.lft.to/lastmile_qr_scan", "ios": "https://dc.lft.to/lastmile_qr_scan"}, "lat": 38.9159595, "is_disabled": 0, "lon": -77.03202116666667}, {"fusion_lat": 0.0, "type": "electric_scooter", "name": "e223e7435407991cb9f4c992b99b2635", "fusion_lon": 0.0, "bike_id": "e223e7435407991cb9f4c992b99b2635", "is_reserved": 0, "rental_uris": {"android": "https://dc.lft.to/lastmile_qr_scan", "ios": "https://dc.lft.to/lastmile_qr_scan"}, "lat": 38.928228, "is_disabled": 0, "lon": -77.0215715}, {"fusion_lat": 0.0, "type": "electric_scooter", "name": "da5c19f0a978fd55145ea08c20a9ca2e", "fusion_lon": 0.0, "bike_id": "da5c19f0a978fd55145ea08c20a9ca2e", "is_reserved": 0, "rental_uris": {"android": "https://dc.lft.to/lastmile_qr_scan", "ios": "https://dc.lft.to/lastmile_qr_scan"}, "lat": 38.9395465, "is_disabled": 0, "lon": -77.02506516666666}, {"fusion_lat": 0.0, "type": "electric_scooter", "name": "a752feeab9a0e5e12da3d2fc832e5922", "fusion_lon": 0.0, "bike_id": "a752feeab9a0e5e12da3d2fc832e5922", "is_reserved": 0, "rental_uris": {"android": "https://dc.lft.to/lastmile_qr_scan", "ios": "https://dc.lft.to/lastmile_qr_scan"}, "lat": 38.99609, "is_disabled": 0, "lon": -77.03227183333334}, {"fusion_lat": 0.0, "type": "electric_scooter", "name": "cf3b1688bd2b7670fac9d2361dd6c68c", "fusion_lon": 0.0, "bike_id": "cf3b1688bd2b7670fac9d2361dd6c68c", "is_reserved": 0, "rental_uris": {"android": "https://dc.lft.to/lastmile_qr_scan", "ios": "https://dc.lft.to/lastmile_qr_scan"}, "lat": 38.884516166666664, "is_disabled": 0, "lon": -76.92948866666667}, {"fusion_lat": 0.0, "type": "electric_scooter", "name": "44dac3b1acf00150852283aa8bebe8a4", "fusion_lon": 0.0, "bike_id": "44dac3b1acf00150852283aa8bebe8a4", "is_reserved": 0, "rental_uris": {"android": "https://dc.lft.to/lastmile_qr_scan", "ios": "https://dc.lft.to/lastmile_qr_scan"}, "lat": 38.90381266666667, "is_disabled": 0, "lon": -77.03843083333334}, {"fusion_lat": 0.0, "type": "electric_scooter", "name": "9873bbd7afacdf0caf99e819876b77bf", "fusion_lon": 0.0, "bike_id": "9873bbd7afacdf0caf99e819876b77bf", "is_reserved": 0, "rental_uris": {"android": "https://dc.lft.to/lastmile_qr_scan", "ios": "https://dc.lft.to/lastmile_qr_scan"}, "lat": 38.9058395, "is_disabled": 0, "lon": -77.02600033333333}, {"fusion_lat": 0.0, "type": "electric_scooter", "name": "bfb3438deed60b9c073e62b95b78eb50", "fusion_lon": 0.0, "bike_id": "bfb3438deed60b9c073e62b95b78eb50", "is_reserved": 0, "rental_uris": {"android": "https://dc.lft.to/lastmile_qr_scan", "ios": "https://dc.lft.to/lastmile_qr_scan"}, "lat": 38.904687333333335, "is_disabled": 0, "lon": -76.980482}, {"fusion_lat": 0.0, "type": "electric_scooter", "name": "70dc23719862432661c78261d02105fd", "fusion_lon": 0.0, "bike_id": "70dc23719862432661c78261d02105fd", "is_reserved": 0, "rental_uris": {"android": "https://dc.lft.to/lastmile_qr_scan", "ios": "https://dc.lft.to/lastmile_qr_scan"}, "lat": 38.8855485, "is_disabled": 0, "lon": -77.02001416666667}, {"fusion_lat": 0.0, "type": "electric_scooter", "name": "71acedd5f6ae56e04c03e418a83f75e1", "fusion_lon": 0.0, "bike_id": "71acedd5f6ae56e04c03e418a83f75e1", "is_reserved": 0, "rental_uris": {"android": "https://dc.lft.to/lastmile_qr_scan", "ios": "https://dc.lft.to/lastmile_qr_scan"}, "lat": 38.92223, "is_disabled": 0, "lon": -77.042431}, {"fusion_lat": 0.0, "type": "electric_scooter", "name": "9f74460bddb3537d2568d8ff885fe158", "fusion_lon": 0.0, "bike_id": "9f74460bddb3537d2568d8ff885fe158", "is_reserved": 0, "rental_uris": {"android": "https://dc.lft.to/lastmile_qr_scan", "ios": "https://dc.lft.to/lastmile_qr_scan"}, "lat": 38.89221966666667, "is_disabled": 0, "lon": -77.03110666666667}, {"fusion_lat": 0.0, "type": "electric_scooter", "name": "b659956cb8a45a534fb126590c8ec5b3", "fusion_lon": 0.0, "bike_id": "b659956cb8a45a534fb126590c8ec5b3", "is_reserved": 0, "rental_uris": {"android": "https://dc.lft.to/lastmile_qr_scan", "ios": "https://dc.lft.to/lastmile_qr_scan"}, "lat": 38.91107366666667, "is_disabled": 0, "lon": -77.03148566666667}, {"fusion_lat": 0.0, "type": "electric_scooter", "name": "7ccc600d39e78e7c7b0cb65d984a270e", "fusion_lon": 0.0, "bike_id": "7ccc600d39e78e7c7b0cb65d984a270e", "is_reserved": 0, "rental_uris": {"android": "https://dc.lft.to/lastmile_qr_scan", "ios": "https://dc.lft.to/lastmile_qr_scan"}, "lat": 38.93474583333333, "is_disabled": 0, "lon": -77.08663166666666}, {"fusion_lat": 0.0, "type": "electric_scooter", "name": "4095a525d9153c62d8de199fd93de00a", "fusion_lon": 0.0, "bike_id": "4095a525d9153c62d8de199fd93de00a", "is_reserved": 0, "rental_uris": {"android": "https://dc.lft.to/lastmile_qr_scan", "ios": "https://dc.lft.to/lastmile_qr_scan"}, "lat": 38.89249183333333, "is_disabled": 0, "lon": -77.0465995}, {"fusion_lat": 0.0, "type": "electric_scooter", "name": "84aa70a9275d51154bae9b9f62beb065", "fusion_lon": 0.0, "bike_id": "84aa70a9275d51154bae9b9f62beb065", "is_reserved": 0, "rental_uris": {"android": "https://dc.lft.to/lastmile_qr_scan", "ios": "https://dc.lft.to/lastmile_qr_scan"}, "lat": 38.9170655, "is_disabled": 0, "lon": -77.03865883333333}, {"fusion_lat": 0.0, "type": "electric_scooter", "name": "8914a31f13308f19f5824e2c7453e341", "fusion_lon": 0.0, "bike_id": "8914a31f13308f19f5824e2c7453e341", "is_reserved": 0, "rental_uris": {"android": "https://dc.lft.to/lastmile_qr_scan", "ios": "https://dc.lft.to/lastmile_qr_scan"}, "lat": 38.90837283333333, "is_disabled": 0, "lon": -77.04333566666666}, {"fusion_lat": 0.0, "type": "electric_scooter", "name": "c0f632ffd7475d8167dafddd0348237b", "fusion_lon": 0.0, "bike_id": "c0f632ffd7475d8167dafddd0348237b", "is_reserved": 0, "rental_uris": {"android": "https://dc.lft.to/lastmile_qr_scan", "ios": "https://dc.lft.to/lastmile_qr_scan"}, "lat": 38.899688166666664, "is_disabled": 0, "lon": -77.033464}, {"fusion_lat": 0.0, "type": "electric_scooter", "name": "46c683b8bf94ed2d3063ed567df0e34d", "fusion_lon": 0.0, "bike_id": "46c683b8bf94ed2d3063ed567df0e34d", "is_reserved": 0, "rental_uris": {"android": "https://dc.lft.to/lastmile_qr_scan", "ios": "https://dc.lft.to/lastmile_qr_scan"}, "lat": 38.94904566666666, "is_disabled": 0, "lon": -77.020764}, {"fusion_lat": 0.0, "type": "electric_scooter", "name": "d8b14ac4b4dc7a16cd3d495d8db4f30a", "fusion_lon": 0.0, "bike_id": "d8b14ac4b4dc7a16cd3d495d8db4f30a", "is_reserved": 0, "rental_uris": {"android": "https://dc.lft.to/lastmile_qr_scan", "ios": "https://dc.lft.to/lastmile_qr_scan"}, "lat": 38.892242333333336, "is_disabled": 0, "lon": -77.04311333333334}, {"fusion_lat": 0.0, "type": "electric_scooter", "name": "9cff91239ebe266eed35bf6d0b5600dd", "fusion_lon": 0.0, "bike_id": "9cff91239ebe266eed35bf6d0b5600dd", "is_reserved": 0, "rental_uris": {"android": "https://dc.lft.to/lastmile_qr_scan", "ios": "https://dc.lft.to/lastmile_qr_scan"}, "lat": 38.87187316666667, "is_disabled": 0, "lon": -77.00592766666666}, {"fusion_lat": 0.0, "type": "electric_scooter", "name": "8bb3a12a3201a0ae537d93811f404ec7", "fusion_lon": 0.0, "bike_id": "8bb3a12a3201a0ae537d93811f404ec7", "is_reserved": 0, "rental_uris": {"android": "https://dc.lft.to/lastmile_qr_scan", "ios": "https://dc.lft.to/lastmile_qr_scan"}, "lat": 38.881223, "is_disabled": 0, "lon": -77.01670266666666}, {"fusion_lat": 0.0, "type": "electric_scooter", "name": "8abf5de0f614ecaee767d533371d8344", "fusion_lon": 0.0, "bike_id": "8abf5de0f614ecaee767d533371d8344", "is_reserved": 0, "rental_uris": {"android": "https://dc.lft.to/lastmile_qr_scan", "ios": "https://dc.lft.to/lastmile_qr_scan"}, "lat": 38.907538833333334, "is_disabled": 0, "lon": -77.00281183333334}, {"fusion_lat": 0.0, "type": "electric_scooter", "name": "2c6fe3f6ac8d39a7b6703b35ebd84032", "fusion_lon": 0.0, "bike_id": "2c6fe3f6ac8d39a7b6703b35ebd84032", "is_reserved": 0, "rental_uris": {"android": "https://dc.lft.to/lastmile_qr_scan", "ios": "https://dc.lft.to/lastmile_qr_scan"}, "lat": 38.91260666666667, "is_disabled": 0, "lon": -77.0307025}, {"fusion_lat": 0.0, "type": "electric_scooter", "name": "620fd7529f888cdbd9110930cd28aaa0", "fusion_lon": 0.0, "bike_id": "620fd7529f888cdbd9110930cd28aaa0", "is_reserved": 0, "rental_uris": {"android": "https://dc.lft.to/lastmile_qr_scan", "ios": "https://dc.lft.to/lastmile_qr_scan"}, "lat": 38.90187316666667, "is_disabled": 0, "lon": -77.02108533333333}, {"fusion_lat": 0.0, "type": "electric_scooter", "name": "fe7d7b419287a4868ac8491caa0fcac7", "fusion_lon": 0.0, "bike_id": "fe7d7b419287a4868ac8491caa0fcac7", "is_reserved": 0, "rental_uris": {"android": "https://dc.lft.to/lastmile_qr_scan", "ios": "https://dc.lft.to/lastmile_qr_scan"}, "lat": 38.91714133333333, "is_disabled": 0, "lon": -77.0385995}, {"fusion_lat": 0.0, "type": "electric_scooter", "name": "35f5923b0a158c0660d4f1f2244f3581", "fusion_lon": 0.0, "bike_id": "35f5923b0a158c0660d4f1f2244f3581", "is_reserved": 0, "rental_uris": {"android": "https://dc.lft.to/lastmile_qr_scan", "ios": "https://dc.lft.to/lastmile_qr_scan"}, "lat": 38.904710333333334, "is_disabled": 0, "lon": -77.0281695}, {"fusion_lat": 0.0, "type": "electric_scooter", "name": "fc25be0c7e1161c6a0ae3b6dbbb365b8", "fusion_lon": 0.0, "bike_id": "fc25be0c7e1161c6a0ae3b6dbbb365b8", "is_reserved": 0, "rental_uris": {"android": "https://dc.lft.to/lastmile_qr_scan", "ios": "https://dc.lft.to/lastmile_qr_scan"}, "lat": 38.89224883333333, "is_disabled": 0, "lon": -77.043785}, {"fusion_lat": 0.0, "type": "electric_scooter", "name": "7fe712a7bdbe3afd2edd536deff07398", "fusion_lon": 0.0, "bike_id": "7fe712a7bdbe3afd2edd536deff07398", "is_reserved": 0, "rental_uris": {"android": "https://dc.lft.to/lastmile_qr_scan", "ios": "https://dc.lft.to/lastmile_qr_scan"}, "lat": 38.925695, "is_disabled": 0, "lon": -77.04000466666666}, {"fusion_lat": 0.0, "type": "electric_scooter", "name": "d1b054b97a0763a51fc7badf7428146a", "fusion_lon": 0.0, "bike_id": "d1b054b97a0763a51fc7badf7428146a", "is_reserved": 0, "rental_uris": {"android": "https://dc.lft.to/lastmile_qr_scan", "ios": "https://dc.lft.to/lastmile_qr_scan"}, "lat": 38.935493666666666, "is_disabled": 0, "lon": -77.02226466666667}, {"fusion_lat": 0.0, "type": "electric_scooter", "name": "1b77b0029f3bb614946b583a0f652f23", "fusion_lon": 0.0, "bike_id": "1b77b0029f3bb614946b583a0f652f23", "is_reserved": 0, "rental_uris": {"android": "https://dc.lft.to/lastmile_qr_scan", "ios": "https://dc.lft.to/lastmile_qr_scan"}, "lat": 38.9206165, "is_disabled": 0, "lon": -77.04224016666667}, {"fusion_lat": 0.0, "type": "electric_scooter", "name": "3169f3ad65bd475f3624f261077e85ba", "fusion_lon": 0.0, "bike_id": "3169f3ad65bd475f3624f261077e85ba", "is_reserved": 0, "rental_uris": {"android": "https://dc.lft.to/lastmile_qr_scan", "ios": "https://dc.lft.to/lastmile_qr_scan"}, "lat": 38.8689645, "is_disabled": 0, "lon": -76.9822615}, {"fusion_lat": 0.0, "type": "electric_scooter", "name": "bb160a9d97f4a560fde0b24aac28cf49", "fusion_lon": 0.0, "bike_id": "bb160a9d97f4a560fde0b24aac28cf49", "is_reserved": 0, "rental_uris": {"android": "https://dc.lft.to/lastmile_qr_scan", "ios": "https://dc.lft.to/lastmile_qr_scan"}, "lat": 38.866987, "is_disabled": 0, "lon": -76.9871305}, {"fusion_lat": 0.0, "type": "electric_scooter", "name": "ce791e365b03ebf8008098c14e02d977", "fusion_lon": 0.0, "bike_id": "ce791e365b03ebf8008098c14e02d977", "is_reserved": 0, "rental_uris": {"android": "https://dc.lft.to/lastmile_qr_scan", "ios": "https://dc.lft.to/lastmile_qr_scan"}, "lat": 38.91105816666666, "is_disabled": 0, "lon": -77.02098233333334}, {"fusion_lat": 0.0, "type": "electric_scooter", "name": "02b71f131644b4ac6fcebd116826f343", "fusion_lon": 0.0, "bike_id": "02b71f131644b4ac6fcebd116826f343", "is_reserved": 0, "rental_uris": {"android": "https://dc.lft.to/lastmile_qr_scan", "ios": "https://dc.lft.to/lastmile_qr_scan"}, "lat": 38.92328666666667, "is_disabled": 0, "lon": -77.0362525}, {"fusion_lat": 0.0, "type": "electric_scooter", "name": "97db837b23f88a3fe53c4d4717c58b6e", "fusion_lon": 0.0, "bike_id": "97db837b23f88a3fe53c4d4717c58b6e", "is_reserved": 0, "rental_uris": {"android": "https://dc.lft.to/lastmile_qr_scan", "ios": "https://dc.lft.to/lastmile_qr_scan"}, "lat": 38.92844766666666, "is_disabled": 0, "lon": -77.01415533333333}, {"fusion_lat": 0.0, "type": "electric_scooter", "name": "4c57b79de01bfeaaca47e8ec91428a63", "fusion_lon": 0.0, "bike_id": "4c57b79de01bfeaaca47e8ec91428a63", "is_reserved": 0, "rental_uris": {"android": "https://dc.lft.to/lastmile_qr_scan", "ios": "https://dc.lft.to/lastmile_qr_scan"}, "lat": 38.9072355, "is_disabled": 0, "lon": -77.0487285}, {"fusion_lat": 0.0, "type": "electric_scooter", "name": "00f828f0cb73db058811407c4deb757d", "fusion_lon": 0.0, "bike_id": "00f828f0cb73db058811407c4deb757d", "is_reserved": 0, "rental_uris": {"android": "https://dc.lft.to/lastmile_qr_scan", "ios": "https://dc.lft.to/lastmile_qr_scan"}, "lat": 38.89222816666667, "is_disabled": 0, "lon": -77.043774}, {"fusion_lat": 0.0, "type": "electric_scooter", "name": "899e35393375ec7192382d6d4ee98c3c", "fusion_lon": 0.0, "bike_id": "899e35393375ec7192382d6d4ee98c3c", "is_reserved": 0, "rental_uris": {"android": "https://dc.lft.to/lastmile_qr_scan", "ios": "https://dc.lft.to/lastmile_qr_scan"}, "lat": 38.887349666666665, "is_disabled": 0, "lon": -77.02584366666666}, {"fusion_lat": 0.0, "type": "electric_scooter", "name": "4208b8f9c0d5ecd44809e944dd07a451", "fusion_lon": 0.0, "bike_id": "4208b8f9c0d5ecd44809e944dd07a451", "is_reserved": 0, "rental_uris": {"android": "https://dc.lft.to/lastmile_qr_scan", "ios": "https://dc.lft.to/lastmile_qr_scan"}, "lat": 38.9118735, "is_disabled": 0, "lon": -77.03017816666667}, {"fusion_lat": 0.0, "type": "electric_scooter", "name": "5677e1f75a49e9e95b85d7f2e7dd4d61", "fusion_lon": 0.0, "bike_id": "5677e1f75a49e9e95b85d7f2e7dd4d61", "is_reserved": 0, "rental_uris": {"android": "https://dc.lft.to/lastmile_qr_scan", "ios": "https://dc.lft.to/lastmile_qr_scan"}, "lat": 38.894913, "is_disabled": 0, "lon": -77.02164316666666}, {"fusion_lat": 0.0, "type": "electric_scooter", "name": "8b213754a90c2faf2299b2922f85cd3f", "fusion_lon": 0.0, "bike_id": "8b213754a90c2faf2299b2922f85cd3f", "is_reserved": 0, "rental_uris": {"android": "https://dc.lft.to/lastmile_qr_scan", "ios": "https://dc.lft.to/lastmile_qr_scan"}, "lat": 38.960247833333334, "is_disabled": 0, "lon": -77.01982233333334}, {"fusion_lat": 0.0, "type": "electric_bike", "name": "e54990435f01eb995b48c3e5d938cfbc", "fusion_lon": 0.0, "bike_id": "e54990435f01eb995b48c3e5d938cfbc", "is_reserved": 0, "rental_uris": {"android": "https://dc.lft.to/lastmile_qr_scan", "ios": "https://dc.lft.to/lastmile_qr_scan"}, "lat": 38.959245833333334, "is_disabled": 0, "lon": -76.92540916666667}, {"fusion_lat": 0.0, "type": "electric_scooter", "name": "1a1c1815bde5bd96ff48bb1434921447", "fusion_lon": 0.0, "bike_id": "1a1c1815bde5bd96ff48bb1434921447", "is_reserved": 0, "rental_uris": {"android": "https://dc.lft.to/lastmile_qr_scan", "ios": "https://dc.lft.to/lastmile_qr_scan"}, "lat": 38.893695666666666, "is_disabled": 0, "lon": -76.94996783333333}, {"fusion_lat": 0.0, "type": "electric_scooter", "name": "bb680650d97b47d4d9d487e0f663d313", "fusion_lon": 0.0, "bike_id": "bb680650d97b47d4d9d487e0f663d313", "is_reserved": 0, "rental_uris": {"android": "https://dc.lft.to/lastmile_qr_scan", "ios": "https://dc.lft.to/lastmile_qr_scan"}, "lat": 38.93086, "is_disabled": 0, "lon": -77.00413016666667}, {"fusion_lat": 0.0, "type": "electric_scooter", "name": "0b7b7507354236ba869d8723239ccb1b", "fusion_lon": 0.0, "bike_id": "0b7b7507354236ba869d8723239ccb1b", "is_reserved": 0, "rental_uris": {"android": "https://dc.lft.to/lastmile_qr_scan", "ios": "https://dc.lft.to/lastmile_qr_scan"}, "lat": 38.89344416666667, "is_disabled": 0, "lon": -77.04193433333333}, {"fusion_lat": 0.0, "type": "electric_scooter", "name": "b5e33901246d8cb391bd8c9746fd21bf", "fusion_lon": 0.0, "bike_id": "b5e33901246d8cb391bd8c9746fd21bf", "is_reserved": 0, "rental_uris": {"android": "https://dc.lft.to/lastmile_qr_scan", "ios": "https://dc.lft.to/lastmile_qr_scan"}, "lat": 38.92041833333333, "is_disabled": 0, "lon": -77.0364325}, {"fusion_lat": 0.0, "type": "electric_scooter", "name": "8c7ad542493b9da7edb116c29e0287a9", "fusion_lon": 0.0, "bike_id": "8c7ad542493b9da7edb116c29e0287a9", "is_reserved": 0, "rental_uris": {"android": "https://dc.lft.to/lastmile_qr_scan", "ios": "https://dc.lft.to/lastmile_qr_scan"}, "lat": 38.9026705, "is_disabled": 0, "lon": -77.03965266666667}, {"fusion_lat": 0.0, "type": "electric_scooter", "name": "0ad16097c0eb237d9655fdc4609a6039", "fusion_lon": 0.0, "bike_id": "0ad16097c0eb237d9655fdc4609a6039", "is_reserved": 0, "rental_uris": {"android": "https://dc.lft.to/lastmile_qr_scan", "ios": "https://dc.lft.to/lastmile_qr_scan"}, "lat": 38.943124, "is_disabled": 0, "lon": -77.01726}, {"fusion_lat": 0.0, "type": "electric_scooter", "name": "d3f2574917713f11fdf2f5ea8b30c862", "fusion_lon": 0.0, "bike_id": "d3f2574917713f11fdf2f5ea8b30c862", "is_reserved": 0, "rental_uris": {"android": "https://dc.lft.to/lastmile_qr_scan", "ios": "https://dc.lft.to/lastmile_qr_scan"}, "lat": 38.89850416666667, "is_disabled": 0, "lon": -76.99033816666666}, {"fusion_lat": 0.0, "type": "electric_scooter", "name": "db0287970fbd7a40b5f8016c02690d31", "fusion_lon": 0.0, "bike_id": "db0287970fbd7a40b5f8016c02690d31", "is_reserved": 0, "rental_uris": {"android": "https://dc.lft.to/lastmile_qr_scan", "ios": "https://dc.lft.to/lastmile_qr_scan"}, "lat": 38.93420116666667, "is_disabled": 0, "lon": -77.044019}, {"fusion_lat": 0.0, "type": "electric_scooter", "name": "6285a6f18feeaad0e62e6e4ea2653683", "fusion_lon": 0.0, "bike_id": "6285a6f18feeaad0e62e6e4ea2653683", "is_reserved": 0, "rental_uris": {"android": "https://dc.lft.to/lastmile_qr_scan", "ios": "https://dc.lft.to/lastmile_qr_scan"}, "lat": 38.9072055, "is_disabled": 0, "lon": -77.0320155}, {"fusion_lat": 0.0, "type": "electric_scooter", "name": "115609dbf76fd3a0602647e0e51ce087", "fusion_lon": 0.0, "bike_id": "115609dbf76fd3a0602647e0e51ce087", "is_reserved": 0, "rental_uris": {"android": "https://dc.lft.to/lastmile_qr_scan", "ios": "https://dc.lft.to/lastmile_qr_scan"}, "lat": 38.90623516666667, "is_disabled": 0, "lon": -77.05140566666667}, {"fusion_lat": 0.0, "type": "electric_scooter", "name": "7d082bd28d29acb2feb2d223b6395002", "fusion_lon": 0.0, "bike_id": "7d082bd28d29acb2feb2d223b6395002", "is_reserved": 0, "rental_uris": {"android": "https://dc.lft.to/lastmile_qr_scan", "ios": "https://dc.lft.to/lastmile_qr_scan"}, "lat": 38.907577333333336, "is_disabled": 0, "lon": -77.04211566666666}, {"fusion_lat": 0.0, "type": "electric_scooter", "name": "359d5e2ac69a5ead3e37158ea2a1fd68", "fusion_lon": 0.0, "bike_id": "359d5e2ac69a5ead3e37158ea2a1fd68", "is_reserved": 0, "rental_uris": {"android": "https://dc.lft.to/lastmile_qr_scan", "ios": "https://dc.lft.to/lastmile_qr_scan"}, "lat": 38.915995, "is_disabled": 0, "lon": -77.0351355}, {"fusion_lat": 0.0, "type": "electric_scooter", "name": "fb261acf388e0a60373d9d4b179b67b9", "fusion_lon": 0.0, "bike_id": "fb261acf388e0a60373d9d4b179b67b9", "is_reserved": 0, "rental_uris": {"android": "https://dc.lft.to/lastmile_qr_scan", "ios": "https://dc.lft.to/lastmile_qr_scan"}, "lat": 38.911048666666666, "is_disabled": 0, "lon": -77.019043}, {"fusion_lat": 0.0, "type": "electric_bike", "name": "98d04531b6c828c0a770183c01653567", "fusion_lon": 0.0, "bike_id": "98d04531b6c828c0a770183c01653567", "is_reserved": 0, "rental_uris": {"android": "https://dc.lft.to/lastmile_qr_scan", "ios": "https://dc.lft.to/lastmile_qr_scan"}, "lat": 38.948007833333335, "is_disabled": 0, "lon": -76.959679}, {"fusion_lat": 0.0, "type": "electric_scooter", "name": "f2e0fe3ab31c87c774a8e0bc2f8ed690", "fusion_lon": 0.0, "bike_id": "f2e0fe3ab31c87c774a8e0bc2f8ed690", "is_reserved": 0, "rental_uris": {"android": "https://dc.lft.to/lastmile_qr_scan", "ios": "https://dc.lft.to/lastmile_qr_scan"}, "lat": 38.90063283333333, "is_disabled": 0, "lon": -77.045357}, {"fusion_lat": 0.0, "type": "electric_scooter", "name": "4aceade579820aef7bed6899c6db6015", "fusion_lon": 0.0, "bike_id": "4aceade579820aef7bed6899c6db6015", "is_reserved": 0, "rental_uris": {"android": "https://dc.lft.to/lastmile_qr_scan", "ios": "https://dc.lft.to/lastmile_qr_scan"}, "lat": 38.950155, "is_disabled": 0, "lon": -77.0667465}, {"fusion_lat": 0.0, "type": "electric_scooter", "name": "2f15265d6f28e61f47e7135085d62fe3", "fusion_lon": 0.0, "bike_id": "2f15265d6f28e61f47e7135085d62fe3", "is_reserved": 0, "rental_uris": {"android": "https://dc.lft.to/lastmile_qr_scan", "ios": "https://dc.lft.to/lastmile_qr_scan"}, "lat": 38.91393166666667, "is_disabled": 0, "lon": -77.03327233333333}, {"fusion_lat": 0.0, "type": "electric_scooter", "name": "add64b2d3aa7f7d335c73937b09efd10", "fusion_lon": 0.0, "bike_id": "add64b2d3aa7f7d335c73937b09efd10", "is_reserved": 0, "rental_uris": {"android": "https://dc.lft.to/lastmile_qr_scan", "ios": "https://dc.lft.to/lastmile_qr_scan"}, "lat": 38.917083, "is_disabled": 0, "lon": -77.0086975}, {"fusion_lat": 0.0, "type": "electric_scooter", "name": "bb7e17a291bf72dc53e441184b70ad77", "fusion_lon": 0.0, "bike_id": "bb7e17a291bf72dc53e441184b70ad77", "is_reserved": 0, "rental_uris": {"android": "https://dc.lft.to/lastmile_qr_scan", "ios": "https://dc.lft.to/lastmile_qr_scan"}, "lat": 38.92268083333333, "is_disabled": 0, "lon": -77.03676516666667}, {"fusion_lat": 0.0, "type": "electric_scooter", "name": "0c4a1c71d62e056f2a41216155c4e425", "fusion_lon": 0.0, "bike_id": "0c4a1c71d62e056f2a41216155c4e425", "is_reserved": 0, "rental_uris": {"android": "https://dc.lft.to/lastmile_qr_scan", "ios": "https://dc.lft.to/lastmile_qr_scan"}, "lat": 38.917852833333335, "is_disabled": 0, "lon": -77.02308866666667}, {"fusion_lat": 0.0, "type": "electric_scooter", "name": "cd54f3348d8bc89798891b71dc6afd89", "fusion_lon": 0.0, "bike_id": "cd54f3348d8bc89798891b71dc6afd89", "is_reserved": 0, "rental_uris": {"android": "https://dc.lft.to/lastmile_qr_scan", "ios": "https://dc.lft.to/lastmile_qr_scan"}, "lat": 38.933255333333335, "is_disabled": 0, "lon": -77.04398416666666}, {"fusion_lat": 0.0, "type": "electric_scooter", "name": "4886c4c3376f8f9b7dd8c0c28b27f8c9", "fusion_lon": 0.0, "bike_id": "4886c4c3376f8f9b7dd8c0c28b27f8c9", "is_reserved": 0, "rental_uris": {"android": "https://dc.lft.to/lastmile_qr_scan", "ios": "https://dc.lft.to/lastmile_qr_scan"}, "lat": 38.924444333333334, "is_disabled": 0, "lon": -77.04031083333334}, {"fusion_lat": 0.0, "type": "electric_scooter", "name": "16fcd58f6f5c9bdf8701c7a4be7a763e", "fusion_lon": 0.0, "bike_id": "16fcd58f6f5c9bdf8701c7a4be7a763e", "is_reserved": 0, "rental_uris": {"android": "https://dc.lft.to/lastmile_qr_scan", "ios": "https://dc.lft.to/lastmile_qr_scan"}, "lat": 38.87162166666667, "is_disabled": 0, "lon": -76.9774375}, {"fusion_lat": 0.0, "type": "electric_scooter", "name": "9255b15c008f2647cbd2619cea89340a", "fusion_lon": 0.0, "bike_id": "9255b15c008f2647cbd2619cea89340a", "is_reserved": 0, "rental_uris": {"android": "https://dc.lft.to/lastmile_qr_scan", "ios": "https://dc.lft.to/lastmile_qr_scan"}, "lat": 38.91634166666667, "is_disabled": 0, "lon": -77.01080083333333}, {"fusion_lat": 0.0, "type": "electric_scooter", "name": "a9cd0a8f79737b0aaf8546734a558120", "fusion_lon": 0.0, "bike_id": "a9cd0a8f79737b0aaf8546734a558120", "is_reserved": 0, "rental_uris": {"android": "https://dc.lft.to/lastmile_qr_scan", "ios": "https://dc.lft.to/lastmile_qr_scan"}, "lat": 38.95554883333333, "is_disabled": 0, "lon": -77.07001533333333}, {"fusion_lat": 0.0, "type": "electric_scooter", "name": "45782d40d2d23be07c0d5e1b51666694", "fusion_lon": 0.0, "bike_id": "45782d40d2d23be07c0d5e1b51666694", "is_reserved": 0, "rental_uris": {"android": "https://dc.lft.to/lastmile_qr_scan", "ios": "https://dc.lft.to/lastmile_qr_scan"}, "lat": 38.93098916666667, "is_disabled": 0, "lon": -77.02477883333333}, {"fusion_lat": 0.0, "type": "electric_scooter", "name": "62845aae8d4ef10e76a170f14d3fe95d", "fusion_lon": 0.0, "bike_id": "62845aae8d4ef10e76a170f14d3fe95d", "is_reserved": 0, "rental_uris": {"android": "https://dc.lft.to/lastmile_qr_scan", "ios": "https://dc.lft.to/lastmile_qr_scan"}, "lat": 38.921166666666664, "is_disabled": 0, "lon": -77.03229783333333}, {"fusion_lat": 0.0, "type": "electric_scooter", "name": "12a338e3ccb6e2fda332ebc540f26a53", "fusion_lon": 0.0, "bike_id": "12a338e3ccb6e2fda332ebc540f26a53", "is_reserved": 0, "rental_uris": {"android": "https://dc.lft.to/lastmile_qr_scan", "ios": "https://dc.lft.to/lastmile_qr_scan"}, "lat": 38.93991416666667, "is_disabled": 0, "lon": -77.0288985}, {"fusion_lat": 0.0, "type": "electric_scooter", "name": "bbfc22990459445794413ec93abdba51", "fusion_lon": 0.0, "bike_id": "bbfc22990459445794413ec93abdba51", "is_reserved": 0, "rental_uris": {"android": "https://dc.lft.to/lastmile_qr_scan", "ios": "https://dc.lft.to/lastmile_qr_scan"}, "lat": 38.91933866666667, "is_disabled": 0, "lon": -77.04503433333333}, {"fusion_lat": 0.0, "type": "electric_scooter", "name": "900d3c7b11339ac071d166d320257370", "fusion_lon": 0.0, "bike_id": "900d3c7b11339ac071d166d320257370", "is_reserved": 0, "rental_uris": {"android": "https://dc.lft.to/lastmile_qr_scan", "ios": "https://dc.lft.to/lastmile_qr_scan"}, "lat": 38.9094685, "is_disabled": 0, "lon": -77.04431}, {"fusion_lat": 0.0, "type": "electric_bike", "name": "a445769f24417980fdb0234ea5595855", "fusion_lon": 0.0, "bike_id": "a445769f24417980fdb0234ea5595855", "is_reserved": 0, "rental_uris": {"android": "https://dc.lft.to/lastmile_qr_scan", "ios": "https://dc.lft.to/lastmile_qr_scan"}, "lat": 38.948013333333336, "is_disabled": 0, "lon": -76.97233433333334}, {"fusion_lat": 0.0, "type": "electric_scooter", "name": "fdc66b8a728f3a16507a00aa464ceb4b", "fusion_lon": 0.0, "bike_id": "fdc66b8a728f3a16507a00aa464ceb4b", "is_reserved": 0, "rental_uris": {"android": "https://dc.lft.to/lastmile_qr_scan", "ios": "https://dc.lft.to/lastmile_qr_scan"}, "lat": 38.946062166666664, "is_disabled": 0, "lon": -77.0266885}, {"fusion_lat": 0.0, "type": "electric_scooter", "name": "abfdc04bb3e3a8fb8d6c1ac92dfb338b", "fusion_lon": 0.0, "bike_id": "abfdc04bb3e3a8fb8d6c1ac92dfb338b", "is_reserved": 0, "rental_uris": {"android": "https://dc.lft.to/lastmile_qr_scan", "ios": "https://dc.lft.to/lastmile_qr_scan"}, "lat": 38.907180333333336, "is_disabled": 0, "lon": -77.025417}, {"fusion_lat": 0.0, "type": "electric_scooter", "name": "d2ac6d53ac73be639263aaadf82560c0", "fusion_lon": 0.0, "bike_id": "d2ac6d53ac73be639263aaadf82560c0", "is_reserved": 0, "rental_uris": {"android": "https://dc.lft.to/lastmile_qr_scan", "ios": "https://dc.lft.to/lastmile_qr_scan"}, "lat": 38.857547833333335, "is_disabled": 0, "lon": -76.99310833333334}, {"fusion_lat": 0.0, "type": "electric_bike", "name": "fd9628a7fd204e3a4d40bee5d0564d42", "fusion_lon": 0.0, "bike_id": "fd9628a7fd204e3a4d40bee5d0564d42", "is_reserved": 0, "rental_uris": {"android": "https://dc.lft.to/lastmile_qr_scan", "ios": "https://dc.lft.to/lastmile_qr_scan"}, "lat": 39.024350166666665, "is_disabled": 0, "lon": -77.13099033333333}, {"fusion_lat": 0.0, "type": "electric_scooter", "name": "2394fa5366e0dc5849db87b1f29c2194", "fusion_lon": 0.0, "bike_id": "2394fa5366e0dc5849db87b1f29c2194", "is_reserved": 0, "rental_uris": {"android": "https://dc.lft.to/lastmile_qr_scan", "ios": "https://dc.lft.to/lastmile_qr_scan"}, "lat": 38.9241385, "is_disabled": 0, "lon": -77.0353345}, {"fusion_lat": 0.0, "type": "electric_scooter", "name": "74be3bef87cf7bf5c2dec0615ad36b53", "fusion_lon": 0.0, "bike_id": "74be3bef87cf7bf5c2dec0615ad36b53", "is_reserved": 0, "rental_uris": {"android": "https://dc.lft.to/lastmile_qr_scan", "ios": "https://dc.lft.to/lastmile_qr_scan"}, "lat": 38.9174385, "is_disabled": 0, "lon": -77.0108705}, {"fusion_lat": 0.0, "type": "electric_scooter", "name": "e8090d02eb52e099e871cd6008da3941", "fusion_lon": 0.0, "bike_id": "e8090d02eb52e099e871cd6008da3941", "is_reserved": 0, "rental_uris": {"android": "https://dc.lft.to/lastmile_qr_scan", "ios": "https://dc.lft.to/lastmile_qr_scan"}, "lat": 38.88595433333333, "is_disabled": 0, "lon": -76.99148516666666}, {"fusion_lat": 0.0, "type": "electric_scooter", "name": "517ccfc2c0f85358e1fa1956fc055054", "fusion_lon": 0.0, "bike_id": "517ccfc2c0f85358e1fa1956fc055054", "is_reserved": 0, "rental_uris": {"android": "https://dc.lft.to/lastmile_qr_scan", "ios": "https://dc.lft.to/lastmile_qr_scan"}, "lat": 38.924755833333336, "is_disabled": 0, "lon": -77.02217283333333}, {"fusion_lat": 0.0, "type": "electric_bike", "name": "867efb2555447daca1f0d9cce5696744", "fusion_lon": 0.0, "bike_id": "867efb2555447daca1f0d9cce5696744", "is_reserved": 0, "rental_uris": {"android": "https://dc.lft.to/lastmile_qr_scan", "ios": "https://dc.lft.to/lastmile_qr_scan"}, "lat": 38.93970516666667, "is_disabled": 0, "lon": -76.98619816666667}, {"fusion_lat": 0.0, "type": "electric_scooter", "name": "2c5a6f0847251274c47c4c98cb3ee1e2", "fusion_lon": 0.0, "bike_id": "2c5a6f0847251274c47c4c98cb3ee1e2", "is_reserved": 0, "rental_uris": {"android": "https://dc.lft.to/lastmile_qr_scan", "ios": "https://dc.lft.to/lastmile_qr_scan"}, "lat": 38.900985, "is_disabled": 0, "lon": -77.04744466666666}, {"fusion_lat": 0.0, "type": "electric_scooter", "name": "8c0534b526a913b93fc7723df70f39f2", "fusion_lon": 0.0, "bike_id": "8c0534b526a913b93fc7723df70f39f2", "is_reserved": 0, "rental_uris": {"android": "https://dc.lft.to/lastmile_qr_scan", "ios": "https://dc.lft.to/lastmile_qr_scan"}, "lat": 38.932602, "is_disabled": 0, "lon": -77.0385015}, {"fusion_lat": 0.0, "type": "electric_scooter", "name": "947931897fbf804b8205a642fe40728f", "fusion_lon": 0.0, "bike_id": "947931897fbf804b8205a642fe40728f", "is_reserved": 0, "rental_uris": {"android": "https://dc.lft.to/lastmile_qr_scan", "ios": "https://dc.lft.to/lastmile_qr_scan"}, "lat": 38.8923665, "is_disabled": 0, "lon": -77.04161766666667}, {"fusion_lat": 0.0, "type": "electric_scooter", "name": "b40fc281ed492979d8ada07bf8788e3f", "fusion_lon": 0.0, "bike_id": "b40fc281ed492979d8ada07bf8788e3f", "is_reserved": 0, "rental_uris": {"android": "https://dc.lft.to/lastmile_qr_scan", "ios": "https://dc.lft.to/lastmile_qr_scan"}, "lat": 38.888705333333334, "is_disabled": 0, "lon": -77.0399475}, {"fusion_lat": 0.0, "type": "electric_bike", "name": "9f20c3cd7d7e340943c6a957480aeceb", "fusion_lon": 0.0, "bike_id": "9f20c3cd7d7e340943c6a957480aeceb", "is_reserved": 0, "rental_uris": {"android": "https://dc.lft.to/lastmile_qr_scan", "ios": "https://dc.lft.to/lastmile_qr_scan"}, "lat": 38.954915666666665, "is_disabled": 0, "lon": -76.9644085}, {"fusion_lat": 0.0, "type": "electric_scooter", "name": "30eed0a10ff8dcd54b4e8e3170dc087a", "fusion_lon": 0.0, "bike_id": "30eed0a10ff8dcd54b4e8e3170dc087a", "is_reserved": 0, "rental_uris": {"android": "https://dc.lft.to/lastmile_qr_scan", "ios": "https://dc.lft.to/lastmile_qr_scan"}, "lat": 38.89999866666667, "is_disabled": 0, "lon": -76.95193733333333}, {"fusion_lat": 0.0, "type": "electric_scooter", "name": "657157d3d6316aa1afd5210e39584074", "fusion_lon": 0.0, "bike_id": "657157d3d6316aa1afd5210e39584074", "is_reserved": 0, "rental_uris": {"android": "https://dc.lft.to/lastmile_qr_scan", "ios": "https://dc.lft.to/lastmile_qr_scan"}, "lat": 38.92730233333333, "is_disabled": 0, "lon": -77.03522966666667}, {"fusion_lat": 0.0, "type": "electric_bike", "name": "b8b91ec324f34405f73400ded1e7f1b0", "fusion_lon": 0.0, "bike_id": "b8b91ec324f34405f73400ded1e7f1b0", "is_reserved": 0, "rental_uris": {"android": "https://dc.lft.to/lastmile_qr_scan", "ios": "https://dc.lft.to/lastmile_qr_scan"}, "lat": 38.888129666666664, "is_disabled": 0, "lon": -77.038463}, {"fusion_lat": 0.0, "type": "electric_scooter", "name": "d3645996c9568995f0360faef2d4f2f5", "fusion_lon": 0.0, "bike_id": "d3645996c9568995f0360faef2d4f2f5", "is_reserved": 0, "rental_uris": {"android": "https://dc.lft.to/lastmile_qr_scan", "ios": "https://dc.lft.to/lastmile_qr_scan"}, "lat": 38.93894933333333, "is_disabled": 0, "lon": -77.02478483333333}, {"fusion_lat": 0.0, "type": "electric_scooter", "name": "a249b82216c5e467e5446aa06e5807c6", "fusion_lon": 0.0, "bike_id": "a249b82216c5e467e5446aa06e5807c6", "is_reserved": 0, "rental_uris": {"android": "https://dc.lft.to/lastmile_qr_scan", "ios": "https://dc.lft.to/lastmile_qr_scan"}, "lat": 38.9014975, "is_disabled": 0, "lon": -77.0332355}, {"fusion_lat": 0.0, "type": "electric_scooter", "name": "ee591891d193775adde7119a99ae1aef", "fusion_lon": 0.0, "bike_id": "ee591891d193775adde7119a99ae1aef", "is_reserved": 0, "rental_uris": {"android": "https://dc.lft.to/lastmile_qr_scan", "ios": "https://dc.lft.to/lastmile_qr_scan"}, "lat": 38.9167485, "is_disabled": 0, "lon": -77.03691383333333}, {"fusion_lat": 0.0, "type": "electric_scooter", "name": "47b82f348228c48d967ecb5f332d5e36", "fusion_lon": 0.0, "bike_id": "47b82f348228c48d967ecb5f332d5e36", "is_reserved": 0, "rental_uris": {"android": "https://dc.lft.to/lastmile_qr_scan", "ios": "https://dc.lft.to/lastmile_qr_scan"}, "lat": 38.915539, "is_disabled": 0, "lon": -77.031383}, {"fusion_lat": 0.0, "type": "electric_scooter", "name": "2f07e66286dc29c431d04bd899e020a9", "fusion_lon": 0.0, "bike_id": "2f07e66286dc29c431d04bd899e020a9", "is_reserved": 0, "rental_uris": {"android": "https://dc.lft.to/lastmile_qr_scan", "ios": "https://dc.lft.to/lastmile_qr_scan"}, "lat": 38.90055266666667, "is_disabled": 0, "lon": -77.01214633333333}, {"fusion_lat": 0.0, "type": "electric_scooter", "name": "ddfaf113e9192cf3df754e76e5f48cdc", "fusion_lon": 0.0, "bike_id": "ddfaf113e9192cf3df754e76e5f48cdc", "is_reserved": 0, "rental_uris": {"android": "https://dc.lft.to/lastmile_qr_scan", "ios": "https://dc.lft.to/lastmile_qr_scan"}, "lat": 38.90378483333333, "is_disabled": 0, "lon": -77.0384035}, {"fusion_lat": 0.0, "type": "electric_scooter", "name": "fdd69160e56fbd7e866993792846d726", "fusion_lon": 0.0, "bike_id": "fdd69160e56fbd7e866993792846d726", "is_reserved": 0, "rental_uris": {"android": "https://dc.lft.to/lastmile_qr_scan", "ios": "https://dc.lft.to/lastmile_qr_scan"}, "lat": 38.87635983333333, "is_disabled": 0, "lon": -77.000678}, {"fusion_lat": 0.0, "type": "electric_scooter", "name": "ac17cce5dc5922aeba9d0ba6ab74f63e", "fusion_lon": 0.0, "bike_id": "ac17cce5dc5922aeba9d0ba6ab74f63e", "is_reserved": 0, "rental_uris": {"android": "https://dc.lft.to/lastmile_qr_scan", "ios": "https://dc.lft.to/lastmile_qr_scan"}, "lat": 38.92314416666667, "is_disabled": 0, "lon": -77.03412533333334}, {"fusion_lat": 0.0, "type": "electric_scooter", "name": "05163786c70430c4e4d8faff9dfd0e90", "fusion_lon": 0.0, "bike_id": "05163786c70430c4e4d8faff9dfd0e90", "is_reserved": 0, "rental_uris": {"android": "https://dc.lft.to/lastmile_qr_scan", "ios": "https://dc.lft.to/lastmile_qr_scan"}, "lat": 38.9188435, "is_disabled": 0, "lon": -77.0229205}, {"fusion_lat": 0.0, "type": "electric_scooter", "name": "841cd8aa54b3d9d0bbfbfd8be5296f8b", "fusion_lon": 0.0, "bike_id": "841cd8aa54b3d9d0bbfbfd8be5296f8b", "is_reserved": 0, "rental_uris": {"android": "https://dc.lft.to/lastmile_qr_scan", "ios": "https://dc.lft.to/lastmile_qr_scan"}, "lat": 38.880468, "is_disabled": 0, "lon": -77.03068316666666}, {"fusion_lat": 0.0, "type": "electric_scooter", "name": "5e993075d3a797948890c6687eaf337b", "fusion_lon": 0.0, "bike_id": "5e993075d3a797948890c6687eaf337b", "is_reserved": 0, "rental_uris": {"android": "https://dc.lft.to/lastmile_qr_scan", "ios": "https://dc.lft.to/lastmile_qr_scan"}, "lat": 38.914358166666666, "is_disabled": 0, "lon": -77.01711283333333}, {"fusion_lat": 0.0, "type": "electric_scooter", "name": "907198967c4abbcb5556116652a69c08", "fusion_lon": 0.0, "bike_id": "907198967c4abbcb5556116652a69c08", "is_reserved": 0, "rental_uris": {"android": "https://dc.lft.to/lastmile_qr_scan", "ios": "https://dc.lft.to/lastmile_qr_scan"}, "lat": 38.9072765, "is_disabled": 0, "lon": -77.04335133333333}, {"fusion_lat": 0.0, "type": "electric_scooter", "name": "227d941507395e0c231d7fd0a3154873", "fusion_lon": 0.0, "bike_id": "227d941507395e0c231d7fd0a3154873", "is_reserved": 0, "rental_uris": {"android": "https://dc.lft.to/lastmile_qr_scan", "ios": "https://dc.lft.to/lastmile_qr_scan"}, "lat": 38.892248, "is_disabled": 0, "lon": -77.026245}, {"fusion_lat": 0.0, "type": "electric_scooter", "name": "9858669c00cdbfe65b5e1053051fa774", "fusion_lon": 0.0, "bike_id": "9858669c00cdbfe65b5e1053051fa774", "is_reserved": 0, "rental_uris": {"android": "https://dc.lft.to/lastmile_qr_scan", "ios": "https://dc.lft.to/lastmile_qr_scan"}, "lat": 38.930465166666664, "is_disabled": 0, "lon": -77.03796916666667}, {"fusion_lat": 0.0, "type": "electric_scooter", "name": "69bcf8fcc2ae11e8eb476479fd190bd3", "fusion_lon": 0.0, "bike_id": "69bcf8fcc2ae11e8eb476479fd190bd3", "is_reserved": 0, "rental_uris": {"android": "https://dc.lft.to/lastmile_qr_scan", "ios": "https://dc.lft.to/lastmile_qr_scan"}, "lat": 38.88020516666667, "is_disabled": 0, "lon": -77.02667266666667}, {"fusion_lat": 0.0, "type": "electric_scooter", "name": "4ef638008bde6fef2880631967734959", "fusion_lon": 0.0, "bike_id": "4ef638008bde6fef2880631967734959", "is_reserved": 0, "rental_uris": {"android": "https://dc.lft.to/lastmile_qr_scan", "ios": "https://dc.lft.to/lastmile_qr_scan"}, "lat": 38.937605833333336, "is_disabled": 0, "lon": -77.02195083333334}, {"fusion_lat": 0.0, "type": "electric_bike", "name": "ecaf587d739697ebb446a0bb1b6fa800", "fusion_lon": 0.0, "bike_id": "ecaf587d739697ebb446a0bb1b6fa800", "is_reserved": 0, "rental_uris": {"android": "https://dc.lft.to/lastmile_qr_scan", "ios": "https://dc.lft.to/lastmile_qr_scan"}, "lat": 38.887155166666666, "is_disabled": 0, "lon": -77.1330195}, {"fusion_lat": 0.0, "type": "electric_scooter", "name": "1dccb45859f34afa64c878ff0459d378", "fusion_lon": 0.0, "bike_id": "1dccb45859f34afa64c878ff0459d378", "is_reserved": 0, "rental_uris": {"android": "https://dc.lft.to/lastmile_qr_scan", "ios": "https://dc.lft.to/lastmile_qr_scan"}, "lat": 38.915924833333335, "is_disabled": 0, "lon": -77.0416665}, {"fusion_lat": 0.0, "type": "electric_scooter", "name": "5b4c05708a039e186147a7c307035222", "fusion_lon": 0.0, "bike_id": "5b4c05708a039e186147a7c307035222", "is_reserved": 0, "rental_uris": {"android": "https://dc.lft.to/lastmile_qr_scan", "ios": "https://dc.lft.to/lastmile_qr_scan"}, "lat": 38.922503166666665, "is_disabled": 0, "lon": -77.07232733333333}, {"fusion_lat": 0.0, "type": "electric_scooter", "name": "f402302bb1f66620ebb0ccefea3ee031", "fusion_lon": 0.0, "bike_id": "f402302bb1f66620ebb0ccefea3ee031", "is_reserved": 0, "rental_uris": {"android": "https://dc.lft.to/lastmile_qr_scan", "ios": "https://dc.lft.to/lastmile_qr_scan"}, "lat": 38.9290265, "is_disabled": 0, "lon": -77.03755133333334}, {"fusion_lat": 0.0, "type": "electric_scooter", "name": "6dbae75d9b95f7f9dd0d70aa57870434", "fusion_lon": 0.0, "bike_id": "6dbae75d9b95f7f9dd0d70aa57870434", "is_reserved": 0, "rental_uris": {"android": "https://dc.lft.to/lastmile_qr_scan", "ios": "https://dc.lft.to/lastmile_qr_scan"}, "lat": 38.910435166666666, "is_disabled": 0, "lon": -77.03688033333333}, {"fusion_lat": 0.0, "type": "electric_scooter", "name": "8b041f08b5648127ca727c6d67a65954", "fusion_lon": 0.0, "bike_id": "8b041f08b5648127ca727c6d67a65954", "is_reserved": 0, "rental_uris": {"android": "https://dc.lft.to/lastmile_qr_scan", "ios": "https://dc.lft.to/lastmile_qr_scan"}, "lat": 38.90811566666667, "is_disabled": 0, "lon": -77.04344666666667}, {"fusion_lat": 0.0, "type": "electric_scooter", "name": "3127d909e888b0b8182f02767c2e3a97", "fusion_lon": 0.0, "bike_id": "3127d909e888b0b8182f02767c2e3a97", "is_reserved": 0, "rental_uris": {"android": "https://dc.lft.to/lastmile_qr_scan", "ios": "https://dc.lft.to/lastmile_qr_scan"}, "lat": 38.88313683333333, "is_disabled": 0, "lon": -77.01757533333334}, {"fusion_lat": 0.0, "type": "electric_scooter", "name": "9e58cf3ddcc7b3a245b143d4e9e57d9e", "fusion_lon": 0.0, "bike_id": "9e58cf3ddcc7b3a245b143d4e9e57d9e", "is_reserved": 0, "rental_uris": {"android": "https://dc.lft.to/lastmile_qr_scan", "ios": "https://dc.lft.to/lastmile_qr_scan"}, "lat": 38.92424, "is_disabled": 0, "lon": -77.04461883333333}, {"fusion_lat": 0.0, "type": "electric_scooter", "name": "c72ab82739533175bf9d267a64af7a9e", "fusion_lon": 0.0, "bike_id": "c72ab82739533175bf9d267a64af7a9e", "is_reserved": 0, "rental_uris": {"android": "https://dc.lft.to/lastmile_qr_scan", "ios": "https://dc.lft.to/lastmile_qr_scan"}, "lat": 38.91707566666667, "is_disabled": 0, "lon": -77.04176233333334}, {"fusion_lat": 0.0, "type": "electric_scooter", "name": "e3f75f790970fa2789c21534eed10c6e", "fusion_lon": 0.0, "bike_id": "e3f75f790970fa2789c21534eed10c6e", "is_reserved": 0, "rental_uris": {"android": "https://dc.lft.to/lastmile_qr_scan", "ios": "https://dc.lft.to/lastmile_qr_scan"}, "lat": 38.9275375, "is_disabled": 0, "lon": -77.0328185}, {"fusion_lat": 0.0, "type": "electric_scooter", "name": "4f7d2288bc8d65b42ac2152fd81fd61c", "fusion_lon": 0.0, "bike_id": "4f7d2288bc8d65b42ac2152fd81fd61c", "is_reserved": 0, "rental_uris": {"android": "https://dc.lft.to/lastmile_qr_scan", "ios": "https://dc.lft.to/lastmile_qr_scan"}, "lat": 38.922680666666665, "is_disabled": 0, "lon": -77.03676583333333}, {"fusion_lat": 0.0, "type": "electric_scooter", "name": "1022cbac753f2dcfb4af27d5e51d1dcd", "fusion_lon": 0.0, "bike_id": "1022cbac753f2dcfb4af27d5e51d1dcd", "is_reserved": 0, "rental_uris": {"android": "https://dc.lft.to/lastmile_qr_scan", "ios": "https://dc.lft.to/lastmile_qr_scan"}, "lat": 38.920731833333335, "is_disabled": 0, "lon": -77.0230265}, {"fusion_lat": 0.0, "type": "electric_scooter", "name": "5083348c8f6b96c93435a4950f6623e4", "fusion_lon": 0.0, "bike_id": "5083348c8f6b96c93435a4950f6623e4", "is_reserved": 0, "rental_uris": {"android": "https://dc.lft.to/lastmile_qr_scan", "ios": "https://dc.lft.to/lastmile_qr_scan"}, "lat": 38.923568333333336, "is_disabled": 0, "lon": -76.99376183333334}, {"fusion_lat": 0.0, "type": "electric_scooter", "name": "bda6c303446c5cd7046ebd2b1d81159a", "fusion_lon": 0.0, "bike_id": "bda6c303446c5cd7046ebd2b1d81159a", "is_reserved": 0, "rental_uris": {"android": "https://dc.lft.to/lastmile_qr_scan", "ios": "https://dc.lft.to/lastmile_qr_scan"}, "lat": 38.91879866666667, "is_disabled": 0, "lon": -77.048227}, {"fusion_lat": 0.0, "type": "electric_scooter", "name": "246cfd7506dbd5ff10fe8282da54f99b", "fusion_lon": 0.0, "bike_id": "246cfd7506dbd5ff10fe8282da54f99b", "is_reserved": 0, "rental_uris": {"android": "https://dc.lft.to/lastmile_qr_scan", "ios": "https://dc.lft.to/lastmile_qr_scan"}, "lat": 38.95797116666667, "is_disabled": 0, "lon": -77.02000333333334}, {"fusion_lat": 0.0, "type": "electric_scooter", "name": "510065f2192cfa318110069f19ee3246", "fusion_lon": 0.0, "bike_id": "510065f2192cfa318110069f19ee3246", "is_reserved": 0, "rental_uris": {"android": "https://dc.lft.to/lastmile_qr_scan", "ios": "https://dc.lft.to/lastmile_qr_scan"}, "lat": 38.89306783333333, "is_disabled": 0, "lon": -77.02166233333334}, {"fusion_lat": 0.0, "type": "electric_scooter", "name": "405833a632301794675e039b45d47912", "fusion_lon": 0.0, "bike_id": "405833a632301794675e039b45d47912", "is_reserved": 0, "rental_uris": {"android": "https://dc.lft.to/lastmile_qr_scan", "ios": "https://dc.lft.to/lastmile_qr_scan"}, "lat": 38.91931683333333, "is_disabled": 0, "lon": -77.0455935}, {"fusion_lat": 0.0, "type": "electric_scooter", "name": "0a8bde027eb3d3b513225e68ffd09621", "fusion_lon": 0.0, "bike_id": "0a8bde027eb3d3b513225e68ffd09621", "is_reserved": 0, "rental_uris": {"android": "https://dc.lft.to/lastmile_qr_scan", "ios": "https://dc.lft.to/lastmile_qr_scan"}, "lat": 38.90499783333333, "is_disabled": 0, "lon": -77.0685865}, {"fusion_lat": 0.0, "type": "electric_bike", "name": "9899685a0793938570d646ffebaab435", "fusion_lon": 0.0, "bike_id": "9899685a0793938570d646ffebaab435", "is_reserved": 0, "rental_uris": {"android": "https://dc.lft.to/lastmile_qr_scan", "ios": "https://dc.lft.to/lastmile_qr_scan"}, "lat": 38.83933066666667, "is_disabled": 0, "lon": -77.07905266666667}, {"fusion_lat": 0.0, "type": "electric_scooter", "name": "7561c00be3b39bc9646a8bfa9000d8b7", "fusion_lon": 0.0, "bike_id": "7561c00be3b39bc9646a8bfa9000d8b7", "is_reserved": 0, "rental_uris": {"android": "https://dc.lft.to/lastmile_qr_scan", "ios": "https://dc.lft.to/lastmile_qr_scan"}, "lat": 38.8861615, "is_disabled": 0, "lon": -77.00066733333334}, {"fusion_lat": 0.0, "type": "electric_scooter", "name": "810f02888907eee41d902c54f295ede9", "fusion_lon": 0.0, "bike_id": "810f02888907eee41d902c54f295ede9", "is_reserved": 0, "rental_uris": {"android": "https://dc.lft.to/lastmile_qr_scan", "ios": "https://dc.lft.to/lastmile_qr_scan"}, "lat": 38.8929575, "is_disabled": 0, "lon": -77.012362}, {"fusion_lat": 0.0, "type": "electric_scooter", "name": "6150cb87333f54c98ec7f313a29c8da0", "fusion_lon": 0.0, "bike_id": "6150cb87333f54c98ec7f313a29c8da0", "is_reserved": 0, "rental_uris": {"android": "https://dc.lft.to/lastmile_qr_scan", "ios": "https://dc.lft.to/lastmile_qr_scan"}, "lat": 38.873672, "is_disabled": 0, "lon": -76.970108}, {"fusion_lat": 0.0, "type": "electric_scooter", "name": "47807f0ab6b8b72e169752653f473350", "fusion_lon": 0.0, "bike_id": "47807f0ab6b8b72e169752653f473350", "is_reserved": 0, "rental_uris": {"android": "https://dc.lft.to/lastmile_qr_scan", "ios": "https://dc.lft.to/lastmile_qr_scan"}, "lat": 38.97455583333333, "is_disabled": 0, "lon": -77.01790216666667}, {"fusion_lat": 0.0, "type": "electric_scooter", "name": "90a0a49e6143d433e99524a2c40f916f", "fusion_lon": 0.0, "bike_id": "90a0a49e6143d433e99524a2c40f916f", "is_reserved": 0, "rental_uris": {"android": "https://dc.lft.to/lastmile_qr_scan", "ios": "https://dc.lft.to/lastmile_qr_scan"}, "lat": 38.909405666666665, "is_disabled": 0, "lon": -77.02184}, {"fusion_lat": 0.0, "type": "electric_scooter", "name": "30fb5648899980a17d9bf97ff10a1551", "fusion_lon": 0.0, "bike_id": "30fb5648899980a17d9bf97ff10a1551", "is_reserved": 0, "rental_uris": {"android": "https://dc.lft.to/lastmile_qr_scan", "ios": "https://dc.lft.to/lastmile_qr_scan"}, "lat": 38.8985315, "is_disabled": 0, "lon": -77.03287633333333}, {"fusion_lat": 0.0, "type": "electric_scooter", "name": "8eb5d625da48ee4a80231f49046da89d", "fusion_lon": 0.0, "bike_id": "8eb5d625da48ee4a80231f49046da89d", "is_reserved": 0, "rental_uris": {"android": "https://dc.lft.to/lastmile_qr_scan", "ios": "https://dc.lft.to/lastmile_qr_scan"}, "lat": 38.9026395, "is_disabled": 0, "lon": -77.036658}, {"fusion_lat": 0.0, "type": "electric_scooter", "name": "deb41a835bd04aac64fe92f881857887", "fusion_lon": 0.0, "bike_id": "deb41a835bd04aac64fe92f881857887", "is_reserved": 0, "rental_uris": {"android": "https://dc.lft.to/lastmile_qr_scan", "ios": "https://dc.lft.to/lastmile_qr_scan"}, "lat": 38.914208333333335, "is_disabled": 0, "lon": -77.02589766666667}, {"fusion_lat": 0.0, "type": "electric_scooter", "name": "e3119295fc331528851d560f3db2dea1", "fusion_lon": 0.0, "bike_id": "e3119295fc331528851d560f3db2dea1", "is_reserved": 0, "rental_uris": {"android": "https://dc.lft.to/lastmile_qr_scan", "ios": "https://dc.lft.to/lastmile_qr_scan"}, "lat": 38.90960283333333, "is_disabled": 0, "lon": -77.03635}, {"fusion_lat": 0.0, "type": "electric_scooter", "name": "65ca385c7240f765d8d589befe7be2b9", "fusion_lon": 0.0, "bike_id": "65ca385c7240f765d8d589befe7be2b9", "is_reserved": 0, "rental_uris": {"android": "https://dc.lft.to/lastmile_qr_scan", "ios": "https://dc.lft.to/lastmile_qr_scan"}, "lat": 38.920886833333334, "is_disabled": 0, "lon": -77.026856}, {"fusion_lat": 0.0, "type": "electric_scooter", "name": "5c25362d91b358843222d88ae7b7a02f", "fusion_lon": 0.0, "bike_id": "5c25362d91b358843222d88ae7b7a02f", "is_reserved": 0, "rental_uris": {"android": "https://dc.lft.to/lastmile_qr_scan", "ios": "https://dc.lft.to/lastmile_qr_scan"}, "lat": 38.911073333333334, "is_disabled": 0, "lon": -77.0331855}, {"fusion_lat": 0.0, "type": "electric_scooter", "name": "b349424f9e0a0747e5b0d087a9d1d300", "fusion_lon": 0.0, "bike_id": "b349424f9e0a0747e5b0d087a9d1d300", "is_reserved": 0, "rental_uris": {"android": "https://dc.lft.to/lastmile_qr_scan", "ios": "https://dc.lft.to/lastmile_qr_scan"}, "lat": 38.91794616666667, "is_disabled": 0, "lon": -77.045585}, {"fusion_lat": 0.0, "type": "electric_bike", "name": "fe3797e74ab73f72e29e5e108a517143", "fusion_lon": 0.0, "bike_id": "fe3797e74ab73f72e29e5e108a517143", "is_reserved": 0, "rental_uris": {"android": "https://dc.lft.to/lastmile_qr_scan", "ios": "https://dc.lft.to/lastmile_qr_scan"}, "lat": 38.954986, "is_disabled": 0, "lon": -76.99379183333333}, {"fusion_lat": 0.0, "type": "electric_scooter", "name": "bbe601f776aa3ed3489358d7efa3bf70", "fusion_lon": 0.0, "bike_id": "bbe601f776aa3ed3489358d7efa3bf70", "is_reserved": 0, "rental_uris": {"android": "https://dc.lft.to/lastmile_qr_scan", "ios": "https://dc.lft.to/lastmile_qr_scan"}, "lat": 38.87804933333334, "is_disabled": 0, "lon": -77.01762233333334}, {"fusion_lat": 0.0, "type": "electric_scooter", "name": "e641714decd3193e8b8e5cef3788b1fc", "fusion_lon": 0.0, "bike_id": "e641714decd3193e8b8e5cef3788b1fc", "is_reserved": 0, "rental_uris": {"android": "https://dc.lft.to/lastmile_qr_scan", "ios": "https://dc.lft.to/lastmile_qr_scan"}, "lat": 38.90970883333333, "is_disabled": 0, "lon": -77.02080816666667}, {"fusion_lat": 0.0, "type": "electric_scooter", "name": "c85ebe11bd5999492b8d7eaae6659524", "fusion_lon": 0.0, "bike_id": "c85ebe11bd5999492b8d7eaae6659524", "is_reserved": 0, "rental_uris": {"android": "https://dc.lft.to/lastmile_qr_scan", "ios": "https://dc.lft.to/lastmile_qr_scan"}, "lat": 38.9582995, "is_disabled": 0, "lon": -77.0151685}, {"fusion_lat": 0.0, "type": "electric_scooter", "name": "0f78a14b9bf384c2919d4d1f1e7ba06c", "fusion_lon": 0.0, "bike_id": "0f78a14b9bf384c2919d4d1f1e7ba06c", "is_reserved": 0, "rental_uris": {"android": "https://dc.lft.to/lastmile_qr_scan", "ios": "https://dc.lft.to/lastmile_qr_scan"}, "lat": 38.900634333333336, "is_disabled": 0, "lon": -77.0453395}, {"fusion_lat": 0.0, "type": "electric_scooter", "name": "3690ab397e67ca75486979497d5162d9", "fusion_lon": 0.0, "bike_id": "3690ab397e67ca75486979497d5162d9", "is_reserved": 0, "rental_uris": {"android": "https://dc.lft.to/lastmile_qr_scan", "ios": "https://dc.lft.to/lastmile_qr_scan"}, "lat": 38.92851366666667, "is_disabled": 0, "lon": -77.032902}, {"fusion_lat": 0.0, "type": "electric_bike", "name": "95248852c9f46f547020a1e9eaeebbd2", "fusion_lon": 0.0, "bike_id": "95248852c9f46f547020a1e9eaeebbd2", "is_reserved": 0, "rental_uris": {"android": "https://dc.lft.to/lastmile_qr_scan", "ios": "https://dc.lft.to/lastmile_qr_scan"}, "lat": 39.04231433333333, "is_disabled": 0, "lon": -77.030758}, {"fusion_lat": 0.0, "type": "electric_scooter", "name": "f60a2cd58545d1a2b81cd5f7226eb4c1", "fusion_lon": 0.0, "bike_id": "f60a2cd58545d1a2b81cd5f7226eb4c1", "is_reserved": 0, "rental_uris": {"android": "https://dc.lft.to/lastmile_qr_scan", "ios": "https://dc.lft.to/lastmile_qr_scan"}, "lat": 38.897481666666664, "is_disabled": 0, "lon": -77.01359316666667}, {"fusion_lat": 0.0, "type": "electric_scooter", "name": "369d7c9898fecc11dd0ecb13c2e88247", "fusion_lon": 0.0, "bike_id": "369d7c9898fecc11dd0ecb13c2e88247", "is_reserved": 0, "rental_uris": {"android": "https://dc.lft.to/lastmile_qr_scan", "ios": "https://dc.lft.to/lastmile_qr_scan"}, "lat": 38.942039, "is_disabled": 0, "lon": -77.02513833333333}, {"fusion_lat": 0.0, "type": "electric_scooter", "name": "154970ca8bc95abce7caa508d51d771c", "fusion_lon": 0.0, "bike_id": "154970ca8bc95abce7caa508d51d771c", "is_reserved": 0, "rental_uris": {"android": "https://dc.lft.to/lastmile_qr_scan", "ios": "https://dc.lft.to/lastmile_qr_scan"}, "lat": 38.87646483333333, "is_disabled": 0, "lon": -76.9650515}, {"fusion_lat": 0.0, "type": "electric_scooter", "name": "165e9290b72943e694dc8e280d670554", "fusion_lon": 0.0, "bike_id": "165e9290b72943e694dc8e280d670554", "is_reserved": 0, "rental_uris": {"android": "https://dc.lft.to/lastmile_qr_scan", "ios": "https://dc.lft.to/lastmile_qr_scan"}, "lat": 38.9308425, "is_disabled": 0, "lon": -77.02798}, {"fusion_lat": 0.0, "type": "electric_scooter", "name": "81f065bf361f667a1ff0e635dd500195", "fusion_lon": 0.0, "bike_id": "81f065bf361f667a1ff0e635dd500195", "is_reserved": 0, "rental_uris": {"android": "https://dc.lft.to/lastmile_qr_scan", "ios": "https://dc.lft.to/lastmile_qr_scan"}, "lat": 38.89220666666667, "is_disabled": 0, "lon": -77.04310183333334}, {"fusion_lat": 0.0, "type": "electric_scooter", "name": "0c47b2f864209bd1afc2879327901cd6", "fusion_lon": 0.0, "bike_id": "0c47b2f864209bd1afc2879327901cd6", "is_reserved": 0, "rental_uris": {"android": "https://dc.lft.to/lastmile_qr_scan", "ios": "https://dc.lft.to/lastmile_qr_scan"}, "lat": 38.92140166666667, "is_disabled": 0, "lon": -77.02876383333333}, {"fusion_lat": 0.0, "type": "electric_scooter", "name": "883754f7a40a47958c8d95591e2820d9", "fusion_lon": 0.0, "bike_id": "883754f7a40a47958c8d95591e2820d9", "is_reserved": 0, "rental_uris": {"android": "https://dc.lft.to/lastmile_qr_scan", "ios": "https://dc.lft.to/lastmile_qr_scan"}, "lat": 38.9167685, "is_disabled": 0, "lon": -77.022856},