{"data": {"bikes": [{"bike_id": "a0e6eef303bed427a06aac372523736b", "fusion_lon": 0.0, "lon": -76.98682983333333, "name": "a0e6eef303bed427a06aac372523736b", "is_disabled": 0, "rental_uris": {"android": "https://dc.lft.to/lastmile_qr_scan", "ios": "https://dc.lft.to/lastmile_qr_scan"}, "type": "electric_bike", "lat": 38.89962, "is_reserved": 0, "fusion_lat": 0.0}, {"bike_id": "4b65e064cd1010f5c47520116524265f", "fusion_lon": 0.0, "lon": -77.03211633333333, "name": "4b65e064cd1010f5c47520116524265f", "is_disabled": 0, "rental_uris": {"android": "https://dc.lft.to/lastmile_qr_scan", "ios": "https://dc.lft.to/lastmile_qr_scan"}, "type": "electric_scooter", "lat": 38.91702383333333, "is_reserved": 0, "fusion_lat": 0.0}, {"bike_id": "75e773274d733474f780645a65f0774c", "fusion_lon": 0.0, "lon": -77.04396816666667, "name": "75e773274d733474f780645a65f0774c", "is_disabled": 0, "rental_uris": {"android": "https://dc.lft.to/lastmile_qr_scan", "ios": "https://dc.lft.to/lastmile_qr_scan"}, "type": "electric_scooter", "lat": 38.910685, "is_reserved": 0, "fusion_lat": 0.0}, {"bike_id": "d10a67a05731556399a218cc53874834", "fusion_lon": 0.0, "lon": -77.03222383333333, "name": "d10a67a05731556399a218cc53874834", "is_disabled": 0, "rental_uris": {"android": "https://dc.lft.to/lastmile_qr_scan", "ios": "https://dc.lft.to/lastmile_qr_scan"}, "type": "electric_scooter", "lat": 38.91682816666667, "is_reserved": 0, "fusion_lat": 0.0}, {"bike_id": "d99ea9df5f66f9edff54470dd578be62", "fusion_lon": 0.0, "lon": -77.04868566666667, "name": "d99ea9df5f66f9edff54470dd578be62", "is_disabled": 0, "rental_uris": {"android": "https://dc.lft.to/lastmile_qr_scan", "ios": "https://dc.lft.to/lastmile_qr_scan"}, "type": "electric_scooter", "lat": 38.9046425, "is_reserved": 0, "fusion_lat": 0.0}, {"bike_id": "16e5a39b6c48b74e500d88b897ce1d88", "fusion_lon": 0.0, "lon": -77.034136, "name": "16e5a39b6c48b74e500d88b897ce1d88", "is_disabled": 0, "rental_uris": {"android": "https://dc.lft.to/lastmile_qr_scan", "ios": "https://dc.lft.to/lastmile_qr_scan"}, "type": "electric_scooter", "lat": 38.9231655, "is_reserved": 0, "fusion_lat": 0.0}, {"bike_id": "2257c57bc526b79db4b1dbee99c90f95", "fusion_lon": 0.0, "lon": -77.03856083333334, "name": "2257c57bc526b79db4b1dbee99c90f95", "is_disabled": 0, "rental_uris": {"android": "https://dc.lft.to/lastmile_qr_scan", "ios": "https://dc.lft.to/lastmile_qr_scan"}, "type": "electric_scooter", "lat": 38.8674905, "is_reserved": 0, "fusion_lat": 0.0}, {"bike_id": "ccaafdd69b932224a065c3d06da8f262", "fusion_lon": 0.0, "lon": -77.03967566666667, "name": "ccaafdd69b932224a065c3d06da8f262", "is_disabled": 0, "rental_uris": {"android": "https://dc.lft.to/lastmile_qr_scan", "ios": "https://dc.lft.to/lastmile_qr_scan"}, "type": "electric_scooter", "lat": 38.90298966666667, "is_reserved": 0, "fusion_lat": 0.0}, {"bike_id": "18fcc6b19e8f7917b4252544ab136c1a", "fusion_lon": 0.0, "lon": -76.98334183333333, "name": "18fcc6b19e8f7917b4252544ab136c1a", "is_disabled": 0, "rental_uris": {"android": "https://dc.lft.to/lastmile_qr_scan", "ios": "https://dc.lft.to/lastmile_qr_scan"}, "type": "electric_scooter", "lat": 38.907532333333336, "is_reserved": 0, "fusion_lat": 0.0}, {"bike_id": "be8535d987113baa97d289df4c6ae48c", "fusion_lon": 0.0, "lon": -77.03513, "name": "be8535d987113baa97d289df4c6ae48c", "is_disabled": 0, "rental_uris": {"android": "https://dc.lft.to/lastmile_qr_scan", "ios": "https://dc.lft.to/lastmile_qr_scan"}, "type": "electric_scooter", "lat": 38.921506666666666, "is_reserved": 0, "fusion_lat": 0.0}, {"bike_id": "248031b5904164ac310416a92fac968f", "fusion_lon": 0.0, "lon": -76.9887075, "name": "248031b5904164ac310416a92fac968f", "is_disabled": 0, "rental_uris": {"android": "https://dc.lft.to/lastmile_qr_scan", "ios": "https://dc.lft.to/lastmile_qr_scan"}, "type": "electric_bike", "lat": 38.95481733333333, "is_reserved": 0, "fusion_lat": 0.0}, {"bike_id": "ee58f80a44bb5cbaab8b1e602864d99d", "fusion_lon": 0.0, "lon": -76.978288, "name": "ee58f80a44bb5cbaab8b1e602864d99d", "is_disabled": 0, "rental_uris": {"android": "https://dc.lft.to/lastmile_qr_scan", "ios": "https://dc.lft.to/lastmile_qr_scan"}, "type": "electric_bike", "lat": 38.870725166666666, "is_reserved": 0, "fusion_lat": 0.0}, {"bike_id": "5426611269b93c7522f74d2ba7177152", "fusion_lon": 0.0, "lon": -77.04534933333333, "name": "5426611269b93c7522f74d2ba7177152", "is_disabled": 0, "rental_uris": {"android": "https://dc.lft.to/lastmile_qr_scan", "ios": "https://dc.lft.to/lastmile_qr_scan"}, "type": "electric_scooter", "lat": 38.90282716666667, "is_reserved": 0, "fusion_lat": 0.0}, {"bike_id": "60c8dc1750f4a002aa38142bbd0be76d", "fusion_lon": 0.0, "lon": -77.00609683333333, "name": "60c8dc1750f4a002aa38142bbd0be76d", "is_disabled": 0, "rental_uris": {"android": "https://dc.lft.to/lastmile_qr_scan", "ios": "https://dc.lft.to/lastmile_qr_scan"}, "type": "electric_scooter", "lat": 38.87180933333333, "is_reserved": 0, "fusion_lat": 0.0}, {"bike_id": "0500c40968ee830429a64e64b1f30b25", "fusion_lon": 0.0, "lon": -76.94810266666667, "name": "0500c40968ee830429a64e64b1f30b25", "is_disabled": 0, "rental_uris": {"android": "https://dc.lft.to/lastmile_qr_scan", "ios": "https://dc.lft.to/lastmile_qr_scan"}, "type": "electric_bike", "lat": 38.89390433333333, "is_reserved": 0, "fusion_lat": 0.0}, {"bike_id": "10eebad7ef6aa92a3a8e7358239ca8d6", "fusion_lon": 0.0, "lon": -77.06915533333333, "name": "10eebad7ef6aa92a3a8e7358239ca8d6", "is_disabled": 0, "rental_uris": {"android": "https://dc.lft.to/lastmile_qr_scan", "ios": "https://dc.lft.to/lastmile_qr_scan"}, "type": "electric_scooter", "lat": 38.91010416666667, "is_reserved": 0, "fusion_lat": 0.0}, {"bike_id": "36be461570ce01cbdabb66cbd57110c6", "fusion_lon": 0.0, "lon": -77.02127616666667, "name": "36be461570ce01cbdabb66cbd57110c6", "is_disabled": 0, "rental_uris": {"android": "https://dc.lft.to/lastmile_qr_scan", "ios": "https://dc.lft.to/lastmile_qr_scan"}, "type": "electric_scooter", "lat": 38.887427, "is_reserved": 0, "fusion_lat": 0.0}, {"bike_id": "acda0e55ea167803c605e2107a31a32a", "fusion_lon": 0.0, "lon": -77.01142183333333, "name": "acda0e55ea167803c605e2107a31a32a", "is_disabled": 0, "rental_uris": {"android": "https://dc.lft.to/lastmile_qr_scan", "ios": "https://dc.lft.to/lastmile_qr_scan"}, "type": "electric_scooter", "lat": 38.9170105, "is_reserved": 0, "fusion_lat": 0.0}, {"bike_id": "15493628600c22b45bfdb855d1cc3070", "fusion_lon": 0.0, "lon": -77.04484333333333, "name": "15493628600c22b45bfdb855d1cc3070", "is_disabled": 0, "rental_uris": {"android": "https://dc.lft.to/lastmile_qr_scan", "ios": "https://dc.lft.to/lastmile_qr_scan"}, "type": "electric_scooter", "lat": 38.911614166666666, "is_reserved": 0, "fusion_lat": 0.0}, {"bike_id": "aebf82dc098cc8370eac9e401fc5c4ed", "fusion_lon": 0.0, "lon": -77.02703633333333, "name": "aebf82dc098cc8370eac9e401fc5c4ed", "is_disabled": 0, "rental_uris": {"android": "https://dc.lft.to/lastmile_qr_scan", "ios": "https://dc.lft.to/lastmile_qr_scan"}, "type": "electric_scooter", "lat": 38.90666133333333, "is_reserved": 0, "fusion_lat": 0.0}, {"bike_id": "5be495f840a4f67b3098cca8a49c2f92", "fusion_lon": 0.0, "lon": -77.04596166666667, "name": "5be495f840a4f67b3098cca8a49c2f92", "is_disabled": 0, "rental_uris": {"android": "https://dc.lft.to/lastmile_qr_scan", "ios": "https://dc.lft.to/lastmile_qr_scan"}, "type": "electric_scooter", "lat": 38.91862366666667, "is_reserved": 0, "fusion_lat": 0.0}, {"bike_id": "e08400faa710eb08a79080aa3435820c", "fusion_lon": 0.0, "lon": -76.98836266666666, "name": "e08400faa710eb08a79080aa3435820c", "is_disabled": 0, "rental_uris": {"android": "https://dc.lft.to/lastmile_qr_scan", "ios": "https://dc.lft.to/lastmile_qr_scan"}, "type": "electric_scooter", "lat": 38.90035233333333, "is_reserved": 0, "fusion_lat": 0.0}, {"bike_id": "10a21b07c4422fb77a5aab3435835664", "fusion_lon": 0.0, "lon": -77.10600866666667, "name": "10a21b07c4422fb77a5aab3435835664", "is_disabled": 0, "rental_uris": {"android": "https://dc.lft.to/lastmile_qr_scan", "ios": "https://dc.lft.to/lastmile_qr_scan"}, "type": "electric_bike", "lat": 38.92898516666666, "is_reserved": 0, "fusion_lat": 0.0}, {"bike_id": "1a54d70eaa1678f985294d8978bfdacf", "fusion_lon": 0.0, "lon": -77.04031266666667, "name": "1a54d70eaa1678f985294d8978bfdacf", "is_disabled": 0, "rental_uris": {"android": "https://dc.lft.to/lastmile_qr_scan", "ios": "https://dc.lft.to/lastmile_qr_scan"}, "type": "electric_scooter", "lat": 38.924448166666664, "is_reserved": 0, "fusion_lat": 0.0}, {"bike_id": "fc101796409a075e0024702a7e28910e", "fusion_lon": 0.0, "lon": -77.01848816666667, "name": "fc101796409a075e0024702a7e28910e", "is_disabled": 0, "rental_uris": {"android": "https://dc.lft.to/lastmile_qr_scan", "ios": "https://dc.lft.to/lastmile_qr_scan"}, "type": "electric_scooter", "lat": 38.90257916666667, "is_reserved": 0, "fusion_lat": 0.0}, {"bike_id": "6aab2f69cd6ce96cb261f0e60891845b", "fusion_lon": 0.0, "lon": -76.94967466666667, "name": "6aab2f69cd6ce96cb261f0e60891845b", "is_disabled": 0, "rental_uris": {"android": "https://dc.lft.to/lastmile_qr_scan", "ios": "https://dc.lft.to/lastmile_qr_scan"}, "type": "electric_scooter", "lat": 38.89358216666667, "is_reserved": 0, "fusion_lat": 0.0}, {"bike_id": "2af5041008f7b05bad3995f996b5629d", "fusion_lon": 0.0, "lon": -77.02615583333333, "name": "2af5041008f7b05bad3995f996b5629d", "is_disabled": 0, "rental_uris": {"android": "https://dc.lft.to/lastmile_qr_scan", "ios": "https://dc.lft.to/lastmile_qr_scan"}, "type": "electric_scooter", "lat": 38.89742966666667, "is_reserved": 0, "fusion_lat": 0.0}, {"bike_id": "1bd84e875266b321307cec3634a85ec5", "fusion_lon": 0.0, "lon": -76.99774916666667, "name": "1bd84e875266b321307cec3634a85ec5", "is_disabled": 0, "rental_uris": {"android": "https://dc.lft.to/lastmile_qr_scan", "ios": "https://dc.lft.to/lastmile_qr_scan"}, "type": "electric_scooter", "lat": 38.844308166666664, "is_reserved": 0, "fusion_lat": 0.0}, {"bike_id": "6312f8a4860aaa0cc44836fafa244866", "fusion_lon": 0.0, "lon": -76.95755133333333, "name": "6312f8a4860aaa0cc44836fafa244866", "is_disabled": 0, "rental_uris": {"android": "https://dc.lft.to/lastmile_qr_scan", "ios": "https://dc.lft.to/lastmile_qr_scan"}, "type": "electric_scooter", "lat": 38.884303833333334, "is_reserved": 0, "fusion_lat": 0.0}, {"bike_id": "fffc7c408c3d53572bb90d9730adf13f", "fusion_lon": 0.0, "lon": -77.04042866666667, "name": "fffc7c408c3d53572bb90d9730adf13f", "is_disabled": 0, "rental_uris": {"android": "https://dc.lft.to/lastmile_qr_scan", "ios": "https://dc.lft.to/lastmile_qr_scan"}, "type": "electric_scooter", "lat": 38.914090333333334, "is_reserved": 0, "fusion_lat": 0.0}, {"bike_id": "12a3a090674f2e8ade595739be1902e9", "fusion_lon": 0.0, "lon": -77.024901, "name": "12a3a090674f2e8ade595739be1902e9", "is_disabled": 0, "rental_uris": {"android": "https://dc.lft.to/lastmile_qr_scan", "ios": "https://dc.lft.to/lastmile_qr_scan"}, "type": "electric_scooter", "lat": 38.9192135, "is_reserved": 0, "fusion_lat": 0.0}, {"bike_id": "f272c3edf41b8bfb7073de3bd5a999d9", "fusion_lon": 0.0, "lon": -77.02177316666666, "name": "f272c3edf41b8bfb7073de3bd5a999d9", "is_disabled": 0, "rental_uris": {"android": "https://dc.lft.to/lastmile_qr_scan", "ios": "https://dc.lft.to/lastmile_qr_scan"}, "type": "electric_scooter", "lat": 38.91511833333333, "is_reserved": 0, "fusion_lat": 0.0}, {"bike_id": "48c986116a24457e60ed3d053cd0e7ca", "fusion_lon": 0.0, "lon": -77.00198716666667, "name": "48c986116a24457e60ed3d053cd0e7ca", "is_disabled": 0, "rental_uris": {"android": "https://dc.lft.to/lastmile_qr_scan", "ios": "https://dc.lft.to/lastmile_qr_scan"}, "type": "electric_scooter", "lat": 38.90242966666667, "is_reserved": 0, "fusion_lat": 0.0}, {"bike_id": "0553291e7786b4fe9349a0e99e1d78fd", "fusion_lon": 0.0, "lon": -76.8837265, "name": "0553291e7786b4fe9349a0e99e1d78fd", "is_disabled": 0, "rental_uris": {"android": "https://dc.lft.to/lastmile_qr_scan", "ios": "https://dc.lft.to/lastmile_qr_scan"}, "type": "electric_bike", "lat": 38.998125333333334, "is_reserved": 0, "fusion_lat": 0.0}, {"bike_id": "ebec766d0533ca2d6724f14a580c7054", "fusion_lon": 0.0, "lon": -77.03762383333333, "name": "ebec766d0533ca2d6724f14a580c7054", "is_disabled": 0, "rental_uris": {"android": "https://dc.lft.to/lastmile_qr_scan", "ios": "https://dc.lft.to/lastmile_qr_scan"}, "type": "electric_scooter", "lat": 38.929147, "is_reserved": 0, "fusion_lat": 0.0}, {"bike_id": "e0efcd151883b2d1ff480ce08eb85e71", "fusion_lon": 0.0, "lon": -77.03383066666666, "name": "e0efcd151883b2d1ff480ce08eb85e71", "is_disabled": 0, "rental_uris": {"android": "https://dc.lft.to/lastmile_qr_scan", "ios": "https://dc.lft.to/lastmile_qr_scan"}, "type": "electric_scooter", "lat": 38.901186, "is_reserved": 0, "fusion_lat": 0.0}, {"bike_id": "4c67ac36287d29244e9bea7202c3b467", "fusion_lon": 0.0, "lon": -77.0238275, "name": "4c67ac36287d29244e9bea7202c3b467", "is_disabled": 0, "rental_uris": {"android": "https://dc.lft.to/lastmile_qr_scan", "ios": "https://dc.lft.to/lastmile_qr_scan"}, "type": "electric_scooter", "lat": 38.919528, "is_reserved": 0, "fusion_lat": 0.0}, {"bike_id": "4cc11d6373fd7b396bc517af5d5defbb", "fusion_lon": 0.0, "lon": -77.00911166666667, "name": "4cc11d6373fd7b396bc517af5d5defbb", "is_disabled": 0, "rental_uris": {"android": "https://dc.lft.to/lastmile_qr_scan", "ios": "https://dc.lft.to/lastmile_qr_scan"}, "type": "electric_bike", "lat": 38.910677, "is_reserved": 0, "fusion_lat": 0.0}, {"bike_id": "d7d9904e22878c5487bf46235c52e94c", "fusion_lon": 0.0, "lon": -77.02982633333333, "name": "d7d9904e22878c5487bf46235c52e94c", "is_disabled": 0, "rental_uris": {"android": "https://dc.lft.to/lastmile_qr_scan", "ios": "https://dc.lft.to/lastmile_qr_scan"}, "type": "electric_scooter", "lat": 38.895724666666666, "is_reserved": 0, "fusion_lat": 0.0}, {"bike_id": "39da161760fe7741b03980888ae70160", "fusion_lon": 0.0, "lon": -77.057262, "name": "39da161760fe7741b03980888ae70160", "is_disabled": 0, "rental_uris": {"android": "https://dc.lft.to/lastmile_qr_scan", "ios": "https://dc.lft.to/lastmile_qr_scan"}, "type": "electric_scooter", "lat": 38.9335715, "is_reserved": 0, "fusion_lat": 0.0}, {"bike_id": "4aef13a336644695306a4bc23218efbb", "fusion_lon": 0.0, "lon": -76.9770595, "name": "4aef13a336644695306a4bc23218efbb", "is_disabled": 0, "rental_uris": {"android": "https://dc.lft.to/lastmile_qr_scan", "ios": "https://dc.lft.to/lastmile_qr_scan"}, "type": "electric_bike", "lat": 38.94914516666667, "is_reserved": 0, "fusion_lat": 0.0}, {"bike_id": "6115133ea081695fbcd2c9db03f04528", "fusion_lon": 0.0, "lon": -77.03285, "name": "6115133ea081695fbcd2c9db03f04528", "is_disabled": 0, "rental_uris": {"android": "https://dc.lft.to/lastmile_qr_scan", "ios": "https://dc.lft.to/lastmile_qr_scan"}, "type": "electric_scooter", "lat": 38.92753116666667, "is_reserved": 0, "fusion_lat": 0.0}, {"bike_id": "dc9d2073041abd4c7843a367199e49b7", "fusion_lon": 0.0, "lon": -77.0329655, "name": "dc9d2073041abd4c7843a367199e49b7", "is_disabled": 0, "rental_uris": {"android": "https://dc.lft.to/lastmile_qr_scan", "ios": "https://dc.lft.to/lastmile_qr_scan"}, "type": "electric_scooter", "lat": 38.91989266666667, "is_reserved": 0, "fusion_lat": 0.0}, {"bike_id": "bedcdc349575f4ce45bb59a11d785353", "fusion_lon": 0.0, "lon": -77.02628033333333, "name": "bedcdc349575f4ce45bb59a11d785353", "is_disabled": 0, "rental_uris": {"android": "https://dc.lft.to/lastmile_qr_scan", "ios": "https://dc.lft.to/lastmile_qr_scan"}, "type": "electric_bike", "lat": 38.9622185, "is_reserved": 0, "fusion_lat": 0.0}, {"bike_id": "7829cdcad5c4205798e2f6e3e1d9ca4f", "fusion_lon": 0.0, "lon": -77.03327216666666, "name": "7829cdcad5c4205798e2f6e3e1d9ca4f", "is_disabled": 0, "rental_uris": {"android": "https://dc.lft.to/lastmile_qr_scan", "ios": "https://dc.lft.to/lastmile_qr_scan"}, "type": "electric_scooter", "lat": 38.898138333333335, "is_reserved": 0, "fusion_lat": 0.0}, {"bike_id": "0a84381b9b8e023a871724b0f7dc155e", "fusion_lon": 0.0, "lon": -76.95141516666666, "name": "0a84381b9b8e023a871724b0f7dc155e", "is_disabled": 0, "rental_uris": {"android": "https://dc.lft.to/lastmile_qr_scan", "ios": "https://dc.lft.to/lastmile_qr_scan"}, "type": "electric_scooter", "lat": 38.890375666666664, "is_reserved": 0, "fusion_lat": 0.0}, {"bike_id": "19ce375290c6e3a2f33769f20bf470a1", "fusion_lon": 0.0, "lon": -77.0365685, "name": "19ce375290c6e3a2f33769f20bf470a1", "is_disabled": 0, "rental_uris": {"android": "https://dc.lft.to/lastmile_qr_scan", "ios": "https://dc.lft.to/lastmile_qr_scan"}, "type": "electric_scooter", "lat": 38.92279683333334, "is_reserved": 0, "fusion_lat": 0.0}, {"bike_id": "b822354ebcf23b023ec2daca92e7ddeb", "fusion_lon": 0.0, "lon": -77.03770116666666, "name": "b822354ebcf23b023ec2daca92e7ddeb", "is_disabled": 0, "rental_uris": {"android": "https://dc.lft.to/lastmile_qr_scan", "ios": "https://dc.lft.to/lastmile_qr_scan"}, "type": "electric_scooter", "lat": 38.929699, "is_reserved": 0, "fusion_lat": 0.0}, {"bike_id": "75e7bc9848c88eb0f62f6c1c5893915e", "fusion_lon": 0.0, "lon": -76.99401116666667, "name": "75e7bc9848c88eb0f62f6c1c5893915e", "is_disabled": 0, "rental_uris": {"android": "https://dc.lft.to/lastmile_qr_scan", "ios": "https://dc.lft.to/lastmile_qr_scan"}, "type": "electric_scooter", "lat": 38.92161766666667, "is_reserved": 0, "fusion_lat": 0.0}, {"bike_id": "05731f3a1913da806048f74138c9a996", "fusion_lon": 0.0, "lon": -77.0165735, "name": "05731f3a1913da806048f74138c9a996", "is_disabled": 0, "rental_uris": {"android": "https://dc.lft.to/lastmile_qr_scan", "ios": "https://dc.lft.to/lastmile_qr_scan"}, "type": "electric_scooter", "lat": 38.88114066666667, "is_reserved": 0, "fusion_lat": 0.0}, {"bike_id": "08215fec43f38fbd414547aaa3258a0c", "fusion_lon": 0.0, "lon": -77.032656, "name": "08215fec43f38fbd414547aaa3258a0c", "is_disabled": 0, "rental_uris": {"android": "https://dc.lft.to/lastmile_qr_scan", "ios": "https://dc.lft.to/lastmile_qr_scan"}, "type": "electric_bike", "lat": 38.9029065, "is_reserved": 0, "fusion_lat": 0.0}, {"bike_id": "696ccf2638ee585464caee7e30e147cf", "fusion_lon": 0.0, "lon": -77.017558, "name": "696ccf2638ee585464caee7e30e147cf", "is_disabled": 0, "rental_uris": {"android": "https://dc.lft.to/lastmile_qr_scan", "ios": "https://dc.lft.to/lastmile_qr_scan"}, "type": "electric_scooter", "lat": 38.876914, "is_reserved": 0, "fusion_lat": 0.0}, {"bike_id": "8a670054f80feafa42512404cff257dd", "fusion_lon": 0.0, "lon": -76.9773175, "name": "8a670054f80feafa42512404cff257dd", "is_disabled": 0, "rental_uris": {"android": "https://dc.lft.to/lastmile_qr_scan", "ios": "https://dc.lft.to/lastmile_qr_scan"}, "type": "electric_scooter", "lat": 38.895153666666666, "is_reserved": 0, "fusion_lat": 0.0}, {"bike_id": "8915f941ef499775190d192bb15b8821", "fusion_lon": 0.0, "lon": -77.01610866666667, "name": "8915f941ef499775190d192bb15b8821", "is_disabled": 0, "rental_uris": {"android": "https://dc.lft.to/lastmile_qr_scan", "ios": "https://dc.lft.to/lastmile_qr_scan"}, "type": "electric_scooter", "lat": 38.895313333333334, "is_reserved": 0, "fusion_lat": 0.0}, {"bike_id": "384b43310949b70dde9e2345fe316a6a", "fusion_lon": 0.0, "lon": -77.02772333333333, "name": "384b43310949b70dde9e2345fe316a6a", "is_disabled": 0, "rental_uris": {"android": "https://dc.lft.to/lastmile_qr_scan", "ios": "https://dc.lft.to/lastmile_qr_scan"}, "type": "electric_scooter", "lat": 38.95422816666667, "is_reserved": 0, "fusion_lat": 0.0}, {"bike_id": "922440ff55f053639a858aecc419b91e", "fusion_lon": 0.0, "lon": -77.04263216666666, "name": "922440ff55f053639a858aecc419b91e", "is_disabled": 0, "rental_uris": {"android": "https://dc.lft.to/lastmile_qr_scan", "ios": "https://dc.lft.to/lastmile_qr_scan"}, "type": "electric_scooter", "lat": 38.910383, "is_reserved": 0, "fusion_lat": 0.0}, {"bike_id": "deadc39ee9d73c5bc345f9e5c9915349", "fusion_lon": 0.0, "lon": -77.06352316666667, "name": "deadc39ee9d73c5bc345f9e5c9915349", "is_disabled": 0, "rental_uris": {"android": "https://dc.lft.to/lastmile_qr_scan", "ios": "https://dc.lft.to/lastmile_qr_scan"}, "type": "electric_scooter", "lat": 38.944502166666666, "is_reserved": 0, "fusion_lat": 0.0}, {"bike_id": "42fc20fc776e1c18b5c4dd707d6b8945", "fusion_lon": 0.0, "lon": -76.9898475, "name": "42fc20fc776e1c18b5c4dd707d6b8945", "is_disabled": 0, "rental_uris": {"android": "https://dc.lft.to/lastmile_qr_scan", "ios": "https://dc.lft.to/lastmile_qr_scan"}, "type": "electric_scooter", "lat": 38.865006, "is_reserved": 0, "fusion_lat": 0.0}, {"bike_id": "2ae29400771dfd4e38c216b8d2e208d7", "fusion_lon": 0.0, "lon": -76.93993766666667, "name": "2ae29400771dfd4e38c216b8d2e208d7", "is_disabled": 0, "rental_uris": {"android": "https://dc.lft.to/lastmile_qr_scan", "ios": "https://dc.lft.to/lastmile_qr_scan"}, "type": "electric_scooter", "lat": 38.899797166666666, "is_reserved": 0, "fusion_lat": 0.0}, {"bike_id": "db281a6e9203b9328a1862852c911d51", "fusion_lon": 0.0, "lon": -77.03513433333333, "name": "db281a6e9203b9328a1862852c911d51", "is_disabled": 0, "rental_uris": {"android": "https://dc.lft.to/lastmile_qr_scan", "ios": "https://dc.lft.to/lastmile_qr_scan"}, "type": "electric_scooter", "lat": 38.921493166666664, "is_reserved": 0, "fusion_lat": 0.0}, {"bike_id": "f9c3c401265261f11a065f57b9c481da", "fusion_lon": 0.0, "lon": -77.0316405, "name": "f9c3c401265261f11a065f57b9c481da", "is_disabled": 0, "rental_uris": {"android": "https://dc.lft.to/lastmile_qr_scan", "ios": "https://dc.lft.to/lastmile_qr_scan"}, "type": "electric_scooter", "lat": 38.892217333333335, "is_reserved": 0, "fusion_lat": 0.0}, {"bike_id": "6822fe0a93792e2781c1dca5051691d2", "fusion_lon": 0.0, "lon": -77.04450266666667, "name": "6822fe0a93792e2781c1dca5051691d2", "is_disabled": 0, "rental_uris": {"android": "https://dc.lft.to/lastmile_qr_scan", "ios": "https://dc.lft.to/lastmile_qr_scan"}, "type": "electric_scooter", "lat": 38.93020216666667, "is_reserved": 0, "fusion_lat": 0.0}, {"bike_id": "d7de31157a8a1c6f5547343b7688be06", "fusion_lon": 0.0, "lon": -77.12074866666667, "name": "d7de31157a8a1c6f5547343b7688be06", "is_disabled": 0, "rental_uris": {"android": "https://dc.lft.to/lastmile_qr_scan", "ios": "https://dc.lft.to/lastmile_qr_scan"}, "type": "electric_bike", "lat": 38.854204333333335, "is_reserved": 0, "fusion_lat": 0.0}, {"bike_id": "1ddc7e5b44cc793aa18b3dd867f7bf82", "fusion_lon": 0.0, "lon": -77.03229433333334, "name": "1ddc7e5b44cc793aa18b3dd867f7bf82", "is_disabled": 0, "rental_uris": {"android": "https://dc.lft.to/lastmile_qr_scan", "ios": "https://dc.lft.to/lastmile_qr_scan"}, "type": "electric_scooter", "lat": 38.929825, "is_reserved": 0, "fusion_lat": 0.0}, {"bike_id": "d328692be8cb9e702c25267fb2f3265e", "fusion_lon": 0.0, "lon": -77.05392766666667, "name": "d328692be8cb9e702c25267fb2f3265e", "is_disabled": 0, "rental_uris": {"android": "https://dc.lft.to/lastmile_qr_scan", "ios": "https://dc.lft.to/lastmile_qr_scan"}, "type": "electric_scooter", "lat": 38.9281045, "is_reserved": 0, "fusion_lat": 0.0}, {"bike_id": "25e48d3a1efc5f95b4410b5a001256a3", "fusion_lon": 0.0, "lon": -77.04096583333333, "name": "25e48d3a1efc5f95b4410b5a001256a3", "is_disabled": 0, "rental_uris": {"android": "https://dc.lft.to/lastmile_qr_scan", "ios": "https://dc.lft.to/lastmile_qr_scan"}, "type": "electric_scooter", "lat": 38.9058025, "is_reserved": 0, "fusion_lat": 0.0}, {"bike_id": "8c0a8e1cb260a4125b698027972f15bf", "fusion_lon": 0.0, "lon": -77.1124715, "name": "8c0a8e1cb260a4125b698027972f15bf", "is_disabled": 0, "rental_uris": {"android": "https://dc.lft.to/lastmile_qr_scan", "ios": "https://dc.lft.to/lastmile_qr_scan"}, "type": "electric_bike", "lat": 38.856028333333335, "is_reserved": 0, "fusion_lat": 0.0}, {"bike_id": "fee4e4d383cbb3bab55427bb1a093ffb", "fusion_lon": 0.0, "lon": -77.03067333333334, "name": "fee4e4d383cbb3bab55427bb1a093ffb", "is_disabled": 0, "rental_uris": {"android": "https://dc.lft.to/lastmile_qr_scan", "ios": "https://dc.lft.to/lastmile_qr_scan"}, "type": "electric_scooter", "lat": 38.92253783333334, "is_reserved": 0, "fusion_lat": 0.0}, {"bike_id": "d5fcc4541dc7ff13e81ebdf6d22f6967", "fusion_lon": 0.0, "lon": -77.0035755, "name": "d5fcc4541dc7ff13e81ebdf6d22f6967", "is_disabled": 0, "rental_uris": {"android": "https://dc.lft.to/lastmile_qr_scan", "ios": "https://dc.lft.to/lastmile_qr_scan"}, "type": "electric_scooter", "lat": 38.901253, "is_reserved": 0, "fusion_lat": 0.0}, {"bike_id": "3d128c4d6aef3aee92eafc3b79cdacef", "fusion_lon": 0.0, "lon": -77.01740483333333, "name": "3d128c4d6aef3aee92eafc3b79cdacef", "is_disabled": 0, "rental_uris": {"android": "https://dc.lft.to/lastmile_qr_scan", "ios": "https://dc.lft.to/lastmile_qr_scan"}, "type": "electric_scooter", "lat": 38.9112125, "is_reserved": 0, "fusion_lat": 0.0}, {"bike_id": "4fad7cd11e59fa381ed559e1eefe1270", "fusion_lon": 0.0, "lon": -77.0415835, "name": "4fad7cd11e59fa381ed559e1eefe1270", "is_disabled": 0, "rental_uris": {"android": "https://dc.lft.to/lastmile_qr_scan", "ios": "https://dc.lft.to/lastmile_qr_scan"}, "type": "electric_scooter", "lat": 38.934237333333336, "is_reserved": 0, "fusion_lat": 0.0}, {"bike_id": "1452c1795dc9ba5a9b86aab958b53888", "fusion_lon": 0.0, "lon": -77.02959216666666, "name": "1452c1795dc9ba5a9b86aab958b53888", "is_disabled": 0, "rental_uris": {"android": "https://dc.lft.to/lastmile_qr_scan", "ios": "https://dc.lft.to/lastmile_qr_scan"}, "type": "electric_scooter", "lat": 38.91689866666667, "is_reserved": 0, "fusion_lat": 0.0}, {"bike_id": "c3208adadbec2e93a96c743be847e579", "fusion_lon": 0.0, "lon": -77.03612983333333, "name": "c3208adadbec2e93a96c743be847e579", "is_disabled": 0, "rental_uris": {"android": "https://dc.lft.to/lastmile_qr_scan", "ios": "https://dc.lft.to/lastmile_qr_scan"}, "type": "electric_bike", "lat": 38.94294083333333, "is_reserved": 0, "fusion_lat": 0.0}, {"bike_id": "2d2c26f1e42827efc7bff2c7518cad5f", "fusion_lon": 0.0, "lon": -77.02752316666667, "name": "2d2c26f1e42827efc7bff2c7518cad5f", "is_disabled": 0, "rental_uris": {"android": "https://dc.lft.to/lastmile_qr_scan", "ios": "https://dc.lft.to/lastmile_qr_scan"}, "type": "electric_scooter", "lat": 38.9577605, "is_reserved": 0, "fusion_lat": 0.0}, {"bike_id": "2f962eaaca4137be9d90cb4518a8a0cb", "fusion_lon": 0.0, "lon": -77.05125066666666, "name": "2f962eaaca4137be9d90cb4518a8a0cb", "is_disabled": 0, "rental_uris": {"android": "https://dc.lft.to/lastmile_qr_scan", "ios": "https://dc.lft.to/lastmile_qr_scan"}, "type": "electric_scooter", "lat": 38.92341483333333, "is_reserved": 0, "fusion_lat": 0.0}, {"bike_id": "7a7e081429cc6ad87aa3f0cd1b1301a3", "fusion_lon": 0.0, "lon": -77.0453595, "name": "7a7e081429cc6ad87aa3f0cd1b1301a3", "is_disabled": 0, "rental_uris": {"android": "https://dc.lft.to/lastmile_qr_scan", "ios": "https://dc.lft.to/lastmile_qr_scan"}, "type": "electric_scooter", "lat": 38.93294133333333, "is_reserved": 0, "fusion_lat": 0.0}, {"bike_id": "d55ec8aa972d90bc99a4f84b655645e5", "fusion_lon": 0.0, "lon": -77.02220083333333, "name": "d55ec8aa972d90bc99a4f84b655645e5", "is_disabled": 0, "rental_uris": {"android": "https://dc.lft.to/lastmile_qr_scan", "ios": "https://dc.lft.to/lastmile_qr_scan"}, "type": "electric_scooter", "lat": 38.91554516666667, "is_reserved": 0, "fusion_lat": 0.0}, {"bike_id": "1372094fcd6d73cabf35c5634bd79a93", "fusion_lon": 0.0, "lon": -77.032077, "name": "1372094fcd6d73cabf35c5634bd79a93", "is_disabled": 0, "rental_uris": {"android": "https://dc.lft.to/lastmile_qr_scan", "ios": "https://dc.lft.to/lastmile_qr_scan"}, "type": "electric_scooter", "lat": 38.91415383333333, "is_reserved": 0, "fusion_lat": 0.0}, {"bike_id": "e3848fd8e427b358ae95b200ec912829", "fusion_lon": 0.0, "lon": -77.02798483333333, "name": "e3848fd8e427b358ae95b200ec912829", "is_disabled": 0, "rental_uris": {"android": "https://dc.lft.to/lastmile_qr_scan", "ios": "https://dc.lft.to/lastmile_qr_scan"}, "type": "electric_scooter", "lat": 38.95398266666667, "is_reserved": 0, "fusion_lat": 0.0}, {"bike_id": "5e382ddf085d92f3c597b185a77943f7", "fusion_lon": 0.0, "lon": -77.0240165, "name": "5e382ddf085d92f3c597b185a77943f7", "is_disabled": 0, "rental_uris": {"android": "https://dc.lft.to/lastmile_qr_scan", "ios": "https://dc.lft.to/lastmile_qr_scan"}, "type": "electric_scooter", "lat": 38.91743616666667, "is_reserved": 0, "fusion_lat": 0.0}, {"bike_id": "2dafa0f9b18915efd1da127e46311edb", "fusion_lon": 0.0, "lon": -77.10091666666666, "name": "2dafa0f9b18915efd1da127e46311edb", "is_disabled": 0, "rental_uris": {"android": "https://dc.lft.to/lastmile_qr_scan", "ios": "https://dc.lft.to/lastmile_qr_scan"}, "type": "electric_bike", "lat": 38.95956, "is_reserved": 0, "fusion_lat": 0.0}, {"bike_id": "b95baf319417011056a7ff2acc081d6b", "fusion_lon": 0.0, "lon": -77.0060915, "name": "b95baf319417011056a7ff2acc081d6b", "is_disabled": 0, "rental_uris": {"android": "https://dc.lft.to/lastmile_qr_scan", "ios": "https://dc.lft.to/lastmile_qr_scan"}, "type": "electric_scooter", "lat": 38.90648983333333, "is_reserved": 0, "fusion_lat": 0.0}, {"bike_id": "e4ac5a242f7a909270a94f94c4e4f5b2", "fusion_lon": 0.0, "lon": -77.02476616666667, "name": "e4ac5a242f7a909270a94f94c4e4f5b2", "is_disabled": 0, "rental_uris": {"android": "https://dc.lft.to/lastmile_qr_scan", "ios": "https://dc.lft.to/lastmile_qr_scan"}, "type": "electric_scooter", "lat": 38.91881433333333, "is_reserved": 0, "fusion_lat": 0.0}, {"bike_id": "a340242167c13bb7c0eaa9bebf2565ca", "fusion_lon": 0.0, "lon": -76.98835416666667, "name": "a340242167c13bb7c0eaa9bebf2565ca", "is_disabled": 0, "rental_uris": {"android": "https://dc.lft.to/lastmile_qr_scan", "ios": "https://dc.lft.to/lastmile_qr_scan"}, "type": "electric_scooter", "lat": 38.9003635, "is_reserved": 0, "fusion_lat": 0.0}, {"bike_id": "e26eb189dbbbb2e7bfb50e63d1e69991", "fusion_lon": 0.0, "lon": -77.02429283333333, "name": "e26eb189dbbbb2e7bfb50e63d1e69991", "is_disabled": 0, "rental_uris": {"android": "https://dc.lft.to/lastmile_qr_scan", "ios": "https://dc.lft.to/lastmile_qr_scan"}, "type": "electric_scooter", "lat": 38.918059, "is_reserved": 0, "fusion_lat": 0.0}, {"bike_id": "3bef5e13e5119d3dc37411be2e83c392", "fusion_lon": 0.0, "lon": -77.02721366666667, "name": "3bef5e13e5119d3dc37411be2e83c392", "is_disabled": 0, "rental_uris": {"android": "https://dc.lft.to/lastmile_qr_scan", "ios": "https://dc.lft.to/lastmile_qr_scan"}, "type": "electric_scooter", "lat": 38.9408375, "is_reserved": 0, "fusion_lat": 0.0}, {"bike_id": "bc1670de9f99d5b54ef15bb7af1116bf", "fusion_lon": 0.0, "lon": -77.03007816666667, "name": "bc1670de9f99d5b54ef15bb7af1116bf", "is_disabled": 0, "rental_uris": {"android": "https://dc.lft.to/lastmile_qr_scan", "ios": "https://dc.lft.to/lastmile_qr_scan"}, "type": "electric_scooter", "lat": 38.884092333333335, "is_reserved": 0, "fusion_lat": 0.0}, {"bike_id": "f38e04d6c7f326d3900625577f78c4f5", "fusion_lon": 0.0, "lon": -77.03317233333334, "name": "f38e04d6c7f326d3900625577f78c4f5", "is_disabled": 0, "rental_uris": {"android": "https://dc.lft.to/lastmile_qr_scan", "ios": "https://dc.lft.to/lastmile_qr_scan"}, "type": "electric_scooter", "lat": 38.916929833333334, "is_reserved": 0, "fusion_lat": 0.0}, {"bike_id": "691c4c6ae5b89e35ea7c321d2641037d", "fusion_lon": 0.0, "lon": -77.02323833333334, "name": "691c4c6ae5b89e35ea7c321d2641037d", "is_disabled": 0, "rental_uris": {"android": "https://dc.lft.to/lastmile_qr_scan", "ios": "https://dc.lft.to/lastmile_qr_scan"}, "type": "electric_scooter", "lat": 38.916762166666665, "is_reserved": 0, "fusion_lat": 0.0}, {"bike_id": "a6167b486a542807cec169495c63b5fb", "fusion_lon": 0.0, "lon": -77.016519, "name": "a6167b486a542807cec169495c63b5fb", "is_disabled": 0, "rental_uris": {"android": "https://dc.lft.to/lastmile_qr_scan", "ios": "https://dc.lft.to/lastmile_qr_scan"}, "type": "electric_scooter", "lat": 38.88117716666667, "is_reserved": 0, "fusion_lat": 0.0}, {"bike_id": "a28bcecb54a99b7c01b68ff3492a324c", "fusion_lon": 0.0, "lon": -77.04093116666667, "name": "a28bcecb54a99b7c01b68ff3492a324c", "is_disabled": 0, "rental_uris": {"android": "https://dc.lft.to/lastmile_qr_scan", "ios": "https://dc.lft.to/lastmile_qr_scan"}, "type": "electric_bike", "lat": 38.923828, "is_reserved": 0, "fusion_lat": 0.0}, {"bike_id": "25226979217b5e8fd37d604844ea27e5", "fusion_lon": 0.0, "lon": -77.03892216666667, "name": "25226979217b5e8fd37d604844ea27e5", "is_disabled": 0, "rental_uris": {"android": "https://dc.lft.to/lastmile_qr_scan", "ios": "https://dc.lft.to/lastmile_qr_scan"}, "type": "electric_scooter", "lat": 38.917099, "is_reserved": 0, "fusion_lat": 0.0}, {"bike_id": "0c2e45f021240956d69db14b14278649", "fusion_lon": 0.0, "lon": -77.0272375, "name": "0c2e45f021240956d69db14b14278649", "is_disabled": 0, "rental_uris": {"android": "https://dc.lft.to/lastmile_qr_scan", "ios": "https://dc.lft.to/lastmile_qr_scan"}, "type": "electric_scooter", "lat": 38.94957766666667, "is_reserved": 0, "fusion_lat": 0.0}, {"bike_id": "cf746a36d655b8e047bdd7b59866479a", "fusion_lon": 0.0, "lon": -77.02652316666666, "name": "cf746a36d655b8e047bdd7b59866479a", "is_disabled": 0, "rental_uris": {"android": "https://dc.lft.to/lastmile_qr_scan", "ios": "https://dc.lft.to/lastmile_qr_scan"}, "type": "electric_scooter", "lat": 38.892235, "is_reserved": 0, "fusion_lat": 0.0}, {"bike_id": "fda0481017c6fd6f8ec1d88215458e3a", "fusion_lon": 0.0, "lon": -77.02007433333333, "name": "fda0481017c6fd6f8ec1d88215458e3a", "is_disabled": 0, "rental_uris": {"android": "https://dc.lft.to/lastmile_qr_scan", "ios": "https://dc.lft.to/lastmile_qr_scan"}, "type": "electric_scooter", "lat": 38.8993035, "is_reserved": 0, "fusion_lat": 0.0}, {"bike_id": "8a014608c12cf31c1a962ff61d869e00", "fusion_lon": 0.0, "lon": -77.04176183333334, "name": "8a014608c12cf31c1a962ff61d869e00", "is_disabled": 0, "rental_uris": {"android": "https://dc.lft.to/lastmile_qr_scan", "ios": "https://dc.lft.to/lastmile_qr_scan"}, "type": "electric_scooter", "lat": 38.91813883333333, "is_reserved": 0, "fusion_lat": 0.0}, {"bike_id": "60ae939231e2daecf9f26e588cc7ee7a", "fusion_lon": 0.0, "lon": -76.98524216666667, "name": "60ae939231e2daecf9f26e588cc7ee7a", "is_disabled": 0, "rental_uris": {"android": "https://dc.lft.to/lastmile_qr_scan", "ios": "https://dc.lft.to/lastmile_qr_scan"}, "type": "electric_scooter", "lat": 38.86667033333333, "is_reserved": 0, "fusion_lat": 0.0}, {"bike_id": "98786bb0f850cfec649cd0dd6b200365", "fusion_lon": 0.0, "lon": -77.01583733333334, "name": "98786bb0f850cfec649cd0dd6b200365", "is_disabled": 0, "rental_uris": {"android": "https://dc.lft.to/lastmile_qr_scan", "ios": "https://dc.lft.to/lastmile_qr_scan"}, "type": "electric_scooter", "lat": 38.8918305, "is_reserved": 0, "fusion_lat": 0.0}, {"bike_id": "ebbefb5a0668a7432a8483414f368160", "fusion_lon": 0.0, "lon": -76.93539816666667, "name": "ebbefb5a0668a7432a8483414f368160", "is_disabled": 0, "rental_uris": {"android": "https://dc.lft.to/lastmile_qr_scan", "ios": "https://dc.lft.to/lastmile_qr_scan"}, "type": "electric_bike", "lat": 38.95557983333333, "is_reserved": 0, "fusion_lat": 0.0}, {"bike_id": "31937e6bd6801e559de4c5851510c11c", "fusion_lon": 0.0, "lon": -77.03249933333333, "name": "31937e6bd6801e559de4c5851510c11c", "is_disabled": 0, "rental_uris": {"android": "https://dc.lft.to/lastmile_qr_scan", "ios": "https://dc.lft.to/lastmile_qr_scan"}, "type": "electric_scooter", "lat": 38.899155666666665, "is_reserved": 0, "fusion_lat": 0.0}, {"bike_id": "788587ddaa1961a87cef643ae3cfe0c4", "fusion_lon": 0.0, "lon": -77.0319095, "name": "788587ddaa1961a87cef643ae3cfe0c4", "is_disabled": 0, "rental_uris": {"android": "https://dc.lft.to/lastmile_qr_scan", "ios": "https://dc.lft.to/lastmile_qr_scan"}, "type": "electric_bike", "lat": 38.944107833333334, "is_reserved": 0, "fusion_lat": 0.0}, {"bike_id": "79a7cbb970e556c68f147c7db59485bb", "fusion_lon": 0.0, "lon": -77.03546316666667, "name": "79a7cbb970e556c68f147c7db59485bb", "is_disabled": 0, "rental_uris": {"android": "https://dc.lft.to/lastmile_qr_scan", "ios": "https://dc.lft.to/lastmile_qr_scan"}, "type": "electric_scooter", "lat": 38.92415116666667, "is_reserved": 0, "fusion_lat": 0.0}, {"bike_id": "fba50c7421c370e0c3db2592c8c15632", "fusion_lon": 0.0, "lon": -77.0515125, "name": "fba50c7421c370e0c3db2592c8c15632", "is_disabled": 0, "rental_uris": {"android": "https://dc.lft.to/lastmile_qr_scan", "ios": "https://dc.lft.to/lastmile_qr_scan"}, "type": "electric_scooter", "lat": 38.9052945, "is_reserved": 0, "fusion_lat": 0.0}, {"bike_id": "0b8f3d4fcc7de641da015af0c80f1c3c", "fusion_lon": 0.0, "lon": -76.98714166666667, "name": "0b8f3d4fcc7de641da015af0c80f1c3c", "is_disabled": 0, "rental_uris": {"android": "https://dc.lft.to/lastmile_qr_scan", "ios": "https://dc.lft.to/lastmile_qr_scan"}, "type": "electric_scooter", "lat": 38.86694466666667, "is_reserved": 0, "fusion_lat": 0.0}, {"bike_id": "fd547e3dbbf6920ecefb2f8a6f3f96f9", "fusion_lon": 0.0, "lon": -77.062477, "name": "fd547e3dbbf6920ecefb2f8a6f3f96f9", "is_disabled": 0, "rental_uris": {"android": "https://dc.lft.to/lastmile_qr_scan", "ios": "https://dc.lft.to/lastmile_qr_scan"}, "type": "electric_scooter", "lat": 38.905292333333335, "is_reserved": 0, "fusion_lat": 0.0}, {"bike_id": "69e27d3e6916d4e21c3b69f4e8184f41", "fusion_lon": 0.0, "lon": -77.02050433333334, "name": "69e27d3e6916d4e21c3b69f4e8184f41", "is_disabled": 0, "rental_uris": {"android": "https://dc.lft.to/lastmile_qr_scan", "ios": "https://dc.lft.to/lastmile_qr_scan"}, "type": "electric_scooter", "lat": 38.91412416666667, "is_reserved": 0, "fusion_lat": 0.0}, {"bike_id": "f5cbcdee88e214cbdd6d6de2de648bba", "fusion_lon": 0.0, "lon": -77.04041516666666, "name": "f5cbcdee88e214cbdd6d6de2de648bba", "is_disabled": 0, "rental_uris": {"android": "https://dc.lft.to/lastmile_qr_scan", "ios": "https://dc.lft.to/lastmile_qr_scan"}, "type": "electric_scooter", "lat": 38.89894916666667, "is_reserved": 0, "fusion_lat": 0.0}, {"bike_id": "68215096f246208cece799ef29923633", "fusion_lon": 0.0, "lon": -77.04169816666666, "name": "68215096f246208cece799ef29923633", "is_disabled": 0, "rental_uris": {"android": "https://dc.lft.to/lastmile_qr_scan", "ios": "https://dc.lft.to/lastmile_qr_scan"}, "type": "electric_scooter", "lat": 38.916282, "is_reserved": 0, "fusion_lat": 0.0}, {"bike_id": "441a14b5a1b9edcf0d9eadefc5e7a223", "fusion_lon": 0.0, "lon": -77.07937533333333, "name": "441a14b5a1b9edcf0d9eadefc5e7a223", "is_disabled": 0, "rental_uris": {"android": "https://dc.lft.to/lastmile_qr_scan", "ios": "https://dc.lft.to/lastmile_qr_scan"}, "type": "electric_scooter", "lat": 38.94765833333334, "is_reserved": 0, "fusion_lat": 0.0}, {"bike_id": "cab8906e311272b19cf7285ecb6dc345", "fusion_lon": 0.0, "lon": -77.02712083333333, "name": "cab8906e311272b19cf7285ecb6dc345", "is_disabled": 0, "rental_uris": {"android": "https://dc.lft.to/lastmile_qr_scan", "ios": "https://dc.lft.to/lastmile_qr_scan"}, "type": "electric_scooter", "lat": 38.9066735, "is_reserved": 0, "fusion_lat": 0.0}, {"bike_id": "c481d9488810246bb1a2edf0df1d1ed7", "fusion_lon": 0.0, "lon": -77.0227865, "name": "c481d9488810246bb1a2edf0df1d1ed7", "is_disabled": 0, "rental_uris": {"android": "https://dc.lft.to/lastmile_qr_scan", "ios": "https://dc.lft.to/lastmile_qr_scan"}, "type": "electric_scooter", "lat": 38.9156225, "is_reserved": 0, "fusion_lat": 0.0}, {"bike_id": "ac0a4a9d71bbf677343f91c502dd85a2", "fusion_lon": 0.0, "lon": -77.0298565, "name": "ac0a4a9d71bbf677343f91c502dd85a2", "is_disabled": 0, "rental_uris": {"android": "https://dc.lft.to/lastmile_qr_scan", "ios": "https://dc.lft.to/lastmile_qr_scan"}, "type": "electric_scooter", "lat": 38.934419, "is_reserved": 0, "fusion_lat": 0.0}, {"bike_id": "373477f03c7805481c948da35684342c", "fusion_lon": 0.0, "lon": -77.01504883333334, "name": "373477f03c7805481c948da35684342c", "is_disabled": 0, "rental_uris": {"android": "https://dc.lft.to/lastmile_qr_scan", "ios": "https://dc.lft.to/lastmile_qr_scan"}, "type": "electric_scooter", "lat": 38.888062833333336, "is_reserved": 0, "fusion_lat": 0.0}, {"bike_id": "5203116053aac7fdc9a8432e303cae9b", "fusion_lon": 0.0, "lon": -77.03657966666667, "name": "5203116053aac7fdc9a8432e303cae9b", "is_disabled": 0, "rental_uris": {"android": "https://dc.lft.to/lastmile_qr_scan", "ios": "https://dc.lft.to/lastmile_qr_scan"}, "type": "electric_scooter", "lat": 38.9172035, "is_reserved": 0, "fusion_lat": 0.0}, {"bike_id": "12d1ed55e0cb01bb9be079cc774de71b", "fusion_lon": 0.0, "lon": -77.03187866666667, "name": "12d1ed55e0cb01bb9be079cc774de71b", "is_disabled": 0, "rental_uris": {"android": "https://dc.lft.to/lastmile_qr_scan", "ios": "https://dc.lft.to/lastmile_qr_scan"}, "type": "electric_scooter", "lat": 38.9133195, "is_reserved": 0, "fusion_lat": 0.0}, {"bike_id": "ff33d30800996031b32d0a574dddaa19", "fusion_lon": 0.0, "lon": -77.023876, "name": "ff33d30800996031b32d0a574dddaa19", "is_disabled": 0, "rental_uris": {"android": "https://dc.lft.to/lastmile_qr_scan", "ios": "https://dc.lft.to/lastmile_qr_scan"}, "type": "electric_scooter", "lat": 38.9033475, "is_reserved": 0, "fusion_lat": 0.0}, {"bike_id": "76ff7fc7049c9e3d8fb22fd369346998", "fusion_lon": 0.0, "lon": -76.97239366666666, "name": "76ff7fc7049c9e3d8fb22fd369346998", "is_disabled": 0, "rental_uris": {"android": "https://dc.lft.to/lastmile_qr_scan", "ios": "https://dc.lft.to/lastmile_qr_scan"}, "type": "electric_bike", "lat": 38.94904533333333, "is_reserved": 0, "fusion_lat": 0.0}, {"bike_id": "7f376fd989a21cae09038a6ec55bbe79", "fusion_lon": 0.0, "lon": -77.03279966666666, "name": "7f376fd989a21cae09038a6ec55bbe79", "is_disabled": 0, "rental_uris": {"android": "https://dc.lft.to/lastmile_qr_scan", "ios": "https://dc.lft.to/lastmile_qr_scan"}, "type": "electric_scooter", "lat": 38.898883833333336, "is_reserved": 0, "fusion_lat": 0.0}, {"bike_id": "d457e48eecdfadb5ad65319ad3c4e86d", "fusion_lon": 0.0, "lon": -77.02827583333334, "name": "d457e48eecdfadb5ad65319ad3c4e86d", "is_disabled": 0, "rental_uris": {"android": "https://dc.lft.to/lastmile_qr_scan", "ios": "https://dc.lft.to/lastmile_qr_scan"}, "type": "electric_scooter", "lat": 38.93187666666667, "is_reserved": 0, "fusion_lat": 0.0}, {"bike_id": "5dac44e9b75f230f84d7cabf0d4595b4", "fusion_lon": 0.0, "lon": -77.0269635, "name": "5dac44e9b75f230f84d7cabf0d4595b4", "is_disabled": 0, "rental_uris": {"android": "https://dc.lft.to/lastmile_qr_scan", "ios": "https://dc.lft.to/lastmile_qr_scan"}, "type": "electric_scooter", "lat": 38.906851333333336, "is_reserved": 0, "fusion_lat": 0.0}, {"bike_id": "f863e606f098e6215bb36cd53ceb114a", "fusion_lon": 0.0, "lon": -77.00619216666666, "name": "f863e606f098e6215bb36cd53ceb114a", "is_disabled": 0, "rental_uris": {"android": "https://dc.lft.to/lastmile_qr_scan", "ios": "https://dc.lft.to/lastmile_qr_scan"}, "type": "electric_scooter", "lat": 38.9055435, "is_reserved": 0, "fusion_lat": 0.0}, {"bike_id": "f0e17bb32bd751894a83c39d88fb7d89", "fusion_lon": 0.0, "lon": -77.02228633333333, "name": "f0e17bb32bd751894a83c39d88fb7d89", "is_disabled": 0, "rental_uris": {"android": "https://dc.lft.to/lastmile_qr_scan", "ios": "https://dc.lft.to/lastmile_qr_scan"}, "type": "electric_scooter", "lat": 38.91653133333333, "is_reserved": 0, "fusion_lat": 0.0}, {"bike_id": "229e28c9d1112d2b19a7c1018d6438aa", "fusion_lon": 0.0, "lon": -77.10712766666667, "name": "229e28c9d1112d2b19a7c1018d6438aa", "is_disabled": 0, "rental_uris": {"android": "https://dc.lft.to/lastmile_qr_scan", "ios": "https://dc.lft.to/lastmile_qr_scan"}, "type": "electric_bike", "lat": 38.964801333333334, "is_reserved": 0, "fusion_lat": 0.0}, {"bike_id": "5a06112a4ec37c5dcb0a8cdabce72fcf", "fusion_lon": 0.0, "lon": -77.02147433333333, "name": "5a06112a4ec37c5dcb0a8cdabce72fcf", "is_disabled": 0, "rental_uris": {"android": "https://dc.lft.to/lastmile_qr_scan", "ios": "https://dc.lft.to/lastmile_qr_scan"}, "type": "electric_scooter", "lat": 38.90365233333333, "is_reserved": 0, "fusion_lat": 0.0}, {"bike_id": "c9ef2b75ba1bb27cc5e1d48111c57fcd", "fusion_lon": 0.0, "lon": -77.03178, "name": "c9ef2b75ba1bb27cc5e1d48111c57fcd", "is_disabled": 0, "rental_uris": {"android": "https://dc.lft.to/lastmile_qr_scan", "ios": "https://dc.lft.to/lastmile_qr_scan"}, "type": "electric_scooter", "lat": 38.9141355, "is_reserved": 0, "fusion_lat": 0.0}, {"bike_id": "6ca27e712df8b12a09cf20466a74feec", "fusion_lon": 0.0, "lon": -77.04019216666667, "name": "6ca27e712df8b12a09cf20466a74feec", "is_disabled": 0, "rental_uris": {"android": "https://dc.lft.to/lastmile_qr_scan", "ios": "https://dc.lft.to/lastmile_qr_scan"}, "type": "electric_bike", "lat": 38.7932395, "is_reserved": 0, "fusion_lat": 0.0}, {"bike_id": "0cd99315bad47d64c4b2eb1212d60d3a", "fusion_lon": 0.0, "lon": -77.00935066666666, "name": "0cd99315bad47d64c4b2eb1212d60d3a", "is_disabled": 0, "rental_uris": {"android": "https://dc.lft.to/lastmile_qr_scan", "ios": "https://dc.lft.to/lastmile_qr_scan"}, "type": "electric_scooter", "lat": 38.883372666666666, "is_reserved": 0, "fusion_lat": 0.0}, {"bike_id": "5dbba7f641cbfe544369bf6050def55b", "fusion_lon": 0.0, "lon": -77.03265583333334, "name": "5dbba7f641cbfe544369bf6050def55b", "is_disabled": 0, "rental_uris": {"android": "https://dc.lft.to/lastmile_qr_scan", "ios": "https://dc.lft.to/lastmile_qr_scan"}, "type": "electric_scooter", "lat": 38.92994, "is_reserved": 0, "fusion_lat": 0.0}, {"bike_id": "13e7dff4a3e45b42952ce8d5fb0a751e", "fusion_lon": 0.0, "lon": -77.03192416666667, "name": "13e7dff4a3e45b42952ce8d5fb0a751e", "is_disabled": 0, "rental_uris": {"android": "https://dc.lft.to/lastmile_qr_scan", "ios": "https://dc.lft.to/lastmile_qr_scan"}, "type": "electric_scooter", "lat": 38.913322666666666, "is_reserved": 0, "fusion_lat": 0.0}, {"bike_id": "57a32c65b4ee75cd48121e7f8c62f8f6", "fusion_lon": 0.0, "lon": -77.03178416666667, "name": "57a32c65b4ee75cd48121e7f8c62f8f6", "is_disabled": 0, "rental_uris": {"android": "https://dc.lft.to/lastmile_qr_scan", "ios": "https://dc.lft.to/lastmile_qr_scan"}, "type": "electric_scooter", "lat": 38.9121435, "is_reserved": 0, "fusion_lat": 0.0}, {"bike_id": "a8b05be502ac0ea2ca0adbb7550e5e82", "fusion_lon": 0.0, "lon": -77.07706166666667, "name": "a8b05be502ac0ea2ca0adbb7550e5e82", "is_disabled": 0, "rental_uris": {"android": "https://dc.lft.to/lastmile_qr_scan", "ios": "https://dc.lft.to/lastmile_qr_scan"}, "type": "electric_scooter", "lat": 38.943870833333335, "is_reserved": 0, "fusion_lat": 0.0}, {"bike_id": "1757466db73ecb361b4ea489c96ce0bc", "fusion_lon": 0.0, "lon": -77.03911966666666, "name": "1757466db73ecb361b4ea489c96ce0bc", "is_disabled": 0, "rental_uris": {"android": "https://dc.lft.to/lastmile_qr_scan", "ios": "https://dc.lft.to/lastmile_qr_scan"}, "type": "electric_scooter", "lat": 38.9038055, "is_reserved": 0, "fusion_lat": 0.0}, {"bike_id": "de63e351361a4eb1efc6e711d1577405", "fusion_lon": 0.0, "lon": -77.04435516666666, "name": "de63e351361a4eb1efc6e711d1577405", "is_disabled": 0, "rental_uris": {"android": "https://dc.lft.to/lastmile_qr_scan", "ios": "https://dc.lft.to/lastmile_qr_scan"}, "type": "electric_scooter", "lat": 38.92119783333333, "is_reserved": 0, "fusion_lat": 0.0}, {"bike_id": "21e32c94a29fcdc3033ed26ef03cd96a", "fusion_lon": 0.0, "lon": -77.04926933333333, "name": "21e32c94a29fcdc3033ed26ef03cd96a", "is_disabled": 0, "rental_uris": {"android": "https://dc.lft.to/lastmile_qr_scan", "ios": "https://dc.lft.to/lastmile_qr_scan"}, "type": "electric_bike", "lat": 39.02932233333333, "is_reserved": 0, "fusion_lat": 0.0}, {"bike_id": "045fa663e14b7523b070245be36de587", "fusion_lon": 0.0, "lon": -77.02944183333334, "name": "045fa663e14b7523b070245be36de587", "is_disabled": 0, "rental_uris": {"android": "https://dc.lft.to/lastmile_qr_scan", "ios": "https://dc.lft.to/lastmile_qr_scan"}, "type": "electric_scooter", "lat": 38.91697933333333, "is_reserved": 0, "fusion_lat": 0.0}, {"bike_id": "1c6d1841089c36be52dc5797dc61af6f", "fusion_lon": 0.0, "lon": -76.994866, "name": "1c6d1841089c36be52dc5797dc61af6f", "is_disabled": 0, "rental_uris": {"android": "https://dc.lft.to/lastmile_qr_scan", "ios": "https://dc.lft.to/lastmile_qr_scan"}, "type": "electric_scooter", "lat": 38.90418583333334, "is_reserved": 0, "fusion_lat": 0.0}, {"bike_id": "910e30eef7656e426ad9826175ed2479", "fusion_lon": 0.0, "lon": -77.0385835, "name": "910e30eef7656e426ad9826175ed2479", "is_disabled": 0, "rental_uris": {"android": "https://dc.lft.to/lastmile_qr_scan", "ios": "https://dc.lft.to/lastmile_qr_scan"}, "type": "electric_scooter", "lat": 38.9321425, "is_reserved": 0, "fusion_lat": 0.0}, {"bike_id": "8aded9c66bcd2261a41b51e6f0e39c47", "fusion_lon": 0.0, "lon": -77.02796083333334, "name": "8aded9c66bcd2261a41b51e6f0e39c47", "is_disabled": 0, "rental_uris": {"android": "https://dc.lft.to/lastmile_qr_scan", "ios": "https://dc.lft.to/lastmile_qr_scan"}, "type": "electric_scooter", "lat": 38.90257666666667, "is_reserved": 0, "fusion_lat": 0.0}, {"bike_id": "2f17abeeb1db2c06de0d610e86e58ac1", "fusion_lon": 0.0, "lon": -76.98154516666666, "name": "2f17abeeb1db2c06de0d610e86e58ac1", "is_disabled": 0, "rental_uris": {"android": "https://dc.lft.to/lastmile_qr_scan", "ios": "https://dc.lft.to/lastmile_qr_scan"}, "type": "electric_bike", "lat": 38.92262133333333, "is_reserved": 0, "fusion_lat": 0.0}, {"bike_id": "01b4cea9f8105a37867fc40e79817c9e", "fusion_lon": 0.0, "lon": -77.00072366666667, "name": "01b4cea9f8105a37867fc40e79817c9e", "is_disabled": 0, "rental_uris": {"android": "https://dc.lft.to/lastmile_qr_scan", "ios": "https://dc.lft.to/lastmile_qr_scan"}, "type": "electric_scooter", "lat": 38.87421583333333, "is_reserved": 0, "fusion_lat": 0.0}, {"bike_id": "db948f00f6c5839d304b042c3e2df0d7", "fusion_lon": 0.0, "lon": -77.02978983333334, "name": "db948f00f6c5839d304b042c3e2df0d7", "is_disabled": 0, "rental_uris": {"android": "https://dc.lft.to/lastmile_qr_scan", "ios": "https://dc.lft.to/lastmile_qr_scan"}, "type": "electric_scooter", "lat": 38.90699466666667, "is_reserved": 0, "fusion_lat": 0.0}, {"bike_id": "77c6fcb5016e67e34e9c2000031f8bab", "fusion_lon": 0.0, "lon": -77.03209116666666, "name": "77c6fcb5016e67e34e9c2000031f8bab", "is_disabled": 0, "rental_uris": {"android": "https://dc.lft.to/lastmile_qr_scan", "ios": "https://dc.lft.to/lastmile_qr_scan"}, "type": "electric_scooter", "lat": 38.914714833333335, "is_reserved": 0, "fusion_lat": 0.0}, {"bike_id": "5c2308a1616c61b4a32bb337f99cb731", "fusion_lon": 0.0, "lon": -77.04892833333334, "name": "5c2308a1616c61b4a32bb337f99cb731", "is_disabled": 0, "rental_uris": {"android": "https://dc.lft.to/lastmile_qr_scan", "ios": "https://dc.lft.to/lastmile_qr_scan"}, "type": "electric_scooter", "lat": 38.906413666666666, "is_reserved": 0, "fusion_lat": 0.0}, {"bike_id": "0635b72e41239b8e1675b7e41b1f35e4", "fusion_lon": 0.0, "lon": -77.04144883333333, "name": "0635b72e41239b8e1675b7e41b1f35e4", "is_disabled": 0, "rental_uris": {"android": "https://dc.lft.to/lastmile_qr_scan", "ios": "https://dc.lft.to/lastmile_qr_scan"}, "type": "electric_scooter", "lat": 38.91206016666667, "is_reserved": 0, "fusion_lat": 0.0}, {"bike_id": "4d0f5c00010dc20841813eb4903fc4a9", "fusion_lon": 0.0, "lon": -77.042816, "name": "4d0f5c00010dc20841813eb4903fc4a9", "is_disabled": 0, "rental_uris": {"android": "https://dc.lft.to/lastmile_qr_scan", "ios": "https://dc.lft.to/lastmile_qr_scan"}, "type": "electric_scooter", "lat": 38.914176499999996, "is_reserved": 0, "fusion_lat": 0.0}, {"bike_id": "f4c784cdb80bd2162b708e9dcaac6340", "fusion_lon": 0.0, "lon": -77.043526, "name": "f4c784cdb80bd2162b708e9dcaac6340", "is_disabled": 0, "rental_uris": {"android": "https://dc.lft.to/lastmile_qr_scan", "ios": "https://dc.lft.to/lastmile_qr_scan"}, "type": "electric_scooter", "lat": 38.905128833333336, "is_reserved": 0, "fusion_lat": 0.0}, {"bike_id": "b54019d71cc4aee792929ac51b636016", "fusion_lon": 0.0, "lon": -77.02556583333333, "name": "b54019d71cc4aee792929ac51b636016", "is_disabled": 0, "rental_uris": {"android": "https://dc.lft.to/lastmile_qr_scan", "ios": "https://dc.lft.to/lastmile_qr_scan"}, "type": "electric_scooter", "lat": 38.924987, "is_reserved": 0, "fusion_lat": 0.0}, {"bike_id": "ebd3da5aa3a1294ad63b5838b69529f8", "fusion_lon": 0.0, "lon": -77.0297715, "name": "ebd3da5aa3a1294ad63b5838b69529f8", "is_disabled": 0, "rental_uris": {"android": "https://dc.lft.to/lastmile_qr_scan", "ios": "https://dc.lft.to/lastmile_qr_scan"}, "type": "electric_scooter", "lat": 38.92228683333333, "is_reserved": 0, "fusion_lat": 0.0}, {"bike_id": "fdc379390343ab5a9238c709bca998a2", "fusion_lon": 0.0, "lon": -77.040161, "name": "fdc379390343ab5a9238c709bca998a2", "is_disabled": 0, "rental_uris": {"android": "https://dc.lft.to/lastmile_qr_scan", "ios": "https://dc.lft.to/lastmile_qr_scan"}, "type": "electric_scooter", "lat": 38.92177483333333, "is_reserved": 0, "fusion_lat": 0.0}, {"bike_id": "12fe9ed7c3aa23b851aef19ddc4c18ec", "fusion_lon": 0.0, "lon": -77.0329515, "name": "12fe9ed7c3aa23b851aef19ddc4c18ec", "is_disabled": 0, "rental_uris": {"android": "https://dc.lft.to/lastmile_qr_scan", "ios": "https://dc.lft.to/lastmile_qr_scan"}, "type": "electric_scooter", "lat": 38.9564155, "is_reserved": 0, "fusion_lat": 0.0}, {"bike_id": "90327c720c97c29bc875d68bff991bc9", "fusion_lon": 0.0, "lon": -77.032086, "name": "90327c720c97c29bc875d68bff991bc9", "is_disabled": 0, "rental_uris": {"android": "https://dc.lft.to/lastmile_qr_scan", "ios": "https://dc.lft.to/lastmile_qr_scan"}, "type": "electric_scooter", "lat": 38.91489133333333, "is_reserved": 0, "fusion_lat": 0.0}, {"bike_id": "7d0bf89e5dd6106c9d6647f7f12b2b40", "fusion_lon": 0.0, "lon": -77.04468266666667, "name": "7d0bf89e5dd6106c9d6647f7f12b2b40", "is_disabled": 0, "rental_uris": {"android": "https://dc.lft.to/lastmile_qr_scan", "ios": "https://dc.lft.to/lastmile_qr_scan"}, "type": "electric_scooter", "lat": 38.904626, "is_reserved": 0, "fusion_lat": 0.0}, {"bike_id": "162f4817d2a0f7daf62f7e1325ac151f", "fusion_lon": 0.0, "lon": -77.0319285, "name": "162f4817d2a0f7daf62f7e1325ac151f", "is_disabled": 0, "rental_uris": {"android": "https://dc.lft.to/lastmile_qr_scan", "ios": "https://dc.lft.to/lastmile_qr_scan"}, "type": "electric_scooter", "lat": 38.912102, "is_reserved": 0, "fusion_lat": 0.0}, {"bike_id": "f366a82abb71be8421d3d655bf0fa86f", "fusion_lon": 0.0, "lon": -77.03147583333333, "name": "f366a82abb71be8421d3d655bf0fa86f", "is_disabled": 0, "rental_uris": {"android": "https://dc.lft.to/lastmile_qr_scan", "ios": "https://dc.lft.to/lastmile_qr_scan"}, "type": "electric_scooter", "lat": 38.915626, "is_reserved": 0, "fusion_lat": 0.0}, {"bike_id": "f39e91d7d2407375ee810dca0505aced", "fusion_lon": 0.0, "lon": -77.0487315, "name": "f39e91d7d2407375ee810dca0505aced", "is_disabled": 0, "rental_uris": {"android": "https://dc.lft.to/lastmile_qr_scan", "ios": "https://dc.lft.to/lastmile_qr_scan"}, "type": "electric_scooter", "lat": 38.901642333333335, "is_reserved": 0, "fusion_lat": 0.0}, {"bike_id": "44f104e191116ca6aa50e0592579d009", "fusion_lon": 0.0, "lon": -77.0882775, "name": "44f104e191116ca6aa50e0592579d009", "is_disabled": 0, "rental_uris": {"android": "https://dc.lft.to/lastmile_qr_scan", "ios": "https://dc.lft.to/lastmile_qr_scan"}, "type": "electric_bike", "lat": 38.909716, "is_reserved": 0, "fusion_lat": 0.0}, {"bike_id": "6cca2315cb20422fbd2976e92663c3fc", "fusion_lon": 0.0, "lon": -77.043312, "name": "6cca2315cb20422fbd2976e92663c3fc", "is_disabled": 0, "rental_uris": {"android": "https://dc.lft.to/lastmile_qr_scan", "ios": "https://dc.lft.to/lastmile_qr_scan"}, "type": "electric_scooter", "lat": 38.8951545, "is_reserved": 0, "fusion_lat": 0.0}, {"bike_id": "27fffce6280a318425ab9dadb24fdf68", "fusion_lon": 0.0, "lon": -77.04449616666666, "name": "27fffce6280a318425ab9dadb24fdf68", "is_disabled": 0, "rental_uris": {"android": "https://dc.lft.to/lastmile_qr_scan", "ios": "https://dc.lft.to/lastmile_qr_scan"}, "type": "electric_scooter", "lat": 38.91187716666666, "is_reserved": 0, "fusion_lat": 0.0}, {"bike_id": "5675c2a12ae0409587b52cb3106878c8", "fusion_lon": 0.0, "lon": -77.03761166666666, "name": "5675c2a12ae0409587b52cb3106878c8", "is_disabled": 0, "rental_uris": {"android": "https://dc.lft.to/lastmile_qr_scan", "ios": "https://dc.lft.to/lastmile_qr_scan"}, "type": "electric_scooter", "lat": 38.935984, "is_reserved": 0, "fusion_lat": 0.0}, {"bike_id": "a2abfc0096f800826770963ff7be1a15", "fusion_lon": 0.0, "lon": -77.02211783333334, "name": "a2abfc0096f800826770963ff7be1a15", "is_disabled": 0, "rental_uris": {"android": "https://dc.lft.to/lastmile_qr_scan", "ios": "https://dc.lft.to/lastmile_qr_scan"}, "type": "electric_scooter", "lat": 38.915674, "is_reserved": 0, "fusion_lat": 0.0}, {"bike_id": "2e9a18dac5ec51796f7da581f2691b9f", "fusion_lon": 0.0, "lon": -77.03293516666666, "name": "2e9a18dac5ec51796f7da581f2691b9f", "is_disabled": 0, "rental_uris": {"android": "https://dc.lft.to/lastmile_qr_scan", "ios": "https://dc.lft.to/lastmile_qr_scan"}, "type": "electric_scooter", "lat": 38.9036585, "is_reserved": 0, "fusion_lat": 0.0}, {"bike_id": "a978cb61bb21853c64f24ca64e0ac927", "fusion_lon": 0.0, "lon": -77.03189933333333, "name": "a978cb61bb21853c64f24ca64e0ac927", "is_disabled": 0, "rental_uris": {"android": "https://dc.lft.to/lastmile_qr_scan", "ios": "https://dc.lft.to/lastmile_qr_scan"}, "type": "electric_scooter", "lat": 38.91742433333334, "is_reserved": 0, "fusion_lat": 0.0}, {"bike_id": "2af7b7a3622fd2c1f6723a214a9c87a4", "fusion_lon": 0.0, "lon": -76.99945566666666, "name": "2af7b7a3622fd2c1f6723a214a9c87a4", "is_disabled": 0, "rental_uris": {"android": "https://dc.lft.to/lastmile_qr_scan", "ios": "https://dc.lft.to/lastmile_qr_scan"}, "type": "electric_scooter", "lat": 38.84293183333333, "is_reserved": 0, "fusion_lat": 0.0}, {"bike_id": "7e7a97ad83edceeb5bffb7a8710c3dfb", "fusion_lon": 0.0, "lon": -77.00626333333334, "name": "7e7a97ad83edceeb5bffb7a8710c3dfb", "is_disabled": 0, "rental_uris": {"android": "https://dc.lft.to/lastmile_qr_scan", "ios": "https://dc.lft.to/lastmile_qr_scan"}, "type": "electric_scooter", "lat": 38.9056755, "is_reserved": 0, "fusion_lat": 0.0}, {"bike_id": "edf48e3e00a06e5c6f58526f49b1df34", "fusion_lon": 0.0, "lon": -77.073019, "name": "edf48e3e00a06e5c6f58526f49b1df34", "is_disabled": 0, "rental_uris": {"android": "https://dc.lft.to/lastmile_qr_scan", "ios": "https://dc.lft.to/lastmile_qr_scan"}, "type": "electric_scooter", "lat": 38.92878066666667, "is_reserved": 0, "fusion_lat": 0.0}, {"bike_id": "c1aa84489769b2617ffcf2a47ae311bb", "fusion_lon": 0.0, "lon": -77.00757383333334, "name": "c1aa84489769b2617ffcf2a47ae311bb", "is_disabled": 0, "rental_uris": {"android": "https://dc.lft.to/lastmile_qr_scan", "ios": "https://dc.lft.to/lastmile_qr_scan"}, "type": "electric_scooter", "lat": 38.877436833333334, "is_reserved": 0, "fusion_lat": 0.0}, {"bike_id": "f5d26e03037a94704a52b1a15904946a", "fusion_lon": 0.0, "lon": -77.02805033333334, "name": "f5d26e03037a94704a52b1a15904946a", "is_disabled": 0, "rental_uris": {"android": "https://dc.lft.to/lastmile_qr_scan", "ios": "https://dc.lft.to/lastmile_qr_scan"}, "type": "electric_scooter", "lat": 38.91677816666667, "is_reserved": 0, "fusion_lat": 0.0}, {"bike_id": "5cccb9e11ee5f9f7f3b73a53a4b47213", "fusion_lon": 0.0, "lon": -77.04352583333333, "name": "5cccb9e11ee5f9f7f3b73a53a4b47213", "is_disabled": 0, "rental_uris": {"android": "https://dc.lft.to/lastmile_qr_scan", "ios": "https://dc.lft.to/lastmile_qr_scan"}, "type": "electric_scooter", "lat": 38.9129885, "is_reserved": 0, "fusion_lat": 0.0}, {"bike_id": "00451be1f49521d1b14075dd985da4be", "fusion_lon": 0.0, "lon": -77.0186985, "name": "00451be1f49521d1b14075dd985da4be", "is_disabled": 0, "rental_uris": {"android": "https://dc.lft.to/lastmile_qr_scan", "ios": "https://dc.lft.to/lastmile_qr_scan"}, "type": "electric_scooter", "lat": 38.931525666666666, "is_reserved": 0, "fusion_lat": 0.0}, {"bike_id": "7376fb6a78e3617ae9516131e0e66aec", "fusion_lon": 0.0, "lon": -77.0367435, "name": "7376fb6a78e3617ae9516131e0e66aec", "is_disabled": 0, "rental_uris": {"android": "https://dc.lft.to/lastmile_qr_scan", "ios": "https://dc.lft.to/lastmile_qr_scan"}, "type": "electric_scooter", "lat": 38.917106, "is_reserved": 0, "fusion_lat": 0.0}, {"bike_id": "10e7f8e26135b5fd0bd2123ee7895d43", "fusion_lon": 0.0, "lon": -77.0576465, "name": "10e7f8e26135b5fd0bd2123ee7895d43", "is_disabled": 0, "rental_uris": {"android": "https://dc.lft.to/lastmile_qr_scan", "ios": "https://dc.lft.to/lastmile_qr_scan"}, "type": "electric_scooter", "lat": 38.93432116666666, "is_reserved": 0, "fusion_lat": 0.0}, {"bike_id": "921ab3e92f0f3f0109bc68cf72ef1e11", "fusion_lon": 0.0, "lon": -76.99343433333334, "name": "921ab3e92f0f3f0109bc68cf72ef1e11", "is_disabled": 0, "rental_uris": {"android": "https://dc.lft.to/lastmile_qr_scan", "ios": "https://dc.lft.to/lastmile_qr_scan"}, "type": "electric_bike", "lat": 38.97225516666666, "is_reserved": 0, "fusion_lat": 0.0}, {"bike_id": "a9333e8ec4c50ddca326db32da2a0640", "fusion_lon": 0.0, "lon": -76.93302066666666, "name": "a9333e8ec4c50ddca326db32da2a0640", "is_disabled": 0, "rental_uris": {"android": "https://dc.lft.to/lastmile_qr_scan", "ios": "https://dc.lft.to/lastmile_qr_scan"}, "type": "electric_scooter", "lat": 38.881355666666664, "is_reserved": 0, "fusion_lat": 0.0}, {"bike_id": "676b3de5e777cd1d567353de5786748b", "fusion_lon": 0.0, "lon": -77.0480165, "name": "676b3de5e777cd1d567353de5786748b", "is_disabled": 0, "rental_uris": {"android": "https://dc.lft.to/lastmile_qr_scan", "ios": "https://dc.lft.to/lastmile_qr_scan"}, "type": "electric_scooter", "lat": 38.892193666666664, "is_reserved": 0, "fusion_lat": 0.0}, {"bike_id": "b9391437101146219eafa3eb8237d9f3", "fusion_lon": 0.0, "lon": -77.06135166666667, "name": "b9391437101146219eafa3eb8237d9f3", "is_disabled": 0, "rental_uris": {"android": "https://dc.lft.to/lastmile_qr_scan", "ios": "https://dc.lft.to/lastmile_qr_scan"}, "type": "electric_scooter", "lat": 38.9050915, "is_reserved": 0, "fusion_lat": 0.0}, {"bike_id": "6984790a266bc496e91720c1c7a15489", "fusion_lon": 0.0, "lon": -76.97176466666667, "name": "6984790a266bc496e91720c1c7a15489", "is_disabled": 0, "rental_uris": {"android": "https://dc.lft.to/lastmile_qr_scan", "ios": "https://dc.lft.to/lastmile_qr_scan"}, "type": "electric_scooter", "lat": 38.85434, "is_reserved": 0, "fusion_lat": 0.0}, {"bike_id": "c1637a13f32e612439bc5a69fbc041d2", "fusion_lon": 0.0, "lon": -77.0325615, "name": "c1637a13f32e612439bc5a69fbc041d2", "is_disabled": 0, "rental_uris": {"android": "https://dc.lft.to/lastmile_qr_scan", "ios": "https://dc.lft.to/lastmile_qr_scan"}, "type": "electric_scooter", "lat": 38.939749, "is_reserved": 0, "fusion_lat": 0.0}, {"bike_id": "6437c0e74441909f37beb4712a16e006", "fusion_lon": 0.0, "lon": -76.995117, "name": "6437c0e74441909f37beb4712a16e006", "is_disabled": 0, "rental_uris": {"android": "https://dc.lft.to/lastmile_qr_scan", "ios": "https://dc.lft.to/lastmile_qr_scan"}, "type": "electric_scooter", "lat": 38.883637, "is_reserved": 0, "fusion_lat": 0.0}, {"bike_id": "478623f5f2157785a470f82421205b20", "fusion_lon": 0.0, "lon": -77.01783166666667, "name": "478623f5f2157785a470f82421205b20", "is_disabled": 0, "rental_uris": {"android": "https://dc.lft.to/lastmile_qr_scan", "ios": "https://dc.lft.to/lastmile_qr_scan"}, "type": "electric_scooter", "lat": 38.9041645, "is_reserved": 0, "fusion_lat": 0.0}, {"bike_id": "e0f6248c45c5c4c93d5782d13bca1317", "fusion_lon": 0.0, "lon": -77.02196966666666, "name": "e0f6248c45c5c4c93d5782d13bca1317", "is_disabled": 0, "rental_uris": {"android": "https://dc.lft.to/lastmile_qr_scan", "ios": "https://dc.lft.to/lastmile_qr_scan"}, "type": "electric_scooter", "lat": 38.918417833333336, "is_reserved": 0, "fusion_lat": 0.0}, {"bike_id": "132de38abae9d1b2ed288753347a4cc3", "fusion_lon": 0.0, "lon": -76.99682733333333, "name": "132de38abae9d1b2ed288753347a4cc3", "is_disabled": 0, "rental_uris": {"android": "https://dc.lft.to/lastmile_qr_scan", "ios": "https://dc.lft.to/lastmile_qr_scan"}, "type": "electric_scooter", "lat": 38.90832183333333, "is_reserved": 0, "fusion_lat": 0.0}, {"bike_id": "4c0751c7e3ddabdbb5d02dfbaa70cd5c", "fusion_lon": 0.0, "lon": -77.02685233333334, "name": "4c0751c7e3ddabdbb5d02dfbaa70cd5c", "is_disabled": 0, "rental_uris": {"android": "https://dc.lft.to/lastmile_qr_scan", "ios": "https://dc.lft.to/lastmile_qr_scan"}, "type": "electric_scooter", "lat": 38.89698283333333, "is_reserved": 0, "fusion_lat": 0.0}, {"bike_id": "27270de64e50401657b5a30b1c06e661", "fusion_lon": 0.0, "lon": -77.06190466666666, "name": "27270de64e50401657b5a30b1c06e661", "is_disabled": 0, "rental_uris": {"android": "https://dc.lft.to/lastmile_qr_scan", "ios": "https://dc.lft.to/lastmile_qr_scan"}, "type": "electric_scooter", "lat": 38.944461833333335, "is_reserved": 0, "fusion_lat": 0.0}, {"bike_id": "6768f1755577865299688cb116b14c30", "fusion_lon": 0.0, "lon": -77.02252833333333, "name": "6768f1755577865299688cb116b14c30", "is_disabled": 0, "rental_uris": {"android": "https://dc.lft.to/lastmile_qr_scan", "ios": "https://dc.lft.to/lastmile_qr_scan"}, "type": "electric_scooter", "lat": 38.89443416666667, "is_reserved": 0, "fusion_lat": 0.0}, {"bike_id": "e936d443b34c69993d1a6267a124ad98", "fusion_lon": 0.0, "lon": -77.03288216666667, "name": "e936d443b34c69993d1a6267a124ad98", "is_disabled": 0, "rental_uris": {"android": "https://dc.lft.to/lastmile_qr_scan", "ios": "https://dc.lft.to/lastmile_qr_scan"}, "type": "electric_scooter", "lat": 38.928751166666665, "is_reserved": 0, "fusion_lat": 0.0}, {"bike_id": "fa97243cc943cbfc35a0aecfd717ee73", "fusion_lon": 0.0, "lon": -77.0219885, "name": "fa97243cc943cbfc35a0aecfd717ee73", "is_disabled": 0, "rental_uris": {"android": "https://dc.lft.to/lastmile_qr_scan", "ios": "https://dc.lft.to/lastmile_qr_scan"}, "type": "electric_scooter", "lat": 38.918963, "is_reserved": 0, "fusion_lat": 0.0}, {"bike_id": "4ea3f33d9c9fc27a1d3db13b59783cc3", "fusion_lon": 0.0, "lon": -77.0071365, "name": "4ea3f33d9c9fc27a1d3db13b59783cc3", "is_disabled": 0, "rental_uris": {"android": "https://dc.lft.to/lastmile_qr_scan", "ios": "https://dc.lft.to/lastmile_qr_scan"}, "type": "electric_scooter", "lat": 38.87672833333333, "is_reserved": 0, "fusion_lat": 0.0}, {"bike_id": "000b90d736b0d731638895aa36734a39", "fusion_lon": 0.0, "lon": -77.05049366666667, "name": "000b90d736b0d731638895aa36734a39", "is_disabled": 0, "rental_uris": {"android": "https://dc.lft.to/lastmile_qr_scan", "ios": "https://dc.lft.to/lastmile_qr_scan"}, "type": "electric_scooter", "lat": 38.923442333333334, "is_reserved": 0, "fusion_lat": 0.0}, {"bike_id": "09491e27bf803df58a65519e7549d935", "fusion_lon": 0.0, "lon": -76.9994795, "name": "09491e27bf803df58a65519e7549d935", "is_disabled": 0, "rental_uris": {"android": "https://dc.lft.to/lastmile_qr_scan", "ios": "https://dc.lft.to/lastmile_qr_scan"}, "type": "electric_scooter", "lat": 38.84288933333333, "is_reserved": 0, "fusion_lat": 0.0}, {"bike_id": "f3ad0b0577a1cb17fa0abc8eb45e07b0", "fusion_lon": 0.0, "lon": -77.034143, "name": "f3ad0b0577a1cb17fa0abc8eb45e07b0", "is_disabled": 0, "rental_uris": {"android": "https://dc.lft.to/lastmile_qr_scan", "ios": "https://dc.lft.to/lastmile_qr_scan"}, "type": "electric_scooter", "lat": 38.92314566666667, "is_reserved": 0, "fusion_lat": 0.0}, {"bike_id": "13218a891dc0361674fa83f6afd6d433", "fusion_lon": 0.0, "lon": -76.983986, "name": "13218a891dc0361674fa83f6afd6d433", "is_disabled": 0, "rental_uris": {"android": "https://dc.lft.to/lastmile_qr_scan", "ios": "https://dc.lft.to/lastmile_qr_scan"}, "type": "electric_scooter", "lat": 38.86692583333333, "is_reserved": 0, "fusion_lat": 0.0}, {"bike_id": "667189ec8a656418e2bb89e6e2dd56a1", "fusion_lon": 0.0, "lon": -77.03912, "name": "667189ec8a656418e2bb89e6e2dd56a1", "is_disabled": 0, "rental_uris": {"android": "https://dc.lft.to/lastmile_qr_scan", "ios": "https://dc.lft.to/lastmile_qr_scan"}, "type": "electric_scooter", "lat": 38.915547333333336, "is_reserved": 0, "fusion_lat": 0.0}, {"bike_id": "705644a4506f6cb423453ba61fd08542", "fusion_lon": 0.0, "lon": -77.03486233333334, "name": "705644a4506f6cb423453ba61fd08542", "is_disabled": 0, "rental_uris": {"android": "https://dc.lft.to/lastmile_qr_scan", "ios": "https://dc.lft.to/lastmile_qr_scan"}, "type": "electric_scooter", "lat": 38.924766166666664, "is_reserved": 0, "fusion_lat": 0.0}, {"bike_id": "82b6a3f71e5bfc04aaeb9ec5ab775fdb", "fusion_lon": 0.0, "lon": -76.98886083333333, "name": "82b6a3f71e5bfc04aaeb9ec5ab775fdb", "is_disabled": 0, "rental_uris": {"android": "https://dc.lft.to/lastmile_qr_scan", "ios": "https://dc.lft.to/lastmile_qr_scan"}, "type": "electric_scooter", "lat": 38.8664975, "is_reserved": 0, "fusion_lat": 0.0}, {"bike_id": "ccb5e4745ce1a0a9055d081d53884922", "fusion_lon": 0.0, "lon": -77.0173015, "name": "ccb5e4745ce1a0a9055d081d53884922", "is_disabled": 0, "rental_uris": {"android": "https://dc.lft.to/lastmile_qr_scan", "ios": "https://dc.lft.to/lastmile_qr_scan"}, "type": "electric_scooter", "lat": 38.91941, "is_reserved": 0, "fusion_lat": 0.0}, {"bike_id": "a1ae1046a555709c7154c350d507dc4a", "fusion_lon": 0.0, "lon": -76.98830416666667, "name": "a1ae1046a555709c7154c350d507dc4a", "is_disabled": 0, "rental_uris": {"android": "https://dc.lft.to/lastmile_qr_scan", "ios": "https://dc.lft.to/lastmile_qr_scan"}, "type": "electric_scooter", "lat": 38.90039016666667, "is_reserved": 0, "fusion_lat": 0.0}, {"bike_id": "90634b50d41566097fe877e5c084e2a3", "fusion_lon": 0.0, "lon": -77.02678566666667, "name": "90634b50d41566097fe877e5c084e2a3", "is_disabled": 0, "rental_uris": {"android": "https://dc.lft.to/lastmile_qr_scan", "ios": "https://dc.lft.to/lastmile_qr_scan"}, "type": "electric_bike", "lat": 38.899988, "is_reserved": 0, "fusion_lat": 0.0}, {"bike_id": "02c2260560a2067a7cbaa2040328f1ad", "fusion_lon": 0.0, "lon": -76.99902633333333, "name": "02c2260560a2067a7cbaa2040328f1ad", "is_disabled": 0, "rental_uris": {"android": "https://dc.lft.to/lastmile_qr_scan", "ios": "https://dc.lft.to/lastmile_qr_scan"}, "type": "electric_scooter", "lat": 38.898919166666666, "is_reserved": 0, "fusion_lat": 0.0}, {"bike_id": "e06b65951adf2f5a9767d2ad644676e5", "fusion_lon": 0.0, "lon": -77.03201916666667, "name": "e06b65951adf2f5a9767d2ad644676e5", "is_disabled": 0, "rental_uris": {"android": "https://dc.lft.to/lastmile_qr_scan", "ios": "https://dc.lft.to/lastmile_qr_scan"}, "type": "electric_scooter", "lat": 38.914199333333336, "is_reserved": 0, "fusion_lat": 0.0}, {"bike_id": "6c52f86f47acf47e3a5d4f2877909b20", "fusion_lon": 0.0, "lon": -77.04910916666667, "name": "6c52f86f47acf47e3a5d4f2877909b20", "is_disabled": 0, "rental_uris": {"android": "https://dc.lft.to/lastmile_qr_scan", "ios": "https://dc.lft.to/lastmile_qr_scan"}, "type": "electric_scooter", "lat": 38.90089566666666, "is_reserved": 0, "fusion_lat": 0.0}, {"bike_id": "dee2632f9cc92949541ff75a39f0465e", "fusion_lon": 0.0, "lon": -77.03417033333334, "name": "dee2632f9cc92949541ff75a39f0465e", "is_disabled": 0, "rental_uris": {"android": "https://dc.lft.to/lastmile_qr_scan", "ios": "https://dc.lft.to/lastmile_qr_scan"}, "type": "electric_scooter", "lat": 38.90385, "is_reserved": 0, "fusion_lat": 0.0}, {"bike_id": "719655a0dfa4b0a2123d42d21e8154ea", "fusion_lon": 0.0, "lon": -76.996173, "name": "719655a0dfa4b0a2123d42d21e8154ea", "is_disabled": 0, "rental_uris": {"android": "https://dc.lft.to/lastmile_qr_scan", "ios": "https://dc.lft.to/lastmile_qr_scan"}, "type": "electric_scooter", "lat": 38.89998716666667, "is_reserved": 0, "fusion_lat": 0.0}, {"bike_id": "c9ee1efbecbd4d7ddd110a0fa36a90e6", "fusion_lon": 0.0, "lon": -77.03213866666667, "name": "c9ee1efbecbd4d7ddd110a0fa36a90e6", "is_disabled": 0, "rental_uris": {"android": "https://dc.lft.to/lastmile_qr_scan", "ios": "https://dc.lft.to/lastmile_qr_scan"}, "type": "electric_scooter", "lat": 38.918508333333335, "is_reserved": 0, "fusion_lat": 0.0}, {"bike_id": "9b62308986e54e1a3d2756707147adc0", "fusion_lon": 0.0, "lon": -77.03473416666667, "name": "9b62308986e54e1a3d2756707147adc0", "is_disabled": 0, "rental_uris": {"android": "https://dc.lft.to/lastmile_qr_scan", "ios": "https://dc.lft.to/lastmile_qr_scan"}, "type": "electric_scooter", "lat": 38.920489, "is_reserved": 0, "fusion_lat": 0.0}, {"bike_id": "408b062f25771015e7d946cd578c5b61", "fusion_lon": 0.0, "lon": -76.98725, "name": "408b062f25771015e7d946cd578c5b61", "is_disabled": 0, "rental_uris": {"android": "https://dc.lft.to/lastmile_qr_scan", "ios": "https://dc.lft.to/lastmile_qr_scan"}, "type": "electric_scooter", "lat": 38.906975333333335, "is_reserved": 0, "fusion_lat": 0.0}, {"bike_id": "efe4e28527c8ab9c90f68b8b686f13e2", "fusion_lon": 0.0, "lon": -76.94876616666667, "name": "efe4e28527c8ab9c90f68b8b686f13e2", "is_disabled": 0, "rental_uris": {"android": "https://dc.lft.to/lastmile_qr_scan", "ios": "https://dc.lft.to/lastmile_qr_scan"}, "type": "electric_scooter", "lat": 38.89504316666667, "is_reserved": 0, "fusion_lat": 0.0}, {"bike_id": "3be287d89390ea11a4f070f83082276c", "fusion_lon": 0.0, "lon": -77.03281116666666, "name": "3be287d89390ea11a4f070f83082276c", "is_disabled": 0, "rental_uris": {"android": "https://dc.lft.to/lastmile_qr_scan", "ios": "https://dc.lft.to/lastmile_qr_scan"}, "type": "electric_scooter", "lat": 38.936915666666664, "is_reserved": 0, "fusion_lat": 0.0}, {"bike_id": "6755e637544e9c757217ea5965cdf615", "fusion_lon": 0.0, "lon": -77.0282285, "name": "6755e637544e9c757217ea5965cdf615", "is_disabled": 0, "rental_uris": {"android": "https://dc.lft.to/lastmile_qr_scan", "ios": "https://dc.lft.to/lastmile_qr_scan"}, "type": "electric_scooter", "lat": 38.896271166666665, "is_reserved": 0, "fusion_lat": 0.0}, {"bike_id": "8514280e1dbee1893511c80f41398d81", "fusion_lon": 0.0, "lon": -76.93028483333333, "name": "8514280e1dbee1893511c80f41398d81", "is_disabled": 0, "rental_uris": {"android": "https://dc.lft.to/lastmile_qr_scan", "ios": "https://dc.lft.to/lastmile_qr_scan"}, "type": "electric_scooter", "lat": 38.898282, "is_reserved": 0, "fusion_lat": 0.0}, {"bike_id": "292c90e51fb67d16415f03158dfcc588", "fusion_lon": 0.0, "lon": -77.04686216666667, "name": "292c90e51fb67d16415f03158dfcc588", "is_disabled": 0, "rental_uris": {"android": "https://dc.lft.to/lastmile_qr_scan", "ios": "https://dc.lft.to/lastmile_qr_scan"}, "type": "electric_scooter", "lat": 38.897291333333335, "is_reserved": 0, "fusion_lat": 0.0}, {"bike_id": "abd2aa44bd15955786c5ff531e96d8c4", "fusion_lon": 0.0, "lon": -77.02831033333334, "name": "abd2aa44bd15955786c5ff531e96d8c4", "is_disabled": 0, "rental_uris": {"android": "https://dc.lft.to/lastmile_qr_scan", "ios": "https://dc.lft.to/lastmile_qr_scan"}, "type": "electric_scooter", "lat": 38.8872905, "is_reserved": 0, "fusion_lat": 0.0}, {"bike_id": "9b526ebded0c29b9cbe9d69f62da3910", "fusion_lon": 0.0, "lon": -77.02854833333333, "name": "9b526ebded0c29b9cbe9d69f62da3910", "is_disabled": 0, "rental_uris": {"android": "https://dc.lft.to/lastmile_qr_scan", "ios": "https://dc.lft.to/lastmile_qr_scan"}, "type": "electric_scooter", "lat": 38.92573083333333, "is_reserved": 0, "fusion_lat": 0.0}, {"bike_id": "bd69c174b5e0db1f22e6d6ebb7c08535", "fusion_lon": 0.0, "lon": -77.0138305, "name": "bd69c174b5e0db1f22e6d6ebb7c08535", "is_disabled": 0, "rental_uris": {"android": "https://dc.lft.to/lastmile_qr_scan", "ios": "https://dc.lft.to/lastmile_qr_scan"}, "type": "electric_scooter", "lat": 38.870847499999996, "is_reserved": 0, "fusion_lat": 0.0}, {"bike_id": "12db471f143092669b35a28d655d1af0", "fusion_lon": 0.0, "lon": -76.9914495, "name": "12db471f143092669b35a28d655d1af0", "is_disabled": 0, "rental_uris": {"android": "https://dc.lft.to/lastmile_qr_scan", "ios": "https://dc.lft.to/lastmile_qr_scan"}, "type": "electric_scooter", "lat": 38.879150333333335, "is_reserved": 0, "fusion_lat": 0.0}, {"bike_id": "ed0f72d5b40abb024db8c7a7d35cb65c", "fusion_lon": 0.0, "lon": -77.02964233333333, "name": "ed0f72d5b40abb024db8c7a7d35cb65c", "is_disabled": 0, "rental_uris": {"android": "https://dc.lft.to/lastmile_qr_scan", "ios": "https://dc.lft.to/lastmile_qr_scan"}, "type": "electric_scooter", "lat": 38.923685166666665, "is_reserved": 0, "fusion_lat": 0.0}, {"bike_id": "a58e92aab671740eebab6e0c07a0a988", "fusion_lon": 0.0, "lon": -77.02724483333333, "name": "a58e92aab671740eebab6e0c07a0a988", "is_disabled": 0, "rental_uris": {"android": "https://dc.lft.to/lastmile_qr_scan", "ios": "https://dc.lft.to/lastmile_qr_scan"}, "type": "electric_scooter", "lat": 38.949580833333336, "is_reserved": 0, "fusion_lat": 0.0}, {"bike_id": "1fd42423897d8c3c85eb2bea5581b7ca", "fusion_lon": 0.0, "lon": -76.981091, "name": "1fd42423897d8c3c85eb2bea5581b7ca", "is_disabled": 0, "rental_uris": {"android": "https://dc.lft.to/lastmile_qr_scan", "ios": "https://dc.lft.to/lastmile_qr_scan"}, "type": "electric_bike", "lat": 38.877293, "is_reserved": 0, "fusion_lat": 0.0}, {"bike_id": "2cdb37f9b9a0aa288d927b342ab17457", "fusion_lon": 0.0, "lon": -77.0179515, "name": "2cdb37f9b9a0aa288d927b342ab17457", "is_disabled": 0, "rental_uris": {"android": "https://dc.lft.to/lastmile_qr_scan", "ios": "https://dc.lft.to/lastmile_qr_scan"}, "type": "electric_scooter", "lat": 38.914614666666665, "is_reserved": 0, "fusion_lat": 0.0}, {"bike_id": "8294a24bb3a4dc164284f0100ea6ffd1", "fusion_lon": 0.0, "lon": -77.02741566666667, "name": "8294a24bb3a4dc164284f0100ea6ffd1", "is_disabled": 0, "rental_uris": {"android": "https://dc.lft.to/lastmile_qr_scan", "ios": "https://dc.lft.to/lastmile_qr_scan"}, "type": "electric_scooter", "lat": 38.93358283333333, "is_reserved": 0, "fusion_lat": 0.0}, {"bike_id": "1a33b1c7f8ff6cea23ca00b67e73d3a8", "fusion_lon": 0.0, "lon": -77.03474966666667, "name": "1a33b1c7f8ff6cea23ca00b67e73d3a8", "is_disabled": 0, "rental_uris": {"android": "https://dc.lft.to/lastmile_qr_scan", "ios": "https://dc.lft.to/lastmile_qr_scan"}, "type": "electric_scooter", "lat": 38.909709666666664, "is_reserved": 0, "fusion_lat": 0.0}, {"bike_id": "9bab5ec4c2c297140d12bb83cf582024", "fusion_lon": 0.0, "lon": -77.02418466666667, "name": "9bab5ec4c2c297140d12bb83cf582024", "is_disabled": 0, "rental_uris": {"android": "https://dc.lft.to/lastmile_qr_scan", "ios": "https://dc.lft.to/lastmile_qr_scan"}, "type": "electric_scooter", "lat": 38.9370385, "is_reserved": 0, "fusion_lat": 0.0}, {"bike_id": "29ac83dc5330c39e5c1fff20fcc9dd3f", "fusion_lon": 0.0, "lon": -77.03541933333334, "name": "29ac83dc5330c39e5c1fff20fcc9dd3f", "is_disabled": 0, "rental_uris": {"android": "https://dc.lft.to/lastmile_qr_scan", "ios": "https://dc.lft.to/lastmile_qr_scan"}, "type": "electric_scooter", "lat": 38.9263435, "is_reserved": 0, "fusion_lat": 0.0}, {"bike_id": "9be5c76998ed177df4bf687178e3808b", "fusion_lon": 0.0, "lon": -77.04660516666667, "name": "9be5c76998ed177df4bf687178e3808b", "is_disabled": 0, "rental_uris": {"android": "https://dc.lft.to/lastmile_qr_scan", "ios": "https://dc.lft.to/lastmile_qr_scan"}, "type": "electric_scooter", "lat": 38.892422, "is_reserved": 0, "fusion_lat": 0.0}, {"bike_id": "d01990ec921e20f56fb038730da0a6f3", "fusion_lon": 0.0, "lon": -77.02289466666667, "name": "d01990ec921e20f56fb038730da0a6f3", "is_disabled": 0, "rental_uris": {"android": "https://dc.lft.to/lastmile_qr_scan", "ios": "https://dc.lft.to/lastmile_qr_scan"}, "type": "electric_scooter", "lat": 38.916766833333334, "is_reserved": 0, "fusion_lat": 0.0}, {"bike_id": "d60bb4f74f6a2f3e8065c6908b70155a", "fusion_lon": 0.0, "lon": -77.04599133333333, "name": "d60bb4f74f6a2f3e8065c6908b70155a", "is_disabled": 0, "rental_uris": {"android": "https://dc.lft.to/lastmile_qr_scan", "ios": "https://dc.lft.to/lastmile_qr_scan"}, "type": "electric_scooter", "lat": 38.919192, "is_reserved": 0, "fusion_lat": 0.0}, {"bike_id": "d0329d28cd8e2f3a74fe4e9f69ed6271", "fusion_lon": 0.0, "lon": -77.05858366666666, "name": "d0329d28cd8e2f3a74fe4e9f69ed6271", "is_disabled": 0, "rental_uris": {"android": "https://dc.lft.to/lastmile_qr_scan", "ios": "https://dc.lft.to/lastmile_qr_scan"}, "type": "electric_scooter", "lat": 38.93602933333333, "is_reserved": 0, "fusion_lat": 0.0}, {"bike_id": "4e7a82ad06de0928fa868faa550f93d0", "fusion_lon": 0.0, "lon": -77.02714733333333, "name": "4e7a82ad06de0928fa868faa550f93d0", "is_disabled": 0, "rental_uris": {"android": "https://dc.lft.to/lastmile_qr_scan", "ios": "https://dc.lft.to/lastmile_qr_scan"}, "type": "electric_scooter", "lat": 38.91558966666667, "is_reserved": 0, "fusion_lat": 0.0}, {"bike_id": "836c513439f6b27e8aa6a5da6a663e73", "fusion_lon": 0.0, "lon": -77.03160266666667, "name": "836c513439f6b27e8aa6a5da6a663e73", "is_disabled": 0, "rental_uris": {"android": "https://dc.lft.to/lastmile_qr_scan", "ios": "https://dc.lft.to/lastmile_qr_scan"}, "type": "electric_scooter", "lat": 38.89224633333333, "is_reserved": 0, "fusion_lat": 0.0}, {"bike_id": "d2a1946a2f8bf3aeaf595088535fdb19", "fusion_lon": 0.0, "lon": -77.027212, "name": "d2a1946a2f8bf3aeaf595088535fdb19", "is_disabled": 0, "rental_uris": {"android": "https://dc.lft.to/lastmile_qr_scan", "ios": "https://dc.lft.to/lastmile_qr_scan"}, "type": "electric_scooter", "lat": 38.94959883333333, "is_reserved": 0, "fusion_lat": 0.0}, {"bike_id": "dcad2e8b585732ff58902645af0b8773", "fusion_lon": 0.0, "lon": -77.03131166666667, "name": "dcad2e8b585732ff58902645af0b8773", "is_disabled": 0, "rental_uris": {"android": "https://dc.lft.to/lastmile_qr_scan", "ios": "https://dc.lft.to/lastmile_qr_scan"}, "type": "electric_scooter", "lat": 38.91490116666667, "is_reserved": 0, "fusion_lat": 0.0}, {"bike_id": "81c8149433070dfc4382fab8b2b8a15c", "fusion_lon": 0.0, "lon": -76.93584583333333, "name": "81c8149433070dfc4382fab8b2b8a15c", "is_disabled": 0, "rental_uris": {"android": "https://dc.lft.to/lastmile_qr_scan", "ios": "https://dc.lft.to/lastmile_qr_scan"}, "type": "electric_scooter", "lat": 38.8854915, "is_reserved": 0, "fusion_lat": 0.0}, {"bike_id": "c82b386c4b9a6bc3a96d5d3c5982d254", "fusion_lon": 0.0, "lon": -77.04074366666667, "name": "c82b386c4b9a6bc3a96d5d3c5982d254", "is_disabled": 0, "rental_uris": {"android": "https://dc.lft.to/lastmile_qr_scan", "ios": "https://dc.lft.to/lastmile_qr_scan"}, "type": "electric_scooter", "lat": 38.92387216666667, "is_reserved": 0, "fusion_lat": 0.0}, {"bike_id": "7b8e782f443a19f90cd0bd68b5c6a4bf", "fusion_lon": 0.0, "lon": -77.04447916666666, "name": "7b8e782f443a19f90cd0bd68b5c6a4bf", "is_disabled": 0, "rental_uris": {"android": "https://dc.lft.to/lastmile_qr_scan", "ios": "https://dc.lft.to/lastmile_qr_scan"}, "type": "electric_scooter", "lat": 38.91526566666667, "is_reserved": 0, "fusion_lat": 0.0}, {"bike_id": "a134a6072f3b83d90a5b0d2f5ea711bc", "fusion_lon": 0.0, "lon": -77.05236583333334, "name": "a134a6072f3b83d90a5b0d2f5ea711bc", "is_disabled": 0, "rental_uris": {"android": "https://dc.lft.to/lastmile_qr_scan", "ios": "https://dc.lft.to/lastmile_qr_scan"}, "type": "electric_scooter", "lat": 38.924594, "is_reserved": 0, "fusion_lat": 0.0}, {"bike_id": "4e3f3fc1fc4c7682b3884b89a2b519f4", "fusion_lon": 0.0, "lon": -77.03356233333334, "name": "4e3f3fc1fc4c7682b3884b89a2b519f4", "is_disabled": 0, "rental_uris": {"android": "https://dc.lft.to/lastmile_qr_scan", "ios": "https://dc.lft.to/lastmile_qr_scan"}, "type": "electric_scooter", "lat": 38.915592833333335, "is_reserved": 0, "fusion_lat": 0.0}, {"bike_id": "cc8b377ecb67514991f43a4f5afbd4f5", "fusion_lon": 0.0, "lon": -76.95755333333334, "name": "cc8b377ecb67514991f43a4f5afbd4f5", "is_disabled": 0, "rental_uris": {"android": "https://dc.lft.to/lastmile_qr_scan", "ios": "https://dc.lft.to/lastmile_qr_scan"}, "type": "electric_scooter", "lat": 38.88428433333333, "is_reserved": 0, "fusion_lat": 0.0}, {"bike_id": "859988ca440648efd594e8fb4ec1538b", "fusion_lon": 0.0, "lon": -77.04493866666667, "name": "859988ca440648efd594e8fb4ec1538b", "is_disabled": 0, "rental_uris": {"android": "https://dc.lft.to/lastmile_qr_scan", "ios": "https://dc.lft.to/lastmile_qr_scan"}, "type": "electric_scooter", "lat": 38.919301833333336, "is_reserved": 0, "fusion_lat": 0.0}, {"bike_id": "47f0ea26fbf44d92cf70ec2acc43049a", "fusion_lon": 0.0, "lon": -77.049241, "name": "47f0ea26fbf44d92cf70ec2acc43049a", "is_disabled": 0, "rental_uris": {"android": "https://dc.lft.to/lastmile_qr_scan", "ios": "https://dc.lft.to/lastmile_qr_scan"}, "type": "electric_scooter", "lat": 38.90081966666666, "is_reserved": 0, "fusion_lat": 0.0}, {"bike_id": "89e7d14b2c57ef8696c013e3c91a6195", "fusion_lon": 0.0, "lon": -77.07278666666667, "name": "89e7d14b2c57ef8696c013e3c91a6195", "is_disabled": 0, "rental_uris": {"android": "https://dc.lft.to/lastmile_qr_scan", "ios": "https://dc.lft.to/lastmile_qr_scan"}, "type": "electric_scooter", "lat": 38.934908666666665, "is_reserved": 0, "fusion_lat": 0.0}, {"bike_id": "dad9695f18114df076054a75b7cf2b21", "fusion_lon": 0.0, "lon": -77.02159683333333, "name": "dad9695f18114df076054a75b7cf2b21", "is_disabled": 0, "rental_uris": {"android": "https://dc.lft.to/lastmile_qr_scan", "ios": "https://dc.lft.to/lastmile_qr_scan"}, "type": "electric_scooter", "lat": 38.930788166666666, "is_reserved": 0, "fusion_lat": 0.0}, {"bike_id": "c38af8baa13dfcc14ca5fa0950857c08", "fusion_lon": 0.0, "lon": -77.02422733333333, "name": "c38af8baa13dfcc14ca5fa0950857c08", "is_disabled": 0, "rental_uris": {"android": "https://dc.lft.to/lastmile_qr_scan", "ios": "https://dc.lft.to/lastmile_qr_scan"}, "type": "electric_scooter", "lat": 38.9192775, "is_reserved": 0, "fusion_lat": 0.0}, {"bike_id": "d13627ae00f79c22dec8f04c57b3f4b3", "fusion_lon": 0.0, "lon": -77.0251735, "name": "d13627ae00f79c22dec8f04c57b3f4b3", "is_disabled": 0, "rental_uris": {"android": "https://dc.lft.to/lastmile_qr_scan", "ios": "https://dc.lft.to/lastmile_qr_scan"}, "type": "electric_scooter", "lat": 38.9462235, "is_reserved": 0, "fusion_lat": 0.0}, {"bike_id": "2af1d32dfbb0bd06c3cf7059a75722cc", "fusion_lon": 0.0, "lon": -77.05397766666667, "name": "2af1d32dfbb0bd06c3cf7059a75722cc", "is_disabled": 0, "rental_uris": {"android": "https://dc.lft.to/lastmile_qr_scan", "ios": "https://dc.lft.to/lastmile_qr_scan"}, "type": "electric_scooter", "lat": 38.9281185, "is_reserved": 0, "fusion_lat": 0.0}, {"bike_id": "8a420137d9eb33a60f89a7891471cc46", "fusion_lon": 0.0, "lon": -77.03519183333333, "name": "8a420137d9eb33a60f89a7891471cc46", "is_disabled": 0, "rental_uris": {"android": "https://dc.lft.to/lastmile_qr_scan", "ios": "https://dc.lft.to/lastmile_qr_scan"}, "type": "electric_scooter", "lat": 38.923148166666664, "is_reserved": 0, "fusion_lat": 0.0}, {"bike_id": "e179f4205b8a685cc779716013b8a42c", "fusion_lon": 0.0, "lon": -77.046269, "name": "e179f4205b8a685cc779716013b8a42c", "is_disabled": 0, "rental_uris": {"android": "https://dc.lft.to/lastmile_qr_scan", "ios": "https://dc.lft.to/lastmile_qr_scan"}, "type": "electric_scooter", "lat": 38.9097275, "is_reserved": 0, "fusion_lat": 0.0}, {"bike_id": "a4dfb738c2348d3ee49af30d1a6fb177", "fusion_lon": 0.0, "lon": -77.052203, "name": "a4dfb738c2348d3ee49af30d1a6fb177", "is_disabled": 0, "rental_uris": {"android": "https://dc.lft.to/lastmile_qr_scan", "ios": "https://dc.lft.to/lastmile_qr_scan"}, "type": "electric_scooter", "lat": 38.92432933333333, "is_reserved": 0, "fusion_lat": 0.0}, {"bike_id": "d83deb2cf9631a9b7db4bc4ba090ef92", "fusion_lon": 0.0, "lon": -77.019533, "name": "d83deb2cf9631a9b7db4bc4ba090ef92", "is_disabled": 0, "rental_uris": {"android": "https://dc.lft.to/lastmile_qr_scan", "ios": "https://dc.lft.to/lastmile_qr_scan"}, "type": "electric_scooter", "lat": 38.92420383333334, "is_reserved": 0, "fusion_lat": 0.0}, {"bike_id": "5abca26457dccc0f4117689f35dfb17b", "fusion_lon": 0.0, "lon": -76.98710383333334, "name": "5abca26457dccc0f4117689f35dfb17b", "is_disabled": 0, "rental_uris": {"android": "https://dc.lft.to/lastmile_qr_scan", "ios": "https://dc.lft.to/lastmile_qr_scan"}, "type": "electric_scooter", "lat": 38.866985, "is_reserved": 0, "fusion_lat": 0.0}, {"bike_id": "f753acaeb86056bd2acecbc2cb93df3c", "fusion_lon": 0.0, "lon": -76.98581733333333, "name": "f753acaeb86056bd2acecbc2cb93df3c", "is_disabled": 0, "rental_uris": {"android": "https://dc.lft.to/lastmile_qr_scan", "ios": "https://dc.lft.to/lastmile_qr_scan"}, "type": "electric_scooter", "lat": 38.85446016666667, "is_reserved": 0, "fusion_lat": 0.0}, {"bike_id": "cfa566d6835eaaad2be594520491c9a2", "fusion_lon": 0.0, "lon": -77.00572516666666, "name": "cfa566d6835eaaad2be594520491c9a2", "is_disabled": 0, "rental_uris": {"android": "https://dc.lft.to/lastmile_qr_scan", "ios": "https://dc.lft.to/lastmile_qr_scan"}, "type": "electric_scooter", "lat": 38.9064345, "is_reserved": 0, "fusion_lat": 0.0}, {"bike_id": "0b83b362d0c8fe9f1c6af7b45b09023a", "fusion_lon": 0.0, "lon": -76.93135116666667, "name": "0b83b362d0c8fe9f1c6af7b45b09023a", "is_disabled": 0, "rental_uris": {"android": "https://dc.lft.to/lastmile_qr_scan", "ios": "https://dc.lft.to/lastmile_qr_scan"}, "type": "electric_scooter", "lat": 38.8933595, "is_reserved": 0, "fusion_lat": 0.0}, {"bike_id": "1597981048aca1004203252f88915ec2", "fusion_lon": 0.0, "lon": -77.0277055, "name": "1597981048aca1004203252f88915ec2", "is_disabled": 0, "rental_uris": {"android": "https://dc.lft.to/lastmile_qr_scan", "ios": "https://dc.lft.to/lastmile_qr_scan"}, "type": "electric_scooter", "lat": 38.954213833333334, "is_reserved": 0, "fusion_lat": 0.0}, {"bike_id": "eb354e2c640dc1a3ac71614a6c5122bb", "fusion_lon": 0.0, "lon": -77.01534866666667, "name": "eb354e2c640dc1a3ac71614a6c5122bb", "is_disabled": 0, "rental_uris": {"android": "https://dc.lft.to/lastmile_qr_scan", "ios": "https://dc.lft.to/lastmile_qr_scan"}, "type": "electric_scooter", "lat": 38.887427833333334, "is_reserved": 0, "fusion_lat": 0.0}, {"bike_id": "2768eae8941087aa3d9fa1e700bf41c4", "fusion_lon": 0.0, "lon": -77.05755066666667, "name": "2768eae8941087aa3d9fa1e700bf41c4", "is_disabled": 0, "rental_uris": {"android": "https://dc.lft.to/lastmile_qr_scan", "ios": "https://dc.lft.to/lastmile_qr_scan"}, "type": "electric_scooter", "lat": 38.923812833333336, "is_reserved": 0, "fusion_lat": 0.0}, {"bike_id": "d9e4483bb8a4ca6033fb858da7f64eed", "fusion_lon": 0.0, "lon": -77.04782183333333, "name": "d9e4483bb8a4ca6033fb858da7f64eed", "is_disabled": 0, "rental_uris": {"android": "https://dc.lft.to/lastmile_qr_scan", "ios": "https://dc.lft.to/lastmile_qr_scan"}, "type": "electric_scooter", "lat": 38.89369116666667, "is_reserved": 0, "fusion_lat": 0.0}, {"bike_id": "c7b89d94142de7426be4722d1520f59c", "fusion_lon": 0.0, "lon": -77.04388383333334, "name": "c7b89d94142de7426be4722d1520f59c", "is_disabled": 0, "rental_uris": {"android": "https://dc.lft.to/lastmile_qr_scan", "ios": "https://dc.lft.to/lastmile_qr_scan"}, "type": "electric_scooter", "lat": 38.91413883333333, "is_reserved": 0, "fusion_lat": 0.0}, {"bike_id": "4f9b9db6bbf1ff58af627e17e360fcbb", "fusion_lon": 0.0, "lon": -77.02171766666666, "name": "4f9b9db6bbf1ff58af627e17e360fcbb", "is_disabled": 0, "rental_uris": {"android": "https://dc.lft.to/lastmile_qr_scan", "ios": "https://dc.lft.to/lastmile_qr_scan"}, "type": "electric_scooter", "lat": 38.94291066666667, "is_reserved": 0, "fusion_lat": 0.0}, {"bike_id": "a00b0c781ea1f8bdcafd9035b930ed22", "fusion_lon": 0.0, "lon": -77.0404395, "name": "a00b0c781ea1f8bdcafd9035b930ed22", "is_disabled": 0, "rental_uris": {"android": "https://dc.lft.to/lastmile_qr_scan", "ios": "https://dc.lft.to/lastmile_qr_scan"}, "type": "electric_scooter", "lat": 38.91865466666667, "is_reserved": 0, "fusion_lat": 0.0}, {"bike_id": "19647abda714e108c594f771c08ebb8b", "fusion_lon": 0.0, "lon": -77.02628883333334, "name": "19647abda714e108c594f771c08ebb8b", "is_disabled": 0, "rental_uris": {"android": "https://dc.lft.to/lastmile_qr_scan", "ios": "https://dc.lft.to/lastmile_qr_scan"}, "type": "electric_bike", "lat": 38.962204666666665, "is_reserved": 0, "fusion_lat": 0.0}, {"bike_id": "ab30af364111906a2039807ed5b278d3", "fusion_lon": 0.0, "lon": -77.03370816666667, "name": "ab30af364111906a2039807ed5b278d3", "is_disabled": 0, "rental_uris": {"android": "https://dc.lft.to/lastmile_qr_scan", "ios": "https://dc.lft.to/lastmile_qr_scan"}, "type": "electric_scooter", "lat": 38.9285715, "is_reserved": 0, "fusion_lat": 0.0}, {"bike_id": "efd0974a2f4ccbdbab2a6293f7002e5c", "fusion_lon": 0.0, "lon": -77.00575483333333, "name": "efd0974a2f4ccbdbab2a6293f7002e5c", "is_disabled": 0, "rental_uris": {"android": "https://dc.lft.to/lastmile_qr_scan", "ios": "https://dc.lft.to/lastmile_qr_scan"}, "type": "electric_scooter", "lat": 38.90880383333333, "is_reserved": 0, "fusion_lat": 0.0}, {"bike_id": "d5b000da4f3c587810c4d52cfbde1ed0", "fusion_lon": 0.0, "lon": -77.0429, "name": "d5b000da4f3c587810c4d52cfbde1ed0", "is_disabled": 0, "rental_uris": {"android": "https://dc.lft.to/lastmile_qr_scan", "ios": "https://dc.lft.to/lastmile_qr_scan"}, "type": "electric_scooter", "lat": 38.92065933333333, "is_reserved": 0, "fusion_lat": 0.0}, {"bike_id": "0166451af1bea51c16562730e8b20bc3", "fusion_lon": 0.0, "lon": -76.965275, "name": "0166451af1bea51c16562730e8b20bc3", "is_disabled": 0, "rental_uris": {"android": "https://dc.lft.to/lastmile_qr_scan", "ios": "https://dc.lft.to/lastmile_qr_scan"}, "type": "electric_scooter", "lat": 38.87626516666667, "is_reserved": 0, "fusion_lat": 0.0}, {"bike_id": "2610eb996f7ba020092ce7e2b2748daa", "fusion_lon": 0.0, "lon": -77.02005016666666, "name": "2610eb996f7ba020092ce7e2b2748daa", "is_disabled": 0, "rental_uris": {"android": "https://dc.lft.to/lastmile_qr_scan", "ios": "https://dc.lft.to/lastmile_qr_scan"}, "type": "electric_scooter", "lat": 38.924169166666665, "is_reserved": 0, "fusion_lat": 0.0}, {"bike_id": "031aa4e26ac552cdd2d82338db0ef9cb", "fusion_lon": 0.0, "lon": -77.02993733333334, "name": "031aa4e26ac552cdd2d82338db0ef9cb", "is_disabled": 0, "rental_uris": {"android": "https://dc.lft.to/lastmile_qr_scan", "ios": "https://dc.lft.to/lastmile_qr_scan"}, "type": "electric_scooter", "lat": 38.93865533333334, "is_reserved": 0, "fusion_lat": 0.0}, {"bike_id": "562c5f60ed87ed65b4a9b24aa279d039", "fusion_lon": 0.0, "lon": -77.02092316666666, "name": "562c5f60ed87ed65b4a9b24aa279d039", "is_disabled": 0, "rental_uris": {"android": "https://dc.lft.to/lastmile_qr_scan", "ios": "https://dc.lft.to/lastmile_qr_scan"}, "type": "electric_scooter", "lat": 38.9269945, "is_reserved": 0, "fusion_lat": 0.0}, {"bike_id": "f4acd2cfeea853e9f4a6ff1cae7e806f", "fusion_lon": 0.0, "lon": -77.02796033333334, "name": "f4acd2cfeea853e9f4a6ff1cae7e806f", "is_disabled": 0, "rental_uris": {"android": "https://dc.lft.to/lastmile_qr_scan", "ios": "https://dc.lft.to/lastmile_qr_scan"}, "type": "electric_scooter", "lat": 38.96341783333333, "is_reserved": 0, "fusion_lat": 0.0}, {"bike_id": "18e1366f6b884d5a601fd356bef02c4e", "fusion_lon": 0.0, "lon": -76.99726033333333, "name": "18e1366f6b884d5a601fd356bef02c4e", "is_disabled": 0, "rental_uris": {"android": "https://dc.lft.to/lastmile_qr_scan", "ios": "https://dc.lft.to/lastmile_qr_scan"}, "type": "electric_scooter", "lat": 38.907940833333335, "is_reserved": 0, "fusion_lat": 0.0}, {"bike_id": "a559dfe419d4beb634e23e88a3b54e7e", "fusion_lon": 0.0, "lon": -77.02319633333333, "name": "a559dfe419d4beb634e23e88a3b54e7e", "is_disabled": 0, "rental_uris": {"android": "https://dc.lft.to/lastmile_qr_scan", "ios": "https://dc.lft.to/lastmile_qr_scan"}, "type": "electric_scooter", "lat": 38.895970166666665, "is_reserved": 0, "fusion_lat": 0.0}, {"bike_id": "310ef36562b38ad142bff962a62a3dcd", "fusion_lon": 0.0, "lon": -76.94638666666667, "name": "310ef36562b38ad142bff962a62a3dcd", "is_disabled": 0, "rental_uris": {"android": "https://dc.lft.to/lastmile_qr_scan", "ios": "https://dc.lft.to/lastmile_qr_scan"}, "type": "electric_scooter", "lat": 38.89844866666667, "is_reserved": 0, "fusion_lat": 0.0}, {"bike_id": "f18522f2ff41674311a8bcedce4a27c7", "fusion_lon": 0.0, "lon": -77.04558366666667, "name": "f18522f2ff41674311a8bcedce4a27c7", "is_disabled": 0, "rental_uris": {"android": "https://dc.lft.to/lastmile_qr_scan", "ios": "https://dc.lft.to/lastmile_qr_scan"}, "type": "electric_scooter", "lat": 38.919313, "is_reserved": 0, "fusion_lat": 0.0}, {"bike_id": "f6a414b53111cc662d54611d2050bca5", "fusion_lon": 0.0, "lon": -76.94653683333334, "name": "f6a414b53111cc662d54611d2050bca5", "is_disabled": 0, "rental_uris": {"android": "https://dc.lft.to/lastmile_qr_scan", "ios": "https://dc.lft.to/lastmile_qr_scan"}, "type": "electric_scooter", "lat": 38.898206333333334, "is_reserved": 0, "fusion_lat": 0.0}, {"bike_id": "4eda4995969028eb102e1bb42a4c0819", "fusion_lon": 0.0, "lon": -77.0153645, "name": "4eda4995969028eb102e1bb42a4c0819", "is_disabled": 0, "rental_uris": {"android": "https://dc.lft.to/lastmile_qr_scan", "ios": "https://dc.lft.to/lastmile_qr_scan"}, "type": "electric_scooter", "lat": 38.887373333333336, "is_reserved": 0, "fusion_lat": 0.0}, {"bike_id": "73cf65a1ea455a86bb67131925952f22", "fusion_lon": 0.0, "lon": -77.0262515, "name": "73cf65a1ea455a86bb67131925952f22", "is_disabled": 0, "rental_uris": {"android": "https://dc.lft.to/lastmile_qr_scan", "ios": "https://dc.lft.to/lastmile_qr_scan"}, "type": "electric_scooter", "lat": 38.901763333333335, "is_reserved": 0, "fusion_lat": 0.0}, {"bike_id": "e02e33c23fef9bcdea6a91227252e44d", "fusion_lon": 0.0, "lon": -76.98492516666667, "name": "e02e33c23fef9bcdea6a91227252e44d", "is_disabled": 0, "rental_uris": {"android": "https://dc.lft.to/lastmile_qr_scan", "ios": "https://dc.lft.to/lastmile_qr_scan"}, "type": "electric_scooter", "lat": 38.866774, "is_reserved": 0, "fusion_lat": 0.0}, {"bike_id": "3b08c8c96af9d5803188d32dbf9f00dc", "fusion_lon": 0.0, "lon": -77.04685016666667, "name": "3b08c8c96af9d5803188d32dbf9f00dc", "is_disabled": 0, "rental_uris": {"android": "https://dc.lft.to/lastmile_qr_scan", "ios": "https://dc.lft.to/lastmile_qr_scan"}, "type": "electric_scooter", "lat": 38.892222333333336, "is_reserved": 0, "fusion_lat": 0.0}, {"bike_id": "93881b490137f3e60dd442ace466930a", "fusion_lon": 0.0, "lon": -77.12529133333334, "name": "93881b490137f3e60dd442ace466930a", "is_disabled": 0, "rental_uris": {"android": "https://dc.lft.to/lastmile_qr_scan", "ios": "https://dc.lft.to/lastmile_qr_scan"}, "type": "electric_bike", "lat": 39.0563565, "is_reserved": 0, "fusion_lat": 0.0}, {"bike_id": "d5ea6217f1d856bf69a272d98cb326d8", "fusion_lon": 0.0, "lon": -77.031996, "name": "d5ea6217f1d856bf69a272d98cb326d8", "is_disabled": 0, "rental_uris": {"android": "https://dc.lft.to/lastmile_qr_scan", "ios": "https://dc.lft.to/lastmile_qr_scan"}, "type": "electric_scooter", "lat": 38.91703716666667, "is_reserved": 0, "fusion_lat": 0.0}, {"bike_id": "195969c68256c807d8c459c595885e58", "fusion_lon": 0.0, "lon": -77.03842983333334, "name": "195969c68256c807d8c459c595885e58", "is_disabled": 0, "rental_uris": {"android": "https://dc.lft.to/lastmile_qr_scan", "ios": "https://dc.lft.to/lastmile_qr_scan"}, "type": "electric_scooter", "lat": 38.9216505, "is_reserved": 0, "fusion_lat": 0.0}, {"bike_id": "e05d3be4068fb625af4ac1910b848dbe", "fusion_lon": 0.0, "lon": -77.0438015, "name": "e05d3be4068fb625af4ac1910b848dbe", "is_disabled": 0, "rental_uris": {"android": "https://dc.lft.to/lastmile_qr_scan", "ios": "https://dc.lft.to/lastmile_qr_scan"}, "type": "electric_scooter", "lat": 38.902788, "is_reserved": 0, "fusion_lat": 0.0}, {"bike_id": "e75bff17612b44057a508ca7f825a009", "fusion_lon": 0.0, "lon": -76.99504883333333, "name": "e75bff17612b44057a508ca7f825a009", "is_disabled": 0, "rental_uris": {"android": "https://dc.lft.to/lastmile_qr_scan", "ios": "https://dc.lft.to/lastmile_qr_scan"}, "type": "electric_scooter", "lat": 38.89901483333333, "is_reserved": 0, "fusion_lat": 0.0}, {"bike_id": "2cdeec889b49b3322e9d61919b458054", "fusion_lon": 0.0, "lon": -77.02684233333333, "name": "2cdeec889b49b3322e9d61919b458054", "is_disabled": 0, "rental_uris": {"android": "https://dc.lft.to/lastmile_qr_scan", "ios": "https://dc.lft.to/lastmile_qr_scan"}, "type": "electric_scooter", "lat": 38.881366, "is_reserved": 0, "fusion_lat": 0.0},