{"data": {"bikes": [{"bike_id": "3e83dae1558339b01c3fb00950ade8bb", "type": "electric_scooter", "is_disabled": 0, "lat": 38.88179616666667, "rental_uris": {"ios": "https://dc.lft.to/lastmile_qr_scan", "android": "https://dc.lft.to/lastmile_qr_scan"}, "is_reserved": 0, "fusion_lon": 0.0, "fusion_lat": 0.0, "lon": -77.03737733333334, "name": "3e83dae1558339b01c3fb00950ade8bb"}, {"bike_id": "0b3bb9f57cdae65875e6dd571eda1a4a", "type": "electric_scooter", "is_disabled": 0, "lat": 38.904904, "rental_uris": {"ios": "https://dc.lft.to/lastmile_qr_scan", "android": "https://dc.lft.to/lastmile_qr_scan"}, "is_reserved": 0, "fusion_lon": 0.0, "fusion_lat": 0.0, "lon": -77.05815316666667, "name": "0b3bb9f57cdae65875e6dd571eda1a4a"}, {"bike_id": "b1d50e2fecd753f07afef944f6d5ff90", "type": "electric_scooter", "is_disabled": 0, "lat": 38.893845666666664, "rental_uris": {"ios": "https://dc.lft.to/lastmile_qr_scan", "android": "https://dc.lft.to/lastmile_qr_scan"}, "is_reserved": 0, "fusion_lon": 0.0, "fusion_lat": 0.0, "lon": -77.02799683333333, "name": "b1d50e2fecd753f07afef944f6d5ff90"}, {"bike_id": "c95087f35ff2d3389fd1a46d3eed7bed", "type": "electric_scooter", "is_disabled": 0, "lat": 38.9324845, "rental_uris": {"ios": "https://dc.lft.to/lastmile_qr_scan", "android": "https://dc.lft.to/lastmile_qr_scan"}, "is_reserved": 0, "fusion_lon": 0.0, "fusion_lat": 0.0, "lon": -77.03853633333334, "name": "c95087f35ff2d3389fd1a46d3eed7bed"}, {"bike_id": "66707168cc2debcd54a022f796756760", "type": "electric_bike", "is_disabled": 0, "lat": 38.832335666666665, "rental_uris": {"ios": "https://dc.lft.to/lastmile_qr_scan", "android": "https://dc.lft.to/lastmile_qr_scan"}, "is_reserved": 0, "fusion_lon": 0.0, "fusion_lat": 0.0, "lon": -76.946269, "name": "66707168cc2debcd54a022f796756760"}, {"bike_id": "4bbb631320e2cd1becf67c25b4a3ef90", "type": "electric_scooter", "is_disabled": 0, "lat": 38.900764333333335, "rental_uris": {"ios": "https://dc.lft.to/lastmile_qr_scan", "android": "https://dc.lft.to/lastmile_qr_scan"}, "is_reserved": 0, "fusion_lon": 0.0, "fusion_lat": 0.0, "lon": -77.04653333333333, "name": "4bbb631320e2cd1becf67c25b4a3ef90"}, {"bike_id": "887472fb3189eccb0e9c073c14476a89", "type": "electric_bike", "is_disabled": 0, "lat": 39.0505225, "rental_uris": {"ios": "https://dc.lft.to/lastmile_qr_scan", "android": "https://dc.lft.to/lastmile_qr_scan"}, "is_reserved": 0, "fusion_lon": 0.0, "fusion_lat": 0.0, "lon": -77.051454, "name": "887472fb3189eccb0e9c073c14476a89"}, {"bike_id": "e8230bb4de3e3f3a5e44bbc1381cc511", "type": "electric_scooter", "is_disabled": 0, "lat": 38.8917785, "rental_uris": {"ios": "https://dc.lft.to/lastmile_qr_scan", "android": "https://dc.lft.to/lastmile_qr_scan"}, "is_reserved": 0, "fusion_lon": 0.0, "fusion_lat": 0.0, "lon": -77.02205683333334, "name": "e8230bb4de3e3f3a5e44bbc1381cc511"}, {"bike_id": "d959c3484e2bc1f32d37ea78d3636e88", "type": "electric_scooter", "is_disabled": 0, "lat": 38.8979915, "rental_uris": {"ios": "https://dc.lft.to/lastmile_qr_scan", "android": "https://dc.lft.to/lastmile_qr_scan"}, "is_reserved": 0, "fusion_lon": 0.0, "fusion_lat": 0.0, "lon": -77.01191816666666, "name": "d959c3484e2bc1f32d37ea78d3636e88"}, {"bike_id": "9b0b8c76d16cce9747eb4ef6fe7b57fe", "type": "electric_scooter", "is_disabled": 0, "lat": 38.92513433333333, "rental_uris": {"ios": "https://dc.lft.to/lastmile_qr_scan", "android": "https://dc.lft.to/lastmile_qr_scan"}, "is_reserved": 0, "fusion_lon": 0.0, "fusion_lat": 0.0, "lon": -77.02339633333334, "name": "9b0b8c76d16cce9747eb4ef6fe7b57fe"}, {"bike_id": "c1dc0afe875221edc48f7e6f5a3fdfa1", "type": "electric_scooter", "is_disabled": 0, "lat": 38.90427733333333, "rental_uris": {"ios": "https://dc.lft.to/lastmile_qr_scan", "android": "https://dc.lft.to/lastmile_qr_scan"}, "is_reserved": 0, "fusion_lon": 0.0, "fusion_lat": 0.0, "lon": -77.0277125, "name": "c1dc0afe875221edc48f7e6f5a3fdfa1"}, {"bike_id": "d295465f8d5fce1038af8339f244a99a", "type": "electric_scooter", "is_disabled": 0, "lat": 38.904104, "rental_uris": {"ios": "https://dc.lft.to/lastmile_qr_scan", "android": "https://dc.lft.to/lastmile_qr_scan"}, "is_reserved": 0, "fusion_lon": 0.0, "fusion_lat": 0.0, "lon": -76.97332733333333, "name": "d295465f8d5fce1038af8339f244a99a"}, {"bike_id": "8fd2f45cf193bef9aa89e6c12b8e038a", "type": "electric_scooter", "is_disabled": 0, "lat": 38.905027, "rental_uris": {"ios": "https://dc.lft.to/lastmile_qr_scan", "android": "https://dc.lft.to/lastmile_qr_scan"}, "is_reserved": 0, "fusion_lon": 0.0, "fusion_lat": 0.0, "lon": -77.0383845, "name": "8fd2f45cf193bef9aa89e6c12b8e038a"}, {"bike_id": "35e6ee352b9977b50082464f8f0af3de", "type": "electric_scooter", "is_disabled": 0, "lat": 38.87467983333333, "rental_uris": {"ios": "https://dc.lft.to/lastmile_qr_scan", "android": "https://dc.lft.to/lastmile_qr_scan"}, "is_reserved": 0, "fusion_lon": 0.0, "fusion_lat": 0.0, "lon": -77.00558433333333, "name": "35e6ee352b9977b50082464f8f0af3de"}, {"bike_id": "5ed8dbbb4fcb8b57532d7c237840e7e0", "type": "electric_scooter", "is_disabled": 0, "lat": 38.930135666666665, "rental_uris": {"ios": "https://dc.lft.to/lastmile_qr_scan", "android": "https://dc.lft.to/lastmile_qr_scan"}, "is_reserved": 0, "fusion_lon": 0.0, "fusion_lat": 0.0, "lon": -77.06090333333333, "name": "5ed8dbbb4fcb8b57532d7c237840e7e0"}, {"bike_id": "504a1a97fdd580904ecdfe5eb4970b0f", "type": "electric_scooter", "is_disabled": 0, "lat": 38.90688, "rental_uris": {"ios": "https://dc.lft.to/lastmile_qr_scan", "android": "https://dc.lft.to/lastmile_qr_scan"}, "is_reserved": 0, "fusion_lon": 0.0, "fusion_lat": 0.0, "lon": -77.065158, "name": "504a1a97fdd580904ecdfe5eb4970b0f"}, {"bike_id": "6bf25af5f62bd6d91f51f9315f5e02fc", "type": "electric_bike", "is_disabled": 0, "lat": 38.85761433333333, "rental_uris": {"ios": "https://dc.lft.to/lastmile_qr_scan", "android": "https://dc.lft.to/lastmile_qr_scan"}, "is_reserved": 0, "fusion_lon": 0.0, "fusion_lat": 0.0, "lon": -76.98755283333334, "name": "6bf25af5f62bd6d91f51f9315f5e02fc"}, {"bike_id": "6d1a37d48c4cdb18e2525291118b9198", "type": "electric_scooter", "is_disabled": 0, "lat": 38.929711, "rental_uris": {"ios": "https://dc.lft.to/lastmile_qr_scan", "android": "https://dc.lft.to/lastmile_qr_scan"}, "is_reserved": 0, "fusion_lon": 0.0, "fusion_lat": 0.0, "lon": -77.02949033333333, "name": "6d1a37d48c4cdb18e2525291118b9198"}, {"bike_id": "978c0c82e01d376d92e2192e0fc2cbfb", "type": "electric_scooter", "is_disabled": 0, "lat": 38.922747, "rental_uris": {"ios": "https://dc.lft.to/lastmile_qr_scan", "android": "https://dc.lft.to/lastmile_qr_scan"}, "is_reserved": 0, "fusion_lon": 0.0, "fusion_lat": 0.0, "lon": -77.02242866666667, "name": "978c0c82e01d376d92e2192e0fc2cbfb"}, {"bike_id": "18cc57377d2a7c099eba8e9aed78805e", "type": "electric_scooter", "is_disabled": 0, "lat": 38.902473, "rental_uris": {"ios": "https://dc.lft.to/lastmile_qr_scan", "android": "https://dc.lft.to/lastmile_qr_scan"}, "is_reserved": 0, "fusion_lon": 0.0, "fusion_lat": 0.0, "lon": -76.97420666666666, "name": "18cc57377d2a7c099eba8e9aed78805e"}, {"bike_id": "8113ff1d01d13f7256b9094367866272", "type": "electric_scooter", "is_disabled": 0, "lat": 38.9552785, "rental_uris": {"ios": "https://dc.lft.to/lastmile_qr_scan", "android": "https://dc.lft.to/lastmile_qr_scan"}, "is_reserved": 0, "fusion_lon": 0.0, "fusion_lat": 0.0, "lon": -77.02779283333334, "name": "8113ff1d01d13f7256b9094367866272"}, {"bike_id": "d415e46c75cc0525e8cca37e3647ba39", "type": "electric_scooter", "is_disabled": 0, "lat": 38.901005166666664, "rental_uris": {"ios": "https://dc.lft.to/lastmile_qr_scan", "android": "https://dc.lft.to/lastmile_qr_scan"}, "is_reserved": 0, "fusion_lon": 0.0, "fusion_lat": 0.0, "lon": -77.04744616666666, "name": "d415e46c75cc0525e8cca37e3647ba39"}, {"bike_id": "f82ff6145b3cc8c352e52565787ca879", "type": "electric_scooter", "is_disabled": 0, "lat": 38.92894733333333, "rental_uris": {"ios": "https://dc.lft.to/lastmile_qr_scan", "android": "https://dc.lft.to/lastmile_qr_scan"}, "is_reserved": 0, "fusion_lon": 0.0, "fusion_lat": 0.0, "lon": -77.01642083333333, "name": "f82ff6145b3cc8c352e52565787ca879"}, {"bike_id": "76041290d6c9eb210662da865978ad96", "type": "electric_bike", "is_disabled": 0, "lat": 38.964728666666666, "rental_uris": {"ios": "https://dc.lft.to/lastmile_qr_scan", "android": "https://dc.lft.to/lastmile_qr_scan"}, "is_reserved": 0, "fusion_lon": 0.0, "fusion_lat": 0.0, "lon": -77.03561816666667, "name": "76041290d6c9eb210662da865978ad96"}, {"bike_id": "1132f0a8935ffa52be8ef8f52700e584", "type": "electric_scooter", "is_disabled": 0, "lat": 38.91088366666666, "rental_uris": {"ios": "https://dc.lft.to/lastmile_qr_scan", "android": "https://dc.lft.to/lastmile_qr_scan"}, "is_reserved": 0, "fusion_lon": 0.0, "fusion_lat": 0.0, "lon": -77.03842033333333, "name": "1132f0a8935ffa52be8ef8f52700e584"}, {"bike_id": "7e946e0a9ef01b68757b446096ef543f", "type": "electric_scooter", "is_disabled": 0, "lat": 38.89976866666667, "rental_uris": {"ios": "https://dc.lft.to/lastmile_qr_scan", "android": "https://dc.lft.to/lastmile_qr_scan"}, "is_reserved": 0, "fusion_lon": 0.0, "fusion_lat": 0.0, "lon": -77.00651233333333, "name": "7e946e0a9ef01b68757b446096ef543f"}, {"bike_id": "9aecb57c6b11a6cbbf0981923ff84384", "type": "electric_scooter", "is_disabled": 0, "lat": 38.906633, "rental_uris": {"ios": "https://dc.lft.to/lastmile_qr_scan", "android": "https://dc.lft.to/lastmile_qr_scan"}, "is_reserved": 0, "fusion_lon": 0.0, "fusion_lat": 0.0, "lon": -77.02713566666667, "name": "9aecb57c6b11a6cbbf0981923ff84384"}, {"bike_id": "9664243d3342d2b395d12ce60103c4e3", "type": "electric_scooter", "is_disabled": 0, "lat": 38.908259666666666, "rental_uris": {"ios": "https://dc.lft.to/lastmile_qr_scan", "android": "https://dc.lft.to/lastmile_qr_scan"}, "is_reserved": 0, "fusion_lon": 0.0, "fusion_lat": 0.0, "lon": -76.9416165, "name": "9664243d3342d2b395d12ce60103c4e3"}, {"bike_id": "9049a387a7b8b1ac1fba69b4ef3d977c", "type": "electric_scooter", "is_disabled": 0, "lat": 38.916773666666664, "rental_uris": {"ios": "https://dc.lft.to/lastmile_qr_scan", "android": "https://dc.lft.to/lastmile_qr_scan"}, "is_reserved": 0, "fusion_lon": 0.0, "fusion_lat": 0.0, "lon": -77.03210133333333, "name": "9049a387a7b8b1ac1fba69b4ef3d977c"}, {"bike_id": "3a1d3492594dbb2a3116d1ca5a5bc4c3", "type": "electric_bike", "is_disabled": 0, "lat": 38.87272733333333, "rental_uris": {"ios": "https://dc.lft.to/lastmile_qr_scan", "android": "https://dc.lft.to/lastmile_qr_scan"}, "is_reserved": 0, "fusion_lon": 0.0, "fusion_lat": 0.0, "lon": -77.2332905, "name": "3a1d3492594dbb2a3116d1ca5a5bc4c3"}, {"bike_id": "a9c1d198704a9b641b0e90088ec47731", "type": "electric_scooter", "is_disabled": 0, "lat": 38.9271605, "rental_uris": {"ios": "https://dc.lft.to/lastmile_qr_scan", "android": "https://dc.lft.to/lastmile_qr_scan"}, "is_reserved": 0, "fusion_lon": 0.0, "fusion_lat": 0.0, "lon": -77.03989566666667, "name": "a9c1d198704a9b641b0e90088ec47731"}, {"bike_id": "602832943e3126a660e1fcaa3dfdbf1b", "type": "electric_scooter", "is_disabled": 0, "lat": 38.942894833333334, "rental_uris": {"ios": "https://dc.lft.to/lastmile_qr_scan", "android": "https://dc.lft.to/lastmile_qr_scan"}, "is_reserved": 0, "fusion_lon": 0.0, "fusion_lat": 0.0, "lon": -77.02167166666666, "name": "602832943e3126a660e1fcaa3dfdbf1b"}, {"bike_id": "27373fc4b1ad9e1b08bcb15eda7e7954", "type": "electric_scooter", "is_disabled": 0, "lat": 38.90978483333333, "rental_uris": {"ios": "https://dc.lft.to/lastmile_qr_scan", "android": "https://dc.lft.to/lastmile_qr_scan"}, "is_reserved": 0, "fusion_lon": 0.0, "fusion_lat": 0.0, "lon": -77.03809066666666, "name": "27373fc4b1ad9e1b08bcb15eda7e7954"}, {"bike_id": "d088338745bfe414dd7b6de2fe4a667b", "type": "electric_scooter", "is_disabled": 0, "lat": 38.9137845, "rental_uris": {"ios": "https://dc.lft.to/lastmile_qr_scan", "android": "https://dc.lft.to/lastmile_qr_scan"}, "is_reserved": 0, "fusion_lon": 0.0, "fusion_lat": 0.0, "lon": -77.04137933333334, "name": "d088338745bfe414dd7b6de2fe4a667b"}, {"bike_id": "d12d9712605cd58f02f5d42310be5073", "type": "electric_bike", "is_disabled": 0, "lat": 38.93565133333333, "rental_uris": {"ios": "https://dc.lft.to/lastmile_qr_scan", "android": "https://dc.lft.to/lastmile_qr_scan"}, "is_reserved": 0, "fusion_lon": 0.0, "fusion_lat": 0.0, "lon": -77.03268416666667, "name": "d12d9712605cd58f02f5d42310be5073"}, {"bike_id": "e41251200d2e9290ec315a5f615cf8b0", "type": "electric_scooter", "is_disabled": 0, "lat": 38.9049965, "rental_uris": {"ios": "https://dc.lft.to/lastmile_qr_scan", "android": "https://dc.lft.to/lastmile_qr_scan"}, "is_reserved": 0, "fusion_lon": 0.0, "fusion_lat": 0.0, "lon": -77.0602185, "name": "e41251200d2e9290ec315a5f615cf8b0"}, {"bike_id": "587bd9447885ee04dfe14c4158dc7032", "type": "electric_scooter", "is_disabled": 0, "lat": 38.90417383333333, "rental_uris": {"ios": "https://dc.lft.to/lastmile_qr_scan", "android": "https://dc.lft.to/lastmile_qr_scan"}, "is_reserved": 0, "fusion_lon": 0.0, "fusion_lat": 0.0, "lon": -77.0435615, "name": "587bd9447885ee04dfe14c4158dc7032"}, {"bike_id": "aeb1077b9f6bda217e0d6fe1dcc360d6", "type": "electric_scooter", "is_disabled": 0, "lat": 38.90004483333333, "rental_uris": {"ios": "https://dc.lft.to/lastmile_qr_scan", "android": "https://dc.lft.to/lastmile_qr_scan"}, "is_reserved": 0, "fusion_lon": 0.0, "fusion_lat": 0.0, "lon": -77.00131116666667, "name": "aeb1077b9f6bda217e0d6fe1dcc360d6"}, {"bike_id": "db12e46549eb033db85a32685c6ecd01", "type": "electric_scooter", "is_disabled": 0, "lat": 38.869504166666665, "rental_uris": {"ios": "https://dc.lft.to/lastmile_qr_scan", "android": "https://dc.lft.to/lastmile_qr_scan"}, "is_reserved": 0, "fusion_lon": 0.0, "fusion_lat": 0.0, "lon": -76.98168483333333, "name": "db12e46549eb033db85a32685c6ecd01"}, {"bike_id": "ee45cffe665ddcb98de1a069d7d5c6be", "type": "electric_scooter", "is_disabled": 0, "lat": 38.90565083333333, "rental_uris": {"ios": "https://dc.lft.to/lastmile_qr_scan", "android": "https://dc.lft.to/lastmile_qr_scan"}, "is_reserved": 0, "fusion_lon": 0.0, "fusion_lat": 0.0, "lon": -77.0409115, "name": "ee45cffe665ddcb98de1a069d7d5c6be"}, {"bike_id": "73b901ebed5e4f798cf5f49781c8b55f", "type": "electric_scooter", "is_disabled": 0, "lat": 38.91259683333333, "rental_uris": {"ios": "https://dc.lft.to/lastmile_qr_scan", "android": "https://dc.lft.to/lastmile_qr_scan"}, "is_reserved": 0, "fusion_lon": 0.0, "fusion_lat": 0.0, "lon": -77.03145316666667, "name": "73b901ebed5e4f798cf5f49781c8b55f"}, {"bike_id": "bc6912a84f995809ef0fef54ea2df01b", "type": "electric_bike", "is_disabled": 0, "lat": 38.8553265, "rental_uris": {"ios": "https://dc.lft.to/lastmile_qr_scan", "android": "https://dc.lft.to/lastmile_qr_scan"}, "is_reserved": 0, "fusion_lon": 0.0, "fusion_lat": 0.0, "lon": -77.1073645, "name": "bc6912a84f995809ef0fef54ea2df01b"}, {"bike_id": "0f14079a2a3f4dfc9aa89ec7ce08ee36", "type": "electric_scooter", "is_disabled": 0, "lat": 38.90592, "rental_uris": {"ios": "https://dc.lft.to/lastmile_qr_scan", "android": "https://dc.lft.to/lastmile_qr_scan"}, "is_reserved": 0, "fusion_lon": 0.0, "fusion_lat": 0.0, "lon": -77.06431233333333, "name": "0f14079a2a3f4dfc9aa89ec7ce08ee36"}, {"bike_id": "81fd569c30361b0a89bf315290c0bc98", "type": "electric_scooter", "is_disabled": 0, "lat": 38.94412233333333, "rental_uris": {"ios": "https://dc.lft.to/lastmile_qr_scan", "android": "https://dc.lft.to/lastmile_qr_scan"}, "is_reserved": 0, "fusion_lon": 0.0, "fusion_lat": 0.0, "lon": -77.06326283333334, "name": "81fd569c30361b0a89bf315290c0bc98"}, {"bike_id": "9cc6feafd87f98e8f5bd97f6b7103510", "type": "electric_scooter", "is_disabled": 0, "lat": 38.9306465, "rental_uris": {"ios": "https://dc.lft.to/lastmile_qr_scan", "android": "https://dc.lft.to/lastmile_qr_scan"}, "is_reserved": 0, "fusion_lon": 0.0, "fusion_lat": 0.0, "lon": -77.02185483333334, "name": "9cc6feafd87f98e8f5bd97f6b7103510"}, {"bike_id": "5f9b770f883bd67dcc5e655526298dbb", "type": "electric_scooter", "is_disabled": 0, "lat": 38.9003575, "rental_uris": {"ios": "https://dc.lft.to/lastmile_qr_scan", "android": "https://dc.lft.to/lastmile_qr_scan"}, "is_reserved": 0, "fusion_lon": 0.0, "fusion_lat": 0.0, "lon": -77.012867, "name": "5f9b770f883bd67dcc5e655526298dbb"}, {"bike_id": "df411e40935c3872769df336abd079ba", "type": "electric_scooter", "is_disabled": 0, "lat": 38.9387685, "rental_uris": {"ios": "https://dc.lft.to/lastmile_qr_scan", "android": "https://dc.lft.to/lastmile_qr_scan"}, "is_reserved": 0, "fusion_lon": 0.0, "fusion_lat": 0.0, "lon": -77.0248515, "name": "df411e40935c3872769df336abd079ba"}, {"bike_id": "e9d91594325af5d0b87e13b8c125de9d", "type": "electric_scooter", "is_disabled": 0, "lat": 38.892164666666666, "rental_uris": {"ios": "https://dc.lft.to/lastmile_qr_scan", "android": "https://dc.lft.to/lastmile_qr_scan"}, "is_reserved": 0, "fusion_lon": 0.0, "fusion_lat": 0.0, "lon": -77.0258375, "name": "e9d91594325af5d0b87e13b8c125de9d"}, {"bike_id": "8f7218502cbe2effe5f30d7cb745202e", "type": "electric_scooter", "is_disabled": 0, "lat": 38.932251666666666, "rental_uris": {"ios": "https://dc.lft.to/lastmile_qr_scan", "android": "https://dc.lft.to/lastmile_qr_scan"}, "is_reserved": 0, "fusion_lon": 0.0, "fusion_lat": 0.0, "lon": -77.04641816666667, "name": "8f7218502cbe2effe5f30d7cb745202e"}, {"bike_id": "a61f17e8bf17f6fedd47ead2fe1ba9a2", "type": "electric_scooter", "is_disabled": 0, "lat": 38.87674333333333, "rental_uris": {"ios": "https://dc.lft.to/lastmile_qr_scan", "android": "https://dc.lft.to/lastmile_qr_scan"}, "is_reserved": 0, "fusion_lon": 0.0, "fusion_lat": 0.0, "lon": -77.00566133333334, "name": "a61f17e8bf17f6fedd47ead2fe1ba9a2"}, {"bike_id": "c5bea7c926a589ece13f91b9906e40ae", "type": "electric_scooter", "is_disabled": 0, "lat": 38.90372983333334, "rental_uris": {"ios": "https://dc.lft.to/lastmile_qr_scan", "android": "https://dc.lft.to/lastmile_qr_scan"}, "is_reserved": 0, "fusion_lon": 0.0, "fusion_lat": 0.0, "lon": -76.93756616666667, "name": "c5bea7c926a589ece13f91b9906e40ae"}, {"bike_id": "3f44850c67622058e6886ee7556e589b", "type": "electric_scooter", "is_disabled": 0, "lat": 38.9026825, "rental_uris": {"ios": "https://dc.lft.to/lastmile_qr_scan", "android": "https://dc.lft.to/lastmile_qr_scan"}, "is_reserved": 0, "fusion_lon": 0.0, "fusion_lat": 0.0, "lon": -77.03853833333334, "name": "3f44850c67622058e6886ee7556e589b"}, {"bike_id": "5d5265b750b0d4f8f037661b089a8f28", "type": "electric_scooter", "is_disabled": 0, "lat": 38.919752833333334, "rental_uris": {"ios": "https://dc.lft.to/lastmile_qr_scan", "android": "https://dc.lft.to/lastmile_qr_scan"}, "is_reserved": 0, "fusion_lon": 0.0, "fusion_lat": 0.0, "lon": -77.02167633333333, "name": "5d5265b750b0d4f8f037661b089a8f28"}, {"bike_id": "da2607bb995a65fb896dbba4715ad6b5", "type": "electric_scooter", "is_disabled": 0, "lat": 38.9015355, "rental_uris": {"ios": "https://dc.lft.to/lastmile_qr_scan", "android": "https://dc.lft.to/lastmile_qr_scan"}, "is_reserved": 0, "fusion_lon": 0.0, "fusion_lat": 0.0, "lon": -76.93059, "name": "da2607bb995a65fb896dbba4715ad6b5"}, {"bike_id": "a1d05cd29b70fc344fe1de09a6388e71", "type": "electric_bike", "is_disabled": 0, "lat": 39.062929833333335, "rental_uris": {"ios": "https://dc.lft.to/lastmile_qr_scan", "android": "https://dc.lft.to/lastmile_qr_scan"}, "is_reserved": 0, "fusion_lon": 0.0, "fusion_lat": 0.0, "lon": -77.049797, "name": "a1d05cd29b70fc344fe1de09a6388e71"}, {"bike_id": "08ec8581e803445829e8ce5ac531a094", "type": "electric_scooter", "is_disabled": 0, "lat": 38.913489, "rental_uris": {"ios": "https://dc.lft.to/lastmile_qr_scan", "android": "https://dc.lft.to/lastmile_qr_scan"}, "is_reserved": 0, "fusion_lon": 0.0, "fusion_lat": 0.0, "lon": -77.04491216666666, "name": "08ec8581e803445829e8ce5ac531a094"}, {"bike_id": "4d5767fc79bf63a0b90e67b517f09dce", "type": "electric_scooter", "is_disabled": 0, "lat": 38.9326865, "rental_uris": {"ios": "https://dc.lft.to/lastmile_qr_scan", "android": "https://dc.lft.to/lastmile_qr_scan"}, "is_reserved": 0, "fusion_lon": 0.0, "fusion_lat": 0.0, "lon": -77.04536283333333, "name": "4d5767fc79bf63a0b90e67b517f09dce"}, {"bike_id": "616f5da72799bd8ecddedfeb42b1dafa", "type": "electric_scooter", "is_disabled": 0, "lat": 38.930837, "rental_uris": {"ios": "https://dc.lft.to/lastmile_qr_scan", "android": "https://dc.lft.to/lastmile_qr_scan"}, "is_reserved": 0, "fusion_lon": 0.0, "fusion_lat": 0.0, "lon": -77.0280955, "name": "616f5da72799bd8ecddedfeb42b1dafa"}, {"bike_id": "32f9b2b517661254b134af7710819576", "type": "electric_scooter", "is_disabled": 0, "lat": 38.90075083333333, "rental_uris": {"ios": "https://dc.lft.to/lastmile_qr_scan", "android": "https://dc.lft.to/lastmile_qr_scan"}, "is_reserved": 0, "fusion_lon": 0.0, "fusion_lat": 0.0, "lon": -77.00917716666666, "name": "32f9b2b517661254b134af7710819576"}, {"bike_id": "a3810ca9de437c47aa2a99d1e6deb68b", "type": "electric_scooter", "is_disabled": 0, "lat": 38.908273333333334, "rental_uris": {"ios": "https://dc.lft.to/lastmile_qr_scan", "android": "https://dc.lft.to/lastmile_qr_scan"}, "is_reserved": 0, "fusion_lon": 0.0, "fusion_lat": 0.0, "lon": -77.0434385, "name": "a3810ca9de437c47aa2a99d1e6deb68b"}, {"bike_id": "fe911fefcf09e54800c0429932750efd", "type": "electric_scooter", "is_disabled": 0, "lat": 38.916345666666665, "rental_uris": {"ios": "https://dc.lft.to/lastmile_qr_scan", "android": "https://dc.lft.to/lastmile_qr_scan"}, "is_reserved": 0, "fusion_lon": 0.0, "fusion_lat": 0.0, "lon": -77.025531, "name": "fe911fefcf09e54800c0429932750efd"}, {"bike_id": "89005ce0b5acc3c8d79ac0fd1a597935", "type": "electric_scooter", "is_disabled": 0, "lat": 38.91399966666667, "rental_uris": {"ios": "https://dc.lft.to/lastmile_qr_scan", "android": "https://dc.lft.to/lastmile_qr_scan"}, "is_reserved": 0, "fusion_lon": 0.0, "fusion_lat": 0.0, "lon": -77.0318285, "name": "89005ce0b5acc3c8d79ac0fd1a597935"}, {"bike_id": "bcfe194839e77fc307b268f54c84c8d4", "type": "electric_scooter", "is_disabled": 0, "lat": 38.891813166666665, "rental_uris": {"ios": "https://dc.lft.to/lastmile_qr_scan", "android": "https://dc.lft.to/lastmile_qr_scan"}, "is_reserved": 0, "fusion_lon": 0.0, "fusion_lat": 0.0, "lon": -77.02207133333333, "name": "bcfe194839e77fc307b268f54c84c8d4"}, {"bike_id": "44741c79f9754966e7db2b64ced771f6", "type": "electric_scooter", "is_disabled": 0, "lat": 38.91017433333333, "rental_uris": {"ios": "https://dc.lft.to/lastmile_qr_scan", "android": "https://dc.lft.to/lastmile_qr_scan"}, "is_reserved": 0, "fusion_lon": 0.0, "fusion_lat": 0.0, "lon": -77.036627, "name": "44741c79f9754966e7db2b64ced771f6"}, {"bike_id": "7f39097cba78c01fc87e3d7f4de9b71f", "type": "electric_scooter", "is_disabled": 0, "lat": 38.906425166666665, "rental_uris": {"ios": "https://dc.lft.to/lastmile_qr_scan", "android": "https://dc.lft.to/lastmile_qr_scan"}, "is_reserved": 0, "fusion_lon": 0.0, "fusion_lat": 0.0, "lon": -77.001932, "name": "7f39097cba78c01fc87e3d7f4de9b71f"}, {"bike_id": "e8b4c1f96a11218140035435e7ec4871", "type": "electric_scooter", "is_disabled": 0, "lat": 38.903870833333336, "rental_uris": {"ios": "https://dc.lft.to/lastmile_qr_scan", "android": "https://dc.lft.to/lastmile_qr_scan"}, "is_reserved": 0, "fusion_lon": 0.0, "fusion_lat": 0.0, "lon": -76.98208816666667, "name": "e8b4c1f96a11218140035435e7ec4871"}, {"bike_id": "d8cdac2a8276d7acd683e03283f68c2a", "type": "electric_scooter", "is_disabled": 0, "lat": 38.909760166666665, "rental_uris": {"ios": "https://dc.lft.to/lastmile_qr_scan", "android": "https://dc.lft.to/lastmile_qr_scan"}, "is_reserved": 0, "fusion_lon": 0.0, "fusion_lat": 0.0, "lon": -77.03942816666667, "name": "d8cdac2a8276d7acd683e03283f68c2a"}, {"bike_id": "1579462958f677448db7f4f0b9fe212e", "type": "electric_scooter", "is_disabled": 0, "lat": 38.87182816666667, "rental_uris": {"ios": "https://dc.lft.to/lastmile_qr_scan", "android": "https://dc.lft.to/lastmile_qr_scan"}, "is_reserved": 0, "fusion_lon": 0.0, "fusion_lat": 0.0, "lon": -77.01222233333333, "name": "1579462958f677448db7f4f0b9fe212e"}, {"bike_id": "bc6ee17bd1adae57b7c27883132905e5", "type": "electric_scooter", "is_disabled": 0, "lat": 38.932511833333336, "rental_uris": {"ios": "https://dc.lft.to/lastmile_qr_scan", "android": "https://dc.lft.to/lastmile_qr_scan"}, "is_reserved": 0, "fusion_lon": 0.0, "fusion_lat": 0.0, "lon": -77.03267966666667, "name": "bc6ee17bd1adae57b7c27883132905e5"}, {"bike_id": "f5be4487305afd1eba8fef777bb34745", "type": "electric_scooter", "is_disabled": 0, "lat": 38.898538333333335, "rental_uris": {"ios": "https://dc.lft.to/lastmile_qr_scan", "android": "https://dc.lft.to/lastmile_qr_scan"}, "is_reserved": 0, "fusion_lon": 0.0, "fusion_lat": 0.0, "lon": -77.02622283333334, "name": "f5be4487305afd1eba8fef777bb34745"}, {"bike_id": "f5cfe72457724ba1c71d800cdb41a03d", "type": "electric_bike", "is_disabled": 0, "lat": 38.813064833333335, "rental_uris": {"ios": "https://dc.lft.to/lastmile_qr_scan", "android": "https://dc.lft.to/lastmile_qr_scan"}, "is_reserved": 0, "fusion_lon": 0.0, "fusion_lat": 0.0, "lon": -77.10956683333333, "name": "f5cfe72457724ba1c71d800cdb41a03d"}, {"bike_id": "9c3ce428a158358f2c4dc971f31d1e36", "type": "electric_bike", "is_disabled": 0, "lat": 38.874768333333336, "rental_uris": {"ios": "https://dc.lft.to/lastmile_qr_scan", "android": "https://dc.lft.to/lastmile_qr_scan"}, "is_reserved": 0, "fusion_lon": 0.0, "fusion_lat": 0.0, "lon": -76.965277, "name": "9c3ce428a158358f2c4dc971f31d1e36"}, {"bike_id": "ff783c65ed20368494fb34313fbc6325", "type": "electric_scooter", "is_disabled": 0, "lat": 38.87467733333333, "rental_uris": {"ios": "https://dc.lft.to/lastmile_qr_scan", "android": "https://dc.lft.to/lastmile_qr_scan"}, "is_reserved": 0, "fusion_lon": 0.0, "fusion_lat": 0.0, "lon": -77.00552666666667, "name": "ff783c65ed20368494fb34313fbc6325"}, {"bike_id": "941e9d82e86f49cc5a24fd5e7c96eb6c", "type": "electric_scooter", "is_disabled": 0, "lat": 38.894917666666665, "rental_uris": {"ios": "https://dc.lft.to/lastmile_qr_scan", "android": "https://dc.lft.to/lastmile_qr_scan"}, "is_reserved": 0, "fusion_lon": 0.0, "fusion_lat": 0.0, "lon": -77.0270355, "name": "941e9d82e86f49cc5a24fd5e7c96eb6c"}, {"bike_id": "8f6163c8bf3446a4b14e604f4f68057f", "type": "electric_scooter", "is_disabled": 0, "lat": 38.901697166666665, "rental_uris": {"ios": "https://dc.lft.to/lastmile_qr_scan", "android": "https://dc.lft.to/lastmile_qr_scan"}, "is_reserved": 0, "fusion_lon": 0.0, "fusion_lat": 0.0, "lon": -76.93025016666667, "name": "8f6163c8bf3446a4b14e604f4f68057f"}, {"bike_id": "94f101c9cb5037b852e91b27e45f7926", "type": "electric_scooter", "is_disabled": 0, "lat": 38.90433733333333, "rental_uris": {"ios": "https://dc.lft.to/lastmile_qr_scan", "android": "https://dc.lft.to/lastmile_qr_scan"}, "is_reserved": 0, "fusion_lon": 0.0, "fusion_lat": 0.0, "lon": -77.02715183333333, "name": "94f101c9cb5037b852e91b27e45f7926"}, {"bike_id": "97f5482253d45bb1cd469aab3c9bc5bd", "type": "electric_scooter", "is_disabled": 0, "lat": 38.914057, "rental_uris": {"ios": "https://dc.lft.to/lastmile_qr_scan", "android": "https://dc.lft.to/lastmile_qr_scan"}, "is_reserved": 0, "fusion_lon": 0.0, "fusion_lat": 0.0, "lon": -77.0491465, "name": "97f5482253d45bb1cd469aab3c9bc5bd"}, {"bike_id": "d49a0e17f81ad12c73a8d0c437a45e3d", "type": "electric_scooter", "is_disabled": 0, "lat": 38.920907, "rental_uris": {"ios": "https://dc.lft.to/lastmile_qr_scan", "android": "https://dc.lft.to/lastmile_qr_scan"}, "is_reserved": 0, "fusion_lon": 0.0, "fusion_lat": 0.0, "lon": -77.0318275, "name": "d49a0e17f81ad12c73a8d0c437a45e3d"}, {"bike_id": "4637fbfac9872a048a5352a0536cfdf1", "type": "electric_scooter", "is_disabled": 0, "lat": 38.92302733333333, "rental_uris": {"ios": "https://dc.lft.to/lastmile_qr_scan", "android": "https://dc.lft.to/lastmile_qr_scan"}, "is_reserved": 0, "fusion_lon": 0.0, "fusion_lat": 0.0, "lon": -77.042114, "name": "4637fbfac9872a048a5352a0536cfdf1"}, {"bike_id": "a8551062fd78fde78eeffd59ee9129b2", "type": "electric_scooter", "is_disabled": 0, "lat": 38.909483, "rental_uris": {"ios": "https://dc.lft.to/lastmile_qr_scan", "android": "https://dc.lft.to/lastmile_qr_scan"}, "is_reserved": 0, "fusion_lon": 0.0, "fusion_lat": 0.0, "lon": -77.03443066666667, "name": "a8551062fd78fde78eeffd59ee9129b2"}, {"bike_id": "4f6d251e9a16d8e1cfee26fea7f7757a", "type": "electric_scooter", "is_disabled": 0, "lat": 38.92412383333333, "rental_uris": {"ios": "https://dc.lft.to/lastmile_qr_scan", "android": "https://dc.lft.to/lastmile_qr_scan"}, "is_reserved": 0, "fusion_lon": 0.0, "fusion_lat": 0.0, "lon": -77.05061133333334, "name": "4f6d251e9a16d8e1cfee26fea7f7757a"}, {"bike_id": "2b9a4a853be2c3681665ef330e44f30e", "type": "electric_scooter", "is_disabled": 0, "lat": 38.88712833333334, "rental_uris": {"ios": "https://dc.lft.to/lastmile_qr_scan", "android": "https://dc.lft.to/lastmile_qr_scan"}, "is_reserved": 0, "fusion_lon": 0.0, "fusion_lat": 0.0, "lon": -77.02831566666667, "name": "2b9a4a853be2c3681665ef330e44f30e"}, {"bike_id": "d578ece40699bbf692a322203e0ca0a0", "type": "electric_scooter", "is_disabled": 0, "lat": 38.93189, "rental_uris": {"ios": "https://dc.lft.to/lastmile_qr_scan", "android": "https://dc.lft.to/lastmile_qr_scan"}, "is_reserved": 0, "fusion_lon": 0.0, "fusion_lat": 0.0, "lon": -77.04536916666666, "name": "d578ece40699bbf692a322203e0ca0a0"}, {"bike_id": "3d437236903ce7a11ec434a57e830784", "type": "electric_scooter", "is_disabled": 0, "lat": 38.920884, "rental_uris": {"ios": "https://dc.lft.to/lastmile_qr_scan", "android": "https://dc.lft.to/lastmile_qr_scan"}, "is_reserved": 0, "fusion_lon": 0.0, "fusion_lat": 0.0, "lon": -77.0242885, "name": "3d437236903ce7a11ec434a57e830784"}, {"bike_id": "f099fbc3ee4af929858b7713aed7d1c4", "type": "electric_scooter", "is_disabled": 0, "lat": 38.897285833333335, "rental_uris": {"ios": "https://dc.lft.to/lastmile_qr_scan", "android": "https://dc.lft.to/lastmile_qr_scan"}, "is_reserved": 0, "fusion_lon": 0.0, "fusion_lat": 0.0, "lon": -76.99751033333334, "name": "f099fbc3ee4af929858b7713aed7d1c4"}, {"bike_id": "9d5071a755e15c9520782b850f923c79", "type": "electric_scooter", "is_disabled": 0, "lat": 38.937686166666666, "rental_uris": {"ios": "https://dc.lft.to/lastmile_qr_scan", "android": "https://dc.lft.to/lastmile_qr_scan"}, "is_reserved": 0, "fusion_lon": 0.0, "fusion_lat": 0.0, "lon": -77.03241633333333, "name": "9d5071a755e15c9520782b850f923c79"}, {"bike_id": "db4ab70a5c490bd1f99f014bbeff484f", "type": "electric_bike", "is_disabled": 0, "lat": 38.796078, "rental_uris": {"ios": "https://dc.lft.to/lastmile_qr_scan", "android": "https://dc.lft.to/lastmile_qr_scan"}, "is_reserved": 0, "fusion_lon": 0.0, "fusion_lat": 0.0, "lon": -76.9974825, "name": "db4ab70a5c490bd1f99f014bbeff484f"}, {"bike_id": "48bf1b8fba3c210717aac684d49789eb", "type": "electric_scooter", "is_disabled": 0, "lat": 38.9062095, "rental_uris": {"ios": "https://dc.lft.to/lastmile_qr_scan", "android": "https://dc.lft.to/lastmile_qr_scan"}, "is_reserved": 0, "fusion_lon": 0.0, "fusion_lat": 0.0, "lon": -77.04650666666667, "name": "48bf1b8fba3c210717aac684d49789eb"}, {"bike_id": "47c935fe51f8f7ae16a7819a426e8966", "type": "electric_scooter", "is_disabled": 0, "lat": 38.976773666666666, "rental_uris": {"ios": "https://dc.lft.to/lastmile_qr_scan", "android": "https://dc.lft.to/lastmile_qr_scan"}, "is_reserved": 0, "fusion_lon": 0.0, "fusion_lat": 0.0, "lon": -77.01656133333333, "name": "47c935fe51f8f7ae16a7819a426e8966"}, {"bike_id": "c4bba80061c9d0cac544a8b74001c488", "type": "electric_scooter", "is_disabled": 0, "lat": 38.900233166666666, "rental_uris": {"ios": "https://dc.lft.to/lastmile_qr_scan", "android": "https://dc.lft.to/lastmile_qr_scan"}, "is_reserved": 0, "fusion_lon": 0.0, "fusion_lat": 0.0, "lon": -77.00199, "name": "c4bba80061c9d0cac544a8b74001c488"}, {"bike_id": "fb07a91bc045ef20bff312bffc7d8911", "type": "electric_bike", "is_disabled": 0, "lat": 38.942556, "rental_uris": {"ios": "https://dc.lft.to/lastmile_qr_scan", "android": "https://dc.lft.to/lastmile_qr_scan"}, "is_reserved": 0, "fusion_lon": 0.0, "fusion_lat": 0.0, "lon": -77.02838933333334, "name": "fb07a91bc045ef20bff312bffc7d8911"}, {"bike_id": "091ea1f08a503e0082b10b895705484f", "type": "electric_scooter", "is_disabled": 0, "lat": 38.9036235, "rental_uris": {"ios": "https://dc.lft.to/lastmile_qr_scan", "android": "https://dc.lft.to/lastmile_qr_scan"}, "is_reserved": 0, "fusion_lon": 0.0, "fusion_lat": 0.0, "lon": -77.02701016666667, "name": "091ea1f08a503e0082b10b895705484f"}, {"bike_id": "72ead6ce03a021227b6280b752204c0b", "type": "electric_scooter", "is_disabled": 0, "lat": 38.92411166666667, "rental_uris": {"ios": "https://dc.lft.to/lastmile_qr_scan", "android": "https://dc.lft.to/lastmile_qr_scan"}, "is_reserved": 0, "fusion_lon": 0.0, "fusion_lat": 0.0, "lon": -77.05064133333333, "name": "72ead6ce03a021227b6280b752204c0b"}, {"bike_id": "fe6f9fb05150d63e692ea39028d66bc6", "type": "electric_scooter", "is_disabled": 0, "lat": 38.8839, "rental_uris": {"ios": "https://dc.lft.to/lastmile_qr_scan", "android": "https://dc.lft.to/lastmile_qr_scan"}, "is_reserved": 0, "fusion_lon": 0.0, "fusion_lat": 0.0, "lon": -76.95448083333333, "name": "fe6f9fb05150d63e692ea39028d66bc6"}, {"bike_id": "95a763f3d0140631b946233c43f51dd4", "type": "electric_scooter", "is_disabled": 0, "lat": 38.88877766666667, "rental_uris": {"ios": "https://dc.lft.to/lastmile_qr_scan", "android": "https://dc.lft.to/lastmile_qr_scan"}, "is_reserved": 0, "fusion_lon": 0.0, "fusion_lat": 0.0, "lon": -76.94778283333333, "name": "95a763f3d0140631b946233c43f51dd4"}, {"bike_id": "786da658a7da9e595b857d91fac5fa82", "type": "electric_scooter", "is_disabled": 0, "lat": 38.885146666666664, "rental_uris": {"ios": "https://dc.lft.to/lastmile_qr_scan", "android": "https://dc.lft.to/lastmile_qr_scan"}, "is_reserved": 0, "fusion_lon": 0.0, "fusion_lat": 0.0, "lon": -77.01715066666667, "name": "786da658a7da9e595b857d91fac5fa82"}, {"bike_id": "35570385e096ce2eca781c06feccd3c8", "type": "electric_scooter", "is_disabled": 0, "lat": 38.87789983333333, "rental_uris": {"ios": "https://dc.lft.to/lastmile_qr_scan", "android": "https://dc.lft.to/lastmile_qr_scan"}, "is_reserved": 0, "fusion_lon": 0.0, "fusion_lat": 0.0, "lon": -77.007544, "name": "35570385e096ce2eca781c06feccd3c8"}, {"bike_id": "f53f03ad15b069d224039181fbae0f40", "type": "electric_bike", "is_disabled": 0, "lat": 38.86259166666667, "rental_uris": {"ios": "https://dc.lft.to/lastmile_qr_scan", "android": "https://dc.lft.to/lastmile_qr_scan"}, "is_reserved": 0, "fusion_lon": 0.0, "fusion_lat": 0.0, "lon": -76.983496, "name": "f53f03ad15b069d224039181fbae0f40"}, {"bike_id": "6be9f4ea0aa7b8f1ed7854baa2f2b618", "type": "electric_scooter", "is_disabled": 0, "lat": 38.9350775, "rental_uris": {"ios": "https://dc.lft.to/lastmile_qr_scan", "android": "https://dc.lft.to/lastmile_qr_scan"}, "is_reserved": 0, "fusion_lon": 0.0, "fusion_lat": 0.0, "lon": -77.03292833333333, "name": "6be9f4ea0aa7b8f1ed7854baa2f2b618"}, {"bike_id": "989554474a37d92523ba061c954ff51f", "type": "electric_scooter", "is_disabled": 0, "lat": 38.895478, "rental_uris": {"ios": "https://dc.lft.to/lastmile_qr_scan", "android": "https://dc.lft.to/lastmile_qr_scan"}, "is_reserved": 0, "fusion_lon": 0.0, "fusion_lat": 0.0, "lon": -76.92950116666667, "name": "989554474a37d92523ba061c954ff51f"}, {"bike_id": "c4074f7dcaab178c4398ffc707117a12", "type": "electric_scooter", "is_disabled": 0, "lat": 38.92677966666667, "rental_uris": {"ios": "https://dc.lft.to/lastmile_qr_scan", "android": "https://dc.lft.to/lastmile_qr_scan"}, "is_reserved": 0, "fusion_lon": 0.0, "fusion_lat": 0.0, "lon": -77.04349916666666, "name": "c4074f7dcaab178c4398ffc707117a12"}, {"bike_id": "cf702f18669bfcef1ad673d8ffdb415c", "type": "electric_scooter", "is_disabled": 0, "lat": 38.918154333333334, "rental_uris": {"ios": "https://dc.lft.to/lastmile_qr_scan", "android": "https://dc.lft.to/lastmile_qr_scan"}, "is_reserved": 0, "fusion_lon": 0.0, "fusion_lat": 0.0, "lon": -77.0253115, "name": "cf702f18669bfcef1ad673d8ffdb415c"}, {"bike_id": "d22adef0dbbc3e13aa1f51f8652e99b7", "type": "electric_bike", "is_disabled": 0, "lat": 38.8578545, "rental_uris": {"ios": "https://dc.lft.to/lastmile_qr_scan", "android": "https://dc.lft.to/lastmile_qr_scan"}, "is_reserved": 0, "fusion_lon": 0.0, "fusion_lat": 0.0, "lon": -77.120195, "name": "d22adef0dbbc3e13aa1f51f8652e99b7"}, {"bike_id": "73a7e10993ce87c510380f855869661d", "type": "electric_scooter", "is_disabled": 0, "lat": 38.91693566666667, "rental_uris": {"ios": "https://dc.lft.to/lastmile_qr_scan", "android": "https://dc.lft.to/lastmile_qr_scan"}, "is_reserved": 0, "fusion_lon": 0.0, "fusion_lat": 0.0, "lon": -77.04110216666666, "name": "73a7e10993ce87c510380f855869661d"}, {"bike_id": "5f0401e4fbe94109195fc0d722eae854", "type": "electric_scooter", "is_disabled": 0, "lat": 38.89946666666667, "rental_uris": {"ios": "https://dc.lft.to/lastmile_qr_scan", "android": "https://dc.lft.to/lastmile_qr_scan"}, "is_reserved": 0, "fusion_lon": 0.0, "fusion_lat": 0.0, "lon": -76.9820745, "name": "5f0401e4fbe94109195fc0d722eae854"}, {"bike_id": "188cdab240b58daf5ce3ba44ffc7b3f7", "type": "electric_scooter", "is_disabled": 0, "lat": 38.887497, "rental_uris": {"ios": "https://dc.lft.to/lastmile_qr_scan", "android": "https://dc.lft.to/lastmile_qr_scan"}, "is_reserved": 0, "fusion_lon": 0.0, "fusion_lat": 0.0, "lon": -77.02841883333333, "name": "188cdab240b58daf5ce3ba44ffc7b3f7"}, {"bike_id": "d6edabe64964042d3058db2c73535c4a", "type": "electric_scooter", "is_disabled": 0, "lat": 38.916957833333335, "rental_uris": {"ios": "https://dc.lft.to/lastmile_qr_scan", "android": "https://dc.lft.to/lastmile_qr_scan"}, "is_reserved": 0, "fusion_lon": 0.0, "fusion_lat": 0.0, "lon": -77.00496333333334, "name": "d6edabe64964042d3058db2c73535c4a"}, {"bike_id": "7eeb2f8e0662432b55d224157a197b20", "type": "electric_scooter", "is_disabled": 0, "lat": 38.916660666666665, "rental_uris": {"ios": "https://dc.lft.to/lastmile_qr_scan", "android": "https://dc.lft.to/lastmile_qr_scan"}, "is_reserved": 0, "fusion_lon": 0.0, "fusion_lat": 0.0, "lon": -77.027164, "name": "7eeb2f8e0662432b55d224157a197b20"}, {"bike_id": "ee971ab31a62e2b1d055a3412541326c", "type": "electric_scooter", "is_disabled": 0, "lat": 38.91746633333333, "rental_uris": {"ios": "https://dc.lft.to/lastmile_qr_scan", "android": "https://dc.lft.to/lastmile_qr_scan"}, "is_reserved": 0, "fusion_lon": 0.0, "fusion_lat": 0.0, "lon": -77.04164533333334, "name": "ee971ab31a62e2b1d055a3412541326c"}, {"bike_id": "ae46267c93cb2813db4925ce8c743398", "type": "electric_scooter", "is_disabled": 0, "lat": 38.87602, "rental_uris": {"ios": "https://dc.lft.to/lastmile_qr_scan", "android": "https://dc.lft.to/lastmile_qr_scan"}, "is_reserved": 0, "fusion_lon": 0.0, "fusion_lat": 0.0, "lon": -77.01642066666666, "name": "ae46267c93cb2813db4925ce8c743398"}, {"bike_id": "5923b7897938e70ed4665239f129d073", "type": "electric_scooter", "is_disabled": 0, "lat": 38.8624115, "rental_uris": {"ios": "https://dc.lft.to/lastmile_qr_scan", "android": "https://dc.lft.to/lastmile_qr_scan"}, "is_reserved": 0, "fusion_lon": 0.0, "fusion_lat": 0.0, "lon": -76.9949315, "name": "5923b7897938e70ed4665239f129d073"}, {"bike_id": "218b6c9e030af743401f20dd4b76d379", "type": "electric_scooter", "is_disabled": 0, "lat": 38.892197333333336, "rental_uris": {"ios": "https://dc.lft.to/lastmile_qr_scan", "android": "https://dc.lft.to/lastmile_qr_scan"}, "is_reserved": 0, "fusion_lon": 0.0, "fusion_lat": 0.0, "lon": -77.025826, "name": "218b6c9e030af743401f20dd4b76d379"}, {"bike_id": "bac662afa2477f13836f8d4e2fcb0b0c", "type": "electric_bike", "is_disabled": 0, "lat": 38.89738583333333, "rental_uris": {"ios": "https://dc.lft.to/lastmile_qr_scan", "android": "https://dc.lft.to/lastmile_qr_scan"}, "is_reserved": 0, "fusion_lon": 0.0, "fusion_lat": 0.0, "lon": -76.92046183333333, "name": "bac662afa2477f13836f8d4e2fcb0b0c"}, {"bike_id": "13cdef40c82e67b30aa8e5305b93f7ef", "type": "electric_scooter", "is_disabled": 0, "lat": 38.916188166666664, "rental_uris": {"ios": "https://dc.lft.to/lastmile_qr_scan", "android": "https://dc.lft.to/lastmile_qr_scan"}, "is_reserved": 0, "fusion_lon": 0.0, "fusion_lat": 0.0, "lon": -77.03182833333334, "name": "13cdef40c82e67b30aa8e5305b93f7ef"}, {"bike_id": "d8c0acbb8103656f779c2dc777948da5", "type": "electric_scooter", "is_disabled": 0, "lat": 38.922089666666665, "rental_uris": {"ios": "https://dc.lft.to/lastmile_qr_scan", "android": "https://dc.lft.to/lastmile_qr_scan"}, "is_reserved": 0, "fusion_lon": 0.0, "fusion_lat": 0.0, "lon": -77.03285683333333, "name": "d8c0acbb8103656f779c2dc777948da5"}, {"bike_id": "c80514d74626856cece2724e4dda3462", "type": "electric_scooter", "is_disabled": 0, "lat": 38.907188833333336, "rental_uris": {"ios": "https://dc.lft.to/lastmile_qr_scan", "android": "https://dc.lft.to/lastmile_qr_scan"}, "is_reserved": 0, "fusion_lon": 0.0, "fusion_lat": 0.0, "lon": -77.02373333333334, "name": "c80514d74626856cece2724e4dda3462"}, {"bike_id": "9436c2186a3fb14dfc5bb0f7f96fa4f9", "type": "electric_scooter", "is_disabled": 0, "lat": 38.9058945, "rental_uris": {"ios": "https://dc.lft.to/lastmile_qr_scan", "android": "https://dc.lft.to/lastmile_qr_scan"}, "is_reserved": 0, "fusion_lon": 0.0, "fusion_lat": 0.0, "lon": -77.0671685, "name": "9436c2186a3fb14dfc5bb0f7f96fa4f9"}, {"bike_id": "8a1be9d40866c64fbc4e048a04441f3a", "type": "electric_scooter", "is_disabled": 0, "lat": 38.916986, "rental_uris": {"ios": "https://dc.lft.to/lastmile_qr_scan", "android": "https://dc.lft.to/lastmile_qr_scan"}, "is_reserved": 0, "fusion_lon": 0.0, "fusion_lat": 0.0, "lon": -77.024691, "name": "8a1be9d40866c64fbc4e048a04441f3a"}, {"bike_id": "d2d2e3a22aafa3f3bd5017135ea6329a", "type": "electric_scooter", "is_disabled": 0, "lat": 38.90633, "rental_uris": {"ios": "https://dc.lft.to/lastmile_qr_scan", "android": "https://dc.lft.to/lastmile_qr_scan"}, "is_reserved": 0, "fusion_lon": 0.0, "fusion_lat": 0.0, "lon": -76.99303916666666, "name": "d2d2e3a22aafa3f3bd5017135ea6329a"}, {"bike_id": "303d4bc06042b549dea46bc425a63867", "type": "electric_scooter", "is_disabled": 0, "lat": 38.94521866666667, "rental_uris": {"ios": "https://dc.lft.to/lastmile_qr_scan", "android": "https://dc.lft.to/lastmile_qr_scan"}, "is_reserved": 0, "fusion_lon": 0.0, "fusion_lat": 0.0, "lon": -77.02092433333334, "name": "303d4bc06042b549dea46bc425a63867"}, {"bike_id": "11240c9a95037597e24e5ca3cbb186a0", "type": "electric_scooter", "is_disabled": 0, "lat": 38.90936666666666, "rental_uris": {"ios": "https://dc.lft.to/lastmile_qr_scan", "android": "https://dc.lft.to/lastmile_qr_scan"}, "is_reserved": 0, "fusion_lon": 0.0, "fusion_lat": 0.0, "lon": -77.03204516666666, "name": "11240c9a95037597e24e5ca3cbb186a0"}, {"bike_id": "362bf2848dfa6640ff7d9fba7c9b5406", "type": "electric_scooter", "is_disabled": 0, "lat": 38.912341166666664, "rental_uris": {"ios": "https://dc.lft.to/lastmile_qr_scan", "android": "https://dc.lft.to/lastmile_qr_scan"}, "is_reserved": 0, "fusion_lon": 0.0, "fusion_lat": 0.0, "lon": -77.00916516666666, "name": "362bf2848dfa6640ff7d9fba7c9b5406"}, {"bike_id": "758099a44621cdcc370f742febe5af6a", "type": "electric_scooter", "is_disabled": 0, "lat": 38.932139666666664, "rental_uris": {"ios": "https://dc.lft.to/lastmile_qr_scan", "android": "https://dc.lft.to/lastmile_qr_scan"}, "is_reserved": 0, "fusion_lon": 0.0, "fusion_lat": 0.0, "lon": -77.029678, "name": "758099a44621cdcc370f742febe5af6a"}, {"bike_id": "54ee43dc8bdbb435cc8cc6effccb0f99", "type": "electric_scooter", "is_disabled": 0, "lat": 38.899739833333335, "rental_uris": {"ios": "https://dc.lft.to/lastmile_qr_scan", "android": "https://dc.lft.to/lastmile_qr_scan"}, "is_reserved": 0, "fusion_lon": 0.0, "fusion_lat": 0.0, "lon": -77.05564833333334, "name": "54ee43dc8bdbb435cc8cc6effccb0f99"}, {"bike_id": "9ee98ed8f23ee20522b0b4cbc62ec69e", "type": "electric_bike", "is_disabled": 0, "lat": 38.988560666666665, "rental_uris": {"ios": "https://dc.lft.to/lastmile_qr_scan", "android": "https://dc.lft.to/lastmile_qr_scan"}, "is_reserved": 0, "fusion_lon": 0.0, "fusion_lat": 0.0, "lon": -77.09556766666667, "name": "9ee98ed8f23ee20522b0b4cbc62ec69e"}, {"bike_id": "82e4f8f40cb78fac39385f6e6fa376f5", "type": "electric_scooter", "is_disabled": 0, "lat": 38.92232966666667, "rental_uris": {"ios": "https://dc.lft.to/lastmile_qr_scan", "android": "https://dc.lft.to/lastmile_qr_scan"}, "is_reserved": 0, "fusion_lon": 0.0, "fusion_lat": 0.0, "lon": -77.0335325, "name": "82e4f8f40cb78fac39385f6e6fa376f5"}, {"bike_id": "c35c5371a408dd1b8bf17973bd4b193a", "type": "electric_scooter", "is_disabled": 0, "lat": 38.9329605, "rental_uris": {"ios": "https://dc.lft.to/lastmile_qr_scan", "android": "https://dc.lft.to/lastmile_qr_scan"}, "is_reserved": 0, "fusion_lon": 0.0, "fusion_lat": 0.0, "lon": -77.0214395, "name": "c35c5371a408dd1b8bf17973bd4b193a"}, {"bike_id": "8cfd5473f17c94800a3cdc37ddcf01d8", "type": "electric_scooter", "is_disabled": 0, "lat": 38.91402466666667, "rental_uris": {"ios": "https://dc.lft.to/lastmile_qr_scan", "android": "https://dc.lft.to/lastmile_qr_scan"}, "is_reserved": 0, "fusion_lon": 0.0, "fusion_lat": 0.0, "lon": -77.03156916666667, "name": "8cfd5473f17c94800a3cdc37ddcf01d8"}, {"bike_id": "86bb6e441d576e0198fb6baedc5f1c60", "type": "electric_scooter", "is_disabled": 0, "lat": 38.895022166666664, "rental_uris": {"ios": "https://dc.lft.to/lastmile_qr_scan", "android": "https://dc.lft.to/lastmile_qr_scan"}, "is_reserved": 0, "fusion_lon": 0.0, "fusion_lat": 0.0, "lon": -76.9347625, "name": "86bb6e441d576e0198fb6baedc5f1c60"}, {"bike_id": "c731f498cb5afa0bc883e37b05f56882", "type": "electric_bike", "is_disabled": 0, "lat": 38.91910466666667, "rental_uris": {"ios": "https://dc.lft.to/lastmile_qr_scan", "android": "https://dc.lft.to/lastmile_qr_scan"}, "is_reserved": 0, "fusion_lon": 0.0, "fusion_lat": 0.0, "lon": -77.02003816666667, "name": "c731f498cb5afa0bc883e37b05f56882"}, {"bike_id": "bf4977df43d7e301f939b91f7f0ae533", "type": "electric_scooter", "is_disabled": 0, "lat": 38.86694516666667, "rental_uris": {"ios": "https://dc.lft.to/lastmile_qr_scan", "android": "https://dc.lft.to/lastmile_qr_scan"}, "is_reserved": 0, "fusion_lon": 0.0, "fusion_lat": 0.0, "lon": -76.98576666666666, "name": "bf4977df43d7e301f939b91f7f0ae533"}, {"bike_id": "2e40957b32161ed0f84b20b6315e8902", "type": "electric_scooter", "is_disabled": 0, "lat": 38.90717216666667, "rental_uris": {"ios": "https://dc.lft.to/lastmile_qr_scan", "android": "https://dc.lft.to/lastmile_qr_scan"}, "is_reserved": 0, "fusion_lon": 0.0, "fusion_lat": 0.0, "lon": -77.02373666666666, "name": "2e40957b32161ed0f84b20b6315e8902"}, {"bike_id": "3febea7560e9c2f706fbfbf106115319", "type": "electric_scooter", "is_disabled": 0, "lat": 38.926205333333336, "rental_uris": {"ios": "https://dc.lft.to/lastmile_qr_scan", "android": "https://dc.lft.to/lastmile_qr_scan"}, "is_reserved": 0, "fusion_lon": 0.0, "fusion_lat": 0.0, "lon": -77.04324066666666, "name": "3febea7560e9c2f706fbfbf106115319"}, {"bike_id": "eae050baff5d5491ffc1490a6b2dc424", "type": "electric_scooter", "is_disabled": 0, "lat": 38.91253866666667, "rental_uris": {"ios": "https://dc.lft.to/lastmile_qr_scan", "android": "https://dc.lft.to/lastmile_qr_scan"}, "is_reserved": 0, "fusion_lon": 0.0, "fusion_lat": 0.0, "lon": -77.03866233333333, "name": "eae050baff5d5491ffc1490a6b2dc424"}, {"bike_id": "bae58938e5a1ed948d4469a7d3f8d8dd", "type": "electric_scooter", "is_disabled": 0, "lat": 38.90124733333333, "rental_uris": {"ios": "https://dc.lft.to/lastmile_qr_scan", "android": "https://dc.lft.to/lastmile_qr_scan"}, "is_reserved": 0, "fusion_lon": 0.0, "fusion_lat": 0.0, "lon": -77.016118, "name": "bae58938e5a1ed948d4469a7d3f8d8dd"}, {"bike_id": "aff11d4809d9669fb3402f6e24b3f336", "type": "electric_scooter", "is_disabled": 0, "lat": 38.92124366666667, "rental_uris": {"ios": "https://dc.lft.to/lastmile_qr_scan", "android": "https://dc.lft.to/lastmile_qr_scan"}, "is_reserved": 0, "fusion_lon": 0.0, "fusion_lat": 0.0, "lon": -77.04422933333333, "name": "aff11d4809d9669fb3402f6e24b3f336"}, {"bike_id": "2ab81fe5b09001df10343a430a9aea3e", "type": "electric_scooter", "is_disabled": 0, "lat": 38.91568266666667, "rental_uris": {"ios": "https://dc.lft.to/lastmile_qr_scan", "android": "https://dc.lft.to/lastmile_qr_scan"}, "is_reserved": 0, "fusion_lon": 0.0, "fusion_lat": 0.0, "lon": -77.031892, "name": "2ab81fe5b09001df10343a430a9aea3e"}, {"bike_id": "63877d446dd51c5a37462e02a7b4ac07", "type": "electric_bike", "is_disabled": 0, "lat": 38.8204335, "rental_uris": {"ios": "https://dc.lft.to/lastmile_qr_scan", "android": "https://dc.lft.to/lastmile_qr_scan"}, "is_reserved": 0, "fusion_lon": 0.0, "fusion_lat": 0.0, "lon": -77.05311616666667, "name": "63877d446dd51c5a37462e02a7b4ac07"}, {"bike_id": "58c9630dcf42c84a1296af0233879a9d", "type": "electric_scooter", "is_disabled": 0, "lat": 38.9154495, "rental_uris": {"ios": "https://dc.lft.to/lastmile_qr_scan", "android": "https://dc.lft.to/lastmile_qr_scan"}, "is_reserved": 0, "fusion_lon": 0.0, "fusion_lat": 0.0, "lon": -76.970078, "name": "58c9630dcf42c84a1296af0233879a9d"}, {"bike_id": "b12705cbcf80c4313e89683497284cb3", "type": "electric_scooter", "is_disabled": 0, "lat": 38.921591666666664, "rental_uris": {"ios": "https://dc.lft.to/lastmile_qr_scan", "android": "https://dc.lft.to/lastmile_qr_scan"}, "is_reserved": 0, "fusion_lon": 0.0, "fusion_lat": 0.0, "lon": -77.03258016666666, "name": "b12705cbcf80c4313e89683497284cb3"}, {"bike_id": "dcbd452a9d2c94467bd32709e1834fc0", "type": "electric_scooter", "is_disabled": 0, "lat": 38.90006666666667, "rental_uris": {"ios": "https://dc.lft.to/lastmile_qr_scan", "android": "https://dc.lft.to/lastmile_qr_scan"}, "is_reserved": 0, "fusion_lon": 0.0, "fusion_lat": 0.0, "lon": -76.99621616666667, "name": "dcbd452a9d2c94467bd32709e1834fc0"}, {"bike_id": "f141306f83e3d16a12346c9af06167a8", "type": "electric_bike", "is_disabled": 0, "lat": 38.88239383333333, "rental_uris": {"ios": "https://dc.lft.to/lastmile_qr_scan", "android": "https://dc.lft.to/lastmile_qr_scan"}, "is_reserved": 0, "fusion_lon": 0.0, "fusion_lat": 0.0, "lon": -76.96255566666666, "name": "f141306f83e3d16a12346c9af06167a8"}, {"bike_id": "9e8812a926bef2876dc3de9a2661c010", "type": "electric_bike", "is_disabled": 0, "lat": 39.043057833333336, "rental_uris": {"ios": "https://dc.lft.to/lastmile_qr_scan", "android": "https://dc.lft.to/lastmile_qr_scan"}, "is_reserved": 0, "fusion_lon": 0.0, "fusion_lat": 0.0, "lon": -77.05159966666666, "name": "9e8812a926bef2876dc3de9a2661c010"}, {"bike_id": "ab9a7dcf7a95c7951a78200899b15c97", "type": "electric_scooter", "is_disabled": 0, "lat": 38.9065595, "rental_uris": {"ios": "https://dc.lft.to/lastmile_qr_scan", "android": "https://dc.lft.to/lastmile_qr_scan"}, "is_reserved": 0, "fusion_lon": 0.0, "fusion_lat": 0.0, "lon": -77.0418215, "name": "ab9a7dcf7a95c7951a78200899b15c97"}, {"bike_id": "171e23898b84d45b91d397630a31434e", "type": "electric_scooter", "is_disabled": 0, "lat": 38.91742633333333, "rental_uris": {"ios": "https://dc.lft.to/lastmile_qr_scan", "android": "https://dc.lft.to/lastmile_qr_scan"}, "is_reserved": 0, "fusion_lon": 0.0, "fusion_lat": 0.0, "lon": -77.04183516666667, "name": "171e23898b84d45b91d397630a31434e"}, {"bike_id": "e7cdcb93cdd77ba4ff9e93bf4090b644", "type": "electric_scooter", "is_disabled": 0, "lat": 38.90675066666667, "rental_uris": {"ios": "https://dc.lft.to/lastmile_qr_scan", "android": "https://dc.lft.to/lastmile_qr_scan"}, "is_reserved": 0, "fusion_lon": 0.0, "fusion_lat": 0.0, "lon": -77.07118566666666, "name": "e7cdcb93cdd77ba4ff9e93bf4090b644"}, {"bike_id": "cf2054a8938478aae6302517e05f0d5f", "type": "electric_scooter", "is_disabled": 0, "lat": 38.900861, "rental_uris": {"ios": "https://dc.lft.to/lastmile_qr_scan", "android": "https://dc.lft.to/lastmile_qr_scan"}, "is_reserved": 0, "fusion_lon": 0.0, "fusion_lat": 0.0, "lon": -77.02408916666667, "name": "cf2054a8938478aae6302517e05f0d5f"}, {"bike_id": "6e7301a95ff2a827e9740c48af244759", "type": "electric_scooter", "is_disabled": 0, "lat": 38.9217525, "rental_uris": {"ios": "https://dc.lft.to/lastmile_qr_scan", "android": "https://dc.lft.to/lastmile_qr_scan"}, "is_reserved": 0, "fusion_lon": 0.0, "fusion_lat": 0.0, "lon": -77.040216, "name": "6e7301a95ff2a827e9740c48af244759"}, {"bike_id": "18911f87fb56e6ff89db7246bfaed9b2", "type": "electric_scooter", "is_disabled": 0, "lat": 38.89357483333333, "rental_uris": {"ios": "https://dc.lft.to/lastmile_qr_scan", "android": "https://dc.lft.to/lastmile_qr_scan"}, "is_reserved": 0, "fusion_lon": 0.0, "fusion_lat": 0.0, "lon": -76.94934716666667, "name": "18911f87fb56e6ff89db7246bfaed9b2"}, {"bike_id": "524154dfeb0d71c0a4a5a43cc0ae09f9", "type": "electric_scooter", "is_disabled": 0, "lat": 38.9142075, "rental_uris": {"ios": "https://dc.lft.to/lastmile_qr_scan", "android": "https://dc.lft.to/lastmile_qr_scan"}, "is_reserved": 0, "fusion_lon": 0.0, "fusion_lat": 0.0, "lon": -77.03902883333333, "name": "524154dfeb0d71c0a4a5a43cc0ae09f9"}, {"bike_id": "4565ca32870f91cdaf37c91444fd5457", "type": "electric_bike", "is_disabled": 0, "lat": 38.8237745, "rental_uris": {"ios": "https://dc.lft.to/lastmile_qr_scan", "android": "https://dc.lft.to/lastmile_qr_scan"}, "is_reserved": 0, "fusion_lon": 0.0, "fusion_lat": 0.0, "lon": -77.00228266666667, "name": "4565ca32870f91cdaf37c91444fd5457"}, {"bike_id": "08ba92e100565ecbcd48c303a3bbea3d", "type": "electric_scooter", "is_disabled": 0, "lat": 38.90103466666667, "rental_uris": {"ios": "https://dc.lft.to/lastmile_qr_scan", "android": "https://dc.lft.to/lastmile_qr_scan"}, "is_reserved": 0, "fusion_lon": 0.0, "fusion_lat": 0.0, "lon": -77.04744416666666, "name": "08ba92e100565ecbcd48c303a3bbea3d"}, {"bike_id": "3048189de52907ad9633ff83fed7b362", "type": "electric_scooter", "is_disabled": 0, "lat": 38.908506, "rental_uris": {"ios": "https://dc.lft.to/lastmile_qr_scan", "android": "https://dc.lft.to/lastmile_qr_scan"}, "is_reserved": 0, "fusion_lon": 0.0, "fusion_lat": 0.0, "lon": -77.0223155, "name": "3048189de52907ad9633ff83fed7b362"}, {"bike_id": "690e515f7f60704fb4853b3a889cdec4", "type": "electric_scooter", "is_disabled": 0, "lat": 38.926019833333335, "rental_uris": {"ios": "https://dc.lft.to/lastmile_qr_scan", "android": "https://dc.lft.to/lastmile_qr_scan"}, "is_reserved": 0, "fusion_lon": 0.0, "fusion_lat": 0.0, "lon": -77.02154416666667, "name": "690e515f7f60704fb4853b3a889cdec4"}, {"bike_id": "bcb7444085aa991a092d7d304e61e319", "type": "electric_scooter", "is_disabled": 0, "lat": 38.87989116666667, "rental_uris": {"ios": "https://dc.lft.to/lastmile_qr_scan", "android": "https://dc.lft.to/lastmile_qr_scan"}, "is_reserved": 0, "fusion_lon": 0.0, "fusion_lat": 0.0, "lon": -76.98528216666666, "name": "bcb7444085aa991a092d7d304e61e319"}, {"bike_id": "a8bc201c439b70749b4c8cca89d70a05", "type": "electric_scooter", "is_disabled": 0, "lat": 38.911935666666665, "rental_uris": {"ios": "https://dc.lft.to/lastmile_qr_scan", "android": "https://dc.lft.to/lastmile_qr_scan"}, "is_reserved": 0, "fusion_lon": 0.0, "fusion_lat": 0.0, "lon": -77.03218133333333, "name": "a8bc201c439b70749b4c8cca89d70a05"}, {"bike_id": "03e19d12e81835aea0ecb2f6410b83f8", "type": "electric_scooter", "is_disabled": 0, "lat": 38.9196585, "rental_uris": {"ios": "https://dc.lft.to/lastmile_qr_scan", "android": "https://dc.lft.to/lastmile_qr_scan"}, "is_reserved": 0, "fusion_lon": 0.0, "fusion_lat": 0.0, "lon": -77.03851216666666, "name": "03e19d12e81835aea0ecb2f6410b83f8"}, {"bike_id": "50c483790c04cdb306d9044969e6a78b", "type": "electric_scooter", "is_disabled": 0, "lat": 38.92084083333334, "rental_uris": {"ios": "https://dc.lft.to/lastmile_qr_scan", "android": "https://dc.lft.to/lastmile_qr_scan"}, "is_reserved": 0, "fusion_lon": 0.0, "fusion_lat": 0.0, "lon": -77.0043945, "name": "50c483790c04cdb306d9044969e6a78b"}, {"bike_id": "b93f052da153d046c56aa016a4df613d", "type": "electric_bike", "is_disabled": 0, "lat": 38.9564045, "rental_uris": {"ios": "https://dc.lft.to/lastmile_qr_scan", "android": "https://dc.lft.to/lastmile_qr_scan"}, "is_reserved": 0, "fusion_lon": 0.0, "fusion_lat": 0.0, "lon": -76.9979485, "name": "b93f052da153d046c56aa016a4df613d"}, {"bike_id": "66493cef4934ea3a13b71cebefa0d8f4", "type": "electric_scooter", "is_disabled": 0, "lat": 38.90965966666667, "rental_uris": {"ios": "https://dc.lft.to/lastmile_qr_scan", "android": "https://dc.lft.to/lastmile_qr_scan"}, "is_reserved": 0, "fusion_lon": 0.0, "fusion_lat": 0.0, "lon": -77.03315366666666, "name": "66493cef4934ea3a13b71cebefa0d8f4"}, {"bike_id": "19b929c120d2d5ce0fd319cbb3145898", "type": "electric_scooter", "is_disabled": 0, "lat": 38.9244595, "rental_uris": {"ios": "https://dc.lft.to/lastmile_qr_scan", "android": "https://dc.lft.to/lastmile_qr_scan"}, "is_reserved": 0, "fusion_lon": 0.0, "fusion_lat": 0.0, "lon": -77.044096, "name": "19b929c120d2d5ce0fd319cbb3145898"}, {"bike_id": "70c5b6545786aa5ab02d80284eeed2d3", "type": "electric_bike", "is_disabled": 0, "lat": 39.01368, "rental_uris": {"ios": "https://dc.lft.to/lastmile_qr_scan", "android": "https://dc.lft.to/lastmile_qr_scan"}, "is_reserved": 0, "fusion_lon": 0.0, "fusion_lat": 0.0, "lon": -76.921351, "name": "70c5b6545786aa5ab02d80284eeed2d3"}, {"bike_id": "980dd5d5f18d92c8082e44c0e0fdb142", "type": "electric_scooter", "is_disabled": 0, "lat": 38.9004765, "rental_uris": {"ios": "https://dc.lft.to/lastmile_qr_scan", "android": "https://dc.lft.to/lastmile_qr_scan"}, "is_reserved": 0, "fusion_lon": 0.0, "fusion_lat": 0.0, "lon": -77.00064716666667, "name": "980dd5d5f18d92c8082e44c0e0fdb142"}, {"bike_id": "4dfa9bdfa524a559277a03b97caf0c8b", "type": "electric_scooter", "is_disabled": 0, "lat": 38.9256055, "rental_uris": {"ios": "https://dc.lft.to/lastmile_qr_scan", "android": "https://dc.lft.to/lastmile_qr_scan"}, "is_reserved": 0, "fusion_lon": 0.0, "fusion_lat": 0.0, "lon": -77.043835, "name": "4dfa9bdfa524a559277a03b97caf0c8b"}, {"bike_id": "555770cd8aba9782ce060be0a82fb2c6", "type": "electric_scooter", "is_disabled": 0, "lat": 38.936056, "rental_uris": {"ios": "https://dc.lft.to/lastmile_qr_scan", "android": "https://dc.lft.to/lastmile_qr_scan"}, "is_reserved": 0, "fusion_lon": 0.0, "fusion_lat": 0.0, "lon": -77.05859133333334, "name": "555770cd8aba9782ce060be0a82fb2c6"}, {"bike_id": "c0b4be16fe6fb00ece9ae749ca2d004c", "type": "electric_scooter", "is_disabled": 0, "lat": 38.90390983333333, "rental_uris": {"ios": "https://dc.lft.to/lastmile_qr_scan", "android": "https://dc.lft.to/lastmile_qr_scan"}, "is_reserved": 0, "fusion_lon": 0.0, "fusion_lat": 0.0, "lon": -77.0450305, "name": "c0b4be16fe6fb00ece9ae749ca2d004c"}, {"bike_id": "77f346335edb163de1183c9aa026df71", "type": "electric_scooter", "is_disabled": 0, "lat": 38.921216, "rental_uris": {"ios": "https://dc.lft.to/lastmile_qr_scan", "android": "https://dc.lft.to/lastmile_qr_scan"}, "is_reserved": 0, "fusion_lon": 0.0, "fusion_lat": 0.0, "lon": -77.012105, "name": "77f346335edb163de1183c9aa026df71"}, {"bike_id": "730c05cf13df4ffbe15a68c49703cdd2", "type": "electric_bike", "is_disabled": 0, "lat": 38.921090666666665, "rental_uris": {"ios": "https://dc.lft.to/lastmile_qr_scan", "android": "https://dc.lft.to/lastmile_qr_scan"}, "is_reserved": 0, "fusion_lon": 0.0, "fusion_lat": 0.0, "lon": -77.03002833333333, "name": "730c05cf13df4ffbe15a68c49703cdd2"}, {"bike_id": "29131898e9b5562537b6391ed986dd2b", "type": "electric_scooter", "is_disabled": 0, "lat": 38.9173505, "rental_uris": {"ios": "https://dc.lft.to/lastmile_qr_scan", "android": "https://dc.lft.to/lastmile_qr_scan"}, "is_reserved": 0, "fusion_lon": 0.0, "fusion_lat": 0.0, "lon": -77.03203283333333, "name": "29131898e9b5562537b6391ed986dd2b"}, {"bike_id": "ef4ff9bafe533a22f6d117b70e066cd1", "type": "electric_scooter", "is_disabled": 0, "lat": 38.90420133333333, "rental_uris": {"ios": "https://dc.lft.to/lastmile_qr_scan", "android": "https://dc.lft.to/lastmile_qr_scan"}, "is_reserved": 0, "fusion_lon": 0.0, "fusion_lat": 0.0, "lon": -77.0436185, "name": "ef4ff9bafe533a22f6d117b70e066cd1"}, {"bike_id": "1fa5e1d08673756570fa9c6127fe8e2d", "type": "electric_scooter", "is_disabled": 0, "lat": 38.945652833333334, "rental_uris": {"ios": "https://dc.lft.to/lastmile_qr_scan", "android": "https://dc.lft.to/lastmile_qr_scan"}, "is_reserved": 0, "fusion_lon": 0.0, "fusion_lat": 0.0, "lon": -77.03284466666666, "name": "1fa5e1d08673756570fa9c6127fe8e2d"}, {"bike_id": "298009d191b4c3a8a7b4a665d5fc70c8", "type": "electric_scooter", "is_disabled": 0, "lat": 38.927132666666665, "rental_uris": {"ios": "https://dc.lft.to/lastmile_qr_scan", "android": "https://dc.lft.to/lastmile_qr_scan"}, "is_reserved": 0, "fusion_lon": 0.0, "fusion_lat": 0.0, "lon": -77.02095266666667, "name": "298009d191b4c3a8a7b4a665d5fc70c8"}, {"bike_id": "8830b34d7659e632b1f1e9bc42eab321", "type": "electric_scooter", "is_disabled": 0, "lat": 38.89219033333333, "rental_uris": {"ios": "https://dc.lft.to/lastmile_qr_scan", "android": "https://dc.lft.to/lastmile_qr_scan"}, "is_reserved": 0, "fusion_lon": 0.0, "fusion_lat": 0.0, "lon": -77.025809, "name": "8830b34d7659e632b1f1e9bc42eab321"}, {"bike_id": "612c417eec37bb9d2ea9a5a3b9404b71", "type": "electric_scooter", "is_disabled": 0, "lat": 38.880988, "rental_uris": {"ios": "https://dc.lft.to/lastmile_qr_scan", "android": "https://dc.lft.to/lastmile_qr_scan"}, "is_reserved": 0, "fusion_lon": 0.0, "fusion_lat": 0.0, "lon": -76.998447, "name": "612c417eec37bb9d2ea9a5a3b9404b71"}, {"bike_id": "f1b3a33c45bdb67f0c5c7160b1d4f4bd", "type": "electric_scooter", "is_disabled": 0, "lat": 38.92606333333333, "rental_uris": {"ios": "https://dc.lft.to/lastmile_qr_scan", "android": "https://dc.lft.to/lastmile_qr_scan"}, "is_reserved": 0, "fusion_lon": 0.0, "fusion_lat": 0.0, "lon": -77.024118, "name": "f1b3a33c45bdb67f0c5c7160b1d4f4bd"}, {"bike_id": "b1cdd5f8c4f3dd7052ad3833ba93f842", "type": "electric_bike", "is_disabled": 0, "lat": 38.95245633333333, "rental_uris": {"ios": "https://dc.lft.to/lastmile_qr_scan", "android": "https://dc.lft.to/lastmile_qr_scan"}, "is_reserved": 0, "fusion_lon": 0.0, "fusion_lat": 0.0, "lon": -76.976749, "name": "b1cdd5f8c4f3dd7052ad3833ba93f842"}, {"bike_id": "86b833f60c680bb1068ee14aec41d20c", "type": "electric_scooter", "is_disabled": 0, "lat": 38.90601216666666, "rental_uris": {"ios": "https://dc.lft.to/lastmile_qr_scan", "android": "https://dc.lft.to/lastmile_qr_scan"}, "is_reserved": 0, "fusion_lon": 0.0, "fusion_lat": 0.0, "lon": -77.00980666666666, "name": "86b833f60c680bb1068ee14aec41d20c"}, {"bike_id": "90a8446e9d5574f9e8aa8fd2cc43f719", "type": "electric_scooter", "is_disabled": 0, "lat": 38.93541116666667, "rental_uris": {"ios": "https://dc.lft.to/lastmile_qr_scan", "android": "https://dc.lft.to/lastmile_qr_scan"}, "is_reserved": 0, "fusion_lon": 0.0, "fusion_lat": 0.0, "lon": -77.058242, "name": "90a8446e9d5574f9e8aa8fd2cc43f719"}, {"bike_id": "27dcc81ac361d4b7c2db8f83d2ac5e51", "type": "electric_scooter", "is_disabled": 0, "lat": 38.93261366666667, "rental_uris": {"ios": "https://dc.lft.to/lastmile_qr_scan", "android": "https://dc.lft.to/lastmile_qr_scan"}, "is_reserved": 0, "fusion_lon": 0.0, "fusion_lat": 0.0, "lon": -77.01925016666667, "name": "27dcc81ac361d4b7c2db8f83d2ac5e51"}, {"bike_id": "b5f5768cf41bc93843ac013de87d2dc7", "type": "electric_scooter", "is_disabled": 0, "lat": 38.893319, "rental_uris": {"ios": "https://dc.lft.to/lastmile_qr_scan", "android": "https://dc.lft.to/lastmile_qr_scan"}, "is_reserved": 0, "fusion_lon": 0.0, "fusion_lat": 0.0, "lon": -77.02427, "name": "b5f5768cf41bc93843ac013de87d2dc7"}, {"bike_id": "77a9387049bb75533ca89b1838e61149", "type": "electric_scooter", "is_disabled": 0, "lat": 38.938748833333335, "rental_uris": {"ios": "https://dc.lft.to/lastmile_qr_scan", "android": "https://dc.lft.to/lastmile_qr_scan"}, "is_reserved": 0, "fusion_lon": 0.0, "fusion_lat": 0.0, "lon": -77.02923216666667, "name": "77a9387049bb75533ca89b1838e61149"}, {"bike_id": "9fbeeb8309eab3cdf08e7d2ede1e2a25", "type": "electric_scooter", "is_disabled": 0, "lat": 38.920441833333335, "rental_uris": {"ios": "https://dc.lft.to/lastmile_qr_scan", "android": "https://dc.lft.to/lastmile_qr_scan"}, "is_reserved": 0, "fusion_lon": 0.0, "fusion_lat": 0.0, "lon": -77.03479883333333, "name": "9fbeeb8309eab3cdf08e7d2ede1e2a25"}, {"bike_id": "b8053ec1b26ed474c59e001e7a32a889", "type": "electric_scooter", "is_disabled": 0, "lat": 38.88431283333333, "rental_uris": {"ios": "https://dc.lft.to/lastmile_qr_scan", "android": "https://dc.lft.to/lastmile_qr_scan"}, "is_reserved": 0, "fusion_lon": 0.0, "fusion_lat": 0.0, "lon": -77.0257645, "name": "b8053ec1b26ed474c59e001e7a32a889"}, {"bike_id": "4960e9ab8925542f8ba9eb8f485dbdd6", "type": "electric_scooter", "is_disabled": 0, "lat": 38.9331275, "rental_uris": {"ios": "https://dc.lft.to/lastmile_qr_scan", "android": "https://dc.lft.to/lastmile_qr_scan"}, "is_reserved": 0, "fusion_lon": 0.0, "fusion_lat": 0.0, "lon": -77.02753466666667, "name": "4960e9ab8925542f8ba9eb8f485dbdd6"}, {"bike_id": "c4424e819eea5298e0808e5ff3aac368", "type": "electric_scooter", "is_disabled": 0, "lat": 38.920973333333336, "rental_uris": {"ios": "https://dc.lft.to/lastmile_qr_scan", "android": "https://dc.lft.to/lastmile_qr_scan"}, "is_reserved": 0, "fusion_lon": 0.0, "fusion_lat": 0.0, "lon": -77.01723033333333, "name": "c4424e819eea5298e0808e5ff3aac368"}, {"bike_id": "60d7e8a8a17b947599103655058489e8", "type": "electric_scooter", "is_disabled": 0, "lat": 38.91996416666667, "rental_uris": {"ios": "https://dc.lft.to/lastmile_qr_scan", "android": "https://dc.lft.to/lastmile_qr_scan"}, "is_reserved": 0, "fusion_lon": 0.0, "fusion_lat": 0.0, "lon": -77.033018, "name": "60d7e8a8a17b947599103655058489e8"}, {"bike_id": "79e3898e1a9e310d0f4527e1ae5d5780", "type": "electric_scooter", "is_disabled": 0, "lat": 38.909940166666665, "rental_uris": {"ios": "https://dc.lft.to/lastmile_qr_scan", "android": "https://dc.lft.to/lastmile_qr_scan"}, "is_reserved": 0, "fusion_lon": 0.0, "fusion_lat": 0.0, "lon": -77.009166, "name": "79e3898e1a9e310d0f4527e1ae5d5780"}, {"bike_id": "638e833b4c9ee42db104b27e5a449d82", "type": "electric_scooter", "is_disabled": 0, "lat": 38.909699833333335, "rental_uris": {"ios": "https://dc.lft.to/lastmile_qr_scan", "android": "https://dc.lft.to/lastmile_qr_scan"}, "is_reserved": 0, "fusion_lon": 0.0, "fusion_lat": 0.0, "lon": -77.03994433333334, "name": "638e833b4c9ee42db104b27e5a449d82"}, {"bike_id": "432887851c929b88ebe7f2861079f152", "type": "electric_scooter", "is_disabled": 0, "lat": 38.86340883333333, "rental_uris": {"ios": "https://dc.lft.to/lastmile_qr_scan", "android": "https://dc.lft.to/lastmile_qr_scan"}, "is_reserved": 0, "fusion_lon": 0.0, "fusion_lat": 0.0, "lon": -76.98694416666666, "name": "432887851c929b88ebe7f2861079f152"}, {"bike_id": "a932817419281a1dee1ac16cf0991d2c", "type": "electric_scooter", "is_disabled": 0, "lat": 38.87638716666667, "rental_uris": {"ios": "https://dc.lft.to/lastmile_qr_scan", "android": "https://dc.lft.to/lastmile_qr_scan"}, "is_reserved": 0, "fusion_lon": 0.0, "fusion_lat": 0.0, "lon": -77.00456116666666, "name": "a932817419281a1dee1ac16cf0991d2c"}, {"bike_id": "c7481fc8120ea7cbb9b84b97ce1a13c1", "type": "electric_scooter", "is_disabled": 0, "lat": 38.90267883333333, "rental_uris": {"ios": "https://dc.lft.to/lastmile_qr_scan", "android": "https://dc.lft.to/lastmile_qr_scan"}, "is_reserved": 0, "fusion_lon": 0.0, "fusion_lat": 0.0, "lon": -77.01642366666667, "name": "c7481fc8120ea7cbb9b84b97ce1a13c1"}, {"bike_id": "1ceb8c2d625935525ebaa702961c352c", "type": "electric_scooter", "is_disabled": 0, "lat": 38.91602133333333, "rental_uris": {"ios": "https://dc.lft.to/lastmile_qr_scan", "android": "https://dc.lft.to/lastmile_qr_scan"}, "is_reserved": 0, "fusion_lon": 0.0, "fusion_lat": 0.0, "lon": -77.0239955, "name": "1ceb8c2d625935525ebaa702961c352c"}, {"bike_id": "327ff692d1709170a6d627f488128d2e", "type": "electric_scooter", "is_disabled": 0, "lat": 38.909801333333334, "rental_uris": {"ios": "https://dc.lft.to/lastmile_qr_scan", "android": "https://dc.lft.to/lastmile_qr_scan"}, "is_reserved": 0, "fusion_lon": 0.0, "fusion_lat": 0.0, "lon": -77.03190133333334, "name": "327ff692d1709170a6d627f488128d2e"}, {"bike_id": "039dad33bc5d4a5bd841b2ae0433fd20", "type": "electric_scooter", "is_disabled": 0, "lat": 38.90782383333333, "rental_uris": {"ios": "https://dc.lft.to/lastmile_qr_scan", "android": "https://dc.lft.to/lastmile_qr_scan"}, "is_reserved": 0, "fusion_lon": 0.0, "fusion_lat": 0.0, "lon": -77.04251, "name": "039dad33bc5d4a5bd841b2ae0433fd20"}, {"bike_id": "a69c4391a0df799a2e38267a404103b4", "type": "electric_scooter", "is_disabled": 0, "lat": 38.896587333333336, "rental_uris": {"ios": "https://dc.lft.to/lastmile_qr_scan", "android": "https://dc.lft.to/lastmile_qr_scan"}, "is_reserved": 0, "fusion_lon": 0.0, "fusion_lat": 0.0, "lon": -77.02618783333334, "name": "a69c4391a0df799a2e38267a404103b4"}, {"bike_id": "a87783dc2fefa62f4c3660a59bb29cb4", "type": "electric_scooter", "is_disabled": 0, "lat": 38.892661333333336, "rental_uris": {"ios": "https://dc.lft.to/lastmile_qr_scan", "android": "https://dc.lft.to/lastmile_qr_scan"}, "is_reserved": 0, "fusion_lon": 0.0, "fusion_lat": 0.0, "lon": -77.003627, "name": "a87783dc2fefa62f4c3660a59bb29cb4"}, {"bike_id": "9a94f37d7d873207148780604a81eeba", "type": "electric_scooter", "is_disabled": 0, "lat": 38.87091866666667, "rental_uris": {"ios": "https://dc.lft.to/lastmile_qr_scan", "android": "https://dc.lft.to/lastmile_qr_scan"}, "is_reserved": 0, "fusion_lon": 0.0, "fusion_lat": 0.0, "lon": -77.012048, "name": "9a94f37d7d873207148780604a81eeba"}, {"bike_id": "089793b15f1740a56733524bf199ff3c", "type": "electric_scooter", "is_disabled": 0, "lat": 38.91019083333333, "rental_uris": {"ios": "https://dc.lft.to/lastmile_qr_scan", "android": "https://dc.lft.to/lastmile_qr_scan"}, "is_reserved": 0, "fusion_lon": 0.0, "fusion_lat": 0.0, "lon": -77.04173916666667, "name": "089793b15f1740a56733524bf199ff3c"}, {"bike_id": "786d977151596b4884796a93c6d72fb3", "type": "electric_scooter", "is_disabled": 0, "lat": 38.8840375, "rental_uris": {"ios": "https://dc.lft.to/lastmile_qr_scan", "android": "https://dc.lft.to/lastmile_qr_scan"}, "is_reserved": 0, "fusion_lon": 0.0, "fusion_lat": 0.0, "lon": -76.95397566666666, "name": "786d977151596b4884796a93c6d72fb3"}, {"bike_id": "b1d48591f00406ca264c50db79aea8d7", "type": "electric_scooter", "is_disabled": 0, "lat": 38.94037216666667, "rental_uris": {"ios": "https://dc.lft.to/lastmile_qr_scan", "android": "https://dc.lft.to/lastmile_qr_scan"}, "is_reserved": 0, "fusion_lon": 0.0, "fusion_lat": 0.0, "lon": -77.029, "name": "b1d48591f00406ca264c50db79aea8d7"}, {"bike_id": "429476034d96d9aa10042659b8c69115", "type": "electric_bike", "is_disabled": 0, "lat": 38.908347166666665, "rental_uris": {"ios": "https://dc.lft.to/lastmile_qr_scan", "android": "https://dc.lft.to/lastmile_qr_scan"}, "is_reserved": 0, "fusion_lon": 0.0, "fusion_lat": 0.0, "lon": -76.93315066666666, "name": "429476034d96d9aa10042659b8c69115"}, {"bike_id": "73feea9285a678f149861a05cb9947aa", "type": "electric_scooter", "is_disabled": 0, "lat": 38.90411183333333, "rental_uris": {"ios": "https://dc.lft.to/lastmile_qr_scan", "android": "https://dc.lft.to/lastmile_qr_scan"}, "is_reserved": 0, "fusion_lon": 0.0, "fusion_lat": 0.0, "lon": -76.97335066666666, "name": "73feea9285a678f149861a05cb9947aa"}, {"bike_id": "3286431faa7fc30a4909ccd756a6d1bc", "type": "electric_scooter", "is_disabled": 0, "lat": 38.8974005, "rental_uris": {"ios": "https://dc.lft.to/lastmile_qr_scan", "android": "https://dc.lft.to/lastmile_qr_scan"}, "is_reserved": 0, "fusion_lon": 0.0, "fusion_lat": 0.0, "lon": -77.00437666666667, "name": "3286431faa7fc30a4909ccd756a6d1bc"}, {"bike_id": "a5a9747e5c0d8377b0063b62214f3408", "type": "electric_scooter", "is_disabled": 0, "lat": 38.89830966666667, "rental_uris": {"ios": "https://dc.lft.to/lastmile_qr_scan", "android": "https://dc.lft.to/lastmile_qr_scan"}, "is_reserved": 0, "fusion_lon": 0.0, "fusion_lat": 0.0, "lon": -77.02585066666667, "name": "a5a9747e5c0d8377b0063b62214f3408"}, {"bike_id": "841a0aab0948f4d82ed3b698c2878edc", "type": "electric_scooter", "is_disabled": 0, "lat": 38.91301966666666, "rental_uris": {"ios": "https://dc.lft.to/lastmile_qr_scan", "android": "https://dc.lft.to/lastmile_qr_scan"}, "is_reserved": 0, "fusion_lon": 0.0, "fusion_lat": 0.0, "lon": -77.06689483333334, "name": "841a0aab0948f4d82ed3b698c2878edc"}, {"bike_id": "c868203cea28b5b5cd2b604a426e3c46", "type": "electric_scooter", "is_disabled": 0, "lat": 38.9095685, "rental_uris": {"ios": "https://dc.lft.to/lastmile_qr_scan", "android": "https://dc.lft.to/lastmile_qr_scan"}, "is_reserved": 0, "fusion_lon": 0.0, "fusion_lat": 0.0, "lon": -77.04863783333333, "name": "c868203cea28b5b5cd2b604a426e3c46"}, {"bike_id": "1ca4216f5e8b97199a0d80cb885787f6", "type": "electric_scooter", "is_disabled": 0, "lat": 38.92321483333333, "rental_uris": {"ios": "https://dc.lft.to/lastmile_qr_scan", "android": "https://dc.lft.to/lastmile_qr_scan"}, "is_reserved": 0, "fusion_lon": 0.0, "fusion_lat": 0.0, "lon": -77.02141116666667, "name": "1ca4216f5e8b97199a0d80cb885787f6"}, {"bike_id": "50d0cd5c7aa128a61d710f17a329a872", "type": "electric_scooter", "is_disabled": 0, "lat": 38.88933016666667, "rental_uris": {"ios": "https://dc.lft.to/lastmile_qr_scan", "android": "https://dc.lft.to/lastmile_qr_scan"}, "is_reserved": 0, "fusion_lon": 0.0, "fusion_lat": 0.0, "lon": -77.01507033333333, "name": "50d0cd5c7aa128a61d710f17a329a872"}, {"bike_id": "d01d79e7c1163f476aac802cc541f5b4", "type": "electric_scooter", "is_disabled": 0, "lat": 38.95725983333333, "rental_uris": {"ios": "https://dc.lft.to/lastmile_qr_scan", "android": "https://dc.lft.to/lastmile_qr_scan"}, "is_reserved": 0, "fusion_lon": 0.0, "fusion_lat": 0.0, "lon": -77.02398183333334, "name": "d01d79e7c1163f476aac802cc541f5b4"}, {"bike_id": "5fb85c89720975224642e6a2e2805df1", "type": "electric_scooter", "is_disabled": 0, "lat": 38.905182333333336, "rental_uris": {"ios": "https://dc.lft.to/lastmile_qr_scan", "android": "https://dc.lft.to/lastmile_qr_scan"}, "is_reserved": 0, "fusion_lon": 0.0, "fusion_lat": 0.0, "lon": -77.06010366666666, "name": "5fb85c89720975224642e6a2e2805df1"}, {"bike_id": "c371818e211d9ff300562a8f520e9c7f", "type": "electric_scooter", "is_disabled": 0, "lat": 38.917064, "rental_uris": {"ios": "https://dc.lft.to/lastmile_qr_scan", "android": "https://dc.lft.to/lastmile_qr_scan"}, "is_reserved": 0, "fusion_lon": 0.0, "fusion_lat": 0.0, "lon": -77.09580883333334, "name": "c371818e211d9ff300562a8f520e9c7f"}, {"bike_id": "0e7518638b7292da7c42ac6f69e2f2fb", "type": "electric_scooter", "is_disabled": 0, "lat": 38.92193916666667, "rental_uris": {"ios": "https://dc.lft.to/lastmile_qr_scan", "android": "https://dc.lft.to/lastmile_qr_scan"}, "is_reserved": 0, "fusion_lon": 0.0, "fusion_lat": 0.0, "lon": -77.01915466666667, "name": "0e7518638b7292da7c42ac6f69e2f2fb"}, {"bike_id": "3d0539a920536ac95d713e735155fef8", "type": "electric_scooter", "is_disabled": 0, "lat": 38.9514945, "rental_uris": {"ios": "https://dc.lft.to/lastmile_qr_scan", "android": "https://dc.lft.to/lastmile_qr_scan"}, "is_reserved": 0, "fusion_lon": 0.0, "fusion_lat": 0.0, "lon": -77.01865966666666, "name": "3d0539a920536ac95d713e735155fef8"}, {"bike_id": "345cb0dcf8266b577c70430cfbcf774c", "type": "electric_scooter", "is_disabled": 0, "lat": 38.912134333333334, "rental_uris": {"ios": "https://dc.lft.to/lastmile_qr_scan", "android": "https://dc.lft.to/lastmile_qr_scan"}, "is_reserved": 0, "fusion_lon": 0.0, "fusion_lat": 0.0, "lon": -77.0320665, "name": "345cb0dcf8266b577c70430cfbcf774c"}, {"bike_id": "021cb4127147c00881fd30b5da462022", "type": "electric_scooter", "is_disabled": 0, "lat": 38.932668666666665, "rental_uris": {"ios": "https://dc.lft.to/lastmile_qr_scan", "android": "https://dc.lft.to/lastmile_qr_scan"}, "is_reserved": 0, "fusion_lon": 0.0, "fusion_lat": 0.0, "lon": -77.02655216666666, "name": "021cb4127147c00881fd30b5da462022"}, {"bike_id": "92efbbc1c91113650e7bd6ec21f42e93", "type": "electric_scooter", "is_disabled": 0, "lat": 38.86707616666666, "rental_uris": {"ios": "https://dc.lft.to/lastmile_qr_scan", "android": "https://dc.lft.to/lastmile_qr_scan"}, "is_reserved": 0, "fusion_lon": 0.0, "fusion_lat": 0.0, "lon": -76.987283, "name": "92efbbc1c91113650e7bd6ec21f42e93"}, {"bike_id": "417b28281d3443297c53092efe0a34fe", "type": "electric_scooter", "is_disabled": 0, "lat": 38.92076983333333, "rental_uris": {"ios": "https://dc.lft.to/lastmile_qr_scan", "android": "https://dc.lft.to/lastmile_qr_scan"}, "is_reserved": 0, "fusion_lon": 0.0, "fusion_lat": 0.0, "lon": -77.02402616666667, "name": "417b28281d3443297c53092efe0a34fe"}, {"bike_id": "3b63be8f970c70a1ecde17141c741825", "type": "electric_scooter", "is_disabled": 0, "lat": 38.920146833333334, "rental_uris": {"ios": "https://dc.lft.to/lastmile_qr_scan", "android": "https://dc.lft.to/lastmile_qr_scan"}, "is_reserved": 0, "fusion_lon": 0.0, "fusion_lat": 0.0, "lon": -77.02044116666667, "name": "3b63be8f970c70a1ecde17141c741825"}, {"bike_id": "23c11c8e20770b75004db8df1c868c75", "type": "electric_scooter", "is_disabled": 0, "lat": 38.95684683333333, "rental_uris": {"ios": "https://dc.lft.to/lastmile_qr_scan", "android": "https://dc.lft.to/lastmile_qr_scan"}, "is_reserved": 0, "fusion_lon": 0.0, "fusion_lat": 0.0, "lon": -77.02399133333333, "name": "23c11c8e20770b75004db8df1c868c75"}, {"bike_id": "686e9c8841f1e5292e3d231a62949a2f", "type": "electric_scooter", "is_disabled": 0, "lat": 38.9074075, "rental_uris": {"ios": "https://dc.lft.to/lastmile_qr_scan", "android": "https://dc.lft.to/lastmile_qr_scan"}, "is_reserved": 0, "fusion_lon": 0.0, "fusion_lat": 0.0, "lon": -77.042328, "name": "686e9c8841f1e5292e3d231a62949a2f"}, {"bike_id": "453907926c4b679e841bd83239b71f9b", "type": "electric_scooter", "is_disabled": 0, "lat": 38.884795833333335, "rental_uris": {"ios": "https://dc.lft.to/lastmile_qr_scan", "android": "https://dc.lft.to/lastmile_qr_scan"}, "is_reserved": 0, "fusion_lon": 0.0, "fusion_lat": 0.0, "lon": -77.01539616666666, "name": "453907926c4b679e841bd83239b71f9b"}, {"bike_id": "6949a5576de4fdec34316ee74883d4eb", "type": "electric_scooter", "is_disabled": 0, "lat": 38.930691833333334, "rental_uris": {"ios": "https://dc.lft.to/lastmile_qr_scan", "android": "https://dc.lft.to/lastmile_qr_scan"}, "is_reserved": 0, "fusion_lon": 0.0, "fusion_lat": 0.0, "lon": -77.02164733333333, "name": "6949a5576de4fdec34316ee74883d4eb"}, {"bike_id": "a0d7770d32ac2ab99b1dcd120d5693da", "type": "electric_scooter", "is_disabled": 0, "lat": 38.924287666666665, "rental_uris": {"ios": "https://dc.lft.to/lastmile_qr_scan", "android": "https://dc.lft.to/lastmile_qr_scan"}, "is_reserved": 0, "fusion_lon": 0.0, "fusion_lat": 0.0, "lon": -77.02246116666667, "name": "a0d7770d32ac2ab99b1dcd120d5693da"}, {"bike_id": "2b450aa791eaae221faaf0b66b04ce0a", "type": "electric_scooter", "is_disabled": 0, "lat": 38.917050833333334, "rental_uris": {"ios": "https://dc.lft.to/lastmile_qr_scan", "android": "https://dc.lft.to/lastmile_qr_scan"}, "is_reserved": 0, "fusion_lon": 0.0, "fusion_lat": 0.0, "lon": -77.02467416666667, "name": "2b450aa791eaae221faaf0b66b04ce0a"}, {"bike_id": "c4980159ed69fcf8e555d8478887beaa", "type": "electric_scooter", "is_disabled": 0, "lat": 38.874647, "rental_uris": {"ios": "https://dc.lft.to/lastmile_qr_scan", "android": "https://dc.lft.to/lastmile_qr_scan"}, "is_reserved": 0, "fusion_lon": 0.0, "fusion_lat": 0.0, "lon": -77.0189215, "name": "c4980159ed69fcf8e555d8478887beaa"}, {"bike_id": "36297d1983feb9ac4f17b8c75c431cff", "type": "electric_scooter", "is_disabled": 0, "lat": 38.91801933333333, "rental_uris": {"ios": "https://dc.lft.to/lastmile_qr_scan", "android": "https://dc.lft.to/lastmile_qr_scan"}, "is_reserved": 0, "fusion_lon": 0.0, "fusion_lat": 0.0, "lon": -77.0456235, "name": "36297d1983feb9ac4f17b8c75c431cff"}, {"bike_id": "102e4df032cc812d1db7b588d2b1dab1", "type": "electric_scooter", "is_disabled": 0, "lat": 38.916231333333336, "rental_uris": {"ios": "https://dc.lft.to/lastmile_qr_scan", "android": "https://dc.lft.to/lastmile_qr_scan"}, "is_reserved": 0, "fusion_lon": 0.0, "fusion_lat": 0.0, "lon": -77.037427, "name": "102e4df032cc812d1db7b588d2b1dab1"}, {"bike_id": "dfe5aa11bfec2991fa4bbee0c00942d2", "type": "electric_scooter", "is_disabled": 0, "lat": 38.908365, "rental_uris": {"ios": "https://dc.lft.to/lastmile_qr_scan", "android": "https://dc.lft.to/lastmile_qr_scan"}, "is_reserved": 0, "fusion_lon": 0.0, "fusion_lat": 0.0, "lon": -77.0093365, "name": "dfe5aa11bfec2991fa4bbee0c00942d2"}, {"bike_id": "a397be03dc28f73128a613f4a0186ab2", "type": "electric_scooter", "is_disabled": 0, "lat": 38.9191045, "rental_uris": {"ios": "https://dc.lft.to/lastmile_qr_scan", "android": "https://dc.lft.to/lastmile_qr_scan"}, "is_reserved": 0, "fusion_lon": 0.0, "fusion_lat": 0.0, "lon": -77.03219483333334, "name": "a397be03dc28f73128a613f4a0186ab2"}, {"bike_id": "1249769298349fbf25d74949ce5d666c", "type": "electric_scooter", "is_disabled": 0, "lat": 38.957289833333334, "rental_uris": {"ios": "https://dc.lft.to/lastmile_qr_scan", "android": "https://dc.lft.to/lastmile_qr_scan"}, "is_reserved": 0, "fusion_lon": 0.0, "fusion_lat": 0.0, "lon": -77.02401366666666, "name": "1249769298349fbf25d74949ce5d666c"}, {"bike_id": "792eeed0450ed03caffd79e47ba8ba9f", "type": "electric_scooter", "is_disabled": 0, "lat": 38.916163833333336, "rental_uris": {"ios": "https://dc.lft.to/lastmile_qr_scan", "android": "https://dc.lft.to/lastmile_qr_scan"}, "is_reserved": 0, "fusion_lon": 0.0, "fusion_lat": 0.0, "lon": -77.04608833333333, "name": "792eeed0450ed03caffd79e47ba8ba9f"}, {"bike_id": "36e4543d1a1976cae8040ecb582f4d2a", "type": "electric_scooter", "is_disabled": 0, "lat": 38.882417, "rental_uris": {"ios": "https://dc.lft.to/lastmile_qr_scan", "android": "https://dc.lft.to/lastmile_qr_scan"}, "is_reserved": 0, "fusion_lon": 0.0, "fusion_lat": 0.0, "lon": -76.9912345, "name": "36e4543d1a1976cae8040ecb582f4d2a"}, {"bike_id": "fb39ee363d117564e95de07badbfafb4", "type": "electric_scooter", "is_disabled": 0, "lat": 38.90724933333333, "rental_uris": {"ios": "https://dc.lft.to/lastmile_qr_scan", "android": "https://dc.lft.to/lastmile_qr_scan"}, "is_reserved": 0, "fusion_lon": 0.0, "fusion_lat": 0.0, "lon": -77.02894716666667, "name": "fb39ee363d117564e95de07badbfafb4"}, {"bike_id": "48d9b43784128c3c8ec1b4ff93b8e2d7", "type": "electric_scooter", "is_disabled": 0, "lat": 38.902714833333334, "rental_uris": {"ios": "https://dc.lft.to/lastmile_qr_scan", "android": "https://dc.lft.to/lastmile_qr_scan"}, "is_reserved": 0, "fusion_lon": 0.0, "fusion_lat": 0.0, "lon": -77.03977416666666, "name": "48d9b43784128c3c8ec1b4ff93b8e2d7"}, {"bike_id": "96b8fb127c646160eff4d374b9fa5336", "type": "electric_scooter", "is_disabled": 0, "lat": 38.91266266666667, "rental_uris": {"ios": "https://dc.lft.to/lastmile_qr_scan", "android": "https://dc.lft.to/lastmile_qr_scan"}, "is_reserved": 0, "fusion_lon": 0.0, "fusion_lat": 0.0, "lon": -77.073437, "name": "96b8fb127c646160eff4d374b9fa5336"}, {"bike_id": "328ecbcca774a28fce3892b3738f348d", "type": "electric_scooter", "is_disabled": 0, "lat": 38.917051, "rental_uris": {"ios": "https://dc.lft.to/lastmile_qr_scan", "android": "https://dc.lft.to/lastmile_qr_scan"}, "is_reserved": 0, "fusion_lon": 0.0, "fusion_lat": 0.0, "lon": -77.029748, "name": "328ecbcca774a28fce3892b3738f348d"}, {"bike_id": "b202d6b84467efe36aca8f2cfcbbc881", "type": "electric_scooter", "is_disabled": 0, "lat": 38.902638833333334, "rental_uris": {"ios": "https://dc.lft.to/lastmile_qr_scan", "android": "https://dc.lft.to/lastmile_qr_scan"}, "is_reserved": 0, "fusion_lon": 0.0, "fusion_lat": 0.0, "lon": -77.04859983333333, "name": "b202d6b84467efe36aca8f2cfcbbc881"}, {"bike_id": "7d816019cb55cd8493bbf9153e2c1f2d", "type": "electric_scooter", "is_disabled": 0, "lat": 38.9234325, "rental_uris": {"ios": "https://dc.lft.to/lastmile_qr_scan", "android": "https://dc.lft.to/lastmile_qr_scan"}, "is_reserved": 0, "fusion_lon": 0.0, "fusion_lat": 0.0, "lon": -77.05073066666667, "name": "7d816019cb55cd8493bbf9153e2c1f2d"}, {"bike_id": "0925ba4746b6da887e4576fdd99c973c", "type": "electric_scooter", "is_disabled": 0, "lat": 38.905468166666665, "rental_uris": {"ios": "https://dc.lft.to/lastmile_qr_scan", "android": "https://dc.lft.to/lastmile_qr_scan"}, "is_reserved": 0, "fusion_lon": 0.0, "fusion_lat": 0.0, "lon": -77.04651466666667, "name": "0925ba4746b6da887e4576fdd99c973c"}, {"bike_id": "ab15f3043bf5ed293ba82a456643dc94", "type": "electric_scooter", "is_disabled": 0, "lat": 38.941781166666665, "rental_uris": {"ios": "https://dc.lft.to/lastmile_qr_scan", "android": "https://dc.lft.to/lastmile_qr_scan"}, "is_reserved": 0, "fusion_lon": 0.0, "fusion_lat": 0.0, "lon": -77.02491066666667, "name": "ab15f3043bf5ed293ba82a456643dc94"}, {"bike_id": "896fc1f9765365ab11d3ac61b2b77ba0", "type": "electric_scooter", "is_disabled": 0, "lat": 38.92914416666667, "rental_uris": {"ios": "https://dc.lft.to/lastmile_qr_scan", "android": "https://dc.lft.to/lastmile_qr_scan"}, "is_reserved": 0, "fusion_lon": 0.0, "fusion_lat": 0.0, "lon": -77.036215, "name": "896fc1f9765365ab11d3ac61b2b77ba0"}, {"bike_id": "42093d66eac14d4f353b40fa8d4416f6", "type": "electric_scooter", "is_disabled": 0, "lat": 38.88760383333333, "rental_uris": {"ios": "https://dc.lft.to/lastmile_qr_scan", "android": "https://dc.lft.to/lastmile_qr_scan"}, "is_reserved": 0, "fusion_lon": 0.0, "fusion_lat": 0.0, "lon": -76.95598483333333, "name": "42093d66eac14d4f353b40fa8d4416f6"}, {"bike_id": "66f1ad64b3c69b660fea84fdd1b6b8d3", "type": "electric_bike", "is_disabled": 0, "lat": 38.933631, "rental_uris": {"ios": "https://dc.lft.to/lastmile_qr_scan", "android": "https://dc.lft.to/lastmile_qr_scan"}, "is_reserved": 0, "fusion_lon": 0.0, "fusion_lat": 0.0, "lon": -77.03530066666667, "name": "66f1ad64b3c69b660fea84fdd1b6b8d3"}, {"bike_id": "efd55eb84f66e6b5e3079894845f655e", "type": "electric_scooter", "is_disabled": 0, "lat": 38.914171333333336, "rental_uris": {"ios": "https://dc.lft.to/lastmile_qr_scan", "android": "https://dc.lft.to/lastmile_qr_scan"}, "is_reserved": 0, "fusion_lon": 0.0, "fusion_lat": 0.0, "lon": -77.04495983333334, "name": "efd55eb84f66e6b5e3079894845f655e"}, {"bike_id": "8f22fbca0cb25f014a0019059058e521", "type": "electric_bike", "is_disabled": 0, "lat": 38.947811, "rental_uris": {"ios": "https://dc.lft.to/lastmile_qr_scan", "android": "https://dc.lft.to/lastmile_qr_scan"}, "is_reserved": 0, "fusion_lon": 0.0, "fusion_lat": 0.0, "lon": -76.972106, "name": "8f22fbca0cb25f014a0019059058e521"}, {"bike_id": "4cb5a3e31639db55ee5e4bfb1e0110be", "type": "electric_bike", "is_disabled": 0, "lat": 39.024327666666665, "rental_uris": {"ios": "https://dc.lft.to/lastmile_qr_scan", "android": "https://dc.lft.to/lastmile_qr_scan"}, "is_reserved": 0, "fusion_lon": 0.0, "fusion_lat": 0.0, "lon": -77.13101333333333, "name": "4cb5a3e31639db55ee5e4bfb1e0110be"}, {"bike_id": "5efc1c89223dd52f6dd1d829075c60ed", "type": "electric_scooter", "is_disabled": 0, "lat": 38.90472616666667, "rental_uris": {"ios": "https://dc.lft.to/lastmile_qr_scan", "android": "https://dc.lft.to/lastmile_qr_scan"}, "is_reserved": 0, "fusion_lon": 0.0, "fusion_lat": 0.0, "lon": -77.05343033333334, "name": "5efc1c89223dd52f6dd1d829075c60ed"}, {"bike_id": "f32b74ee270b7474bdf5b6fdeccf6c4f", "type": "electric_scooter", "is_disabled": 0, "lat": 38.90577416666667, "rental_uris": {"ios": "https://dc.lft.to/lastmile_qr_scan", "android": "https://dc.lft.to/lastmile_qr_scan"}, "is_reserved": 0, "fusion_lon": 0.0, "fusion_lat": 0.0, "lon": -77.04477133333333, "name": "f32b74ee270b7474bdf5b6fdeccf6c4f"}, {"bike_id": "67662d70e8e38c354117a3a351ba1690", "type": "electric_scooter", "is_disabled": 0, "lat": 38.93212466666667, "rental_uris": {"ios": "https://dc.lft.to/lastmile_qr_scan", "android": "https://dc.lft.to/lastmile_qr_scan"}, "is_reserved": 0, "fusion_lon": 0.0, "fusion_lat": 0.0, "lon": -77.02969383333334, "name": "67662d70e8e38c354117a3a351ba1690"}, {"bike_id": "636e249672ef09225403f373cdde8014", "type": "electric_bike", "is_disabled": 0, "lat": 38.8729475, "rental_uris": {"ios": "https://dc.lft.to/lastmile_qr_scan", "android": "https://dc.lft.to/lastmile_qr_scan"}, "is_reserved": 0, "fusion_lon": 0.0, "fusion_lat": 0.0, "lon": -77.13918133333334, "name": "636e249672ef09225403f373cdde8014"}, {"bike_id": "1ad33a80ba84fc0f567bc15db5f8fca8", "type": "electric_scooter", "is_disabled": 0, "lat": 38.897111, "rental_uris": {"ios": "https://dc.lft.to/lastmile_qr_scan", "android": "https://dc.lft.to/lastmile_qr_scan"}, "is_reserved": 0, "fusion_lon": 0.0, "fusion_lat": 0.0, "lon": -77.00768883333333, "name": "1ad33a80ba84fc0f567bc15db5f8fca8"}, {"bike_id": "c6dc887ad5523eb1444c42e1f4b336ca", "type": "electric_scooter", "is_disabled": 0, "lat": 38.91972166666667, "rental_uris": {"ios": "https://dc.lft.to/lastmile_qr_scan", "android": "https://dc.lft.to/lastmile_qr_scan"}, "is_reserved": 0, "fusion_lon": 0.0, "fusion_lat": 0.0, "lon": -77.04441883333334, "name": "c6dc887ad5523eb1444c42e1f4b336ca"}, {"bike_id": "8a5582e918984d6c505c57544a17dc26", "type": "electric_scooter", "is_disabled": 0, "lat": 38.94199366666667, "rental_uris": {"ios": "https://dc.lft.to/lastmile_qr_scan", "android": "https://dc.lft.to/lastmile_qr_scan"}, "is_reserved": 0, "fusion_lon": 0.0, "fusion_lat": 0.0, "lon": -77.023497, "name": "8a5582e918984d6c505c57544a17dc26"}, {"bike_id": "d592aa59f518f20cd5870be4baa7c2aa", "type": "electric_scooter", "is_disabled": 0, "lat": 38.9104685, "rental_uris": {"ios": "https://dc.lft.to/lastmile_qr_scan", "android": "https://dc.lft.to/lastmile_qr_scan"}, "is_reserved": 0, "fusion_lon": 0.0, "fusion_lat": 0.0, "lon": -77.04494633333333, "name": "d592aa59f518f20cd5870be4baa7c2aa"}, {"bike_id": "1f567312263b675e381c40162fc41d16", "type": "electric_bike", "is_disabled": 0, "lat": 38.874925833333336, "rental_uris": {"ios": "https://dc.lft.to/lastmile_qr_scan", "android": "https://dc.lft.to/lastmile_qr_scan"}, "is_reserved": 0, "fusion_lon": 0.0, "fusion_lat": 0.0, "lon": -77.0082935, "name": "1f567312263b675e381c40162fc41d16"}, {"bike_id": "13a070c0ad203826580d279ac8f55816", "type": "electric_scooter", "is_disabled": 0, "lat": 38.87371366666667, "rental_uris": {"ios": "https://dc.lft.to/lastmile_qr_scan", "android": "https://dc.lft.to/lastmile_qr_scan"}, "is_reserved": 0, "fusion_lon": 0.0, "fusion_lat": 0.0, "lon": -77.0014575, "name": "13a070c0ad203826580d279ac8f55816"}, {"bike_id": "07c0988d72fe5d81782a59f52af7cb51", "type": "electric_scooter", "is_disabled": 0, "lat": 38.93672133333333, "rental_uris": {"ios": "https://dc.lft.to/lastmile_qr_scan", "android": "https://dc.lft.to/lastmile_qr_scan"}, "is_reserved": 0, "fusion_lon": 0.0, "fusion_lat": 0.0, "lon": -77.03588766666667, "name": "07c0988d72fe5d81782a59f52af7cb51"}, {"bike_id": "7d07fc3ab0afba8bc2c7f932541afde7", "type": "electric_scooter", "is_disabled": 0, "lat": 38.9361615, "rental_uris": {"ios": "https://dc.lft.to/lastmile_qr_scan", "android": "https://dc.lft.to/lastmile_qr_scan"}, "is_reserved": 0, "fusion_lon": 0.0, "fusion_lat": 0.0, "lon": -77.0675695, "name": "7d07fc3ab0afba8bc2c7f932541afde7"}, {"bike_id": "f420b720f9ee1d9c9c0c75cb0b868b6a", "type": "electric_scooter", "is_disabled": 0, "lat": 38.918828833333336, "rental_uris": {"ios": "https://dc.lft.to/lastmile_qr_scan", "android": "https://dc.lft.to/lastmile_qr_scan"}, "is_reserved": 0, "fusion_lon": 0.0, "fusion_lat": 0.0, "lon": -77.04447633333334, "name": "f420b720f9ee1d9c9c0c75cb0b868b6a"}, {"bike_id": "17f0323b3293382e6a968878eb1a2485", "type": "electric_scooter", "is_disabled": 0, "lat": 38.899446, "rental_uris": {"ios": "https://dc.lft.to/lastmile_qr_scan", "android": "https://dc.lft.to/lastmile_qr_scan"}, "is_reserved": 0, "fusion_lon": 0.0, "fusion_lat": 0.0, "lon": -77.0211315, "name": "17f0323b3293382e6a968878eb1a2485"}, {"bike_id": "425cb0a517516e006f78472b3e248def", "type": "electric_scooter", "is_disabled": 0, "lat": 38.90706016666667, "rental_uris": {"ios": "https://dc.lft.to/lastmile_qr_scan", "android": "https://dc.lft.to/lastmile_qr_scan"}, "is_reserved": 0, "fusion_lon": 0.0, "fusion_lat": 0.0, "lon": -77.03205966666667, "name": "425cb0a517516e006f78472b3e248def"}, {"bike_id": "62b8fd346a9860fce3f186e826a03e6e", "type": "electric_scooter", "is_disabled": 0, "lat": 38.94988266666667, "rental_uris": {"ios": "https://dc.lft.to/lastmile_qr_scan", "android": "https://dc.lft.to/lastmile_qr_scan"}, "is_reserved": 0, "fusion_lon": 0.0, "fusion_lat": 0.0, "lon": -77.027095, "name": "62b8fd346a9860fce3f186e826a03e6e"}, {"bike_id": "92c12b3723d93cb86bf5e16af7f358c9", "type": "electric_scooter", "is_disabled": 0, "lat": 38.90411566666667, "rental_uris": {"ios": "https://dc.lft.to/lastmile_qr_scan", "android": "https://dc.lft.to/lastmile_qr_scan"}, "is_reserved": 0, "fusion_lon": 0.0, "fusion_lat": 0.0, "lon": -76.9733005, "name": "92c12b3723d93cb86bf5e16af7f358c9"}, {"bike_id": "4a98ee51f490663e9271dad43422112b", "type": "electric_scooter", "is_disabled": 0, "lat": 38.881717, "rental_uris": {"ios": "https://dc.lft.to/lastmile_qr_scan", "android": "https://dc.lft.to/lastmile_qr_scan"}, "is_reserved": 0, "fusion_lon": 0.0, "fusion_lat": 0.0, "lon": -77.03577133333333, "name": "4a98ee51f490663e9271dad43422112b"}, {"bike_id": "b6fbfd546b69894f8de8e0fc981ea7ae", "type": "electric_scooter", "is_disabled": 0, "lat": 38.9136345, "rental_uris": {"ios": "https://dc.lft.to/lastmile_qr_scan", "android": "https://dc.lft.to/lastmile_qr_scan"}, "is_reserved": 0, "fusion_lon": 0.0, "fusion_lat": 0.0, "lon": -77.04554733333333, "name": "b6fbfd546b69894f8de8e0fc981ea7ae"}, {"bike_id": "aa5f4a118fbc84a5d5d7908e149176c7", "type": "electric_scooter", "is_disabled": 0, "lat": 38.9056885, "rental_uris": {"ios": "https://dc.lft.to/lastmile_qr_scan", "android": "https://dc.lft.to/lastmile_qr_scan"}, "is_reserved": 0, "fusion_lon": 0.0, "fusion_lat": 0.0, "lon": -77.02210183333334, "name": "aa5f4a118fbc84a5d5d7908e149176c7"}, {"bike_id": "0da550eaf015f748d05c3f18486c9100", "type": "electric_scooter", "is_disabled": 0, "lat": 38.87819966666667, "rental_uris": {"ios": "https://dc.lft.to/lastmile_qr_scan", "android": "https://dc.lft.to/lastmile_qr_scan"}, "is_reserved": 0, "fusion_lon": 0.0, "fusion_lat": 0.0, "lon": -76.931032, "name": "0da550eaf015f748d05c3f18486c9100"}, {"bike_id": "d6819bd74925d05f18b1a3493e57dfa2", "type": "electric_bike", "is_disabled": 0, "lat": 38.872948, "rental_uris": {"ios": "https://dc.lft.to/lastmile_qr_scan", "android": "https://dc.lft.to/lastmile_qr_scan"}, "is_reserved": 0, "fusion_lon": 0.0, "fusion_lat": 0.0, "lon": -76.96981133333334, "name": "d6819bd74925d05f18b1a3493e57dfa2"}, {"bike_id": "adde8e830eb810e5b54e3a2b4fa49c89", "type": "electric_scooter", "is_disabled": 0, "lat": 38.831416833333336, "rental_uris": {"ios": "https://dc.lft.to/lastmile_qr_scan", "android": "https://dc.lft.to/lastmile_qr_scan"}, "is_reserved": 0, "fusion_lon": 0.0, "fusion_lat": 0.0, "lon": -77.05128566666667, "name": "adde8e830eb810e5b54e3a2b4fa49c89"}, {"bike_id": "c62387a895ca9db8124811ad716e47fa", "type": "electric_scooter", "is_disabled": 0, "lat": 38.8793565, "rental_uris": {"ios": "https://dc.lft.to/lastmile_qr_scan", "android": "https://dc.lft.to/lastmile_qr_scan"}, "is_reserved": 0, "fusion_lon": 0.0, "fusion_lat": 0.0, "lon": -77.00062033333333, "name": "c62387a895ca9db8124811ad716e47fa"}, {"bike_id": "3b95b9a6fb3391a81d46eca539a851e7", "type": "electric_scooter", "is_disabled": 0, "lat": 38.9073275, "rental_uris": {"ios": "https://dc.lft.to/lastmile_qr_scan", "android": "https://dc.lft.to/lastmile_qr_scan"}, "is_reserved": 0, "fusion_lon": 0.0, "fusion_lat": 0.0, "lon": -76.979723, "name": "3b95b9a6fb3391a81d46eca539a851e7"}, {"bike_id": "c0b3ffcdcb9cf16909d9e959b9afd39f", "type": "electric_bike", "is_disabled": 0, "lat": 38.89959783333333, "rental_uris": {"ios": "https://dc.lft.to/lastmile_qr_scan", "android": "https://dc.lft.to/lastmile_qr_scan"}, "is_reserved": 0, "fusion_lon": 0.0, "fusion_lat": 0.0, "lon": -76.9867035, "name": "c0b3ffcdcb9cf16909d9e959b9afd39f"}, {"bike_id": "873a93fd7c39990d1f6219f074f588cb", "type": "electric_scooter", "is_disabled": 0, "lat": 38.8737625, "rental_uris": {"ios": "https://dc.lft.to/lastmile_qr_scan", "android": "https://dc.lft.to/lastmile_qr_scan"}, "is_reserved": 0, "fusion_lon": 0.0, "fusion_lat": 0.0, "lon": -77.00155566666666, "name": "873a93fd7c39990d1f6219f074f588cb"}, {"bike_id": "26daa35078774528dd5ce25d5182255d", "type": "electric_scooter", "is_disabled": 0, "lat": 38.863878, "rental_uris": {"ios": "https://dc.lft.to/lastmile_qr_scan", "android": "https://dc.lft.to/lastmile_qr_scan"}, "is_reserved": 0, "fusion_lon": 0.0, "fusion_lat": 0.0, "lon": -76.99043383333333, "name": "26daa35078774528dd5ce25d5182255d"}, {"bike_id": "558848c5e268960114cb8c678a429148", "type": "electric_scooter", "is_disabled": 0, "lat": 38.9055815, "rental_uris": {"ios": "https://dc.lft.to/lastmile_qr_scan", "android": "https://dc.lft.to/lastmile_qr_scan"}, "is_reserved": 0, "fusion_lon": 0.0, "fusion_lat": 0.0, "lon": -77.04179833333333, "name": "558848c5e268960114cb8c678a429148"}, {"bike_id": "164f0e449f65f6ef0a90e57b9a9304fd", "type": "electric_scooter", "is_disabled": 0, "lat": 38.900466, "rental_uris": {"ios": "https://dc.lft.to/lastmile_qr_scan", "android": "https://dc.lft.to/lastmile_qr_scan"}, "is_reserved": 0, "fusion_lon": 0.0, "fusion_lat": 0.0, "lon": -76.91938783333333, "name": "164f0e449f65f6ef0a90e57b9a9304fd"}, {"bike_id": "2b560b7a8cf2ff8cb4fdc785d473c8d3", "type": "electric_bike", "is_disabled": 0, "lat": 38.801275833333335, "rental_uris": {"ios": "https://dc.lft.to/lastmile_qr_scan", "android": "https://dc.lft.to/lastmile_qr_scan"}, "is_reserved": 0, "fusion_lon": 0.0, "fusion_lat": 0.0, "lon": -77.070465, "name": "2b560b7a8cf2ff8cb4fdc785d473c8d3"}, {"bike_id": "17ce33cdf2d216d70bc12361d2ba7979", "type": "electric_scooter", "is_disabled": 0, "lat": 38.909897666666666, "rental_uris": {"ios": "https://dc.lft.to/lastmile_qr_scan", "android": "https://dc.lft.to/lastmile_qr_scan"}, "is_reserved": 0, "fusion_lon": 0.0, "fusion_lat": 0.0, "lon": -77.033636, "name": "17ce33cdf2d216d70bc12361d2ba7979"}, {"bike_id": "7c114adc6dbe956f713f34c7d4a5feb7", "type": "electric_scooter", "is_disabled": 0, "lat": 38.925771, "rental_uris": {"ios": "https://dc.lft.to/lastmile_qr_scan", "android": "https://dc.lft.to/lastmile_qr_scan"}, "is_reserved": 0, "fusion_lon": 0.0, "fusion_lat": 0.0, "lon": -77.0275915, "name": "7c114adc6dbe956f713f34c7d4a5feb7"}, {"bike_id": "20505a1a61b510eb2ba6882a5194507a", "type": "electric_scooter", "is_disabled": 0, "lat": 38.899151, "rental_uris": {"ios": "https://dc.lft.to/lastmile_qr_scan", "android": "https://dc.lft.to/lastmile_qr_scan"}, "is_reserved": 0, "fusion_lon": 0.0, "fusion_lat": 0.0, "lon": -76.93410983333334, "name": "20505a1a61b510eb2ba6882a5194507a"}, {"bike_id": "1906ee02c6f4bf7af3f6f4f9a60e80b9", "type": "electric_scooter", "is_disabled": 0, "lat": 38.937104, "rental_uris": {"ios": "https://dc.lft.to/lastmile_qr_scan", "android": "https://dc.lft.to/lastmile_qr_scan"}, "is_reserved": 0, "fusion_lon": 0.0, "fusion_lat": 0.0, "lon": -77.03636966666667, "name": "1906ee02c6f4bf7af3f6f4f9a60e80b9"}, {"bike_id": "7f200e751ad5c4ff12e7acf216688ad3", "type": "electric_scooter", "is_disabled": 0, "lat": 38.83366383333333, "rental_uris": {"ios": "https://dc.lft.to/lastmile_qr_scan", "android": "https://dc.lft.to/lastmile_qr_scan"}, "is_reserved": 0, "fusion_lon": 0.0, "fusion_lat": 0.0, "lon": -76.996599, "name": "7f200e751ad5c4ff12e7acf216688ad3"}, {"bike_id": "453051c9d19fdec1cc7cefa4083e95ab", "type": "electric_scooter", "is_disabled": 0, "lat": 38.92667683333333, "rental_uris": {"ios": "https://dc.lft.to/lastmile_qr_scan", "android": "https://dc.lft.to/lastmile_qr_scan"},