{"data": {"bikes": [{"rental_uris": {"android": "https://dc.lft.to/lastmile_qr_scan", "ios": "https://dc.lft.to/lastmile_qr_scan"}, "is_reserved": 0, "is_disabled": 0, "name": "1501690f9a5cc4f67dd7769d16248583", "bike_id": "1501690f9a5cc4f67dd7769d16248583", "fusion_lat": 0.0, "lon": -77.03190316666667, "type": "electric_scooter", "fusion_lon": 0.0, "lat": 38.922543166666664}, {"rental_uris": {"android": "https://dc.lft.to/lastmile_qr_scan", "ios": "https://dc.lft.to/lastmile_qr_scan"}, "is_reserved": 0, "is_disabled": 0, "name": "1aafb0e2e5041ee6bd8cd0854fad568f", "bike_id": "1aafb0e2e5041ee6bd8cd0854fad568f", "fusion_lat": 0.0, "lon": -77.0899365, "type": "electric_bike", "fusion_lon": 0.0, "lat": 38.90905216666667}, {"rental_uris": {"android": "https://dc.lft.to/lastmile_qr_scan", "ios": "https://dc.lft.to/lastmile_qr_scan"}, "is_reserved": 0, "is_disabled": 0, "name": "27093f4657c64960cb58fff1ae39fac2", "bike_id": "27093f4657c64960cb58fff1ae39fac2", "fusion_lat": 0.0, "lon": -77.03198033333334, "type": "electric_scooter", "fusion_lon": 0.0, "lat": 38.91837916666667}, {"rental_uris": {"android": "https://dc.lft.to/lastmile_qr_scan", "ios": "https://dc.lft.to/lastmile_qr_scan"}, "is_reserved": 0, "is_disabled": 0, "name": "abc226a591dc7a0235b82493b0c1e7e6", "bike_id": "abc226a591dc7a0235b82493b0c1e7e6", "fusion_lat": 0.0, "lon": -77.027695, "type": "electric_scooter", "fusion_lon": 0.0, "lat": 38.962172333333335}, {"rental_uris": {"android": "https://dc.lft.to/lastmile_qr_scan", "ios": "https://dc.lft.to/lastmile_qr_scan"}, "is_reserved": 0, "is_disabled": 0, "name": "4e0cc528c515c4cf5697be1e5192049e", "bike_id": "4e0cc528c515c4cf5697be1e5192049e", "fusion_lat": 0.0, "lon": -77.03853166666667, "type": "electric_scooter", "fusion_lon": 0.0, "lat": 38.919661833333336}, {"rental_uris": {"android": "https://dc.lft.to/lastmile_qr_scan", "ios": "https://dc.lft.to/lastmile_qr_scan"}, "is_reserved": 0, "is_disabled": 0, "name": "b4e3339e9566563a0bab14684ecb6ac2", "bike_id": "b4e3339e9566563a0bab14684ecb6ac2", "fusion_lat": 0.0, "lon": -76.95353833333333, "type": "electric_scooter", "fusion_lon": 0.0, "lat": 38.8896045}, {"rental_uris": {"android": "https://dc.lft.to/lastmile_qr_scan", "ios": "https://dc.lft.to/lastmile_qr_scan"}, "is_reserved": 0, "is_disabled": 0, "name": "dfdba50bb0a6c8e408694ca812e37d1d", "bike_id": "dfdba50bb0a6c8e408694ca812e37d1d", "fusion_lat": 0.0, "lon": -76.99790616666667, "type": "electric_scooter", "fusion_lon": 0.0, "lat": 38.921803833333335}, {"rental_uris": {"android": "https://dc.lft.to/lastmile_qr_scan", "ios": "https://dc.lft.to/lastmile_qr_scan"}, "is_reserved": 0, "is_disabled": 0, "name": "902e57029a4cf3058678cd0d6b2b45d2", "bike_id": "902e57029a4cf3058678cd0d6b2b45d2", "fusion_lat": 0.0, "lon": -76.94250266666667, "type": "electric_scooter", "fusion_lon": 0.0, "lat": 38.898450833333335}, {"rental_uris": {"android": "https://dc.lft.to/lastmile_qr_scan", "ios": "https://dc.lft.to/lastmile_qr_scan"}, "is_reserved": 0, "is_disabled": 0, "name": "5dc4845527dca31b6ec8525eef9188eb", "bike_id": "5dc4845527dca31b6ec8525eef9188eb", "fusion_lat": 0.0, "lon": -77.02880816666666, "type": "electric_scooter", "fusion_lon": 0.0, "lat": 38.91350116666667}, {"rental_uris": {"android": "https://dc.lft.to/lastmile_qr_scan", "ios": "https://dc.lft.to/lastmile_qr_scan"}, "is_reserved": 0, "is_disabled": 0, "name": "93f4c48c4ba2945ff5dcd614e0cb3e36", "bike_id": "93f4c48c4ba2945ff5dcd614e0cb3e36", "fusion_lat": 0.0, "lon": -77.00343283333333, "type": "electric_scooter", "fusion_lon": 0.0, "lat": 38.90362366666667}, {"rental_uris": {"android": "https://dc.lft.to/lastmile_qr_scan", "ios": "https://dc.lft.to/lastmile_qr_scan"}, "is_reserved": 0, "is_disabled": 0, "name": "e45a458c78b1b889f9c7c4c659479aeb", "bike_id": "e45a458c78b1b889f9c7c4c659479aeb", "fusion_lat": 0.0, "lon": -77.03468, "type": "electric_scooter", "fusion_lon": 0.0, "lat": 38.907234833333334}, {"rental_uris": {"android": "https://dc.lft.to/lastmile_qr_scan", "ios": "https://dc.lft.to/lastmile_qr_scan"}, "is_reserved": 0, "is_disabled": 0, "name": "6a2131330607b0965af22ed043392044", "bike_id": "6a2131330607b0965af22ed043392044", "fusion_lat": 0.0, "lon": -76.996916, "type": "electric_bike", "fusion_lon": 0.0, "lat": 38.83865016666667}, {"rental_uris": {"android": "https://dc.lft.to/lastmile_qr_scan", "ios": "https://dc.lft.to/lastmile_qr_scan"}, "is_reserved": 0, "is_disabled": 0, "name": "52f7625451ac0144a1e29036f11f5eb5", "bike_id": "52f7625451ac0144a1e29036f11f5eb5", "fusion_lat": 0.0, "lon": -77.02115183333333, "type": "electric_scooter", "fusion_lon": 0.0, "lat": 38.917399}, {"rental_uris": {"android": "https://dc.lft.to/lastmile_qr_scan", "ios": "https://dc.lft.to/lastmile_qr_scan"}, "is_reserved": 0, "is_disabled": 0, "name": "99fdc77cca834402a3eebd39bbea0511", "bike_id": "99fdc77cca834402a3eebd39bbea0511", "fusion_lat": 0.0, "lon": -76.992776, "type": "electric_bike", "fusion_lon": 0.0, "lat": 38.972618}, {"rental_uris": {"android": "https://dc.lft.to/lastmile_qr_scan", "ios": "https://dc.lft.to/lastmile_qr_scan"}, "is_reserved": 0, "is_disabled": 0, "name": "4d5f217bdfac022217a80faf371618b1", "bike_id": "4d5f217bdfac022217a80faf371618b1", "fusion_lat": 0.0, "lon": -77.0415785, "type": "electric_scooter", "fusion_lon": 0.0, "lat": 38.9172145}, {"rental_uris": {"android": "https://dc.lft.to/lastmile_qr_scan", "ios": "https://dc.lft.to/lastmile_qr_scan"}, "is_reserved": 0, "is_disabled": 0, "name": "37563d74ed602bb0c9760b330efe4aab", "bike_id": "37563d74ed602bb0c9760b330efe4aab", "fusion_lat": 0.0, "lon": -76.95790033333333, "type": "electric_bike", "fusion_lon": 0.0, "lat": 38.9804505}, {"rental_uris": {"android": "https://dc.lft.to/lastmile_qr_scan", "ios": "https://dc.lft.to/lastmile_qr_scan"}, "is_reserved": 0, "is_disabled": 0, "name": "b2510d2da36d15ee3dab76b37946aaa2", "bike_id": "b2510d2da36d15ee3dab76b37946aaa2", "fusion_lat": 0.0, "lon": -77.0122475, "type": "electric_scooter", "fusion_lon": 0.0, "lat": 38.915204333333335}, {"rental_uris": {"android": "https://dc.lft.to/lastmile_qr_scan", "ios": "https://dc.lft.to/lastmile_qr_scan"}, "is_reserved": 0, "is_disabled": 0, "name": "209f47ba0a132c2b09fded34641017f8", "bike_id": "209f47ba0a132c2b09fded34641017f8", "fusion_lat": 0.0, "lon": -77.02207316666667, "type": "electric_scooter", "fusion_lon": 0.0, "lat": 38.91543983333333}, {"rental_uris": {"android": "https://dc.lft.to/lastmile_qr_scan", "ios": "https://dc.lft.to/lastmile_qr_scan"}, "is_reserved": 0, "is_disabled": 0, "name": "acf5a5eb5c2d38f3f4d8cc800306cb76", "bike_id": "acf5a5eb5c2d38f3f4d8cc800306cb76", "fusion_lat": 0.0, "lon": -77.02181416666667, "type": "electric_scooter", "fusion_lon": 0.0, "lat": 38.90187233333333}, {"rental_uris": {"android": "https://dc.lft.to/lastmile_qr_scan", "ios": "https://dc.lft.to/lastmile_qr_scan"}, "is_reserved": 0, "is_disabled": 0, "name": "d876b683feb73db9b2cb82e230cfdc65", "bike_id": "d876b683feb73db9b2cb82e230cfdc65", "fusion_lat": 0.0, "lon": -76.95293433333333, "type": "electric_scooter", "fusion_lon": 0.0, "lat": 38.8903175}, {"rental_uris": {"android": "https://dc.lft.to/lastmile_qr_scan", "ios": "https://dc.lft.to/lastmile_qr_scan"}, "is_reserved": 0, "is_disabled": 0, "name": "412539b6b0626b7a9bf3a237d9776a71", "bike_id": "412539b6b0626b7a9bf3a237d9776a71", "fusion_lat": 0.0, "lon": -77.02734016666666, "type": "electric_scooter", "fusion_lon": 0.0, "lat": 38.952040333333336}, {"rental_uris": {"android": "https://dc.lft.to/lastmile_qr_scan", "ios": "https://dc.lft.to/lastmile_qr_scan"}, "is_reserved": 0, "is_disabled": 0, "name": "bbe569c0f98a6e316e6693df8be4b9c6", "bike_id": "bbe569c0f98a6e316e6693df8be4b9c6", "fusion_lat": 0.0, "lon": -77.02518716666667, "type": "electric_scooter", "fusion_lon": 0.0, "lat": 38.8995155}, {"rental_uris": {"android": "https://dc.lft.to/lastmile_qr_scan", "ios": "https://dc.lft.to/lastmile_qr_scan"}, "is_reserved": 0, "is_disabled": 0, "name": "28d43f82ad355991c55a890e1780a092", "bike_id": "28d43f82ad355991c55a890e1780a092", "fusion_lat": 0.0, "lon": -77.00131316666666, "type": "electric_bike", "fusion_lon": 0.0, "lat": 38.994985666666665}, {"rental_uris": {"android": "https://dc.lft.to/lastmile_qr_scan", "ios": "https://dc.lft.to/lastmile_qr_scan"}, "is_reserved": 0, "is_disabled": 0, "name": "9dfa9032a8338434625ab610fc4da35f", "bike_id": "9dfa9032a8338434625ab610fc4da35f", "fusion_lat": 0.0, "lon": -77.055968, "type": "electric_scooter", "fusion_lon": 0.0, "lat": 38.936964333333336}, {"rental_uris": {"android": "https://dc.lft.to/lastmile_qr_scan", "ios": "https://dc.lft.to/lastmile_qr_scan"}, "is_reserved": 0, "is_disabled": 0, "name": "47ba05cca0c2e62c3ee77d8f19ef42b3", "bike_id": "47ba05cca0c2e62c3ee77d8f19ef42b3", "fusion_lat": 0.0, "lon": -77.04609116666667, "type": "electric_scooter", "fusion_lon": 0.0, "lat": 38.915212333333336}, {"rental_uris": {"android": "https://dc.lft.to/lastmile_qr_scan", "ios": "https://dc.lft.to/lastmile_qr_scan"}, "is_reserved": 0, "is_disabled": 0, "name": "adb36cff4426cf6d86fa73443c0234d2", "bike_id": "adb36cff4426cf6d86fa73443c0234d2", "fusion_lat": 0.0, "lon": -76.989666, "type": "electric_bike", "fusion_lon": 0.0, "lat": 38.93072733333333}, {"rental_uris": {"android": "https://dc.lft.to/lastmile_qr_scan", "ios": "https://dc.lft.to/lastmile_qr_scan"}, "is_reserved": 0, "is_disabled": 0, "name": "4bcdba6817cb3db3ba895697cdab70a4", "bike_id": "4bcdba6817cb3db3ba895697cdab70a4", "fusion_lat": 0.0, "lon": -76.98797316666666, "type": "electric_scooter", "fusion_lon": 0.0, "lat": 38.90027883333333}, {"rental_uris": {"android": "https://dc.lft.to/lastmile_qr_scan", "ios": "https://dc.lft.to/lastmile_qr_scan"}, "is_reserved": 0, "is_disabled": 0, "name": "6a12cff11ff7115ba8987d9900a56e02", "bike_id": "6a12cff11ff7115ba8987d9900a56e02", "fusion_lat": 0.0, "lon": -77.07661016666667, "type": "electric_scooter", "fusion_lon": 0.0, "lat": 38.9108345}, {"rental_uris": {"android": "https://dc.lft.to/lastmile_qr_scan", "ios": "https://dc.lft.to/lastmile_qr_scan"}, "is_reserved": 0, "is_disabled": 0, "name": "eb5835cc001b94ca1aed0d4a0d1fad5a", "bike_id": "eb5835cc001b94ca1aed0d4a0d1fad5a", "fusion_lat": 0.0, "lon": -76.94934483333333, "type": "electric_scooter", "fusion_lon": 0.0, "lat": 38.895311166666666}, {"rental_uris": {"android": "https://dc.lft.to/lastmile_qr_scan", "ios": "https://dc.lft.to/lastmile_qr_scan"}, "is_reserved": 0, "is_disabled": 0, "name": "a7ccde8ed7721ab2565ce196b7415801", "bike_id": "a7ccde8ed7721ab2565ce196b7415801", "fusion_lat": 0.0, "lon": -77.07334316666666, "type": "electric_scooter", "fusion_lon": 0.0, "lat": 38.9609155}, {"rental_uris": {"android": "https://dc.lft.to/lastmile_qr_scan", "ios": "https://dc.lft.to/lastmile_qr_scan"}, "is_reserved": 0, "is_disabled": 0, "name": "e8114d2c8bc73eab9bbcfba621affa83", "bike_id": "e8114d2c8bc73eab9bbcfba621affa83", "fusion_lat": 0.0, "lon": -77.00112366666667, "type": "electric_scooter", "fusion_lon": 0.0, "lat": 38.876039166666665}, {"rental_uris": {"android": "https://dc.lft.to/lastmile_qr_scan", "ios": "https://dc.lft.to/lastmile_qr_scan"}, "is_reserved": 0, "is_disabled": 0, "name": "01adb37e2cc2477c71c33959c5530257", "bike_id": "01adb37e2cc2477c71c33959c5530257", "fusion_lat": 0.0, "lon": -77.06010966666666, "type": "electric_scooter", "fusion_lon": 0.0, "lat": 38.8864925}, {"rental_uris": {"android": "https://dc.lft.to/lastmile_qr_scan", "ios": "https://dc.lft.to/lastmile_qr_scan"}, "is_reserved": 0, "is_disabled": 0, "name": "55e36bd32d41f1368e0e1c6e491b3aba", "bike_id": "55e36bd32d41f1368e0e1c6e491b3aba", "fusion_lat": 0.0, "lon": -76.975712, "type": "electric_scooter", "fusion_lon": 0.0, "lat": 38.9442825}, {"rental_uris": {"android": "https://dc.lft.to/lastmile_qr_scan", "ios": "https://dc.lft.to/lastmile_qr_scan"}, "is_reserved": 0, "is_disabled": 0, "name": "682026aa070a4962b0099eba0e725a4e", "bike_id": "682026aa070a4962b0099eba0e725a4e", "fusion_lat": 0.0, "lon": -77.03441983333333, "type": "electric_scooter", "fusion_lon": 0.0, "lat": 38.90416166666667}, {"rental_uris": {"android": "https://dc.lft.to/lastmile_qr_scan", "ios": "https://dc.lft.to/lastmile_qr_scan"}, "is_reserved": 0, "is_disabled": 0, "name": "721fb6e7e0c9b36ba7911a58c1a0a301", "bike_id": "721fb6e7e0c9b36ba7911a58c1a0a301", "fusion_lat": 0.0, "lon": -76.97351, "type": "electric_bike", "fusion_lon": 0.0, "lat": 38.86549816666667}, {"rental_uris": {"android": "https://dc.lft.to/lastmile_qr_scan", "ios": "https://dc.lft.to/lastmile_qr_scan"}, "is_reserved": 0, "is_disabled": 0, "name": "ffdec7a5b88afbde9a67de9677e039c9", "bike_id": "ffdec7a5b88afbde9a67de9677e039c9", "fusion_lat": 0.0, "lon": -77.02862633333334, "type": "electric_scooter", "fusion_lon": 0.0, "lat": 38.912534}, {"rental_uris": {"android": "https://dc.lft.to/lastmile_qr_scan", "ios": "https://dc.lft.to/lastmile_qr_scan"}, "is_reserved": 0, "is_disabled": 0, "name": "7b3c681a4d2f438f69f2779eb8b76e5b", "bike_id": "7b3c681a4d2f438f69f2779eb8b76e5b", "fusion_lat": 0.0, "lon": -77.029491, "type": "electric_scooter", "fusion_lon": 0.0, "lat": 38.9050105}, {"rental_uris": {"android": "https://dc.lft.to/lastmile_qr_scan", "ios": "https://dc.lft.to/lastmile_qr_scan"}, "is_reserved": 0, "is_disabled": 0, "name": "a0fb48bf076dfd7c730cf09ac5e21953", "bike_id": "a0fb48bf076dfd7c730cf09ac5e21953", "fusion_lat": 0.0, "lon": -77.00064916666666, "type": "electric_scooter", "fusion_lon": 0.0, "lat": 38.881146333333334}, {"rental_uris": {"android": "https://dc.lft.to/lastmile_qr_scan", "ios": "https://dc.lft.to/lastmile_qr_scan"}, "is_reserved": 0, "is_disabled": 0, "name": "a0b65c921f8972a88c928e2857115892", "bike_id": "a0b65c921f8972a88c928e2857115892", "fusion_lat": 0.0, "lon": -77.0279955, "type": "electric_scooter", "fusion_lon": 0.0, "lat": 38.8922715}, {"rental_uris": {"android": "https://dc.lft.to/lastmile_qr_scan", "ios": "https://dc.lft.to/lastmile_qr_scan"}, "is_reserved": 0, "is_disabled": 0, "name": "65a25ffb1ef967f924f627afb00bb664", "bike_id": "65a25ffb1ef967f924f627afb00bb664", "fusion_lat": 0.0, "lon": -77.04139366666666, "type": "electric_scooter", "fusion_lon": 0.0, "lat": 38.93068533333334}, {"rental_uris": {"android": "https://dc.lft.to/lastmile_qr_scan", "ios": "https://dc.lft.to/lastmile_qr_scan"}, "is_reserved": 0, "is_disabled": 0, "name": "6b2cd8ce08b3629370e2c35bf407fc79", "bike_id": "6b2cd8ce08b3629370e2c35bf407fc79", "fusion_lat": 0.0, "lon": -77.03475966666667, "type": "electric_scooter", "fusion_lon": 0.0, "lat": 38.901227166666665}, {"rental_uris": {"android": "https://dc.lft.to/lastmile_qr_scan", "ios": "https://dc.lft.to/lastmile_qr_scan"}, "is_reserved": 0, "is_disabled": 0, "name": "2d5c062bb5dbfaa654a900efa279f4c9", "bike_id": "2d5c062bb5dbfaa654a900efa279f4c9", "fusion_lat": 0.0, "lon": -77.04312733333333, "type": "electric_scooter", "fusion_lon": 0.0, "lat": 38.9044685}, {"rental_uris": {"android": "https://dc.lft.to/lastmile_qr_scan", "ios": "https://dc.lft.to/lastmile_qr_scan"}, "is_reserved": 0, "is_disabled": 0, "name": "2a48f023d6063bd1d3a3110b38002bc8", "bike_id": "2a48f023d6063bd1d3a3110b38002bc8", "fusion_lat": 0.0, "lon": -77.02331533333333, "type": "electric_scooter", "fusion_lon": 0.0, "lat": 38.930502}, {"rental_uris": {"android": "https://dc.lft.to/lastmile_qr_scan", "ios": "https://dc.lft.to/lastmile_qr_scan"}, "is_reserved": 0, "is_disabled": 0, "name": "df4ea8c1d6b784c8728d5554ebc92040", "bike_id": "df4ea8c1d6b784c8728d5554ebc92040", "fusion_lat": 0.0, "lon": -77.18305033333333, "type": "electric_bike", "fusion_lon": 0.0, "lat": 38.890899}, {"rental_uris": {"android": "https://dc.lft.to/lastmile_qr_scan", "ios": "https://dc.lft.to/lastmile_qr_scan"}, "is_reserved": 0, "is_disabled": 0, "name": "7e3ef57adc45bf04edb20410e9333c12", "bike_id": "7e3ef57adc45bf04edb20410e9333c12", "fusion_lat": 0.0, "lon": -77.23409166666667, "type": "electric_bike", "fusion_lon": 0.0, "lat": 38.87577233333333}, {"rental_uris": {"android": "https://dc.lft.to/lastmile_qr_scan", "ios": "https://dc.lft.to/lastmile_qr_scan"}, "is_reserved": 0, "is_disabled": 0, "name": "b7ccfa59753772ed69a4666393c35cfd", "bike_id": "b7ccfa59753772ed69a4666393c35cfd", "fusion_lat": 0.0, "lon": -76.99508716666666, "type": "electric_scooter", "fusion_lon": 0.0, "lat": 38.880822}, {"rental_uris": {"android": "https://dc.lft.to/lastmile_qr_scan", "ios": "https://dc.lft.to/lastmile_qr_scan"}, "is_reserved": 0, "is_disabled": 0, "name": "181c229c03fa5eee1a88b22d8a70c3da", "bike_id": "181c229c03fa5eee1a88b22d8a70c3da", "fusion_lat": 0.0, "lon": -77.02930916666666, "type": "electric_scooter", "fusion_lon": 0.0, "lat": 38.90713866666667}, {"rental_uris": {"android": "https://dc.lft.to/lastmile_qr_scan", "ios": "https://dc.lft.to/lastmile_qr_scan"}, "is_reserved": 0, "is_disabled": 0, "name": "2ccc3773881ca36175f5dce815ee084c", "bike_id": "2ccc3773881ca36175f5dce815ee084c", "fusion_lat": 0.0, "lon": -77.0320715, "type": "electric_scooter", "fusion_lon": 0.0, "lat": 38.89702116666667}, {"rental_uris": {"android": "https://dc.lft.to/lastmile_qr_scan", "ios": "https://dc.lft.to/lastmile_qr_scan"}, "is_reserved": 0, "is_disabled": 0, "name": "f613b9be196e839fe883794f64fc2ca3", "bike_id": "f613b9be196e839fe883794f64fc2ca3", "fusion_lat": 0.0, "lon": -77.030317, "type": "electric_scooter", "fusion_lon": 0.0, "lat": 38.90860816666667}, {"rental_uris": {"android": "https://dc.lft.to/lastmile_qr_scan", "ios": "https://dc.lft.to/lastmile_qr_scan"}, "is_reserved": 0, "is_disabled": 0, "name": "b904b634c306d7acda07eea6233f8ac7", "bike_id": "b904b634c306d7acda07eea6233f8ac7", "fusion_lat": 0.0, "lon": -77.06110566666666, "type": "electric_scooter", "fusion_lon": 0.0, "lat": 38.90227016666667}, {"rental_uris": {"android": "https://dc.lft.to/lastmile_qr_scan", "ios": "https://dc.lft.to/lastmile_qr_scan"}, "is_reserved": 0, "is_disabled": 0, "name": "32ab975bde4f9adec3aac858c4846c55", "bike_id": "32ab975bde4f9adec3aac858c4846c55", "fusion_lat": 0.0, "lon": -77.05325383333333, "type": "electric_scooter", "fusion_lon": 0.0, "lat": 38.901624}, {"rental_uris": {"android": "https://dc.lft.to/lastmile_qr_scan", "ios": "https://dc.lft.to/lastmile_qr_scan"}, "is_reserved": 0, "is_disabled": 0, "name": "45a0783d59ff8f8630677603d10ceeaf", "bike_id": "45a0783d59ff8f8630677603d10ceeaf", "fusion_lat": 0.0, "lon": -77.06652133333333, "type": "electric_scooter", "fusion_lon": 0.0, "lat": 38.95070666666667}, {"rental_uris": {"android": "https://dc.lft.to/lastmile_qr_scan", "ios": "https://dc.lft.to/lastmile_qr_scan"}, "is_reserved": 0, "is_disabled": 0, "name": "12ed807fd27c2bb2cc1175ea4e81848a", "bike_id": "12ed807fd27c2bb2cc1175ea4e81848a", "fusion_lat": 0.0, "lon": -77.02280083333333, "type": "electric_scooter", "fusion_lon": 0.0, "lat": 38.91691383333333}, {"rental_uris": {"android": "https://dc.lft.to/lastmile_qr_scan", "ios": "https://dc.lft.to/lastmile_qr_scan"}, "is_reserved": 0, "is_disabled": 0, "name": "4f0cee8749a4f3fbf8e2ee37f5c18847", "bike_id": "4f0cee8749a4f3fbf8e2ee37f5c18847", "fusion_lat": 0.0, "lon": -76.9902835, "type": "electric_scooter", "fusion_lon": 0.0, "lat": 38.888577833333336}, {"rental_uris": {"android": "https://dc.lft.to/lastmile_qr_scan", "ios": "https://dc.lft.to/lastmile_qr_scan"}, "is_reserved": 0, "is_disabled": 0, "name": "2d4b180b80ec6c0daec675d990155c3a", "bike_id": "2d4b180b80ec6c0daec675d990155c3a", "fusion_lat": 0.0, "lon": -76.96318816666667, "type": "electric_bike", "fusion_lon": 0.0, "lat": 38.938945333333336}, {"rental_uris": {"android": "https://dc.lft.to/lastmile_qr_scan", "ios": "https://dc.lft.to/lastmile_qr_scan"}, "is_reserved": 0, "is_disabled": 0, "name": "0435540bd1875282905c07700e6d5963", "bike_id": "0435540bd1875282905c07700e6d5963", "fusion_lat": 0.0, "lon": -76.98742116666666, "type": "electric_scooter", "fusion_lon": 0.0, "lat": 38.879645}, {"rental_uris": {"android": "https://dc.lft.to/lastmile_qr_scan", "ios": "https://dc.lft.to/lastmile_qr_scan"}, "is_reserved": 0, "is_disabled": 0, "name": "dd055298d832f05b11397d91f8a502c7", "bike_id": "dd055298d832f05b11397d91f8a502c7", "fusion_lat": 0.0, "lon": -77.03449833333333, "type": "electric_scooter", "fusion_lon": 0.0, "lat": 38.921553333333335}, {"rental_uris": {"android": "https://dc.lft.to/lastmile_qr_scan", "ios": "https://dc.lft.to/lastmile_qr_scan"}, "is_reserved": 0, "is_disabled": 0, "name": "a9fdd24a0ea5dd8bc6dd04459c977333", "bike_id": "a9fdd24a0ea5dd8bc6dd04459c977333", "fusion_lat": 0.0, "lon": -77.02074133333333, "type": "electric_scooter", "fusion_lon": 0.0, "lat": 38.930203666666664}, {"rental_uris": {"android": "https://dc.lft.to/lastmile_qr_scan", "ios": "https://dc.lft.to/lastmile_qr_scan"}, "is_reserved": 0, "is_disabled": 0, "name": "b4c905d2c72e70d069a6ab1ffeda3efe", "bike_id": "b4c905d2c72e70d069a6ab1ffeda3efe", "fusion_lat": 0.0, "lon": -77.02820083333333, "type": "electric_scooter", "fusion_lon": 0.0, "lat": 38.89957366666667}, {"rental_uris": {"android": "https://dc.lft.to/lastmile_qr_scan", "ios": "https://dc.lft.to/lastmile_qr_scan"}, "is_reserved": 0, "is_disabled": 0, "name": "b6351e85f04b79b83aeb851039ff0c2b", "bike_id": "b6351e85f04b79b83aeb851039ff0c2b", "fusion_lat": 0.0, "lon": -77.03305433333334, "type": "electric_scooter", "fusion_lon": 0.0, "lat": 38.899878}, {"rental_uris": {"android": "https://dc.lft.to/lastmile_qr_scan", "ios": "https://dc.lft.to/lastmile_qr_scan"}, "is_reserved": 0, "is_disabled": 0, "name": "121a4bb823682142fb09904a05c8dae3", "bike_id": "121a4bb823682142fb09904a05c8dae3", "fusion_lat": 0.0, "lon": -77.00378316666666, "type": "electric_bike", "fusion_lon": 0.0, "lat": 38.835993333333334}, {"rental_uris": {"android": "https://dc.lft.to/lastmile_qr_scan", "ios": "https://dc.lft.to/lastmile_qr_scan"}, "is_reserved": 0, "is_disabled": 0, "name": "82c28325f1cd126625b78f9e6186d754", "bike_id": "82c28325f1cd126625b78f9e6186d754", "fusion_lat": 0.0, "lon": -77.013744, "type": "electric_scooter", "fusion_lon": 0.0, "lat": 38.876069333333334}, {"rental_uris": {"android": "https://dc.lft.to/lastmile_qr_scan", "ios": "https://dc.lft.to/lastmile_qr_scan"}, "is_reserved": 0, "is_disabled": 0, "name": "33c5c18a4a67ca8bbb9245721a427b74", "bike_id": "33c5c18a4a67ca8bbb9245721a427b74", "fusion_lat": 0.0, "lon": -77.01945683333334, "type": "electric_scooter", "fusion_lon": 0.0, "lat": 38.9242165}, {"rental_uris": {"android": "https://dc.lft.to/lastmile_qr_scan", "ios": "https://dc.lft.to/lastmile_qr_scan"}, "is_reserved": 0, "is_disabled": 0, "name": "f35b2a584758911dc4e2905e66058188", "bike_id": "f35b2a584758911dc4e2905e66058188", "fusion_lat": 0.0, "lon": -77.01857, "type": "electric_scooter", "fusion_lon": 0.0, "lat": 38.949208}, {"rental_uris": {"android": "https://dc.lft.to/lastmile_qr_scan", "ios": "https://dc.lft.to/lastmile_qr_scan"}, "is_reserved": 0, "is_disabled": 0, "name": "f0e49dcadab0007dd5f92dde64a84e33", "bike_id": "f0e49dcadab0007dd5f92dde64a84e33", "fusion_lat": 0.0, "lon": -77.03581883333334, "type": "electric_bike", "fusion_lon": 0.0, "lat": 38.9922615}, {"rental_uris": {"android": "https://dc.lft.to/lastmile_qr_scan", "ios": "https://dc.lft.to/lastmile_qr_scan"}, "is_reserved": 0, "is_disabled": 0, "name": "3c6031255cbe2ee515e0e2535c605ff4", "bike_id": "3c6031255cbe2ee515e0e2535c605ff4", "fusion_lat": 0.0, "lon": -76.98529133333334, "type": "electric_scooter", "fusion_lon": 0.0, "lat": 38.900135666666664}, {"rental_uris": {"android": "https://dc.lft.to/lastmile_qr_scan", "ios": "https://dc.lft.to/lastmile_qr_scan"}, "is_reserved": 0, "is_disabled": 0, "name": "cb6a867d3fa1f70f897eb8f8a974aa49", "bike_id": "cb6a867d3fa1f70f897eb8f8a974aa49", "fusion_lat": 0.0, "lon": -77.02717333333334, "type": "electric_scooter", "fusion_lon": 0.0, "lat": 38.9068475}, {"rental_uris": {"android": "https://dc.lft.to/lastmile_qr_scan", "ios": "https://dc.lft.to/lastmile_qr_scan"}, "is_reserved": 0, "is_disabled": 0, "name": "8c7d5d2b76c3f5ecace37b32c75b2447", "bike_id": "8c7d5d2b76c3f5ecace37b32c75b2447", "fusion_lat": 0.0, "lon": -77.02783783333334, "type": "electric_scooter", "fusion_lon": 0.0, "lat": 38.961640333333335}, {"rental_uris": {"android": "https://dc.lft.to/lastmile_qr_scan", "ios": "https://dc.lft.to/lastmile_qr_scan"}, "is_reserved": 0, "is_disabled": 0, "name": "544699d2c83f865789b3228f49da24b2", "bike_id": "544699d2c83f865789b3228f49da24b2", "fusion_lat": 0.0, "lon": -77.00272616666666, "type": "electric_bike", "fusion_lon": 0.0, "lat": 38.8380535}, {"rental_uris": {"android": "https://dc.lft.to/lastmile_qr_scan", "ios": "https://dc.lft.to/lastmile_qr_scan"}, "is_reserved": 0, "is_disabled": 0, "name": "e73eaef159ec19675f01e3ba721cfa14", "bike_id": "e73eaef159ec19675f01e3ba721cfa14", "fusion_lat": 0.0, "lon": -77.0317205, "type": "electric_scooter", "fusion_lon": 0.0, "lat": 38.916260666666666}, {"rental_uris": {"android": "https://dc.lft.to/lastmile_qr_scan", "ios": "https://dc.lft.to/lastmile_qr_scan"}, "is_reserved": 0, "is_disabled": 0, "name": "592aaa6bd012435e3c7c32ed05aaac54", "bike_id": "592aaa6bd012435e3c7c32ed05aaac54", "fusion_lat": 0.0, "lon": -77.0269065, "type": "electric_scooter", "fusion_lon": 0.0, "lat": 38.91678533333334}, {"rental_uris": {"android": "https://dc.lft.to/lastmile_qr_scan", "ios": "https://dc.lft.to/lastmile_qr_scan"}, "is_reserved": 0, "is_disabled": 0, "name": "10d16847208d954f4ebe8ce6996abb7f", "bike_id": "10d16847208d954f4ebe8ce6996abb7f", "fusion_lat": 0.0, "lon": -77.0279995, "type": "electric_scooter", "fusion_lon": 0.0, "lat": 38.923141}, {"rental_uris": {"android": "https://dc.lft.to/lastmile_qr_scan", "ios": "https://dc.lft.to/lastmile_qr_scan"}, "is_reserved": 0, "is_disabled": 0, "name": "ad248a7e062a5ff059cb60393dc8662f", "bike_id": "ad248a7e062a5ff059cb60393dc8662f", "fusion_lat": 0.0, "lon": -77.022879, "type": "electric_scooter", "fusion_lon": 0.0, "lat": 38.91781183333333}, {"rental_uris": {"android": "https://dc.lft.to/lastmile_qr_scan", "ios": "https://dc.lft.to/lastmile_qr_scan"}, "is_reserved": 0, "is_disabled": 0, "name": "d7cd30f950c6a9e7f90d2d6e6b073423", "bike_id": "d7cd30f950c6a9e7f90d2d6e6b073423", "fusion_lat": 0.0, "lon": -77.03935983333334, "type": "electric_scooter", "fusion_lon": 0.0, "lat": 38.89999516666666}, {"rental_uris": {"android": "https://dc.lft.to/lastmile_qr_scan", "ios": "https://dc.lft.to/lastmile_qr_scan"}, "is_reserved": 0, "is_disabled": 0, "name": "21128fabd4e11e5d7fac7d90eced2cc6", "bike_id": "21128fabd4e11e5d7fac7d90eced2cc6", "fusion_lat": 0.0, "lon": -76.98613833333333, "type": "electric_scooter", "fusion_lon": 0.0, "lat": 38.9382625}, {"rental_uris": {"android": "https://dc.lft.to/lastmile_qr_scan", "ios": "https://dc.lft.to/lastmile_qr_scan"}, "is_reserved": 0, "is_disabled": 0, "name": "4b9dca62c529f228235dd70c9c4f66e3", "bike_id": "4b9dca62c529f228235dd70c9c4f66e3", "fusion_lat": 0.0, "lon": -76.995043, "type": "electric_scooter", "fusion_lon": 0.0, "lat": 38.883435666666664}, {"rental_uris": {"android": "https://dc.lft.to/lastmile_qr_scan", "ios": "https://dc.lft.to/lastmile_qr_scan"}, "is_reserved": 0, "is_disabled": 0, "name": "bbd1594e856f469d9936f94f65e927dc", "bike_id": "bbd1594e856f469d9936f94f65e927dc", "fusion_lat": 0.0, "lon": -77.032606, "type": "electric_scooter", "fusion_lon": 0.0, "lat": 38.937323166666665}, {"rental_uris": {"android": "https://dc.lft.to/lastmile_qr_scan", "ios": "https://dc.lft.to/lastmile_qr_scan"}, "is_reserved": 0, "is_disabled": 0, "name": "d2d6f10fb2b352017add0b427df7a7ef", "bike_id": "d2d6f10fb2b352017add0b427df7a7ef", "fusion_lat": 0.0, "lon": -77.02063116666666, "type": "electric_bike", "fusion_lon": 0.0, "lat": 38.92840966666667}, {"rental_uris": {"android": "https://dc.lft.to/lastmile_qr_scan", "ios": "https://dc.lft.to/lastmile_qr_scan"}, "is_reserved": 0, "is_disabled": 0, "name": "4c7b933d2378a689a93ef79e508fb27c", "bike_id": "4c7b933d2378a689a93ef79e508fb27c", "fusion_lat": 0.0, "lon": -77.0400785, "type": "electric_scooter", "fusion_lon": 0.0, "lat": 38.9100175}, {"rental_uris": {"android": "https://dc.lft.to/lastmile_qr_scan", "ios": "https://dc.lft.to/lastmile_qr_scan"}, "is_reserved": 0, "is_disabled": 0, "name": "9b79a1217aa2c17779520bb8c8999071", "bike_id": "9b79a1217aa2c17779520bb8c8999071", "fusion_lat": 0.0, "lon": -77.005906, "type": "electric_scooter", "fusion_lon": 0.0, "lat": 38.876416}, {"rental_uris": {"android": "https://dc.lft.to/lastmile_qr_scan", "ios": "https://dc.lft.to/lastmile_qr_scan"}, "is_reserved": 0, "is_disabled": 0, "name": "48b9491a2c60f53e9b05ed6787f3c383", "bike_id": "48b9491a2c60f53e9b05ed6787f3c383", "fusion_lat": 0.0, "lon": -76.988791, "type": "electric_scooter", "fusion_lon": 0.0, "lat": 38.902111166666664}, {"rental_uris": {"android": "https://dc.lft.to/lastmile_qr_scan", "ios": "https://dc.lft.to/lastmile_qr_scan"}, "is_reserved": 0, "is_disabled": 0, "name": "dc5280aa02f3abab589d1a8b1f77e879", "bike_id": "dc5280aa02f3abab589d1a8b1f77e879", "fusion_lat": 0.0, "lon": -77.01388383333334, "type": "electric_scooter", "fusion_lon": 0.0, "lat": 38.878964}, {"rental_uris": {"android": "https://dc.lft.to/lastmile_qr_scan", "ios": "https://dc.lft.to/lastmile_qr_scan"}, "is_reserved": 0, "is_disabled": 0, "name": "3c64bbc1d32321ced06c4562536f8919", "bike_id": "3c64bbc1d32321ced06c4562536f8919", "fusion_lat": 0.0, "lon": -76.987456, "type": "electric_scooter", "fusion_lon": 0.0, "lat": 38.8796565}, {"rental_uris": {"android": "https://dc.lft.to/lastmile_qr_scan", "ios": "https://dc.lft.to/lastmile_qr_scan"}, "is_reserved": 0, "is_disabled": 0, "name": "98dde82edfb3efa03630946c3c889e9f", "bike_id": "98dde82edfb3efa03630946c3c889e9f", "fusion_lat": 0.0, "lon": -76.98708416666666, "type": "electric_bike", "fusion_lon": 0.0, "lat": 38.8632645}, {"rental_uris": {"android": "https://dc.lft.to/lastmile_qr_scan", "ios": "https://dc.lft.to/lastmile_qr_scan"}, "is_reserved": 0, "is_disabled": 0, "name": "2017d06b32dfd6cb01a6b378427c3047", "bike_id": "2017d06b32dfd6cb01a6b378427c3047", "fusion_lat": 0.0, "lon": -77.01664083333333, "type": "electric_scooter", "fusion_lon": 0.0, "lat": 38.88110416666667}, {"rental_uris": {"android": "https://dc.lft.to/lastmile_qr_scan", "ios": "https://dc.lft.to/lastmile_qr_scan"}, "is_reserved": 0, "is_disabled": 0, "name": "23642b01f775a7c95839e9b0596d951c", "bike_id": "23642b01f775a7c95839e9b0596d951c", "fusion_lat": 0.0, "lon": -77.02966883333333, "type": "electric_scooter", "fusion_lon": 0.0, "lat": 38.9071505}, {"rental_uris": {"android": "https://dc.lft.to/lastmile_qr_scan", "ios": "https://dc.lft.to/lastmile_qr_scan"}, "is_reserved": 0, "is_disabled": 0, "name": "55c9046241c0e00f689a9d9660e14aa9", "bike_id": "55c9046241c0e00f689a9d9660e14aa9", "fusion_lat": 0.0, "lon": -77.03752116666666, "type": "electric_scooter", "fusion_lon": 0.0, "lat": 38.91269233333333}, {"rental_uris": {"android": "https://dc.lft.to/lastmile_qr_scan", "ios": "https://dc.lft.to/lastmile_qr_scan"}, "is_reserved": 0, "is_disabled": 0, "name": "b4a4ba51a274ad3c5bc66c27af7166da", "bike_id": "b4a4ba51a274ad3c5bc66c27af7166da", "fusion_lat": 0.0, "lon": -76.98516, "type": "electric_scooter", "fusion_lon": 0.0, "lat": 38.90066083333333}, {"rental_uris": {"android": "https://dc.lft.to/lastmile_qr_scan", "ios": "https://dc.lft.to/lastmile_qr_scan"}, "is_reserved": 0, "is_disabled": 0, "name": "cb017ae8d0d6ec97f091fe15815d56e7", "bike_id": "cb017ae8d0d6ec97f091fe15815d56e7", "fusion_lat": 0.0, "lon": -76.94875016666667, "type": "electric_scooter", "fusion_lon": 0.0, "lat": 38.89497883333333}, {"rental_uris": {"android": "https://dc.lft.to/lastmile_qr_scan", "ios": "https://dc.lft.to/lastmile_qr_scan"}, "is_reserved": 0, "is_disabled": 0, "name": "5fab98ca6adfdc16042358b3e25826c3", "bike_id": "5fab98ca6adfdc16042358b3e25826c3", "fusion_lat": 0.0, "lon": -77.04354983333333, "type": "electric_scooter", "fusion_lon": 0.0, "lat": 38.911286833333335}, {"rental_uris": {"android": "https://dc.lft.to/lastmile_qr_scan", "ios": "https://dc.lft.to/lastmile_qr_scan"}, "is_reserved": 0, "is_disabled": 0, "name": "c6b5acfbaa9af300960ba8c5ff32021f", "bike_id": "c6b5acfbaa9af300960ba8c5ff32021f", "fusion_lat": 0.0, "lon": -77.23399833333333, "type": "electric_bike", "fusion_lon": 0.0, "lat": 38.8717865}, {"rental_uris": {"android": "https://dc.lft.to/lastmile_qr_scan", "ios": "https://dc.lft.to/lastmile_qr_scan"}, "is_reserved": 0, "is_disabled": 0, "name": "0e0265af064c3e5ccc9d9e5d7e6395c5", "bike_id": "0e0265af064c3e5ccc9d9e5d7e6395c5", "fusion_lat": 0.0, "lon": -77.038699, "type": "electric_scooter", "fusion_lon": 0.0, "lat": 38.91708783333333}, {"rental_uris": {"android": "https://dc.lft.to/lastmile_qr_scan", "ios": "https://dc.lft.to/lastmile_qr_scan"}, "is_reserved": 0, "is_disabled": 0, "name": "4a1d5444edf140c0e3dad52c31d35d6e", "bike_id": "4a1d5444edf140c0e3dad52c31d35d6e", "fusion_lat": 0.0, "lon": -77.04375316666666, "type": "electric_scooter", "fusion_lon": 0.0, "lat": 38.920554333333335}, {"rental_uris": {"android": "https://dc.lft.to/lastmile_qr_scan", "ios": "https://dc.lft.to/lastmile_qr_scan"}, "is_reserved": 0, "is_disabled": 0, "name": "c7b8d229e226ec2ad16130fbfab26350", "bike_id": "c7b8d229e226ec2ad16130fbfab26350", "fusion_lat": 0.0, "lon": -77.03678733333334, "type": "electric_scooter", "fusion_lon": 0.0, "lat": 38.90692116666666}, {"rental_uris": {"android": "https://dc.lft.to/lastmile_qr_scan", "ios": "https://dc.lft.to/lastmile_qr_scan"}, "is_reserved": 0, "is_disabled": 0, "name": "3f01094737fdfbf1b490653f4bd9dcdd", "bike_id": "3f01094737fdfbf1b490653f4bd9dcdd", "fusion_lat": 0.0, "lon": -77.0171325, "type": "electric_scooter", "fusion_lon": 0.0, "lat": 38.97499116666667}, {"rental_uris": {"android": "https://dc.lft.to/lastmile_qr_scan", "ios": "https://dc.lft.to/lastmile_qr_scan"}, "is_reserved": 0, "is_disabled": 0, "name": "718d34a165e7167900d96ae225a46b8e", "bike_id": "718d34a165e7167900d96ae225a46b8e", "fusion_lat": 0.0, "lon": -77.00608166666666, "type": "electric_scooter", "fusion_lon": 0.0, "lat": 38.8754535}, {"rental_uris": {"android": "https://dc.lft.to/lastmile_qr_scan", "ios": "https://dc.lft.to/lastmile_qr_scan"}, "is_reserved": 0, "is_disabled": 0, "name": "9bc3994d84265223fdeabb2267ba6090", "bike_id": "9bc3994d84265223fdeabb2267ba6090", "fusion_lat": 0.0, "lon": -77.04682033333333, "type": "electric_scooter", "fusion_lon": 0.0, "lat": 38.89221533333333}, {"rental_uris": {"android": "https://dc.lft.to/lastmile_qr_scan", "ios": "https://dc.lft.to/lastmile_qr_scan"}, "is_reserved": 0, "is_disabled": 0, "name": "ba1933c377791e444bde82129f29978c", "bike_id": "ba1933c377791e444bde82129f29978c", "fusion_lat": 0.0, "lon": -77.01945316666666, "type": "electric_scooter", "fusion_lon": 0.0, "lat": 38.924448}, {"rental_uris": {"android": "https://dc.lft.to/lastmile_qr_scan", "ios": "https://dc.lft.to/lastmile_qr_scan"}, "is_reserved": 0, "is_disabled": 0, "name": "1f246f87b934a4e98746bc7ac389657d", "bike_id": "1f246f87b934a4e98746bc7ac389657d", "fusion_lat": 0.0, "lon": -77.09684483333334, "type": "electric_bike", "fusion_lon": 0.0, "lat": 38.807387166666665}, {"rental_uris": {"android": "https://dc.lft.to/lastmile_qr_scan", "ios": "https://dc.lft.to/lastmile_qr_scan"}, "is_reserved": 0, "is_disabled": 0, "name": "02704773e9b4ce5f31f8e99ce32f7210", "bike_id": "02704773e9b4ce5f31f8e99ce32f7210", "fusion_lat": 0.0, "lon": -77.01516133333334, "type": "electric_scooter", "fusion_lon": 0.0, "lat": 38.87291783333333}, {"rental_uris": {"android": "https://dc.lft.to/lastmile_qr_scan", "ios": "https://dc.lft.to/lastmile_qr_scan"}, "is_reserved": 0, "is_disabled": 0, "name": "f6b0777ef2b1d9905d49e246efa26684", "bike_id": "f6b0777ef2b1d9905d49e246efa26684", "fusion_lat": 0.0, "lon": -77.0436795, "type": "electric_scooter", "fusion_lon": 0.0, "lat": 38.9224545}, {"rental_uris": {"android": "https://dc.lft.to/lastmile_qr_scan", "ios": "https://dc.lft.to/lastmile_qr_scan"}, "is_reserved": 0, "is_disabled": 0, "name": "bb360da697ff74d808716857b43ebd12", "bike_id": "bb360da697ff74d808716857b43ebd12", "fusion_lat": 0.0, "lon": -77.03201866666667, "type": "electric_scooter", "fusion_lon": 0.0, "lat": 38.9101425}, {"rental_uris": {"android": "https://dc.lft.to/lastmile_qr_scan", "ios": "https://dc.lft.to/lastmile_qr_scan"}, "is_reserved": 0, "is_disabled": 0, "name": "5f125445110ea5a8891ee3a43197fe0d", "bike_id": "5f125445110ea5a8891ee3a43197fe0d", "fusion_lat": 0.0, "lon": -77.00889933333333, "type": "electric_scooter", "fusion_lon": 0.0, "lat": 38.92468933333333}, {"rental_uris": {"android": "https://dc.lft.to/lastmile_qr_scan", "ios": "https://dc.lft.to/lastmile_qr_scan"}, "is_reserved": 0, "is_disabled": 0, "name": "04997e387b54032103924b0b9182c446", "bike_id": "04997e387b54032103924b0b9182c446", "fusion_lat": 0.0, "lon": -76.98419733333333, "type": "electric_bike", "fusion_lon": 0.0, "lat": 38.85516483333333}, {"rental_uris": {"android": "https://dc.lft.to/lastmile_qr_scan", "ios": "https://dc.lft.to/lastmile_qr_scan"}, "is_reserved": 0, "is_disabled": 0, "name": "9002daaee433380fe6986610fc1a71b6", "bike_id": "9002daaee433380fe6986610fc1a71b6", "fusion_lat": 0.0, "lon": -77.03498783333333, "type": "electric_scooter", "fusion_lon": 0.0, "lat": 38.918779666666666}, {"rental_uris": {"android": "https://dc.lft.to/lastmile_qr_scan", "ios": "https://dc.lft.to/lastmile_qr_scan"}, "is_reserved": 0, "is_disabled": 0, "name": "567bc7a483bf33508c1e7c429f4fcb53", "bike_id": "567bc7a483bf33508c1e7c429f4fcb53", "fusion_lat": 0.0, "lon": -77.07870233333334, "type": "electric_scooter", "fusion_lon": 0.0, "lat": 38.91956483333333}, {"rental_uris": {"android": "https://dc.lft.to/lastmile_qr_scan", "ios": "https://dc.lft.to/lastmile_qr_scan"}, "is_reserved": 0, "is_disabled": 0, "name": "e634e1d39ad3b3caf78a31c76e9aaa64", "bike_id": "e634e1d39ad3b3caf78a31c76e9aaa64", "fusion_lat": 0.0, "lon": -77.04687816666667, "type": "electric_scooter", "fusion_lon": 0.0, "lat": 38.899575166666665}, {"rental_uris": {"android": "https://dc.lft.to/lastmile_qr_scan", "ios": "https://dc.lft.to/lastmile_qr_scan"}, "is_reserved": 0, "is_disabled": 0, "name": "606b6ac79c88d2a2c769ba30a5453508", "bike_id": "606b6ac79c88d2a2c769ba30a5453508", "fusion_lat": 0.0, "lon": -77.01867233333333, "type": "electric_scooter", "fusion_lon": 0.0, "lat": 38.92912833333333}, {"rental_uris": {"android": "https://dc.lft.to/lastmile_qr_scan", "ios": "https://dc.lft.to/lastmile_qr_scan"}, "is_reserved": 0, "is_disabled": 0, "name": "43fd57a82651e72637397d2e1a07ecc3", "bike_id": "43fd57a82651e72637397d2e1a07ecc3", "fusion_lat": 0.0, "lon": -77.040292, "type": "electric_scooter", "fusion_lon": 0.0, "lat": 38.918079166666665}, {"rental_uris": {"android": "https://dc.lft.to/lastmile_qr_scan", "ios": "https://dc.lft.to/lastmile_qr_scan"}, "is_reserved": 0, "is_disabled": 0, "name": "3f12b0b7142d3ae7d858c0e6ff4483cb", "bike_id": "3f12b0b7142d3ae7d858c0e6ff4483cb", "fusion_lat": 0.0, "lon": -77.025283, "type": "electric_scooter", "fusion_lon": 0.0, "lat": 38.906470166666665}, {"rental_uris": {"android": "https://dc.lft.to/lastmile_qr_scan", "ios": "https://dc.lft.to/lastmile_qr_scan"}, "is_reserved": 0, "is_disabled": 0, "name": "b6ddbad7c2fbe4487900c954f43e245f", "bike_id": "b6ddbad7c2fbe4487900c954f43e245f", "fusion_lat": 0.0, "lon": -77.02113183333333, "type": "electric_scooter", "fusion_lon": 0.0, "lat": 38.9238045}, {"rental_uris": {"android": "https://dc.lft.to/lastmile_qr_scan", "ios": "https://dc.lft.to/lastmile_qr_scan"}, "is_reserved": 0, "is_disabled": 0, "name": "206cdaa2b64c1c930eb12519f28cfee9", "bike_id": "206cdaa2b64c1c930eb12519f28cfee9", "fusion_lat": 0.0, "lon": -77.034555, "type": "electric_scooter", "fusion_lon": 0.0, "lat": 38.9179915}, {"rental_uris": {"android": "https://dc.lft.to/lastmile_qr_scan", "ios": "https://dc.lft.to/lastmile_qr_scan"}, "is_reserved": 0, "is_disabled": 0, "name": "36d4a70cb12a33c780e9aaa0803a4af1", "bike_id": "36d4a70cb12a33c780e9aaa0803a4af1", "fusion_lat": 0.0, "lon": -77.041414, "type": "electric_scooter", "fusion_lon": 0.0, "lat": 38.90609033333333}, {"rental_uris": {"android": "https://dc.lft.to/lastmile_qr_scan", "ios": "https://dc.lft.to/lastmile_qr_scan"}, "is_reserved": 0, "is_disabled": 0, "name": "e9a605a4e0e4734d64ae918b9c00741c", "bike_id": "e9a605a4e0e4734d64ae918b9c00741c", "fusion_lat": 0.0, "lon": -76.99451366666666, "type": "electric_scooter", "fusion_lon": 0.0, "lat": 38.8277355}, {"rental_uris": {"android": "https://dc.lft.to/lastmile_qr_scan", "ios": "https://dc.lft.to/lastmile_qr_scan"}, "is_reserved": 0, "is_disabled": 0, "name": "d9996c7bfa0f315fb80911e9a533530c", "bike_id": "d9996c7bfa0f315fb80911e9a533530c", "fusion_lat": 0.0, "lon": -77.0344415, "type": "electric_scooter", "fusion_lon": 0.0, "lat": 38.908089833333335}, {"rental_uris": {"android": "https://dc.lft.to/lastmile_qr_scan", "ios": "https://dc.lft.to/lastmile_qr_scan"}, "is_reserved": 0, "is_disabled": 0, "name": "313ba827d3e6925e14b7d58f6a3176a0", "bike_id": "313ba827d3e6925e14b7d58f6a3176a0", "fusion_lat": 0.0, "lon": -77.0425635, "type": "electric_scooter", "fusion_lon": 0.0, "lat": 38.909426333333336}, {"rental_uris": {"android": "https://dc.lft.to/lastmile_qr_scan", "ios": "https://dc.lft.to/lastmile_qr_scan"}, "is_reserved": 0, "is_disabled": 0, "name": "d9a5a11b8eb2810f2f6c01d74019336e", "bike_id": "d9a5a11b8eb2810f2f6c01d74019336e", "fusion_lat": 0.0, "lon": -77.024913, "type": "electric_scooter", "fusion_lon": 0.0, "lat": 38.920627333333336}, {"rental_uris": {"android": "https://dc.lft.to/lastmile_qr_scan", "ios": "https://dc.lft.to/lastmile_qr_scan"}, "is_reserved": 0, "is_disabled": 0, "name": "6215fca251e9de1bcbda385008c3f025", "bike_id": "6215fca251e9de1bcbda385008c3f025", "fusion_lat": 0.0, "lon": -77.00347483333333, "type": "electric_scooter", "fusion_lon": 0.0, "lat": 38.8863265}, {"rental_uris": {"android": "https://dc.lft.to/lastmile_qr_scan", "ios": "https://dc.lft.to/lastmile_qr_scan"}, "is_reserved": 0, "is_disabled": 0, "name": "03c8a0b5081ab0dd81595ef978dfee56", "bike_id": "03c8a0b5081ab0dd81595ef978dfee56", "fusion_lat": 0.0, "lon": -76.9942045, "type": "electric_scooter", "fusion_lon": 0.0, "lat": 38.93345883333333}, {"rental_uris": {"android": "https://dc.lft.to/lastmile_qr_scan", "ios": "https://dc.lft.to/lastmile_qr_scan"}, "is_reserved": 0, "is_disabled": 0, "name": "616ae5dc58554443a445a5897ed4a443", "bike_id": "616ae5dc58554443a445a5897ed4a443", "fusion_lat": 0.0, "lon": -77.07329316666667, "type": "electric_scooter", "fusion_lon": 0.0, "lat": 38.92256283333333}, {"rental_uris": {"android": "https://dc.lft.to/lastmile_qr_scan", "ios": "https://dc.lft.to/lastmile_qr_scan"}, "is_reserved": 0, "is_disabled": 0, "name": "6bb9dea945addfe940d73ed4a1e5f5f8", "bike_id": "6bb9dea945addfe940d73ed4a1e5f5f8", "fusion_lat": 0.0, "lon": -77.03877166666666, "type": "electric_scooter", "fusion_lon": 0.0, "lat": 38.901013}, {"rental_uris": {"android": "https://dc.lft.to/lastmile_qr_scan", "ios": "https://dc.lft.to/lastmile_qr_scan"}, "is_reserved": 0, "is_disabled": 0, "name": "e9c03d724c310aa9f4e657b8836c0a17", "bike_id": "e9c03d724c310aa9f4e657b8836c0a17", "fusion_lat": 0.0, "lon": -77.00627, "type": "electric_scooter", "fusion_lon": 0.0, "lat": 38.871744666666665}, {"rental_uris": {"android": "https://dc.lft.to/lastmile_qr_scan", "ios": "https://dc.lft.to/lastmile_qr_scan"}, "is_reserved": 0, "is_disabled": 0, "name": "f51cc9b5ac3d7ed74661cd6dfb9a4337", "bike_id": "f51cc9b5ac3d7ed74661cd6dfb9a4337", "fusion_lat": 0.0, "lon": -77.044539, "type": "electric_scooter", "fusion_lon": 0.0, "lat": 38.90287883333333}, {"rental_uris": {"android": "https://dc.lft.to/lastmile_qr_scan", "ios": "https://dc.lft.to/lastmile_qr_scan"}, "is_reserved": 0, "is_disabled": 0, "name": "b24faaf8d15e2f10c5ef62ce6630ce6e", "bike_id": "b24faaf8d15e2f10c5ef62ce6630ce6e", "fusion_lat": 0.0, "lon": -77.02807, "type": "electric_scooter", "fusion_lon": 0.0, "lat": 38.90568183333333}, {"rental_uris": {"android": "https://dc.lft.to/lastmile_qr_scan", "ios": "https://dc.lft.to/lastmile_qr_scan"}, "is_reserved": 0, "is_disabled": 0, "name": "9f08b583b87f6249373cc3612ded8d19", "bike_id": "9f08b583b87f6249373cc3612ded8d19", "fusion_lat": 0.0, "lon": -77.12934283333334, "type": "electric_bike", "fusion_lon": 0.0, "lat": 38.865746333333334}, {"rental_uris": {"android": "https://dc.lft.to/lastmile_qr_scan", "ios": "https://dc.lft.to/lastmile_qr_scan"}, "is_reserved": 0, "is_disabled": 0, "name": "4dd3a4a112e300861180643bc870b6cd", "bike_id": "4dd3a4a112e300861180643bc870b6cd", "fusion_lat": 0.0, "lon": -76.92965966666667, "type": "electric_scooter", "fusion_lon": 0.0, "lat": 38.89630183333333}, {"rental_uris": {"android": "https://dc.lft.to/lastmile_qr_scan", "ios": "https://dc.lft.to/lastmile_qr_scan"}, "is_reserved": 0, "is_disabled": 0, "name": "fa213d93efb621ee9d6868a84484054d", "bike_id": "fa213d93efb621ee9d6868a84484054d", "fusion_lat": 0.0, "lon": -77.04193433333333, "type": "electric_scooter", "fusion_lon": 0.0, "lat": 38.92046033333333}, {"rental_uris": {"android": "https://dc.lft.to/lastmile_qr_scan", "ios": "https://dc.lft.to/lastmile_qr_scan"}, "is_reserved": 0, "is_disabled": 0, "name": "aea66b9755904b90991de5398b948b80", "bike_id": "aea66b9755904b90991de5398b948b80", "fusion_lat": 0.0, "lon": -76.989902, "type": "electric_scooter", "fusion_lon": 0.0, "lat": 38.864365666666664}, {"rental_uris": {"android": "https://dc.lft.to/lastmile_qr_scan", "ios": "https://dc.lft.to/lastmile_qr_scan"}, "is_reserved": 0, "is_disabled": 0, "name": "a10b9203c4ec5e9e93e1ba9e671f94e9", "bike_id": "a10b9203c4ec5e9e93e1ba9e671f94e9", "fusion_lat": 0.0, "lon": -77.02254583333334, "type": "electric_scooter", "fusion_lon": 0.0, "lat": 38.92823216666667}, {"rental_uris": {"android": "https://dc.lft.to/lastmile_qr_scan", "ios": "https://dc.lft.to/lastmile_qr_scan"}, "is_reserved": 0, "is_disabled": 0, "name": "56232d31ae9fcac05a23878935fc289c", "bike_id": "56232d31ae9fcac05a23878935fc289c", "fusion_lat": 0.0, "lon": -77.015087, "type": "electric_scooter", "fusion_lon": 0.0, "lat": 38.892416}, {"rental_uris": {"android": "https://dc.lft.to/lastmile_qr_scan", "ios": "https://dc.lft.to/lastmile_qr_scan"}, "is_reserved": 0, "is_disabled": 0, "name": "19faa837cc108ddcc5c2a7bd02a6a329", "bike_id": "19faa837cc108ddcc5c2a7bd02a6a329", "fusion_lat": 0.0, "lon": -76.99849433333333, "type": "electric_scooter", "fusion_lon": 0.0, "lat": 38.896229}, {"rental_uris": {"android": "https://dc.lft.to/lastmile_qr_scan", "ios": "https://dc.lft.to/lastmile_qr_scan"}, "is_reserved": 0, "is_disabled": 0, "name": "bf7da1b700dc2add47a3f25bd04d5175", "bike_id": "bf7da1b700dc2add47a3f25bd04d5175", "fusion_lat": 0.0, "lon": -77.01980933333333, "type": "electric_scooter", "fusion_lon": 0.0, "lat": 38.876115}, {"rental_uris": {"android": "https://dc.lft.to/lastmile_qr_scan", "ios": "https://dc.lft.to/lastmile_qr_scan"}, "is_reserved": 0, "is_disabled": 0, "name": "18ea21aff7e83a59ca4382f6a3bb9bc8", "bike_id": "18ea21aff7e83a59ca4382f6a3bb9bc8", "fusion_lat": 0.0, "lon": -77.03377783333333, "type": "electric_scooter", "fusion_lon": 0.0, "lat": 38.90265266666667}, {"rental_uris": {"android": "https://dc.lft.to/lastmile_qr_scan", "ios": "https://dc.lft.to/lastmile_qr_scan"}, "is_reserved": 0, "is_disabled": 0, "name": "c1911e8db325bd51774c9fdd73914036", "bike_id": "c1911e8db325bd51774c9fdd73914036", "fusion_lat": 0.0, "lon": -77.03472983333333, "type": "electric_scooter", "fusion_lon": 0.0, "lat": 38.916998666666665}, {"rental_uris": {"android": "https://dc.lft.to/lastmile_qr_scan", "ios": "https://dc.lft.to/lastmile_qr_scan"}, "is_reserved": 0, "is_disabled": 0, "name": "d5db0257a0da493093d167b357ed0011", "bike_id": "d5db0257a0da493093d167b357ed0011", "fusion_lat": 0.0, "lon": -77.0263015, "type": "electric_scooter", "fusion_lon": 0.0, "lat": 38.93031583333333}, {"rental_uris": {"android": "https://dc.lft.to/lastmile_qr_scan", "ios": "https://dc.lft.to/lastmile_qr_scan"}, "is_reserved": 0, "is_disabled": 0, "name": "b93406829d6d56a7753bc9a3a0edd995", "bike_id": "b93406829d6d56a7753bc9a3a0edd995", "fusion_lat": 0.0, "lon": -77.0451505, "type": "electric_scooter", "fusion_lon": 0.0, "lat": 38.905462666666665}, {"rental_uris": {"android": "https://dc.lft.to/lastmile_qr_scan", "ios": "https://dc.lft.to/lastmile_qr_scan"}, "is_reserved": 0, "is_disabled": 0, "name": "85dfe5845a515e0fa68a4b8534bc8b63", "bike_id": "85dfe5845a515e0fa68a4b8534bc8b63", "fusion_lat": 0.0, "lon": -77.03756783333333, "type": "electric_scooter", "fusion_lon": 0.0, "lat": 38.929240166666666}, {"rental_uris": {"android": "https://dc.lft.to/lastmile_qr_scan", "ios": "https://dc.lft.to/lastmile_qr_scan"}, "is_reserved": 0, "is_disabled": 0, "name": "e416121302bf10506086fc3cfc089392", "bike_id": "e416121302bf10506086fc3cfc089392", "fusion_lat": 0.0, "lon": -77.0682665, "type": "electric_scooter", "fusion_lon": 0.0, "lat": 38.91656433333333}, {"rental_uris": {"android": "https://dc.lft.to/lastmile_qr_scan", "ios": "https://dc.lft.to/lastmile_qr_scan"}, "is_reserved": 0, "is_disabled": 0, "name": "c4059cb361ddbb1aa6ba133e7f6d0283", "bike_id": "c4059cb361ddbb1aa6ba133e7f6d0283", "fusion_lat": 0.0, "lon": -77.04175483333333, "type": "electric_scooter", "fusion_lon": 0.0, "lat": 38.9173255}, {"rental_uris": {"android": "https://dc.lft.to/lastmile_qr_scan", "ios": "https://dc.lft.to/lastmile_qr_scan"}, "is_reserved": 0, "is_disabled": 0, "name": "071013af609cf78dad306d0819ecf9a4", "bike_id": "071013af609cf78dad306d0819ecf9a4", "fusion_lat": 0.0, "lon": -77.05209566666667, "type": "electric_scooter", "fusion_lon": 0.0, "lat": 38.90263983333333}, {"rental_uris": {"android": "https://dc.lft.to/lastmile_qr_scan", "ios": "https://dc.lft.to/lastmile_qr_scan"}, "is_reserved": 0, "is_disabled": 0, "name": "3b7cc567e84be8c8e352ee19670b3fb9", "bike_id": "3b7cc567e84be8c8e352ee19670b3fb9", "fusion_lat": 0.0, "lon": -77.06570416666666, "type": "electric_bike", "fusion_lon": 0.0, "lat": 38.9326145}, {"rental_uris": {"android": "https://dc.lft.to/lastmile_qr_scan", "ios": "https://dc.lft.to/lastmile_qr_scan"}, "is_reserved": 0, "is_disabled": 0, "name": "fb5a0909cd2b8364949b1bed6a1f80c8", "bike_id": "fb5a0909cd2b8364949b1bed6a1f80c8", "fusion_lat": 0.0, "lon": -77.02692683333333, "type": "electric_scooter", "fusion_lon": 0.0, "lat": 38.916764}, {"rental_uris": {"android": "https://dc.lft.to/lastmile_qr_scan", "ios": "https://dc.lft.to/lastmile_qr_scan"}, "is_reserved": 0, "is_disabled": 0, "name": "93ae7393bed0517fd933278a65d0a13b", "bike_id": "93ae7393bed0517fd933278a65d0a13b", "fusion_lat": 0.0, "lon": -77.0460165, "type": "electric_scooter", "fusion_lon": 0.0, "lat": 38.913862333333334}, {"rental_uris": {"android": "https://dc.lft.to/lastmile_qr_scan", "ios": "https://dc.lft.to/lastmile_qr_scan"}, "is_reserved": 0, "is_disabled": 0, "name": "2dc72b6cbb21c6ca51143c729c31b4f5", "bike_id": "2dc72b6cbb21c6ca51143c729c31b4f5", "fusion_lat": 0.0, "lon": -77.02172383333334, "type": "electric_scooter", "fusion_lon": 0.0, "lat": 38.9249405}, {"rental_uris": {"android": "https://dc.lft.to/lastmile_qr_scan", "ios": "https://dc.lft.to/lastmile_qr_scan"}, "is_reserved": 0, "is_disabled": 0, "name": "1a199db2fbc0d34f1dcbebf8138951fb", "bike_id": "1a199db2fbc0d34f1dcbebf8138951fb", "fusion_lat": 0.0, "lon": -77.02356483333334, "type": "electric_scooter", "fusion_lon": 0.0, "lat": 38.92074516666667}, {"rental_uris": {"android": "https://dc.lft.to/lastmile_qr_scan", "ios": "https://dc.lft.to/lastmile_qr_scan"}, "is_reserved": 0, "is_disabled": 0, "name": "d9d9d5cba6120c615d1822e13620a155", "bike_id": "d9d9d5cba6120c615d1822e13620a155", "fusion_lat": 0.0, "lon": -76.98594333333334, "type": "electric_scooter", "fusion_lon": 0.0, "lat": 38.90655366666667}, {"rental_uris": {"android": "https://dc.lft.to/lastmile_qr_scan", "ios": "https://dc.lft.to/lastmile_qr_scan"}, "is_reserved": 0, "is_disabled": 0, "name": "8c88ea5b3a307ca554f52af8fade3f22", "bike_id": "8c88ea5b3a307ca554f52af8fade3f22", "fusion_lat": 0.0, "lon": -77.018094, "type": "electric_scooter", "fusion_lon": 0.0, "lat": 38.9198595}, {"rental_uris": {"android": "https://dc.lft.to/lastmile_qr_scan", "ios": "https://dc.lft.to/lastmile_qr_scan"}, "is_reserved": 0, "is_disabled": 0, "name": "9f5953cf30c2026b159520f4f48d3a57", "bike_id": "9f5953cf30c2026b159520f4f48d3a57", "fusion_lat": 0.0, "lon": -77.02977683333333, "type": "electric_scooter", "fusion_lon": 0.0, "lat": 38.92447466666667}, {"rental_uris": {"android": "https://dc.lft.to/lastmile_qr_scan", "ios": "https://dc.lft.to/lastmile_qr_scan"}, "is_reserved": 0, "is_disabled": 0, "name": "ecfd255e87e6d73795735ed567a3032d", "bike_id": "ecfd255e87e6d73795735ed567a3032d", "fusion_lat": 0.0, "lon": -76.99715433333333, "type": "electric_bike", "fusion_lon": 0.0, "lat": 38.998534166666666}, {"rental_uris": {"android": "https://dc.lft.to/lastmile_qr_scan", "ios": "https://dc.lft.to/lastmile_qr_scan"}, "is_reserved": 0, "is_disabled": 0, "name": "41c4c27c63b50a66b725829e3185934d", "bike_id": "41c4c27c63b50a66b725829e3185934d", "fusion_lat": 0.0, "lon": -77.0328215, "type": "electric_scooter", "fusion_lon": 0.0, "lat": 38.89903983333333}, {"rental_uris": {"android": "https://dc.lft.to/lastmile_qr_scan", "ios": "https://dc.lft.to/lastmile_qr_scan"}, "is_reserved": 0, "is_disabled": 0, "name": "e8da4c4d857f993591adfbfefc45af65", "bike_id": "e8da4c4d857f993591adfbfefc45af65", "fusion_lat": 0.0, "lon": -76.981115, "type": "electric_bike", "fusion_lon": 0.0, "lat": 38.945698}, {"rental_uris": {"android": "https://dc.lft.to/lastmile_qr_scan", "ios": "https://dc.lft.to/lastmile_qr_scan"}, "is_reserved": 0, "is_disabled": 0, "name": "de21b26fb480afc2996f1e413ae3b5b9", "bike_id": "de21b26fb480afc2996f1e413ae3b5b9", "fusion_lat": 0.0, "lon": -77.04010533333333, "type": "electric_scooter", "fusion_lon": 0.0, "lat": 38.898179}, {"rental_uris": {"android": "https://dc.lft.to/lastmile_qr_scan", "ios": "https://dc.lft.to/lastmile_qr_scan"}, "is_reserved": 0, "is_disabled": 0, "name": "9752e28de6fe6338d68251b7fce75b22", "bike_id": "9752e28de6fe6338d68251b7fce75b22", "fusion_lat": 0.0, "lon": -76.983833, "type": "electric_scooter", "fusion_lon": 0.0, "lat": 38.87943816666667}, {"rental_uris": {"android": "https://dc.lft.to/lastmile_qr_scan", "ios": "https://dc.lft.to/lastmile_qr_scan"}, "is_reserved": 0, "is_disabled": 0, "name": "17052fa9cb5f043b5374cf3426ced9f3", "bike_id": "17052fa9cb5f043b5374cf3426ced9f3", "fusion_lat": 0.0, "lon": -77.08254266666667, "type": "electric_scooter", "fusion_lon": 0.0, "lat": 38.90736233333333}, {"rental_uris": {"android": "https://dc.lft.to/lastmile_qr_scan", "ios": "https://dc.lft.to/lastmile_qr_scan"}, "is_reserved": 0, "is_disabled": 0, "name": "7920525bf5b848b6dac9c623cab96503", "bike_id": "7920525bf5b848b6dac9c623cab96503", "fusion_lat": 0.0, "lon": -77.0320805, "type": "electric_scooter", "fusion_lon": 0.0, "lat": 38.9114585}, {"rental_uris": {"android": "https://dc.lft.to/lastmile_qr_scan", "ios": "https://dc.lft.to/lastmile_qr_scan"}, "is_reserved": 0, "is_disabled": 0, "name": "245409bd5ab9d4fba71a2eeb0d38ee42", "bike_id": "245409bd5ab9d4fba71a2eeb0d38ee42", "fusion_lat": 0.0, "lon": -77.01038516666667, "type": "electric_scooter", "fusion_lon": 0.0, "lat": 38.9213285}, {"rental_uris": {"android": "https://dc.lft.to/lastmile_qr_scan", "ios": "https://dc.lft.to/lastmile_qr_scan"}, "is_reserved": 0, "is_disabled": 0, "name": "15fbfcdcd3a4d4795f97681cdadfd8c0", "bike_id": "15fbfcdcd3a4d4795f97681cdadfd8c0", "fusion_lat": 0.0, "lon": -77.0502225, "type": "electric_scooter", "fusion_lon": 0.0, "lat": 38.896554333333334}, {"rental_uris": {"android": "https://dc.lft.to/lastmile_qr_scan", "ios": "https://dc.lft.to/lastmile_qr_scan"}, "is_reserved": 0, "is_disabled": 0, "name": "db4c68772233c9eab065b63901a52d6b", "bike_id": "db4c68772233c9eab065b63901a52d6b", "fusion_lat": 0.0, "lon": -77.027245, "type": "electric_scooter", "fusion_lon": 0.0, "lat": 38.93251816666667}, {"rental_uris": {"android": "https://dc.lft.to/lastmile_qr_scan", "ios": "https://dc.lft.to/lastmile_qr_scan"}, "is_reserved": 0, "is_disabled": 0, "name": "5667ffbfe7c3db8ae1f3c540481b0251", "bike_id": "5667ffbfe7c3db8ae1f3c540481b0251", "fusion_lat": 0.0, "lon": -76.9974505, "type": "electric_bike", "fusion_lon": 0.0, "lat": 38.92408133333333}, {"rental_uris": {"android": "https://dc.lft.to/lastmile_qr_scan", "ios": "https://dc.lft.to/lastmile_qr_scan"}, "is_reserved": 0, "is_disabled": 0, "name": "16a995eee8cfc273df852aa2cee17cc3", "bike_id": "16a995eee8cfc273df852aa2cee17cc3", "fusion_lat": 0.0, "lon": -77.04305733333334, "type": "electric_scooter", "fusion_lon": 0.0, "lat": 38.9187175}, {"rental_uris": {"android": "https://dc.lft.to/lastmile_qr_scan", "ios": "https://dc.lft.to/lastmile_qr_scan"}, "is_reserved": 0, "is_disabled": 0, "name": "96317ffab8e2816a47a09ac83f8d4651", "bike_id": "96317ffab8e2816a47a09ac83f8d4651", "fusion_lat": 0.0, "lon": -77.02948166666667, "type": "electric_scooter", "fusion_lon": 0.0, "lat": 38.916512}, {"rental_uris": {"android": "https://dc.lft.to/lastmile_qr_scan", "ios": "https://dc.lft.to/lastmile_qr_scan"}, "is_reserved": 0, "is_disabled": 0, "name": "f93ba123e5e19503a8a6e379fa998a42", "bike_id": "f93ba123e5e19503a8a6e379fa998a42", "fusion_lat": 0.0, "lon": -77.0784705, "type": "electric_scooter", "fusion_lon": 0.0, "lat": 38.945953333333335}, {"rental_uris": {"android": "https://dc.lft.to/lastmile_qr_scan", "ios": "https://dc.lft.to/lastmile_qr_scan"}, "is_reserved": 0, "is_disabled": 0, "name": "d3bda9cfc425940234123f7d97a2432e", "bike_id": "d3bda9cfc425940234123f7d97a2432e", "fusion_lat": 0.0, "lon": -77.02789016666667, "type": "electric_scooter", "fusion_lon": 0.0, "lat": 38.961305}, {"rental_uris": {"android": "https://dc.lft.to/lastmile_qr_scan", "ios": "https://dc.lft.to/lastmile_qr_scan"}, "is_reserved": 0, "is_disabled": 0, "name": "ac5176cdb1feacb88afcd76378b0a3aa", "bike_id": "ac5176cdb1feacb88afcd76378b0a3aa", "fusion_lat": 0.0, "lon": -77.0181715, "type": "electric_scooter", "fusion_lon": 0.0, "lat": 38.92153616666667}, {"rental_uris": {"android": "https://dc.lft.to/lastmile_qr_scan", "ios": "https://dc.lft.to/lastmile_qr_scan"}, "is_reserved": 0, "is_disabled": 0, "name": "b5765343f5917e51e05097f9fec15bcb", "bike_id": "b5765343f5917e51e05097f9fec15bcb", "fusion_lat": 0.0, "lon": -77.04160416666667, "type": "electric_scooter", "fusion_lon": 0.0, "lat": 38.917128}, {"rental_uris": {"android": "https://dc.lft.to/lastmile_qr_scan", "ios": "https://dc.lft.to/lastmile_qr_scan"}, "is_reserved": 0, "is_disabled": 0, "name": "67cfc947a008fd27334b0a38a83d7303", "bike_id": "67cfc947a008fd27334b0a38a83d7303", "fusion_lat": 0.0, "lon": -77.05346716666666, "type": "electric_scooter", "fusion_lon": 0.0, "lat": 38.92712216666666}, {"rental_uris": {"android": "https://dc.lft.to/lastmile_qr_scan", "ios": "https://dc.lft.to/lastmile_qr_scan"}, "is_reserved": 0, "is_disabled": 0, "name": "4d1ab4878d113bf4515c7305781e3125", "bike_id": "4d1ab4878d113bf4515c7305781e3125", "fusion_lat": 0.0, "lon": -77.03439816666666, "type": "electric_scooter", "fusion_lon": 0.0, "lat": 38.9180585}, {"rental_uris": {"android": "https://dc.lft.to/lastmile_qr_scan", "ios": "https://dc.lft.to/lastmile_qr_scan"}, "is_reserved": 0, "is_disabled": 0, "name": "1016e4d6ce471dad494fb76326982c07", "bike_id": "1016e4d6ce471dad494fb76326982c07", "fusion_lat": 0.0, "lon": -77.04558066666667, "type": "electric_scooter", "fusion_lon": 0.0, "lat": 38.91933783333333}, {"rental_uris": {"android": "https://dc.lft.to/lastmile_qr_scan", "ios": "https://dc.lft.to/lastmile_qr_scan"}, "is_reserved": 0, "is_disabled": 0, "name": "c6a3979457691fcaad9ab153a6455f00", "bike_id": "c6a3979457691fcaad9ab153a6455f00", "fusion_lat": 0.0, "lon": -77.01841333333333, "type": "electric_scooter", "fusion_lon": 0.0, "lat": 38.909628833333336}, {"rental_uris": {"android": "https://dc.lft.to/lastmile_qr_scan", "ios": "https://dc.lft.to/lastmile_qr_scan"}, "is_reserved": 0, "is_disabled": 0, "name": "26a40678b7a201cd311c822d4afa8fd0", "bike_id": "26a40678b7a201cd311c822d4afa8fd0", "fusion_lat": 0.0, "lon": -77.02307683333333, "type": "electric_scooter", "fusion_lon": 0.0, "lat": 38.91790616666667}, {"rental_uris": {"android": "https://dc.lft.to/lastmile_qr_scan", "ios": "https://dc.lft.to/lastmile_qr_scan"}, "is_reserved": 0, "is_disabled": 0, "name": "c28fb71484a5ce019d591f2dd090f210", "bike_id": "c28fb71484a5ce019d591f2dd090f210", "fusion_lat": 0.0, "lon": -77.019792, "type": "electric_scooter", "fusion_lon": 0.0, "lat": 38.90050216666667}, {"rental_uris": {"android": "https://dc.lft.to/lastmile_qr_scan", "ios": "https://dc.lft.to/lastmile_qr_scan"}, "is_reserved": 0, "is_disabled": 0, "name": "febf3ff83e8fbe3aa9d0fccac6e21800", "bike_id": "febf3ff83e8fbe3aa9d0fccac6e21800", "fusion_lat": 0.0, "lon": -77.00909833333333, "type": "electric_scooter", "fusion_lon": 0.0, "lat": 38.9137705}, {"rental_uris": {"android": "https://dc.lft.to/lastmile_qr_scan", "ios": "https://dc.lft.to/lastmile_qr_scan"}, "is_reserved": 0, "is_disabled": 0, "name": "ec3b077812314b1e42ab50caa4ea9156", "bike_id": "ec3b077812314b1e42ab50caa4ea9156", "fusion_lat": 0.0, "lon": -77.02941433333334, "type": "electric_scooter", "fusion_lon": 0.0, "lat": 38.920665}, {"rental_uris": {"android": "https://dc.lft.to/lastmile_qr_scan", "ios": "https://dc.lft.to/lastmile_qr_scan"}, "is_reserved": 0, "is_disabled": 0, "name": "bffcf465c03983073e168e177d4bd54a", "bike_id": "bffcf465c03983073e168e177d4bd54a", "fusion_lat": 0.0, "lon": -77.03663566666667, "type": "electric_scooter", "fusion_lon": 0.0, "lat": 38.922706166666664}, {"rental_uris": {"android": "https://dc.lft.to/lastmile_qr_scan", "ios": "https://dc.lft.to/lastmile_qr_scan"}, "is_reserved": 0, "is_disabled": 0, "name": "e04830fcaac8719b175be547b155e723", "bike_id": "e04830fcaac8719b175be547b155e723", "fusion_lat": 0.0, "lon": -76.99623716666666, "type": "electric_scooter", "fusion_lon": 0.0, "lat": 38.900475666666665}, {"rental_uris": {"android": "https://dc.lft.to/lastmile_qr_scan", "ios": "https://dc.lft.to/lastmile_qr_scan"}, "is_reserved": 0, "is_disabled": 0, "name": "73c0c19e310d03274753c72927651a5d", "bike_id": "73c0c19e310d03274753c72927651a5d", "fusion_lat": 0.0, "lon": -77.02890183333334, "type": "electric_scooter", "fusion_lon": 0.0, "lat": 38.926774333333334}, {"rental_uris": {"android": "https://dc.lft.to/lastmile_qr_scan", "ios": "https://dc.lft.to/lastmile_qr_scan"}, "is_reserved": 0, "is_disabled": 0, "name": "098f5ef8c8df92a41bbd4220df9a0bc8", "bike_id": "098f5ef8c8df92a41bbd4220df9a0bc8", "fusion_lat": 0.0, "lon": -77.02532666666667, "type": "electric_scooter", "fusion_lon": 0.0, "lat": 38.883212666666665}, {"rental_uris": {"android": "https://dc.lft.to/lastmile_qr_scan", "ios": "https://dc.lft.to/lastmile_qr_scan"}, "is_reserved": 0, "is_disabled": 0, "name": "9f51a7f72e1e27a3ccc043981a2a5ee6", "bike_id": "9f51a7f72e1e27a3ccc043981a2a5ee6", "fusion_lat": 0.0, "lon": -77.04005566666666, "type": "electric_scooter", "fusion_lon": 0.0, "lat": 38.924299166666664}, {"rental_uris": {"android": "https://dc.lft.to/lastmile_qr_scan", "ios": "https://dc.lft.to/lastmile_qr_scan"}, "is_reserved": 0, "is_disabled": 0, "name": "7c91f289a64e1456648d2caa27a97bd4", "bike_id": "7c91f289a64e1456648d2caa27a97bd4", "fusion_lat": 0.0, "lon": -76.98652416666667, "type": "electric_scooter", "fusion_lon": 0.0, "lat": 38.855139666666666}, {"rental_uris": {"android": "https://dc.lft.to/lastmile_qr_scan", "ios": "https://dc.lft.to/lastmile_qr_scan"}, "is_reserved": 0, "is_disabled": 0, "name": "99ce7ce01496a0124675616d5cdf5b01", "bike_id": "99ce7ce01496a0124675616d5cdf5b01", "fusion_lat": 0.0, "lon": -77.03530266666667, "type": "electric_scooter", "fusion_lon": 0.0, "lat": 38.924684666666664}, {"rental_uris": {"android": "https://dc.lft.to/lastmile_qr_scan", "ios": "https://dc.lft.to/lastmile_qr_scan"}, "is_reserved": 0, "is_disabled": 0, "name": "7e11ef9ed358bc580380aed76c975019", "bike_id": "7e11ef9ed358bc580380aed76c975019", "fusion_lat": 0.0, "lon": -77.043439, "type": "electric_scooter", "fusion_lon": 0.0, "lat": 38.89690433333333}, {"rental_uris": {"android": "https://dc.lft.to/lastmile_qr_scan", "ios": "https://dc.lft.to/lastmile_qr_scan"}, "is_reserved": 0, "is_disabled": 0, "name": "9eae382d7b84bd2380cdb5df20998549", "bike_id": "9eae382d7b84bd2380cdb5df20998549", "fusion_lat": 0.0, "lon": -76.9550375, "type": "electric_scooter", "fusion_lon": 0.0, "lat": 38.888743}, {"rental_uris": {"android": "https://dc.lft.to/lastmile_qr_scan", "ios": "https://dc.lft.to/lastmile_qr_scan"}, "is_reserved": 0, "is_disabled": 0, "name": "3ca8f81c4f7dbd48b5da5eb882ff1a4f", "bike_id": "3ca8f81c4f7dbd48b5da5eb882ff1a4f", "fusion_lat": 0.0, "lon": -77.03664166666667, "type": "electric_scooter", "fusion_lon": 0.0, "lat": 38.91624216666666}, {"rental_uris": {"android": "https://dc.lft.to/lastmile_qr_scan", "ios": "https://dc.lft.to/lastmile_qr_scan"}, "is_reserved": 0, "is_disabled": 0, "name": "1a9f710731f5b7a34b25dee8298657f2", "bike_id": "1a9f710731f5b7a34b25dee8298657f2", "fusion_lat": 0.0, "lon": -76.98573, "type": "electric_scooter", "fusion_lon": 0.0, "lat": 38.900174166666666}, {"rental_uris": {"android": "https://dc.lft.to/lastmile_qr_scan", "ios": "https://dc.lft.to/lastmile_qr_scan"}, "is_reserved": 0, "is_disabled": 0, "name": "f9c3d7e1423d97f77d4f13fe060fdbc4", "bike_id": "f9c3d7e1423d97f77d4f13fe060fdbc4", "fusion_lat": 0.0, "lon": -77.0240835, "type": "electric_scooter", "fusion_lon": 0.0, "lat": 38.912678}, {"rental_uris": {"android": "https://dc.lft.to/lastmile_qr_scan", "ios": "https://dc.lft.to/lastmile_qr_scan"}, "is_reserved": 0, "is_disabled": 0, "name": "9e701f8a1c57dbf9314ec8823baeb8c0", "bike_id": "9e701f8a1c57dbf9314ec8823baeb8c0", "fusion_lat": 0.0, "lon": -77.02148816666667, "type": "electric_scooter", "fusion_lon": 0.0, "lat": 38.94134066666667}, {"rental_uris": {"android": "https://dc.lft.to/lastmile_qr_scan", "ios": "https://dc.lft.to/lastmile_qr_scan"}, "is_reserved": 0, "is_disabled": 0, "name": "4f7fb229098f0c65d6f8bcd446a758b2", "bike_id": "4f7fb229098f0c65d6f8bcd446a758b2", "fusion_lat": 0.0, "lon": -76.94653083333333, "type": "electric_scooter", "fusion_lon": 0.0, "lat": 38.8982525}, {"rental_uris": {"android": "https://dc.lft.to/lastmile_qr_scan", "ios": "https://dc.lft.to/lastmile_qr_scan"}, "is_reserved": 0, "is_disabled": 0, "name": "e57e39731a9632f79f8edb2bf84f859a", "bike_id": "e57e39731a9632f79f8edb2bf84f859a", "fusion_lat": 0.0, "lon": -77.0240845, "type": "electric_scooter", "fusion_lon": 0.0, "lat": 38.915685833333335}, {"rental_uris": {"android": "https://dc.lft.to/lastmile_qr_scan", "ios": "https://dc.lft.to/lastmile_qr_scan"}, "is_reserved": 0, "is_disabled": 0, "name": "23b535bdd9998d460341b34b188b3ab3", "bike_id": "23b535bdd9998d460341b34b188b3ab3", "fusion_lat": 0.0, "lon": -77.027894, "type": "electric_scooter", "fusion_lon": 0.0, "lat": 38.96127216666667}, {"rental_uris": {"android": "https://dc.lft.to/lastmile_qr_scan", "ios": "https://dc.lft.to/lastmile_qr_scan"}, "is_reserved": 0, "is_disabled": 0, "name": "cff236b8b7d2d4b0f7d7db5e67bfe72a", "bike_id": "cff236b8b7d2d4b0f7d7db5e67bfe72a", "fusion_lat": 0.0, "lon": -77.02803916666667, "type": "electric_scooter", "fusion_lon": 0.0, "lat": 38.892278833333336}, {"rental_uris": {"android": "https://dc.lft.to/lastmile_qr_scan", "ios": "https://dc.lft.to/lastmile_qr_scan"}, "is_reserved": 0, "is_disabled": 0, "name": "866224f19f23d28361cb4f58fa3ee0e9", "bike_id": "866224f19f23d28361cb4f58fa3ee0e9", "fusion_lat": 0.0, "lon": -77.04683883333334, "type": "electric_scooter", "fusion_lon": 0.0, "lat": 38.89221933333334}, {"rental_uris": {"android": "https://dc.lft.to/lastmile_qr_scan", "ios": "https://dc.lft.to/lastmile_qr_scan"}, "is_reserved": 0, "is_disabled": 0, "name": "f36f8b005c9680b427d04c39cc6cc9a5", "bike_id": "f36f8b005c9680b427d04c39cc6cc9a5", "fusion_lat": 0.0, "lon": -77.0469655, "type": "electric_scooter", "fusion_lon": 0.0, "lat": 38.896042666666666}, {"rental_uris": {"android": "https://dc.lft.to/lastmile_qr_scan", "ios": "https://dc.lft.to/lastmile_qr_scan"}, "is_reserved": 0, "is_disabled": 0, "name": "d0697d111deddf7f0aa87c466e920e68", "bike_id": "d0697d111deddf7f0aa87c466e920e68", "fusion_lat": 0.0, "lon": -77.090978, "type": "electric_scooter", "fusion_lon": 0.0, "lat": 38.931001333333334}, {"rental_uris": {"android": "https://dc.lft.to/lastmile_qr_scan", "ios": "https://dc.lft.to/lastmile_qr_scan"}, "is_reserved": 0, "is_disabled": 0, "name": "fb0cff506037ff6a9f8e649af6115cf3", "bike_id": "fb0cff506037ff6a9f8e649af6115cf3", "fusion_lat": 0.0, "lon": -77.053404, "type": "electric_scooter", "fusion_lon": 0.0, "lat": 38.906431166666664}, {"rental_uris": {"android": "https://dc.lft.to/lastmile_qr_scan", "ios": "https://dc.lft.to/lastmile_qr_scan"}, "is_reserved": 0, "is_disabled": 0, "name": "aadec79a55d00427a731c259b1f88d8b", "bike_id": "aadec79a55d00427a731c259b1f88d8b", "fusion_lat": 0.0, "lon": -77.0219045, "type": "electric_scooter", "fusion_lon": 0.0, "lat": 38.9248755}, {"rental_uris": {"android": "https://dc.lft.to/lastmile_qr_scan", "ios": "https://dc.lft.to/lastmile_qr_scan"}, "is_reserved": 0, "is_disabled": 0, "name": "eef21947685adb721891f3849fb06625", "bike_id": "eef21947685adb721891f3849fb06625", "fusion_lat": 0.0, "lon": -77.032126, "type": "electric_scooter", "fusion_lon": 0.0, "lat": 38.9159355}, {"rental_uris": {"android": "https://dc.lft.to/lastmile_qr_scan", "ios": "https://dc.lft.to/lastmile_qr_scan"}, "is_reserved": 0, "is_disabled": 0, "name": "e84801ef9e9c2baba478066e6dc92913", "bike_id": "e84801ef9e9c2baba478066e6dc92913", "fusion_lat": 0.0, "lon": -77.02323133333333, "type": "electric_scooter", "fusion_lon": 0.0, "lat": 38.916977833333334}, {"rental_uris": {"android": "https://dc.lft.to/lastmile_qr_scan", "ios": "https://dc.lft.to/lastmile_qr_scan"}, "is_reserved": 0, "is_disabled": 0, "name": "66efd48f82f2735b15b7c8bda0f2dbb2", "bike_id": "66efd48f82f2735b15b7c8bda0f2dbb2", "fusion_lat": 0.0, "lon": -77.033148, "type": "electric_scooter", "fusion_lon": 0.0, "lat": 38.899959833333334}, {"rental_uris": {"android": "https://dc.lft.to/lastmile_qr_scan", "ios": "https://dc.lft.to/lastmile_qr_scan"}, "is_reserved": 0, "is_disabled": 0, "name": "81c5e4878b29bf07f63589e9ce223f17", "bike_id": "81c5e4878b29bf07f63589e9ce223f17", "fusion_lat": 0.0, "lon": -77.02144816666667, "type": "electric_scooter", "fusion_lon": 0.0, "lat": 38.90480983333333}, {"rental_uris": {"android": "https://dc.lft.to/lastmile_qr_scan", "ios": "https://dc.lft.to/lastmile_qr_scan"}, "is_reserved": 0, "is_disabled": 0, "name": "7d73bbf2fa71fe2f032f783de00f107a", "bike_id": "7d73bbf2fa71fe2f032f783de00f107a", "fusion_lat": 0.0, "lon": -77.04331516666667, "type": "electric_scooter", "fusion_lon": 0.0, "lat": 38.91310583333333}, {"rental_uris": {"android": "https://dc.lft.to/lastmile_qr_scan", "ios": "https://dc.lft.to/lastmile_qr_scan"}, "is_reserved": 0, "is_disabled": 0, "name": "c303b7b639c79072a8547287ab5e6698", "bike_id": "c303b7b639c79072a8547287ab5e6698", "fusion_lat": 0.0, "lon": -77.02661733333333, "type": "electric_scooter", "fusion_lon": 0.0, "lat": 38.921749}, {"rental_uris": {"android": "https://dc.lft.to/lastmile_qr_scan", "ios": "https://dc.lft.to/lastmile_qr_scan"}, "is_reserved": 0, "is_disabled": 0, "name": "c7652a790c05dfceb656e6ca3af49ad7", "bike_id": "c7652a790c05dfceb656e6ca3af49ad7", "fusion_lat": 0.0, "lon": -77.02081016666666, "type": "electric_scooter", "fusion_lon": 0.0, "lat": 38.9270805}, {"rental_uris": {"android": "https://dc.lft.to/lastmile_qr_scan", "ios": "https://dc.lft.to/lastmile_qr_scan"}, "is_reserved": 0, "is_disabled": 0, "name": "af38d9b9299ff4f2ea811874b680ae03", "bike_id": "af38d9b9299ff4f2ea811874b680ae03", "fusion_lat": 0.0, "lon": -77.02694933333333, "type": "electric_scooter", "fusion_lon": 0.0, "lat": 38.949804}, {"rental_uris": {"android": "https://dc.lft.to/lastmile_qr_scan", "ios": "https://dc.lft.to/lastmile_qr_scan"}, "is_reserved": 0, "is_disabled": 0, "name": "16bf7fb94d8466982e17d1f8ec6382a7", "bike_id": "16bf7fb94d8466982e17d1f8ec6382a7", "fusion_lat": 0.0, "lon": -76.984968, "type": "electric_scooter", "fusion_lon": 0.0, "lat": 38.860613666666666}, {"rental_uris": {"android": "https://dc.lft.to/lastmile_qr_scan", "ios": "https://dc.lft.to/lastmile_qr_scan"}, "is_reserved": 0, "is_disabled": 0, "name": "25654d9c0d8e35958543c02c47e57f21", "bike_id": "25654d9c0d8e35958543c02c47e57f21", "fusion_lat": 0.0, "lon": -77.0326555, "type": "electric_scooter", "fusion_lon": 0.0, "lat": 38.93420833333333}, {"rental_uris": {"android": "https://dc.lft.to/lastmile_qr_scan", "ios": "https://dc.lft.to/lastmile_qr_scan"}, "is_reserved": 0, "is_disabled": 0, "name": "864a22f96d3a6dadfaeaaae2d996c9dc", "bike_id": "864a22f96d3a6dadfaeaaae2d996c9dc", "fusion_lat": 0.0, "lon": -77.03362416666667, "type": "electric_scooter", "fusion_lon": 0.0, "lat": 38.90283483333333}, {"rental_uris": {"android": "https://dc.lft.to/lastmile_qr_scan", "ios": "https://dc.lft.to/lastmile_qr_scan"}, "is_reserved": 0, "is_disabled": 0, "name": "de684c0e132dc27926937723270459fc", "bike_id": "de684c0e132dc27926937723270459fc", "fusion_lat": 0.0, "lon": -77.03185966666666, "type": "electric_scooter", "fusion_lon": 0.0, "lat": 38.919272166666666}, {"rental_uris": {"android": "https://dc.lft.to/lastmile_qr_scan", "ios": "https://dc.lft.to/lastmile_qr_scan"}, "is_reserved": 0, "is_disabled": 0, "name": "118e1c909f9177652a7a7736083aac03", "bike_id": "118e1c909f9177652a7a7736083aac03", "fusion_lat": 0.0, "lon": -77.02603233333333, "type": "electric_scooter", "fusion_lon": 0.0, "lat": 38.920382000000004}, {"rental_uris": {"android": "https://dc.lft.to/lastmile_qr_scan", "ios": "https://dc.lft.to/lastmile_qr_scan"}, "is_reserved": 0, "is_disabled": 0, "name": "f6290f46fcc5821542f072a6ed093271", "bike_id": "f6290f46fcc5821542f072a6ed093271", "fusion_lat": 0.0, "lon": -77.02858683333334, "type": "electric_scooter", "fusion_lon": 0.0, "lat": 38.935327666666666}, {"rental_uris": {"android": "https://dc.lft.to/lastmile_qr_scan", "ios": "https://dc.lft.to/lastmile_qr_scan"}, "is_reserved": 0, "is_disabled": 0, "name": "14d15dd90266e3372513ccee93b79f56", "bike_id": "14d15dd90266e3372513ccee93b79f56", "fusion_lat": 0.0, "lon": -77.05128883333333, "type": "electric_scooter", "fusion_lon": 0.0, "lat": 38.90646183333333}, {"rental_uris": {"android": "https://dc.lft.to/lastmile_qr_scan", "ios": "https://dc.lft.to/lastmile_qr_scan"}, "is_reserved": 0, "is_disabled": 0, "name": "5e3e85b97ddbd57cb0be439510cff192", "bike_id": "5e3e85b97ddbd57cb0be439510cff192", "fusion_lat": 0.0, "lon": -77.00614416666667, "type": "electric_scooter", "fusion_lon": 0.0, "lat": 38.875440833333336}, {"rental_uris": {"android": "https://dc.lft.to/lastmile_qr_scan", "ios": "https://dc.lft.to/lastmile_qr_scan"}, "is_reserved": 0, "is_disabled": 0, "name": "2e28a269577baf050061ee78d6b49210", "bike_id": "2e28a269577baf050061ee78d6b49210", "fusion_lat": 0.0, "lon": -77.0945235, "type": "electric_bike", "fusion_lon": 0.0, "lat": 38.80754916666667}, {"rental_uris": {"android": "https://dc.lft.to/lastmile_qr_scan", "ios": "https://dc.lft.to/lastmile_qr_scan"}, "is_reserved": 0, "is_disabled": 0, "name": "b810ed23a32a06f7809a468827ed637f", "bike_id": "b810ed23a32a06f7809a468827ed637f", "fusion_lat": 0.0, "lon": -77.048679, "type": "electric_scooter", "fusion_lon": 0.0, "lat": 38.919740833333336}, {"rental_uris": {"android": "https://dc.lft.to/lastmile_qr_scan", "ios": "https://dc.lft.to/lastmile_qr_scan"}, "is_reserved": 0, "is_disabled": 0, "name": "46b862e26e9e2c719b715d892502e2f7", "bike_id": "46b862e26e9e2c719b715d892502e2f7", "fusion_lat": 0.0, "lon": -77.0214245, "type": "electric_scooter", "fusion_lon": 0.0, "lat": 38.92743983333333}, {"rental_uris": {"android": "https://dc.lft.to/lastmile_qr_scan", "ios": "https://dc.lft.to/lastmile_qr_scan"}, "is_reserved": 0, "is_disabled": 0, "name": "a3a66de88e706e8824968a67bbb31c12", "bike_id": "a3a66de88e706e8824968a67bbb31c12", "fusion_lat": 0.0, "lon": -77.0762735, "type": "electric_scooter", "fusion_lon": 0.0, "lat": 38.925305333333334}, {"rental_uris": {"android": "https://dc.lft.to/lastmile_qr_scan", "ios": "https://dc.lft.to/lastmile_qr_scan"}, "is_reserved": 0, "is_disabled": 0, "name": "c8e1ec6622f237947067d89babe0fb7b", "bike_id": "c8e1ec6622f237947067d89babe0fb7b", "fusion_lat": 0.0, "lon": -76.929252, "type": "electric_scooter", "fusion_lon": 0.0, "lat": 38.892076}, {"rental_uris": {"android": "https://dc.lft.to/lastmile_qr_scan", "ios": "https://dc.lft.to/lastmile_qr_scan"}, "is_reserved": 0, "is_disabled": 0, "name": "c95579e9e440674d6bbc36da7523356e", "bike_id": "c95579e9e440674d6bbc36da7523356e", "fusion_lat": 0.0, "lon": -77.05141966666666, "type": "electric_scooter", "fusion_lon": 0.0, "lat": 38.906195}, {"rental_uris": {"android": "https://dc.lft.to/lastmile_qr_scan", "ios": "https://dc.lft.to/lastmile_qr_scan"}, "is_reserved": 0, "is_disabled": 0, "name": "b07f9697838e5f37e00b2b62c03d5a00", "bike_id": "b07f9697838e5f37e00b2b62c03d5a00", "fusion_lat": 0.0, "lon": -77.00903033333333, "type": "electric_scooter", "fusion_lon": 0.0, "lat": 38.90964616666667}, {"rental_uris": {"android": "https://dc.lft.to/lastmile_qr_scan", "ios": "https://dc.lft.to/lastmile_qr_scan"}, "is_reserved": 0, "is_disabled": 0, "name": "69d89e3edf50c98dc37e10880465d387", "bike_id": "69d89e3edf50c98dc37e10880465d387", "fusion_lat": 0.0, "lon": -77.02273283333334, "type": "electric_scooter", "fusion_lon": 0.0, "lat": 38.89971833333333}, {"rental_uris": {"android": "https://dc.lft.to/lastmile_qr_scan", "ios": "https://dc.lft.to/lastmile_qr_scan"}, "is_reserved": 0, "is_disabled": 0, "name": "57b3e46fd34f57f060e2b4429b8bce21", "bike_id": "57b3e46fd34f57f060e2b4429b8bce21", "fusion_lat": 0.0, "lon": -77.034405, "type": "electric_scooter", "fusion_lon": 0.0, "lat": 38.918090166666666}, {"rental_uris": {"android": "https://dc.lft.to/lastmile_qr_scan", "ios": "https://dc.lft.to/lastmile_qr_scan"}, "is_reserved": 0, "is_disabled": 0, "name": "87b6fee544a551e80795024abff01714", "bike_id": "87b6fee544a551e80795024abff01714", "fusion_lat": 0.0, "lon": -76.96089316666666, "type": "electric_scooter", "fusion_lon": 0.0, "lat": 38.91858533333333}, {"rental_uris": {"android": "https://dc.lft.to/lastmile_qr_scan", "ios": "https://dc.lft.to/lastmile_qr_scan"}, "is_reserved": 0, "is_disabled": 0, "name": "cc82d9e17a94311b8b3acfa93215fd29", "bike_id": "cc82d9e17a94311b8b3acfa93215fd29", "fusion_lat": 0.0, "lon": -77.022883, "type": "electric_scooter", "fusion_lon": 0.0, "lat": 38.917793}, {"rental_uris": {"android": "https://dc.lft.to/lastmile_qr_scan", "ios": "https://dc.lft.to/lastmile_qr_scan"}, "is_reserved": 0, "is_disabled": 0, "name": "e342f5ba97e1954fb96451c0bf885220", "bike_id": "e342f5ba97e1954fb96451c0bf885220", "fusion_lat": 0.0, "lon": -77.044029, "type": "electric_scooter", "fusion_lon": 0.0, "lat": 38.89594533333333}, {"rental_uris": {"android": "https://dc.lft.to/lastmile_qr_scan", "ios": "https://dc.lft.to/lastmile_qr_scan"}, "is_reserved": 0, "is_disabled": 0, "name": "d7f10edbdb542f483eba45518fcc49ae", "bike_id": "d7f10edbdb542f483eba45518fcc49ae", "fusion_lat": 0.0, "lon": -77.03335116666666, "type": "electric_scooter", "fusion_lon": 0.0, "lat": 38.9216025}, {"rental_uris": {"android": "https://dc.lft.to/lastmile_qr_scan", "ios": "https://dc.lft.to/lastmile_qr_scan"}, "is_reserved": 0, "is_disabled": 0, "name": "976c7bbc592a98153fb97225255bed10", "bike_id": "976c7bbc592a98153fb97225255bed10", "fusion_lat": 0.0, "lon": -77.034478, "type": "electric_scooter", "fusion_lon": 0.0, "lat": 38.906444}, {"rental_uris": {"android": "https://dc.lft.to/lastmile_qr_scan", "ios": "https://dc.lft.to/lastmile_qr_scan"}, "is_reserved": 0, "is_disabled": 0, "name": "6fc6cd179a997636e9a4e79aeabf30b3", "bike_id": "6fc6cd179a997636e9a4e79aeabf30b3", "fusion_lat": 0.0, "lon": -76.99565133333333, "type": "electric_scooter", "fusion_lon": 0.0, "lat": 38.900292666666665}, {"rental_uris": {"android": "https://dc.lft.to/lastmile_qr_scan", "ios": "https://dc.lft.to/lastmile_qr_scan"}, "is_reserved": 0, "is_disabled": 0, "name": "84acb0b4e546e02c3e6a8973d0af3fcc", "bike_id": "84acb0b4e546e02c3e6a8973d0af3fcc", "fusion_lat": 0.0, "lon": -77.043233, "type": "electric_scooter", "fusion_lon": 0.0, "lat": 38.8921845}, {"rental_uris": {"android": "https://dc.lft.to/lastmile_qr_scan", "ios": "https://dc.lft.to/lastmile_qr_scan"}, "is_reserved": 0, "is_disabled": 0, "name": "c11d7ad3c4b1bc7ab1121fedb9489e15", "bike_id": "c11d7ad3c4b1bc7ab1121fedb9489e15", "fusion_lat": 0.0, "lon": -77.07317883333333, "type": "electric_scooter", "fusion_lon": 0.0, "lat": 38.922037333333336}, {"rental_uris": {"android": "https://dc.lft.to/lastmile_qr_scan", "ios": "https://dc.lft.to/lastmile_qr_scan"}, "is_reserved": 0, "is_disabled": 0, "name": "e415e0723e7ec076a48fe17f70ec04b3", "bike_id": "e415e0723e7ec076a48fe17f70ec04b3", "fusion_lat": 0.0, "lon": -77.048818, "type": "electric_scooter", "fusion_lon": 0.0, "lat": 38.90524116666667}, {"rental_uris": {"android": "https://dc.lft.to/lastmile_qr_scan", "ios": "https://dc.lft.to/lastmile_qr_scan"}, "is_reserved": 0, "is_disabled": 0, "name": "81410afa7281edd4b797ecc0ae0a5c0a", "bike_id": "81410afa7281edd4b797ecc0ae0a5c0a", "fusion_lat": 0.0, "lon": -77.0337905, "type": "electric_scooter", "fusion_lon": 0.0, "lat": 38.92466733333333}, {"rental_uris": {"android": "https://dc.lft.to/lastmile_qr_scan", "ios": "https://dc.lft.to/lastmile_qr_scan"}, "is_reserved": 0, "is_disabled": 0, "name": "58891a7a666388c66f261808cea09c82", "bike_id": "58891a7a666388c66f261808cea09c82", "fusion_lat": 0.0, "lon": -77.0276145, "type": "electric_scooter", "fusion_lon": 0.0, "lat": 38.954206}, {"rental_uris": {"android": "https://dc.lft.to/lastmile_qr_scan", "ios": "https://dc.lft.to/lastmile_qr_scan"}, "is_reserved": 0, "is_disabled": 0, "name": "1b47c7aeb1d85c6657d0390a321bee47", "bike_id": "1b47c7aeb1d85c6657d0390a321bee47", "fusion_lat": 0.0, "lon": -77.07756166666667, "type": "electric_bike", "fusion_lon": 0.0, "lat": 38.841951333333334}, {"rental_uris": {"android": "https://dc.lft.to/lastmile_qr_scan", "ios": "https://dc.lft.to/lastmile_qr_scan"}, "is_reserved": 0, "is_disabled": 0, "name": "e767d7de9bb1749a770ef70dd12135af", "bike_id": "e767d7de9bb1749a770ef70dd12135af", "fusion_lat": 0.0, "lon": -76.9836765, "type": "electric_scooter", "fusion_lon": 0.0, "lat": 38.892658833333336}, {"rental_uris": {"android": "https://dc.lft.to/lastmile_qr_scan", "ios": "https://dc.lft.to/lastmile_qr_scan"}, "is_reserved": 0, "is_disabled": 0, "name": "af77379b5190d2b6260ff90bf4df7872", "bike_id": "af77379b5190d2b6260ff90bf4df7872", "fusion_lat": 0.0, "lon": -77.04889683333333, "type": "electric_scooter", "fusion_lon": 0.0, "lat": 38.90398116666667}, {"rental_uris": {"android": "https://dc.lft.to/lastmile_qr_scan", "ios": "https://dc.lft.to/lastmile_qr_scan"}, "is_reserved": 0, "is_disabled": 0, "name": "a5640b6b7b60b9758571d63a7f6a8194", "bike_id": "a5640b6b7b60b9758571d63a7f6a8194", "fusion_lat": 0.0, "lon": -77.01534116666667, "type": "electric_scooter", "fusion_lon": 0.0, "lat": 38.89365983333333}, {"rental_uris": {"android": "https://dc.lft.to/lastmile_qr_scan", "ios": "https://dc.lft.to/lastmile_qr_scan"}, "is_reserved": 0, "is_disabled": 0, "name": "a10ccffe3ddf71dcaaaa34fb44e25f6b", "bike_id": "a10ccffe3ddf71dcaaaa34fb44e25f6b", "fusion_lat": 0.0, "lon": -77.03455283333334, "type": "electric_scooter", "fusion_lon": 0.0, "lat": 38.91177066666667}, {"rental_uris": {"android": "https://dc.lft.to/lastmile_qr_scan", "ios": "https://dc.lft.to/lastmile_qr_scan"}, "is_reserved": 0, "is_disabled": 0, "name": "5f366359db89790b7d004411078f88d0", "bike_id": "5f366359db89790b7d004411078f88d0", "fusion_lat": 0.0, "lon": -77.02112066666666, "type": "electric_bike", "fusion_lon": 0.0, "lat": 38.935964166666665}, {"rental_uris": {"android": "https://dc.lft.to/lastmile_qr_scan", "ios": "https://dc.lft.to/lastmile_qr_scan"}, "is_reserved": 0, "is_disabled": 0, "name": "f974b38aad35587d2707d319d1bcb040", "bike_id": "f974b38aad35587d2707d319d1bcb040", "fusion_lat": 0.0, "lon": -77.0201475, "type": "electric_scooter", "fusion_lon": 0.0, "lat": 38.9156155}, {"rental_uris": {"android": "https://dc.lft.to/lastmile_qr_scan", "ios": "https://dc.lft.to/lastmile_qr_scan"}, "is_reserved": 0, "is_disabled": 0, "name": "99688e54f1fca77972ab6bdc97b6e1bc", "bike_id": "99688e54f1fca77972ab6bdc97b6e1bc", "fusion_lat": 0.0, "lon": -77.011732, "type": "electric_scooter", "fusion_lon": 0.0, "lat": 38.899988}, {"rental_uris": {"android": "https://dc.lft.to/lastmile_qr_scan", "ios": "https://dc.lft.to/lastmile_qr_scan"}, "is_reserved": 0, "is_disabled": 0, "name": "4f68830075dce94ec03831d41ffac971", "bike_id": "4f68830075dce94ec03831d41ffac971", "fusion_lat": 0.0, "lon": -77.053918, "type": "electric_scooter", "fusion_lon": 0.0, "lat": 38.91055866666667}, {"rental_uris": {"android": "https://dc.lft.to/lastmile_qr_scan", "ios": "https://dc.lft.to/lastmile_qr_scan"}, "is_reserved": 0, "is_disabled": 0, "name": "06740cdf765faaa7663f8d39cbc5effa", "bike_id": "06740cdf765faaa7663f8d39cbc5effa", "fusion_lat": 0.0, "lon": -76.98837166666667, "type": "electric_scooter", "fusion_lon": 0.0, "lat": 38.9004015}, {"rental_uris": {"android": "https://dc.lft.to/lastmile_qr_scan", "ios": "https://dc.lft.to/lastmile_qr_scan"}, "is_reserved": 0, "is_disabled": 0, "name": "8f32f65212ea79d644443d05f6b71695", "bike_id": "8f32f65212ea79d644443d05f6b71695", "fusion_lat": 0.0, "lon": -77.0433425, "type": "electric_scooter", "fusion_lon": 0.0, "lat": 38.92321583333333}, {"rental_uris": {"android": "https://dc.lft.to/lastmile_qr_scan", "ios": "https://dc.lft.to/lastmile_qr_scan"}, "is_reserved": 0, "is_disabled": 0, "name": "e5ee167b3f7de9f21bc61d5ee50fcd0f", "bike_id": "e5ee167b3f7de9f21bc61d5ee50fcd0f", "fusion_lat": 0.0, "lon": -77.028069, "type": "electric_scooter", "fusion_lon": 0.0, "lat": 38.91045966666667}, {"rental_uris": {"android": "https://dc.lft.to/lastmile_qr_scan", "ios": "https://dc.lft.to/lastmile_qr_scan"}, "is_reserved": 0, "is_disabled": 0, "name": "fe5420a48072a256e560771cbe38600a", "bike_id": "fe5420a48072a256e560771cbe38600a", "fusion_lat": 0.0, "lon": -77.01860333333333, "type": "electric_scooter", "fusion_lon": 0.0, "lat": 38.92923366666667}, {"rental_uris": {"android": "https://dc.lft.to/lastmile_qr_scan", "ios": "https://dc.lft.to/lastmile_qr_scan"}, "is_reserved": 0, "is_disabled": 0, "name": "abab5db884c72c492ac5063a1522319c", "bike_id": "abab5db884c72c492ac5063a1522319c", "fusion_lat": 0.0, "lon": -77.00210266666667, "type": "electric_scooter", "fusion_lon": 0.0, "lat": 38.91463}, {"rental_uris": {"android": "https://dc.lft.to/lastmile_qr_scan", "ios": "https://dc.lft.to/lastmile_qr_scan"}, "is_reserved": 0, "is_disabled": 0, "name": "2b16909ed8eba4d4e9d2f2b054a906ab", "bike_id": "2b16909ed8eba4d4e9d2f2b054a906ab", "fusion_lat": 0.0, "lon": -77.0135995, "type": "electric_scooter", "fusion_lon": 0.0, "lat": 38.91824183333333}, {"rental_uris": {"android": "https://dc.lft.to/lastmile_qr_scan", "ios": "https://dc.lft.to/lastmile_qr_scan"}, "is_reserved": 0, "is_disabled": 0, "name": "a96336cf70003295bdc671c0e6fd8dd5", "bike_id": "a96336cf70003295bdc671c0e6fd8dd5", "fusion_lat": 0.0, "lon": -77.05274216666666, "type": "electric_scooter", "fusion_lon": 0.0, "lat": 38.91021383333333}, {"rental_uris": {"android": "https://dc.lft.to/lastmile_qr_scan", "ios": "https://dc.lft.to/lastmile_qr_scan"}, "is_reserved": 0, "is_disabled": 0, "name": "9fc8f5fb7d3e453d14f9cc2b06cfe18e", "bike_id": "9fc8f5fb7d3e453d14f9cc2b06cfe18e", "fusion_lat": 0.0, "lon": -77.048076, "type": "electric_scooter", "fusion_lon": 0.0, "lat": 38.910418}, {"rental_uris": {"android": "https://dc.lft.to/lastmile_qr_scan", "ios": "https://dc.lft.to/lastmile_qr_scan"}, "is_reserved": 0, "is_disabled": 0, "name": "6b16a8e5a72016411bd4bc8d09c82057", "bike_id": "6b16a8e5a72016411bd4bc8d09c82057", "fusion_lat": 0.0, "lon": -76.97304216666667, "type": "electric_scooter", "fusion_lon": 0.0, "lat": 38.91988383333333}, {"rental_uris": {"android": "https://dc.lft.to/lastmile_qr_scan", "ios": "https://dc.lft.to/lastmile_qr_scan"}, "is_reserved": 0, "is_disabled": 0, "name": "860346237e7ccf2db68c063460b19be7", "bike_id": "860346237e7ccf2db68c063460b19be7", "fusion_lat": 0.0, "lon": -76.990684, "type": "electric_bike", "fusion_lon": 0.0, "lat": 38.94258466666667}, {"rental_uris": {"android": "https://dc.lft.to/lastmile_qr_scan", "ios": "https://dc.lft.to/lastmile_qr_scan"}, "is_reserved": 0, "is_disabled": 0, "name": "bf18966b5835ef8b70c3def5062353ed", "bike_id": "bf18966b5835ef8b70c3def5062353ed", "fusion_lat": 0.0, "lon": -77.02489283333334, "type": "electric_scooter", "fusion_lon": 0.0, "lat": 38.92067766666667}, {"rental_uris": {"android": "https://dc.lft.to/lastmile_qr_scan", "ios": "https://dc.lft.to/lastmile_qr_scan"}, "is_reserved": 0, "is_disabled": 0, "name": "bb6495edfa4d6157a337313bb8b19898", "bike_id": "bb6495edfa4d6157a337313bb8b19898", "fusion_lat": 0.0, "lon": -77.02800516666667, "type": "electric_scooter", "fusion_lon": 0.0, "lat": 38.907333}, {"rental_uris": {"android": "https://dc.lft.to/lastmile_qr_scan", "ios": "https://dc.lft.to/lastmile_qr_scan"}, "is_reserved": 0, "is_disabled": 0, "name": "dbdc428ef4e91bff8d7b729f225563a8", "bike_id": "dbdc428ef4e91bff8d7b729f225563a8", "fusion_lat": 0.0, "lon": -77.017627, "type": "electric_scooter", "fusion_lon": 0.0, "lat": 38.876919666666666}, {"rental_uris": {"android": "https://dc.lft.to/lastmile_qr_scan", "ios": "https://dc.lft.to/lastmile_qr_scan"}, "is_reserved": 0, "is_disabled": 0, "name": "87e058c3641ec874d0a2b6366f49906d", "bike_id": "87e058c3641ec874d0a2b6366f49906d", "fusion_lat": 0.0, "lon": -77.00361616666666, "type": "electric_scooter", "fusion_lon": 0.0, "lat": 38.915532166666665}, {"rental_uris": {"android": "https://dc.lft.to/lastmile_qr_scan", "ios": "https://dc.lft.to/lastmile_qr_scan"}, "is_reserved": 0, "is_disabled": 0, "name": "e5a56123d19e46b31a7650bd750fbd71", "bike_id": "e5a56123d19e46b31a7650bd750fbd71", "fusion_lat": 0.0, "lon": -77.0397995, "type": "electric_scooter", "fusion_lon": 0.0, "lat": 38.901643}, {"rental_uris": {"android": "https://dc.lft.to/lastmile_qr_scan", "ios": "https://dc.lft.to/lastmile_qr_scan"}, "is_reserved": 0, "is_disabled": 0, "name": "4e9575de746a1bf582e53dfdd05bbee2", "bike_id": "4e9575de746a1bf582e53dfdd05bbee2", "fusion_lat": 0.0, "lon": -77.0062625, "type": "electric_scooter", "fusion_lon": 0.0, "lat": 38.87172116666667}, {"rental_uris": {"android": "https://dc.lft.to/lastmile_qr_scan", "ios": "https://dc.lft.to/lastmile_qr_scan"}, "is_reserved": 0, "is_disabled": 0, "name": "1969f38b4b02c0304d2c02ffc3c6e8e6", "bike_id": "1969f38b4b02c0304d2c02ffc3c6e8e6", "fusion_lat": 0.0, "lon": -77.0432835, "type": "electric_bike", "fusion_lon": 0.0, "lat": 39.034262}, {"rental_uris": {"android": "https://dc.lft.to/lastmile_qr_scan", "ios": "https://dc.lft.to/lastmile_qr_scan"}, "is_reserved": 0, "is_disabled": 0, "name": "cc124000896709c016629ba7f9de02f5", "bike_id": "cc124000896709c016629ba7f9de02f5", "fusion_lat": 0.0, "lon": -77.0745075, "type": "electric_scooter", "fusion_lon": 0.0, "lat": 38.93781766666667}, {"rental_uris": {"android": "https://dc.lft.to/lastmile_qr_scan", "ios": "https://dc.lft.to/lastmile_qr_scan"}, "is_reserved": 0, "is_disabled": 0, "name": "6b8b3788930db8a7765f9f33fd17c67b", "bike_id": "6b8b3788930db8a7765f9f33fd17c67b", "fusion_lat": 0.0, "lon": -77.02453566666667, "type": "electric_scooter", "fusion_lon": 0.0, "lat": 38.938119}, {"rental_uris": {"android": "https://dc.lft.to/lastmile_qr_scan", "ios": "https://dc.lft.to/lastmile_qr_scan"}, "is_reserved": 0, "is_disabled": 0, "name": "032872461d5ae71615dbd113941b8975", "bike_id": "032872461d5ae71615dbd113941b8975", "fusion_lat": 0.0, "lon": -77.01958266666666, "type": "electric_scooter", "fusion_lon": 0.0, "lat": 38.92325133333333}, {"rental_uris": {"android": "https://dc.lft.to/lastmile_qr_scan", "ios": "https://dc.lft.to/lastmile_qr_scan"}, "is_reserved": 0, "is_disabled": 0, "name": "d598d5c78e9607309efff9d09c68b9ab", "bike_id": "d598d5c78e9607309efff9d09c68b9ab", "fusion_lat": 0.0, "lon": -77.03550333333334, "type": "electric_scooter", "fusion_lon": 0.0, "lat": 38.91690533333333}, {"rental_uris": {"android": "https://dc.lft.to/lastmile_qr_scan", "ios": "https://dc.lft.to/lastmile_qr_scan"}, "is_reserved": 0, "is_disabled": 0, "name": "f16d7dfd7eb185d010d438a959ed148b", "bike_id": "f16d7dfd7eb185d010d438a959ed148b", "fusion_lat": 0.0, "lon": -77.03789966666666, "type": "electric_scooter", "fusion_lon": 0.0, "lat": 38.925663}, {"rental_uris": {"android": "https://dc.lft.to/lastmile_qr_scan", "ios": "https://dc.lft.to/lastmile_qr_scan"}, "is_reserved": 0, "is_disabled": 0, "name": "128403ea043022042224bd893a454b91", "bike_id": "128403ea043022042224bd893a454b91", "fusion_lat": 0.0, "lon": -77.0694805, "type": "electric_bike", "fusion_lon": 0.0, "lat": 38.8363135}, {"rental_uris": {"android": "https://dc.lft.to/lastmile_qr_scan", "ios": "https://dc.lft.to/lastmile_qr_scan"}, "is_reserved": 0, "is_disabled": 0, "name": "691e035717cb9d4e86b953bb0453d37f", "bike_id": "691e035717cb9d4e86b953bb0453d37f", "fusion_lat": 0.0, "lon": -77.0443365, "type": "electric_scooter", "fusion_lon": 0.0, "lat": 38.895982833333335}, {"rental_uris": {"android": "https://dc.lft.to/lastmile_qr_scan", "ios": "https://dc.lft.to/lastmile_qr_scan"}, "is_reserved": 0, "is_disabled": 0, "name": "b0fb2297bf8fdfa42d5943f35f39bf68", "bike_id": "b0fb2297bf8fdfa42d5943f35f39bf68", "fusion_lat": 0.0, "lon": -77.0239975, "type": "electric_scooter", "fusion_lon": 0.0, "lat": 38.9165365}, {"rental_uris": {"android": "https://dc.lft.to/lastmile_qr_scan", "ios": "https://dc.lft.to/lastmile_qr_scan"}, "is_reserved": 0, "is_disabled": 0, "name": "5572057b5be6da58513b480d3f4dab83", "bike_id": "5572057b5be6da58513b480d3f4dab83", "fusion_lat": 0.0, "lon": -77.02459216666666, "type": "electric_scooter", "fusion_lon": 0.0, "lat": 38.957868500000004}, {"rental_uris": {"android": "https://dc.lft.to/lastmile_qr_scan", "ios": "https://dc.lft.to/lastmile_qr_scan"}, "is_reserved": 0, "is_disabled": 0, "name": "d5bbe9da2f937e046f6596f52c9ce338", "bike_id": "d5bbe9da2f937e046f6596f52c9ce338", "fusion_lat": 0.0, "lon": -76.97328816666666, "type": "electric_scooter", "fusion_lon": 0.0, "lat": 38.90409483333333}, {"rental_uris": {"android": "https://dc.lft.to/lastmile_qr_scan", "ios": "https://dc.lft.to/lastmile_qr_scan"}, "is_reserved": 0, "is_disabled": 0, "name": "c9afda7e4f788d32adaa713d294a1f04", "bike_id": "c9afda7e4f788d32adaa713d294a1f04", "fusion_lat": 0.0, "lon": -77.05819116666666, "type": "electric_scooter", "fusion_lon": 0.0, "lat": 38.93530966666667}, {"rental_uris": {"android": "https://dc.lft.to/lastmile_qr_scan", "ios": "https://dc.lft.to/lastmile_qr_scan"}, "is_reserved": 0, "is_disabled": 0, "name": "ac2e82938cbe7fc416ba5352fd9c8efb", "bike_id": "ac2e82938cbe7fc416ba5352fd9c8efb", "fusion_lat": 0.0, "lon": -77.03806283333333, "type": "electric_scooter", "fusion_lon": 0.0, "lat": 38.90666233333334}, {"rental_uris": {"android": "https://dc.lft.to/lastmile_qr_scan", "ios": "https://dc.lft.to/lastmile_qr_scan"}, "is_reserved": 0, "is_disabled": 0, "name": "183c84fab7412848eb3808a2ee3316aa", "bike_id": "183c84fab7412848eb3808a2ee3316aa", "fusion_lat": 0.0, "lon": -77.000188, "type": "electric_scooter", "fusion_lon": 0.0, "lat": 38.91977033333333}, {"rental_uris": {"android": "https://dc.lft.to/lastmile_qr_scan", "ios": "https://dc.lft.to/lastmile_qr_scan"}, "is_reserved": 0, "is_disabled": 0, "name": "0f41d0df0e93584a30a30ce738721432", "bike_id": "0f41d0df0e93584a30a30ce738721432", "fusion_lat": 0.0, "lon": -77.02409233333333, "type": "electric_scooter", "fusion_lon": 0.0, "lat": 38.90979516666667}, {"rental_uris": {"android": "https://dc.lft.to/lastmile_qr_scan", "ios": "https://dc.lft.to/lastmile_qr_scan"}, "is_reserved": 0, "is_disabled": 0, "name": "7bbb55f9683b0301f81e9e02b9c1dffb", "bike_id": "7bbb55f9683b0301f81e9e02b9c1dffb", "fusion_lat": 0.0, "lon": -77.02722516666667, "type": "electric_bike", "fusion_lon": 0.0, "lat": 38.89627433333333}, {"rental_uris": {"android": "https://dc.lft.to/lastmile_qr_scan", "ios": "https://dc.lft.to/lastmile_qr_scan"}, "is_reserved": 0, "is_disabled": 0, "name": "09c7ad057d89a9a2a724f7a8ccade61b", "bike_id": "09c7ad057d89a9a2a724f7a8ccade61b", "fusion_lat": 0.0, "lon": -77.02445033333333, "type": "electric_scooter", "fusion_lon": 0.0, "lat": 38.9497755}, {"rental_uris": {"android": "https://dc.lft.to/lastmile_qr_scan", "ios": "https://dc.lft.to/lastmile_qr_scan"}, "is_reserved": 0, "is_disabled": 0, "name": "f89ce55e81c2e7b30aa9e7747d41de5a", "bike_id": "f89ce55e81c2e7b30aa9e7747d41de5a", "fusion_lat": 0.0, "lon": -77.021373, "type": "electric_scooter", "fusion_lon": 0.0, "lat": 38.9236195}, {"rental_uris": {"android": "https://dc.lft.to/lastmile_qr_scan", "ios": "https://dc.lft.to/lastmile_qr_scan"}, "is_reserved": 0, "is_disabled": 0, "name": "0ea2e45823d34ab24570f4323e1e9ec6", "bike_id": "0ea2e45823d34ab24570f4323e1e9ec6", "fusion_lat": 0.0, "lon": -77.03980316666667, "type": "electric_scooter", "fusion_lon": 0.0, "lat": 38.90275833333333}, {"rental_uris": {"android": "https://dc.lft.to/lastmile_qr_scan", "ios": "https://dc.lft.to/lastmile_qr_scan"}, "is_reserved": 0, "is_disabled": 0, "name": "ba62740a8b0ace193a356a215ecd37fa", "bike_id": "ba62740a8b0ace193a356a215ecd37fa", "fusion_lat": 0.0, "lon": -77.02490633333333, "type": "electric_scooter", "fusion_lon": 0.0, "lat": 38.919220333333335}, {"rental_uris": {"android": "https://dc.lft.to/lastmile_qr_scan", "ios": "https://dc.lft.to/lastmile_qr_scan"}, "is_reserved": 0, "is_disabled": 0, "name": "8b077ca5fd62143895b1fd571424d0b1", "bike_id": "8b077ca5fd62143895b1fd571424d0b1", "fusion_lat": 0.0, "lon": -76.95566216666667, "type": "electric_bike", "fusion_lon": 0.0, "lat": 38.98505083333333}, {"rental_uris": {"android": "https://dc.lft.to/lastmile_qr_scan", "ios": "https://dc.lft.to/lastmile_qr_scan"}, "is_reserved": 0, "is_disabled": 0, "name": "cfa64d4c4fdaf1599f18788dea74928e", "bike_id": "cfa64d4c4fdaf1599f18788dea74928e", "fusion_lat": 0.0, "lon": -77.01983466666667, "type": "electric_scooter", "fusion_lon": 0.0, "lat": 38.88721016666667}, {"rental_uris": {"android": "https://dc.lft.to/lastmile_qr_scan", "ios": "https://dc.lft.to/lastmile_qr_scan"}, "is_reserved": 0, "is_disabled": 0, "name": "218a4c643c38f81473097dde664c9232", "bike_id": "218a4c643c38f81473097dde664c9232", "fusion_lat": 0.0, "lon": -77.0317695, "type": "electric_scooter", "fusion_lon": 0.0, "lat": 38.902048666666666}, {"rental_uris": {"android": "https://dc.lft.to/lastmile_qr_scan", "ios": "https://dc.lft.to/lastmile_qr_scan"}, "is_reserved": 0, "is_disabled": 0, "name": "b642be8aad73b002d0b1cdd1a4f97b15", "bike_id": "b642be8aad73b002d0b1cdd1a4f97b15", "fusion_lat": 0.0, "lon": -77.01478033333333, "type": "electric_scooter", "fusion_lon": 0.0, "lat": 38.91408416666667}, {"rental_uris": {"android": "https://dc.lft.to/lastmile_qr_scan", "ios": "https://dc.lft.to/lastmile_qr_scan"}, "is_reserved": 0, "is_disabled": 0, "name": "b8d854772a0119e79a48e797d32e32f0", "bike_id": "b8d854772a0119e79a48e797d32e32f0", "fusion_lat": 0.0, "lon": -77.06298066666666, "type": "electric_scooter", "fusion_lon": 0.0, "lat": 38.90400016666667}, {"rental_uris": {"android": "https://dc.lft.to/lastmile_qr_scan", "ios": "https://dc.lft.to/lastmile_qr_scan"}, "is_reserved": 0, "is_disabled": 0, "name": "5a192b88796a32c36a315ad091db303b", "bike_id": "5a192b88796a32c36a315ad091db303b", "fusion_lat": 0.0, "lon": -77.04452616666667, "type": "electric_scooter", "fusion_lon": 0.0, "lat": 38.92474133333333}, {"rental_uris": {"android": "https://dc.lft.to/lastmile_qr_scan", "ios": "https://dc.lft.to/lastmile_qr_scan"},