{"data": {"bikes": [{"name": "272f5f445feb4c4488876dde2a509b80", "fusion_lon": 0.0, "lat": 38.91069616666667, "is_reserved": 0, "type": "electric_scooter", "bike_id": "272f5f445feb4c4488876dde2a509b80", "is_disabled": 0, "rental_uris": {"android": "https://dc.lft.to/lastmile_qr_scan", "ios": "https://dc.lft.to/lastmile_qr_scan"}, "lon": -77.03838566666667, "fusion_lat": 0.0}, {"name": "1f2590b3bfb63533dc578c845b3c8fe7", "fusion_lon": 0.0, "lat": 38.924555, "is_reserved": 0, "type": "electric_scooter", "bike_id": "1f2590b3bfb63533dc578c845b3c8fe7", "is_disabled": 0, "rental_uris": {"android": "https://dc.lft.to/lastmile_qr_scan", "ios": "https://dc.lft.to/lastmile_qr_scan"}, "lon": -77.03972483333334, "fusion_lat": 0.0}, {"name": "41ae7fdb036228e489d471e4310683a9", "fusion_lon": 0.0, "lat": 38.8866155, "is_reserved": 0, "type": "electric_scooter", "bike_id": "41ae7fdb036228e489d471e4310683a9", "is_disabled": 0, "rental_uris": {"android": "https://dc.lft.to/lastmile_qr_scan", "ios": "https://dc.lft.to/lastmile_qr_scan"}, "lon": -76.99995633333333, "fusion_lat": 0.0}, {"name": "37e9afc3eb65eef8df6375af3bec90ba", "fusion_lon": 0.0, "lat": 38.875527166666664, "is_reserved": 0, "type": "electric_scooter", "bike_id": "37e9afc3eb65eef8df6375af3bec90ba", "is_disabled": 0, "rental_uris": {"android": "https://dc.lft.to/lastmile_qr_scan", "ios": "https://dc.lft.to/lastmile_qr_scan"}, "lon": -77.00566383333333, "fusion_lat": 0.0}, {"name": "302daf949150ea6b6391cfae6c053223", "fusion_lon": 0.0, "lat": 38.90833083333333, "is_reserved": 0, "type": "electric_bike", "bike_id": "302daf949150ea6b6391cfae6c053223", "is_disabled": 0, "rental_uris": {"android": "https://dc.lft.to/lastmile_qr_scan", "ios": "https://dc.lft.to/lastmile_qr_scan"}, "lon": -76.93303483333334, "fusion_lat": 0.0}, {"name": "eaa7d3d352d8c756a13d515bf5871179", "fusion_lon": 0.0, "lat": 38.884061, "is_reserved": 0, "type": "electric_scooter", "bike_id": "eaa7d3d352d8c756a13d515bf5871179", "is_disabled": 0, "rental_uris": {"android": "https://dc.lft.to/lastmile_qr_scan", "ios": "https://dc.lft.to/lastmile_qr_scan"}, "lon": -76.95397983333334, "fusion_lat": 0.0}, {"name": "89f1a221d933d8a9e9711cbce0a02080", "fusion_lon": 0.0, "lat": 38.91984633333333, "is_reserved": 0, "type": "electric_scooter", "bike_id": "89f1a221d933d8a9e9711cbce0a02080", "is_disabled": 0, "rental_uris": {"android": "https://dc.lft.to/lastmile_qr_scan", "ios": "https://dc.lft.to/lastmile_qr_scan"}, "lon": -77.0416495, "fusion_lat": 0.0}, {"name": "c5c390f65be650dc2aab1e733f530d5b", "fusion_lon": 0.0, "lat": 38.838271166666665, "is_reserved": 0, "type": "electric_bike", "bike_id": "c5c390f65be650dc2aab1e733f530d5b", "is_disabled": 0, "rental_uris": {"android": "https://dc.lft.to/lastmile_qr_scan", "ios": "https://dc.lft.to/lastmile_qr_scan"}, "lon": -77.07914116666667, "fusion_lat": 0.0}, {"name": "ded9b98dc08f9a3ddf7a6f080b540c68", "fusion_lon": 0.0, "lat": 38.940397833333336, "is_reserved": 0, "type": "electric_scooter", "bike_id": "ded9b98dc08f9a3ddf7a6f080b540c68", "is_disabled": 0, "rental_uris": {"android": "https://dc.lft.to/lastmile_qr_scan", "ios": "https://dc.lft.to/lastmile_qr_scan"}, "lon": -77.02899033333334, "fusion_lat": 0.0}, {"name": "3b62f6a64707ad36b5f121d2bb1f01df", "fusion_lon": 0.0, "lat": 38.88478383333333, "is_reserved": 0, "type": "electric_scooter", "bike_id": "3b62f6a64707ad36b5f121d2bb1f01df", "is_disabled": 0, "rental_uris": {"android": "https://dc.lft.to/lastmile_qr_scan", "ios": "https://dc.lft.to/lastmile_qr_scan"}, "lon": -77.02656316666666, "fusion_lat": 0.0}, {"name": "68db97ba23e6b27fbe03d103eb9f1f5b", "fusion_lon": 0.0, "lat": 38.951832833333334, "is_reserved": 0, "type": "electric_scooter", "bike_id": "68db97ba23e6b27fbe03d103eb9f1f5b", "is_disabled": 0, "rental_uris": {"android": "https://dc.lft.to/lastmile_qr_scan", "ios": "https://dc.lft.to/lastmile_qr_scan"}, "lon": -77.02614866666667, "fusion_lat": 0.0}, {"name": "2473beffc46846c9340691131f98cf8a", "fusion_lon": 0.0, "lat": 38.9126685, "is_reserved": 0, "type": "electric_scooter", "bike_id": "2473beffc46846c9340691131f98cf8a", "is_disabled": 0, "rental_uris": {"android": "https://dc.lft.to/lastmile_qr_scan", "ios": "https://dc.lft.to/lastmile_qr_scan"}, "lon": -77.01849983333334, "fusion_lat": 0.0}, {"name": "f06e6cc638d2714019c9f63eeb10a8e3", "fusion_lon": 0.0, "lat": 38.9250595, "is_reserved": 0, "type": "electric_scooter", "bike_id": "f06e6cc638d2714019c9f63eeb10a8e3", "is_disabled": 0, "rental_uris": {"android": "https://dc.lft.to/lastmile_qr_scan", "ios": "https://dc.lft.to/lastmile_qr_scan"}, "lon": -77.02358366666667, "fusion_lat": 0.0}, {"name": "bc4d3d6817d46ac8cb52f89fe7024250", "fusion_lon": 0.0, "lat": 38.91475616666666, "is_reserved": 0, "type": "electric_scooter", "bike_id": "bc4d3d6817d46ac8cb52f89fe7024250", "is_disabled": 0, "rental_uris": {"android": "https://dc.lft.to/lastmile_qr_scan", "ios": "https://dc.lft.to/lastmile_qr_scan"}, "lon": -77.031849, "fusion_lat": 0.0}, {"name": "326489714a32d446bcbb2b431014d468", "fusion_lon": 0.0, "lat": 38.9261505, "is_reserved": 0, "type": "electric_bike", "bike_id": "326489714a32d446bcbb2b431014d468", "is_disabled": 0, "rental_uris": {"android": "https://dc.lft.to/lastmile_qr_scan", "ios": "https://dc.lft.to/lastmile_qr_scan"}, "lon": -77.03966283333334, "fusion_lat": 0.0}, {"name": "c83103e17d423c41a164921f8ce7dd4f", "fusion_lon": 0.0, "lat": 38.890889333333334, "is_reserved": 0, "type": "electric_scooter", "bike_id": "c83103e17d423c41a164921f8ce7dd4f", "is_disabled": 0, "rental_uris": {"android": "https://dc.lft.to/lastmile_qr_scan", "ios": "https://dc.lft.to/lastmile_qr_scan"}, "lon": -76.9985575, "fusion_lat": 0.0}, {"name": "391a8e989669569ffc1ffce33b05ecd0", "fusion_lon": 0.0, "lat": 38.87718183333333, "is_reserved": 0, "type": "electric_scooter", "bike_id": "391a8e989669569ffc1ffce33b05ecd0", "is_disabled": 0, "rental_uris": {"android": "https://dc.lft.to/lastmile_qr_scan", "ios": "https://dc.lft.to/lastmile_qr_scan"}, "lon": -77.0174045, "fusion_lat": 0.0}, {"name": "f73b212f019580e334cfac6f7cb39ba6", "fusion_lon": 0.0, "lat": 38.89615716666667, "is_reserved": 0, "type": "electric_scooter", "bike_id": "f73b212f019580e334cfac6f7cb39ba6", "is_disabled": 0, "rental_uris": {"android": "https://dc.lft.to/lastmile_qr_scan", "ios": "https://dc.lft.to/lastmile_qr_scan"}, "lon": -76.98164466666667, "fusion_lat": 0.0}, {"name": "7529350e8ae6ea071941ab108d4ba763", "fusion_lon": 0.0, "lat": 38.90783233333333, "is_reserved": 0, "type": "electric_scooter", "bike_id": "7529350e8ae6ea071941ab108d4ba763", "is_disabled": 0, "rental_uris": {"android": "https://dc.lft.to/lastmile_qr_scan", "ios": "https://dc.lft.to/lastmile_qr_scan"}, "lon": -77.0382995, "fusion_lat": 0.0}, {"name": "ed5cfc79fde64286a2a815c397cc7d00", "fusion_lon": 0.0, "lat": 38.9033245, "is_reserved": 0, "type": "electric_scooter", "bike_id": "ed5cfc79fde64286a2a815c397cc7d00", "is_disabled": 0, "rental_uris": {"android": "https://dc.lft.to/lastmile_qr_scan", "ios": "https://dc.lft.to/lastmile_qr_scan"}, "lon": -77.01114116666666, "fusion_lat": 0.0}, {"name": "d202a77a47ab5f199ae0b913938a22b4", "fusion_lon": 0.0, "lat": 38.88395116666667, "is_reserved": 0, "type": "electric_scooter", "bike_id": "d202a77a47ab5f199ae0b913938a22b4", "is_disabled": 0, "rental_uris": {"android": "https://dc.lft.to/lastmile_qr_scan", "ios": "https://dc.lft.to/lastmile_qr_scan"}, "lon": -76.95448433333334, "fusion_lat": 0.0}, {"name": "de45e330a7e39e4ed1802b358af361e5", "fusion_lon": 0.0, "lat": 38.90717183333334, "is_reserved": 0, "type": "electric_scooter", "bike_id": "de45e330a7e39e4ed1802b358af361e5", "is_disabled": 0, "rental_uris": {"android": "https://dc.lft.to/lastmile_qr_scan", "ios": "https://dc.lft.to/lastmile_qr_scan"}, "lon": -76.99819366666667, "fusion_lat": 0.0}, {"name": "c2a6a7c6e5567851dcc5801238ebc77f", "fusion_lon": 0.0, "lat": 38.90862083333333, "is_reserved": 0, "type": "electric_scooter", "bike_id": "c2a6a7c6e5567851dcc5801238ebc77f", "is_disabled": 0, "rental_uris": {"android": "https://dc.lft.to/lastmile_qr_scan", "ios": "https://dc.lft.to/lastmile_qr_scan"}, "lon": -76.99949033333333, "fusion_lat": 0.0}, {"name": "1afb82c1b4ad1c3e9620e0f61092c640", "fusion_lon": 0.0, "lat": 38.92375583333333, "is_reserved": 0, "type": "electric_scooter", "bike_id": "1afb82c1b4ad1c3e9620e0f61092c640", "is_disabled": 0, "rental_uris": {"android": "https://dc.lft.to/lastmile_qr_scan", "ios": "https://dc.lft.to/lastmile_qr_scan"}, "lon": -77.03089483333333, "fusion_lat": 0.0}, {"name": "3fc7a187c85908996817f550b4275ef4", "fusion_lon": 0.0, "lat": 38.909633, "is_reserved": 0, "type": "electric_scooter", "bike_id": "3fc7a187c85908996817f550b4275ef4", "is_disabled": 0, "rental_uris": {"android": "https://dc.lft.to/lastmile_qr_scan", "ios": "https://dc.lft.to/lastmile_qr_scan"}, "lon": -77.023082, "fusion_lat": 0.0}, {"name": "eed2fcbec632638348a6f80c20bf42a9", "fusion_lon": 0.0, "lat": 38.90556866666667, "is_reserved": 0, "type": "electric_scooter", "bike_id": "eed2fcbec632638348a6f80c20bf42a9", "is_disabled": 0, "rental_uris": {"android": "https://dc.lft.to/lastmile_qr_scan", "ios": "https://dc.lft.to/lastmile_qr_scan"}, "lon": -77.03448016666667, "fusion_lat": 0.0}, {"name": "42e5befb3e5a451c795fda891e441a14", "fusion_lon": 0.0, "lat": 38.90632766666667, "is_reserved": 0, "type": "electric_scooter", "bike_id": "42e5befb3e5a451c795fda891e441a14", "is_disabled": 0, "rental_uris": {"android": "https://dc.lft.to/lastmile_qr_scan", "ios": "https://dc.lft.to/lastmile_qr_scan"}, "lon": -77.04863383333333, "fusion_lat": 0.0}, {"name": "013d5d6643ccbe5be432259e9d73e433", "fusion_lon": 0.0, "lat": 38.936772833333336, "is_reserved": 0, "type": "electric_scooter", "bike_id": "013d5d6643ccbe5be432259e9d73e433", "is_disabled": 0, "rental_uris": {"android": "https://dc.lft.to/lastmile_qr_scan", "ios": "https://dc.lft.to/lastmile_qr_scan"}, "lon": -77.03283166666667, "fusion_lat": 0.0}, {"name": "dc01d8a2a07efe6771266399dcc0766d", "fusion_lon": 0.0, "lat": 38.92319283333333, "is_reserved": 0, "type": "electric_scooter", "bike_id": "dc01d8a2a07efe6771266399dcc0766d", "is_disabled": 0, "rental_uris": {"android": "https://dc.lft.to/lastmile_qr_scan", "ios": "https://dc.lft.to/lastmile_qr_scan"}, "lon": -77.02145366666667, "fusion_lat": 0.0}, {"name": "7f075a984894fa663d91e1c465c0544b", "fusion_lon": 0.0, "lat": 38.856882666666664, "is_reserved": 0, "type": "electric_scooter", "bike_id": "7f075a984894fa663d91e1c465c0544b", "is_disabled": 0, "rental_uris": {"android": "https://dc.lft.to/lastmile_qr_scan", "ios": "https://dc.lft.to/lastmile_qr_scan"}, "lon": -76.989554, "fusion_lat": 0.0}, {"name": "39e45b7e29e592c620cd675de6973fff", "fusion_lon": 0.0, "lat": 38.93006833333333, "is_reserved": 0, "type": "electric_scooter", "bike_id": "39e45b7e29e592c620cd675de6973fff", "is_disabled": 0, "rental_uris": {"android": "https://dc.lft.to/lastmile_qr_scan", "ios": "https://dc.lft.to/lastmile_qr_scan"}, "lon": -77.014296, "fusion_lat": 0.0}, {"name": "ca7a2b4f27b69b144a1fa64db2277243", "fusion_lon": 0.0, "lat": 38.83733383333333, "is_reserved": 0, "type": "electric_bike", "bike_id": "ca7a2b4f27b69b144a1fa64db2277243", "is_disabled": 0, "rental_uris": {"android": "https://dc.lft.to/lastmile_qr_scan", "ios": "https://dc.lft.to/lastmile_qr_scan"}, "lon": -77.09553033333333, "fusion_lat": 0.0}, {"name": "43c33b0373d62643a0214701367a33eb", "fusion_lon": 0.0, "lat": 38.844249, "is_reserved": 0, "type": "electric_scooter", "bike_id": "43c33b0373d62643a0214701367a33eb", "is_disabled": 0, "rental_uris": {"android": "https://dc.lft.to/lastmile_qr_scan", "ios": "https://dc.lft.to/lastmile_qr_scan"}, "lon": -76.99782433333333, "fusion_lat": 0.0}, {"name": "9a1af4c02c26b207858b153b69ffe32c", "fusion_lon": 0.0, "lat": 38.908912, "is_reserved": 0, "type": "electric_scooter", "bike_id": "9a1af4c02c26b207858b153b69ffe32c", "is_disabled": 0, "rental_uris": {"android": "https://dc.lft.to/lastmile_qr_scan", "ios": "https://dc.lft.to/lastmile_qr_scan"}, "lon": -77.07282916666666, "fusion_lat": 0.0}, {"name": "d0e8d660e426e4faea02436f46a8390e", "fusion_lon": 0.0, "lat": 38.90285466666667, "is_reserved": 0, "type": "electric_scooter", "bike_id": "d0e8d660e426e4faea02436f46a8390e", "is_disabled": 0, "rental_uris": {"android": "https://dc.lft.to/lastmile_qr_scan", "ios": "https://dc.lft.to/lastmile_qr_scan"}, "lon": -77.05807466666667, "fusion_lat": 0.0}, {"name": "d5e8853862d62be98437ea18d4d5ce44", "fusion_lon": 0.0, "lat": 38.92122533333333, "is_reserved": 0, "type": "electric_scooter", "bike_id": "d5e8853862d62be98437ea18d4d5ce44", "is_disabled": 0, "rental_uris": {"android": "https://dc.lft.to/lastmile_qr_scan", "ios": "https://dc.lft.to/lastmile_qr_scan"}, "lon": -77.04427816666667, "fusion_lat": 0.0}, {"name": "537380136de7244b451233608a77369a", "fusion_lon": 0.0, "lat": 38.910481833333336, "is_reserved": 0, "type": "electric_scooter", "bike_id": "537380136de7244b451233608a77369a", "is_disabled": 0, "rental_uris": {"android": "https://dc.lft.to/lastmile_qr_scan", "ios": "https://dc.lft.to/lastmile_qr_scan"}, "lon": -77.04093133333333, "fusion_lat": 0.0}, {"name": "a9723de9bedabaacfc8b0e5025d6fc95", "fusion_lon": 0.0, "lat": 38.90058233333333, "is_reserved": 0, "type": "electric_scooter", "bike_id": "a9723de9bedabaacfc8b0e5025d6fc95", "is_disabled": 0, "rental_uris": {"android": "https://dc.lft.to/lastmile_qr_scan", "ios": "https://dc.lft.to/lastmile_qr_scan"}, "lon": -76.9347405, "fusion_lat": 0.0}, {"name": "6e2e93566685ffc7f19d73701d95799e", "fusion_lon": 0.0, "lat": 38.909592833333335, "is_reserved": 0, "type": "electric_scooter", "bike_id": "6e2e93566685ffc7f19d73701d95799e", "is_disabled": 0, "rental_uris": {"android": "https://dc.lft.to/lastmile_qr_scan", "ios": "https://dc.lft.to/lastmile_qr_scan"}, "lon": -77.04796166666667, "fusion_lat": 0.0}, {"name": "8a84b1f782ffc56305d6a6b105d3207e", "fusion_lon": 0.0, "lat": 38.923742, "is_reserved": 0, "type": "electric_scooter", "bike_id": "8a84b1f782ffc56305d6a6b105d3207e", "is_disabled": 0, "rental_uris": {"android": "https://dc.lft.to/lastmile_qr_scan", "ios": "https://dc.lft.to/lastmile_qr_scan"}, "lon": -77.018985, "fusion_lat": 0.0}, {"name": "6eeb9fb1522bdb099f80bc900328055a", "fusion_lon": 0.0, "lat": 39.057907, "is_reserved": 0, "type": "electric_bike", "bike_id": "6eeb9fb1522bdb099f80bc900328055a", "is_disabled": 0, "rental_uris": {"android": "https://dc.lft.to/lastmile_qr_scan", "ios": "https://dc.lft.to/lastmile_qr_scan"}, "lon": -77.15022466666667, "fusion_lat": 0.0}, {"name": "df4ac39bfdf0b0e31f199a2f57b7ed0f", "fusion_lon": 0.0, "lat": 38.9229805, "is_reserved": 0, "type": "electric_scooter", "bike_id": "df4ac39bfdf0b0e31f199a2f57b7ed0f", "is_disabled": 0, "rental_uris": {"android": "https://dc.lft.to/lastmile_qr_scan", "ios": "https://dc.lft.to/lastmile_qr_scan"}, "lon": -77.029578, "fusion_lat": 0.0}, {"name": "11694d47b28ec48244d89a496997929c", "fusion_lon": 0.0, "lat": 38.83238866666667, "is_reserved": 0, "type": "electric_bike", "bike_id": "11694d47b28ec48244d89a496997929c", "is_disabled": 0, "rental_uris": {"android": "https://dc.lft.to/lastmile_qr_scan", "ios": "https://dc.lft.to/lastmile_qr_scan"}, "lon": -76.94616333333333, "fusion_lat": 0.0}, {"name": "c957369b6b263b91d545d246a2ad7eaf", "fusion_lon": 0.0, "lat": 38.904962, "is_reserved": 0, "type": "electric_scooter", "bike_id": "c957369b6b263b91d545d246a2ad7eaf", "is_disabled": 0, "rental_uris": {"android": "https://dc.lft.to/lastmile_qr_scan", "ios": "https://dc.lft.to/lastmile_qr_scan"}, "lon": -77.0601545, "fusion_lat": 0.0}, {"name": "d5982cfa02764c8f83c4832aedcb4feb", "fusion_lon": 0.0, "lat": 38.906707833333336, "is_reserved": 0, "type": "electric_scooter", "bike_id": "d5982cfa02764c8f83c4832aedcb4feb", "is_disabled": 0, "rental_uris": {"android": "https://dc.lft.to/lastmile_qr_scan", "ios": "https://dc.lft.to/lastmile_qr_scan"}, "lon": -77.0297945, "fusion_lat": 0.0}, {"name": "980230b0a78b0e29a07cf66b4db902c2", "fusion_lon": 0.0, "lat": 38.87919566666667, "is_reserved": 0, "type": "electric_scooter", "bike_id": "980230b0a78b0e29a07cf66b4db902c2", "is_disabled": 0, "rental_uris": {"android": "https://dc.lft.to/lastmile_qr_scan", "ios": "https://dc.lft.to/lastmile_qr_scan"}, "lon": -76.999831, "fusion_lat": 0.0}, {"name": "d5fcc7e18f53a52b3069abdf41524da1", "fusion_lon": 0.0, "lat": 38.93242466666667, "is_reserved": 0, "type": "electric_scooter", "bike_id": "d5fcc7e18f53a52b3069abdf41524da1", "is_disabled": 0, "rental_uris": {"android": "https://dc.lft.to/lastmile_qr_scan", "ios": "https://dc.lft.to/lastmile_qr_scan"}, "lon": -77.03852716666667, "fusion_lat": 0.0}, {"name": "367ac0f0ff48dc50668c243f82550924", "fusion_lon": 0.0, "lat": 38.92517016666667, "is_reserved": 0, "type": "electric_scooter", "bike_id": "367ac0f0ff48dc50668c243f82550924", "is_disabled": 0, "rental_uris": {"android": "https://dc.lft.to/lastmile_qr_scan", "ios": "https://dc.lft.to/lastmile_qr_scan"}, "lon": -77.02340316666667, "fusion_lat": 0.0}, {"name": "c00e702f6e46bd6e2f536d97eb83364a", "fusion_lon": 0.0, "lat": 38.893578166666664, "is_reserved": 0, "type": "electric_scooter", "bike_id": "c00e702f6e46bd6e2f536d97eb83364a", "is_disabled": 0, "rental_uris": {"android": "https://dc.lft.to/lastmile_qr_scan", "ios": "https://dc.lft.to/lastmile_qr_scan"}, "lon": -77.02823666666667, "fusion_lat": 0.0}, {"name": "fb97cfc57a8cac354af797880fe5ea5f", "fusion_lon": 0.0, "lat": 38.8981865, "is_reserved": 0, "type": "electric_bike", "bike_id": "fb97cfc57a8cac354af797880fe5ea5f", "is_disabled": 0, "rental_uris": {"android": "https://dc.lft.to/lastmile_qr_scan", "ios": "https://dc.lft.to/lastmile_qr_scan"}, "lon": -76.99074433333334, "fusion_lat": 0.0}, {"name": "fee24460df21a491c881d77fbedf9619", "fusion_lon": 0.0, "lat": 38.906223, "is_reserved": 0, "type": "electric_scooter", "bike_id": "fee24460df21a491c881d77fbedf9619", "is_disabled": 0, "rental_uris": {"android": "https://dc.lft.to/lastmile_qr_scan", "ios": "https://dc.lft.to/lastmile_qr_scan"}, "lon": -77.038392, "fusion_lat": 0.0}, {"name": "c44cf03bb3b25571dc61ee190d07c8a3", "fusion_lon": 0.0, "lat": 38.927355666666664, "is_reserved": 0, "type": "electric_scooter", "bike_id": "c44cf03bb3b25571dc61ee190d07c8a3", "is_disabled": 0, "rental_uris": {"android": "https://dc.lft.to/lastmile_qr_scan", "ios": "https://dc.lft.to/lastmile_qr_scan"}, "lon": -77.05253866666666, "fusion_lat": 0.0}, {"name": "354cc6a3b5877de852e91f4bfd902a8d", "fusion_lon": 0.0, "lat": 38.8742015, "is_reserved": 0, "type": "electric_scooter", "bike_id": "354cc6a3b5877de852e91f4bfd902a8d", "is_disabled": 0, "rental_uris": {"android": "https://dc.lft.to/lastmile_qr_scan", "ios": "https://dc.lft.to/lastmile_qr_scan"}, "lon": -77.018832, "fusion_lat": 0.0}, {"name": "672ddca148bd89fbd3242cc12c0b40c3", "fusion_lon": 0.0, "lat": 38.93239533333333, "is_reserved": 0, "type": "electric_scooter", "bike_id": "672ddca148bd89fbd3242cc12c0b40c3", "is_disabled": 0, "rental_uris": {"android": "https://dc.lft.to/lastmile_qr_scan", "ios": "https://dc.lft.to/lastmile_qr_scan"}, "lon": -77.020451, "fusion_lat": 0.0}, {"name": "31f8bd0867a5ef7d56dc6754e62e5cf9", "fusion_lon": 0.0, "lat": 38.930240833333336, "is_reserved": 0, "type": "electric_scooter", "bike_id": "31f8bd0867a5ef7d56dc6754e62e5cf9", "is_disabled": 0, "rental_uris": {"android": "https://dc.lft.to/lastmile_qr_scan", "ios": "https://dc.lft.to/lastmile_qr_scan"}, "lon": -77.06312316666667, "fusion_lat": 0.0}, {"name": "365fa5c970604b65a639119baa822900", "fusion_lon": 0.0, "lat": 39.0504705, "is_reserved": 0, "type": "electric_bike", "bike_id": "365fa5c970604b65a639119baa822900", "is_disabled": 0, "rental_uris": {"android": "https://dc.lft.to/lastmile_qr_scan", "ios": "https://dc.lft.to/lastmile_qr_scan"}, "lon": -77.05148833333334, "fusion_lat": 0.0}, {"name": "00a79d26ab6d45cf61210aeeb6c7f6b0", "fusion_lon": 0.0, "lat": 38.904097166666666, "is_reserved": 0, "type": "electric_scooter", "bike_id": "00a79d26ab6d45cf61210aeeb6c7f6b0", "is_disabled": 0, "rental_uris": {"android": "https://dc.lft.to/lastmile_qr_scan", "ios": "https://dc.lft.to/lastmile_qr_scan"}, "lon": -76.97333366666666, "fusion_lat": 0.0}, {"name": "9dad640d1cbd9737245bae676f84968a", "fusion_lon": 0.0, "lat": 38.91025033333333, "is_reserved": 0, "type": "electric_scooter", "bike_id": "9dad640d1cbd9737245bae676f84968a", "is_disabled": 0, "rental_uris": {"android": "https://dc.lft.to/lastmile_qr_scan", "ios": "https://dc.lft.to/lastmile_qr_scan"}, "lon": -77.007592, "fusion_lat": 0.0}, {"name": "38b76b07a5f8306825d0b33121fb6cc8", "fusion_lon": 0.0, "lat": 38.901726333333336, "is_reserved": 0, "type": "electric_scooter", "bike_id": "38b76b07a5f8306825d0b33121fb6cc8", "is_disabled": 0, "rental_uris": {"android": "https://dc.lft.to/lastmile_qr_scan", "ios": "https://dc.lft.to/lastmile_qr_scan"}, "lon": -77.0161145, "fusion_lat": 0.0}, {"name": "b3a07f4922092b5583b4fdf7805eb8e4", "fusion_lon": 0.0, "lat": 38.911368, "is_reserved": 0, "type": "electric_scooter", "bike_id": "b3a07f4922092b5583b4fdf7805eb8e4", "is_disabled": 0, "rental_uris": {"android": "https://dc.lft.to/lastmile_qr_scan", "ios": "https://dc.lft.to/lastmile_qr_scan"}, "lon": -77.02809583333334, "fusion_lat": 0.0}, {"name": "90c28be55e9a491ec81f993deeeced32", "fusion_lon": 0.0, "lat": 38.92241416666667, "is_reserved": 0, "type": "electric_scooter", "bike_id": "90c28be55e9a491ec81f993deeeced32", "is_disabled": 0, "rental_uris": {"android": "https://dc.lft.to/lastmile_qr_scan", "ios": "https://dc.lft.to/lastmile_qr_scan"}, "lon": -77.03899283333334, "fusion_lat": 0.0}, {"name": "280c6c5984eb34b8f83ce1039b7d0b9e", "fusion_lon": 0.0, "lat": 38.880642333333334, "is_reserved": 0, "type": "electric_scooter", "bike_id": "280c6c5984eb34b8f83ce1039b7d0b9e", "is_disabled": 0, "rental_uris": {"android": "https://dc.lft.to/lastmile_qr_scan", "ios": "https://dc.lft.to/lastmile_qr_scan"}, "lon": -77.00577683333333, "fusion_lat": 0.0}, {"name": "f8cbcf4b77aed9cc74fc6b23ed0441c2", "fusion_lon": 0.0, "lat": 38.8669685, "is_reserved": 0, "type": "electric_scooter", "bike_id": "f8cbcf4b77aed9cc74fc6b23ed0441c2", "is_disabled": 0, "rental_uris": {"android": "https://dc.lft.to/lastmile_qr_scan", "ios": "https://dc.lft.to/lastmile_qr_scan"}, "lon": -76.98714733333334, "fusion_lat": 0.0}, {"name": "37ef9b79cdb03759ae16805e5f2840a6", "fusion_lon": 0.0, "lat": 38.9204265, "is_reserved": 0, "type": "electric_scooter", "bike_id": "37ef9b79cdb03759ae16805e5f2840a6", "is_disabled": 0, "rental_uris": {"android": "https://dc.lft.to/lastmile_qr_scan", "ios": "https://dc.lft.to/lastmile_qr_scan"}, "lon": -77.03411033333333, "fusion_lat": 0.0}, {"name": "4c9101e76f48b9999038f61c92dc709e", "fusion_lon": 0.0, "lat": 38.913643, "is_reserved": 0, "type": "electric_scooter", "bike_id": "4c9101e76f48b9999038f61c92dc709e", "is_disabled": 0, "rental_uris": {"android": "https://dc.lft.to/lastmile_qr_scan", "ios": "https://dc.lft.to/lastmile_qr_scan"}, "lon": -77.04565733333334, "fusion_lat": 0.0}, {"name": "467ce6a53121237bbb6e6f18c2524a81", "fusion_lon": 0.0, "lat": 38.92243333333333, "is_reserved": 0, "type": "electric_scooter", "bike_id": "467ce6a53121237bbb6e6f18c2524a81", "is_disabled": 0, "rental_uris": {"android": "https://dc.lft.to/lastmile_qr_scan", "ios": "https://dc.lft.to/lastmile_qr_scan"}, "lon": -77.00879116666667, "fusion_lat": 0.0}, {"name": "1d39ae95a039bb1ec36633f04b4cbffc", "fusion_lon": 0.0, "lat": 38.9141475, "is_reserved": 0, "type": "electric_scooter", "bike_id": "1d39ae95a039bb1ec36633f04b4cbffc", "is_disabled": 0, "rental_uris": {"android": "https://dc.lft.to/lastmile_qr_scan", "ios": "https://dc.lft.to/lastmile_qr_scan"}, "lon": -77.04379266666666, "fusion_lat": 0.0}, {"name": "f2a4ce53403e4a1d789ef5a93d7a6614", "fusion_lon": 0.0, "lat": 38.92088483333333, "is_reserved": 0, "type": "electric_scooter", "bike_id": "f2a4ce53403e4a1d789ef5a93d7a6614", "is_disabled": 0, "rental_uris": {"android": "https://dc.lft.to/lastmile_qr_scan", "ios": "https://dc.lft.to/lastmile_qr_scan"}, "lon": -77.024141, "fusion_lat": 0.0}, {"name": "ed3753765c2925f0b2704f05bfdf41db", "fusion_lon": 0.0, "lat": 38.904053, "is_reserved": 0, "type": "electric_scooter", "bike_id": "ed3753765c2925f0b2704f05bfdf41db", "is_disabled": 0, "rental_uris": {"android": "https://dc.lft.to/lastmile_qr_scan", "ios": "https://dc.lft.to/lastmile_qr_scan"}, "lon": -77.032595, "fusion_lat": 0.0}, {"name": "754e25e4eb3bb755088a5f82f8a06264", "fusion_lon": 0.0, "lat": 38.94157716666667, "is_reserved": 0, "type": "electric_bike", "bike_id": "754e25e4eb3bb755088a5f82f8a06264", "is_disabled": 0, "rental_uris": {"android": "https://dc.lft.to/lastmile_qr_scan", "ios": "https://dc.lft.to/lastmile_qr_scan"}, "lon": -77.00194833333333, "fusion_lat": 0.0}, {"name": "c3c99a3a7baa2d42cc94904c5b63928e", "fusion_lon": 0.0, "lat": 38.89222083333333, "is_reserved": 0, "type": "electric_scooter", "bike_id": "c3c99a3a7baa2d42cc94904c5b63928e", "is_disabled": 0, "rental_uris": {"android": "https://dc.lft.to/lastmile_qr_scan", "ios": "https://dc.lft.to/lastmile_qr_scan"}, "lon": -77.0223175, "fusion_lat": 0.0}, {"name": "480ebb3ef88dfda04897e7c1c6c0daf5", "fusion_lon": 0.0, "lat": 38.91725066666667, "is_reserved": 0, "type": "electric_scooter", "bike_id": "480ebb3ef88dfda04897e7c1c6c0daf5", "is_disabled": 0, "rental_uris": {"android": "https://dc.lft.to/lastmile_qr_scan", "ios": "https://dc.lft.to/lastmile_qr_scan"}, "lon": -77.02505266666667, "fusion_lat": 0.0}, {"name": "70bbb8adb5f2ecb09d6d7135949bf4db", "fusion_lon": 0.0, "lat": 38.89560433333333, "is_reserved": 0, "type": "electric_bike", "bike_id": "70bbb8adb5f2ecb09d6d7135949bf4db", "is_disabled": 0, "rental_uris": {"android": "https://dc.lft.to/lastmile_qr_scan", "ios": "https://dc.lft.to/lastmile_qr_scan"}, "lon": -77.127307, "fusion_lat": 0.0}, {"name": "416b1dba88f094f681d552788403ca46", "fusion_lon": 0.0, "lat": 38.9082985, "is_reserved": 0, "type": "electric_bike", "bike_id": "416b1dba88f094f681d552788403ca46", "is_disabled": 0, "rental_uris": {"android": "https://dc.lft.to/lastmile_qr_scan", "ios": "https://dc.lft.to/lastmile_qr_scan"}, "lon": -76.94156, "fusion_lat": 0.0}, {"name": "80cbc00b11c80098a49237e2aebe586f", "fusion_lon": 0.0, "lat": 38.92321916666667, "is_reserved": 0, "type": "electric_scooter", "bike_id": "80cbc00b11c80098a49237e2aebe586f", "is_disabled": 0, "rental_uris": {"android": "https://dc.lft.to/lastmile_qr_scan", "ios": "https://dc.lft.to/lastmile_qr_scan"}, "lon": -77.03570633333334, "fusion_lat": 0.0}, {"name": "22f348dd4efa41e61f0e34f877c170f7", "fusion_lon": 0.0, "lat": 38.9071675, "is_reserved": 0, "type": "electric_scooter", "bike_id": "22f348dd4efa41e61f0e34f877c170f7", "is_disabled": 0, "rental_uris": {"android": "https://dc.lft.to/lastmile_qr_scan", "ios": "https://dc.lft.to/lastmile_qr_scan"}, "lon": -77.01482283333333, "fusion_lat": 0.0}, {"name": "7abb985af88a1602821568ce02c011b2", "fusion_lon": 0.0, "lat": 38.86366483333333, "is_reserved": 0, "type": "electric_bike", "bike_id": "7abb985af88a1602821568ce02c011b2", "is_disabled": 0, "rental_uris": {"android": "https://dc.lft.to/lastmile_qr_scan", "ios": "https://dc.lft.to/lastmile_qr_scan"}, "lon": -76.970152, "fusion_lat": 0.0}, {"name": "9f434d8745c3c73778b9cd92b74b6321", "fusion_lon": 0.0, "lat": 38.920959333333336, "is_reserved": 0, "type": "electric_scooter", "bike_id": "9f434d8745c3c73778b9cd92b74b6321", "is_disabled": 0, "rental_uris": {"android": "https://dc.lft.to/lastmile_qr_scan", "ios": "https://dc.lft.to/lastmile_qr_scan"}, "lon": -77.03167683333334, "fusion_lat": 0.0}, {"name": "37e55c331806483ff055328047da26b6", "fusion_lon": 0.0, "lat": 38.900529166666665, "is_reserved": 0, "type": "electric_scooter", "bike_id": "37e55c331806483ff055328047da26b6", "is_disabled": 0, "rental_uris": {"android": "https://dc.lft.to/lastmile_qr_scan", "ios": "https://dc.lft.to/lastmile_qr_scan"}, "lon": -77.0483775, "fusion_lat": 0.0}, {"name": "b6f2bdd7141e9710ce7acd65e3df2b1a", "fusion_lon": 0.0, "lat": 38.8850125, "is_reserved": 0, "type": "electric_scooter", "bike_id": "b6f2bdd7141e9710ce7acd65e3df2b1a", "is_disabled": 0, "rental_uris": {"android": "https://dc.lft.to/lastmile_qr_scan", "ios": "https://dc.lft.to/lastmile_qr_scan"}, "lon": -76.977117, "fusion_lat": 0.0}, {"name": "7e3b6c92cf0fa0d56886e10d8f3e329a", "fusion_lon": 0.0, "lat": 38.8922305, "is_reserved": 0, "type": "electric_scooter", "bike_id": "7e3b6c92cf0fa0d56886e10d8f3e329a", "is_disabled": 0, "rental_uris": {"android": "https://dc.lft.to/lastmile_qr_scan", "ios": "https://dc.lft.to/lastmile_qr_scan"}, "lon": -77.033402, "fusion_lat": 0.0}, {"name": "764c65d461162aa56759acdebdf116a8", "fusion_lon": 0.0, "lat": 38.901378, "is_reserved": 0, "type": "electric_scooter", "bike_id": "764c65d461162aa56759acdebdf116a8", "is_disabled": 0, "rental_uris": {"android": "https://dc.lft.to/lastmile_qr_scan", "ios": "https://dc.lft.to/lastmile_qr_scan"}, "lon": -77.04173433333334, "fusion_lat": 0.0}, {"name": "1288cf23eca1c74e15dba8a525ac8835", "fusion_lon": 0.0, "lat": 38.87938583333333, "is_reserved": 0, "type": "electric_scooter", "bike_id": "1288cf23eca1c74e15dba8a525ac8835", "is_disabled": 0, "rental_uris": {"android": "https://dc.lft.to/lastmile_qr_scan", "ios": "https://dc.lft.to/lastmile_qr_scan"}, "lon": -77.00067283333334, "fusion_lat": 0.0}, {"name": "cb88f5e342300bad52b2ecf15d96fdc7", "fusion_lon": 0.0, "lat": 38.90597866666667, "is_reserved": 0, "type": "electric_scooter", "bike_id": "cb88f5e342300bad52b2ecf15d96fdc7", "is_disabled": 0, "rental_uris": {"android": "https://dc.lft.to/lastmile_qr_scan", "ios": "https://dc.lft.to/lastmile_qr_scan"}, "lon": -77.04116566666667, "fusion_lat": 0.0}, {"name": "d21c26bdd69865cc0d8a6f4b6ca8dda6", "fusion_lon": 0.0, "lat": 38.86389533333333, "is_reserved": 0, "type": "electric_scooter", "bike_id": "d21c26bdd69865cc0d8a6f4b6ca8dda6", "is_disabled": 0, "rental_uris": {"android": "https://dc.lft.to/lastmile_qr_scan", "ios": "https://dc.lft.to/lastmile_qr_scan"}, "lon": -76.99043683333333, "fusion_lat": 0.0}, {"name": "34fd65aabdba4acc000d5757a467072f", "fusion_lon": 0.0, "lat": 38.93631416666667, "is_reserved": 0, "type": "electric_bike", "bike_id": "34fd65aabdba4acc000d5757a467072f", "is_disabled": 0, "rental_uris": {"android": "https://dc.lft.to/lastmile_qr_scan", "ios": "https://dc.lft.to/lastmile_qr_scan"}, "lon": -77.09020533333333, "fusion_lat": 0.0}, {"name": "a9e1a0468fe60ebdd0b55ebe1cae2182", "fusion_lon": 0.0, "lat": 38.9108615, "is_reserved": 0, "type": "electric_scooter", "bike_id": "a9e1a0468fe60ebdd0b55ebe1cae2182", "is_disabled": 0, "rental_uris": {"android": "https://dc.lft.to/lastmile_qr_scan", "ios": "https://dc.lft.to/lastmile_qr_scan"}, "lon": -76.99270633333333, "fusion_lat": 0.0}, {"name": "9e6765b523ac0f248cb9839e2280624b", "fusion_lon": 0.0, "lat": 38.883965833333335, "is_reserved": 0, "type": "electric_scooter", "bike_id": "9e6765b523ac0f248cb9839e2280624b", "is_disabled": 0, "rental_uris": {"android": "https://dc.lft.to/lastmile_qr_scan", "ios": "https://dc.lft.to/lastmile_qr_scan"}, "lon": -76.93046333333334, "fusion_lat": 0.0}, {"name": "3690e5474832315ec4d7c887c40ba3d5", "fusion_lon": 0.0, "lat": 38.94514016666667, "is_reserved": 0, "type": "electric_bike", "bike_id": "3690e5474832315ec4d7c887c40ba3d5", "is_disabled": 0, "rental_uris": {"android": "https://dc.lft.to/lastmile_qr_scan", "ios": "https://dc.lft.to/lastmile_qr_scan"}, "lon": -77.006769, "fusion_lat": 0.0}, {"name": "6ddfdff738fbeaa94f70e53873548109", "fusion_lon": 0.0, "lat": 38.8313895, "is_reserved": 0, "type": "electric_scooter", "bike_id": "6ddfdff738fbeaa94f70e53873548109", "is_disabled": 0, "rental_uris": {"android": "https://dc.lft.to/lastmile_qr_scan", "ios": "https://dc.lft.to/lastmile_qr_scan"}, "lon": -77.0513245, "fusion_lat": 0.0}, {"name": "bbf17dd7ef640948bf7621eef9b3696d", "fusion_lon": 0.0, "lat": 38.92838033333334, "is_reserved": 0, "type": "electric_bike", "bike_id": "bbf17dd7ef640948bf7621eef9b3696d", "is_disabled": 0, "rental_uris": {"android": "https://dc.lft.to/lastmile_qr_scan", "ios": "https://dc.lft.to/lastmile_qr_scan"}, "lon": -77.05514866666667, "fusion_lat": 0.0}, {"name": "eb6af492a96a30bf05394301604f12f0", "fusion_lon": 0.0, "lat": 38.928152833333336, "is_reserved": 0, "type": "electric_scooter", "bike_id": "eb6af492a96a30bf05394301604f12f0", "is_disabled": 0, "rental_uris": {"android": "https://dc.lft.to/lastmile_qr_scan", "ios": "https://dc.lft.to/lastmile_qr_scan"}, "lon": -77.013978, "fusion_lat": 0.0}, {"name": "010f95729859c9f27b1ebe0c53c4e56b", "fusion_lon": 0.0, "lat": 38.87928333333333, "is_reserved": 0, "type": "electric_scooter", "bike_id": "010f95729859c9f27b1ebe0c53c4e56b", "is_disabled": 0, "rental_uris": {"android": "https://dc.lft.to/lastmile_qr_scan", "ios": "https://dc.lft.to/lastmile_qr_scan"}, "lon": -77.005246, "fusion_lat": 0.0}, {"name": "aa8d88112455928e6c3934edcf2a93be", "fusion_lon": 0.0, "lat": 38.801299, "is_reserved": 0, "type": "electric_bike", "bike_id": "aa8d88112455928e6c3934edcf2a93be", "is_disabled": 0, "rental_uris": {"android": "https://dc.lft.to/lastmile_qr_scan", "ios": "https://dc.lft.to/lastmile_qr_scan"}, "lon": -77.07051633333333, "fusion_lat": 0.0}, {"name": "9658c30dfe06827e7e8c08370c03632e", "fusion_lon": 0.0, "lat": 38.915472333333334, "is_reserved": 0, "type": "electric_scooter", "bike_id": "9658c30dfe06827e7e8c08370c03632e", "is_disabled": 0, "rental_uris": {"android": "https://dc.lft.to/lastmile_qr_scan", "ios": "https://dc.lft.to/lastmile_qr_scan"}, "lon": -77.038484, "fusion_lat": 0.0}, {"name": "aaa98f588018d3939288582e761e0dfe", "fusion_lon": 0.0, "lat": 38.923457166666665, "is_reserved": 0, "type": "electric_scooter", "bike_id": "aaa98f588018d3939288582e761e0dfe", "is_disabled": 0, "rental_uris": {"android": "https://dc.lft.to/lastmile_qr_scan", "ios": "https://dc.lft.to/lastmile_qr_scan"}, "lon": -77.05084333333333, "fusion_lat": 0.0}, {"name": "67ac8739497fe169f9ca2c82d094716a", "fusion_lon": 0.0, "lat": 38.934222, "is_reserved": 0, "type": "electric_scooter", "bike_id": "67ac8739497fe169f9ca2c82d094716a", "is_disabled": 0, "rental_uris": {"android": "https://dc.lft.to/lastmile_qr_scan", "ios": "https://dc.lft.to/lastmile_qr_scan"}, "lon": -77.04250983333333, "fusion_lat": 0.0}, {"name": "6a06690de6a15ce03dea7f37a248487a", "fusion_lon": 0.0, "lat": 38.80709083333333, "is_reserved": 0, "type": "electric_bike", "bike_id": "6a06690de6a15ce03dea7f37a248487a", "is_disabled": 0, "rental_uris": {"android": "https://dc.lft.to/lastmile_qr_scan", "ios": "https://dc.lft.to/lastmile_qr_scan"}, "lon": -77.06174566666667, "fusion_lat": 0.0}, {"name": "892917b0af0820cd0b3fd7fe02b9b83e", "fusion_lon": 0.0, "lat": 38.8985395, "is_reserved": 0, "type": "electric_scooter", "bike_id": "892917b0af0820cd0b3fd7fe02b9b83e", "is_disabled": 0, "rental_uris": {"android": "https://dc.lft.to/lastmile_qr_scan", "ios": "https://dc.lft.to/lastmile_qr_scan"}, "lon": -76.98171966666666, "fusion_lat": 0.0}, {"name": "367c3e1450b554c53fbd17fdf8bdf09f", "fusion_lon": 0.0, "lat": 38.865163333333335, "is_reserved": 0, "type": "electric_scooter", "bike_id": "367c3e1450b554c53fbd17fdf8bdf09f", "is_disabled": 0, "rental_uris": {"android": "https://dc.lft.to/lastmile_qr_scan", "ios": "https://dc.lft.to/lastmile_qr_scan"}, "lon": -76.99018666666667, "fusion_lat": 0.0}, {"name": "84b3ecf9bfdeab7e272a4c6c2460c95d", "fusion_lon": 0.0, "lat": 38.935984833333336, "is_reserved": 0, "type": "electric_bike", "bike_id": "84b3ecf9bfdeab7e272a4c6c2460c95d", "is_disabled": 0, "rental_uris": {"android": "https://dc.lft.to/lastmile_qr_scan", "ios": "https://dc.lft.to/lastmile_qr_scan"}, "lon": -77.03552333333333, "fusion_lat": 0.0}, {"name": "1ed1c227864c633b95fd43222d558fc7", "fusion_lon": 0.0, "lat": 38.88747016666667, "is_reserved": 0, "type": "electric_scooter", "bike_id": "1ed1c227864c633b95fd43222d558fc7", "is_disabled": 0, "rental_uris": {"android": "https://dc.lft.to/lastmile_qr_scan", "ios": "https://dc.lft.to/lastmile_qr_scan"}, "lon": -77.02729383333333, "fusion_lat": 0.0}, {"name": "65677ce9447d6c4a3a82c893388b7ea8", "fusion_lon": 0.0, "lat": 38.80910516666667, "is_reserved": 0, "type": "electric_bike", "bike_id": "65677ce9447d6c4a3a82c893388b7ea8", "is_disabled": 0, "rental_uris": {"android": "https://dc.lft.to/lastmile_qr_scan", "ios": "https://dc.lft.to/lastmile_qr_scan"}, "lon": -77.08664316666666, "fusion_lat": 0.0}, {"name": "14c3af58241aa9e05055266779716ff7", "fusion_lon": 0.0, "lat": 38.92218966666667, "is_reserved": 0, "type": "electric_scooter", "bike_id": "14c3af58241aa9e05055266779716ff7", "is_disabled": 0, "rental_uris": {"android": "https://dc.lft.to/lastmile_qr_scan", "ios": "https://dc.lft.to/lastmile_qr_scan"}, "lon": -77.0345895, "fusion_lat": 0.0}, {"name": "d15f360c53daa54785adc1341f5294a8", "fusion_lon": 0.0, "lat": 38.919084833333336, "is_reserved": 0, "type": "electric_scooter", "bike_id": "d15f360c53daa54785adc1341f5294a8", "is_disabled": 0, "rental_uris": {"android": "https://dc.lft.to/lastmile_qr_scan", "ios": "https://dc.lft.to/lastmile_qr_scan"}, "lon": -77.03213683333334, "fusion_lat": 0.0}, {"name": "4b9c7b44e5b329d590500ca76a549c7f", "fusion_lon": 0.0, "lat": 38.917288, "is_reserved": 0, "type": "electric_scooter", "bike_id": "4b9c7b44e5b329d590500ca76a549c7f", "is_disabled": 0, "rental_uris": {"android": "https://dc.lft.to/lastmile_qr_scan", "ios": "https://dc.lft.to/lastmile_qr_scan"}, "lon": -77.036619, "fusion_lat": 0.0}, {"name": "a10393959068be819f74d92451d37a97", "fusion_lon": 0.0, "lat": 38.863839, "is_reserved": 0, "type": "electric_scooter", "bike_id": "a10393959068be819f74d92451d37a97", "is_disabled": 0, "rental_uris": {"android": "https://dc.lft.to/lastmile_qr_scan", "ios": "https://dc.lft.to/lastmile_qr_scan"}, "lon": -76.990366, "fusion_lat": 0.0}, {"name": "c55611b2d8c02dd542b52602e8247ef4", "fusion_lon": 0.0, "lat": 38.928649666666665, "is_reserved": 0, "type": "electric_scooter", "bike_id": "c55611b2d8c02dd542b52602e8247ef4", "is_disabled": 0, "rental_uris": {"android": "https://dc.lft.to/lastmile_qr_scan", "ios": "https://dc.lft.to/lastmile_qr_scan"}, "lon": -77.01416766666667, "fusion_lat": 0.0}, {"name": "c19cab7d751c0c382d428cca55f9d6d1", "fusion_lon": 0.0, "lat": 38.88471216666667, "is_reserved": 0, "type": "electric_scooter", "bike_id": "c19cab7d751c0c382d428cca55f9d6d1", "is_disabled": 0, "rental_uris": {"android": "https://dc.lft.to/lastmile_qr_scan", "ios": "https://dc.lft.to/lastmile_qr_scan"}, "lon": -77.03208283333333, "fusion_lat": 0.0}, {"name": "64021aeaaa1c50d1bd244785156cae12", "fusion_lon": 0.0, "lat": 38.91208183333333, "is_reserved": 0, "type": "electric_scooter", "bike_id": "64021aeaaa1c50d1bd244785156cae12", "is_disabled": 0, "rental_uris": {"android": "https://dc.lft.to/lastmile_qr_scan", "ios": "https://dc.lft.to/lastmile_qr_scan"}, "lon": -77.03842816666666, "fusion_lat": 0.0}, {"name": "5885895f7c79134f7623635eaa9094b8", "fusion_lon": 0.0, "lat": 38.886213833333336, "is_reserved": 0, "type": "electric_scooter", "bike_id": "5885895f7c79134f7623635eaa9094b8", "is_disabled": 0, "rental_uris": {"android": "https://dc.lft.to/lastmile_qr_scan", "ios": "https://dc.lft.to/lastmile_qr_scan"}, "lon": -76.955845, "fusion_lat": 0.0}, {"name": "a28ed4fc022e7fb1ac42654728ce9618", "fusion_lon": 0.0, "lat": 38.90324283333333, "is_reserved": 0, "type": "electric_scooter", "bike_id": "a28ed4fc022e7fb1ac42654728ce9618", "is_disabled": 0, "rental_uris": {"android": "https://dc.lft.to/lastmile_qr_scan", "ios": "https://dc.lft.to/lastmile_qr_scan"}, "lon": -76.975486, "fusion_lat": 0.0}, {"name": "769b37216e50ce0423c23b8b925e6838", "fusion_lon": 0.0, "lat": 38.900113166666664, "is_reserved": 0, "type": "electric_scooter", "bike_id": "769b37216e50ce0423c23b8b925e6838", "is_disabled": 0, "rental_uris": {"android": "https://dc.lft.to/lastmile_qr_scan", "ios": "https://dc.lft.to/lastmile_qr_scan"}, "lon": -77.04474916666666, "fusion_lat": 0.0}, {"name": "c6b23b8ae520c8584267b7ba1643e135", "fusion_lon": 0.0, "lat": 38.876370666666666, "is_reserved": 0, "type": "electric_scooter", "bike_id": "c6b23b8ae520c8584267b7ba1643e135", "is_disabled": 0, "rental_uris": {"android": "https://dc.lft.to/lastmile_qr_scan", "ios": "https://dc.lft.to/lastmile_qr_scan"}, "lon": -77.00458666666667, "fusion_lat": 0.0}, {"name": "4549587cdc2102071e0bb99be69ae6d6", "fusion_lon": 0.0, "lat": 38.87571916666667, "is_reserved": 0, "type": "electric_scooter", "bike_id": "4549587cdc2102071e0bb99be69ae6d6", "is_disabled": 0, "rental_uris": {"android": "https://dc.lft.to/lastmile_qr_scan", "ios": "https://dc.lft.to/lastmile_qr_scan"}, "lon": -77.00591283333333, "fusion_lat": 0.0}, {"name": "7e6f293cfb0b127fec2fd6142a90bf23", "fusion_lon": 0.0, "lat": 38.89951816666667, "is_reserved": 0, "type": "electric_scooter", "bike_id": "7e6f293cfb0b127fec2fd6142a90bf23", "is_disabled": 0, "rental_uris": {"android": "https://dc.lft.to/lastmile_qr_scan", "ios": "https://dc.lft.to/lastmile_qr_scan"}, "lon": -77.01614933333333, "fusion_lat": 0.0}, {"name": "a6b8346a5aeed3ac0823c928b998d54b", "fusion_lon": 0.0, "lat": 38.930879, "is_reserved": 0, "type": "electric_scooter", "bike_id": "a6b8346a5aeed3ac0823c928b998d54b", "is_disabled": 0, "rental_uris": {"android": "https://dc.lft.to/lastmile_qr_scan", "ios": "https://dc.lft.to/lastmile_qr_scan"}, "lon": -77.03450466666666, "fusion_lat": 0.0}, {"name": "9b266ccf3ca4a092fe8b3d99d51c44ad", "fusion_lon": 0.0, "lat": 38.916859, "is_reserved": 0, "type": "electric_scooter", "bike_id": "9b266ccf3ca4a092fe8b3d99d51c44ad", "is_disabled": 0, "rental_uris": {"android": "https://dc.lft.to/lastmile_qr_scan", "ios": "https://dc.lft.to/lastmile_qr_scan"}, "lon": -77.02525916666667, "fusion_lat": 0.0}, {"name": "0ac8f655357adb7c48d3b7c50f0928a4", "fusion_lon": 0.0, "lat": 38.89352016666667, "is_reserved": 0, "type": "electric_scooter", "bike_id": "0ac8f655357adb7c48d3b7c50f0928a4", "is_disabled": 0, "rental_uris": {"android": "https://dc.lft.to/lastmile_qr_scan", "ios": "https://dc.lft.to/lastmile_qr_scan"}, "lon": -77.0033085, "fusion_lat": 0.0}, {"name": "ff1c39b33ce3ef73a997a57ee83a70b9", "fusion_lon": 0.0, "lat": 38.89962533333333, "is_reserved": 0, "type": "electric_scooter", "bike_id": "ff1c39b33ce3ef73a997a57ee83a70b9", "is_disabled": 0, "rental_uris": {"android": "https://dc.lft.to/lastmile_qr_scan", "ios": "https://dc.lft.to/lastmile_qr_scan"}, "lon": -76.92629616666666, "fusion_lat": 0.0}, {"name": "603d0f1a044db1a2d9d5df6e152bb0bc", "fusion_lon": 0.0, "lat": 38.9055465, "is_reserved": 0, "type": "electric_scooter", "bike_id": "603d0f1a044db1a2d9d5df6e152bb0bc", "is_disabled": 0, "rental_uris": {"android": "https://dc.lft.to/lastmile_qr_scan", "ios": "https://dc.lft.to/lastmile_qr_scan"}, "lon": -77.00602283333333, "fusion_lat": 0.0}, {"name": "a96aa4ce4b141056f3d4721c2de1535a", "fusion_lon": 0.0, "lat": 38.92409816666667, "is_reserved": 0, "type": "electric_scooter", "bike_id": "a96aa4ce4b141056f3d4721c2de1535a", "is_disabled": 0, "rental_uris": {"android": "https://dc.lft.to/lastmile_qr_scan", "ios": "https://dc.lft.to/lastmile_qr_scan"}, "lon": -77.01944283333333, "fusion_lat": 0.0}, {"name": "5634d9c68bdd5192338b75ab65469631", "fusion_lon": 0.0, "lat": 38.924616, "is_reserved": 0, "type": "electric_scooter", "bike_id": "5634d9c68bdd5192338b75ab65469631", "is_disabled": 0, "rental_uris": {"android": "https://dc.lft.to/lastmile_qr_scan", "ios": "https://dc.lft.to/lastmile_qr_scan"}, "lon": -77.04007416666667, "fusion_lat": 0.0}, {"name": "fb565f127a4dcd9a03f8b268b8ebd959", "fusion_lon": 0.0, "lat": 38.89368783333333, "is_reserved": 0, "type": "electric_scooter", "bike_id": "fb565f127a4dcd9a03f8b268b8ebd959", "is_disabled": 0, "rental_uris": {"android": "https://dc.lft.to/lastmile_qr_scan", "ios": "https://dc.lft.to/lastmile_qr_scan"}, "lon": -77.03156766666666, "fusion_lat": 0.0}, {"name": "c5c17bb7f30802bfbdf3a9686f2b3539", "fusion_lon": 0.0, "lat": 38.89496466666667, "is_reserved": 0, "type": "electric_scooter", "bike_id": "c5c17bb7f30802bfbdf3a9686f2b3539", "is_disabled": 0, "rental_uris": {"android": "https://dc.lft.to/lastmile_qr_scan", "ios": "https://dc.lft.to/lastmile_qr_scan"}, "lon": -77.02783383333333, "fusion_lat": 0.0}, {"name": "7d6455242957123a68f17bca6d3b2e8f", "fusion_lon": 0.0, "lat": 38.905335666666666, "is_reserved": 0, "type": "electric_scooter", "bike_id": "7d6455242957123a68f17bca6d3b2e8f", "is_disabled": 0, "rental_uris": {"android": "https://dc.lft.to/lastmile_qr_scan", "ios": "https://dc.lft.to/lastmile_qr_scan"}, "lon": -76.98109266666667, "fusion_lat": 0.0}, {"name": "606ba7c8bc55d0f26fd2a86a9f2d1656", "fusion_lon": 0.0, "lat": 38.91886983333333, "is_reserved": 0, "type": "electric_scooter", "bike_id": "606ba7c8bc55d0f26fd2a86a9f2d1656", "is_disabled": 0, "rental_uris": {"android": "https://dc.lft.to/lastmile_qr_scan", "ios": "https://dc.lft.to/lastmile_qr_scan"}, "lon": -77.03499183333334, "fusion_lat": 0.0}, {"name": "d23f1924746f48b65c1c155f3db75529", "fusion_lon": 0.0, "lat": 38.86056133333334, "is_reserved": 0, "type": "electric_scooter", "bike_id": "d23f1924746f48b65c1c155f3db75529", "is_disabled": 0, "rental_uris": {"android": "https://dc.lft.to/lastmile_qr_scan", "ios": "https://dc.lft.to/lastmile_qr_scan"}, "lon": -76.98421783333333, "fusion_lat": 0.0}, {"name": "8d16cb90421d339e31dd3b306c74a599", "fusion_lon": 0.0, "lat": 38.924243833333335, "is_reserved": 0, "type": "electric_scooter", "bike_id": "8d16cb90421d339e31dd3b306c74a599", "is_disabled": 0, "rental_uris": {"android": "https://dc.lft.to/lastmile_qr_scan", "ios": "https://dc.lft.to/lastmile_qr_scan"}, "lon": -77.044581, "fusion_lat": 0.0}, {"name": "fef4f41a1c9467ea74b822fc37be32eb", "fusion_lon": 0.0, "lat": 38.91227683333334, "is_reserved": 0, "type": "electric_scooter", "bike_id": "fef4f41a1c9467ea74b822fc37be32eb", "is_disabled": 0, "rental_uris": {"android": "https://dc.lft.to/lastmile_qr_scan", "ios": "https://dc.lft.to/lastmile_qr_scan"}, "lon": -77.00188183333333, "fusion_lat": 0.0}, {"name": "23ea5bef3da8b9fe8c564d255eb44808", "fusion_lon": 0.0, "lat": 38.92418933333333, "is_reserved": 0, "type": "electric_scooter", "bike_id": "23ea5bef3da8b9fe8c564d255eb44808", "is_disabled": 0, "rental_uris": {"android": "https://dc.lft.to/lastmile_qr_scan", "ios": "https://dc.lft.to/lastmile_qr_scan"}, "lon": -77.050617, "fusion_lat": 0.0}, {"name": "de58eeb1eac4e905db36a347c0ebcdd1", "fusion_lon": 0.0, "lat": 38.9107885, "is_reserved": 0, "type": "electric_scooter", "bike_id": "de58eeb1eac4e905db36a347c0ebcdd1", "is_disabled": 0, "rental_uris": {"android": "https://dc.lft.to/lastmile_qr_scan", "ios": "https://dc.lft.to/lastmile_qr_scan"}, "lon": -77.00851266666666, "fusion_lat": 0.0}, {"name": "06df204a76dae5bbd5557ab2a01a2cb3", "fusion_lon": 0.0, "lat": 38.82002683333333, "is_reserved": 0, "type": "electric_bike", "bike_id": "06df204a76dae5bbd5557ab2a01a2cb3", "is_disabled": 0, "rental_uris": {"android": "https://dc.lft.to/lastmile_qr_scan", "ios": "https://dc.lft.to/lastmile_qr_scan"}, "lon": -77.05764216666667, "fusion_lat": 0.0}, {"name": "a564044348c865b849f644b6b6230f31", "fusion_lon": 0.0, "lat": 38.8772525, "is_reserved": 0, "type": "electric_scooter", "bike_id": "a564044348c865b849f644b6b6230f31", "is_disabled": 0, "rental_uris": {"android": "https://dc.lft.to/lastmile_qr_scan", "ios": "https://dc.lft.to/lastmile_qr_scan"}, "lon": -77.0177675, "fusion_lat": 0.0}, {"name": "55dfb945c4fb9e8c261d744fd13d719e", "fusion_lon": 0.0, "lat": 38.93247783333333, "is_reserved": 0, "type": "electric_scooter", "bike_id": "55dfb945c4fb9e8c261d744fd13d719e", "is_disabled": 0, "rental_uris": {"android": "https://dc.lft.to/lastmile_qr_scan", "ios": "https://dc.lft.to/lastmile_qr_scan"}, "lon": -77.03411916666667, "fusion_lat": 0.0}, {"name": "f8c2c8fce916a4297f1b0e9bd47aeade", "fusion_lon": 0.0, "lat": 38.92724783333333, "is_reserved": 0, "type": "electric_scooter", "bike_id": "f8c2c8fce916a4297f1b0e9bd47aeade", "is_disabled": 0, "rental_uris": {"android": "https://dc.lft.to/lastmile_qr_scan", "ios": "https://dc.lft.to/lastmile_qr_scan"}, "lon": -77.02284866666666, "fusion_lat": 0.0}, {"name": "fca5067f3b2feab1d4755790e217296a", "fusion_lon": 0.0, "lat": 38.929314166666664, "is_reserved": 0, "type": "electric_scooter", "bike_id": "fca5067f3b2feab1d4755790e217296a", "is_disabled": 0, "rental_uris": {"android": "https://dc.lft.to/lastmile_qr_scan", "ios": "https://dc.lft.to/lastmile_qr_scan"}, "lon": -77.03251233333333, "fusion_lat": 0.0}, {"name": "c89f5fa018622cf611f72b9c8b7cdd23", "fusion_lon": 0.0, "lat": 38.83376116666667, "is_reserved": 0, "type": "electric_scooter", "bike_id": "c89f5fa018622cf611f72b9c8b7cdd23", "is_disabled": 0, "rental_uris": {"android": "https://dc.lft.to/lastmile_qr_scan", "ios": "https://dc.lft.to/lastmile_qr_scan"}, "lon": -76.99565416666667, "fusion_lat": 0.0}, {"name": "4a5e7fd7e18064d0f596fbb2ab837ab7", "fusion_lon": 0.0, "lat": 38.923144666666666, "is_reserved": 0, "type": "electric_scooter", "bike_id": "4a5e7fd7e18064d0f596fbb2ab837ab7", "is_disabled": 0, "rental_uris": {"android": "https://dc.lft.to/lastmile_qr_scan", "ios": "https://dc.lft.to/lastmile_qr_scan"}, "lon": -77.0275845, "fusion_lat": 0.0}, {"name": "ee0a0daac0ca8d53abfebc071da6d828", "fusion_lon": 0.0, "lat": 38.872825666666664, "is_reserved": 0, "type": "electric_bike", "bike_id": "ee0a0daac0ca8d53abfebc071da6d828", "is_disabled": 0, "rental_uris": {"android": "https://dc.lft.to/lastmile_qr_scan", "ios": "https://dc.lft.to/lastmile_qr_scan"}, "lon": -77.23316816666667, "fusion_lat": 0.0}, {"name": "9ea8568d165297a90119d7fa879e9989", "fusion_lon": 0.0, "lat": 38.94202333333333, "is_reserved": 0, "type": "electric_scooter", "bike_id": "9ea8568d165297a90119d7fa879e9989", "is_disabled": 0, "rental_uris": {"android": "https://dc.lft.to/lastmile_qr_scan", "ios": "https://dc.lft.to/lastmile_qr_scan"}, "lon": -77.02515683333333, "fusion_lat": 0.0}, {"name": "13e1eff33566242bc74af4918b53890f", "fusion_lon": 0.0, "lat": 38.876127833333335, "is_reserved": 0, "type": "electric_scooter", "bike_id": "13e1eff33566242bc74af4918b53890f", "is_disabled": 0, "rental_uris": {"android": "https://dc.lft.to/lastmile_qr_scan", "ios": "https://dc.lft.to/lastmile_qr_scan"}, "lon": -77.000717, "fusion_lat": 0.0}, {"name": "d28992651f77c296d98f357ddbf24bfa", "fusion_lon": 0.0, "lat": 38.91518166666667, "is_reserved": 0, "type": "electric_scooter", "bike_id": "d28992651f77c296d98f357ddbf24bfa", "is_disabled": 0, "rental_uris": {"android": "https://dc.lft.to/lastmile_qr_scan", "ios": "https://dc.lft.to/lastmile_qr_scan"}, "lon": -77.031921, "fusion_lat": 0.0}, {"name": "be372c1e92c9f36466ac9e048605966c", "fusion_lon": 0.0, "lat": 38.8805625, "is_reserved": 0, "type": "electric_bike", "bike_id": "be372c1e92c9f36466ac9e048605966c", "is_disabled": 0, "rental_uris": {"android": "https://dc.lft.to/lastmile_qr_scan", "ios": "https://dc.lft.to/lastmile_qr_scan"}, "lon": -76.9623625, "fusion_lat": 0.0}, {"name": "db0e85c5db04b58c7fadf670dfa0b32a", "fusion_lon": 0.0, "lat": 38.89803833333333, "is_reserved": 0, "type": "electric_scooter", "bike_id": "db0e85c5db04b58c7fadf670dfa0b32a", "is_disabled": 0, "rental_uris": {"android": "https://dc.lft.to/lastmile_qr_scan", "ios": "https://dc.lft.to/lastmile_qr_scan"}, "lon": -77.03314266666666, "fusion_lat": 0.0}, {"name": "824a224f095f925d4b277d6e55f9c7b4", "fusion_lon": 0.0, "lat": 38.8635015, "is_reserved": 0, "type": "electric_scooter", "bike_id": "824a224f095f925d4b277d6e55f9c7b4", "is_disabled": 0, "rental_uris": {"android": "https://dc.lft.to/lastmile_qr_scan", "ios": "https://dc.lft.to/lastmile_qr_scan"}, "lon": -76.987062, "fusion_lat": 0.0}, {"name": "426526bf198224cfe0243ec10c435a1f", "fusion_lon": 0.0, "lat": 38.900272333333334, "is_reserved": 0, "type": "electric_scooter", "bike_id": "426526bf198224cfe0243ec10c435a1f", "is_disabled": 0, "rental_uris": {"android": "https://dc.lft.to/lastmile_qr_scan", "ios": "https://dc.lft.to/lastmile_qr_scan"}, "lon": -77.011886, "fusion_lat": 0.0}, {"name": "4d7d2b35dcc48b34ca56a5419c7f0dce", "fusion_lon": 0.0, "lat": 38.88728116666667, "is_reserved": 0, "type": "electric_scooter", "bike_id": "4d7d2b35dcc48b34ca56a5419c7f0dce", "is_disabled": 0, "rental_uris": {"android": "https://dc.lft.to/lastmile_qr_scan", "ios": "https://dc.lft.to/lastmile_qr_scan"}, "lon": -77.02841583333333, "fusion_lat": 0.0}, {"name": "bc305c5fdc09f5238428a34c264439d8", "fusion_lon": 0.0, "lat": 38.916166, "is_reserved": 0, "type": "electric_scooter", "bike_id": "bc305c5fdc09f5238428a34c264439d8", "is_disabled": 0, "rental_uris": {"android": "https://dc.lft.to/lastmile_qr_scan", "ios": "https://dc.lft.to/lastmile_qr_scan"}, "lon": -77.048509, "fusion_lat": 0.0}, {"name": "9992d482995fb27d21a1b23d4b2c352d", "fusion_lon": 0.0, "lat": 38.86953916666667, "is_reserved": 0, "type": "electric_scooter", "bike_id": "9992d482995fb27d21a1b23d4b2c352d", "is_disabled": 0, "rental_uris": {"android": "https://dc.lft.to/lastmile_qr_scan", "ios": "https://dc.lft.to/lastmile_qr_scan"}, "lon": -76.98177583333333, "fusion_lat": 0.0}, {"name": "adc8a7b29f681b3af3d2155240db50a9", "fusion_lon": 0.0, "lat": 38.88518466666667, "is_reserved": 0, "type": "electric_scooter", "bike_id": "adc8a7b29f681b3af3d2155240db50a9", "is_disabled": 0, "rental_uris": {"android": "https://dc.lft.to/lastmile_qr_scan", "ios": "https://dc.lft.to/lastmile_qr_scan"}, "lon": -77.005669, "fusion_lat": 0.0}, {"name": "c6c4f34a0eccef8ad33771088f55de3c", "fusion_lon": 0.0, "lat": 38.906034166666664, "is_reserved": 0, "type": "electric_scooter", "bike_id": "c6c4f34a0eccef8ad33771088f55de3c", "is_disabled": 0, "rental_uris": {"android": "https://dc.lft.to/lastmile_qr_scan", "ios": "https://dc.lft.to/lastmile_qr_scan"}, "lon": -77.05696183333333, "fusion_lat": 0.0}, {"name": "72e52ab8e8b31e1bed9e054b9cdc0064", "fusion_lon": 0.0, "lat": 38.9240005, "is_reserved": 0, "type": "electric_scooter", "bike_id": "72e52ab8e8b31e1bed9e054b9cdc0064", "is_disabled": 0, "rental_uris": {"android": "https://dc.lft.to/lastmile_qr_scan", "ios": "https://dc.lft.to/lastmile_qr_scan"}, "lon": -77.02145783333333, "fusion_lat": 0.0}, {"name": "dc8d2e64236e4582b8180ad7423f1d8a", "fusion_lon": 0.0, "lat": 38.9101315, "is_reserved": 0, "type": "electric_bike", "bike_id": "dc8d2e64236e4582b8180ad7423f1d8a", "is_disabled": 0, "rental_uris": {"android": "https://dc.lft.to/lastmile_qr_scan", "ios": "https://dc.lft.to/lastmile_qr_scan"}, "lon": -77.22796483333333, "fusion_lat": 0.0}, {"name": "333b4c0e3aa6c8347e832c5cd500c7bf", "fusion_lon": 0.0, "lat": 38.893242, "is_reserved": 0, "type": "electric_scooter", "bike_id": "333b4c0e3aa6c8347e832c5cd500c7bf", "is_disabled": 0, "rental_uris": {"android": "https://dc.lft.to/lastmile_qr_scan", "ios": "https://dc.lft.to/lastmile_qr_scan"}, "lon": -77.048732, "fusion_lat": 0.0}, {"name": "6963a05fa798126b1dcab28372499383", "fusion_lon": 0.0, "lat": 38.912716833333334, "is_reserved": 0, "type": "electric_scooter", "bike_id": "6963a05fa798126b1dcab28372499383", "is_disabled": 0, "rental_uris": {"android": "https://dc.lft.to/lastmile_qr_scan", "ios": "https://dc.lft.to/lastmile_qr_scan"}, "lon": -77.0269435, "fusion_lat": 0.0}, {"name": "38807c9dec98da4aee270652e10bac91", "fusion_lon": 0.0, "lat": 38.94434916666667, "is_reserved": 0, "type": "electric_scooter", "bike_id": "38807c9dec98da4aee270652e10bac91", "is_disabled": 0, "rental_uris": {"android": "https://dc.lft.to/lastmile_qr_scan", "ios": "https://dc.lft.to/lastmile_qr_scan"}, "lon": -77.0634935, "fusion_lat": 0.0}, {"name": "e7650258dda9028f86ac6b3a04fa85b4", "fusion_lon": 0.0, "lat": 38.91091766666667, "is_reserved": 0, "type": "electric_scooter", "bike_id": "e7650258dda9028f86ac6b3a04fa85b4", "is_disabled": 0, "rental_uris": {"android": "https://dc.lft.to/lastmile_qr_scan", "ios": "https://dc.lft.to/lastmile_qr_scan"}, "lon": -77.04482316666666, "fusion_lat": 0.0}, {"name": "4c843d8a1cc76795606be9b3773c8c93", "fusion_lon": 0.0, "lat": 38.936172166666665, "is_reserved": 0, "type": "electric_scooter", "bike_id": "4c843d8a1cc76795606be9b3773c8c93", "is_disabled": 0, "rental_uris": {"android": "https://dc.lft.to/lastmile_qr_scan", "ios": "https://dc.lft.to/lastmile_qr_scan"}, "lon": -77.0676155, "fusion_lat": 0.0}, {"name": "030732fefb3c963da075ca7f3abcb143", "fusion_lon": 0.0, "lat": 38.89749716666667, "is_reserved": 0, "type": "electric_scooter", "bike_id": "030732fefb3c963da075ca7f3abcb143", "is_disabled": 0, "rental_uris": {"android": "https://dc.lft.to/lastmile_qr_scan", "ios": "https://dc.lft.to/lastmile_qr_scan"}, "lon": -77.04400966666667, "fusion_lat": 0.0}, {"name": "1d5d22ed0b8f6daac58def5cde1fab78", "fusion_lon": 0.0, "lat": 38.917464, "is_reserved": 0, "type": "electric_scooter", "bike_id": "1d5d22ed0b8f6daac58def5cde1fab78", "is_disabled": 0, "rental_uris": {"android": "https://dc.lft.to/lastmile_qr_scan", "ios": "https://dc.lft.to/lastmile_qr_scan"}, "lon": -77.03451733333333, "fusion_lat": 0.0}, {"name": "9bf11de7d0e1e38c4c3e807f98384552", "fusion_lon": 0.0, "lat": 38.87298066666666, "is_reserved": 0, "type": "electric_bike", "bike_id": "9bf11de7d0e1e38c4c3e807f98384552", "is_disabled": 0, "rental_uris": {"android": "https://dc.lft.to/lastmile_qr_scan", "ios": "https://dc.lft.to/lastmile_qr_scan"}, "lon": -77.139276, "fusion_lat": 0.0}, {"name": "6dcf8e3237cd0f20bf882027c85763e4", "fusion_lon": 0.0, "lat": 38.89225483333333, "is_reserved": 0, "type": "electric_scooter", "bike_id": "6dcf8e3237cd0f20bf882027c85763e4", "is_disabled": 0, "rental_uris": {"android": "https://dc.lft.to/lastmile_qr_scan", "ios": "https://dc.lft.to/lastmile_qr_scan"}, "lon": -77.04805633333334, "fusion_lat": 0.0}, {"name": "c85e3a9f51e8a3d5dde13dcc90b0104a", "fusion_lon": 0.0, "lat": 38.9420205, "is_reserved": 0, "type": "electric_scooter", "bike_id": "c85e3a9f51e8a3d5dde13dcc90b0104a", "is_disabled": 0, "rental_uris": {"android": "https://dc.lft.to/lastmile_qr_scan", "ios": "https://dc.lft.to/lastmile_qr_scan"}, "lon": -77.02513566666667, "fusion_lat": 0.0}, {"name": "e87c2f3d36b32a9a20001efa1da95fd9", "fusion_lon": 0.0, "lat": 38.91767433333333, "is_reserved": 0, "type": "electric_scooter", "bike_id": "e87c2f3d36b32a9a20001efa1da95fd9", "is_disabled": 0, "rental_uris": {"android": "https://dc.lft.to/lastmile_qr_scan", "ios": "https://dc.lft.to/lastmile_qr_scan"}, "lon": -77.036378, "fusion_lat": 0.0}, {"name": "36205f5b0ce860a20b4e59cf4dad15a8", "fusion_lon": 0.0, "lat": 38.9047285, "is_reserved": 0, "type": "electric_bike", "bike_id": "36205f5b0ce860a20b4e59cf4dad15a8", "is_disabled": 0, "rental_uris": {"android": "https://dc.lft.to/lastmile_qr_scan", "ios": "https://dc.lft.to/lastmile_qr_scan"}, "lon": -76.973264, "fusion_lat": 0.0}, {"name": "7f3f819e47ff4269ed74c8cfdf304826", "fusion_lon": 0.0, "lat": 38.9245845, "is_reserved": 0, "type": "electric_scooter", "bike_id": "7f3f819e47ff4269ed74c8cfdf304826", "is_disabled": 0, "rental_uris": {"android": "https://dc.lft.to/lastmile_qr_scan", "ios": "https://dc.lft.to/lastmile_qr_scan"}, "lon": -77.08161983333333, "fusion_lat": 0.0}, {"name": "a4a04ae4c15c46c4ae0369f613457499", "fusion_lon": 0.0, "lat": 38.92536066666667, "is_reserved": 0, "type": "electric_scooter", "bike_id": "a4a04ae4c15c46c4ae0369f613457499", "is_disabled": 0, "rental_uris": {"android": "https://dc.lft.to/lastmile_qr_scan", "ios": "https://dc.lft.to/lastmile_qr_scan"}, "lon": -76.97219316666667, "fusion_lat": 0.0}, {"name": "9b7bc2fe8f4fe139b9b99341c34656aa", "fusion_lon": 0.0, "lat": 38.933930333333336, "is_reserved": 0, "type": "electric_scooter", "bike_id": "9b7bc2fe8f4fe139b9b99341c34656aa", "is_disabled": 0, "rental_uris": {"android": "https://dc.lft.to/lastmile_qr_scan", "ios": "https://dc.lft.to/lastmile_qr_scan"}, "lon": -77.02285416666666, "fusion_lat": 0.0}, {"name": "7e556a70ac87de7202b2f4f0a00a2416", "fusion_lon": 0.0, "lat": 38.915534666666666, "is_reserved": 0, "type": "electric_scooter", "bike_id": "7e556a70ac87de7202b2f4f0a00a2416", "is_disabled": 0, "rental_uris": {"android": "https://dc.lft.to/lastmile_qr_scan", "ios": "https://dc.lft.to/lastmile_qr_scan"}, "lon": -77.05313466666666, "fusion_lat": 0.0}, {"name": "a28996717cb18e8b66df052deb0fead6", "fusion_lon": 0.0, "lat": 38.926117, "is_reserved": 0, "type": "electric_scooter", "bike_id": "a28996717cb18e8b66df052deb0fead6", "is_disabled": 0, "rental_uris": {"android": "https://dc.lft.to/lastmile_qr_scan", "ios": "https://dc.lft.to/lastmile_qr_scan"}, "lon": -77.0241535, "fusion_lat": 0.0}, {"name": "81a1250f735275b90f0f251ebaecbc33", "fusion_lon": 0.0, "lat": 38.90013616666667, "is_reserved": 0, "type": "electric_scooter", "bike_id": "81a1250f735275b90f0f251ebaecbc33", "is_disabled": 0, "rental_uris": {"android": "https://dc.lft.to/lastmile_qr_scan", "ios": "https://dc.lft.to/lastmile_qr_scan"}, "lon": -76.93030066666667, "fusion_lat": 0.0}, {"name": "4f2e81dc199afcb61d5d9ce9da6e8a60", "fusion_lon": 0.0, "lat": 38.920247333333336, "is_reserved": 0, "type": "electric_scooter", "bike_id": "4f2e81dc199afcb61d5d9ce9da6e8a60", "is_disabled": 0, "rental_uris": {"android": "https://dc.lft.to/lastmile_qr_scan", "ios": "https://dc.lft.to/lastmile_qr_scan"}, "lon": -77.01116633333334, "fusion_lat": 0.0}, {"name": "bafb849be63fabd3db7de8b3dac783db", "fusion_lon": 0.0, "lat": 38.876170333333334, "is_reserved": 0, "type": "electric_scooter", "bike_id": "bafb849be63fabd3db7de8b3dac783db", "is_disabled": 0, "rental_uris": {"android": "https://dc.lft.to/lastmile_qr_scan", "ios": "https://dc.lft.to/lastmile_qr_scan"}, "lon": -77.00037666666667, "fusion_lat": 0.0}, {"name": "8c4f894a43f53e85b1dc1e37989c49e2", "fusion_lon": 0.0, "lat": 38.92999316666667, "is_reserved": 0, "type": "electric_scooter", "bike_id": "8c4f894a43f53e85b1dc1e37989c49e2", "is_disabled": 0, "rental_uris": {"android": "https://dc.lft.to/lastmile_qr_scan", "ios": "https://dc.lft.to/lastmile_qr_scan"}, "lon": -77.0379415, "fusion_lat": 0.0}, {"name": "ced589dde59ddfd13064822562d950ab", "fusion_lon": 0.0, "lat": 38.927680333333335, "is_reserved": 0, "type": "electric_scooter", "bike_id": "ced589dde59ddfd13064822562d950ab", "is_disabled": 0, "rental_uris": {"android": "https://dc.lft.to/lastmile_qr_scan", "ios": "https://dc.lft.to/lastmile_qr_scan"}, "lon": -77.02778266666667, "fusion_lat": 0.0}, {"name": "3a5efb711c989f8a0875d7e6c788cb64", "fusion_lon": 0.0, "lat": 38.87939766666667, "is_reserved": 0, "type": "electric_scooter", "bike_id": "3a5efb711c989f8a0875d7e6c788cb64", "is_disabled": 0, "rental_uris": {"android": "https://dc.lft.to/lastmile_qr_scan", "ios": "https://dc.lft.to/lastmile_qr_scan"}, "lon": -77.00532383333334, "fusion_lat": 0.0}, {"name": "92cbe417ca522c579f735bc437d02153", "fusion_lon": 0.0, "lat": 38.886797666666666, "is_reserved": 0, "type": "electric_scooter", "bike_id": "92cbe417ca522c579f735bc437d02153", "is_disabled": 0, "rental_uris": {"android": "https://dc.lft.to/lastmile_qr_scan", "ios": "https://dc.lft.to/lastmile_qr_scan"}, "lon": -76.95467233333333, "fusion_lat": 0.0}, {"name": "c308a5714b9ad38574a3ba6b98165dc0", "fusion_lon": 0.0, "lat": 38.87632083333333, "is_reserved": 0, "type": "electric_scooter", "bike_id": "c308a5714b9ad38574a3ba6b98165dc0", "is_disabled": 0, "rental_uris": {"android": "https://dc.lft.to/lastmile_qr_scan", "ios": "https://dc.lft.to/lastmile_qr_scan"}, "lon": -77.00455833333334, "fusion_lat": 0.0}, {"name": "2662f0951c8962a4e276a8d5ce88c1f8", "fusion_lon": 0.0, "lat": 38.903371166666666, "is_reserved": 0, "type": "electric_scooter", "bike_id": "2662f0951c8962a4e276a8d5ce88c1f8", "is_disabled": 0, "rental_uris": {"android": "https://dc.lft.to/lastmile_qr_scan", "ios": "https://dc.lft.to/lastmile_qr_scan"}, "lon": -76.98507733333334, "fusion_lat": 0.0}, {"name": "4af5530d9fcce252a87ce11ed62ab807", "fusion_lon": 0.0, "lat": 38.863527, "is_reserved": 0, "type": "electric_scooter", "bike_id": "4af5530d9fcce252a87ce11ed62ab807", "is_disabled": 0, "rental_uris": {"android": "https://dc.lft.to/lastmile_qr_scan", "ios": "https://dc.lft.to/lastmile_qr_scan"}, "lon": -76.98717433333333, "fusion_lat": 0.0}, {"name": "3756492d64a5d4a1f9693b5a0e6dff24", "fusion_lon": 0.0, "lat": 38.92050916666667, "is_reserved": 0, "type": "electric_scooter", "bike_id": "3756492d64a5d4a1f9693b5a0e6dff24", "is_disabled": 0, "rental_uris": {"android": "https://dc.lft.to/lastmile_qr_scan", "ios": "https://dc.lft.to/lastmile_qr_scan"}, "lon": -77.02437333333333, "fusion_lat": 0.0}, {"name": "c26e8c4f80a8d933085642d0a9495174", "fusion_lon": 0.0, "lat": 38.917664, "is_reserved": 0, "type": "electric_scooter", "bike_id": "c26e8c4f80a8d933085642d0a9495174", "is_disabled": 0, "rental_uris": {"android": "https://dc.lft.to/lastmile_qr_scan", "ios": "https://dc.lft.to/lastmile_qr_scan"}, "lon": -77.02292566666667, "fusion_lat": 0.0}, {"name": "f23134664288c6358c4da0e756d083ba", "fusion_lon": 0.0, "lat": 38.909666, "is_reserved": 0, "type": "electric_scooter", "bike_id": "f23134664288c6358c4da0e756d083ba", "is_disabled": 0, "rental_uris": {"android": "https://dc.lft.to/lastmile_qr_scan", "ios": "https://dc.lft.to/lastmile_qr_scan"}, "lon": -77.03987316666667, "fusion_lat": 0.0}, {"name": "54e9f519146234a74af9ca09f8eb1d8c", "fusion_lon": 0.0, "lat": 38.89234183333333, "is_reserved": 0, "type": "electric_scooter", "bike_id": "54e9f519146234a74af9ca09f8eb1d8c", "is_disabled": 0, "rental_uris": {"android": "https://dc.lft.to/lastmile_qr_scan", "ios": "https://dc.lft.to/lastmile_qr_scan"}, "lon": -77.03129533333333, "fusion_lat": 0.0}, {"name": "65ebd8f9f3300bc5348b409d877ba878", "fusion_lon": 0.0, "lat": 38.9199745, "is_reserved": 0, "type": "electric_scooter", "bike_id": "65ebd8f9f3300bc5348b409d877ba878", "is_disabled": 0, "rental_uris": {"android": "https://dc.lft.to/lastmile_qr_scan", "ios": "https://dc.lft.to/lastmile_qr_scan"}, "lon": -77.03298516666666, "fusion_lat": 0.0}, {"name": "1d9b611dd528793b6491dfb927ea1ae5", "fusion_lon": 0.0, "lat": 38.91702816666667, "is_reserved": 0, "type": "electric_scooter", "bike_id": "1d9b611dd528793b6491dfb927ea1ae5", "is_disabled": 0, "rental_uris": {"android": "https://dc.lft.to/lastmile_qr_scan", "ios": "https://dc.lft.to/lastmile_qr_scan"}, "lon": -77.0245395, "fusion_lat": 0.0}, {"name": "cc1e8f8d1329c1a593a68dc9ad42b77e", "fusion_lon": 0.0, "lat": 38.925097666666666, "is_reserved": 0, "type": "electric_scooter", "bike_id": "cc1e8f8d1329c1a593a68dc9ad42b77e", "is_disabled": 0, "rental_uris": {"android": "https://dc.lft.to/lastmile_qr_scan", "ios": "https://dc.lft.to/lastmile_qr_scan"}, "lon": -77.02335916666667, "fusion_lat": 0.0}, {"name": "e8756629548fbdb682f1c5aa02f436f7", "fusion_lon": 0.0, "lat": 38.915491, "is_reserved": 0, "type": "electric_scooter", "bike_id": "e8756629548fbdb682f1c5aa02f436f7", "is_disabled": 0, "rental_uris": {"android": "https://dc.lft.to/lastmile_qr_scan", "ios": "https://dc.lft.to/lastmile_qr_scan"}, "lon": -77.03845116666666, "fusion_lat": 0.0}, {"name": "e958b0fef2af70e653efbe2132d3e99a", "fusion_lon": 0.0, "lat": 38.92088066666667, "is_reserved": 0, "type": "electric_scooter", "bike_id": "e958b0fef2af70e653efbe2132d3e99a", "is_disabled": 0, "rental_uris": {"android": "https://dc.lft.to/lastmile_qr_scan", "ios": "https://dc.lft.to/lastmile_qr_scan"}, "lon": -77.01670633333333, "fusion_lat": 0.0}, {"name": "1ea814a96b5ee6ea1a19ad3386dcd747", "fusion_lon": 0.0, "lat": 38.880803, "is_reserved": 0, "type": "electric_scooter", "bike_id": "1ea814a96b5ee6ea1a19ad3386dcd747", "is_disabled": 0, "rental_uris": {"android": "https://dc.lft.to/lastmile_qr_scan", "ios": "https://dc.lft.to/lastmile_qr_scan"}, "lon": -76.98507183333334, "fusion_lat": 0.0}, {"name": "a1d8989e9662703fe7732db0e6970c04", "fusion_lon": 0.0, "lat": 38.91656833333333, "is_reserved": 0, "type": "electric_scooter", "bike_id": "a1d8989e9662703fe7732db0e6970c04", "is_disabled": 0, "rental_uris": {"android": "https://dc.lft.to/lastmile_qr_scan", "ios": "https://dc.lft.to/lastmile_qr_scan"}, "lon": -77.0296755, "fusion_lat": 0.0}, {"name": "948a017aee866b8a10bbcd0e0dc6e2e5", "fusion_lon": 0.0, "lat": 38.900204333333335, "is_reserved": 0, "type": "electric_scooter", "bike_id": "948a017aee866b8a10bbcd0e0dc6e2e5", "is_disabled": 0, "rental_uris": {"android": "https://dc.lft.to/lastmile_qr_scan", "ios": "https://dc.lft.to/lastmile_qr_scan"}, "lon": -76.99897233333333, "fusion_lat": 0.0}, {"name": "e8e1ed2ee17ec2406641d16ad9203a26", "fusion_lon": 0.0, "lat": 38.916625833333335, "is_reserved": 0, "type": "electric_scooter", "bike_id": "e8e1ed2ee17ec2406641d16ad9203a26", "is_disabled": 0, "rental_uris": {"android": "https://dc.lft.to/lastmile_qr_scan", "ios": "https://dc.lft.to/lastmile_qr_scan"}, "lon": -77.0297025, "fusion_lat": 0.0}, {"name": "9226f4aa59287e654fe026cb0d2fdb7a", "fusion_lon": 0.0, "lat": 38.89319733333333, "is_reserved": 0, "type": "electric_scooter", "bike_id": "9226f4aa59287e654fe026cb0d2fdb7a", "is_disabled": 0, "rental_uris": {"android": "https://dc.lft.to/lastmile_qr_scan", "ios": "https://dc.lft.to/lastmile_qr_scan"}, "lon": -77.04873466666666, "fusion_lat": 0.0}, {"name": "edbb6a3871de05866264ee66e3e2d2b5", "fusion_lon": 0.0, "lat": 38.95152383333333, "is_reserved": 0, "type": "electric_scooter", "bike_id": "edbb6a3871de05866264ee66e3e2d2b5", "is_disabled": 0, "rental_uris": {"android": "https://dc.lft.to/lastmile_qr_scan", "ios": "https://dc.lft.to/lastmile_qr_scan"}, "lon": -77.0186755, "fusion_lat": 0.0}, {"name": "314fc049a946b4fdf9d0a828862afb55", "fusion_lon": 0.0, "lat": 38.923361, "is_reserved": 0, "type": "electric_scooter", "bike_id": "314fc049a946b4fdf9d0a828862afb55", "is_disabled": 0, "rental_uris": {"android": "https://dc.lft.to/lastmile_qr_scan", "ios": "https://dc.lft.to/lastmile_qr_scan"}, "lon": -77.05676716666666, "fusion_lat": 0.0}, {"name": "7f17b7c0eef43e241c55b95fcb5f00ba", "fusion_lon": 0.0, "lat": 38.905595166666664, "is_reserved": 0, "type": "electric_scooter", "bike_id": "7f17b7c0eef43e241c55b95fcb5f00ba", "is_disabled": 0, "rental_uris": {"android": "https://dc.lft.to/lastmile_qr_scan", "ios": "https://dc.lft.to/lastmile_qr_scan"}, "lon": -77.04505533333334, "fusion_lat": 0.0}, {"name": "10f53409bec98433b19d3e036e7e1061", "fusion_lon": 0.0, "lat": 38.92646516666667, "is_reserved": 0, "type": "electric_scooter", "bike_id": "10f53409bec98433b19d3e036e7e1061", "is_disabled": 0, "rental_uris": {"android": "https://dc.lft.to/lastmile_qr_scan", "ios": "https://dc.lft.to/lastmile_qr_scan"}, "lon": -77.041425, "fusion_lat": 0.0}, {"name": "108775f0266ce4ac6bf8f364032f83e0", "fusion_lon": 0.0, "lat": 38.875715, "is_reserved": 0, "type": "electric_scooter", "bike_id": "108775f0266ce4ac6bf8f364032f83e0", "is_disabled": 0, "rental_uris": {"android": "https://dc.lft.to/lastmile_qr_scan", "ios": "https://dc.lft.to/lastmile_qr_scan"}, "lon": -77.0058845, "fusion_lat": 0.0}, {"name": "ca8aa46b970ebe980795b0456181f1f8", "fusion_lon": 0.0, "lat": 38.9377055, "is_reserved": 0, "type": "electric_scooter", "bike_id": "ca8aa46b970ebe980795b0456181f1f8", "is_disabled": 0, "rental_uris": {"android": "https://dc.lft.to/lastmile_qr_scan", "ios": "https://dc.lft.to/lastmile_qr_scan"}, "lon": -77.02462466666667, "fusion_lat": 0.0}, {"name": "5733019fcd796978d28dc3bcf4ab3b68", "fusion_lon": 0.0, "lat": 38.9057875, "is_reserved": 0, "type": "electric_scooter", "bike_id": "5733019fcd796978d28dc3bcf4ab3b68", "is_disabled": 0, "rental_uris": {"android": "https://dc.lft.to/lastmile_qr_scan", "ios": "https://dc.lft.to/lastmile_qr_scan"}, "lon": -77.02217233333333, "fusion_lat": 0.0}, {"name": "87552f4d764c7eaa7dcb757b0ecc2c7c", "fusion_lon": 0.0, "lat": 38.91894466666667, "is_reserved": 0, "type": "electric_scooter", "bike_id": "87552f4d764c7eaa7dcb757b0ecc2c7c", "is_disabled": 0, "rental_uris": {"android": "https://dc.lft.to/lastmile_qr_scan", "ios": "https://dc.lft.to/lastmile_qr_scan"}, "lon": -77.03452633333333, "fusion_lat": 0.0}, {"name": "256afc888b67875f282875d7890f6e7f", "fusion_lon": 0.0, "lat": 38.9171285, "is_reserved": 0, "type": "electric_scooter", "bike_id": "256afc888b67875f282875d7890f6e7f", "is_disabled": 0, "rental_uris": {"android": "https://dc.lft.to/lastmile_qr_scan", "ios": "https://dc.lft.to/lastmile_qr_scan"}, "lon": -77.03344183333333, "fusion_lat": 0.0}, {"name": "570d2d82796721ea3925094a349cd998", "fusion_lon": 0.0, "lat": 38.8922695, "is_reserved": 0, "type": "electric_scooter", "bike_id": "570d2d82796721ea3925094a349cd998", "is_disabled": 0, "rental_uris": {"android": "https://dc.lft.to/lastmile_qr_scan", "ios": "https://dc.lft.to/lastmile_qr_scan"}, "lon": -77.04656983333334, "fusion_lat": 0.0}, {"name": "c0acb7fe863c51b6e2883efd2a69c091", "fusion_lon": 0.0, "lat": 38.90184416666666, "is_reserved": 0, "type": "electric_scooter", "bike_id": "c0acb7fe863c51b6e2883efd2a69c091", "is_disabled": 0, "rental_uris": {"android": "https://dc.lft.to/lastmile_qr_scan", "ios": "https://dc.lft.to/lastmile_qr_scan"}, "lon": -76.9337335, "fusion_lat": 0.0}, {"name": "2a7d78079f480f6fe328ddd042320d9e", "fusion_lon": 0.0, "lat": 38.902742, "is_reserved": 0, "type": "electric_scooter", "bike_id": "2a7d78079f480f6fe328ddd042320d9e", "is_disabled": 0, "rental_uris": {"android": "https://dc.lft.to/lastmile_qr_scan", "ios": "https://dc.lft.to/lastmile_qr_scan"}, "lon": -77.0176015, "fusion_lat": 0.0}, {"name": "b10b74b3e09cccd84486f1c0d75ff425", "fusion_lon": 0.0, "lat": 38.908891, "is_reserved": 0, "type": "electric_scooter", "bike_id": "b10b74b3e09cccd84486f1c0d75ff425", "is_disabled": 0, "rental_uris": {"android": "https://dc.lft.to/lastmile_qr_scan", "ios": "https://dc.lft.to/lastmile_qr_scan"}, "lon": -76.99856216666667, "fusion_lat": 0.0}, {"name": "3240f65bd4342785e9289728fc0eca16", "fusion_lon": 0.0, "lat": 38.930399333333334, "is_reserved": 0, "type": "electric_scooter", "bike_id": "3240f65bd4342785e9289728fc0eca16", "is_disabled": 0, "rental_uris": {"android": "https://dc.lft.to/lastmile_qr_scan", "ios": "https://dc.lft.to/lastmile_qr_scan"}, "lon": -77.01223133333333, "fusion_lat": 0.0}, {"name": "ca7e9c81785acbcdd7b64b95d67c7469", "fusion_lon": 0.0, "lat": 38.89621116666667, "is_reserved": 0, "type": "electric_scooter", "bike_id": "ca7e9c81785acbcdd7b64b95d67c7469", "is_disabled": 0, "rental_uris": {"android": "https://dc.lft.to/lastmile_qr_scan", "ios": "https://dc.lft.to/lastmile_qr_scan"}, "lon": -77.02199416666667, "fusion_lat": 0.0}, {"name": "99b2aaa341291817e5a86122a73053b5", "fusion_lon": 0.0, "lat": 38.912702833333334, "is_reserved": 0, "type": "electric_scooter", "bike_id": "99b2aaa341291817e5a86122a73053b5", "is_disabled": 0, "rental_uris": {"android": "https://dc.lft.to/lastmile_qr_scan", "ios": "https://dc.lft.to/lastmile_qr_scan"}, "lon": -77.022283, "fusion_lat": 0.0}, {"name": "a5bcc414e9da5d50bbee33ccb447aead", "fusion_lon": 0.0, "lat": 38.91474516666667, "is_reserved": 0, "type": "electric_scooter", "bike_id": "a5bcc414e9da5d50bbee33ccb447aead", "is_disabled": 0, "rental_uris": {"android": "https://dc.lft.to/lastmile_qr_scan", "ios": "https://dc.lft.to/lastmile_qr_scan"}, "lon": -77.03184783333333, "fusion_lat": 0.0}, {"name": "b0473827091a4ecfed5758a9ade91bc1", "fusion_lon": 0.0, "lat": 38.953523833333335, "is_reserved": 0, "type": "electric_bike", "bike_id": "b0473827091a4ecfed5758a9ade91bc1", "is_disabled": 0, "rental_uris": {"android": "https://dc.lft.to/lastmile_qr_scan", "ios": "https://dc.lft.to/lastmile_qr_scan"}, "lon": -76.98089866666666, "fusion_lat": 0.0}, {"name": "6041ae088b351516edc467b3e135b5bf", "fusion_lon": 0.0, "lat": 38.92383483333333, "is_reserved": 0, "type": "electric_scooter", "bike_id": "6041ae088b351516edc467b3e135b5bf", "is_disabled": 0, "rental_uris": {"android": "https://dc.lft.to/lastmile_qr_scan", "ios": "https://dc.lft.to/lastmile_qr_scan"}, "lon": -77.03562483333333, "fusion_lat": 0.0}, {"name": "80662f9b02c052faf495c57a4706ee25", "fusion_lon": 0.0, "lat": 38.91906083333333, "is_reserved": 0, "type": "electric_scooter", "bike_id": "80662f9b02c052faf495c57a4706ee25", "is_disabled": 0, "rental_uris": {"android": "https://dc.lft.to/lastmile_qr_scan", "ios": "https://dc.lft.to/lastmile_qr_scan"}, "lon": -77.0153825, "fusion_lat": 0.0}, {"name": "91c38ae772dd8916f8661c49220b62a4", "fusion_lon": 0.0, "lat": 38.93859966666667, "is_reserved": 0, "type": "electric_scooter", "bike_id": "91c38ae772dd8916f8661c49220b62a4", "is_disabled": 0, "rental_uris": {"android": "https://dc.lft.to/lastmile_qr_scan", "ios": "https://dc.lft.to/lastmile_qr_scan"}, "lon": -77.02596333333334, "fusion_lat": 0.0}, {"name": "38d413631ce1ca26992f1620a5b5d0b7", "fusion_lon": 0.0, "lat": 38.918966833333336, "is_reserved": 0, "type": "electric_scooter", "bike_id": "38d413631ce1ca26992f1620a5b5d0b7", "is_disabled": 0, "rental_uris": {"android": "https://dc.lft.to/lastmile_qr_scan", "ios": "https://dc.lft.to/lastmile_qr_scan"}, "lon": -77.04194166666667, "fusion_lat": 0.0}, {"name": "e293f7787b96b0c1877645de020329b2", "fusion_lon": 0.0, "lat": 38.90510783333333, "is_reserved": 0, "type": "electric_scooter", "bike_id": "e293f7787b96b0c1877645de020329b2", "is_disabled": 0, "rental_uris": {"android": "https://dc.lft.to/lastmile_qr_scan", "ios": "https://dc.lft.to/lastmile_qr_scan"}, "lon": -77.07014633333333, "fusion_lat": 0.0}, {"name": "3c4a2b92cb6bc10b18339f675255ba1c", "fusion_lon": 0.0, "lat": 38.96302433333334, "is_reserved": 0, "type": "electric_bike", "bike_id": "3c4a2b92cb6bc10b18339f675255ba1c", "is_disabled": 0, "rental_uris": {"android": "https://dc.lft.to/lastmile_qr_scan", "ios": "https://dc.lft.to/lastmile_qr_scan"}, "lon": -77.011072, "fusion_lat": 0.0}, {"name": "ffb8604e75ad2484f960de3b7b7f18c9", "fusion_lon": 0.0, "lat": 38.963269, "is_reserved": 0, "type": "electric_bike", "bike_id": "ffb8604e75ad2484f960de3b7b7f18c9", "is_disabled": 0, "rental_uris": {"android": "https://dc.lft.to/lastmile_qr_scan", "ios": "https://dc.lft.to/lastmile_qr_scan"}, "lon": -76.9736705, "fusion_lat": 0.0}, {"name": "f5e2a20edfc7197af955e5f15cda743f", "fusion_lon": 0.0, "lat": 38.90457266666667, "is_reserved": 0, "type": "electric_scooter", "bike_id": "f5e2a20edfc7197af955e5f15cda743f", "is_disabled": 0, "rental_uris": {"android": "https://dc.lft.to/lastmile_qr_scan", "ios": "https://dc.lft.to/lastmile_qr_scan"}, "lon": -77.04184916666667, "fusion_lat": 0.0}, {"name": "b4fcc23c3281e1d43be6db8ab38b1c50", "fusion_lon": 0.0, "lat": 38.91815116666667, "is_reserved": 0, "type": "electric_scooter", "bike_id": "b4fcc23c3281e1d43be6db8ab38b1c50", "is_disabled": 0, "rental_uris": {"android": "https://dc.lft.to/lastmile_qr_scan", "ios": "https://dc.lft.to/lastmile_qr_scan"}, "lon": -77.08959616666667, "fusion_lat": 0.0}, {"name": "8c72454d01741d5288357e8697ec74c7", "fusion_lon": 0.0, "lat": 38.932319, "is_reserved": 0, "type": "electric_scooter", "bike_id": "8c72454d01741d5288357e8697ec74c7", "is_disabled": 0, "rental_uris": {"android": "https://dc.lft.to/lastmile_qr_scan", "ios": "https://dc.lft.to/lastmile_qr_scan"}, "lon": -77.0386775, "fusion_lat": 0.0}, {"name": "8e18ce7c41c7e9e1a94e90b176d34004", "fusion_lon": 0.0, "lat": 38.90266883333334, "is_reserved": 0, "type": "electric_scooter", "bike_id": "8e18ce7c41c7e9e1a94e90b176d34004", "is_disabled": 0, "rental_uris": {"android": "https://dc.lft.to/lastmile_qr_scan", "ios": "https://dc.lft.to/lastmile_qr_scan"}, "lon": -77.0032765, "fusion_lat": 0.0}, {"name": "9dd62b21b1bcd8d58b5d62fce3824f76", "fusion_lon": 0.0, "lat": 38.92718883333333, "is_reserved": 0, "type": "electric_scooter", "bike_id": "9dd62b21b1bcd8d58b5d62fce3824f76", "is_disabled": 0, "rental_uris": {"android": "https://dc.lft.to/lastmile_qr_scan", "ios": "https://dc.lft.to/lastmile_qr_scan"}, "lon": -77.02302916666666, "fusion_lat": 0.0}, {"name": "dced4df53c12cf83dd2ad451709dd7d5", "fusion_lon": 0.0, "lat": 38.907846666666664, "is_reserved": 0, "type": "electric_scooter", "bike_id": "dced4df53c12cf83dd2ad451709dd7d5", "is_disabled": 0, "rental_uris": {"android": "https://dc.lft.to/lastmile_qr_scan", "ios": "https://dc.lft.to/lastmile_qr_scan"}, "lon": -77.00960283333333, "fusion_lat": 0.0}, {"name": "c4306a4fbc227202f818dbab0f9390af", "fusion_lon": 0.0, "lat": 38.89223883333333, "is_reserved": 0, "type": "electric_scooter", "bike_id": "c4306a4fbc227202f818dbab0f9390af", "is_disabled": 0, "rental_uris": {"android": "https://dc.lft.to/lastmile_qr_scan", "ios": "https://dc.lft.to/lastmile_qr_scan"}, "lon": -77.0485925, "fusion_lat": 0.0}, {"name": "f268f7eaf3cc4e22389fcfe3e74f3db0", "fusion_lon": 0.0, "lat": 38.90236266666667, "is_reserved": 0, "type": "electric_scooter", "bike_id": "f268f7eaf3cc4e22389fcfe3e74f3db0", "is_disabled": 0, "rental_uris": {"android": "https://dc.lft.to/lastmile_qr_scan", "ios": "https://dc.lft.to/lastmile_qr_scan"}, "lon": -77.0534115, "fusion_lat": 0.0}, {"name": "89f15a649b6814f804f77589cd0557cb", "fusion_lon": 0.0, "lat": 38.90231283333333, "is_reserved": 0, "type": "electric_scooter", "bike_id": "89f15a649b6814f804f77589cd0557cb", "is_disabled": 0, "rental_uris": {"android": "https://dc.lft.to/lastmile_qr_scan", "ios": "https://dc.lft.to/lastmile_qr_scan"}, "lon": -77.02786016666667, "fusion_lat": 0.0}, {"name": "78fe1993a4142f5180a424fa81021840", "fusion_lon": 0.0, "lat": 38.9302725, "is_reserved": 0, "type": "electric_scooter", "bike_id": "78fe1993a4142f5180a424fa81021840", "is_disabled": 0, "rental_uris": {"android": "https://dc.lft.to/lastmile_qr_scan", "ios": "https://dc.lft.to/lastmile_qr_scan"}, "lon": -77.037913, "fusion_lat": 0.0}, {"name": "a1cd23227b70e64522ca1b2718549d66", "fusion_lon": 0.0, "lat": 38.87651616666667, "is_reserved": 0, "type": "electric_scooter", "bike_id": "a1cd23227b70e64522ca1b2718549d66", "is_disabled": 0, "rental_uris": {"android": "https://dc.lft.to/lastmile_qr_scan", "ios": "https://dc.lft.to/lastmile_qr_scan"}, "lon": -77.002493, "fusion_lat": 0.0}, {"name": "f0d8602fe9c9ff57f5a6840e44629ec9", "fusion_lon": 0.0, "lat": 38.89734083333333, "is_reserved": 0, "type": "electric_scooter", "bike_id": "f0d8602fe9c9ff57f5a6840e44629ec9", "is_disabled": 0, "rental_uris": {"android": "https://dc.lft.to/lastmile_qr_scan", "ios": "https://dc.lft.to/lastmile_qr_scan"}, "lon": -77.05523183333334, "fusion_lat": 0.0}, {"name": "649bd93b2411b6656d377b09a0318b34", "fusion_lon": 0.0, "lat": 38.8784015, "is_reserved": 0, "type": "electric_scooter", "bike_id": "649bd93b2411b6656d377b09a0318b34", "is_disabled": 0, "rental_uris": {"android": "https://dc.lft.to/lastmile_qr_scan", "ios": "https://dc.lft.to/lastmile_qr_scan"}, "lon": -77.00805533333333, "fusion_lat": 0.0}, {"name": "4b8a158dff295a0ff338b89a5b81032a", "fusion_lon": 0.0, "lat": 38.9092985, "is_reserved": 0, "type": "electric_scooter", "bike_id": "4b8a158dff295a0ff338b89a5b81032a", "is_disabled": 0, "rental_uris": {"android": "https://dc.lft.to/lastmile_qr_scan", "ios": "https://dc.lft.to/lastmile_qr_scan"}, "lon": -77.02696266666666, "fusion_lat": 0.0}, {"name": "c83009d729aaa3998aeb58a283763ea2", "fusion_lon": 0.0, "lat": 38.917279666666666, "is_reserved": 0, "type": "electric_scooter", "bike_id": "c83009d729aaa3998aeb58a283763ea2", "is_disabled": 0, "rental_uris": {"android": "https://dc.lft.to/lastmile_qr_scan", "ios": "https://dc.lft.to/lastmile_qr_scan"}, "lon": -77.03657633333333, "fusion_lat": 0.0}, {"name": "c39172d3da635e4494bcb4164f3046a3", "fusion_lon": 0.0, "lat": 38.921081, "is_reserved": 0, "type": "electric_scooter", "bike_id": "c39172d3da635e4494bcb4164f3046a3", "is_disabled": 0, "rental_uris": {"android": "https://dc.lft.to/lastmile_qr_scan", "ios": "https://dc.lft.to/lastmile_qr_scan"}, "lon": -77.039231, "fusion_lat": 0.0}, {"name": "875414d31ce550b0e228912b6e238f82", "fusion_lon": 0.0, "lat": 38.91558833333333, "is_reserved": 0, "type": "electric_scooter", "bike_id": "875414d31ce550b0e228912b6e238f82", "is_disabled": 0, "rental_uris": {"android": "https://dc.lft.to/lastmile_qr_scan", "ios": "https://dc.lft.to/lastmile_qr_scan"}, "lon": -77.053235, "fusion_lat": 0.0}, {"name": "b580950346f3dfeaf43e4981339108df", "fusion_lon": 0.0, "lat": 38.91699966666667, "is_reserved": 0, "type": "electric_scooter", "bike_id": "b580950346f3dfeaf43e4981339108df", "is_disabled": 0, "rental_uris": {"android": "https://dc.lft.to/lastmile_qr_scan", "ios": "https://dc.lft.to/lastmile_qr_scan"}, "lon": -77.0312065, "fusion_lat": 0.0}, {"name": "6481570055e133db82f0d30ee6ab0e31", "fusion_lon": 0.0, "lat": 38.97396166666667, "is_reserved": 0, "type": "electric_bike", "bike_id": "6481570055e133db82f0d30ee6ab0e31", "is_disabled": 0, "rental_uris": {"android": "https://dc.lft.to/lastmile_qr_scan", "ios": "https://dc.lft.to/lastmile_qr_scan"}, "lon": -77.06450483333333, "fusion_lat": 0.0}, {"name": "9d629c092a6d82dc366c8e049ec39b7a", "fusion_lon": 0.0, "lat": 38.892221666666664, "is_reserved": 0, "type": "electric_scooter", "bike_id": "9d629c092a6d82dc366c8e049ec39b7a", "is_disabled": 0, "rental_uris": {"android": "https://dc.lft.to/lastmile_qr_scan", "ios": "https://dc.lft.to/lastmile_qr_scan"}, "lon": -77.0487105, "fusion_lat": 0.0}, {"name": "3fc5a69616625eb301f83f3e5daf7072", "fusion_lon": 0.0, "lat": 38.901496333333334, "is_reserved": 0, "type": "electric_scooter", "bike_id": "3fc5a69616625eb301f83f3e5daf7072", "is_disabled": 0, "rental_uris": {"android": "https://dc.lft.to/lastmile_qr_scan", "ios": "https://dc.lft.to/lastmile_qr_scan"}, "lon": -76.9298585, "fusion_lat": 0.0}, {"name": "aaa3474af30bbd3838abbfd8c24b1825", "fusion_lon": 0.0, "lat": 38.902005333333335, "is_reserved": 0, "type": "electric_scooter", "bike_id": "aaa3474af30bbd3838abbfd8c24b1825", "is_disabled": 0, "rental_uris": {"android": "https://dc.lft.to/lastmile_qr_scan", "ios": "https://dc.lft.to/lastmile_qr_scan"}, "lon": -77.02372533333333, "fusion_lat": 0.0}, {"name": "a6ce94e4f2890ce2597a244468bc5975", "fusion_lon": 0.0, "lat": 38.94801566666667, "is_reserved": 0, "type": "electric_bike", "bike_id": "a6ce94e4f2890ce2597a244468bc5975", "is_disabled": 0, "rental_uris": {"android": "https://dc.lft.to/lastmile_qr_scan", "ios": "https://dc.lft.to/lastmile_qr_scan"}, "lon": -76.95542033333334, "fusion_lat": 0.0}, {"name": "3c516eb5497c2812f3914794c44262b4", "fusion_lon": 0.0, "lat": 38.92772433333333, "is_reserved": 0, "type": "electric_scooter", "bike_id": "3c516eb5497c2812f3914794c44262b4", "is_disabled": 0, "rental_uris": {"android": "https://dc.lft.to/lastmile_qr_scan", "ios": "https://dc.lft.to/lastmile_qr_scan"}, "lon": -77.04061466666667, "fusion_lat": 0.0}, {"name": "79d84e5bcff92c1d151cba332b65a74b", "fusion_lon": 0.0, "lat": 38.9284045, "is_reserved": 0, "type": "electric_scooter", "bike_id": "79d84e5bcff92c1d151cba332b65a74b", "is_disabled": 0, "rental_uris": {"android": "https://dc.lft.to/lastmile_qr_scan", "ios": "https://dc.lft.to/lastmile_qr_scan"}, "lon": -77.05970866666667, "fusion_lat": 0.0}, {"name": "ff9176a57f51be4213b6438b06fabe35", "fusion_lon": 0.0, "lat": 38.917655, "is_reserved": 0, "type": "electric_scooter", "bike_id": "ff9176a57f51be4213b6438b06fabe35", "is_disabled": 0, "rental_uris": {"android": "https://dc.lft.to/lastmile_qr_scan", "ios": "https://dc.lft.to/lastmile_qr_scan"}, "lon": -77.0476715, "fusion_lat": 0.0}, {"name": "6fa41d32bc711496fc12b14cb81b2ad3", "fusion_lon": 0.0, "lat": 38.8766195, "is_reserved": 0, "type": "electric_scooter", "bike_id": "6fa41d32bc711496fc12b14cb81b2ad3", "is_disabled": 0, "rental_uris": {"android": "https://dc.lft.to/lastmile_qr_scan", "ios": "https://dc.lft.to/lastmile_qr_scan"}, "lon": -77.00441283333333, "fusion_lat": 0.0}, {"name": "2bcb3017b0b988af38bcd81f37966b69", "fusion_lon": 0.0, "lat": 38.874164, "is_reserved": 0, "type": "electric_scooter", "bike_id": "2bcb3017b0b988af38bcd81f37966b69", "is_disabled": 0, "rental_uris": {"android": "https://dc.lft.to/lastmile_qr_scan", "ios": "https://dc.lft.to/lastmile_qr_scan"}, "lon": -76.967726, "fusion_lat": 0.0}, {"name": "177679d965f9a737fba32d4666d0f575", "fusion_lon": 0.0, "lat": 38.9266465, "is_reserved": 0, "type": "electric_scooter", "bike_id": "177679d965f9a737fba32d4666d0f575", "is_disabled": 0, "rental_uris": {"android": "https://dc.lft.to/lastmile_qr_scan", "ios": "https://dc.lft.to/lastmile_qr_scan"}, "lon": -77.02309316666667, "fusion_lat": 0.0}, {"name": "0ecd2ba46f833d98071aa4ba799c9356", "fusion_lon": 0.0, "lat": 38.908076, "is_reserved": 0, "type": "electric_scooter", "bike_id": "0ecd2ba46f833d98071aa4ba799c9356", "is_disabled": 0, "rental_uris": {"android": "https://dc.lft.to/lastmile_qr_scan", "ios": "https://dc.lft.to/lastmile_qr_scan"}, "lon": -76.98740816666667, "fusion_lat": 0.0}, {"name": "acb20bc7cfb6e1a5aee102ac8d4052ed", "fusion_lon": 0.0, "lat": 38.9236285, "is_reserved": 0, "type": "electric_scooter", "bike_id": "acb20bc7cfb6e1a5aee102ac8d4052ed", "is_disabled": 0, "rental_uris": {"android": "https://dc.lft.to/lastmile_qr_scan", "ios": "https://dc.lft.to/lastmile_qr_scan"}, "lon": -77.02981116666666, "fusion_lat": 0.0}, {"name": "7da8227e54a8ded04e9fb7213cd6accd", "fusion_lon": 0.0, "lat": 38.95507083333333, "is_reserved": 0, "type": "electric_bike", "bike_id": "7da8227e54a8ded04e9fb7213cd6accd", "is_disabled": 0, "rental_uris": {"android": "https://dc.lft.to/lastmile_qr_scan", "ios": "https://dc.lft.to/lastmile_qr_scan"}, "lon": -76.99352466666667, "fusion_lat": 0.0}, {"name": "698b120b36e5a2dd56f9e5b0e36d8625", "fusion_lon": 0.0, "lat": 38.93484566666667, "is_reserved": 0, "type": "electric_scooter", "bike_id": "698b120b36e5a2dd56f9e5b0e36d8625", "is_disabled": 0, "rental_uris": {"android": "https://dc.lft.to/lastmile_qr_scan", "ios": "https://dc.lft.to/lastmile_qr_scan"}, "lon": -77.03401733333334, "fusion_lat": 0.0}, {"name": "7f6090bd44a24df8cbca4528b0612d9d", "fusion_lon": 0.0, "lat": 38.900285, "is_reserved": 0, "type": "electric_scooter", "bike_id": "7f6090bd44a24df8cbca4528b0612d9d", "is_disabled": 0, "rental_uris": {"android": "https://dc.lft.to/lastmile_qr_scan", "ios": "https://dc.lft.to/lastmile_qr_scan"}, "lon": -76.99525633333333, "fusion_lat": 0.0}, {"name": "724053692dc2c48f9c55775d47933a52", "fusion_lon": 0.0, "lat": 38.869814, "is_reserved": 0, "type": "electric_scooter", "bike_id": "724053692dc2c48f9c55775d47933a52", "is_disabled": 0, "rental_uris": {"android": "https://dc.lft.to/lastmile_qr_scan", "ios": "https://dc.lft.to/lastmile_qr_scan"}, "lon": -77.01235216666667, "fusion_lat": 0.0}, {"name": "690c4706c7d20b1ea95a7cbdb95e975e", "fusion_lon": 0.0, "lat": 38.924424, "is_reserved": 0, "type": "electric_scooter", "bike_id": "690c4706c7d20b1ea95a7cbdb95e975e", "is_disabled": 0, "rental_uris": {"android": "https://dc.lft.to/lastmile_qr_scan", "ios": "https://dc.lft.to/lastmile_qr_scan"}, "lon": -77.0224335, "fusion_lat": 0.0}, {"name": "e28280beff024841ba2c96799798be1e", "fusion_lon": 0.0, "lat": 38.9113855, "is_reserved": 0, "type": "electric_bike", "bike_id": "e28280beff024841ba2c96799798be1e", "is_disabled": 0, "rental_uris": {"android": "https://dc.lft.to/lastmile_qr_scan", "ios": "https://dc.lft.to/lastmile_qr_scan"}, "lon": -77.06580166666667, "fusion_lat": 0.0}, {"name": "34220bdba77bff4a1dd9b433869313f1", "fusion_lon": 0.0, "lat": 38.927579, "is_reserved": 0, "type": "electric_scooter", "bike_id": "34220bdba77bff4a1dd9b433869313f1", "is_disabled": 0, "rental_uris": {"android": "https://dc.lft.to/lastmile_qr_scan", "ios": "https://dc.lft.to/lastmile_qr_scan"}, "lon": -77.02293583333334, "fusion_lat": 0.0}, {"name": "30a08357a41f67a447c0f5c4c2241d41", "fusion_lon": 0.0, "lat": 38.900586833333335, "is_reserved": 0, "type": "electric_scooter", "bike_id": "30a08357a41f67a447c0f5c4c2241d41", "is_disabled": 0, "rental_uris": {"android": "https://dc.lft.to/lastmile_qr_scan", "ios": "https://dc.lft.to/lastmile_qr_scan"}, "lon": -76.99017383333333, "fusion_lat": 0.0}, {"name": "1506d9c43357f4b7778ada515e374c5d", "fusion_lon": 0.0, "lat": 38.957348, "is_reserved": 0, "type": "electric_scooter", "bike_id": "1506d9c43357f4b7778ada515e374c5d", "is_disabled": 0, "rental_uris": {"android": "https://dc.lft.to/lastmile_qr_scan", "ios": "https://dc.lft.to/lastmile_qr_scan"}, "lon": -77.02428866666666, "fusion_lat": 0.0}, {"name": "52d9bd77bc1c0ba30ed978911b09eb56", "fusion_lon": 0.0, "lat": 38.95132616666667, "is_reserved": 0, "type": "electric_scooter", "bike_id": "52d9bd77bc1c0ba30ed978911b09eb56", "is_disabled": 0, "rental_uris": {"android": "https://dc.lft.to/lastmile_qr_scan", "ios": "https://dc.lft.to/lastmile_qr_scan"}, "lon": -77.02721966666667, "fusion_lat": 0.0}, {"name": "ee8ce2d743b4abbaff37a7ea4c3d30ec", "fusion_lon": 0.0, "lat": 38.87646983333333, "is_reserved": 0, "type": "electric_scooter", "bike_id": "ee8ce2d743b4abbaff37a7ea4c3d30ec", "is_disabled": 0, "rental_uris": {"android": "https://dc.lft.to/lastmile_qr_scan", "ios": "https://dc.lft.to/lastmile_qr_scan"}, "lon": -76.965107, "fusion_lat": 0.0}, {"name": "aeffa85b806ccdf79f3b723691f9aadb", "fusion_lon": 0.0, "lat": 38.91406833333333, "is_reserved": 0, "type": "electric_scooter", "bike_id": "aeffa85b806ccdf79f3b723691f9aadb", "is_disabled": 0, "rental_uris": {"android": "https://dc.lft.to/lastmile_qr_scan", "ios": "https://dc.lft.to/lastmile_qr_scan"}, "lon": -77.04175116666667, "fusion_lat": 0.0}, {"name": "66e7279719d557257e3fc00d58a8eff5", "fusion_lon": 0.0, "lat": 38.9194755, "is_reserved": 0, "type": "electric_scooter", "bike_id": "66e7279719d557257e3fc00d58a8eff5", "is_disabled": 0, "rental_uris": {"android": "https://dc.lft.to/lastmile_qr_scan", "ios": "https://dc.lft.to/lastmile_qr_scan"}, "lon": -77.02891166666667, "fusion_lat": 0.0}, {"name": "8caba3d9fde8b946cc3da706e83c5a5a", "fusion_lon": 0.0, "lat": 38.9583575, "is_reserved": 0, "type": "electric_scooter", "bike_id": "8caba3d9fde8b946cc3da706e83c5a5a", "is_disabled": 0, "rental_uris": {"android": "https://dc.lft.to/lastmile_qr_scan", "ios": "https://dc.lft.to/lastmile_qr_scan"}, "lon": -77.015159, "fusion_lat": 0.0}, {"name": "61fbf9978409f82cd23277ed8ce59fb7", "fusion_lon": 0.0, "lat": 38.8922405, "is_reserved": 0, "type": "electric_scooter", "bike_id": "61fbf9978409f82cd23277ed8ce59fb7", "is_disabled": 0, "rental_uris": {"android": "https://dc.lft.to/lastmile_qr_scan", "ios": "https://dc.lft.to/lastmile_qr_scan"}, "lon": -77.04312666666667, "fusion_lat": 0.0}, {"name": "06d893331ddc46540e73f3ac0dc34385", "fusion_lon": 0.0, "lat": 39.042304666666666, "is_reserved": 0, "type": "electric_bike", "bike_id": "06d893331ddc46540e73f3ac0dc34385", "is_disabled": 0, "rental_uris": {"android": "https://dc.lft.to/lastmile_qr_scan", "ios": "https://dc.lft.to/lastmile_qr_scan"}, "lon": -77.03072966666667, "fusion_lat": 0.0}, {"name": "f72ede730311eb4fb5f06cd159ac3aaf", "fusion_lon": 0.0, "lat": 38.89850533333333, "is_reserved": 0, "type": "electric_scooter", "bike_id": "f72ede730311eb4fb5f06cd159ac3aaf", "is_disabled": 0, "rental_uris": {"android": "https://dc.lft.to/lastmile_qr_scan", "ios": "https://dc.lft.to/lastmile_qr_scan"}, "lon": -76.990287, "fusion_lat": 0.0}, {"name": "c2ab6ec92124b44ab055d15991106b5a", "fusion_lon": 0.0, "lat": 38.899099166666666, "is_reserved": 0, "type": "electric_scooter", "bike_id": "c2ab6ec92124b44ab055d15991106b5a", "is_disabled": 0, "rental_uris": {"android": "https://dc.lft.to/lastmile_qr_scan", "ios": "https://dc.lft.to/lastmile_qr_scan"}, "lon": -77.024914, "fusion_lat": 0.0}, {"name": "33b77774b269b7121ed2c0de2f2b3359", "fusion_lon": 0.0, "lat": 38.8548725, "is_reserved": 0, "type": "electric_bike", "bike_id": "33b77774b269b7121ed2c0de2f2b3359", "is_disabled": 0, "rental_uris": {"android": "https://dc.lft.to/lastmile_qr_scan", "ios": "https://dc.lft.to/lastmile_qr_scan"}, "lon": -77.11613483333333, "fusion_lat": 0.0}, {"name": "aaaa87eaed9dace064638a682be70663", "fusion_lon": 0.0, "lat": 38.92608083333333, "is_reserved": 0, "type": "electric_scooter", "bike_id": "aaaa87eaed9dace064638a682be70663", "is_disabled": 0, "rental_uris": {"android": "https://dc.lft.to/lastmile_qr_scan", "ios": "https://dc.lft.to/lastmile_qr_scan"}, "lon": -77.04312866666666, "fusion_lat": 0.0}, {"name": "95a436293a675e10937e5932ed145790", "fusion_lon": 0.0, "lat": 38.922519666666666, "is_reserved": 0, "type": "electric_scooter", "bike_id": "95a436293a675e10937e5932ed145790", "is_disabled": 0, "rental_uris": {"android": "https://dc.lft.to/lastmile_qr_scan", "ios": "https://dc.lft.to/lastmile_qr_scan"}, "lon": -77.03389133333333, "fusion_lat": 0.0}, {"name": "a101983686f51f66ba463d5c906eb5a0", "fusion_lon": 0.0, "lat": 38.882139, "is_reserved": 0, "type": "electric_bike", "bike_id": "a101983686f51f66ba463d5c906eb5a0", "is_disabled": 0, "rental_uris": {"android": "https://dc.lft.to/lastmile_qr_scan", "ios": "https://dc.lft.to/lastmile_qr_scan"}, "lon": -77.11735933333334, "fusion_lat": 0.0}, {"name": "7d34292123c6de65ace9bc45f8d0d9d4", "fusion_lon": 0.0, "lat": 38.89221083333333, "is_reserved": 0, "type": "electric_scooter", "bike_id": "7d34292123c6de65ace9bc45f8d0d9d4", "is_disabled": 0, "rental_uris": {"android": "https://dc.lft.to/lastmile_qr_scan", "ios": "https://dc.lft.to/lastmile_qr_scan"}, "lon": -77.02226583333334, "fusion_lat": 0.0}, {"name": "605b1710ede2dc3c710c4c148952df90", "fusion_lon": 0.0, "lat": 38.866835333333334, "is_reserved": 0, "type": "electric_scooter", "bike_id": "605b1710ede2dc3c710c4c148952df90", "is_disabled": 0, "rental_uris": {"android": "https://dc.lft.to/lastmile_qr_scan", "ios": "https://dc.lft.to/lastmile_qr_scan"}, "lon": -76.98563966666667, "fusion_lat": 0.0}, {"name": "678e3ba6f119170186f75d17bfaa5259", "fusion_lon": 0.0, "lat": 38.91611283333334, "is_reserved": 0, "type": "electric_scooter", "bike_id": "678e3ba6f119170186f75d17bfaa5259", "is_disabled": 0, "rental_uris": {"android": "https://dc.lft.to/lastmile_qr_scan", "ios": "https://dc.lft.to/lastmile_qr_scan"}, "lon": -77.01573866666666, "fusion_lat": 0.0}, {"name": "2b7a442616a72dca35ec1495b9bb9736", "fusion_lon": 0.0, "lat": 38.89504083333333, "is_reserved": 0, "type": "electric_scooter", "bike_id": "2b7a442616a72dca35ec1495b9bb9736", "is_disabled": 0, "rental_uris": {"android": "https://dc.lft.to/lastmile_qr_scan", "ios": "https://dc.lft.to/lastmile_qr_scan"}, "lon": -76.93473233333333, "fusion_lat": 0.0}, {"name": "a69bc5af333cf91f6e7ff2b966a2e8aa", "fusion_lon": 0.0, "lat": 38.99528883333333, "is_reserved": 0, "type": "electric_bike", "bike_id": "a69bc5af333cf91f6e7ff2b966a2e8aa", "is_disabled": 0, "rental_uris": {"android": "https://dc.lft.to/lastmile_qr_scan", "ios": "https://dc.lft.to/lastmile_qr_scan"}, "lon": -77.06946583333334, "fusion_lat": 0.0}, {"name": "205da49ab3cf601ebb3b9175cf36b404", "fusion_lon": 0.0, "lat": 38.915576, "is_reserved": 0, "type": "electric_scooter", "bike_id": "205da49ab3cf601ebb3b9175cf36b404", "is_disabled": 0, "rental_uris": {"android": "https://dc.lft.to/lastmile_qr_scan", "ios": "https://dc.lft.to/lastmile_qr_scan"}, "lon": -77.0255765, "fusion_lat": 0.0}, {"name": "d9b80b0a615c7ac589ee735ffc3e5af8", "fusion_lon": 0.0, "lat": 38.92067633333333, "is_reserved": 0, "type": "electric_scooter", "bike_id": "d9b80b0a615c7ac589ee735ffc3e5af8", "is_disabled": 0, "rental_uris": {"android": "https://dc.lft.to/lastmile_qr_scan", "ios": "https://dc.lft.to/lastmile_qr_scan"}, "lon": -77.03208116666667, "fusion_lat": 0.0}, {"name": "23f1f3ad2794b2937ac6f789c3b9989e", "fusion_lon": 0.0, "lat": 38.90515716666667, "is_reserved": 0, "type": "electric_scooter", "bike_id": "23f1f3ad2794b2937ac6f789c3b9989e", "is_disabled": 0, "rental_uris": {"android": "https://dc.lft.to/lastmile_qr_scan", "ios": "https://dc.lft.to/lastmile_qr_scan"}, "lon": -77.03833816666666, "fusion_lat": 0.0}, {"name": "66774bc15e4434eb68fd457872085183", "fusion_lon": 0.0, "lat": 38.8961115, "is_reserved": 0, "type": "electric_scooter", "bike_id": "66774bc15e4434eb68fd457872085183", "is_disabled": 0, "rental_uris": {"android": "https://dc.lft.to/lastmile_qr_scan", "ios": "https://dc.lft.to/lastmile_qr_scan"}, "lon": -77.02615433333334, "fusion_lat": 0.0},