{"data": {"bikes": [{"rental_uris": {"ios": "https://dc.lft.to/lastmile_qr_scan", "android": "https://dc.lft.to/lastmile_qr_scan"}, "type": "electric_scooter", "name": "1dd9161d70af51a8b3f43aee55fcf006", "is_reserved": 0, "lon": -77.04315233333334, "is_disabled": 0, "fusion_lat": 0.0, "lat": 38.908921, "bike_id": "1dd9161d70af51a8b3f43aee55fcf006", "fusion_lon": 0.0}, {"rental_uris": {"ios": "https://dc.lft.to/lastmile_qr_scan", "android": "https://dc.lft.to/lastmile_qr_scan"}, "type": "electric_bike", "name": "46e496f7f8fc4d55c1050130475263c1", "is_reserved": 0, "lon": -77.01218116666666, "is_disabled": 0, "fusion_lat": 0.0, "lat": 38.87198933333333, "bike_id": "46e496f7f8fc4d55c1050130475263c1", "fusion_lon": 0.0}, {"rental_uris": {"ios": "https://dc.lft.to/lastmile_qr_scan", "android": "https://dc.lft.to/lastmile_qr_scan"}, "type": "electric_scooter", "name": "a36cd1e346b451671a12f99353c46fe0", "is_reserved": 0, "lon": -76.9881865, "is_disabled": 0, "fusion_lat": 0.0, "lat": 38.8816465, "bike_id": "a36cd1e346b451671a12f99353c46fe0", "fusion_lon": 0.0}, {"rental_uris": {"ios": "https://dc.lft.to/lastmile_qr_scan", "android": "https://dc.lft.to/lastmile_qr_scan"}, "type": "electric_bike", "name": "d3d540178829eecc060171ac45ad1043", "is_reserved": 0, "lon": -77.065312, "is_disabled": 0, "fusion_lat": 0.0, "lat": 38.99234633333333, "bike_id": "d3d540178829eecc060171ac45ad1043", "fusion_lon": 0.0}, {"rental_uris": {"ios": "https://dc.lft.to/lastmile_qr_scan", "android": "https://dc.lft.to/lastmile_qr_scan"}, "type": "electric_scooter", "name": "86a5681e10e0ee20a038ec011c400ec1", "is_reserved": 0, "lon": -77.03489716666667, "is_disabled": 0, "fusion_lat": 0.0, "lat": 38.93105466666667, "bike_id": "86a5681e10e0ee20a038ec011c400ec1", "fusion_lon": 0.0}, {"rental_uris": {"ios": "https://dc.lft.to/lastmile_qr_scan", "android": "https://dc.lft.to/lastmile_qr_scan"}, "type": "electric_bike", "name": "acb94b7e5323a41af890c99adf000a24", "is_reserved": 0, "lon": -77.09720783333333, "is_disabled": 0, "fusion_lat": 0.0, "lat": 38.807290333333334, "bike_id": "acb94b7e5323a41af890c99adf000a24", "fusion_lon": 0.0}, {"rental_uris": {"ios": "https://dc.lft.to/lastmile_qr_scan", "android": "https://dc.lft.to/lastmile_qr_scan"}, "type": "electric_scooter", "name": "3fb28b281ddfa4bc66cd9e3da8a910f4", "is_reserved": 0, "lon": -77.05508616666667, "is_disabled": 0, "fusion_lat": 0.0, "lat": 38.928241, "bike_id": "3fb28b281ddfa4bc66cd9e3da8a910f4", "fusion_lon": 0.0}, {"rental_uris": {"ios": "https://dc.lft.to/lastmile_qr_scan", "android": "https://dc.lft.to/lastmile_qr_scan"}, "type": "electric_scooter", "name": "e0f7253915588b945427a7c013f569be", "is_reserved": 0, "lon": -77.05688416666666, "is_disabled": 0, "fusion_lat": 0.0, "lat": 38.904860666666664, "bike_id": "e0f7253915588b945427a7c013f569be", "fusion_lon": 0.0}, {"rental_uris": {"ios": "https://dc.lft.to/lastmile_qr_scan", "android": "https://dc.lft.to/lastmile_qr_scan"}, "type": "electric_scooter", "name": "eaa2b4755ad1db8a8e8b7c52dfa99539", "is_reserved": 0, "lon": -77.02687416666667, "is_disabled": 0, "fusion_lat": 0.0, "lat": 38.9168975, "bike_id": "eaa2b4755ad1db8a8e8b7c52dfa99539", "fusion_lon": 0.0}, {"rental_uris": {"ios": "https://dc.lft.to/lastmile_qr_scan", "android": "https://dc.lft.to/lastmile_qr_scan"}, "type": "electric_bike", "name": "ddee83218a10feb99e09f0fc9a2e3025", "is_reserved": 0, "lon": -77.2166785, "is_disabled": 0, "fusion_lat": 0.0, "lat": 38.895119333333334, "bike_id": "ddee83218a10feb99e09f0fc9a2e3025", "fusion_lon": 0.0}, {"rental_uris": {"ios": "https://dc.lft.to/lastmile_qr_scan", "android": "https://dc.lft.to/lastmile_qr_scan"}, "type": "electric_scooter", "name": "53220525739e383427214164b4adddbb", "is_reserved": 0, "lon": -76.99672183333334, "is_disabled": 0, "fusion_lat": 0.0, "lat": 38.927175, "bike_id": "53220525739e383427214164b4adddbb", "fusion_lon": 0.0}, {"rental_uris": {"ios": "https://dc.lft.to/lastmile_qr_scan", "android": "https://dc.lft.to/lastmile_qr_scan"}, "type": "electric_scooter", "name": "45384002fd1b003945b5037b184d798d", "is_reserved": 0, "lon": -77.00217983333333, "is_disabled": 0, "fusion_lat": 0.0, "lat": 38.894594, "bike_id": "45384002fd1b003945b5037b184d798d", "fusion_lon": 0.0}, {"rental_uris": {"ios": "https://dc.lft.to/lastmile_qr_scan", "android": "https://dc.lft.to/lastmile_qr_scan"}, "type": "electric_scooter", "name": "26bb6811bdd67dec955781708dfd28e8", "is_reserved": 0, "lon": -77.02603233333333, "is_disabled": 0, "fusion_lat": 0.0, "lat": 38.905117833333335, "bike_id": "26bb6811bdd67dec955781708dfd28e8", "fusion_lon": 0.0}, {"rental_uris": {"ios": "https://dc.lft.to/lastmile_qr_scan", "android": "https://dc.lft.to/lastmile_qr_scan"}, "type": "electric_scooter", "name": "c62bc0491c9dca35917919530055f843", "is_reserved": 0, "lon": -77.00736166666667, "is_disabled": 0, "fusion_lat": 0.0, "lat": 38.898566333333335, "bike_id": "c62bc0491c9dca35917919530055f843", "fusion_lon": 0.0}, {"rental_uris": {"ios": "https://dc.lft.to/lastmile_qr_scan", "android": "https://dc.lft.to/lastmile_qr_scan"}, "type": "electric_scooter", "name": "d72c06fdcf3193d0b3ef774b5f40fd7c", "is_reserved": 0, "lon": -77.04667766666667, "is_disabled": 0, "fusion_lat": 0.0, "lat": 38.9079025, "bike_id": "d72c06fdcf3193d0b3ef774b5f40fd7c", "fusion_lon": 0.0}, {"rental_uris": {"ios": "https://dc.lft.to/lastmile_qr_scan", "android": "https://dc.lft.to/lastmile_qr_scan"}, "type": "electric_scooter", "name": "4e6f040341a73f2b40c11490df608b60", "is_reserved": 0, "lon": -77.04336116666667, "is_disabled": 0, "fusion_lat": 0.0, "lat": 38.9074995, "bike_id": "4e6f040341a73f2b40c11490df608b60", "fusion_lon": 0.0}, {"rental_uris": {"ios": "https://dc.lft.to/lastmile_qr_scan", "android": "https://dc.lft.to/lastmile_qr_scan"}, "type": "electric_scooter", "name": "c5e59cdeacc66e71314fff72f98b660d", "is_reserved": 0, "lon": -76.9948385, "is_disabled": 0, "fusion_lat": 0.0, "lat": 38.862182, "bike_id": "c5e59cdeacc66e71314fff72f98b660d", "fusion_lon": 0.0}, {"rental_uris": {"ios": "https://dc.lft.to/lastmile_qr_scan", "android": "https://dc.lft.to/lastmile_qr_scan"}, "type": "electric_scooter", "name": "39d9b7f8e7877f2fe7b9841621f5768d", "is_reserved": 0, "lon": -76.99143366666667, "is_disabled": 0, "fusion_lat": 0.0, "lat": 38.90022783333333, "bike_id": "39d9b7f8e7877f2fe7b9841621f5768d", "fusion_lon": 0.0}, {"rental_uris": {"ios": "https://dc.lft.to/lastmile_qr_scan", "android": "https://dc.lft.to/lastmile_qr_scan"}, "type": "electric_scooter", "name": "6a8275f80ec5a96b84d53d4ca818d826", "is_reserved": 0, "lon": -77.07278133333334, "is_disabled": 0, "fusion_lat": 0.0, "lat": 38.93539533333333, "bike_id": "6a8275f80ec5a96b84d53d4ca818d826", "fusion_lon": 0.0}, {"rental_uris": {"ios": "https://dc.lft.to/lastmile_qr_scan", "android": "https://dc.lft.to/lastmile_qr_scan"}, "type": "electric_bike", "name": "62d71fcbfa0e8c03201544d9ee158117", "is_reserved": 0, "lon": -77.05311466666667, "is_disabled": 0, "fusion_lat": 0.0, "lat": 38.820415833333335, "bike_id": "62d71fcbfa0e8c03201544d9ee158117", "fusion_lon": 0.0}, {"rental_uris": {"ios": "https://dc.lft.to/lastmile_qr_scan", "android": "https://dc.lft.to/lastmile_qr_scan"}, "type": "electric_scooter", "name": "7bc07ab924f5bfb831c07a50c0098818", "is_reserved": 0, "lon": -77.0325515, "is_disabled": 0, "fusion_lat": 0.0, "lat": 38.937246333333334, "bike_id": "7bc07ab924f5bfb831c07a50c0098818", "fusion_lon": 0.0}, {"rental_uris": {"ios": "https://dc.lft.to/lastmile_qr_scan", "android": "https://dc.lft.to/lastmile_qr_scan"}, "type": "electric_scooter", "name": "d47a7cadc58da50bbd46e7de8b670243", "is_reserved": 0, "lon": -77.03371716666666, "is_disabled": 0, "fusion_lat": 0.0, "lat": 38.93871983333333, "bike_id": "d47a7cadc58da50bbd46e7de8b670243", "fusion_lon": 0.0}, {"rental_uris": {"ios": "https://dc.lft.to/lastmile_qr_scan", "android": "https://dc.lft.to/lastmile_qr_scan"}, "type": "electric_scooter", "name": "60142d8e5651d2e827536dfdb1ebbd92", "is_reserved": 0, "lon": -77.02554766666667, "is_disabled": 0, "fusion_lat": 0.0, "lat": 38.951698666666665, "bike_id": "60142d8e5651d2e827536dfdb1ebbd92", "fusion_lon": 0.0}, {"rental_uris": {"ios": "https://dc.lft.to/lastmile_qr_scan", "android": "https://dc.lft.to/lastmile_qr_scan"}, "type": "electric_scooter", "name": "7625614fbe51a21e4848c60c00d377f1", "is_reserved": 0, "lon": -77.004698, "is_disabled": 0, "fusion_lat": 0.0, "lat": 38.885084666666664, "bike_id": "7625614fbe51a21e4848c60c00d377f1", "fusion_lon": 0.0}, {"rental_uris": {"ios": "https://dc.lft.to/lastmile_qr_scan", "android": "https://dc.lft.to/lastmile_qr_scan"}, "type": "electric_scooter", "name": "d49847576ce57f0ff7398bcb557d2442", "is_reserved": 0, "lon": -77.03460233333334, "is_disabled": 0, "fusion_lat": 0.0, "lat": 38.90221283333333, "bike_id": "d49847576ce57f0ff7398bcb557d2442", "fusion_lon": 0.0}, {"rental_uris": {"ios": "https://dc.lft.to/lastmile_qr_scan", "android": "https://dc.lft.to/lastmile_qr_scan"}, "type": "electric_scooter", "name": "7b9faca54db1c047dc539a4bbbd853cd", "is_reserved": 0, "lon": -77.03249633333333, "is_disabled": 0, "fusion_lat": 0.0, "lat": 38.91993766666667, "bike_id": "7b9faca54db1c047dc539a4bbbd853cd", "fusion_lon": 0.0}, {"rental_uris": {"ios": "https://dc.lft.to/lastmile_qr_scan", "android": "https://dc.lft.to/lastmile_qr_scan"}, "type": "electric_scooter", "name": "16f0d38cc81170385cd1f8883487717c", "is_reserved": 0, "lon": -77.01506, "is_disabled": 0, "fusion_lat": 0.0, "lat": 38.888926833333336, "bike_id": "16f0d38cc81170385cd1f8883487717c", "fusion_lon": 0.0}, {"rental_uris": {"ios": "https://dc.lft.to/lastmile_qr_scan", "android": "https://dc.lft.to/lastmile_qr_scan"}, "type": "electric_scooter", "name": "235fa0c7af8c5462474bebf3360259a9", "is_reserved": 0, "lon": -76.94061, "is_disabled": 0, "fusion_lat": 0.0, "lat": 38.88583666666667, "bike_id": "235fa0c7af8c5462474bebf3360259a9", "fusion_lon": 0.0}, {"rental_uris": {"ios": "https://dc.lft.to/lastmile_qr_scan", "android": "https://dc.lft.to/lastmile_qr_scan"}, "type": "electric_scooter", "name": "f68ca313dcd43abce35213aee3276794", "is_reserved": 0, "lon": -76.95283016666667, "is_disabled": 0, "fusion_lat": 0.0, "lat": 38.885198, "bike_id": "f68ca313dcd43abce35213aee3276794", "fusion_lon": 0.0}, {"rental_uris": {"ios": "https://dc.lft.to/lastmile_qr_scan", "android": "https://dc.lft.to/lastmile_qr_scan"}, "type": "electric_scooter", "name": "5b30ccb62c26db0cb7f36b4caf1d314e", "is_reserved": 0, "lon": -76.995085, "is_disabled": 0, "fusion_lat": 0.0, "lat": 38.90976116666667, "bike_id": "5b30ccb62c26db0cb7f36b4caf1d314e", "fusion_lon": 0.0}, {"rental_uris": {"ios": "https://dc.lft.to/lastmile_qr_scan", "android": "https://dc.lft.to/lastmile_qr_scan"}, "type": "electric_scooter", "name": "9149a142130bcbf9741c9cde06d74680", "is_reserved": 0, "lon": -77.05269066666666, "is_disabled": 0, "fusion_lat": 0.0, "lat": 38.924199, "bike_id": "9149a142130bcbf9741c9cde06d74680", "fusion_lon": 0.0}, {"rental_uris": {"ios": "https://dc.lft.to/lastmile_qr_scan", "android": "https://dc.lft.to/lastmile_qr_scan"}, "type": "electric_scooter", "name": "5db459675ed435eaeef08e6ef4891018", "is_reserved": 0, "lon": -77.01983683333333, "is_disabled": 0, "fusion_lat": 0.0, "lat": 38.899297833333335, "bike_id": "5db459675ed435eaeef08e6ef4891018", "fusion_lon": 0.0}, {"rental_uris": {"ios": "https://dc.lft.to/lastmile_qr_scan", "android": "https://dc.lft.to/lastmile_qr_scan"}, "type": "electric_scooter", "name": "c32fa5b88cc618d06ae4d1e2648a1651", "is_reserved": 0, "lon": -77.02094633333333, "is_disabled": 0, "fusion_lat": 0.0, "lat": 38.92691466666667, "bike_id": "c32fa5b88cc618d06ae4d1e2648a1651", "fusion_lon": 0.0}, {"rental_uris": {"ios": "https://dc.lft.to/lastmile_qr_scan", "android": "https://dc.lft.to/lastmile_qr_scan"}, "type": "electric_bike", "name": "981f58af2a9558729edf200dcdc36a0d", "is_reserved": 0, "lon": -77.07951716666666, "is_disabled": 0, "fusion_lat": 0.0, "lat": 38.848997833333335, "bike_id": "981f58af2a9558729edf200dcdc36a0d", "fusion_lon": 0.0}, {"rental_uris": {"ios": "https://dc.lft.to/lastmile_qr_scan", "android": "https://dc.lft.to/lastmile_qr_scan"}, "type": "electric_scooter", "name": "e69ba12416a8e091cd0b0e2a7a27758d", "is_reserved": 0, "lon": -77.00097966666667, "is_disabled": 0, "fusion_lat": 0.0, "lat": 38.881224, "bike_id": "e69ba12416a8e091cd0b0e2a7a27758d", "fusion_lon": 0.0}, {"rental_uris": {"ios": "https://dc.lft.to/lastmile_qr_scan", "android": "https://dc.lft.to/lastmile_qr_scan"}, "type": "electric_scooter", "name": "22ccd6eb08a91966450f6539aa728487", "is_reserved": 0, "lon": -77.01980466666667, "is_disabled": 0, "fusion_lat": 0.0, "lat": 38.89234883333334, "bike_id": "22ccd6eb08a91966450f6539aa728487", "fusion_lon": 0.0}, {"rental_uris": {"ios": "https://dc.lft.to/lastmile_qr_scan", "android": "https://dc.lft.to/lastmile_qr_scan"}, "type": "electric_scooter", "name": "bf510a72dead3bb8a1ef40ef95a6f641", "is_reserved": 0, "lon": -77.032576, "is_disabled": 0, "fusion_lat": 0.0, "lat": 38.91203333333333, "bike_id": "bf510a72dead3bb8a1ef40ef95a6f641", "fusion_lon": 0.0}, {"rental_uris": {"ios": "https://dc.lft.to/lastmile_qr_scan", "android": "https://dc.lft.to/lastmile_qr_scan"}, "type": "electric_scooter", "name": "b41949c05d804a9bedd9e668ddac0213", "is_reserved": 0, "lon": -76.98260666666667, "is_disabled": 0, "fusion_lat": 0.0, "lat": 38.86626433333333, "bike_id": "b41949c05d804a9bedd9e668ddac0213", "fusion_lon": 0.0}, {"rental_uris": {"ios": "https://dc.lft.to/lastmile_qr_scan", "android": "https://dc.lft.to/lastmile_qr_scan"}, "type": "electric_bike", "name": "10750159473485900e37c56ecd4b79d2", "is_reserved": 0, "lon": -77.020044, "is_disabled": 0, "fusion_lat": 0.0, "lat": 38.964407666666666, "bike_id": "10750159473485900e37c56ecd4b79d2", "fusion_lon": 0.0}, {"rental_uris": {"ios": "https://dc.lft.to/lastmile_qr_scan", "android": "https://dc.lft.to/lastmile_qr_scan"}, "type": "electric_scooter", "name": "b9fddcb15885927b76477f43378e6cb0", "is_reserved": 0, "lon": -77.041314, "is_disabled": 0, "fusion_lat": 0.0, "lat": 38.92522533333333, "bike_id": "b9fddcb15885927b76477f43378e6cb0", "fusion_lon": 0.0}, {"rental_uris": {"ios": "https://dc.lft.to/lastmile_qr_scan", "android": "https://dc.lft.to/lastmile_qr_scan"}, "type": "electric_scooter", "name": "f683023354ffd01ae9a61db983396dab", "is_reserved": 0, "lon": -77.0232975, "is_disabled": 0, "fusion_lat": 0.0, "lat": 38.923018666666664, "bike_id": "f683023354ffd01ae9a61db983396dab", "fusion_lon": 0.0}, {"rental_uris": {"ios": "https://dc.lft.to/lastmile_qr_scan", "android": "https://dc.lft.to/lastmile_qr_scan"}, "type": "electric_scooter", "name": "17afb572f8e14fb86a0bdde9d6792900", "is_reserved": 0, "lon": -76.98355816666667, "is_disabled": 0, "fusion_lat": 0.0, "lat": 38.887399333333335, "bike_id": "17afb572f8e14fb86a0bdde9d6792900", "fusion_lon": 0.0}, {"rental_uris": {"ios": "https://dc.lft.to/lastmile_qr_scan", "android": "https://dc.lft.to/lastmile_qr_scan"}, "type": "electric_scooter", "name": "5cbc2fe35d1fa0cab6138b2c9c02958e", "is_reserved": 0, "lon": -77.01202916666666, "is_disabled": 0, "fusion_lat": 0.0, "lat": 38.871747, "bike_id": "5cbc2fe35d1fa0cab6138b2c9c02958e", "fusion_lon": 0.0}, {"rental_uris": {"ios": "https://dc.lft.to/lastmile_qr_scan", "android": "https://dc.lft.to/lastmile_qr_scan"}, "type": "electric_scooter", "name": "5cec83f0f827c5578fbba82600a06cbc", "is_reserved": 0, "lon": -77.03850816666667, "is_disabled": 0, "fusion_lat": 0.0, "lat": 38.910895333333336, "bike_id": "5cec83f0f827c5578fbba82600a06cbc", "fusion_lon": 0.0}, {"rental_uris": {"ios": "https://dc.lft.to/lastmile_qr_scan", "android": "https://dc.lft.to/lastmile_qr_scan"}, "type": "electric_bike", "name": "942b0e1be418d928090e1de0af3876c6", "is_reserved": 0, "lon": -76.97953033333333, "is_disabled": 0, "fusion_lat": 0.0, "lat": 38.920390166666664, "bike_id": "942b0e1be418d928090e1de0af3876c6", "fusion_lon": 0.0}, {"rental_uris": {"ios": "https://dc.lft.to/lastmile_qr_scan", "android": "https://dc.lft.to/lastmile_qr_scan"}, "type": "electric_bike", "name": "20cd4f40fd2843ea9e8916915266e592", "is_reserved": 0, "lon": -76.98350016666667, "is_disabled": 0, "fusion_lat": 0.0, "lat": 38.862634666666665, "bike_id": "20cd4f40fd2843ea9e8916915266e592", "fusion_lon": 0.0}, {"rental_uris": {"ios": "https://dc.lft.to/lastmile_qr_scan", "android": "https://dc.lft.to/lastmile_qr_scan"}, "type": "electric_bike", "name": "6965d88947c56dce1011b8e203dfacef", "is_reserved": 0, "lon": -76.92890333333334, "is_disabled": 0, "fusion_lat": 0.0, "lat": 38.978279666666666, "bike_id": "6965d88947c56dce1011b8e203dfacef", "fusion_lon": 0.0}, {"rental_uris": {"ios": "https://dc.lft.to/lastmile_qr_scan", "android": "https://dc.lft.to/lastmile_qr_scan"}, "type": "electric_scooter", "name": "848b6c1de4d02aa799bc172db65d5a30", "is_reserved": 0, "lon": -77.02172283333333, "is_disabled": 0, "fusion_lat": 0.0, "lat": 38.90994283333333, "bike_id": "848b6c1de4d02aa799bc172db65d5a30", "fusion_lon": 0.0}, {"rental_uris": {"ios": "https://dc.lft.to/lastmile_qr_scan", "android": "https://dc.lft.to/lastmile_qr_scan"}, "type": "electric_scooter", "name": "6a06a679796800c681b8551b4b3fc7f6", "is_reserved": 0, "lon": -77.02773583333334, "is_disabled": 0, "fusion_lat": 0.0, "lat": 38.9171175, "bike_id": "6a06a679796800c681b8551b4b3fc7f6", "fusion_lon": 0.0}, {"rental_uris": {"ios": "https://dc.lft.to/lastmile_qr_scan", "android": "https://dc.lft.to/lastmile_qr_scan"}, "type": "electric_bike", "name": "9818be1ff6144de09fe8bdf58e1c9262", "is_reserved": 0, "lon": -76.98746316666667, "is_disabled": 0, "fusion_lat": 0.0, "lat": 38.8575725, "bike_id": "9818be1ff6144de09fe8bdf58e1c9262", "fusion_lon": 0.0}, {"rental_uris": {"ios": "https://dc.lft.to/lastmile_qr_scan", "android": "https://dc.lft.to/lastmile_qr_scan"}, "type": "electric_scooter", "name": "0214f57750ef33e81569d4ad0a6a17dc", "is_reserved": 0, "lon": -77.00036116666666, "is_disabled": 0, "fusion_lat": 0.0, "lat": 38.907580333333335, "bike_id": "0214f57750ef33e81569d4ad0a6a17dc", "fusion_lon": 0.0}, {"rental_uris": {"ios": "https://dc.lft.to/lastmile_qr_scan", "android": "https://dc.lft.to/lastmile_qr_scan"}, "type": "electric_scooter", "name": "25187473e9e5da6915676f770e8efb5a", "is_reserved": 0, "lon": -77.02423433333334, "is_disabled": 0, "fusion_lat": 0.0, "lat": 38.899172, "bike_id": "25187473e9e5da6915676f770e8efb5a", "fusion_lon": 0.0}, {"rental_uris": {"ios": "https://dc.lft.to/lastmile_qr_scan", "android": "https://dc.lft.to/lastmile_qr_scan"}, "type": "electric_scooter", "name": "f09a453689813afe5adeb6c413013ca2", "is_reserved": 0, "lon": -77.04614, "is_disabled": 0, "fusion_lat": 0.0, "lat": 38.909788, "bike_id": "f09a453689813afe5adeb6c413013ca2", "fusion_lon": 0.0}, {"rental_uris": {"ios": "https://dc.lft.to/lastmile_qr_scan", "android": "https://dc.lft.to/lastmile_qr_scan"}, "type": "electric_scooter", "name": "313a587c672b53c97e722c6ee9d8449d", "is_reserved": 0, "lon": -77.03946016666667, "is_disabled": 0, "fusion_lat": 0.0, "lat": 38.90295833333333, "bike_id": "313a587c672b53c97e722c6ee9d8449d", "fusion_lon": 0.0}, {"rental_uris": {"ios": "https://dc.lft.to/lastmile_qr_scan", "android": "https://dc.lft.to/lastmile_qr_scan"}, "type": "electric_scooter", "name": "6938f8ac43faee1244b260b4cc4a70fc", "is_reserved": 0, "lon": -76.98822316666667, "is_disabled": 0, "fusion_lat": 0.0, "lat": 38.89489666666667, "bike_id": "6938f8ac43faee1244b260b4cc4a70fc", "fusion_lon": 0.0}, {"rental_uris": {"ios": "https://dc.lft.to/lastmile_qr_scan", "android": "https://dc.lft.to/lastmile_qr_scan"}, "type": "electric_bike", "name": "657d9e2a12c949be00987002524daa7f", "is_reserved": 0, "lon": -76.9901465, "is_disabled": 0, "fusion_lat": 0.0, "lat": 38.954742333333336, "bike_id": "657d9e2a12c949be00987002524daa7f", "fusion_lon": 0.0}, {"rental_uris": {"ios": "https://dc.lft.to/lastmile_qr_scan", "android": "https://dc.lft.to/lastmile_qr_scan"}, "type": "electric_scooter", "name": "2919d30c4e850f84623a3886215835aa", "is_reserved": 0, "lon": -77.02421866666667, "is_disabled": 0, "fusion_lat": 0.0, "lat": 38.89411833333333, "bike_id": "2919d30c4e850f84623a3886215835aa", "fusion_lon": 0.0}, {"rental_uris": {"ios": "https://dc.lft.to/lastmile_qr_scan", "android": "https://dc.lft.to/lastmile_qr_scan"}, "type": "electric_scooter", "name": "877a1670cb1284e8af3bf6b505b74ba4", "is_reserved": 0, "lon": -77.04403966666666, "is_disabled": 0, "fusion_lat": 0.0, "lat": 38.90908266666667, "bike_id": "877a1670cb1284e8af3bf6b505b74ba4", "fusion_lon": 0.0}, {"rental_uris": {"ios": "https://dc.lft.to/lastmile_qr_scan", "android": "https://dc.lft.to/lastmile_qr_scan"}, "type": "electric_scooter", "name": "d391046bb0c9e21012ca3ed412d9051e", "is_reserved": 0, "lon": -77.0145635, "is_disabled": 0, "fusion_lat": 0.0, "lat": 38.9266015, "bike_id": "d391046bb0c9e21012ca3ed412d9051e", "fusion_lon": 0.0}, {"rental_uris": {"ios": "https://dc.lft.to/lastmile_qr_scan", "android": "https://dc.lft.to/lastmile_qr_scan"}, "type": "electric_scooter", "name": "f5f5cae7d6d55f0bbea0b512f4c8cc85", "is_reserved": 0, "lon": -77.05023983333334, "is_disabled": 0, "fusion_lat": 0.0, "lat": 38.923614, "bike_id": "f5f5cae7d6d55f0bbea0b512f4c8cc85", "fusion_lon": 0.0}, {"rental_uris": {"ios": "https://dc.lft.to/lastmile_qr_scan", "android": "https://dc.lft.to/lastmile_qr_scan"}, "type": "electric_scooter", "name": "ee428a638fd4be0c9c2517f4df8b5cd0", "is_reserved": 0, "lon": -77.00043883333333, "is_disabled": 0, "fusion_lat": 0.0, "lat": 38.87495783333333, "bike_id": "ee428a638fd4be0c9c2517f4df8b5cd0", "fusion_lon": 0.0}, {"rental_uris": {"ios": "https://dc.lft.to/lastmile_qr_scan", "android": "https://dc.lft.to/lastmile_qr_scan"}, "type": "electric_scooter", "name": "d146cf05a06f5a9a12310ffdb2358a8d", "is_reserved": 0, "lon": -77.05861583333333, "is_disabled": 0, "fusion_lat": 0.0, "lat": 38.904686166666664, "bike_id": "d146cf05a06f5a9a12310ffdb2358a8d", "fusion_lon": 0.0}, {"rental_uris": {"ios": "https://dc.lft.to/lastmile_qr_scan", "android": "https://dc.lft.to/lastmile_qr_scan"}, "type": "electric_scooter", "name": "45063d63ebef9c362133584e87d2c60e", "is_reserved": 0, "lon": -77.01830166666667, "is_disabled": 0, "fusion_lat": 0.0, "lat": 38.9151225, "bike_id": "45063d63ebef9c362133584e87d2c60e", "fusion_lon": 0.0}, {"rental_uris": {"ios": "https://dc.lft.to/lastmile_qr_scan", "android": "https://dc.lft.to/lastmile_qr_scan"}, "type": "electric_scooter", "name": "b26e41c2185cb057c20a5fd30aa4d0db", "is_reserved": 0, "lon": -77.03485133333334, "is_disabled": 0, "fusion_lat": 0.0, "lat": 38.9067195, "bike_id": "b26e41c2185cb057c20a5fd30aa4d0db", "fusion_lon": 0.0}, {"rental_uris": {"ios": "https://dc.lft.to/lastmile_qr_scan", "android": "https://dc.lft.to/lastmile_qr_scan"}, "type": "electric_scooter", "name": "3f05c68e04ce3fe127a433283cd9c7fa", "is_reserved": 0, "lon": -77.00930883333334, "is_disabled": 0, "fusion_lat": 0.0, "lat": 38.896032166666664, "bike_id": "3f05c68e04ce3fe127a433283cd9c7fa", "fusion_lon": 0.0}, {"rental_uris": {"ios": "https://dc.lft.to/lastmile_qr_scan", "android": "https://dc.lft.to/lastmile_qr_scan"}, "type": "electric_scooter", "name": "1ea3e712a8f03c43810373389ffa1d89", "is_reserved": 0, "lon": -77.02939633333334, "is_disabled": 0, "fusion_lat": 0.0, "lat": 38.915581, "bike_id": "1ea3e712a8f03c43810373389ffa1d89", "fusion_lon": 0.0}, {"rental_uris": {"ios": "https://dc.lft.to/lastmile_qr_scan", "android": "https://dc.lft.to/lastmile_qr_scan"}, "type": "electric_scooter", "name": "54c194345a6a2366d6eea7e411d76a37", "is_reserved": 0, "lon": -77.02878966666667, "is_disabled": 0, "fusion_lat": 0.0, "lat": 38.903779, "bike_id": "54c194345a6a2366d6eea7e411d76a37", "fusion_lon": 0.0}, {"rental_uris": {"ios": "https://dc.lft.to/lastmile_qr_scan", "android": "https://dc.lft.to/lastmile_qr_scan"}, "type": "electric_scooter", "name": "5312faf8d8f3cd1abe081291919f0797", "is_reserved": 0, "lon": -77.0230615, "is_disabled": 0, "fusion_lat": 0.0, "lat": 38.91763983333333, "bike_id": "5312faf8d8f3cd1abe081291919f0797", "fusion_lon": 0.0}, {"rental_uris": {"ios": "https://dc.lft.to/lastmile_qr_scan", "android": "https://dc.lft.to/lastmile_qr_scan"}, "type": "electric_scooter", "name": "56e1f464899251cad70155c823988809", "is_reserved": 0, "lon": -77.04646233333334, "is_disabled": 0, "fusion_lat": 0.0, "lat": 38.90097566666667, "bike_id": "56e1f464899251cad70155c823988809", "fusion_lon": 0.0}, {"rental_uris": {"ios": "https://dc.lft.to/lastmile_qr_scan", "android": "https://dc.lft.to/lastmile_qr_scan"}, "type": "electric_scooter", "name": "061a260f76a5cc51698416551dbe8a38", "is_reserved": 0, "lon": -77.04867666666667, "is_disabled": 0, "fusion_lat": 0.0, "lat": 38.892186333333335, "bike_id": "061a260f76a5cc51698416551dbe8a38", "fusion_lon": 0.0}, {"rental_uris": {"ios": "https://dc.lft.to/lastmile_qr_scan", "android": "https://dc.lft.to/lastmile_qr_scan"}, "type": "electric_scooter", "name": "6bfc8002703d07d3d43ee9a8a006d0aa", "is_reserved": 0, "lon": -77.028743, "is_disabled": 0, "fusion_lat": 0.0, "lat": 38.91272433333334, "bike_id": "6bfc8002703d07d3d43ee9a8a006d0aa", "fusion_lon": 0.0}, {"rental_uris": {"ios": "https://dc.lft.to/lastmile_qr_scan", "android": "https://dc.lft.to/lastmile_qr_scan"}, "type": "electric_scooter", "name": "05ad52604d29ccd4689dcedf654ed76d", "is_reserved": 0, "lon": -77.01218616666667, "is_disabled": 0, "fusion_lat": 0.0, "lat": 38.920266833333336, "bike_id": "05ad52604d29ccd4689dcedf654ed76d", "fusion_lon": 0.0}, {"rental_uris": {"ios": "https://dc.lft.to/lastmile_qr_scan", "android": "https://dc.lft.to/lastmile_qr_scan"}, "type": "electric_scooter", "name": "b19899564958f6bb9d5360cb65b3400c", "is_reserved": 0, "lon": -77.05222816666667, "is_disabled": 0, "fusion_lat": 0.0, "lat": 38.9248735, "bike_id": "b19899564958f6bb9d5360cb65b3400c", "fusion_lon": 0.0}, {"rental_uris": {"ios": "https://dc.lft.to/lastmile_qr_scan", "android": "https://dc.lft.to/lastmile_qr_scan"}, "type": "electric_bike", "name": "cba4b29ba4112fb6d18b3ffbe1f909c6", "is_reserved": 0, "lon": -76.96094683333334, "is_disabled": 0, "fusion_lat": 0.0, "lat": 38.94966483333333, "bike_id": "cba4b29ba4112fb6d18b3ffbe1f909c6", "fusion_lon": 0.0}, {"rental_uris": {"ios": "https://dc.lft.to/lastmile_qr_scan", "android": "https://dc.lft.to/lastmile_qr_scan"}, "type": "electric_scooter", "name": "094720ad12aff28d5fc4cb59d0c80674", "is_reserved": 0, "lon": -77.011009, "is_disabled": 0, "fusion_lat": 0.0, "lat": 38.885413, "bike_id": "094720ad12aff28d5fc4cb59d0c80674", "fusion_lon": 0.0}, {"rental_uris": {"ios": "https://dc.lft.to/lastmile_qr_scan", "android": "https://dc.lft.to/lastmile_qr_scan"}, "type": "electric_scooter", "name": "96bc807f0f4b6aeb3cef98f902ca9265", "is_reserved": 0, "lon": -77.02679416666666, "is_disabled": 0, "fusion_lat": 0.0, "lat": 38.89951083333333, "bike_id": "96bc807f0f4b6aeb3cef98f902ca9265", "fusion_lon": 0.0}, {"rental_uris": {"ios": "https://dc.lft.to/lastmile_qr_scan", "android": "https://dc.lft.to/lastmile_qr_scan"}, "type": "electric_bike", "name": "4da5596a52563a75c9059b771c8828f3", "is_reserved": 0, "lon": -77.07159533333333, "is_disabled": 0, "fusion_lat": 0.0, "lat": 38.90793883333333, "bike_id": "4da5596a52563a75c9059b771c8828f3", "fusion_lon": 0.0}, {"rental_uris": {"ios": "https://dc.lft.to/lastmile_qr_scan", "android": "https://dc.lft.to/lastmile_qr_scan"}, "type": "electric_scooter", "name": "5eae4a244d01cc104a13f419437b843f", "is_reserved": 0, "lon": -77.04055666666666, "is_disabled": 0, "fusion_lat": 0.0, "lat": 38.9176575, "bike_id": "5eae4a244d01cc104a13f419437b843f", "fusion_lon": 0.0}, {"rental_uris": {"ios": "https://dc.lft.to/lastmile_qr_scan", "android": "https://dc.lft.to/lastmile_qr_scan"}, "type": "electric_scooter", "name": "4ebde3cec0478a60cc2385a5283bc2b4", "is_reserved": 0, "lon": -77.035778, "is_disabled": 0, "fusion_lat": 0.0, "lat": 38.90663033333333, "bike_id": "4ebde3cec0478a60cc2385a5283bc2b4", "fusion_lon": 0.0}, {"rental_uris": {"ios": "https://dc.lft.to/lastmile_qr_scan", "android": "https://dc.lft.to/lastmile_qr_scan"}, "type": "electric_scooter", "name": "37169565bf48fea7e01a5b504dffa4c0", "is_reserved": 0, "lon": -77.04935333333333, "is_disabled": 0, "fusion_lat": 0.0, "lat": 38.90064733333333, "bike_id": "37169565bf48fea7e01a5b504dffa4c0", "fusion_lon": 0.0}, {"rental_uris": {"ios": "https://dc.lft.to/lastmile_qr_scan", "android": "https://dc.lft.to/lastmile_qr_scan"}, "type": "electric_scooter", "name": "caf88be3df79d6945af7f11f2d8a0dd9", "is_reserved": 0, "lon": -77.03146133333334, "is_disabled": 0, "fusion_lat": 0.0, "lat": 38.920226, "bike_id": "caf88be3df79d6945af7f11f2d8a0dd9", "fusion_lon": 0.0}, {"rental_uris": {"ios": "https://dc.lft.to/lastmile_qr_scan", "android": "https://dc.lft.to/lastmile_qr_scan"}, "type": "electric_scooter", "name": "dac51e69864ccbfcc14e99a31eed5162", "is_reserved": 0, "lon": -77.02588633333333, "is_disabled": 0, "fusion_lat": 0.0, "lat": 38.8807155, "bike_id": "dac51e69864ccbfcc14e99a31eed5162", "fusion_lon": 0.0}, {"rental_uris": {"ios": "https://dc.lft.to/lastmile_qr_scan", "android": "https://dc.lft.to/lastmile_qr_scan"}, "type": "electric_bike", "name": "14666433a02c2d73897658bdff03f638", "is_reserved": 0, "lon": -77.07725916666666, "is_disabled": 0, "fusion_lat": 0.0, "lat": 38.863546, "bike_id": "14666433a02c2d73897658bdff03f638", "fusion_lon": 0.0}, {"rental_uris": {"ios": "https://dc.lft.to/lastmile_qr_scan", "android": "https://dc.lft.to/lastmile_qr_scan"}, "type": "electric_scooter", "name": "db69167c96d4e76db755c7bcc4ec3cf7", "is_reserved": 0, "lon": -76.93729133333333, "is_disabled": 0, "fusion_lat": 0.0, "lat": 38.888798666666666, "bike_id": "db69167c96d4e76db755c7bcc4ec3cf7", "fusion_lon": 0.0}, {"rental_uris": {"ios": "https://dc.lft.to/lastmile_qr_scan", "android": "https://dc.lft.to/lastmile_qr_scan"}, "type": "electric_bike", "name": "f569e3885c3a67260e8dd2c6f27f6ff8", "is_reserved": 0, "lon": -77.12732266666667, "is_disabled": 0, "fusion_lat": 0.0, "lat": 38.895660666666664, "bike_id": "f569e3885c3a67260e8dd2c6f27f6ff8", "fusion_lon": 0.0}, {"rental_uris": {"ios": "https://dc.lft.to/lastmile_qr_scan", "android": "https://dc.lft.to/lastmile_qr_scan"}, "type": "electric_scooter", "name": "77446799293a0a38a5fb2695b9f89252", "is_reserved": 0, "lon": -77.04682983333333, "is_disabled": 0, "fusion_lat": 0.0, "lat": 38.90245183333333, "bike_id": "77446799293a0a38a5fb2695b9f89252", "fusion_lon": 0.0}, {"rental_uris": {"ios": "https://dc.lft.to/lastmile_qr_scan", "android": "https://dc.lft.to/lastmile_qr_scan"}, "type": "electric_bike", "name": "533470aa3e1c6c08dcdfb381c0266be1", "is_reserved": 0, "lon": -77.07901166666667, "is_disabled": 0, "fusion_lat": 0.0, "lat": 38.83936166666667, "bike_id": "533470aa3e1c6c08dcdfb381c0266be1", "fusion_lon": 0.0}, {"rental_uris": {"ios": "https://dc.lft.to/lastmile_qr_scan", "android": "https://dc.lft.to/lastmile_qr_scan"}, "type": "electric_scooter", "name": "6452021cce703a299d86b47a7c208f56", "is_reserved": 0, "lon": -77.03599083333333, "is_disabled": 0, "fusion_lat": 0.0, "lat": 38.90252683333333, "bike_id": "6452021cce703a299d86b47a7c208f56", "fusion_lon": 0.0}, {"rental_uris": {"ios": "https://dc.lft.to/lastmile_qr_scan", "android": "https://dc.lft.to/lastmile_qr_scan"}, "type": "electric_scooter", "name": "df2187ff1f40fcd6d582a5e61c589600", "is_reserved": 0, "lon": -77.03806916666667, "is_disabled": 0, "fusion_lat": 0.0, "lat": 38.91043333333333, "bike_id": "df2187ff1f40fcd6d582a5e61c589600", "fusion_lon": 0.0}, {"rental_uris": {"ios": "https://dc.lft.to/lastmile_qr_scan", "android": "https://dc.lft.to/lastmile_qr_scan"}, "type": "electric_bike", "name": "6fc79c6ee188d2bfbf789275d6db1cd8", "is_reserved": 0, "lon": -77.0128155, "is_disabled": 0, "fusion_lat": 0.0, "lat": 38.95170266666667, "bike_id": "6fc79c6ee188d2bfbf789275d6db1cd8", "fusion_lon": 0.0}, {"rental_uris": {"ios": "https://dc.lft.to/lastmile_qr_scan", "android": "https://dc.lft.to/lastmile_qr_scan"}, "type": "electric_scooter", "name": "eb9ecb76247c549e8846b3b73aa8b2c9", "is_reserved": 0, "lon": -77.03709416666666, "is_disabled": 0, "fusion_lat": 0.0, "lat": 38.92649216666667, "bike_id": "eb9ecb76247c549e8846b3b73aa8b2c9", "fusion_lon": 0.0}, {"rental_uris": {"ios": "https://dc.lft.to/lastmile_qr_scan", "android": "https://dc.lft.to/lastmile_qr_scan"}, "type": "electric_scooter", "name": "54d5ff8e23e764c361088b65d9d9751d", "is_reserved": 0, "lon": -77.0341695, "is_disabled": 0, "fusion_lat": 0.0, "lat": 38.9039205, "bike_id": "54d5ff8e23e764c361088b65d9d9751d", "fusion_lon": 0.0}, {"rental_uris": {"ios": "https://dc.lft.to/lastmile_qr_scan", "android": "https://dc.lft.to/lastmile_qr_scan"}, "type": "electric_scooter", "name": "72728b93e58eb209727da98fedcfde3c", "is_reserved": 0, "lon": -77.03795266666667, "is_disabled": 0, "fusion_lat": 0.0, "lat": 38.93108983333333, "bike_id": "72728b93e58eb209727da98fedcfde3c", "fusion_lon": 0.0}, {"rental_uris": {"ios": "https://dc.lft.to/lastmile_qr_scan", "android": "https://dc.lft.to/lastmile_qr_scan"}, "type": "electric_scooter", "name": "bb11c46ef9515c0dd20fa261ef9735ef", "is_reserved": 0, "lon": -77.07910966666667, "is_disabled": 0, "fusion_lat": 0.0, "lat": 38.947847833333334, "bike_id": "bb11c46ef9515c0dd20fa261ef9735ef", "fusion_lon": 0.0}, {"rental_uris": {"ios": "https://dc.lft.to/lastmile_qr_scan", "android": "https://dc.lft.to/lastmile_qr_scan"}, "type": "electric_bike", "name": "a810f0f5a5dae04a103749b748bdfc41", "is_reserved": 0, "lon": -76.96321333333333, "is_disabled": 0, "fusion_lat": 0.0, "lat": 38.938991333333334, "bike_id": "a810f0f5a5dae04a103749b748bdfc41", "fusion_lon": 0.0}, {"rental_uris": {"ios": "https://dc.lft.to/lastmile_qr_scan", "android": "https://dc.lft.to/lastmile_qr_scan"}, "type": "electric_scooter", "name": "d7c15d4d346288b7ad71df5d8f6f93f4", "is_reserved": 0, "lon": -77.03775033333334, "is_disabled": 0, "fusion_lat": 0.0, "lat": 38.91251483333333, "bike_id": "d7c15d4d346288b7ad71df5d8f6f93f4", "fusion_lon": 0.0}, {"rental_uris": {"ios": "https://dc.lft.to/lastmile_qr_scan", "android": "https://dc.lft.to/lastmile_qr_scan"}, "type": "electric_scooter", "name": "c1d32e28789f05d893c535bc28059e4f", "is_reserved": 0, "lon": -76.9962615, "is_disabled": 0, "fusion_lat": 0.0, "lat": 38.931814, "bike_id": "c1d32e28789f05d893c535bc28059e4f", "fusion_lon": 0.0}, {"rental_uris": {"ios": "https://dc.lft.to/lastmile_qr_scan", "android": "https://dc.lft.to/lastmile_qr_scan"}, "type": "electric_scooter", "name": "b5de81f45d45fb6ee18327227379fed3", "is_reserved": 0, "lon": -77.03908583333333, "is_disabled": 0, "fusion_lat": 0.0, "lat": 38.90258433333333, "bike_id": "b5de81f45d45fb6ee18327227379fed3", "fusion_lon": 0.0}, {"rental_uris": {"ios": "https://dc.lft.to/lastmile_qr_scan", "android": "https://dc.lft.to/lastmile_qr_scan"}, "type": "electric_scooter", "name": "f0db16a3ede226872be428b259773408", "is_reserved": 0, "lon": -77.024988, "is_disabled": 0, "fusion_lat": 0.0, "lat": 38.94172733333333, "bike_id": "f0db16a3ede226872be428b259773408", "fusion_lon": 0.0}, {"rental_uris": {"ios": "https://dc.lft.to/lastmile_qr_scan", "android": "https://dc.lft.to/lastmile_qr_scan"}, "type": "electric_scooter", "name": "9294fde1d7b802940341b48fdf1af4c2", "is_reserved": 0, "lon": -77.02964633333333, "is_disabled": 0, "fusion_lat": 0.0, "lat": 38.92848333333333, "bike_id": "9294fde1d7b802940341b48fdf1af4c2", "fusion_lon": 0.0}, {"rental_uris": {"ios": "https://dc.lft.to/lastmile_qr_scan", "android": "https://dc.lft.to/lastmile_qr_scan"}, "type": "electric_scooter", "name": "dcee482de0b47a9af3cb74acb911e601", "is_reserved": 0, "lon": -77.02428233333333, "is_disabled": 0, "fusion_lat": 0.0, "lat": 38.907090333333336, "bike_id": "dcee482de0b47a9af3cb74acb911e601", "fusion_lon": 0.0}, {"rental_uris": {"ios": "https://dc.lft.to/lastmile_qr_scan", "android": "https://dc.lft.to/lastmile_qr_scan"}, "type": "electric_bike", "name": "a1cf8af976d0fe74e828a5c95c4e0839", "is_reserved": 0, "lon": -77.08141016666667, "is_disabled": 0, "fusion_lat": 0.0, "lat": 38.822956166666664, "bike_id": "a1cf8af976d0fe74e828a5c95c4e0839", "fusion_lon": 0.0}, {"rental_uris": {"ios": "https://dc.lft.to/lastmile_qr_scan", "android": "https://dc.lft.to/lastmile_qr_scan"}, "type": "electric_scooter", "name": "c38bc5936ac3a87cd4435bf984167c79", "is_reserved": 0, "lon": -77.078627, "is_disabled": 0, "fusion_lat": 0.0, "lat": 38.931506, "bike_id": "c38bc5936ac3a87cd4435bf984167c79", "fusion_lon": 0.0}, {"rental_uris": {"ios": "https://dc.lft.to/lastmile_qr_scan", "android": "https://dc.lft.to/lastmile_qr_scan"}, "type": "electric_scooter", "name": "93bfb27295b229c771f836130923c452", "is_reserved": 0, "lon": -77.01143016666667, "is_disabled": 0, "fusion_lat": 0.0, "lat": 38.8971255, "bike_id": "93bfb27295b229c771f836130923c452", "fusion_lon": 0.0}, {"rental_uris": {"ios": "https://dc.lft.to/lastmile_qr_scan", "android": "https://dc.lft.to/lastmile_qr_scan"}, "type": "electric_scooter", "name": "d414bd17455b9d422daa4a82cedb98b4", "is_reserved": 0, "lon": -77.02659566666667, "is_disabled": 0, "fusion_lat": 0.0, "lat": 38.93859916666667, "bike_id": "d414bd17455b9d422daa4a82cedb98b4", "fusion_lon": 0.0}, {"rental_uris": {"ios": "https://dc.lft.to/lastmile_qr_scan", "android": "https://dc.lft.to/lastmile_qr_scan"}, "type": "electric_scooter", "name": "f331fe7d92e8200525db0c301b8c8d8e", "is_reserved": 0, "lon": -76.94851716666666, "is_disabled": 0, "fusion_lat": 0.0, "lat": 38.88302566666667, "bike_id": "f331fe7d92e8200525db0c301b8c8d8e", "fusion_lon": 0.0}, {"rental_uris": {"ios": "https://dc.lft.to/lastmile_qr_scan", "android": "https://dc.lft.to/lastmile_qr_scan"}, "type": "electric_scooter", "name": "40d71913c2beeab275c56d84295146a5", "is_reserved": 0, "lon": -77.02079866666666, "is_disabled": 0, "fusion_lat": 0.0, "lat": 38.92393033333333, "bike_id": "40d71913c2beeab275c56d84295146a5", "fusion_lon": 0.0}, {"rental_uris": {"ios": "https://dc.lft.to/lastmile_qr_scan", "android": "https://dc.lft.to/lastmile_qr_scan"}, "type": "electric_scooter", "name": "ee4c70ea4b20a9e6e6f361dc9fafa092", "is_reserved": 0, "lon": -77.0075415, "is_disabled": 0, "fusion_lat": 0.0, "lat": 38.879037, "bike_id": "ee4c70ea4b20a9e6e6f361dc9fafa092", "fusion_lon": 0.0}, {"rental_uris": {"ios": "https://dc.lft.to/lastmile_qr_scan", "android": "https://dc.lft.to/lastmile_qr_scan"}, "type": "electric_scooter", "name": "15004f8d319cff89493ef71e0b88614e", "is_reserved": 0, "lon": -77.02387183333333, "is_disabled": 0, "fusion_lat": 0.0, "lat": 38.932030833333336, "bike_id": "15004f8d319cff89493ef71e0b88614e", "fusion_lon": 0.0}, {"rental_uris": {"ios": "https://dc.lft.to/lastmile_qr_scan", "android": "https://dc.lft.to/lastmile_qr_scan"}, "type": "electric_bike", "name": "3bb84277eb9415c9ae0b06913e937c63", "is_reserved": 0, "lon": -77.04755833333333, "is_disabled": 0, "fusion_lat": 0.0, "lat": 38.89962, "bike_id": "3bb84277eb9415c9ae0b06913e937c63", "fusion_lon": 0.0}, {"rental_uris": {"ios": "https://dc.lft.to/lastmile_qr_scan", "android": "https://dc.lft.to/lastmile_qr_scan"}, "type": "electric_scooter", "name": "d519748bf99f3dc6aea0de09a82448cc", "is_reserved": 0, "lon": -77.02123116666667, "is_disabled": 0, "fusion_lat": 0.0, "lat": 38.9237595, "bike_id": "d519748bf99f3dc6aea0de09a82448cc", "fusion_lon": 0.0}, {"rental_uris": {"ios": "https://dc.lft.to/lastmile_qr_scan", "android": "https://dc.lft.to/lastmile_qr_scan"}, "type": "electric_scooter", "name": "3195dbaeea4837fa2f218ada786a6e83", "is_reserved": 0, "lon": -76.980999, "is_disabled": 0, "fusion_lat": 0.0, "lat": 38.903960833333336, "bike_id": "3195dbaeea4837fa2f218ada786a6e83", "fusion_lon": 0.0}, {"rental_uris": {"ios": "https://dc.lft.to/lastmile_qr_scan", "android": "https://dc.lft.to/lastmile_qr_scan"}, "type": "electric_scooter", "name": "be8d68c06297b15573518009eaa8dc08", "is_reserved": 0, "lon": -77.04063066666667, "is_disabled": 0, "fusion_lat": 0.0, "lat": 38.91768166666667, "bike_id": "be8d68c06297b15573518009eaa8dc08", "fusion_lon": 0.0}, {"rental_uris": {"ios": "https://dc.lft.to/lastmile_qr_scan", "android": "https://dc.lft.to/lastmile_qr_scan"}, "type": "electric_scooter", "name": "38c5603cc606bc1a0b4089db1b71f80f", "is_reserved": 0, "lon": -77.03874116666667, "is_disabled": 0, "fusion_lat": 0.0, "lat": 38.91887416666667, "bike_id": "38c5603cc606bc1a0b4089db1b71f80f", "fusion_lon": 0.0}, {"rental_uris": {"ios": "https://dc.lft.to/lastmile_qr_scan", "android": "https://dc.lft.to/lastmile_qr_scan"}, "type": "electric_scooter", "name": "366cd516a41407627b184d161ae02e61", "is_reserved": 0, "lon": -77.0218925, "is_disabled": 0, "fusion_lat": 0.0, "lat": 38.89491316666667, "bike_id": "366cd516a41407627b184d161ae02e61", "fusion_lon": 0.0}, {"rental_uris": {"ios": "https://dc.lft.to/lastmile_qr_scan", "android": "https://dc.lft.to/lastmile_qr_scan"}, "type": "electric_scooter", "name": "5042a503ce43e73f612fa6f9a1411bbc", "is_reserved": 0, "lon": -77.05235416666666, "is_disabled": 0, "fusion_lat": 0.0, "lat": 38.92465583333333, "bike_id": "5042a503ce43e73f612fa6f9a1411bbc", "fusion_lon": 0.0}, {"rental_uris": {"ios": "https://dc.lft.to/lastmile_qr_scan", "android": "https://dc.lft.to/lastmile_qr_scan"}, "type": "electric_scooter", "name": "d034f210229545e1006a3e85f8849798", "is_reserved": 0, "lon": -77.0213135, "is_disabled": 0, "fusion_lat": 0.0, "lat": 38.924177666666665, "bike_id": "d034f210229545e1006a3e85f8849798", "fusion_lon": 0.0}, {"rental_uris": {"ios": "https://dc.lft.to/lastmile_qr_scan", "android": "https://dc.lft.to/lastmile_qr_scan"}, "type": "electric_scooter", "name": "966af09d05dc19e851c1adf87d7e721a", "is_reserved": 0, "lon": -77.02206483333333, "is_disabled": 0, "fusion_lat": 0.0, "lat": 38.892304, "bike_id": "966af09d05dc19e851c1adf87d7e721a", "fusion_lon": 0.0}, {"rental_uris": {"ios": "https://dc.lft.to/lastmile_qr_scan", "android": "https://dc.lft.to/lastmile_qr_scan"}, "type": "electric_scooter", "name": "a413a9e92e3f9381fb468e7549b1f618", "is_reserved": 0, "lon": -76.9889145, "is_disabled": 0, "fusion_lat": 0.0, "lat": 38.89963816666667, "bike_id": "a413a9e92e3f9381fb468e7549b1f618", "fusion_lon": 0.0}, {"rental_uris": {"ios": "https://dc.lft.to/lastmile_qr_scan", "android": "https://dc.lft.to/lastmile_qr_scan"}, "type": "electric_scooter", "name": "441ac179c10ff4560ebd7b6c76fea71a", "is_reserved": 0, "lon": -77.03119533333333, "is_disabled": 0, "fusion_lat": 0.0, "lat": 38.918691833333334, "bike_id": "441ac179c10ff4560ebd7b6c76fea71a", "fusion_lon": 0.0}, {"rental_uris": {"ios": "https://dc.lft.to/lastmile_qr_scan", "android": "https://dc.lft.to/lastmile_qr_scan"}, "type": "electric_scooter", "name": "62994e0fa54fbfa1ff2a52ca4463ca5c", "is_reserved": 0, "lon": -77.0415985, "is_disabled": 0, "fusion_lat": 0.0, "lat": 38.9015505, "bike_id": "62994e0fa54fbfa1ff2a52ca4463ca5c", "fusion_lon": 0.0}, {"rental_uris": {"ios": "https://dc.lft.to/lastmile_qr_scan", "android": "https://dc.lft.to/lastmile_qr_scan"}, "type": "electric_scooter", "name": "7b900716811c976a0850d145554f525e", "is_reserved": 0, "lon": -77.03185933333333, "is_disabled": 0, "fusion_lat": 0.0, "lat": 38.924951166666666, "bike_id": "7b900716811c976a0850d145554f525e", "fusion_lon": 0.0}, {"rental_uris": {"ios": "https://dc.lft.to/lastmile_qr_scan", "android": "https://dc.lft.to/lastmile_qr_scan"}, "type": "electric_scooter", "name": "f56dc029f15d53b0fc6777f4f09bb6bf", "is_reserved": 0, "lon": -77.015787, "is_disabled": 0, "fusion_lat": 0.0, "lat": 38.90255233333333, "bike_id": "f56dc029f15d53b0fc6777f4f09bb6bf", "fusion_lon": 0.0}, {"rental_uris": {"ios": "https://dc.lft.to/lastmile_qr_scan", "android": "https://dc.lft.to/lastmile_qr_scan"}, "type": "electric_scooter", "name": "428f047f9349cafa02a4d4195bb41d08", "is_reserved": 0, "lon": -76.99099966666667, "is_disabled": 0, "fusion_lat": 0.0, "lat": 38.857268, "bike_id": "428f047f9349cafa02a4d4195bb41d08", "fusion_lon": 0.0}, {"rental_uris": {"ios": "https://dc.lft.to/lastmile_qr_scan", "android": "https://dc.lft.to/lastmile_qr_scan"}, "type": "electric_scooter", "name": "4b48742b7a20d005e6cd36c9c44553e3", "is_reserved": 0, "lon": -77.0439775, "is_disabled": 0, "fusion_lat": 0.0, "lat": 38.910946833333334, "bike_id": "4b48742b7a20d005e6cd36c9c44553e3", "fusion_lon": 0.0}, {"rental_uris": {"ios": "https://dc.lft.to/lastmile_qr_scan", "android": "https://dc.lft.to/lastmile_qr_scan"}, "type": "electric_scooter", "name": "4d6cfa18bbd245eec2251fc187d984e4", "is_reserved": 0, "lon": -77.02487183333334, "is_disabled": 0, "fusion_lat": 0.0, "lat": 38.925959, "bike_id": "4d6cfa18bbd245eec2251fc187d984e4", "fusion_lon": 0.0}, {"rental_uris": {"ios": "https://dc.lft.to/lastmile_qr_scan", "android": "https://dc.lft.to/lastmile_qr_scan"}, "type": "electric_scooter", "name": "7327ebf2600147b3770a2695a39cf597", "is_reserved": 0, "lon": -77.048793, "is_disabled": 0, "fusion_lat": 0.0, "lat": 38.918429, "bike_id": "7327ebf2600147b3770a2695a39cf597", "fusion_lon": 0.0}, {"rental_uris": {"ios": "https://dc.lft.to/lastmile_qr_scan", "android": "https://dc.lft.to/lastmile_qr_scan"}, "type": "electric_scooter", "name": "ccc04792f5387d7628ac56f5ac0d8dac", "is_reserved": 0, "lon": -76.9995, "is_disabled": 0, "fusion_lat": 0.0, "lat": 38.908558, "bike_id": "ccc04792f5387d7628ac56f5ac0d8dac", "fusion_lon": 0.0}, {"rental_uris": {"ios": "https://dc.lft.to/lastmile_qr_scan", "android": "https://dc.lft.to/lastmile_qr_scan"}, "type": "electric_scooter", "name": "7108db6ce32f85ae6e5b6dba71fe04b0", "is_reserved": 0, "lon": -77.04282516666666, "is_disabled": 0, "fusion_lat": 0.0, "lat": 38.906662833333336, "bike_id": "7108db6ce32f85ae6e5b6dba71fe04b0", "fusion_lon": 0.0}, {"rental_uris": {"ios": "https://dc.lft.to/lastmile_qr_scan", "android": "https://dc.lft.to/lastmile_qr_scan"}, "type": "electric_scooter", "name": "9a378dec4df2ab4b0ac6da81f589ae38", "is_reserved": 0, "lon": -77.034723, "is_disabled": 0, "fusion_lat": 0.0, "lat": 38.9023255, "bike_id": "9a378dec4df2ab4b0ac6da81f589ae38", "fusion_lon": 0.0}, {"rental_uris": {"ios": "https://dc.lft.to/lastmile_qr_scan", "android": "https://dc.lft.to/lastmile_qr_scan"}, "type": "electric_scooter", "name": "121a2b5a560ef38a53ddbf8679c71f60", "is_reserved": 0, "lon": -77.03186083333334, "is_disabled": 0, "fusion_lat": 0.0, "lat": 38.911789166666665, "bike_id": "121a2b5a560ef38a53ddbf8679c71f60", "fusion_lon": 0.0}, {"rental_uris": {"ios": "https://dc.lft.to/lastmile_qr_scan", "android": "https://dc.lft.to/lastmile_qr_scan"}, "type": "electric_bike", "name": "21e4ff730e7c93a043ca95269701a2d0", "is_reserved": 0, "lon": -76.9615495, "is_disabled": 0, "fusion_lat": 0.0, "lat": 38.856185333333336, "bike_id": "21e4ff730e7c93a043ca95269701a2d0", "fusion_lon": 0.0}, {"rental_uris": {"ios": "https://dc.lft.to/lastmile_qr_scan", "android": "https://dc.lft.to/lastmile_qr_scan"}, "type": "electric_scooter", "name": "589e8ded9167c7e1b04739cf77b182b9", "is_reserved": 0, "lon": -77.0394125, "is_disabled": 0, "fusion_lat": 0.0, "lat": 38.9005515, "bike_id": "589e8ded9167c7e1b04739cf77b182b9", "fusion_lon": 0.0}, {"rental_uris": {"ios": "https://dc.lft.to/lastmile_qr_scan", "android": "https://dc.lft.to/lastmile_qr_scan"}, "type": "electric_scooter", "name": "2d719bf3339f048d8b2316a5d17deda5", "is_reserved": 0, "lon": -77.06142033333333, "is_disabled": 0, "fusion_lat": 0.0, "lat": 38.9129195, "bike_id": "2d719bf3339f048d8b2316a5d17deda5", "fusion_lon": 0.0}, {"rental_uris": {"ios": "https://dc.lft.to/lastmile_qr_scan", "android": "https://dc.lft.to/lastmile_qr_scan"}, "type": "electric_scooter", "name": "112daddecd94c9595f5e6a99859d0fd7", "is_reserved": 0, "lon": -76.99213816666666, "is_disabled": 0, "fusion_lat": 0.0, "lat": 38.889735, "bike_id": "112daddecd94c9595f5e6a99859d0fd7", "fusion_lon": 0.0}, {"rental_uris": {"ios": "https://dc.lft.to/lastmile_qr_scan", "android": "https://dc.lft.to/lastmile_qr_scan"}, "type": "electric_scooter", "name": "b05df70c4c82a8593479e6bbbfc664a6", "is_reserved": 0, "lon": -76.994803, "is_disabled": 0, "fusion_lat": 0.0, "lat": 38.86213133333333, "bike_id": "b05df70c4c82a8593479e6bbbfc664a6", "fusion_lon": 0.0}, {"rental_uris": {"ios": "https://dc.lft.to/lastmile_qr_scan", "android": "https://dc.lft.to/lastmile_qr_scan"}, "type": "electric_scooter", "name": "18f80279ff423881693d03491e36acb4", "is_reserved": 0, "lon": -77.03045433333334, "is_disabled": 0, "fusion_lat": 0.0, "lat": 38.908280500000004, "bike_id": "18f80279ff423881693d03491e36acb4", "fusion_lon": 0.0}, {"rental_uris": {"ios": "https://dc.lft.to/lastmile_qr_scan", "android": "https://dc.lft.to/lastmile_qr_scan"}, "type": "electric_scooter", "name": "abfc50b085c4f4c40f253b5b5b61f4b0", "is_reserved": 0, "lon": -77.00546833333334, "is_disabled": 0, "fusion_lat": 0.0, "lat": 38.87527933333333, "bike_id": "abfc50b085c4f4c40f253b5b5b61f4b0", "fusion_lon": 0.0}, {"rental_uris": {"ios": "https://dc.lft.to/lastmile_qr_scan", "android": "https://dc.lft.to/lastmile_qr_scan"}, "type": "electric_bike", "name": "b40360d2cf409ab1e599009137c7c1f2", "is_reserved": 0, "lon": -77.02370466666666, "is_disabled": 0, "fusion_lat": 0.0, "lat": 38.884827, "bike_id": "b40360d2cf409ab1e599009137c7c1f2", "fusion_lon": 0.0}, {"rental_uris": {"ios": "https://dc.lft.to/lastmile_qr_scan", "android": "https://dc.lft.to/lastmile_qr_scan"}, "type": "electric_scooter", "name": "249da211a05d035212e3ab7a4b6e6b5b", "is_reserved": 0, "lon": -77.0201635, "is_disabled": 0, "fusion_lat": 0.0, "lat": 38.892203, "bike_id": "249da211a05d035212e3ab7a4b6e6b5b", "fusion_lon": 0.0}, {"rental_uris": {"ios": "https://dc.lft.to/lastmile_qr_scan", "android": "https://dc.lft.to/lastmile_qr_scan"}, "type": "electric_scooter", "name": "9075dc7a89598bbc22372e352f23156d", "is_reserved": 0, "lon": -76.94823266666667, "is_disabled": 0, "fusion_lat": 0.0, "lat": 38.88513666666667, "bike_id": "9075dc7a89598bbc22372e352f23156d", "fusion_lon": 0.0}, {"rental_uris": {"ios": "https://dc.lft.to/lastmile_qr_scan", "android": "https://dc.lft.to/lastmile_qr_scan"}, "type": "electric_scooter", "name": "5e2fe9443cf0d9de6f582c2809d18c73", "is_reserved": 0, "lon": -77.0346955, "is_disabled": 0, "fusion_lat": 0.0, "lat": 38.935328166666665, "bike_id": "5e2fe9443cf0d9de6f582c2809d18c73", "fusion_lon": 0.0}, {"rental_uris": {"ios": "https://dc.lft.to/lastmile_qr_scan", "android": "https://dc.lft.to/lastmile_qr_scan"}, "type": "electric_scooter", "name": "0316accefd3d7e604d0b6f618d2fa450", "is_reserved": 0, "lon": -77.046821, "is_disabled": 0, "fusion_lat": 0.0, "lat": 38.89221533333333, "bike_id": "0316accefd3d7e604d0b6f618d2fa450", "fusion_lon": 0.0}, {"rental_uris": {"ios": "https://dc.lft.to/lastmile_qr_scan", "android": "https://dc.lft.to/lastmile_qr_scan"}, "type": "electric_scooter", "name": "3f09e6b97914c7295c4bea3a144b2741", "is_reserved": 0, "lon": -77.0612015, "is_disabled": 0, "fusion_lat": 0.0, "lat": 38.9060485, "bike_id": "3f09e6b97914c7295c4bea3a144b2741", "fusion_lon": 0.0}, {"rental_uris": {"ios": "https://dc.lft.to/lastmile_qr_scan", "android": "https://dc.lft.to/lastmile_qr_scan"}, "type": "electric_scooter", "name": "75a6da6ce2747296bb71cf150bb6da18", "is_reserved": 0, "lon": -77.010669, "is_disabled": 0, "fusion_lat": 0.0, "lat": 38.894057833333335, "bike_id": "75a6da6ce2747296bb71cf150bb6da18", "fusion_lon": 0.0}, {"rental_uris": {"ios": "https://dc.lft.to/lastmile_qr_scan", "android": "https://dc.lft.to/lastmile_qr_scan"}, "type": "electric_scooter", "name": "b1364f68dee5aefdc06cf46d1e177644", "is_reserved": 0, "lon": -77.02804883333333, "is_disabled": 0, "fusion_lat": 0.0, "lat": 38.899220166666666, "bike_id": "b1364f68dee5aefdc06cf46d1e177644", "fusion_lon": 0.0}, {"rental_uris": {"ios": "https://dc.lft.to/lastmile_qr_scan", "android": "https://dc.lft.to/lastmile_qr_scan"}, "type": "electric_scooter", "name": "ba83a1dda608511b12b98e489cfe633b", "is_reserved": 0, "lon": -77.0193785, "is_disabled": 0, "fusion_lat": 0.0, "lat": 38.947025333333336, "bike_id": "ba83a1dda608511b12b98e489cfe633b", "fusion_lon": 0.0}, {"rental_uris": {"ios": "https://dc.lft.to/lastmile_qr_scan", "android": "https://dc.lft.to/lastmile_qr_scan"}, "type": "electric_scooter", "name": "a373d1c8ea0c658876f2a84b321ddc60", "is_reserved": 0, "lon": -77.01900733333333, "is_disabled": 0, "fusion_lat": 0.0, "lat": 38.903430166666666, "bike_id": "a373d1c8ea0c658876f2a84b321ddc60", "fusion_lon": 0.0}, {"rental_uris": {"ios": "https://dc.lft.to/lastmile_qr_scan", "android": "https://dc.lft.to/lastmile_qr_scan"}, "type": "electric_scooter", "name": "ba499fc960ca019110efc4f6523307aa", "is_reserved": 0, "lon": -77.00781866666667, "is_disabled": 0, "fusion_lat": 0.0, "lat": 38.95249416666667, "bike_id": "ba499fc960ca019110efc4f6523307aa", "fusion_lon": 0.0}, {"rental_uris": {"ios": "https://dc.lft.to/lastmile_qr_scan", "android": "https://dc.lft.to/lastmile_qr_scan"}, "type": "electric_scooter", "name": "bdbc5dda8f84e30b4d4dc1718c553157", "is_reserved": 0, "lon": -77.00157083333333, "is_disabled": 0, "fusion_lat": 0.0, "lat": 38.8213495, "bike_id": "bdbc5dda8f84e30b4d4dc1718c553157", "fusion_lon": 0.0}, {"rental_uris": {"ios": "https://dc.lft.to/lastmile_qr_scan", "android": "https://dc.lft.to/lastmile_qr_scan"}, "type": "electric_bike", "name": "8596116a39149a4899f67aee98cb912b", "is_reserved": 0, "lon": -76.97537583333333, "is_disabled": 0, "fusion_lat": 0.0, "lat": 38.904262833333334, "bike_id": "8596116a39149a4899f67aee98cb912b", "fusion_lon": 0.0}, {"rental_uris": {"ios": "https://dc.lft.to/lastmile_qr_scan", "android": "https://dc.lft.to/lastmile_qr_scan"}, "type": "electric_scooter", "name": "85cd88c7d3b93c2b83a99d21bcd5d5ac", "is_reserved": 0, "lon": -76.93039483333334, "is_disabled": 0, "fusion_lat": 0.0, "lat": 38.883849166666664, "bike_id": "85cd88c7d3b93c2b83a99d21bcd5d5ac", "fusion_lon": 0.0}, {"rental_uris": {"ios": "https://dc.lft.to/lastmile_qr_scan", "android": "https://dc.lft.to/lastmile_qr_scan"}, "type": "electric_bike", "name": "f9587d79d6c9f72df631c5235cb436de", "is_reserved": 0, "lon": -76.951594, "is_disabled": 0, "fusion_lat": 0.0, "lat": 39.0843075, "bike_id": "f9587d79d6c9f72df631c5235cb436de", "fusion_lon": 0.0}, {"rental_uris": {"ios": "https://dc.lft.to/lastmile_qr_scan", "android": "https://dc.lft.to/lastmile_qr_scan"}, "type": "electric_bike", "name": "8afc31113a82bc42349eb8bad0120b59", "is_reserved": 0, "lon": -76.9073425, "is_disabled": 0, "fusion_lat": 0.0, "lat": 38.896185, "bike_id": "8afc31113a82bc42349eb8bad0120b59", "fusion_lon": 0.0}, {"rental_uris": {"ios": "https://dc.lft.to/lastmile_qr_scan", "android": "https://dc.lft.to/lastmile_qr_scan"}, "type": "electric_scooter", "name": "165cfe1a3064dc9ac978423691ebff3a", "is_reserved": 0, "lon": -77.0562315, "is_disabled": 0, "fusion_lat": 0.0, "lat": 38.9069645, "bike_id": "165cfe1a3064dc9ac978423691ebff3a", "fusion_lon": 0.0}, {"rental_uris": {"ios": "https://dc.lft.to/lastmile_qr_scan", "android": "https://dc.lft.to/lastmile_qr_scan"}, "type": "electric_scooter", "name": "97940de400147aeef7f8513bc0a5a6e5", "is_reserved": 0, "lon": -77.0385265, "is_disabled": 0, "fusion_lat": 0.0, "lat": 38.901138333333336, "bike_id": "97940de400147aeef7f8513bc0a5a6e5", "fusion_lon": 0.0}, {"rental_uris": {"ios": "https://dc.lft.to/lastmile_qr_scan", "android": "https://dc.lft.to/lastmile_qr_scan"}, "type": "electric_scooter", "name": "fd0a4e8d81d6cdd2754e711643d3a865", "is_reserved": 0, "lon": -76.99231, "is_disabled": 0, "fusion_lat": 0.0, "lat": 38.88749, "bike_id": "fd0a4e8d81d6cdd2754e711643d3a865", "fusion_lon": 0.0}, {"rental_uris": {"ios": "https://dc.lft.to/lastmile_qr_scan", "android": "https://dc.lft.to/lastmile_qr_scan"}, "type": "electric_scooter", "name": "f941e81ba1e86ba90ffa1b91dc160003", "is_reserved": 0, "lon": -77.04757366666666, "is_disabled": 0, "fusion_lat": 0.0, "lat": 38.9409505, "bike_id": "f941e81ba1e86ba90ffa1b91dc160003", "fusion_lon": 0.0}, {"rental_uris": {"ios": "https://dc.lft.to/lastmile_qr_scan", "android": "https://dc.lft.to/lastmile_qr_scan"}, "type": "electric_scooter", "name": "10bb9500c6bd245d51097937db9160c0", "is_reserved": 0, "lon": -77.05318166666666, "is_disabled": 0, "fusion_lat": 0.0, "lat": 38.902637666666664, "bike_id": "10bb9500c6bd245d51097937db9160c0", "fusion_lon": 0.0}, {"rental_uris": {"ios": "https://dc.lft.to/lastmile_qr_scan", "android": "https://dc.lft.to/lastmile_qr_scan"}, "type": "electric_scooter", "name": "783a51a7aa69e9b9fd7566dd51edbf39", "is_reserved": 0, "lon": -77.03962866666667, "is_disabled": 0, "fusion_lat": 0.0, "lat": 38.902466, "bike_id": "783a51a7aa69e9b9fd7566dd51edbf39", "fusion_lon": 0.0}, {"rental_uris": {"ios": "https://dc.lft.to/lastmile_qr_scan", "android": "https://dc.lft.to/lastmile_qr_scan"}, "type": "electric_scooter", "name": "324f9b6be37bdf9a4b49ef3b2fd0fac0", "is_reserved": 0, "lon": -77.00832416666667, "is_disabled": 0, "fusion_lat": 0.0, "lat": 38.913745, "bike_id": "324f9b6be37bdf9a4b49ef3b2fd0fac0", "fusion_lon": 0.0}, {"rental_uris": {"ios": "https://dc.lft.to/lastmile_qr_scan", "android": "https://dc.lft.to/lastmile_qr_scan"}, "type": "electric_scooter", "name": "e0837c15fc6a133ef66d6bae47d40cc4", "is_reserved": 0, "lon": -76.98036366666666, "is_disabled": 0, "fusion_lat": 0.0, "lat": 38.88970116666667, "bike_id": "e0837c15fc6a133ef66d6bae47d40cc4", "fusion_lon": 0.0}, {"rental_uris": {"ios": "https://dc.lft.to/lastmile_qr_scan", "android": "https://dc.lft.to/lastmile_qr_scan"}, "type": "electric_scooter", "name": "319442298b686d061794ba2f211075f4", "is_reserved": 0, "lon": -77.04051383333334, "is_disabled": 0, "fusion_lat": 0.0, "lat": 38.904432166666666, "bike_id": "319442298b686d061794ba2f211075f4", "fusion_lon": 0.0}, {"rental_uris": {"ios": "https://dc.lft.to/lastmile_qr_scan", "android": "https://dc.lft.to/lastmile_qr_scan"}, "type": "electric_scooter", "name": "548da2b8b4728ad0ed811bbb555ce4ef", "is_reserved": 0, "lon": -76.98767783333334, "is_disabled": 0, "fusion_lat": 0.0, "lat": 38.9119985, "bike_id": "548da2b8b4728ad0ed811bbb555ce4ef", "fusion_lon": 0.0}, {"rental_uris": {"ios": "https://dc.lft.to/lastmile_qr_scan", "android": "https://dc.lft.to/lastmile_qr_scan"}, "type": "electric_scooter", "name": "e69eac5b5e1e26597397e17e4566e3e0", "is_reserved": 0, "lon": -77.007299, "is_disabled": 0, "fusion_lat": 0.0, "lat": 38.871428333333334, "bike_id": "e69eac5b5e1e26597397e17e4566e3e0", "fusion_lon": 0.0}, {"rental_uris": {"ios": "https://dc.lft.to/lastmile_qr_scan", "android": "https://dc.lft.to/lastmile_qr_scan"}, "type": "electric_scooter", "name": "34d06e13db8a2344602bbccd862782d9", "is_reserved": 0, "lon": -77.0306475, "is_disabled": 0, "fusion_lat": 0.0, "lat": 38.92483216666667, "bike_id": "34d06e13db8a2344602bbccd862782d9", "fusion_lon": 0.0}, {"rental_uris": {"ios": "https://dc.lft.to/lastmile_qr_scan", "android": "https://dc.lft.to/lastmile_qr_scan"}, "type": "electric_scooter", "name": "52db1c5e45b1e51766010362cf26526a", "is_reserved": 0, "lon": -77.0309535, "is_disabled": 0, "fusion_lat": 0.0, "lat": 38.910839333333335, "bike_id": "52db1c5e45b1e51766010362cf26526a", "fusion_lon": 0.0}, {"rental_uris": {"ios": "https://dc.lft.to/lastmile_qr_scan", "android": "https://dc.lft.to/lastmile_qr_scan"}, "type": "electric_scooter", "name": "a7dc70c7a243bd3a94fcb70085ecc605", "is_reserved": 0, "lon": -76.9266145, "is_disabled": 0, "fusion_lat": 0.0, "lat": 38.88232216666667, "bike_id": "a7dc70c7a243bd3a94fcb70085ecc605", "fusion_lon": 0.0}, {"rental_uris": {"ios": "https://dc.lft.to/lastmile_qr_scan", "android": "https://dc.lft.to/lastmile_qr_scan"}, "type": "electric_scooter", "name": "3f536f1645d51de072ac4cf9b55bb2a2", "is_reserved": 0, "lon": -76.99492033333334, "is_disabled": 0, "fusion_lat": 0.0, "lat": 38.862189, "bike_id": "3f536f1645d51de072ac4cf9b55bb2a2", "fusion_lon": 0.0}, {"rental_uris": {"ios": "https://dc.lft.to/lastmile_qr_scan", "android": "https://dc.lft.to/lastmile_qr_scan"}, "type": "electric_scooter", "name": "174c0f92caf0a58e468c711df9d3fce8", "is_reserved": 0, "lon": -77.01039866666666, "is_disabled": 0, "fusion_lat": 0.0, "lat": 38.9110525, "bike_id": "174c0f92caf0a58e468c711df9d3fce8", "fusion_lon": 0.0}, {"rental_uris": {"ios": "https://dc.lft.to/lastmile_qr_scan", "android": "https://dc.lft.to/lastmile_qr_scan"}, "type": "electric_scooter", "name": "f4428d9f73d74356af497dc6e83d54cb", "is_reserved": 0, "lon": -77.0348275, "is_disabled": 0, "fusion_lat": 0.0, "lat": 38.90572733333333, "bike_id": "f4428d9f73d74356af497dc6e83d54cb", "fusion_lon": 0.0}, {"rental_uris": {"ios": "https://dc.lft.to/lastmile_qr_scan", "android": "https://dc.lft.to/lastmile_qr_scan"}, "type": "electric_scooter", "name": "2a717471ee9d62c897e8db34c078b160", "is_reserved": 0, "lon": -77.018514, "is_disabled": 0, "fusion_lat": 0.0, "lat": 38.95439733333333, "bike_id": "2a717471ee9d62c897e8db34c078b160", "fusion_lon": 0.0}, {"rental_uris": {"ios": "https://dc.lft.to/lastmile_qr_scan", "android": "https://dc.lft.to/lastmile_qr_scan"}, "type": "electric_scooter", "name": "e39e63972204364d26feb1ec6d7ecf5b", "is_reserved": 0, "lon": -77.011681, "is_disabled": 0, "fusion_lat": 0.0, "lat": 38.89711066666667, "bike_id": "e39e63972204364d26feb1ec6d7ecf5b", "fusion_lon": 0.0}, {"rental_uris": {"ios": "https://dc.lft.to/lastmile_qr_scan", "android": "https://dc.lft.to/lastmile_qr_scan"}, "type": "electric_scooter", "name": "3093e5696babd9a6d3f2c1cce8cfb485", "is_reserved": 0, "lon": -77.02390933333334, "is_disabled": 0, "fusion_lat": 0.0, "lat": 38.915836666666664, "bike_id": "3093e5696babd9a6d3f2c1cce8cfb485", "fusion_lon": 0.0}, {"rental_uris": {"ios": "https://dc.lft.to/lastmile_qr_scan", "android": "https://dc.lft.to/lastmile_qr_scan"}, "type": "electric_scooter", "name": "cfce6c5c40fc8e3c68b0a76e0ee497d9", "is_reserved": 0, "lon": -76.99908983333333, "is_disabled": 0, "fusion_lat": 0.0, "lat": 38.924541166666664, "bike_id": "cfce6c5c40fc8e3c68b0a76e0ee497d9", "fusion_lon": 0.0}, {"rental_uris": {"ios": "https://dc.lft.to/lastmile_qr_scan", "android": "https://dc.lft.to/lastmile_qr_scan"}, "type": "electric_scooter", "name": "1f4b567dfd63390678e80e154c828550", "is_reserved": 0, "lon": -77.0313185, "is_disabled": 0, "fusion_lat": 0.0, "lat": 38.91705316666667, "bike_id": "1f4b567dfd63390678e80e154c828550", "fusion_lon": 0.0}, {"rental_uris": {"ios": "https://dc.lft.to/lastmile_qr_scan", "android": "https://dc.lft.to/lastmile_qr_scan"}, "type": "electric_scooter", "name": "c4744d7ac2af548633a7c97548f6f125", "is_reserved": 0, "lon": -76.98988733333333, "is_disabled": 0, "fusion_lat": 0.0, "lat": 38.9175935, "bike_id": "c4744d7ac2af548633a7c97548f6f125", "fusion_lon": 0.0}, {"rental_uris": {"ios": "https://dc.lft.to/lastmile_qr_scan", "android": "https://dc.lft.to/lastmile_qr_scan"}, "type": "electric_scooter", "name": "b75f951c52302bc2989ac7af4752ea0d", "is_reserved": 0, "lon": -77.04159883333334, "is_disabled": 0, "fusion_lat": 0.0, "lat": 38.91934066666666, "bike_id": "b75f951c52302bc2989ac7af4752ea0d", "fusion_lon": 0.0}, {"rental_uris": {"ios": "https://dc.lft.to/lastmile_qr_scan", "android": "https://dc.lft.to/lastmile_qr_scan"}, "type": "electric_scooter", "name": "98d67c8bd71a40c068eb6cd79241b232", "is_reserved": 0, "lon": -77.0302175, "is_disabled": 0, "fusion_lat": 0.0, "lat": 38.87846233333333, "bike_id": "98d67c8bd71a40c068eb6cd79241b232", "fusion_lon": 0.0}, {"rental_uris": {"ios": "https://dc.lft.to/lastmile_qr_scan", "android": "https://dc.lft.to/lastmile_qr_scan"}, "type": "electric_scooter", "name": "66bdc11eda8879d9a1ff2a208936ab0d", "is_reserved": 0, "lon": -77.0512285, "is_disabled": 0, "fusion_lat": 0.0, "lat": 38.90398416666667, "bike_id": "66bdc11eda8879d9a1ff2a208936ab0d", "fusion_lon": 0.0}, {"rental_uris": {"ios": "https://dc.lft.to/lastmile_qr_scan", "android": "https://dc.lft.to/lastmile_qr_scan"}, "type": "electric_scooter", "name": "4cbbe39532f8d64d0b81f72ea8c63de4", "is_reserved": 0, "lon": -77.02899033333334, "is_disabled": 0, "fusion_lat": 0.0, "lat": 38.917240166666666, "bike_id": "4cbbe39532f8d64d0b81f72ea8c63de4", "fusion_lon": 0.0}, {"rental_uris": {"ios": "https://dc.lft.to/lastmile_qr_scan", "android": "https://dc.lft.to/lastmile_qr_scan"}, "type": "electric_scooter", "name": "fad24b0512f189a006253cf6f3ea769d", "is_reserved": 0, "lon": -77.04596833333333, "is_disabled": 0, "fusion_lat": 0.0, "lat": 38.91619416666666, "bike_id": "fad24b0512f189a006253cf6f3ea769d", "fusion_lon": 0.0}, {"rental_uris": {"ios": "https://dc.lft.to/lastmile_qr_scan", "android": "https://dc.lft.to/lastmile_qr_scan"}, "type": "electric_scooter", "name": "2b406dcb07876ad63ed902c04f0f3b6f", "is_reserved": 0, "lon": -77.04931416666666, "is_disabled": 0, "fusion_lat": 0.0, "lat": 38.89981516666667, "bike_id": "2b406dcb07876ad63ed902c04f0f3b6f", "fusion_lon": 0.0}, {"rental_uris": {"ios": "https://dc.lft.to/lastmile_qr_scan", "android": "https://dc.lft.to/lastmile_qr_scan"}, "type": "electric_scooter", "name": "cb9a02620c0ffa8b673e7b4d88f38bcb", "is_reserved": 0, "lon": -77.04299933333333, "is_disabled": 0, "fusion_lat": 0.0, "lat": 38.905183666666666, "bike_id": "cb9a02620c0ffa8b673e7b4d88f38bcb", "fusion_lon": 0.0}, {"rental_uris": {"ios": "https://dc.lft.to/lastmile_qr_scan", "android": "https://dc.lft.to/lastmile_qr_scan"}, "type": "electric_scooter", "name": "c9c5a14e4b3661ebb96e83b69e0d3915", "is_reserved": 0, "lon": -76.9519385, "is_disabled": 0, "fusion_lat": 0.0, "lat": 38.9051195, "bike_id": "c9c5a14e4b3661ebb96e83b69e0d3915", "fusion_lon": 0.0}, {"rental_uris": {"ios": "https://dc.lft.to/lastmile_qr_scan", "android": "https://dc.lft.to/lastmile_qr_scan"}, "type": "electric_scooter", "name": "b3585760862686be25c00b053afac99c", "is_reserved": 0, "lon": -77.00507966666666, "is_disabled": 0, "fusion_lat": 0.0, "lat": 38.96047216666667, "bike_id": "b3585760862686be25c00b053afac99c", "fusion_lon": 0.0}, {"rental_uris": {"ios": "https://dc.lft.to/lastmile_qr_scan", "android": "https://dc.lft.to/lastmile_qr_scan"}, "type": "electric_scooter", "name": "998dabf8a207f47520d63936b86da2ad", "is_reserved": 0, "lon": -77.03200466666667, "is_disabled": 0, "fusion_lat": 0.0, "lat": 38.9159535, "bike_id": "998dabf8a207f47520d63936b86da2ad", "fusion_lon": 0.0}, {"rental_uris": {"ios": "https://dc.lft.to/lastmile_qr_scan", "android": "https://dc.lft.to/lastmile_qr_scan"}, "type": "electric_scooter", "name": "32c2aebfdf19ed4a6f8325cb628b9d28", "is_reserved": 0, "lon": -77.01353, "is_disabled": 0, "fusion_lat": 0.0, "lat": 38.89598133333333, "bike_id": "32c2aebfdf19ed4a6f8325cb628b9d28", "fusion_lon": 0.0}, {"rental_uris": {"ios": "https://dc.lft.to/lastmile_qr_scan", "android": "https://dc.lft.to/lastmile_qr_scan"}, "type": "electric_scooter", "name": "a4f426e332f9379f93628c40c93c4a08", "is_reserved": 0, "lon": -77.032065, "is_disabled": 0, "fusion_lat": 0.0, "lat": 38.912008, "bike_id": "a4f426e332f9379f93628c40c93c4a08", "fusion_lon": 0.0}, {"rental_uris": {"ios": "https://dc.lft.to/lastmile_qr_scan", "android": "https://dc.lft.to/lastmile_qr_scan"}, "type": "electric_scooter", "name": "a1e1b537654f876d6bc28d3618946626", "is_reserved": 0, "lon": -77.04399966666666, "is_disabled": 0, "fusion_lat": 0.0, "lat": 38.929538, "bike_id": "a1e1b537654f876d6bc28d3618946626", "fusion_lon": 0.0}, {"rental_uris": {"ios": "https://dc.lft.to/lastmile_qr_scan", "android": "https://dc.lft.to/lastmile_qr_scan"}, "type": "electric_scooter", "name": "b9610a798007940240083f11a394b087", "is_reserved": 0, "lon": -77.02067983333333, "is_disabled": 0, "fusion_lat": 0.0, "lat": 38.9269605, "bike_id": "b9610a798007940240083f11a394b087", "fusion_lon": 0.0}, {"rental_uris": {"ios": "https://dc.lft.to/lastmile_qr_scan", "android": "https://dc.lft.to/lastmile_qr_scan"}, "type": "electric_scooter", "name": "63d0ae1d24e298db36e7c743e3565d21", "is_reserved": 0, "lon": -77.03056966666666, "is_disabled": 0, "fusion_lat": 0.0, "lat": 38.90963216666667, "bike_id": "63d0ae1d24e298db36e7c743e3565d21", "fusion_lon": 0.0}, {"rental_uris": {"ios": "https://dc.lft.to/lastmile_qr_scan", "android": "https://dc.lft.to/lastmile_qr_scan"}, "type": "electric_scooter", "name": "d168874b2e7b60e3481618533175a299", "is_reserved": 0, "lon": -77.02129466666666, "is_disabled": 0, "fusion_lat": 0.0, "lat": 38.913244166666665, "bike_id": "d168874b2e7b60e3481618533175a299", "fusion_lon": 0.0}, {"rental_uris": {"ios": "https://dc.lft.to/lastmile_qr_scan", "android": "https://dc.lft.to/lastmile_qr_scan"}, "type": "electric_scooter", "name": "5d7d0c4d0abc63accf421e4b08b52305", "is_reserved": 0, "lon": -77.05593816666666, "is_disabled": 0, "fusion_lat": 0.0, "lat": 38.894232, "bike_id": "5d7d0c4d0abc63accf421e4b08b52305", "fusion_lon": 0.0}, {"rental_uris": {"ios": "https://dc.lft.to/lastmile_qr_scan", "android": "https://dc.lft.to/lastmile_qr_scan"}, "type": "electric_scooter", "name": "188aa44b167f9ab38bd70b6028e81484", "is_reserved": 0, "lon": -77.01356016666666, "is_disabled": 0, "fusion_lat": 0.0, "lat": 38.91939033333333, "bike_id": "188aa44b167f9ab38bd70b6028e81484", "fusion_lon": 0.0}, {"rental_uris": {"ios": "https://dc.lft.to/lastmile_qr_scan", "android": "https://dc.lft.to/lastmile_qr_scan"}, "type": "electric_scooter", "name": "41a302462132065d4c627e5be4c6b406", "is_reserved": 0, "lon": -77.04832833333333, "is_disabled": 0, "fusion_lat": 0.0, "lat": 38.912762666666666, "bike_id": "41a302462132065d4c627e5be4c6b406", "fusion_lon": 0.0}, {"rental_uris": {"ios": "https://dc.lft.to/lastmile_qr_scan", "android": "https://dc.lft.to/lastmile_qr_scan"}, "type": "electric_scooter", "name": "0ee3a57286aaf3773ff98288d346d791", "is_reserved": 0, "lon": -77.00407166666666, "is_disabled": 0, "fusion_lat": 0.0, "lat": 38.90780933333333, "bike_id": "0ee3a57286aaf3773ff98288d346d791", "fusion_lon": 0.0}, {"rental_uris": {"ios": "https://dc.lft.to/lastmile_qr_scan", "android": "https://dc.lft.to/lastmile_qr_scan"}, "type": "electric_scooter", "name": "7c3c513c4a2b17262b48c375109d33c6", "is_reserved": 0, "lon": -76.99152466666666, "is_disabled": 0, "fusion_lat": 0.0, "lat": 38.900318166666665, "bike_id": "7c3c513c4a2b17262b48c375109d33c6", "fusion_lon": 0.0}, {"rental_uris": {"ios": "https://dc.lft.to/lastmile_qr_scan", "android": "https://dc.lft.to/lastmile_qr_scan"}, "type": "electric_scooter", "name": "d936dc255a081c8a8bde66abc8398061", "is_reserved": 0, "lon": -77.0370625, "is_disabled": 0, "fusion_lat": 0.0, "lat": 38.928306166666665, "bike_id": "d936dc255a081c8a8bde66abc8398061", "fusion_lon": 0.0}, {"rental_uris": {"ios": "https://dc.lft.to/lastmile_qr_scan", "android": "https://dc.lft.to/lastmile_qr_scan"}, "type": "electric_scooter", "name": "fa4087d7346f0ce5dcf8cff376c52b23", "is_reserved": 0, "lon": -77.01016616666666, "is_disabled": 0, "fusion_lat": 0.0, "lat": 38.914053333333335, "bike_id": "fa4087d7346f0ce5dcf8cff376c52b23", "fusion_lon": 0.0}, {"rental_uris": {"ios": "https://dc.lft.to/lastmile_qr_scan", "android": "https://dc.lft.to/lastmile_qr_scan"}, "type": "electric_scooter", "name": "8f62c730df73b61f917bbc2198cba83d", "is_reserved": 0, "lon": -77.02691116666666, "is_disabled": 0, "fusion_lat": 0.0, "lat": 38.91148166666667, "bike_id": "8f62c730df73b61f917bbc2198cba83d", "fusion_lon": 0.0}, {"rental_uris": {"ios": "https://dc.lft.to/lastmile_qr_scan", "android": "https://dc.lft.to/lastmile_qr_scan"}, "type": "electric_scooter", "name": "4ae76dc40bdf9016e36751f154ebf431", "is_reserved": 0, "lon": -77.01982883333334, "is_disabled": 0, "fusion_lat": 0.0, "lat": 38.89827116666667, "bike_id": "4ae76dc40bdf9016e36751f154ebf431", "fusion_lon": 0.0}, {"rental_uris": {"ios": "https://dc.lft.to/lastmile_qr_scan", "android": "https://dc.lft.to/lastmile_qr_scan"}, "type": "electric_scooter", "name": "df578924559f56e8b7347ad134ed8e30", "is_reserved": 0, "lon": -77.032829, "is_disabled": 0, "fusion_lat": 0.0, "lat": 38.924436666666665, "bike_id": "df578924559f56e8b7347ad134ed8e30", "fusion_lon": 0.0}, {"rental_uris": {"ios": "https://dc.lft.to/lastmile_qr_scan", "android": "https://dc.lft.to/lastmile_qr_scan"}, "type": "electric_scooter", "name": "6cfdbf98c7e7fadca96a1b234cb6be2a", "is_reserved": 0, "lon": -77.02972383333334, "is_disabled": 0, "fusion_lat": 0.0, "lat": 38.892181, "bike_id": "6cfdbf98c7e7fadca96a1b234cb6be2a", "fusion_lon": 0.0}, {"rental_uris": {"ios": "https://dc.lft.to/lastmile_qr_scan", "android": "https://dc.lft.to/lastmile_qr_scan"}, "type": "electric_scooter", "name": "b860782a0efe9c40f3741661913f0ba0", "is_reserved": 0, "lon": -77.0380865, "is_disabled": 0, "fusion_lat": 0.0, "lat": 38.91421583333333, "bike_id": "b860782a0efe9c40f3741661913f0ba0", "fusion_lon": 0.0}, {"rental_uris": {"ios": "https://dc.lft.to/lastmile_qr_scan", "android": "https://dc.lft.to/lastmile_qr_scan"}, "type": "electric_scooter", "name": "12c84cbb82336c74f84aab4d5c581cf3", "is_reserved": 0, "lon": -77.0337125, "is_disabled": 0, "fusion_lat": 0.0, "lat": 38.93072566666667, "bike_id": "12c84cbb82336c74f84aab4d5c581cf3", "fusion_lon": 0.0}, {"rental_uris": {"ios": "https://dc.lft.to/lastmile_qr_scan", "android": "https://dc.lft.to/lastmile_qr_scan"}, "type": "electric_scooter", "name": "a49fe2c3a09b45d8d4fc8da756737bef", "is_reserved": 0, "lon": -77.02695816666666, "is_disabled": 0, "fusion_lat": 0.0, "lat": 38.97244416666667, "bike_id": "a49fe2c3a09b45d8d4fc8da756737bef", "fusion_lon": 0.0}, {"rental_uris": {"ios": "https://dc.lft.to/lastmile_qr_scan", "android": "https://dc.lft.to/lastmile_qr_scan"}, "type": "electric_scooter", "name": "084b1ffeb3937d440a28bfd5519ad9ef", "is_reserved": 0, "lon": -76.94196383333333, "is_disabled": 0, "fusion_lat": 0.0, "lat": 38.902247833333334, "bike_id": "084b1ffeb3937d440a28bfd5519ad9ef", "fusion_lon": 0.0}, {"rental_uris": {"ios": "https://dc.lft.to/lastmile_qr_scan", "android": "https://dc.lft.to/lastmile_qr_scan"}, "type": "electric_scooter", "name": "3ed33fc7f70ec9a778212a171c88bb9b", "is_reserved": 0, "lon": -77.03656, "is_disabled": 0, "fusion_lat": 0.0, "lat": 38.921321666666664, "bike_id": "3ed33fc7f70ec9a778212a171c88bb9b", "fusion_lon": 0.0}, {"rental_uris": {"ios": "https://dc.lft.to/lastmile_qr_scan", "android": "https://dc.lft.to/lastmile_qr_scan"}, "type": "electric_scooter", "name": "248add480c3d62960b35adf84c7aa50d", "is_reserved": 0, "lon": -77.07557, "is_disabled": 0, "fusion_lat": 0.0, "lat": 38.92084033333333, "bike_id": "248add480c3d62960b35adf84c7aa50d", "fusion_lon": 0.0}, {"rental_uris": {"ios": "https://dc.lft.to/lastmile_qr_scan", "android": "https://dc.lft.to/lastmile_qr_scan"}, "type": "electric_scooter", "name": "4bb88dc87f0b808acb8529adf75a996a", "is_reserved": 0, "lon": -77.06007583333333, "is_disabled": 0, "fusion_lat": 0.0, "lat": 38.903916, "bike_id": "4bb88dc87f0b808acb8529adf75a996a", "fusion_lon": 0.0}, {"rental_uris": {"ios": "https://dc.lft.to/lastmile_qr_scan", "android": "https://dc.lft.to/lastmile_qr_scan"}, "type": "electric_scooter", "name": "7b1913c717a797ff8a8e9bcfbe261ab4", "is_reserved": 0, "lon": -77.02325566666667, "is_disabled": 0, "fusion_lat": 0.0, "lat": 38.89746316666667, "bike_id": "7b1913c717a797ff8a8e9bcfbe261ab4", "fusion_lon": 0.0}, {"rental_uris": {"ios": "https://dc.lft.to/lastmile_qr_scan", "android": "https://dc.lft.to/lastmile_qr_scan"}, "type": "electric_scooter", "name": "4aaa91e6be457281ded101ebc55c79a4", "is_reserved": 0, "lon": -77.03272533333333, "is_disabled": 0, "fusion_lat": 0.0, "lat": 38.90552233333333, "bike_id": "4aaa91e6be457281ded101ebc55c79a4", "fusion_lon": 0.0}, {"rental_uris": {"ios": "https://dc.lft.to/lastmile_qr_scan", "android": "https://dc.lft.to/lastmile_qr_scan"}, "type": "electric_scooter", "name": "a8ada6cb3b6174cfeb4e3304b4c8e80c", "is_reserved": 0, "lon": -77.00194816666666, "is_disabled": 0, "fusion_lat": 0.0, "lat": 38.90232066666667, "bike_id": "a8ada6cb3b6174cfeb4e3304b4c8e80c", "fusion_lon": 0.0}, {"rental_uris": {"ios": "https://dc.lft.to/lastmile_qr_scan", "android": "https://dc.lft.to/lastmile_qr_scan"}, "type": "electric_scooter", "name": "b1eba305fd7cc861c54e913f7f5cea16", "is_reserved": 0, "lon": -77.0183035, "is_disabled": 0, "fusion_lat": 0.0, "lat": 38.922302333333334, "bike_id": "b1eba305fd7cc861c54e913f7f5cea16", "fusion_lon": 0.0}, {"rental_uris": {"ios": "https://dc.lft.to/lastmile_qr_scan", "android": "https://dc.lft.to/lastmile_qr_scan"}, "type": "electric_scooter", "name": "f5ce1a024f661f96f10c7d500a3c712c", "is_reserved": 0, "lon": -77.031835, "is_disabled": 0, "fusion_lat": 0.0, "lat": 38.91710233333333, "bike_id": "f5ce1a024f661f96f10c7d500a3c712c", "fusion_lon": 0.0}, {"rental_uris": {"ios": "https://dc.lft.to/lastmile_qr_scan", "android": "https://dc.lft.to/lastmile_qr_scan"}, "type": "electric_scooter", "name": "4406825c732564edf91e38d832080e8b", "is_reserved": 0, "lon": -76.99455933333333, "is_disabled": 0, "fusion_lat": 0.0, "lat": 38.905489833333334, "bike_id": "4406825c732564edf91e38d832080e8b", "fusion_lon": 0.0}, {"rental_uris": {"ios": "https://dc.lft.to/lastmile_qr_scan", "android": "https://dc.lft.to/lastmile_qr_scan"}, "type": "electric_scooter", "name": "f49df56b29ec5a1134e4b69fc4e2edb5", "is_reserved": 0, "lon": -77.02144, "is_disabled": 0, "fusion_lat": 0.0, "lat": 38.903066333333335, "bike_id": "f49df56b29ec5a1134e4b69fc4e2edb5", "fusion_lon": 0.0}, {"rental_uris": {"ios": "https://dc.lft.to/lastmile_qr_scan", "android": "https://dc.lft.to/lastmile_qr_scan"}, "type": "electric_scooter", "name": "09974dc21e716e27b7730dddc52c4c1e", "is_reserved": 0, "lon": -77.03464316666667, "is_disabled": 0, "fusion_lat": 0.0, "lat": 38.90718116666667, "bike_id": "09974dc21e716e27b7730dddc52c4c1e", "fusion_lon": 0.0}, {"rental_uris": {"ios": "https://dc.lft.to/lastmile_qr_scan", "android": "https://dc.lft.to/lastmile_qr_scan"}, "type": "electric_scooter", "name": "dcd2f1ce28f2294a15287c979868547c", "is_reserved": 0, "lon": -77.03842633333333, "is_disabled": 0, "fusion_lat": 0.0, "lat": 38.9126675, "bike_id": "dcd2f1ce28f2294a15287c979868547c", "fusion_lon": 0.0}, {"rental_uris": {"ios": "https://dc.lft.to/lastmile_qr_scan", "android": "https://dc.lft.to/lastmile_qr_scan"}, "type": "electric_scooter", "name": "b61b5972d7ab7bbf9040c11fa70fbdc8", "is_reserved": 0, "lon": -76.99616633333333, "is_disabled": 0, "fusion_lat": 0.0, "lat": 38.8772725, "bike_id": "b61b5972d7ab7bbf9040c11fa70fbdc8", "fusion_lon": 0.0}, {"rental_uris": {"ios": "https://dc.lft.to/lastmile_qr_scan", "android": "https://dc.lft.to/lastmile_qr_scan"}, "type": "electric_scooter", "name": "972fb4ee611e26fd8e1d72b2b3e0cd9b", "is_reserved": 0, "lon": -77.00043483333333, "is_disabled": 0, "fusion_lat": 0.0, "lat": 38.87492733333333, "bike_id": "972fb4ee611e26fd8e1d72b2b3e0cd9b", "fusion_lon": 0.0}, {"rental_uris": {"ios": "https://dc.lft.to/lastmile_qr_scan", "android": "https://dc.lft.to/lastmile_qr_scan"}, "type": "electric_scooter", "name": "9e9877c410ab6eea5aedf541ce3ffd0e", "is_reserved": 0, "lon": -77.0380215, "is_disabled": 0, "fusion_lat": 0.0, "lat": 38.91039333333333, "bike_id": "9e9877c410ab6eea5aedf541ce3ffd0e", "fusion_lon": 0.0}, {"rental_uris": {"ios": "https://dc.lft.to/lastmile_qr_scan", "android": "https://dc.lft.to/lastmile_qr_scan"}, "type": "electric_bike", "name": "055ec9b5729b752053dfcb94d5e80b48", "is_reserved": 0, "lon": -76.93332466666666, "is_disabled": 0, "fusion_lat": 0.0, "lat": 38.95155416666667, "bike_id": "055ec9b5729b752053dfcb94d5e80b48", "fusion_lon": 0.0}, {"rental_uris": {"ios": "https://dc.lft.to/lastmile_qr_scan", "android": "https://dc.lft.to/lastmile_qr_scan"}, "type": "electric_scooter", "name": "5b4e40191a5a5516d650ce956415e745", "is_reserved": 0, "lon": -77.0383415, "is_disabled": 0, "fusion_lat": 0.0, "lat": 38.91181183333333, "bike_id": "5b4e40191a5a5516d650ce956415e745", "fusion_lon": 0.0}, {"rental_uris": {"ios": "https://dc.lft.to/lastmile_qr_scan", "android": "https://dc.lft.to/lastmile_qr_scan"}, "type": "electric_bike", "name": "62dd480b9326ece3d562dd0fb644dfa0", "is_reserved": 0, "lon": -77.0701325, "is_disabled": 0, "fusion_lat": 0.0, "lat": 38.841081333333335, "bike_id": "62dd480b9326ece3d562dd0fb644dfa0", "fusion_lon": 0.0}, {"rental_uris": {"ios": "https://dc.lft.to/lastmile_qr_scan", "android": "https://dc.lft.to/lastmile_qr_scan"}, "type": "electric_scooter", "name": "f1ab6865f245d762316474db2bb73b03", "is_reserved": 0, "lon": -76.94382166666666, "is_disabled": 0, "fusion_lat": 0.0, "lat": 38.89116333333333, "bike_id": "f1ab6865f245d762316474db2bb73b03", "fusion_lon": 0.0}, {"rental_uris": {"ios": "https://dc.lft.to/lastmile_qr_scan", "android": "https://dc.lft.to/lastmile_qr_scan"}, "type": "electric_scooter", "name": "5b343c31eea3111a5b62ebec4ad63c32", "is_reserved": 0, "lon": -77.0215665, "is_disabled": 0, "fusion_lat": 0.0, "lat": 38.894215833333334, "bike_id": "5b343c31eea3111a5b62ebec4ad63c32", "fusion_lon": 0.0}, {"rental_uris": {"ios": "https://dc.lft.to/lastmile_qr_scan", "android": "https://dc.lft.to/lastmile_qr_scan"}, "type": "electric_scooter", "name": "2bd90a5929ca1f1e149fa63464c87ba7", "is_reserved": 0, "lon": -77.07321433333334, "is_disabled": 0, "fusion_lat": 0.0, "lat": 38.907606, "bike_id": "2bd90a5929ca1f1e149fa63464c87ba7", "fusion_lon": 0.0}, {"rental_uris": {"ios": "https://dc.lft.to/lastmile_qr_scan", "android": "https://dc.lft.to/lastmile_qr_scan"}, "type": "electric_scooter", "name": "a194db037d80c942b0c33082ba5a58d6", "is_reserved": 0, "lon": -77.04407183333333, "is_disabled": 0, "fusion_lat": 0.0, "lat": 38.929589166666666, "bike_id": "a194db037d80c942b0c33082ba5a58d6", "fusion_lon": 0.0}, {"rental_uris": {"ios": "https://dc.lft.to/lastmile_qr_scan", "android": "https://dc.lft.to/lastmile_qr_scan"}, "type": "electric_scooter", "name": "0134dd789a13324ab823b8a9ddbb81df", "is_reserved": 0, "lon": -77.01428916666667, "is_disabled": 0, "fusion_lat": 0.0, "lat": 38.887442, "bike_id": "0134dd789a13324ab823b8a9ddbb81df", "fusion_lon": 0.0}, {"rental_uris": {"ios": "https://dc.lft.to/lastmile_qr_scan", "android": "https://dc.lft.to/lastmile_qr_scan"}, "type": "electric_scooter", "name": "042a179024660f1142767604bd2a0426", "is_reserved": 0, "lon": -77.038334, "is_disabled": 0, "fusion_lat": 0.0, "lat": 38.91187383333333, "bike_id": "042a179024660f1142767604bd2a0426", "fusion_lon": 0.0}, {"rental_uris": {"ios": "https://dc.lft.to/lastmile_qr_scan", "android": "https://dc.lft.to/lastmile_qr_scan"}, "type": "electric_scooter", "name": "68b9ff154adcf307285c847c873c6a08", "is_reserved": 0, "lon": -77.006826, "is_disabled": 0, "fusion_lat": 0.0, "lat": 38.884274, "bike_id": "68b9ff154adcf307285c847c873c6a08", "fusion_lon": 0.0}, {"rental_uris": {"ios": "https://dc.lft.to/lastmile_qr_scan", "android": "https://dc.lft.to/lastmile_qr_scan"}, "type": "electric_scooter", "name": "f14829989c3cd07d5bfbb3cf1e13627a", "is_reserved": 0, "lon": -77.02237733333334, "is_disabled": 0, "fusion_lat": 0.0, "lat": 38.905738, "bike_id": "f14829989c3cd07d5bfbb3cf1e13627a", "fusion_lon": 0.0}, {"rental_uris": {"ios": "https://dc.lft.to/lastmile_qr_scan", "android": "https://dc.lft.to/lastmile_qr_scan"}, "type": "electric_scooter", "name": "db109912587ba2a73d25517fee686569", "is_reserved": 0, "lon": -77.07518283333333, "is_disabled": 0, "fusion_lat": 0.0, "lat": 38.939437833333336, "bike_id": "db109912587ba2a73d25517fee686569", "fusion_lon": 0.0}, {"rental_uris": {"ios": "https://dc.lft.to/lastmile_qr_scan", "android": "https://dc.lft.to/lastmile_qr_scan"}, "type": "electric_scooter", "name": "75351a9cb63b3d0b371ab88fad039a50", "is_reserved": 0, "lon": -77.0280695, "is_disabled": 0, "fusion_lat": 0.0, "lat": 38.92320383333333, "bike_id": "75351a9cb63b3d0b371ab88fad039a50", "fusion_lon": 0.0}, {"rental_uris": {"ios": "https://dc.lft.to/lastmile_qr_scan", "android": "https://dc.lft.to/lastmile_qr_scan"}, "type": "electric_scooter", "name": "27cc9e0fc2cbb69ad8468c2fe5ae1edb", "is_reserved": 0, "lon": -77.07289516666667, "is_disabled": 0, "fusion_lat": 0.0, "lat": 38.894319333333335, "bike_id": "27cc9e0fc2cbb69ad8468c2fe5ae1edb", "fusion_lon": 0.0}, {"rental_uris": {"ios": "https://dc.lft.to/lastmile_qr_scan", "android": "https://dc.lft.to/lastmile_qr_scan"}, "type": "electric_scooter", "name": "7f1b07a68a109389c04530cf73d548df", "is_reserved": 0, "lon": -77.03792833333333, "is_disabled": 0, "fusion_lat": 0.0, "lat": 38.915455333333334, "bike_id": "7f1b07a68a109389c04530cf73d548df", "fusion_lon": 0.0}, {"rental_uris": {"ios": "https://dc.lft.to/lastmile_qr_scan", "android": "https://dc.lft.to/lastmile_qr_scan"}, "type": "electric_scooter", "name": "78abc50ad273d710785de541cfbe48a6", "is_reserved": 0, "lon": -77.02677083333333, "is_disabled": 0, "fusion_lat": 0.0, "lat": 38.89957233333333, "bike_id": "78abc50ad273d710785de541cfbe48a6", "fusion_lon": 0.0}, {"rental_uris": {"ios": "https://dc.lft.to/lastmile_qr_scan", "android": "https://dc.lft.to/lastmile_qr_scan"}, "type": "electric_scooter", "name": "dd973fb2d8c0f349581081d0aa79ab34", "is_reserved": 0, "lon": -77.0060405, "is_disabled": 0, "fusion_lat": 0.0, "lat": 38.918002333333334, "bike_id": "dd973fb2d8c0f349581081d0aa79ab34", "fusion_lon": 0.0}, {"rental_uris": {"ios": "https://dc.lft.to/lastmile_qr_scan", "android": "https://dc.lft.to/lastmile_qr_scan"}, "type": "electric_scooter", "name": "a314da4d2398b9db1d1f94a7629508ca", "is_reserved": 0, "lon": -76.99529366666667, "is_disabled": 0, "fusion_lat": 0.0, "lat": 38.86268283333333, "bike_id": "a314da4d2398b9db1d1f94a7629508ca", "fusion_lon": 0.0}, {"rental_uris": {"ios": "https://dc.lft.to/lastmile_qr_scan", "android": "https://dc.lft.to/lastmile_qr_scan"}, "type": "electric_scooter", "name": "69e0fe781fa16647317ffad990a1a24e", "is_reserved": 0, "lon": -77.02504766666667, "is_disabled": 0, "fusion_lat": 0.0, "lat": 38.903407666666666, "bike_id": "69e0fe781fa16647317ffad990a1a24e", "fusion_lon": 0.0}, {"rental_uris": {"ios": "https://dc.lft.to/lastmile_qr_scan", "android": "https://dc.lft.to/lastmile_qr_scan"}, "type": "electric_scooter", "name": "0dcb43507112d560e4e6d7651d82c3ab", "is_reserved": 0, "lon": -77.05930783333334, "is_disabled": 0, "fusion_lat": 0.0, "lat": 38.94325416666667, "bike_id": "0dcb43507112d560e4e6d7651d82c3ab", "fusion_lon": 0.0}, {"rental_uris": {"ios": "https://dc.lft.to/lastmile_qr_scan", "android": "https://dc.lft.to/lastmile_qr_scan"}, "type": "electric_bike", "name": "9398f1d6219268697f0591f9566fcc9e", "is_reserved": 0, "lon": -77.234118, "is_disabled": 0, "fusion_lat": 0.0, "lat": 38.87585266666667, "bike_id": "9398f1d6219268697f0591f9566fcc9e", "fusion_lon": 0.0}, {"rental_uris": {"ios": "https://dc.lft.to/lastmile_qr_scan", "android": "https://dc.lft.to/lastmile_qr_scan"}, "type": "electric_scooter", "name": "6b7200f2cf319205730c18738a91a869", "is_reserved": 0, "lon": -76.97619666666667, "is_disabled": 0, "fusion_lat": 0.0, "lat": 38.905602, "bike_id": "6b7200f2cf319205730c18738a91a869", "fusion_lon": 0.0}, {"rental_uris": {"ios": "https://dc.lft.to/lastmile_qr_scan", "android": "https://dc.lft.to/lastmile_qr_scan"}, "type": "electric_scooter", "name": "526df9139e8bc35b4804a513c57b2cc5", "is_reserved": 0, "lon": -77.05820033333333, "is_disabled": 0, "fusion_lat": 0.0, "lat": 38.9051545, "bike_id": "526df9139e8bc35b4804a513c57b2cc5", "fusion_lon": 0.0}, {"rental_uris": {"ios": "https://dc.lft.to/lastmile_qr_scan", "android": "https://dc.lft.to/lastmile_qr_scan"}, "type": "electric_scooter", "name": "96cd81e7fe8b0336507144870e4f3f19", "is_reserved": 0, "lon": -77.07301283333334, "is_disabled": 0, "fusion_lat": 0.0, "lat": 38.9302415, "bike_id": "96cd81e7fe8b0336507144870e4f3f19", "fusion_lon": 0.0}, {"rental_uris": {"ios": "https://dc.lft.to/lastmile_qr_scan", "android": "https://dc.lft.to/lastmile_qr_scan"}, "type": "electric_scooter", "name": "a5a7eef07bd54f5a9a5490af5965dc17", "is_reserved": 0, "lon": -77.0494355, "is_disabled": 0, "fusion_lat": 0.0, "lat": 38.92020466666666, "bike_id": "a5a7eef07bd54f5a9a5490af5965dc17", "fusion_lon": 0.0}, {"rental_uris": {"ios": "https://dc.lft.to/lastmile_qr_scan", "android": "https://dc.lft.to/lastmile_qr_scan"}, "type": "electric_scooter", "name": "cf5762401547a5c17626d6e54c69a132", "is_reserved": 0, "lon": -77.026003, "is_disabled": 0, "fusion_lat": 0.0, "lat": 38.898249, "bike_id": "cf5762401547a5c17626d6e54c69a132", "fusion_lon": 0.0}, {"rental_uris": {"ios": "https://dc.lft.to/lastmile_qr_scan", "android": "https://dc.lft.to/lastmile_qr_scan"}, "type": "electric_scooter", "name": "03bb9bb7c7a10214450ecca8ef95c4c4", "is_reserved": 0, "lon": -77.01512433333333, "is_disabled": 0, "fusion_lat": 0.0, "lat": 38.90136833333333, "bike_id": "03bb9bb7c7a10214450ecca8ef95c4c4", "fusion_lon": 0.0}, {"rental_uris": {"ios": "https://dc.lft.to/lastmile_qr_scan", "android": "https://dc.lft.to/lastmile_qr_scan"}, "type": "electric_scooter", "name": "4f648af237053f7b899a5ffe4f63a65e", "is_reserved": 0, "lon": -77.02758483333334, "is_disabled": 0, "fusion_lat": 0.0, "lat": 38.91344333333333, "bike_id": "4f648af237053f7b899a5ffe4f63a65e", "fusion_lon": 0.0}, {"rental_uris": {"ios": "https://dc.lft.to/lastmile_qr_scan", "android": "https://dc.lft.to/lastmile_qr_scan"}, "type": "electric_scooter", "name": "44b14eab4f336da2764dac2c2f990b59", "is_reserved": 0, "lon": -77.05002266666666, "is_disabled": 0, "fusion_lat": 0.0, "lat": 38.892259833333334, "bike_id": "44b14eab4f336da2764dac2c2f990b59", "fusion_lon": 0.0}, {"rental_uris": {"ios": "https://dc.lft.to/lastmile_qr_scan", "android": "https://dc.lft.to/lastmile_qr_scan"}, "type": "electric_scooter", "name": "bc47e69c14caf8ce054918b27aa3e623", "is_reserved": 0, "lon": -77.04041433333333, "is_disabled": 0, "fusion_lat": 0.0, "lat": 38.9244835, "bike_id": "bc47e69c14caf8ce054918b27aa3e623", "fusion_lon": 0.0}, {"rental_uris": {"ios": "https://dc.lft.to/lastmile_qr_scan", "android": "https://dc.lft.to/lastmile_qr_scan"}, "type": "electric_scooter", "name": "ec7cb7b26f87050ee35749e645cd9fa3", "is_reserved": 0, "lon": -76.94326583333333, "is_disabled": 0, "fusion_lat": 0.0, "lat": 38.87912633333333, "bike_id": "ec7cb7b26f87050ee35749e645cd9fa3", "fusion_lon": 0.0}, {"rental_uris": {"ios": "https://dc.lft.to/lastmile_qr_scan", "android": "https://dc.lft.to/lastmile_qr_scan"}, "type": "electric_scooter", "name": "3be41c9b947cf944a752ac39419e8882", "is_reserved": 0, "lon": -77.04231083333333, "is_disabled": 0, "fusion_lat": 0.0, "lat": 38.909773, "bike_id": "3be41c9b947cf944a752ac39419e8882", "fusion_lon": 0.0}, {"rental_uris": {"ios": "https://dc.lft.to/lastmile_qr_scan", "android": "https://dc.lft.to/lastmile_qr_scan"}, "type": "electric_scooter", "name": "5f0cb66330f0599d8f80f61025f11034", "is_reserved": 0, "lon": -77.0278415, "is_disabled": 0, "fusion_lat": 0.0, "lat": 38.897816, "bike_id": "5f0cb66330f0599d8f80f61025f11034", "fusion_lon": 0.0}, {"rental_uris": {"ios": "https://dc.lft.to/lastmile_qr_scan", "android": "https://dc.lft.to/lastmile_qr_scan"}, "type": "electric_bike", "name": "e809c1d3d66a0e7b2f55fae99dc433d3", "is_reserved": 0, "lon": -77.0724105, "is_disabled": 0, "fusion_lat": 0.0, "lat": 38.81364883333333, "bike_id": "e809c1d3d66a0e7b2f55fae99dc433d3", "fusion_lon": 0.0}, {"rental_uris": {"ios": "https://dc.lft.to/lastmile_qr_scan", "android": "https://dc.lft.to/lastmile_qr_scan"}, "type": "electric_scooter", "name": "f2f0b406a2bd22bf415dedbea51aaa2f", "is_reserved": 0, "lon": -77.04410066666667, "is_disabled": 0, "fusion_lat": 0.0, "lat": 38.92585, "bike_id": "f2f0b406a2bd22bf415dedbea51aaa2f", "fusion_lon": 0.0}, {"rental_uris": {"ios": "https://dc.lft.to/lastmile_qr_scan", "android": "https://dc.lft.to/lastmile_qr_scan"}, "type": "electric_scooter", "name": "29650283d3e0e0bcad02ad38ad6cf526", "is_reserved": 0, "lon": -76.985698, "is_disabled": 0, "fusion_lat": 0.0, "lat": 38.896189166666666, "bike_id": "29650283d3e0e0bcad02ad38ad6cf526", "fusion_lon": 0.0}, {"rental_uris": {"ios": "https://dc.lft.to/lastmile_qr_scan", "android": "https://dc.lft.to/lastmile_qr_scan"}, "type": "electric_scooter", "name": "b89690b79a98477ba4c119356d8d7b5c", "is_reserved": 0, "lon": -77.0351265, "is_disabled": 0, "fusion_lat": 0.0, "lat": 38.90963566666667, "bike_id": "b89690b79a98477ba4c119356d8d7b5c", "fusion_lon": 0.0}, {"rental_uris": {"ios": "https://dc.lft.to/lastmile_qr_scan", "android": "https://dc.lft.to/lastmile_qr_scan"}, "type": "electric_scooter", "name": "9ed846ced7aa2a9c76bb7b80fe9fe93a", "is_reserved": 0, "lon": -77.025949, "is_disabled": 0, "fusion_lat": 0.0, "lat": 38.91452616666667, "bike_id": "9ed846ced7aa2a9c76bb7b80fe9fe93a", "fusion_lon": 0.0}, {"rental_uris": {"ios": "https://dc.lft.to/lastmile_qr_scan", "android": "https://dc.lft.to/lastmile_qr_scan"}, "type": "electric_scooter", "name": "762aaf88bc819bcf5bd5396e2ac57cf7", "is_reserved": 0, "lon": -77.028155, "is_disabled": 0, "fusion_lat": 0.0, "lat": 38.92380933333333, "bike_id": "762aaf88bc819bcf5bd5396e2ac57cf7", "fusion_lon": 0.0}, {"rental_uris": {"ios": "https://dc.lft.to/lastmile_qr_scan", "android": "https://dc.lft.to/lastmile_qr_scan"}, "type": "electric_scooter", "name": "e0b9aba235e5c4ab795078ca193edfb7", "is_reserved": 0, "lon": -77.003574, "is_disabled": 0, "fusion_lat": 0.0, "lat": 38.87759833333333, "bike_id": "e0b9aba235e5c4ab795078ca193edfb7", "fusion_lon": 0.0}, {"rental_uris": {"ios": "https://dc.lft.to/lastmile_qr_scan", "android": "https://dc.lft.to/lastmile_qr_scan"}, "type": "electric_scooter", "name": "a885a3f9f40e942645930a93db47ccc8", "is_reserved": 0, "lon": -77.03582383333334, "is_disabled": 0, "fusion_lat": 0.0, "lat": 38.9103845, "bike_id": "a885a3f9f40e942645930a93db47ccc8", "fusion_lon": 0.0}, {"rental_uris": {"ios": "https://dc.lft.to/lastmile_qr_scan", "android": "https://dc.lft.to/lastmile_qr_scan"}, "type": "electric_scooter", "name": "b02cfb5ab97546e3ae00be4a3c303191", "is_reserved": 0, "lon": -77.04199383333334, "is_disabled": 0, "fusion_lat": 0.0, "lat": 38.90594266666667, "bike_id": "b02cfb5ab97546e3ae00be4a3c303191", "fusion_lon": 0.0}, {"rental_uris": {"ios": "https://dc.lft.to/lastmile_qr_scan", "android": "https://dc.lft.to/lastmile_qr_scan"}, "type": "electric_bike", "name": "3b3b7635d54c6ba276ee0cc516909e0c", "is_reserved": 0, "lon": -77.04071883333333, "is_disabled": 0, "fusion_lat": 0.0, "lat": 38.99381433333333, "bike_id": "3b3b7635d54c6ba276ee0cc516909e0c", "fusion_lon": 0.0}, {"rental_uris": {"ios": "https://dc.lft.to/lastmile_qr_scan", "android": "https://dc.lft.to/lastmile_qr_scan"}, "type": "electric_scooter", "name": "17a4dd18426164a6857eda33cf3aad12", "is_reserved": 0, "lon": -77.0308365, "is_disabled": 0, "fusion_lat": 0.0, "lat": 38.92252216666667, "bike_id": "17a4dd18426164a6857eda33cf3aad12", "fusion_lon": 0.0}, {"rental_uris": {"ios": "https://dc.lft.to/lastmile_qr_scan", "android": "https://dc.lft.to/lastmile_qr_scan"}, "type": "electric_bike", "name": "7d6c6c55d99b9ae92dfcca2453657529", "is_reserved": 0, "lon": -76.98813066666666, "is_disabled": 0, "fusion_lat": 0.0, "lat": 38.8427495, "bike_id": "7d6c6c55d99b9ae92dfcca2453657529", "fusion_lon": 0.0}, {"rental_uris": {"ios": "https://dc.lft.to/lastmile_qr_scan", "android": "https://dc.lft.to/lastmile_qr_scan"}, "type": "electric_scooter", "name": "4422f80f3a0f3502a2ef746cb62980e4", "is_reserved": 0, "lon": -77.02628683333333, "is_disabled": 0, "fusion_lat": 0.0, "lat": 38.88395916666666, "bike_id": "4422f80f3a0f3502a2ef746cb62980e4", "fusion_lon": 0.0}, {"rental_uris": {"ios": "https://dc.lft.to/lastmile_qr_scan", "android": "https://dc.lft.to/lastmile_qr_scan"}, "type": "electric_scooter", "name": "6f615e2fb2dfdf9a745cc6d6b412146b", "is_reserved": 0, "lon": -77.02757, "is_disabled": 0, "fusion_lat": 0.0, "lat": 38.9296765, "bike_id": "6f615e2fb2dfdf9a745cc6d6b412146b", "fusion_lon": 0.0}, {"rental_uris": {"ios": "https://dc.lft.to/lastmile_qr_scan", "android": "https://dc.lft.to/lastmile_qr_scan"}, "type": "electric_scooter", "name": "a3931b7c188235c1148f111d1bc34fb1", "is_reserved": 0, "lon": -77.02758716666666, "is_disabled": 0, "fusion_lat": 0.0, "lat": 38.91342783333333, "bike_id": "a3931b7c188235c1148f111d1bc34fb1", "fusion_lon": 0.0}, {"rental_uris": {"ios": "https://dc.lft.to/lastmile_qr_scan", "android": "https://dc.lft.to/lastmile_qr_scan"}, "type": "electric_scooter", "name": "b6d341eef5d69167e5d908ae72972ac0", "is_reserved": 0, "lon": -77.007567, "is_disabled": 0, "fusion_lat": 0.0, "lat": 38.90395083333333, "bike_id": "b6d341eef5d69167e5d908ae72972ac0", "fusion_lon": 0.0}, {"rental_uris": {"ios": "https://dc.lft.to/lastmile_qr_scan", "android": "https://dc.lft.to/lastmile_qr_scan"}, "type": "electric_scooter", "name": "c79e598de620129d3f596af37ce52dca", "is_reserved": 0, "lon": -77.0195275, "is_disabled": 0, "fusion_lat": 0.0, "lat": 38.9225865, "bike_id": "c79e598de620129d3f596af37ce52dca", "fusion_lon": 0.0}, {"rental_uris": {"ios": "https://dc.lft.to/lastmile_qr_scan", "android": "https://dc.lft.to/lastmile_qr_scan"}, "type": "electric_scooter", "name": "8f7e426571e314cbd707ea2c69e6ce6b", "is_reserved": 0, "lon": -77.05524133333333, "is_disabled": 0, "fusion_lat": 0.0, "lat": 38.930046833333336, "bike_id": "8f7e426571e314cbd707ea2c69e6ce6b", "fusion_lon": 0.0}, {"rental_uris": {"ios": "https://dc.lft.to/lastmile_qr_scan", "android": "https://dc.lft.to/lastmile_qr_scan"}, "type": "electric_scooter", "name": "f74c78273813e7726df36393ca2fb31b", "is_reserved": 0, "lon": -77.006106, "is_disabled": 0, "fusion_lat": 0.0, "lat": 38.871842666666666, "bike_id": "f74c78273813e7726df36393ca2fb31b", "fusion_lon": 0.0}, {"rental_uris": {"ios": "https://dc.lft.to/lastmile_qr_scan", "android": "https://dc.lft.to/lastmile_qr_scan"}, "type": "electric_scooter", "name": "393c1e66c491a0198429e2e23647cea8", "is_reserved": 0, "lon": -77.03986466666667, "is_disabled": 0, "fusion_lat": 0.0, "lat": 38.90523316666667, "bike_id": "393c1e66c491a0198429e2e23647cea8", "fusion_lon": 0.0}, {"rental_uris": {"ios": "https://dc.lft.to/lastmile_qr_scan", "android": "https://dc.lft.to/lastmile_qr_scan"}, "type": "electric_bike", "name": "7ab925415230efd8a370fa82fe5f05d3", "is_reserved": 0, "lon": -76.9416465, "is_disabled": 0, "fusion_lat": 0.0, "lat": 38.865650333333335, "bike_id": "7ab925415230efd8a370fa82fe5f05d3", "fusion_lon": 0.0}, {"rental_uris": {"ios": "https://dc.lft.to/lastmile_qr_scan", "android": "https://dc.lft.to/lastmile_qr_scan"}, "type": "electric_scooter", "name": "4687ff35a51c14f831a8054d2e2a12a3", "is_reserved": 0, "lon": -77.02162383333334, "is_disabled": 0, "fusion_lat": 0.0, "lat": 38.925013666666665, "bike_id": "4687ff35a51c14f831a8054d2e2a12a3", "fusion_lon": 0.0}, {"rental_uris": {"ios": "https://dc.lft.to/lastmile_qr_scan", "android": "https://dc.lft.to/lastmile_qr_scan"}, "type": "electric_scooter", "name": "36be21308231dbfcd1c9bc7b8a97de2a", "is_reserved": 0, "lon": -77.041316, "is_disabled": 0, "fusion_lat": 0.0, "lat": 38.9340485, "bike_id": "36be21308231dbfcd1c9bc7b8a97de2a", "fusion_lon": 0.0}, {"rental_uris": {"ios": "https://dc.lft.to/lastmile_qr_scan", "android": "https://dc.lft.to/lastmile_qr_scan"}, "type": "electric_scooter", "name": "dc8cbfb6f54ede814b9fd1ac0a0e52d5", "is_reserved": 0, "lon": -77.03966933333334, "is_disabled": 0, "fusion_lat": 0.0, "lat": 38.898817666666666, "bike_id": "dc8cbfb6f54ede814b9fd1ac0a0e52d5", "fusion_lon": 0.0}, {"rental_uris": {"ios": "https://dc.lft.to/lastmile_qr_scan", "android": "https://dc.lft.to/lastmile_qr_scan"}, "type": "electric_scooter", "name": "cd51517d51d1a9d4f8cb23b7d76d67a2", "is_reserved": 0, "lon": -77.02004833333334, "is_disabled": 0, "fusion_lat": 0.0, "lat": 38.900595, "bike_id": "cd51517d51d1a9d4f8cb23b7d76d67a2", "fusion_lon": 0.0}, {"rental_uris": {"ios": "https://dc.lft.to/lastmile_qr_scan", "android": "https://dc.lft.to/lastmile_qr_scan"}, "type": "electric_scooter", "name": "fe55e64d3dc8c02356d03ec20c1f7dcd", "is_reserved": 0, "lon": -77.01958516666667, "is_disabled": 0, "fusion_lat": 0.0, "lat": 38.89974683333333, "bike_id": "fe55e64d3dc8c02356d03ec20c1f7dcd", "fusion_lon": 0.0}, {"rental_uris": {"ios": "https://dc.lft.to/lastmile_qr_scan", "android": "https://dc.lft.to/lastmile_qr_scan"},