{"data": {"bikes": [{"bike_id": "47f3372c0db169995fe169ea5ddcfb92", "fusion_lon": 0.0, "lon": -77.02175633333333, "name": "47f3372c0db169995fe169ea5ddcfb92", "is_disabled": 0, "rental_uris": {"android": "https://dc.lft.to/lastmile_qr_scan", "ios": "https://dc.lft.to/lastmile_qr_scan"}, "type": "electric_scooter", "lat": 38.924933, "is_reserved": 0, "fusion_lat": 0.0}, {"bike_id": "e98b5f642a0a5cf09ec52957db45527c", "fusion_lon": 0.0, "lon": -77.04281466666667, "name": "e98b5f642a0a5cf09ec52957db45527c", "is_disabled": 0, "rental_uris": {"android": "https://dc.lft.to/lastmile_qr_scan", "ios": "https://dc.lft.to/lastmile_qr_scan"}, "type": "electric_scooter", "lat": 38.90860333333333, "is_reserved": 0, "fusion_lat": 0.0}, {"bike_id": "23ac65342cf5fb9fd60f4c4812014232", "fusion_lon": 0.0, "lon": -77.0415535, "name": "23ac65342cf5fb9fd60f4c4812014232", "is_disabled": 0, "rental_uris": {"android": "https://dc.lft.to/lastmile_qr_scan", "ios": "https://dc.lft.to/lastmile_qr_scan"}, "type": "electric_scooter", "lat": 38.916531666666664, "is_reserved": 0, "fusion_lat": 0.0}, {"bike_id": "609fc55ea84eba78f536c0a749e0d255", "fusion_lon": 0.0, "lon": -77.06500916666667, "name": "609fc55ea84eba78f536c0a749e0d255", "is_disabled": 0, "rental_uris": {"android": "https://dc.lft.to/lastmile_qr_scan", "ios": "https://dc.lft.to/lastmile_qr_scan"}, "type": "electric_bike", "lat": 38.96869383333333, "is_reserved": 0, "fusion_lat": 0.0}, {"bike_id": "5ac5baa32aae37762f11e11c55338480", "fusion_lon": 0.0, "lon": -77.04487833333333, "name": "5ac5baa32aae37762f11e11c55338480", "is_disabled": 0, "rental_uris": {"android": "https://dc.lft.to/lastmile_qr_scan", "ios": "https://dc.lft.to/lastmile_qr_scan"}, "type": "electric_bike", "lat": 38.842883666666665, "is_reserved": 0, "fusion_lat": 0.0}, {"bike_id": "36840b74c8e97b12ef610b9c03c2a8fe", "fusion_lon": 0.0, "lon": -77.03953516666667, "name": "36840b74c8e97b12ef610b9c03c2a8fe", "is_disabled": 0, "rental_uris": {"android": "https://dc.lft.to/lastmile_qr_scan", "ios": "https://dc.lft.to/lastmile_qr_scan"}, "type": "electric_scooter", "lat": 38.926288, "is_reserved": 0, "fusion_lat": 0.0}, {"bike_id": "2ceab80983c7f39a656ea8a1c27d67c3", "fusion_lon": 0.0, "lon": -77.0258505, "name": "2ceab80983c7f39a656ea8a1c27d67c3", "is_disabled": 0, "rental_uris": {"android": "https://dc.lft.to/lastmile_qr_scan", "ios": "https://dc.lft.to/lastmile_qr_scan"}, "type": "electric_scooter", "lat": 38.903474833333334, "is_reserved": 0, "fusion_lat": 0.0}, {"bike_id": "0bd44e6e47538de2458f65e91e6c8800", "fusion_lon": 0.0, "lon": -77.01374616666666, "name": "0bd44e6e47538de2458f65e91e6c8800", "is_disabled": 0, "rental_uris": {"android": "https://dc.lft.to/lastmile_qr_scan", "ios": "https://dc.lft.to/lastmile_qr_scan"}, "type": "electric_scooter", "lat": 38.928684, "is_reserved": 0, "fusion_lat": 0.0}, {"bike_id": "2df9c00dfbd29f2d947607bdffb43413", "fusion_lon": 0.0, "lon": -77.031009, "name": "2df9c00dfbd29f2d947607bdffb43413", "is_disabled": 0, "rental_uris": {"android": "https://dc.lft.to/lastmile_qr_scan", "ios": "https://dc.lft.to/lastmile_qr_scan"}, "type": "electric_scooter", "lat": 38.950711166666665, "is_reserved": 0, "fusion_lat": 0.0}, {"bike_id": "782eee8dbb665ed848d4027a22d05921", "fusion_lon": 0.0, "lon": -76.96909933333333, "name": "782eee8dbb665ed848d4027a22d05921", "is_disabled": 0, "rental_uris": {"android": "https://dc.lft.to/lastmile_qr_scan", "ios": "https://dc.lft.to/lastmile_qr_scan"}, "type": "electric_bike", "lat": 38.846193166666666, "is_reserved": 0, "fusion_lat": 0.0}, {"bike_id": "60fcb8dfea162f9001165a7c7e47b0c4", "fusion_lon": 0.0, "lon": -77.04684316666666, "name": "60fcb8dfea162f9001165a7c7e47b0c4", "is_disabled": 0, "rental_uris": {"android": "https://dc.lft.to/lastmile_qr_scan", "ios": "https://dc.lft.to/lastmile_qr_scan"}, "type": "electric_scooter", "lat": 38.89218416666667, "is_reserved": 0, "fusion_lat": 0.0}, {"bike_id": "d44abb10c4a545b40706d5c840fb57b7", "fusion_lon": 0.0, "lon": -76.94933216666666, "name": "d44abb10c4a545b40706d5c840fb57b7", "is_disabled": 0, "rental_uris": {"android": "https://dc.lft.to/lastmile_qr_scan", "ios": "https://dc.lft.to/lastmile_qr_scan"}, "type": "electric_scooter", "lat": 38.8934765, "is_reserved": 0, "fusion_lat": 0.0}, {"bike_id": "918ad563e7c798514c2dec9899dc0781", "fusion_lon": 0.0, "lon": -77.01745516666666, "name": "918ad563e7c798514c2dec9899dc0781", "is_disabled": 0, "rental_uris": {"android": "https://dc.lft.to/lastmile_qr_scan", "ios": "https://dc.lft.to/lastmile_qr_scan"}, "type": "electric_scooter", "lat": 38.90245633333333, "is_reserved": 0, "fusion_lat": 0.0}, {"bike_id": "c2e079d8b8b938b3f2142c654a907ab7", "fusion_lon": 0.0, "lon": -77.03853633333334, "name": "c2e079d8b8b938b3f2142c654a907ab7", "is_disabled": 0, "rental_uris": {"android": "https://dc.lft.to/lastmile_qr_scan", "ios": "https://dc.lft.to/lastmile_qr_scan"}, "type": "electric_scooter", "lat": 38.91548216666666, "is_reserved": 0, "fusion_lat": 0.0}, {"bike_id": "84c368a898f04fc3bf77a49c7edd723e", "fusion_lon": 0.0, "lon": -77.068452, "name": "84c368a898f04fc3bf77a49c7edd723e", "is_disabled": 0, "rental_uris": {"android": "https://dc.lft.to/lastmile_qr_scan", "ios": "https://dc.lft.to/lastmile_qr_scan"}, "type": "electric_scooter", "lat": 38.91728916666667, "is_reserved": 0, "fusion_lat": 0.0}, {"bike_id": "16eb52dab7bd146f2bac583028dccb05", "fusion_lon": 0.0, "lon": -77.02310516666667, "name": "16eb52dab7bd146f2bac583028dccb05", "is_disabled": 0, "rental_uris": {"android": "https://dc.lft.to/lastmile_qr_scan", "ios": "https://dc.lft.to/lastmile_qr_scan"}, "type": "electric_scooter", "lat": 38.918436, "is_reserved": 0, "fusion_lat": 0.0}, {"bike_id": "437a346301fcbe98f4b7af32a41e5738", "fusion_lon": 0.0, "lon": -77.04196316666666, "name": "437a346301fcbe98f4b7af32a41e5738", "is_disabled": 0, "rental_uris": {"android": "https://dc.lft.to/lastmile_qr_scan", "ios": "https://dc.lft.to/lastmile_qr_scan"}, "type": "electric_scooter", "lat": 38.911291166666665, "is_reserved": 0, "fusion_lat": 0.0}, {"bike_id": "b071762665291e34be4f27c829b12f3e", "fusion_lon": 0.0, "lon": -77.02761816666667, "name": "b071762665291e34be4f27c829b12f3e", "is_disabled": 0, "rental_uris": {"android": "https://dc.lft.to/lastmile_qr_scan", "ios": "https://dc.lft.to/lastmile_qr_scan"}, "type": "electric_scooter", "lat": 38.95427683333333, "is_reserved": 0, "fusion_lat": 0.0}, {"bike_id": "23940bd5a1f4fe8bd5834cb1262b5032", "fusion_lon": 0.0, "lon": -77.03836083333333, "name": "23940bd5a1f4fe8bd5834cb1262b5032", "is_disabled": 0, "rental_uris": {"android": "https://dc.lft.to/lastmile_qr_scan", "ios": "https://dc.lft.to/lastmile_qr_scan"}, "type": "electric_scooter", "lat": 38.9316325, "is_reserved": 0, "fusion_lat": 0.0}, {"bike_id": "cb4f54d97f10d1718cb74c9553ecf4a0", "fusion_lon": 0.0, "lon": -77.03507516666667, "name": "cb4f54d97f10d1718cb74c9553ecf4a0", "is_disabled": 0, "rental_uris": {"android": "https://dc.lft.to/lastmile_qr_scan", "ios": "https://dc.lft.to/lastmile_qr_scan"}, "type": "electric_scooter", "lat": 38.921524166666664, "is_reserved": 0, "fusion_lat": 0.0}, {"bike_id": "d670d7a69047478f980dc195abf683df", "fusion_lon": 0.0, "lon": -76.96524833333334, "name": "d670d7a69047478f980dc195abf683df", "is_disabled": 0, "rental_uris": {"android": "https://dc.lft.to/lastmile_qr_scan", "ios": "https://dc.lft.to/lastmile_qr_scan"}, "type": "electric_scooter", "lat": 38.8762745, "is_reserved": 0, "fusion_lat": 0.0}, {"bike_id": "3f880fec9065857cc033a41151374bbc", "fusion_lon": 0.0, "lon": -77.02675566666667, "name": "3f880fec9065857cc033a41151374bbc", "is_disabled": 0, "rental_uris": {"android": "https://dc.lft.to/lastmile_qr_scan", "ios": "https://dc.lft.to/lastmile_qr_scan"}, "type": "electric_scooter", "lat": 38.881322, "is_reserved": 0, "fusion_lat": 0.0}, {"bike_id": "3302ac9ba50a9c4ffaf304e419b8d283", "fusion_lon": 0.0, "lon": -77.052276, "name": "3302ac9ba50a9c4ffaf304e419b8d283", "is_disabled": 0, "rental_uris": {"android": "https://dc.lft.to/lastmile_qr_scan", "ios": "https://dc.lft.to/lastmile_qr_scan"}, "type": "electric_scooter", "lat": 38.924595333333336, "is_reserved": 0, "fusion_lat": 0.0}, {"bike_id": "a2377d41f9dee41e6bb802736c245b0c", "fusion_lon": 0.0, "lon": -77.04330783333333, "name": "a2377d41f9dee41e6bb802736c245b0c", "is_disabled": 0, "rental_uris": {"android": "https://dc.lft.to/lastmile_qr_scan", "ios": "https://dc.lft.to/lastmile_qr_scan"}, "type": "electric_scooter", "lat": 38.8922455, "is_reserved": 0, "fusion_lat": 0.0}, {"bike_id": "2b83951fc343707c3d4feab1351cee99", "fusion_lon": 0.0, "lon": -76.9955585, "name": "2b83951fc343707c3d4feab1351cee99", "is_disabled": 0, "rental_uris": {"android": "https://dc.lft.to/lastmile_qr_scan", "ios": "https://dc.lft.to/lastmile_qr_scan"}, "type": "electric_scooter", "lat": 38.920210833333336, "is_reserved": 0, "fusion_lat": 0.0}, {"bike_id": "68cb4e4250d9c4282b091b9ad06add88", "fusion_lon": 0.0, "lon": -77.02809783333333, "name": "68cb4e4250d9c4282b091b9ad06add88", "is_disabled": 0, "rental_uris": {"android": "https://dc.lft.to/lastmile_qr_scan", "ios": "https://dc.lft.to/lastmile_qr_scan"}, "type": "electric_scooter", "lat": 38.916883166666665, "is_reserved": 0, "fusion_lat": 0.0}, {"bike_id": "d1376713e3ee9cb8035675f79cf706f4", "fusion_lon": 0.0, "lon": -77.05438583333333, "name": "d1376713e3ee9cb8035675f79cf706f4", "is_disabled": 0, "rental_uris": {"android": "https://dc.lft.to/lastmile_qr_scan", "ios": "https://dc.lft.to/lastmile_qr_scan"}, "type": "electric_scooter", "lat": 38.89603233333333, "is_reserved": 0, "fusion_lat": 0.0}, {"bike_id": "ed36ec37d7d196a3063b5fef63a9d918", "fusion_lon": 0.0, "lon": -76.9097255, "name": "ed36ec37d7d196a3063b5fef63a9d918", "is_disabled": 0, "rental_uris": {"android": "https://dc.lft.to/lastmile_qr_scan", "ios": "https://dc.lft.to/lastmile_qr_scan"}, "type": "electric_bike", "lat": 38.85417916666667, "is_reserved": 0, "fusion_lat": 0.0}, {"bike_id": "bb471afebd160218003b5de2e7e7fb80", "fusion_lon": 0.0, "lon": -77.04096833333334, "name": "bb471afebd160218003b5de2e7e7fb80", "is_disabled": 0, "rental_uris": {"android": "https://dc.lft.to/lastmile_qr_scan", "ios": "https://dc.lft.to/lastmile_qr_scan"}, "type": "electric_scooter", "lat": 38.9177745, "is_reserved": 0, "fusion_lat": 0.0}, {"bike_id": "fbb7c0749f7d9a54611ff9472355076f", "fusion_lon": 0.0, "lon": -77.041389, "name": "fbb7c0749f7d9a54611ff9472355076f", "is_disabled": 0, "rental_uris": {"android": "https://dc.lft.to/lastmile_qr_scan", "ios": "https://dc.lft.to/lastmile_qr_scan"}, "type": "electric_scooter", "lat": 38.93126433333333, "is_reserved": 0, "fusion_lat": 0.0}, {"bike_id": "45eea4a85844eb4f5f1d2331b20d0550", "fusion_lon": 0.0, "lon": -77.008308, "name": "45eea4a85844eb4f5f1d2331b20d0550", "is_disabled": 0, "rental_uris": {"android": "https://dc.lft.to/lastmile_qr_scan", "ios": "https://dc.lft.to/lastmile_qr_scan"}, "type": "electric_bike", "lat": 38.82905183333333, "is_reserved": 0, "fusion_lat": 0.0}, {"bike_id": "5c8aa7eebb18f171ff1e31858c8bf096", "fusion_lon": 0.0, "lon": -77.0389625, "name": "5c8aa7eebb18f171ff1e31858c8bf096", "is_disabled": 0, "rental_uris": {"android": "https://dc.lft.to/lastmile_qr_scan", "ios": "https://dc.lft.to/lastmile_qr_scan"}, "type": "electric_scooter", "lat": 38.922020333333336, "is_reserved": 0, "fusion_lat": 0.0}, {"bike_id": "a579a78fd43b4816d6b8c7ebf7e07fa9", "fusion_lon": 0.0, "lon": -77.04182916666667, "name": "a579a78fd43b4816d6b8c7ebf7e07fa9", "is_disabled": 0, "rental_uris": {"android": "https://dc.lft.to/lastmile_qr_scan", "ios": "https://dc.lft.to/lastmile_qr_scan"}, "type": "electric_scooter", "lat": 38.9203895, "is_reserved": 0, "fusion_lat": 0.0}, {"bike_id": "cc5f1ebec426dfe293a3bbd940dc56ee", "fusion_lon": 0.0, "lon": -76.99533083333333, "name": "cc5f1ebec426dfe293a3bbd940dc56ee", "is_disabled": 0, "rental_uris": {"android": "https://dc.lft.to/lastmile_qr_scan", "ios": "https://dc.lft.to/lastmile_qr_scan"}, "type": "electric_scooter", "lat": 38.8624275, "is_reserved": 0, "fusion_lat": 0.0}, {"bike_id": "ba1009036dc4fd5bfe31518c740802e2", "fusion_lon": 0.0, "lon": -77.04136483333333, "name": "ba1009036dc4fd5bfe31518c740802e2", "is_disabled": 0, "rental_uris": {"android": "https://dc.lft.to/lastmile_qr_scan", "ios": "https://dc.lft.to/lastmile_qr_scan"}, "type": "electric_scooter", "lat": 38.922698, "is_reserved": 0, "fusion_lat": 0.0}, {"bike_id": "fa74548b52b6f6b0862455fe6ab44f25", "fusion_lon": 0.0, "lon": -77.04333633333333, "name": "fa74548b52b6f6b0862455fe6ab44f25", "is_disabled": 0, "rental_uris": {"android": "https://dc.lft.to/lastmile_qr_scan", "ios": "https://dc.lft.to/lastmile_qr_scan"}, "type": "electric_scooter", "lat": 38.9025305, "is_reserved": 0, "fusion_lat": 0.0}, {"bike_id": "d4d0ac02b59b3200d3f36d39324986f1", "fusion_lon": 0.0, "lon": -77.00203733333333, "name": "d4d0ac02b59b3200d3f36d39324986f1", "is_disabled": 0, "rental_uris": {"android": "https://dc.lft.to/lastmile_qr_scan", "ios": "https://dc.lft.to/lastmile_qr_scan"}, "type": "electric_scooter", "lat": 38.90070583333333, "is_reserved": 0, "fusion_lat": 0.0}, {"bike_id": "bfef637abee7c0aa686f204062076e9d", "fusion_lon": 0.0, "lon": -77.03133683333333, "name": "bfef637abee7c0aa686f204062076e9d", "is_disabled": 0, "rental_uris": {"android": "https://dc.lft.to/lastmile_qr_scan", "ios": "https://dc.lft.to/lastmile_qr_scan"}, "type": "electric_scooter", "lat": 38.904456333333336, "is_reserved": 0, "fusion_lat": 0.0}, {"bike_id": "efde2a90f67dada86191ffbd6d84c96f", "fusion_lon": 0.0, "lon": -77.0404325, "name": "efde2a90f67dada86191ffbd6d84c96f", "is_disabled": 0, "rental_uris": {"android": "https://dc.lft.to/lastmile_qr_scan", "ios": "https://dc.lft.to/lastmile_qr_scan"}, "type": "electric_scooter", "lat": 38.8907995, "is_reserved": 0, "fusion_lat": 0.0}, {"bike_id": "fa7aeefc0a94c79dc39c83f43b6a1d14", "fusion_lon": 0.0, "lon": -77.03868216666666, "name": "fa7aeefc0a94c79dc39c83f43b6a1d14", "is_disabled": 0, "rental_uris": {"android": "https://dc.lft.to/lastmile_qr_scan", "ios": "https://dc.lft.to/lastmile_qr_scan"}, "type": "electric_scooter", "lat": 38.93248366666667, "is_reserved": 0, "fusion_lat": 0.0}, {"bike_id": "96123555df09cd2acce6fb22f95caf87", "fusion_lon": 0.0, "lon": -76.97971133333333, "name": "96123555df09cd2acce6fb22f95caf87", "is_disabled": 0, "rental_uris": {"android": "https://dc.lft.to/lastmile_qr_scan", "ios": "https://dc.lft.to/lastmile_qr_scan"}, "type": "electric_bike", "lat": 38.953737833333335, "is_reserved": 0, "fusion_lat": 0.0}, {"bike_id": "df1d469ee9d89a3b45524cdd70cec4d1", "fusion_lon": 0.0, "lon": -76.99484433333333, "name": "df1d469ee9d89a3b45524cdd70cec4d1", "is_disabled": 0, "rental_uris": {"android": "https://dc.lft.to/lastmile_qr_scan", "ios": "https://dc.lft.to/lastmile_qr_scan"}, "type": "electric_scooter", "lat": 38.909842, "is_reserved": 0, "fusion_lat": 0.0}, {"bike_id": "8c843f2c4f14224987a21a35ca7cac4b", "fusion_lon": 0.0, "lon": -76.93184333333333, "name": "8c843f2c4f14224987a21a35ca7cac4b", "is_disabled": 0, "rental_uris": {"android": "https://dc.lft.to/lastmile_qr_scan", "ios": "https://dc.lft.to/lastmile_qr_scan"}, "type": "electric_scooter", "lat": 38.898799333333336, "is_reserved": 0, "fusion_lat": 0.0}, {"bike_id": "779f034f20782dd7a3df95246252bea5", "fusion_lon": 0.0, "lon": -77.10119433333334, "name": "779f034f20782dd7a3df95246252bea5", "is_disabled": 0, "rental_uris": {"android": "https://dc.lft.to/lastmile_qr_scan", "ios": "https://dc.lft.to/lastmile_qr_scan"}, "type": "electric_bike", "lat": 38.852073, "is_reserved": 0, "fusion_lat": 0.0}, {"bike_id": "ca4707ad5020c7a85de0c8d4c5ba7747", "fusion_lon": 0.0, "lon": -77.007078, "name": "ca4707ad5020c7a85de0c8d4c5ba7747", "is_disabled": 0, "rental_uris": {"android": "https://dc.lft.to/lastmile_qr_scan", "ios": "https://dc.lft.to/lastmile_qr_scan"}, "type": "electric_scooter", "lat": 38.898319, "is_reserved": 0, "fusion_lat": 0.0}, {"bike_id": "18a54accfd0464af9d1380a2c2190e3b", "fusion_lon": 0.0, "lon": -77.03457966666667, "name": "18a54accfd0464af9d1380a2c2190e3b", "is_disabled": 0, "rental_uris": {"android": "https://dc.lft.to/lastmile_qr_scan", "ios": "https://dc.lft.to/lastmile_qr_scan"}, "type": "electric_scooter", "lat": 38.908669833333335, "is_reserved": 0, "fusion_lat": 0.0}, {"bike_id": "bbb6e1ba8f8faacb977f626f87c5857b", "fusion_lon": 0.0, "lon": -77.02152066666666, "name": "bbb6e1ba8f8faacb977f626f87c5857b", "is_disabled": 0, "rental_uris": {"android": "https://dc.lft.to/lastmile_qr_scan", "ios": "https://dc.lft.to/lastmile_qr_scan"}, "type": "electric_scooter", "lat": 38.9260605, "is_reserved": 0, "fusion_lat": 0.0}, {"bike_id": "84a111c03848a12dcc8be50693ce762e", "fusion_lon": 0.0, "lon": -77.009361, "name": "84a111c03848a12dcc8be50693ce762e", "is_disabled": 0, "rental_uris": {"android": "https://dc.lft.to/lastmile_qr_scan", "ios": "https://dc.lft.to/lastmile_qr_scan"}, "type": "electric_scooter", "lat": 38.91809516666667, "is_reserved": 0, "fusion_lat": 0.0}, {"bike_id": "646fac1061bda854f9f1fd13995254f9", "fusion_lon": 0.0, "lon": -76.96535066666667, "name": "646fac1061bda854f9f1fd13995254f9", "is_disabled": 0, "rental_uris": {"android": "https://dc.lft.to/lastmile_qr_scan", "ios": "https://dc.lft.to/lastmile_qr_scan"}, "type": "electric_scooter", "lat": 38.9184885, "is_reserved": 0, "fusion_lat": 0.0}, {"bike_id": "d45980dc52fce126f1dafd36e6f1756a", "fusion_lon": 0.0, "lon": -77.02365666666667, "name": "d45980dc52fce126f1dafd36e6f1756a", "is_disabled": 0, "rental_uris": {"android": "https://dc.lft.to/lastmile_qr_scan", "ios": "https://dc.lft.to/lastmile_qr_scan"}, "type": "electric_scooter", "lat": 38.89219166666667, "is_reserved": 0, "fusion_lat": 0.0}, {"bike_id": "3f0fd3af95240527bf5a9f9388f6da16", "fusion_lon": 0.0, "lon": -77.02900433333333, "name": "3f0fd3af95240527bf5a9f9388f6da16", "is_disabled": 0, "rental_uris": {"android": "https://dc.lft.to/lastmile_qr_scan", "ios": "https://dc.lft.to/lastmile_qr_scan"}, "type": "electric_scooter", "lat": 38.9257275, "is_reserved": 0, "fusion_lat": 0.0}, {"bike_id": "fc69a7d60b9fe472a25c5caea40be1e1", "fusion_lon": 0.0, "lon": -77.04071216666667, "name": "fc69a7d60b9fe472a25c5caea40be1e1", "is_disabled": 0, "rental_uris": {"android": "https://dc.lft.to/lastmile_qr_scan", "ios": "https://dc.lft.to/lastmile_qr_scan"}, "type": "electric_scooter", "lat": 38.905096, "is_reserved": 0, "fusion_lat": 0.0}, {"bike_id": "37d2c1d7884af37e2b389a13851ebd40", "fusion_lon": 0.0, "lon": -77.032077, "name": "37d2c1d7884af37e2b389a13851ebd40", "is_disabled": 0, "rental_uris": {"android": "https://dc.lft.to/lastmile_qr_scan", "ios": "https://dc.lft.to/lastmile_qr_scan"}, "type": "electric_scooter", "lat": 38.9155235, "is_reserved": 0, "fusion_lat": 0.0}, {"bike_id": "5a7135b68ab120f0f2c01da844bbda16", "fusion_lon": 0.0, "lon": -77.000684, "name": "5a7135b68ab120f0f2c01da844bbda16", "is_disabled": 0, "rental_uris": {"android": "https://dc.lft.to/lastmile_qr_scan", "ios": "https://dc.lft.to/lastmile_qr_scan"}, "type": "electric_scooter", "lat": 38.925495, "is_reserved": 0, "fusion_lat": 0.0}, {"bike_id": "3539e3493017c1cb898fdbdd422f757d", "fusion_lon": 0.0, "lon": -77.0229475, "name": "3539e3493017c1cb898fdbdd422f757d", "is_disabled": 0, "rental_uris": {"android": "https://dc.lft.to/lastmile_qr_scan", "ios": "https://dc.lft.to/lastmile_qr_scan"}, "type": "electric_scooter", "lat": 38.90961183333334, "is_reserved": 0, "fusion_lat": 0.0}, {"bike_id": "a85cd07fb94cb86643b78c67ae8f07ba", "fusion_lon": 0.0, "lon": -77.01599283333333, "name": "a85cd07fb94cb86643b78c67ae8f07ba", "is_disabled": 0, "rental_uris": {"android": "https://dc.lft.to/lastmile_qr_scan", "ios": "https://dc.lft.to/lastmile_qr_scan"}, "type": "electric_scooter", "lat": 38.920456333333334, "is_reserved": 0, "fusion_lat": 0.0}, {"bike_id": "6539f577c7a849564745d280260dfce3", "fusion_lon": 0.0, "lon": -77.0300165, "name": "6539f577c7a849564745d280260dfce3", "is_disabled": 0, "rental_uris": {"android": "https://dc.lft.to/lastmile_qr_scan", "ios": "https://dc.lft.to/lastmile_qr_scan"}, "type": "electric_scooter", "lat": 38.9171285, "is_reserved": 0, "fusion_lat": 0.0}, {"bike_id": "f1595bbfe7dbedbeeaf71ba97d3e7a57", "fusion_lon": 0.0, "lon": -77.0217665, "name": "f1595bbfe7dbedbeeaf71ba97d3e7a57", "is_disabled": 0, "rental_uris": {"android": "https://dc.lft.to/lastmile_qr_scan", "ios": "https://dc.lft.to/lastmile_qr_scan"}, "type": "electric_scooter", "lat": 38.914247, "is_reserved": 0, "fusion_lat": 0.0}, {"bike_id": "de1fc2ccbcdd6a6a54d0c14fb39ed92e", "fusion_lon": 0.0, "lon": -77.023439, "name": "de1fc2ccbcdd6a6a54d0c14fb39ed92e", "is_disabled": 0, "rental_uris": {"android": "https://dc.lft.to/lastmile_qr_scan", "ios": "https://dc.lft.to/lastmile_qr_scan"}, "type": "electric_scooter", "lat": 38.90730966666667, "is_reserved": 0, "fusion_lat": 0.0}, {"bike_id": "5b9efa87c5f77a506399cb32d0ab7fa7", "fusion_lon": 0.0, "lon": -76.99032533333333, "name": "5b9efa87c5f77a506399cb32d0ab7fa7", "is_disabled": 0, "rental_uris": {"android": "https://dc.lft.to/lastmile_qr_scan", "ios": "https://dc.lft.to/lastmile_qr_scan"}, "type": "electric_scooter", "lat": 38.86518483333333, "is_reserved": 0, "fusion_lat": 0.0}, {"bike_id": "fc3ee4bbf9d41bf83447bffdc4543d00", "fusion_lon": 0.0, "lon": -77.014756, "name": "fc3ee4bbf9d41bf83447bffdc4543d00", "is_disabled": 0, "rental_uris": {"android": "https://dc.lft.to/lastmile_qr_scan", "ios": "https://dc.lft.to/lastmile_qr_scan"}, "type": "electric_scooter", "lat": 38.87645166666667, "is_reserved": 0, "fusion_lat": 0.0}, {"bike_id": "175bcb19de8d40500bf871cb3c324a1d", "fusion_lon": 0.0, "lon": -77.05526783333333, "name": "175bcb19de8d40500bf871cb3c324a1d", "is_disabled": 0, "rental_uris": {"android": "https://dc.lft.to/lastmile_qr_scan", "ios": "https://dc.lft.to/lastmile_qr_scan"}, "type": "electric_scooter", "lat": 38.89730633333333, "is_reserved": 0, "fusion_lat": 0.0}, {"bike_id": "f51e858216f4ce2ca3fd300259160e60", "fusion_lon": 0.0, "lon": -77.129564, "name": "f51e858216f4ce2ca3fd300259160e60", "is_disabled": 0, "rental_uris": {"android": "https://dc.lft.to/lastmile_qr_scan", "ios": "https://dc.lft.to/lastmile_qr_scan"}, "type": "electric_bike", "lat": 38.852188, "is_reserved": 0, "fusion_lat": 0.0}, {"bike_id": "f5e09669e8f28d6a81ea62eb04d9e612", "fusion_lon": 0.0, "lon": -77.03108883333333, "name": "f5e09669e8f28d6a81ea62eb04d9e612", "is_disabled": 0, "rental_uris": {"android": "https://dc.lft.to/lastmile_qr_scan", "ios": "https://dc.lft.to/lastmile_qr_scan"}, "type": "electric_scooter", "lat": 38.919233166666665, "is_reserved": 0, "fusion_lat": 0.0}, {"bike_id": "0c787eee6a5d66b2c97c05d349db18e3", "fusion_lon": 0.0, "lon": -77.0367355, "name": "0c787eee6a5d66b2c97c05d349db18e3", "is_disabled": 0, "rental_uris": {"android": "https://dc.lft.to/lastmile_qr_scan", "ios": "https://dc.lft.to/lastmile_qr_scan"}, "type": "electric_scooter", "lat": 38.917077666666664, "is_reserved": 0, "fusion_lat": 0.0}, {"bike_id": "fc12d83a1ecdec2e4531238f83bf6117", "fusion_lon": 0.0, "lon": -77.03879633333334, "name": "fc12d83a1ecdec2e4531238f83bf6117", "is_disabled": 0, "rental_uris": {"android": "https://dc.lft.to/lastmile_qr_scan", "ios": "https://dc.lft.to/lastmile_qr_scan"}, "type": "electric_scooter", "lat": 38.91707533333334, "is_reserved": 0, "fusion_lat": 0.0}, {"bike_id": "900af3305d66bf94a59af463e7a1f9f0", "fusion_lon": 0.0, "lon": -77.03395516666667, "name": "900af3305d66bf94a59af463e7a1f9f0", "is_disabled": 0, "rental_uris": {"android": "https://dc.lft.to/lastmile_qr_scan", "ios": "https://dc.lft.to/lastmile_qr_scan"}, "type": "electric_scooter", "lat": 38.91965966666667, "is_reserved": 0, "fusion_lat": 0.0}, {"bike_id": "b3c2fa7c8d1572cf949c9096ddd8b6c9", "fusion_lon": 0.0, "lon": -76.93229466666666, "name": "b3c2fa7c8d1572cf949c9096ddd8b6c9", "is_disabled": 0, "rental_uris": {"android": "https://dc.lft.to/lastmile_qr_scan", "ios": "https://dc.lft.to/lastmile_qr_scan"}, "type": "electric_bike", "lat": 38.865987, "is_reserved": 0, "fusion_lat": 0.0}, {"bike_id": "67192c01735ae99e002cce08b97e7c8f", "fusion_lon": 0.0, "lon": -77.01751233333333, "name": "67192c01735ae99e002cce08b97e7c8f", "is_disabled": 0, "rental_uris": {"android": "https://dc.lft.to/lastmile_qr_scan", "ios": "https://dc.lft.to/lastmile_qr_scan"}, "type": "electric_scooter", "lat": 38.883273333333335, "is_reserved": 0, "fusion_lat": 0.0}, {"bike_id": "c6addfe1cd637081af89e778cf4918b3", "fusion_lon": 0.0, "lon": -77.0347665, "name": "c6addfe1cd637081af89e778cf4918b3", "is_disabled": 0, "rental_uris": {"android": "https://dc.lft.to/lastmile_qr_scan", "ios": "https://dc.lft.to/lastmile_qr_scan"}, "type": "electric_bike", "lat": 38.93537933333333, "is_reserved": 0, "fusion_lat": 0.0}, {"bike_id": "1787765c1a381211cafa92bd344ee34b", "fusion_lon": 0.0, "lon": -77.03423783333334, "name": "1787765c1a381211cafa92bd344ee34b", "is_disabled": 0, "rental_uris": {"android": "https://dc.lft.to/lastmile_qr_scan", "ios": "https://dc.lft.to/lastmile_qr_scan"}, "type": "electric_scooter", "lat": 38.919225, "is_reserved": 0, "fusion_lat": 0.0}, {"bike_id": "b03071e043bbe338c20133fcef51e496", "fusion_lon": 0.0, "lon": -77.02876433333333, "name": "b03071e043bbe338c20133fcef51e496", "is_disabled": 0, "rental_uris": {"android": "https://dc.lft.to/lastmile_qr_scan", "ios": "https://dc.lft.to/lastmile_qr_scan"}, "type": "electric_scooter", "lat": 38.90452483333333, "is_reserved": 0, "fusion_lat": 0.0}, {"bike_id": "580327c248cd6c8c227f9930eb5ed9c7", "fusion_lon": 0.0, "lon": -77.05317666666667, "name": "580327c248cd6c8c227f9930eb5ed9c7", "is_disabled": 0, "rental_uris": {"android": "https://dc.lft.to/lastmile_qr_scan", "ios": "https://dc.lft.to/lastmile_qr_scan"}, "type": "electric_scooter", "lat": 38.923593333333336, "is_reserved": 0, "fusion_lat": 0.0}, {"bike_id": "e95d20cde7b3e7fbcaf7f821c6272330", "fusion_lon": 0.0, "lon": -76.98695316666667, "name": "e95d20cde7b3e7fbcaf7f821c6272330", "is_disabled": 0, "rental_uris": {"android": "https://dc.lft.to/lastmile_qr_scan", "ios": "https://dc.lft.to/lastmile_qr_scan"}, "type": "electric_scooter", "lat": 38.86254533333333, "is_reserved": 0, "fusion_lat": 0.0}, {"bike_id": "c706a0647c0ba0c60b76a9a71bd2b120", "fusion_lon": 0.0, "lon": -77.0275735, "name": "c706a0647c0ba0c60b76a9a71bd2b120", "is_disabled": 0, "rental_uris": {"android": "https://dc.lft.to/lastmile_qr_scan", "ios": "https://dc.lft.to/lastmile_qr_scan"}, "type": "electric_scooter", "lat": 38.9542895, "is_reserved": 0, "fusion_lat": 0.0}, {"bike_id": "31fbdf3670db254efc1fe990d87cc4ba", "fusion_lon": 0.0, "lon": -76.99504166666667, "name": "31fbdf3670db254efc1fe990d87cc4ba", "is_disabled": 0, "rental_uris": {"android": "https://dc.lft.to/lastmile_qr_scan", "ios": "https://dc.lft.to/lastmile_qr_scan"}, "type": "electric_scooter", "lat": 38.88250766666667, "is_reserved": 0, "fusion_lat": 0.0}, {"bike_id": "c86d446989eaaeae77819a248d402ff5", "fusion_lon": 0.0, "lon": -77.03067233333333, "name": "c86d446989eaaeae77819a248d402ff5", "is_disabled": 0, "rental_uris": {"android": "https://dc.lft.to/lastmile_qr_scan", "ios": "https://dc.lft.to/lastmile_qr_scan"}, "type": "electric_scooter", "lat": 38.923691166666664, "is_reserved": 0, "fusion_lat": 0.0}, {"bike_id": "850a7edd2d10ca76c088a558f19ac039", "fusion_lon": 0.0, "lon": -77.03125883333334, "name": "850a7edd2d10ca76c088a558f19ac039", "is_disabled": 0, "rental_uris": {"android": "https://dc.lft.to/lastmile_qr_scan", "ios": "https://dc.lft.to/lastmile_qr_scan"}, "type": "electric_scooter", "lat": 38.92366966666667, "is_reserved": 0, "fusion_lat": 0.0}, {"bike_id": "9d3d08eee0bf96ba8fa15094602d760d", "fusion_lon": 0.0, "lon": -77.04666616666667, "name": "9d3d08eee0bf96ba8fa15094602d760d", "is_disabled": 0, "rental_uris": {"android": "https://dc.lft.to/lastmile_qr_scan", "ios": "https://dc.lft.to/lastmile_qr_scan"}, "type": "electric_scooter", "lat": 38.89251616666667, "is_reserved": 0, "fusion_lat": 0.0}, {"bike_id": "3350fe3eea3726f7e843403dcafa1a2b", "fusion_lon": 0.0, "lon": -77.02290683333334, "name": "3350fe3eea3726f7e843403dcafa1a2b", "is_disabled": 0, "rental_uris": {"android": "https://dc.lft.to/lastmile_qr_scan", "ios": "https://dc.lft.to/lastmile_qr_scan"}, "type": "electric_scooter", "lat": 38.8956915, "is_reserved": 0, "fusion_lat": 0.0}, {"bike_id": "60ae70d87b9c4d9f489ac8b80893df9c", "fusion_lon": 0.0, "lon": -76.9159885, "name": "60ae70d87b9c4d9f489ac8b80893df9c", "is_disabled": 0, "rental_uris": {"android": "https://dc.lft.to/lastmile_qr_scan", "ios": "https://dc.lft.to/lastmile_qr_scan"}, "type": "electric_bike", "lat": 38.879803833333334, "is_reserved": 0, "fusion_lat": 0.0}, {"bike_id": "135f62ae92a0edd723431fa3676108c9", "fusion_lon": 0.0, "lon": -77.03173416666667, "name": "135f62ae92a0edd723431fa3676108c9", "is_disabled": 0, "rental_uris": {"android": "https://dc.lft.to/lastmile_qr_scan", "ios": "https://dc.lft.to/lastmile_qr_scan"}, "type": "electric_scooter", "lat": 38.90957016666667, "is_reserved": 0, "fusion_lat": 0.0}, {"bike_id": "7eb3a31f311da010164c7af9f9c0baef", "fusion_lon": 0.0, "lon": -77.01860866666667, "name": "7eb3a31f311da010164c7af9f9c0baef", "is_disabled": 0, "rental_uris": {"android": "https://dc.lft.to/lastmile_qr_scan", "ios": "https://dc.lft.to/lastmile_qr_scan"}, "type": "electric_scooter", "lat": 38.900188, "is_reserved": 0, "fusion_lat": 0.0}, {"bike_id": "1c2d582acc948f340b6c539cedb8ee18", "fusion_lon": 0.0, "lon": -77.01607066666666, "name": "1c2d582acc948f340b6c539cedb8ee18", "is_disabled": 0, "rental_uris": {"android": "https://dc.lft.to/lastmile_qr_scan", "ios": "https://dc.lft.to/lastmile_qr_scan"}, "type": "electric_scooter", "lat": 38.91809216666667, "is_reserved": 0, "fusion_lat": 0.0}, {"bike_id": "fdbf4baf930f4c2169ad4ba97405c4f0", "fusion_lon": 0.0, "lon": -77.02284283333333, "name": "fdbf4baf930f4c2169ad4ba97405c4f0", "is_disabled": 0, "rental_uris": {"android": "https://dc.lft.to/lastmile_qr_scan", "ios": "https://dc.lft.to/lastmile_qr_scan"}, "type": "electric_scooter", "lat": 38.91810133333333, "is_reserved": 0, "fusion_lat": 0.0}, {"bike_id": "7b0c22ac59ced9d3c41c9b145be48e0f", "fusion_lon": 0.0, "lon": -77.0147005, "name": "7b0c22ac59ced9d3c41c9b145be48e0f", "is_disabled": 0, "rental_uris": {"android": "https://dc.lft.to/lastmile_qr_scan", "ios": "https://dc.lft.to/lastmile_qr_scan"}, "type": "electric_scooter", "lat": 38.91771966666667, "is_reserved": 0, "fusion_lat": 0.0}, {"bike_id": "64fdac44b3aaeb446ad480b60f907f3a", "fusion_lon": 0.0, "lon": -77.0500005, "name": "64fdac44b3aaeb446ad480b60f907f3a", "is_disabled": 0, "rental_uris": {"android": "https://dc.lft.to/lastmile_qr_scan", "ios": "https://dc.lft.to/lastmile_qr_scan"}, "type": "electric_scooter", "lat": 38.892349833333334, "is_reserved": 0, "fusion_lat": 0.0}, {"bike_id": "410b32c93415f4fb86fa44e75924942a", "fusion_lon": 0.0, "lon": -77.02727683333333, "name": "410b32c93415f4fb86fa44e75924942a", "is_disabled": 0, "rental_uris": {"android": "https://dc.lft.to/lastmile_qr_scan", "ios": "https://dc.lft.to/lastmile_qr_scan"}, "type": "electric_scooter", "lat": 38.92764533333333, "is_reserved": 0, "fusion_lat": 0.0}, {"bike_id": "a378017ef3c446c18d1e98890b3c1e3b", "fusion_lon": 0.0, "lon": -77.02172833333333, "name": "a378017ef3c446c18d1e98890b3c1e3b", "is_disabled": 0, "rental_uris": {"android": "https://dc.lft.to/lastmile_qr_scan", "ios": "https://dc.lft.to/lastmile_qr_scan"}, "type": "electric_scooter", "lat": 38.91423966666667, "is_reserved": 0, "fusion_lat": 0.0}, {"bike_id": "e00f350d978a29f2f7b5d5eb6b145e59", "fusion_lon": 0.0, "lon": -77.0530445, "name": "e00f350d978a29f2f7b5d5eb6b145e59", "is_disabled": 0, "rental_uris": {"android": "https://dc.lft.to/lastmile_qr_scan", "ios": "https://dc.lft.to/lastmile_qr_scan"}, "type": "electric_scooter", "lat": 38.904196666666664, "is_reserved": 0, "fusion_lat": 0.0}, {"bike_id": "e2707ead0cb456322d2d5fd662ddef09", "fusion_lon": 0.0, "lon": -77.02956483333334, "name": "e2707ead0cb456322d2d5fd662ddef09", "is_disabled": 0, "rental_uris": {"android": "https://dc.lft.to/lastmile_qr_scan", "ios": "https://dc.lft.to/lastmile_qr_scan"}, "type": "electric_scooter", "lat": 38.93222983333333, "is_reserved": 0, "fusion_lat": 0.0}, {"bike_id": "3805b2129470ce66555f95906c7a02b9", "fusion_lon": 0.0, "lon": -77.0535965, "name": "3805b2129470ce66555f95906c7a02b9", "is_disabled": 0, "rental_uris": {"android": "https://dc.lft.to/lastmile_qr_scan", "ios": "https://dc.lft.to/lastmile_qr_scan"}, "type": "electric_scooter", "lat": 38.926595, "is_reserved": 0, "fusion_lat": 0.0}, {"bike_id": "5cf58e84fc43119fb854dbee47fd136e", "fusion_lon": 0.0, "lon": -76.99333283333333, "name": "5cf58e84fc43119fb854dbee47fd136e", "is_disabled": 0, "rental_uris": {"android": "https://dc.lft.to/lastmile_qr_scan", "ios": "https://dc.lft.to/lastmile_qr_scan"}, "type": "electric_scooter", "lat": 38.871431666666666, "is_reserved": 0, "fusion_lat": 0.0}, {"bike_id": "d48587dccee00e7811f3511397fe846b", "fusion_lon": 0.0, "lon": -77.04391466666667, "name": "d48587dccee00e7811f3511397fe846b", "is_disabled": 0, "rental_uris": {"android": "https://dc.lft.to/lastmile_qr_scan", "ios": "https://dc.lft.to/lastmile_qr_scan"}, "type": "electric_scooter", "lat": 38.91069016666667, "is_reserved": 0, "fusion_lat": 0.0}, {"bike_id": "93e9782fc34837c4eb29dd5f77fcca22", "fusion_lon": 0.0, "lon": -76.93734433333333, "name": "93e9782fc34837c4eb29dd5f77fcca22", "is_disabled": 0, "rental_uris": {"android": "https://dc.lft.to/lastmile_qr_scan", "ios": "https://dc.lft.to/lastmile_qr_scan"}, "type": "electric_scooter", "lat": 38.890094, "is_reserved": 0, "fusion_lat": 0.0}, {"bike_id": "3d84f1cbdf313720f9f9fe26ce7f4762", "fusion_lon": 0.0, "lon": -77.01743383333333, "name": "3d84f1cbdf313720f9f9fe26ce7f4762", "is_disabled": 0, "rental_uris": {"android": "https://dc.lft.to/lastmile_qr_scan", "ios": "https://dc.lft.to/lastmile_qr_scan"}, "type": "electric_scooter", "lat": 38.902426, "is_reserved": 0, "fusion_lat": 0.0}, {"bike_id": "a8718eba24ae332af206db4aea79e32e", "fusion_lon": 0.0, "lon": -76.94793883333334, "name": "a8718eba24ae332af206db4aea79e32e", "is_disabled": 0, "rental_uris": {"android": "https://dc.lft.to/lastmile_qr_scan", "ios": "https://dc.lft.to/lastmile_qr_scan"}, "type": "electric_bike", "lat": 38.8940465, "is_reserved": 0, "fusion_lat": 0.0}, {"bike_id": "5b70fc6857edac575f1c36542ac39f5e", "fusion_lon": 0.0, "lon": -76.98866, "name": "5b70fc6857edac575f1c36542ac39f5e", "is_disabled": 0, "rental_uris": {"android": "https://dc.lft.to/lastmile_qr_scan", "ios": "https://dc.lft.to/lastmile_qr_scan"}, "type": "electric_bike", "lat": 38.954889666666666, "is_reserved": 0, "fusion_lat": 0.0}, {"bike_id": "58e5e83e9beee4bc4f18d97d0ad2a43d", "fusion_lon": 0.0, "lon": -77.03853183333334, "name": "58e5e83e9beee4bc4f18d97d0ad2a43d", "is_disabled": 0, "rental_uris": {"android": "https://dc.lft.to/lastmile_qr_scan", "ios": "https://dc.lft.to/lastmile_qr_scan"}, "type": "electric_scooter", "lat": 38.867493833333334, "is_reserved": 0, "fusion_lat": 0.0}, {"bike_id": "f252f85e2f397bf718bc2a31448d3783", "fusion_lon": 0.0, "lon": -77.0075055, "name": "f252f85e2f397bf718bc2a31448d3783", "is_disabled": 0, "rental_uris": {"android": "https://dc.lft.to/lastmile_qr_scan", "ios": "https://dc.lft.to/lastmile_qr_scan"}, "type": "electric_scooter", "lat": 38.903697666666666, "is_reserved": 0, "fusion_lat": 0.0}, {"bike_id": "24d7862b8a5834d1bed2fc73842de91d", "fusion_lon": 0.0, "lon": -77.01907833333334, "name": "24d7862b8a5834d1bed2fc73842de91d", "is_disabled": 0, "rental_uris": {"android": "https://dc.lft.to/lastmile_qr_scan", "ios": "https://dc.lft.to/lastmile_qr_scan"}, "type": "electric_scooter", "lat": 38.915084666666665, "is_reserved": 0, "fusion_lat": 0.0}, {"bike_id": "4f2837d4549aaf97c337618449d92134", "fusion_lon": 0.0, "lon": -76.97850016666666, "name": "4f2837d4549aaf97c337618449d92134", "is_disabled": 0, "rental_uris": {"android": "https://dc.lft.to/lastmile_qr_scan", "ios": "https://dc.lft.to/lastmile_qr_scan"}, "type": "electric_bike", "lat": 38.87068166666667, "is_reserved": 0, "fusion_lat": 0.0}, {"bike_id": "c20c6b76d06a1ad83725ba6472be193d", "fusion_lon": 0.0, "lon": -77.04552116666666, "name": "c20c6b76d06a1ad83725ba6472be193d", "is_disabled": 0, "rental_uris": {"android": "https://dc.lft.to/lastmile_qr_scan", "ios": "https://dc.lft.to/lastmile_qr_scan"}, "type": "electric_scooter", "lat": 38.924206833333336, "is_reserved": 0, "fusion_lat": 0.0}, {"bike_id": "e96523d0749c2780eb1a3fcc3af736d0", "fusion_lon": 0.0, "lon": -77.02695583333333, "name": "e96523d0749c2780eb1a3fcc3af736d0", "is_disabled": 0, "rental_uris": {"android": "https://dc.lft.to/lastmile_qr_scan", "ios": "https://dc.lft.to/lastmile_qr_scan"}, "type": "electric_scooter", "lat": 38.9180215, "is_reserved": 0, "fusion_lat": 0.0}, {"bike_id": "4ad7dd33779b8696e71738cab69644d2", "fusion_lon": 0.0, "lon": -76.999472, "name": "4ad7dd33779b8696e71738cab69644d2", "is_disabled": 0, "rental_uris": {"android": "https://dc.lft.to/lastmile_qr_scan", "ios": "https://dc.lft.to/lastmile_qr_scan"}, "type": "electric_scooter", "lat": 38.842942, "is_reserved": 0, "fusion_lat": 0.0}, {"bike_id": "4c4775c9b728a4e0ef8c806051070622", "fusion_lon": 0.0, "lon": -77.03909816666666, "name": "4c4775c9b728a4e0ef8c806051070622", "is_disabled": 0, "rental_uris": {"android": "https://dc.lft.to/lastmile_qr_scan", "ios": "https://dc.lft.to/lastmile_qr_scan"}, "type": "electric_scooter", "lat": 38.9155425, "is_reserved": 0, "fusion_lat": 0.0}, {"bike_id": "9b80734768945dad7188b5ed07a7b566", "fusion_lon": 0.0, "lon": -76.98398966666667, "name": "9b80734768945dad7188b5ed07a7b566", "is_disabled": 0, "rental_uris": {"android": "https://dc.lft.to/lastmile_qr_scan", "ios": "https://dc.lft.to/lastmile_qr_scan"}, "type": "electric_scooter", "lat": 38.866954666666665, "is_reserved": 0, "fusion_lat": 0.0}, {"bike_id": "7874d4e967cbfcd14a865882a5bda088", "fusion_lon": 0.0, "lon": -77.03375183333333, "name": "7874d4e967cbfcd14a865882a5bda088", "is_disabled": 0, "rental_uris": {"android": "https://dc.lft.to/lastmile_qr_scan", "ios": "https://dc.lft.to/lastmile_qr_scan"}, "type": "electric_scooter", "lat": 38.92230516666667, "is_reserved": 0, "fusion_lat": 0.0}, {"bike_id": "71493b6f6cebb4c1c5431f34e24590d3", "fusion_lon": 0.0, "lon": -77.03480566666667, "name": "71493b6f6cebb4c1c5431f34e24590d3", "is_disabled": 0, "rental_uris": {"android": "https://dc.lft.to/lastmile_qr_scan", "ios": "https://dc.lft.to/lastmile_qr_scan"}, "type": "electric_scooter", "lat": 38.92491233333333, "is_reserved": 0, "fusion_lat": 0.0}, {"bike_id": "b8a7313986fa4f5b4359cf375cd74026", "fusion_lon": 0.0, "lon": -76.93739033333334, "name": "b8a7313986fa4f5b4359cf375cd74026", "is_disabled": 0, "rental_uris": {"android": "https://dc.lft.to/lastmile_qr_scan", "ios": "https://dc.lft.to/lastmile_qr_scan"}, "type": "electric_scooter", "lat": 38.89013933333333, "is_reserved": 0, "fusion_lat": 0.0}, {"bike_id": "7929011f826d2643eda61839c88f1c66", "fusion_lon": 0.0, "lon": -77.02187516666666, "name": "7929011f826d2643eda61839c88f1c66", "is_disabled": 0, "rental_uris": {"android": "https://dc.lft.to/lastmile_qr_scan", "ios": "https://dc.lft.to/lastmile_qr_scan"}, "type": "electric_scooter", "lat": 38.91890633333333, "is_reserved": 0, "fusion_lat": 0.0}, {"bike_id": "a336c284e66d22e324b4511073c0c5c8", "fusion_lon": 0.0, "lon": -77.01627383333333, "name": "a336c284e66d22e324b4511073c0c5c8", "is_disabled": 0, "rental_uris": {"android": "https://dc.lft.to/lastmile_qr_scan", "ios": "https://dc.lft.to/lastmile_qr_scan"}, "type": "electric_scooter", "lat": 38.90247883333333, "is_reserved": 0, "fusion_lat": 0.0}, {"bike_id": "a1d22835e56f4619a5d060531f45f38e", "fusion_lon": 0.0, "lon": -77.061973, "name": "a1d22835e56f4619a5d060531f45f38e", "is_disabled": 0, "rental_uris": {"android": "https://dc.lft.to/lastmile_qr_scan", "ios": "https://dc.lft.to/lastmile_qr_scan"}, "type": "electric_scooter", "lat": 38.9445235, "is_reserved": 0, "fusion_lat": 0.0}, {"bike_id": "868df7c8b0fb4773e6f09cf826ad75ea", "fusion_lon": 0.0, "lon": -77.05046583333333, "name": "868df7c8b0fb4773e6f09cf826ad75ea", "is_disabled": 0, "rental_uris": {"android": "https://dc.lft.to/lastmile_qr_scan", "ios": "https://dc.lft.to/lastmile_qr_scan"}, "type": "electric_scooter", "lat": 38.9234325, "is_reserved": 0, "fusion_lat": 0.0}, {"bike_id": "d66e1de30a83337073990c6ddf0da0a8", "fusion_lon": 0.0, "lon": -77.01611583333333, "name": "d66e1de30a83337073990c6ddf0da0a8", "is_disabled": 0, "rental_uris": {"android": "https://dc.lft.to/lastmile_qr_scan", "ios": "https://dc.lft.to/lastmile_qr_scan"}, "type": "electric_scooter", "lat": 38.899733833333336, "is_reserved": 0, "fusion_lat": 0.0}, {"bike_id": "2e60c40f412d76eed2e3141074522e17", "fusion_lon": 0.0, "lon": -77.00349516666667, "name": "2e60c40f412d76eed2e3141074522e17", "is_disabled": 0, "rental_uris": {"android": "https://dc.lft.to/lastmile_qr_scan", "ios": "https://dc.lft.to/lastmile_qr_scan"}, "type": "electric_scooter", "lat": 38.9012615, "is_reserved": 0, "fusion_lat": 0.0}, {"bike_id": "9f9c79f1f15cfaa3f44d4047d68d2e76", "fusion_lon": 0.0, "lon": -77.12082716666667, "name": "9f9c79f1f15cfaa3f44d4047d68d2e76", "is_disabled": 0, "rental_uris": {"android": "https://dc.lft.to/lastmile_qr_scan", "ios": "https://dc.lft.to/lastmile_qr_scan"}, "type": "electric_bike", "lat": 38.85409666666666, "is_reserved": 0, "fusion_lat": 0.0}, {"bike_id": "74c82ad9cb3d3e7cd59eb347a497972d", "fusion_lon": 0.0, "lon": -77.05396116666667, "name": "74c82ad9cb3d3e7cd59eb347a497972d", "is_disabled": 0, "rental_uris": {"android": "https://dc.lft.to/lastmile_qr_scan", "ios": "https://dc.lft.to/lastmile_qr_scan"}, "type": "electric_scooter", "lat": 38.928026, "is_reserved": 0, "fusion_lat": 0.0}, {"bike_id": "65812cfa600bca837ab523ebcaea5a20", "fusion_lon": 0.0, "lon": -77.01741416666667, "name": "65812cfa600bca837ab523ebcaea5a20", "is_disabled": 0, "rental_uris": {"android": "https://dc.lft.to/lastmile_qr_scan", "ios": "https://dc.lft.to/lastmile_qr_scan"}, "type": "electric_scooter", "lat": 38.91116133333333, "is_reserved": 0, "fusion_lat": 0.0}, {"bike_id": "1b5ef173757b251d79d3652dd8f8c01b", "fusion_lon": 0.0, "lon": -77.031059, "name": "1b5ef173757b251d79d3652dd8f8c01b", "is_disabled": 0, "rental_uris": {"android": "https://dc.lft.to/lastmile_qr_scan", "ios": "https://dc.lft.to/lastmile_qr_scan"}, "type": "electric_scooter", "lat": 38.8985025, "is_reserved": 0, "fusion_lat": 0.0}, {"bike_id": "04c71e11b39b5fec0b394436d4feb2b6", "fusion_lon": 0.0, "lon": -76.9541475, "name": "04c71e11b39b5fec0b394436d4feb2b6", "is_disabled": 0, "rental_uris": {"android": "https://dc.lft.to/lastmile_qr_scan", "ios": "https://dc.lft.to/lastmile_qr_scan"}, "type": "electric_bike", "lat": 38.889967166666665, "is_reserved": 0, "fusion_lat": 0.0}, {"bike_id": "311f79dde831363a57002b7b908295a9", "fusion_lon": 0.0, "lon": -77.01221166666667, "name": "311f79dde831363a57002b7b908295a9", "is_disabled": 0, "rental_uris": {"android": "https://dc.lft.to/lastmile_qr_scan", "ios": "https://dc.lft.to/lastmile_qr_scan"}, "type": "electric_scooter", "lat": 38.91530983333333, "is_reserved": 0, "fusion_lat": 0.0}, {"bike_id": "409d8f701fb9e1db90ab6ba794817e46", "fusion_lon": 0.0, "lon": -77.0299305, "name": "409d8f701fb9e1db90ab6ba794817e46", "is_disabled": 0, "rental_uris": {"android": "https://dc.lft.to/lastmile_qr_scan", "ios": "https://dc.lft.to/lastmile_qr_scan"}, "type": "electric_scooter", "lat": 38.92387183333334, "is_reserved": 0, "fusion_lat": 0.0}, {"bike_id": "956af8099941962a50ce209a00bcfd2e", "fusion_lon": 0.0, "lon": -77.02297816666666, "name": "956af8099941962a50ce209a00bcfd2e", "is_disabled": 0, "rental_uris": {"android": "https://dc.lft.to/lastmile_qr_scan", "ios": "https://dc.lft.to/lastmile_qr_scan"}, "type": "electric_scooter", "lat": 38.935940333333335, "is_reserved": 0, "fusion_lat": 0.0}, {"bike_id": "89c47f8cdf0c7ad6c436be0ce4357180", "fusion_lon": 0.0, "lon": -77.03292383333333, "name": "89c47f8cdf0c7ad6c436be0ce4357180", "is_disabled": 0, "rental_uris": {"android": "https://dc.lft.to/lastmile_qr_scan", "ios": "https://dc.lft.to/lastmile_qr_scan"}, "type": "electric_scooter", "lat": 38.9199245, "is_reserved": 0, "fusion_lat": 0.0}, {"bike_id": "d9015949cd9a1914b87f72385e9610ed", "fusion_lon": 0.0, "lon": -77.03352833333334, "name": "d9015949cd9a1914b87f72385e9610ed", "is_disabled": 0, "rental_uris": {"android": "https://dc.lft.to/lastmile_qr_scan", "ios": "https://dc.lft.to/lastmile_qr_scan"}, "type": "electric_scooter", "lat": 38.898425333333336, "is_reserved": 0, "fusion_lat": 0.0}, {"bike_id": "75e11da7bfaac8a1152fa797fa1e07b8", "fusion_lon": 0.0, "lon": -77.0431055, "name": "75e11da7bfaac8a1152fa797fa1e07b8", "is_disabled": 0, "rental_uris": {"android": "https://dc.lft.to/lastmile_qr_scan", "ios": "https://dc.lft.to/lastmile_qr_scan"}, "type": "electric_scooter", "lat": 38.926572666666665, "is_reserved": 0, "fusion_lat": 0.0}, {"bike_id": "ea6f11f8e06d5d73340fe9b1bf274b43", "fusion_lon": 0.0, "lon": -76.987297, "name": "ea6f11f8e06d5d73340fe9b1bf274b43", "is_disabled": 0, "rental_uris": {"android": "https://dc.lft.to/lastmile_qr_scan", "ios": "https://dc.lft.to/lastmile_qr_scan"}, "type": "electric_scooter", "lat": 38.90698666666667, "is_reserved": 0, "fusion_lat": 0.0}, {"bike_id": "e0c2da164950724578246fe9ecf86c8d", "fusion_lon": 0.0, "lon": -77.03668566666667, "name": "e0c2da164950724578246fe9ecf86c8d", "is_disabled": 0, "rental_uris": {"android": "https://dc.lft.to/lastmile_qr_scan", "ios": "https://dc.lft.to/lastmile_qr_scan"}, "type": "electric_scooter", "lat": 38.921043, "is_reserved": 0, "fusion_lat": 0.0}, {"bike_id": "c5bc1329a08d8864a02a8cb7bb070834", "fusion_lon": 0.0, "lon": -77.02711316666667, "name": "c5bc1329a08d8864a02a8cb7bb070834", "is_disabled": 0, "rental_uris": {"android": "https://dc.lft.to/lastmile_qr_scan", "ios": "https://dc.lft.to/lastmile_qr_scan"}, "type": "electric_scooter", "lat": 38.9095505, "is_reserved": 0, "fusion_lat": 0.0}, {"bike_id": "011f483763ada59b282233ac87964c44", "fusion_lon": 0.0, "lon": -77.03216866666666, "name": "011f483763ada59b282233ac87964c44", "is_disabled": 0, "rental_uris": {"android": "https://dc.lft.to/lastmile_qr_scan", "ios": "https://dc.lft.to/lastmile_qr_scan"}, "type": "electric_scooter", "lat": 38.9185035, "is_reserved": 0, "fusion_lat": 0.0}, {"bike_id": "1bfe45ab7dd55eb4b5aca3b6794738b0", "fusion_lon": 0.0, "lon": -76.93754833333334, "name": "1bfe45ab7dd55eb4b5aca3b6794738b0", "is_disabled": 0, "rental_uris": {"android": "https://dc.lft.to/lastmile_qr_scan", "ios": "https://dc.lft.to/lastmile_qr_scan"}, "type": "electric_scooter", "lat": 38.890456, "is_reserved": 0, "fusion_lat": 0.0}, {"bike_id": "ab997c4e78edb1ee7cd1d7530e3023b8", "fusion_lon": 0.0, "lon": -77.02929133333333, "name": "ab997c4e78edb1ee7cd1d7530e3023b8", "is_disabled": 0, "rental_uris": {"android": "https://dc.lft.to/lastmile_qr_scan", "ios": "https://dc.lft.to/lastmile_qr_scan"}, "type": "electric_scooter", "lat": 38.89934866666667, "is_reserved": 0, "fusion_lat": 0.0}, {"bike_id": "d4ec8a8e96e30bc64354e9aac06814df", "fusion_lon": 0.0, "lon": -76.99265866666667, "name": "d4ec8a8e96e30bc64354e9aac06814df", "is_disabled": 0, "rental_uris": {"android": "https://dc.lft.to/lastmile_qr_scan", "ios": "https://dc.lft.to/lastmile_qr_scan"}, "type": "electric_scooter", "lat": 38.8864085, "is_reserved": 0, "fusion_lat": 0.0}, {"bike_id": "bf37eb3b9f11d34201660a5eaedb88ab", "fusion_lon": 0.0, "lon": -76.98885433333334, "name": "bf37eb3b9f11d34201660a5eaedb88ab", "is_disabled": 0, "rental_uris": {"android": "https://dc.lft.to/lastmile_qr_scan", "ios": "https://dc.lft.to/lastmile_qr_scan"}, "type": "electric_scooter", "lat": 38.86663083333333, "is_reserved": 0, "fusion_lat": 0.0}, {"bike_id": "120c95d4324711ce695f80e2341e8c2a", "fusion_lon": 0.0, "lon": -77.02587883333334, "name": "120c95d4324711ce695f80e2341e8c2a", "is_disabled": 0, "rental_uris": {"android": "https://dc.lft.to/lastmile_qr_scan", "ios": "https://dc.lft.to/lastmile_qr_scan"}, "type": "electric_scooter", "lat": 38.902397, "is_reserved": 0, "fusion_lat": 0.0}, {"bike_id": "742f3283b71606a54d9063c653ee46f4", "fusion_lon": 0.0, "lon": -77.00568516666667, "name": "742f3283b71606a54d9063c653ee46f4", "is_disabled": 0, "rental_uris": {"android": "https://dc.lft.to/lastmile_qr_scan", "ios": "https://dc.lft.to/lastmile_qr_scan"}, "type": "electric_scooter", "lat": 38.8805905, "is_reserved": 0, "fusion_lat": 0.0}, {"bike_id": "e330c54743a920e9b7407c9b807f2cea", "fusion_lon": 0.0, "lon": -77.03697633333333, "name": "e330c54743a920e9b7407c9b807f2cea", "is_disabled": 0, "rental_uris": {"android": "https://dc.lft.to/lastmile_qr_scan", "ios": "https://dc.lft.to/lastmile_qr_scan"}, "type": "electric_scooter", "lat": 38.92643283333334, "is_reserved": 0, "fusion_lat": 0.0}, {"bike_id": "036d7cc2d43d27c5d5cfe64bbfb6e5eb", "fusion_lon": 0.0, "lon": -77.06927, "name": "036d7cc2d43d27c5d5cfe64bbfb6e5eb", "is_disabled": 0, "rental_uris": {"android": "https://dc.lft.to/lastmile_qr_scan", "ios": "https://dc.lft.to/lastmile_qr_scan"}, "type": "electric_scooter", "lat": 38.907706, "is_reserved": 0, "fusion_lat": 0.0}, {"bike_id": "3e01e779bf85144c730e8ff9d30dec76", "fusion_lon": 0.0, "lon": -77.02496666666667, "name": "3e01e779bf85144c730e8ff9d30dec76", "is_disabled": 0, "rental_uris": {"android": "https://dc.lft.to/lastmile_qr_scan", "ios": "https://dc.lft.to/lastmile_qr_scan"}, "type": "electric_scooter", "lat": 38.907346833333335, "is_reserved": 0, "fusion_lat": 0.0}, {"bike_id": "3ec912bddb08917fe0aa1ad2efbdd5f2", "fusion_lon": 0.0, "lon": -77.048938, "name": "3ec912bddb08917fe0aa1ad2efbdd5f2", "is_disabled": 0, "rental_uris": {"android": "https://dc.lft.to/lastmile_qr_scan", "ios": "https://dc.lft.to/lastmile_qr_scan"}, "type": "electric_scooter", "lat": 38.90068, "is_reserved": 0, "fusion_lat": 0.0}, {"bike_id": "9a400ddc0894d3722cbc68bfef00659a", "fusion_lon": 0.0, "lon": -77.0149055, "name": "9a400ddc0894d3722cbc68bfef00659a", "is_disabled": 0, "rental_uris": {"android": "https://dc.lft.to/lastmile_qr_scan", "ios": "https://dc.lft.to/lastmile_qr_scan"}, "type": "electric_scooter", "lat": 38.899252, "is_reserved": 0, "fusion_lat": 0.0}, {"bike_id": "5934724f44d2b58dad4db096895cd324", "fusion_lon": 0.0, "lon": -77.033591, "name": "5934724f44d2b58dad4db096895cd324", "is_disabled": 0, "rental_uris": {"android": "https://dc.lft.to/lastmile_qr_scan", "ios": "https://dc.lft.to/lastmile_qr_scan"}, "type": "electric_scooter", "lat": 38.92895216666667, "is_reserved": 0, "fusion_lat": 0.0}, {"bike_id": "b89ed907f3a18cde3ebfaed255c68fa8", "fusion_lon": 0.0, "lon": -77.05924366666666, "name": "b89ed907f3a18cde3ebfaed255c68fa8", "is_disabled": 0, "rental_uris": {"android": "https://dc.lft.to/lastmile_qr_scan", "ios": "https://dc.lft.to/lastmile_qr_scan"}, "type": "electric_scooter", "lat": 38.9094085, "is_reserved": 0, "fusion_lat": 0.0}, {"bike_id": "888ef8c9ac6eab5260afe8c025f8897e", "fusion_lon": 0.0, "lon": -77.04481716666666, "name": "888ef8c9ac6eab5260afe8c025f8897e", "is_disabled": 0, "rental_uris": {"android": "https://dc.lft.to/lastmile_qr_scan", "ios": "https://dc.lft.to/lastmile_qr_scan"}, "type": "electric_scooter", "lat": 38.91365316666667, "is_reserved": 0, "fusion_lat": 0.0}, {"bike_id": "c1284a757bb25f53f73e3d2b0adf16e7", "fusion_lon": 0.0, "lon": -77.0244395, "name": "c1284a757bb25f53f73e3d2b0adf16e7", "is_disabled": 0, "rental_uris": {"android": "https://dc.lft.to/lastmile_qr_scan", "ios": "https://dc.lft.to/lastmile_qr_scan"}, "type": "electric_scooter", "lat": 38.9022215, "is_reserved": 0, "fusion_lat": 0.0}, {"bike_id": "30738a5a72992ea61141cc8e1a91f484", "fusion_lon": 0.0, "lon": -76.937331, "name": "30738a5a72992ea61141cc8e1a91f484", "is_disabled": 0, "rental_uris": {"android": "https://dc.lft.to/lastmile_qr_scan", "ios": "https://dc.lft.to/lastmile_qr_scan"}, "type": "electric_scooter", "lat": 38.890198833333336, "is_reserved": 0, "fusion_lat": 0.0}, {"bike_id": "58a0a447962b374a45367de5e399bbf5", "fusion_lon": 0.0, "lon": -77.0140545, "name": "58a0a447962b374a45367de5e399bbf5", "is_disabled": 0, "rental_uris": {"android": "https://dc.lft.to/lastmile_qr_scan", "ios": "https://dc.lft.to/lastmile_qr_scan"}, "type": "electric_scooter", "lat": 38.88745766666667, "is_reserved": 0, "fusion_lat": 0.0}, {"bike_id": "fafd105ac16dd7fbde72bfcdd389d491", "fusion_lon": 0.0, "lon": -77.00197283333334, "name": "fafd105ac16dd7fbde72bfcdd389d491", "is_disabled": 0, "rental_uris": {"android": "https://dc.lft.to/lastmile_qr_scan", "ios": "https://dc.lft.to/lastmile_qr_scan"}, "type": "electric_scooter", "lat": 38.90239116666667, "is_reserved": 0, "fusion_lat": 0.0}, {"bike_id": "1ee1b80b089265b642c39171905c37fc", "fusion_lon": 0.0, "lon": -76.99090083333333, "name": "1ee1b80b089265b642c39171905c37fc", "is_disabled": 0, "rental_uris": {"android": "https://dc.lft.to/lastmile_qr_scan", "ios": "https://dc.lft.to/lastmile_qr_scan"}, "type": "electric_scooter", "lat": 38.882457, "is_reserved": 0, "fusion_lat": 0.0}, {"bike_id": "c921ac6acdf5b31b85c83a4dad6d7150", "fusion_lon": 0.0, "lon": -77.02224066666666, "name": "c921ac6acdf5b31b85c83a4dad6d7150", "is_disabled": 0, "rental_uris": {"android": "https://dc.lft.to/lastmile_qr_scan", "ios": "https://dc.lft.to/lastmile_qr_scan"}, "type": "electric_scooter", "lat": 38.89219383333333, "is_reserved": 0, "fusion_lat": 0.0}, {"bike_id": "3d1d64dfab2c59100a51247ecd32063c", "fusion_lon": 0.0, "lon": -77.0736885, "name": "3d1d64dfab2c59100a51247ecd32063c", "is_disabled": 0, "rental_uris": {"android": "https://dc.lft.to/lastmile_qr_scan", "ios": "https://dc.lft.to/lastmile_qr_scan"}, "type": "electric_bike", "lat": 38.9618785, "is_reserved": 0, "fusion_lat": 0.0}, {"bike_id": "dc8bfe5bbd5babfcb35e77f6c6f09e84", "fusion_lon": 0.0, "lon": -77.02690033333333, "name": "dc8bfe5bbd5babfcb35e77f6c6f09e84", "is_disabled": 0, "rental_uris": {"android": "https://dc.lft.to/lastmile_qr_scan", "ios": "https://dc.lft.to/lastmile_qr_scan"}, "type": "electric_scooter", "lat": 38.89993066666667, "is_reserved": 0, "fusion_lat": 0.0}, {"bike_id": "e8c8f7113df1535dae2aa797d342c66c", "fusion_lon": 0.0, "lon": -77.04871283333334, "name": "e8c8f7113df1535dae2aa797d342c66c", "is_disabled": 0, "rental_uris": {"android": "https://dc.lft.to/lastmile_qr_scan", "ios": "https://dc.lft.to/lastmile_qr_scan"}, "type": "electric_scooter", "lat": 38.90649533333333, "is_reserved": 0, "fusion_lat": 0.0}, {"bike_id": "1361d2601492d8ccaa2253466fbafc49", "fusion_lon": 0.0, "lon": -77.00973816666666, "name": "1361d2601492d8ccaa2253466fbafc49", "is_disabled": 0, "rental_uris": {"android": "https://dc.lft.to/lastmile_qr_scan", "ios": "https://dc.lft.to/lastmile_qr_scan"}, "type": "electric_bike", "lat": 38.96128516666667, "is_reserved": 0, "fusion_lat": 0.0}, {"bike_id": "363a983cb6043e476a18987ad3220caf", "fusion_lon": 0.0, "lon": -77.00586716666666, "name": "363a983cb6043e476a18987ad3220caf", "is_disabled": 0, "rental_uris": {"android": "https://dc.lft.to/lastmile_qr_scan", "ios": "https://dc.lft.to/lastmile_qr_scan"}, "type": "electric_scooter", "lat": 38.905629, "is_reserved": 0, "fusion_lat": 0.0}, {"bike_id": "f59544e8e2fe2266d85463449e455ea8", "fusion_lon": 0.0, "lon": -77.04317533333334, "name": "f59544e8e2fe2266d85463449e455ea8", "is_disabled": 0, "rental_uris": {"android": "https://dc.lft.to/lastmile_qr_scan", "ios": "https://dc.lft.to/lastmile_qr_scan"}, "type": "electric_scooter", "lat": 38.9188105, "is_reserved": 0, "fusion_lat": 0.0}, {"bike_id": "390c30e34927bea3bf23270595976c0f", "fusion_lon": 0.0, "lon": -76.98836683333333, "name": "390c30e34927bea3bf23270595976c0f", "is_disabled": 0, "rental_uris": {"android": "https://dc.lft.to/lastmile_qr_scan", "ios": "https://dc.lft.to/lastmile_qr_scan"}, "type": "electric_scooter", "lat": 38.90031316666666, "is_reserved": 0, "fusion_lat": 0.0}, {"bike_id": "4fac90ef7794e48c15b128f3689fb58f", "fusion_lon": 0.0, "lon": -77.02806966666667, "name": "4fac90ef7794e48c15b128f3689fb58f", "is_disabled": 0, "rental_uris": {"android": "https://dc.lft.to/lastmile_qr_scan", "ios": "https://dc.lft.to/lastmile_qr_scan"}, "type": "electric_scooter", "lat": 38.93083716666667, "is_reserved": 0, "fusion_lat": 0.0}, {"bike_id": "94f80b78da9bd2d00135bdb08084f2cb", "fusion_lon": 0.0, "lon": -77.04123383333334, "name": "94f80b78da9bd2d00135bdb08084f2cb", "is_disabled": 0, "rental_uris": {"android": "https://dc.lft.to/lastmile_qr_scan", "ios": "https://dc.lft.to/lastmile_qr_scan"}, "type": "electric_scooter", "lat": 38.92176583333333, "is_reserved": 0, "fusion_lat": 0.0}, {"bike_id": "6cf1e87b08faa0dce4364493e32cdc69", "fusion_lon": 0.0, "lon": -77.028508, "name": "6cf1e87b08faa0dce4364493e32cdc69", "is_disabled": 0, "rental_uris": {"android": "https://dc.lft.to/lastmile_qr_scan", "ios": "https://dc.lft.to/lastmile_qr_scan"}, "type": "electric_scooter", "lat": 38.925704, "is_reserved": 0, "fusion_lat": 0.0}, {"bike_id": "128ddc54cfd76a094c70a54dd73c898f", "fusion_lon": 0.0, "lon": -77.00065666666667, "name": "128ddc54cfd76a094c70a54dd73c898f", "is_disabled": 0, "rental_uris": {"android": "https://dc.lft.to/lastmile_qr_scan", "ios": "https://dc.lft.to/lastmile_qr_scan"}, "type": "electric_scooter", "lat": 38.90028383333333, "is_reserved": 0, "fusion_lat": 0.0}, {"bike_id": "6a8f75c98afb7f9b5f07c3083abef3d3", "fusion_lon": 0.0, "lon": -77.0228525, "name": "6a8f75c98afb7f9b5f07c3083abef3d3", "is_disabled": 0, "rental_uris": {"android": "https://dc.lft.to/lastmile_qr_scan", "ios": "https://dc.lft.to/lastmile_qr_scan"}, "type": "electric_scooter", "lat": 38.8906215, "is_reserved": 0, "fusion_lat": 0.0}, {"bike_id": "d8e397da2fa8201f2dbb9d6aacb01708", "fusion_lon": 0.0, "lon": -77.015875, "name": "d8e397da2fa8201f2dbb9d6aacb01708", "is_disabled": 0, "rental_uris": {"android": "https://dc.lft.to/lastmile_qr_scan", "ios": "https://dc.lft.to/lastmile_qr_scan"}, "type": "electric_scooter", "lat": 38.95014916666667, "is_reserved": 0, "fusion_lat": 0.0}, {"bike_id": "178b08c5b54d30f178c0c95b983f647c", "fusion_lon": 0.0, "lon": -77.0297635, "name": "178b08c5b54d30f178c0c95b983f647c", "is_disabled": 0, "rental_uris": {"android": "https://dc.lft.to/lastmile_qr_scan", "ios": "https://dc.lft.to/lastmile_qr_scan"}, "type": "electric_scooter", "lat": 38.94591916666667, "is_reserved": 0, "fusion_lat": 0.0}, {"bike_id": "53bd3304ae7f063424a728e0ef238620", "fusion_lon": 0.0, "lon": -76.93044566666667, "name": "53bd3304ae7f063424a728e0ef238620", "is_disabled": 0, "rental_uris": {"android": "https://dc.lft.to/lastmile_qr_scan", "ios": "https://dc.lft.to/lastmile_qr_scan"}, "type": "electric_scooter", "lat": 38.89516916666667, "is_reserved": 0, "fusion_lat": 0.0}, {"bike_id": "a49e99731572d7bff4f1444de40c5977", "fusion_lon": 0.0, "lon": -76.99034466666667, "name": "a49e99731572d7bff4f1444de40c5977", "is_disabled": 0, "rental_uris": {"android": "https://dc.lft.to/lastmile_qr_scan", "ios": "https://dc.lft.to/lastmile_qr_scan"}, "type": "electric_scooter", "lat": 38.888729833333336, "is_reserved": 0, "fusion_lat": 0.0}, {"bike_id": "41acace809b7cf3483b0181332a47563", "fusion_lon": 0.0, "lon": -77.04906466666667, "name": "41acace809b7cf3483b0181332a47563", "is_disabled": 0, "rental_uris": {"android": "https://dc.lft.to/lastmile_qr_scan", "ios": "https://dc.lft.to/lastmile_qr_scan"}, "type": "electric_scooter", "lat": 38.90088633333333, "is_reserved": 0, "fusion_lat": 0.0}, {"bike_id": "d47c551fa94339baa5fe7ba48ee2a30a", "fusion_lon": 0.0, "lon": -77.09251633333334, "name": "d47c551fa94339baa5fe7ba48ee2a30a", "is_disabled": 0, "rental_uris": {"android": "https://dc.lft.to/lastmile_qr_scan", "ios": "https://dc.lft.to/lastmile_qr_scan"}, "type": "electric_scooter", "lat": 38.941519666666665, "is_reserved": 0, "fusion_lat": 0.0}, {"bike_id": "2f7de2499b615267ef9fbfc328c650a5", "fusion_lon": 0.0, "lon": -76.97593116666667, "name": "2f7de2499b615267ef9fbfc328c650a5", "is_disabled": 0, "rental_uris": {"android": "https://dc.lft.to/lastmile_qr_scan", "ios": "https://dc.lft.to/lastmile_qr_scan"}, "type": "electric_bike", "lat": 38.84032283333333, "is_reserved": 0, "fusion_lat": 0.0}, {"bike_id": "4acc5f1366c209041753602363463cba", "fusion_lon": 0.0, "lon": -77.04297733333334, "name": "4acc5f1366c209041753602363463cba", "is_disabled": 0, "rental_uris": {"android": "https://dc.lft.to/lastmile_qr_scan", "ios": "https://dc.lft.to/lastmile_qr_scan"}, "type": "electric_scooter", "lat": 38.917882166666665, "is_reserved": 0, "fusion_lat": 0.0}, {"bike_id": "658ecdcc283aae4dec93085fe2995842", "fusion_lon": 0.0, "lon": -77.01602716666666, "name": "658ecdcc283aae4dec93085fe2995842", "is_disabled": 0, "rental_uris": {"android": "https://dc.lft.to/lastmile_qr_scan", "ios": "https://dc.lft.to/lastmile_qr_scan"}, "type": "electric_scooter", "lat": 38.912755, "is_reserved": 0, "fusion_lat": 0.0}, {"bike_id": "e9f85bb6cb6794aeb8dd53a4d6453346", "fusion_lon": 0.0, "lon": -76.98821983333333, "name": "e9f85bb6cb6794aeb8dd53a4d6453346", "is_disabled": 0, "rental_uris": {"android": "https://dc.lft.to/lastmile_qr_scan", "ios": "https://dc.lft.to/lastmile_qr_scan"}, "type": "electric_scooter", "lat": 38.900346666666664, "is_reserved": 0, "fusion_lat": 0.0}, {"bike_id": "940be6a9808c70f75150523e75ef4ce7", "fusion_lon": 0.0, "lon": -77.01119083333333, "name": "940be6a9808c70f75150523e75ef4ce7", "is_disabled": 0, "rental_uris": {"android": "https://dc.lft.to/lastmile_qr_scan", "ios": "https://dc.lft.to/lastmile_qr_scan"}, "type": "electric_scooter", "lat": 38.9036115, "is_reserved": 0, "fusion_lat": 0.0}, {"bike_id": "ca06e7b73eabdb7f2aafd5bcafa9c344", "fusion_lon": 0.0, "lon": -77.02630583333334, "name": "ca06e7b73eabdb7f2aafd5bcafa9c344", "is_disabled": 0, "rental_uris": {"android": "https://dc.lft.to/lastmile_qr_scan", "ios": "https://dc.lft.to/lastmile_qr_scan"}, "type": "electric_scooter", "lat": 38.9300315, "is_reserved": 0, "fusion_lat": 0.0}, {"bike_id": "867f183a32937ef0cf01569ac386aff8", "fusion_lon": 0.0, "lon": -77.03266566666667, "name": "867f183a32937ef0cf01569ac386aff8", "is_disabled": 0, "rental_uris": {"android": "https://dc.lft.to/lastmile_qr_scan", "ios": "https://dc.lft.to/lastmile_qr_scan"}, "type": "electric_scooter", "lat": 38.9162775, "is_reserved": 0, "fusion_lat": 0.0}, {"bike_id": "b3281a2a0593a0f89b48f6bbaaee00ac", "fusion_lon": 0.0, "lon": -77.041623, "name": "b3281a2a0593a0f89b48f6bbaaee00ac", "is_disabled": 0, "rental_uris": {"android": "https://dc.lft.to/lastmile_qr_scan", "ios": "https://dc.lft.to/lastmile_qr_scan"}, "type": "electric_scooter", "lat": 38.9164865, "is_reserved": 0, "fusion_lat": 0.0}, {"bike_id": "aa8f08618f3b05b6c698155d9b8fa343", "fusion_lon": 0.0, "lon": -77.0319915, "name": "aa8f08618f3b05b6c698155d9b8fa343", "is_disabled": 0, "rental_uris": {"android": "https://dc.lft.to/lastmile_qr_scan", "ios": "https://dc.lft.to/lastmile_qr_scan"}, "type": "electric_scooter", "lat": 38.90717683333333, "is_reserved": 0, "fusion_lat": 0.0}, {"bike_id": "8ea8de6051efc8a9eafe86bfeafaa3d5", "fusion_lon": 0.0, "lon": -77.03859783333333, "name": "8ea8de6051efc8a9eafe86bfeafaa3d5", "is_disabled": 0, "rental_uris": {"android": "https://dc.lft.to/lastmile_qr_scan", "ios": "https://dc.lft.to/lastmile_qr_scan"}, "type": "electric_scooter", "lat": 38.910929833333334, "is_reserved": 0, "fusion_lat": 0.0}, {"bike_id": "520817f2902d382effc5ac8293fb97e2", "fusion_lon": 0.0, "lon": -77.03263033333333, "name": "520817f2902d382effc5ac8293fb97e2", "is_disabled": 0, "rental_uris": {"android": "https://dc.lft.to/lastmile_qr_scan", "ios": "https://dc.lft.to/lastmile_qr_scan"}, "type": "electric_scooter", "lat": 38.92975666666667, "is_reserved": 0, "fusion_lat": 0.0}, {"bike_id": "630440a29a5621b1cff8e157898d511b", "fusion_lon": 0.0, "lon": -77.02483016666666, "name": "630440a29a5621b1cff8e157898d511b", "is_disabled": 0, "rental_uris": {"android": "https://dc.lft.to/lastmile_qr_scan", "ios": "https://dc.lft.to/lastmile_qr_scan"}, "type": "electric_scooter", "lat": 38.90321483333334, "is_reserved": 0, "fusion_lat": 0.0}, {"bike_id": "08012b9d1be52f04853207048b906772", "fusion_lon": 0.0, "lon": -77.02723083333333, "name": "08012b9d1be52f04853207048b906772", "is_disabled": 0, "rental_uris": {"android": "https://dc.lft.to/lastmile_qr_scan", "ios": "https://dc.lft.to/lastmile_qr_scan"}, "type": "electric_scooter", "lat": 38.94962433333333, "is_reserved": 0, "fusion_lat": 0.0}, {"bike_id": "226d8b65fc872aae521c68700fb6b991", "fusion_lon": 0.0, "lon": -77.00567, "name": "226d8b65fc872aae521c68700fb6b991", "is_disabled": 0, "rental_uris": {"android": "https://dc.lft.to/lastmile_qr_scan", "ios": "https://dc.lft.to/lastmile_qr_scan"}, "type": "electric_scooter", "lat": 38.885056166666665, "is_reserved": 0, "fusion_lat": 0.0}, {"bike_id": "cd38523da7b10e105f7a411a7ebdcfec", "fusion_lon": 0.0, "lon": -77.01610633333334, "name": "cd38523da7b10e105f7a411a7ebdcfec", "is_disabled": 0, "rental_uris": {"android": "https://dc.lft.to/lastmile_qr_scan", "ios": "https://dc.lft.to/lastmile_qr_scan"}, "type": "electric_scooter", "lat": 38.895064, "is_reserved": 0, "fusion_lat": 0.0}, {"bike_id": "603db68a2a6a7feb5b701fbd36bb57df", "fusion_lon": 0.0, "lon": -76.999482, "name": "603db68a2a6a7feb5b701fbd36bb57df", "is_disabled": 0, "rental_uris": {"android": "https://dc.lft.to/lastmile_qr_scan", "ios": "https://dc.lft.to/lastmile_qr_scan"}, "type": "electric_scooter", "lat": 38.84299633333333, "is_reserved": 0, "fusion_lat": 0.0}, {"bike_id": "1937c55c089a4343bdbc13c560e150a7", "fusion_lon": 0.0, "lon": -77.01810216666667, "name": "1937c55c089a4343bdbc13c560e150a7", "is_disabled": 0, "rental_uris": {"android": "https://dc.lft.to/lastmile_qr_scan", "ios": "https://dc.lft.to/lastmile_qr_scan"}, "type": "electric_scooter", "lat": 38.92130816666667, "is_reserved": 0, "fusion_lat": 0.0}, {"bike_id": "67fbdc0c5a53f10fc87c391a39e7ebf1", "fusion_lon": 0.0, "lon": -76.9938775, "name": "67fbdc0c5a53f10fc87c391a39e7ebf1", "is_disabled": 0, "rental_uris": {"android": "https://dc.lft.to/lastmile_qr_scan", "ios": "https://dc.lft.to/lastmile_qr_scan"}, "type": "electric_scooter", "lat": 38.897355, "is_reserved": 0, "fusion_lat": 0.0}, {"bike_id": "e39e59dea2b13c53578aa38bf78400d0", "fusion_lon": 0.0, "lon": -76.99692966666667, "name": "e39e59dea2b13c53578aa38bf78400d0", "is_disabled": 0, "rental_uris": {"android": "https://dc.lft.to/lastmile_qr_scan", "ios": "https://dc.lft.to/lastmile_qr_scan"}, "type": "electric_bike", "lat": 38.9110935, "is_reserved": 0, "fusion_lat": 0.0}, {"bike_id": "84b6e951f542b58ad9a38bddaf2e37d7", "fusion_lon": 0.0, "lon": -77.06405116666667, "name": "84b6e951f542b58ad9a38bddaf2e37d7", "is_disabled": 0, "rental_uris": {"android": "https://dc.lft.to/lastmile_qr_scan", "ios": "https://dc.lft.to/lastmile_qr_scan"}, "type": "electric_scooter", "lat": 38.91366816666667, "is_reserved": 0, "fusion_lat": 0.0}, {"bike_id": "af832d65866e8feebe7f58e22811a01c", "fusion_lon": 0.0, "lon": -77.03635416666667, "name": "af832d65866e8feebe7f58e22811a01c", "is_disabled": 0, "rental_uris": {"android": "https://dc.lft.to/lastmile_qr_scan", "ios": "https://dc.lft.to/lastmile_qr_scan"}, "type": "electric_scooter", "lat": 38.93175133333333, "is_reserved": 0, "fusion_lat": 0.0}, {"bike_id": "8f9995a71ec5ef0c7b52dc71f680542a", "fusion_lon": 0.0, "lon": -77.0200325, "name": "8f9995a71ec5ef0c7b52dc71f680542a", "is_disabled": 0, "rental_uris": {"android": "https://dc.lft.to/lastmile_qr_scan", "ios": "https://dc.lft.to/lastmile_qr_scan"}, "type": "electric_scooter", "lat": 38.8955265, "is_reserved": 0, "fusion_lat": 0.0}, {"bike_id": "b4118d25c211f7b3bd2cdfcfa7839842", "fusion_lon": 0.0, "lon": -77.02963983333333, "name": "b4118d25c211f7b3bd2cdfcfa7839842", "is_disabled": 0, "rental_uris": {"android": "https://dc.lft.to/lastmile_qr_scan", "ios": "https://dc.lft.to/lastmile_qr_scan"}, "type": "electric_scooter", "lat": 38.92332233333333, "is_reserved": 0, "fusion_lat": 0.0}, {"bike_id": "70f45e04a396582f005e15f8b29c6040", "fusion_lon": 0.0, "lon": -77.03076766666666, "name": "70f45e04a396582f005e15f8b29c6040", "is_disabled": 0, "rental_uris": {"android": "https://dc.lft.to/lastmile_qr_scan", "ios": "https://dc.lft.to/lastmile_qr_scan"}, "type": "electric_scooter", "lat": 38.917565, "is_reserved": 0, "fusion_lat": 0.0}, {"bike_id": "c04a4028cebde06fea1538678c843185", "fusion_lon": 0.0, "lon": -76.98614333333333, "name": "c04a4028cebde06fea1538678c843185", "is_disabled": 0, "rental_uris": {"android": "https://dc.lft.to/lastmile_qr_scan", "ios": "https://dc.lft.to/lastmile_qr_scan"}, "type": "electric_scooter", "lat": 38.93828633333333, "is_reserved": 0, "fusion_lat": 0.0}, {"bike_id": "8a24b9cb027e46571b4d015d40f38ef4", "fusion_lon": 0.0, "lon": -77.05228033333333, "name": "8a24b9cb027e46571b4d015d40f38ef4", "is_disabled": 0, "rental_uris": {"android": "https://dc.lft.to/lastmile_qr_scan", "ios": "https://dc.lft.to/lastmile_qr_scan"}, "type": "electric_scooter", "lat": 38.924601, "is_reserved": 0, "fusion_lat": 0.0}, {"bike_id": "47c5981c60daa397cfc34fb176699d3f", "fusion_lon": 0.0, "lon": -77.036599, "name": "47c5981c60daa397cfc34fb176699d3f", "is_disabled": 0, "rental_uris": {"android": "https://dc.lft.to/lastmile_qr_scan", "ios": "https://dc.lft.to/lastmile_qr_scan"}, "type": "electric_scooter", "lat": 38.9228885, "is_reserved": 0, "fusion_lat": 0.0}, {"bike_id": "bf5d8d46a667fae6787397228507f4f9", "fusion_lon": 0.0, "lon": -77.08282, "name": "bf5d8d46a667fae6787397228507f4f9", "is_disabled": 0, "rental_uris": {"android": "https://dc.lft.to/lastmile_qr_scan", "ios": "https://dc.lft.to/lastmile_qr_scan"}, "type": "electric_scooter", "lat": 38.930188, "is_reserved": 0, "fusion_lat": 0.0}, {"bike_id": "835907e7735c5ddd856ee34e9ffb11cc", "fusion_lon": 0.0, "lon": -77.04595266666666, "name": "835907e7735c5ddd856ee34e9ffb11cc", "is_disabled": 0, "rental_uris": {"android": "https://dc.lft.to/lastmile_qr_scan", "ios": "https://dc.lft.to/lastmile_qr_scan"}, "type": "electric_scooter", "lat": 38.9191785, "is_reserved": 0, "fusion_lat": 0.0}, {"bike_id": "ce4401b6ae6f3fdb8d9296567401ed44", "fusion_lon": 0.0, "lon": -77.03506216666666, "name": "ce4401b6ae6f3fdb8d9296567401ed44", "is_disabled": 0, "rental_uris": {"android": "https://dc.lft.to/lastmile_qr_scan", "ios": "https://dc.lft.to/lastmile_qr_scan"}, "type": "electric_scooter", "lat": 38.921525833333334, "is_reserved": 0, "fusion_lat": 0.0}, {"bike_id": "ceda9d59d469e4a78ebd8d3630ae22a3", "fusion_lon": 0.0, "lon": -76.98321866666667, "name": "ceda9d59d469e4a78ebd8d3630ae22a3", "is_disabled": 0, "rental_uris": {"android": "https://dc.lft.to/lastmile_qr_scan", "ios": "https://dc.lft.to/lastmile_qr_scan"}, "type": "electric_scooter", "lat": 38.908699, "is_reserved": 0, "fusion_lat": 0.0}, {"bike_id": "70ab21e09382fbf4f290af4c04f0f28a", "fusion_lon": 0.0, "lon": -77.03467033333334, "name": "70ab21e09382fbf4f290af4c04f0f28a", "is_disabled": 0, "rental_uris": {"android": "https://dc.lft.to/lastmile_qr_scan", "ios": "https://dc.lft.to/lastmile_qr_scan"}, "type": "electric_scooter", "lat": 38.90451733333333, "is_reserved": 0, "fusion_lat": 0.0}, {"bike_id": "0e077c1a5032d3da0a926cb4228641f2", "fusion_lon": 0.0, "lon": -76.99698283333333, "name": "0e077c1a5032d3da0a926cb4228641f2", "is_disabled": 0, "rental_uris": {"android": "https://dc.lft.to/lastmile_qr_scan", "ios": "https://dc.lft.to/lastmile_qr_scan"}, "type": "electric_scooter", "lat": 38.908354, "is_reserved": 0, "fusion_lat": 0.0}, {"bike_id": "262ce13a13d022ea63e8cad18be863da", "fusion_lon": 0.0, "lon": -77.02489016666667, "name": "262ce13a13d022ea63e8cad18be863da", "is_disabled": 0, "rental_uris": {"android": "https://dc.lft.to/lastmile_qr_scan", "ios": "https://dc.lft.to/lastmile_qr_scan"}, "type": "electric_scooter", "lat": 38.9418465, "is_reserved": 0, "fusion_lat": 0.0}, {"bike_id": "bfbf8cf8f54a13721abd3dad789fceaa", "fusion_lon": 0.0, "lon": -77.00699116666667, "name": "bfbf8cf8f54a13721abd3dad789fceaa", "is_disabled": 0, "rental_uris": {"android": "https://dc.lft.to/lastmile_qr_scan", "ios": "https://dc.lft.to/lastmile_qr_scan"}, "type": "electric_scooter", "lat": 38.90530166666667, "is_reserved": 0, "fusion_lat": 0.0}, {"bike_id": "24f1896b11b94207e1a11a391db45aa9", "fusion_lon": 0.0, "lon": -77.01711733333333, "name": "24f1896b11b94207e1a11a391db45aa9", "is_disabled": 0, "rental_uris": {"android": "https://dc.lft.to/lastmile_qr_scan", "ios": "https://dc.lft.to/lastmile_qr_scan"}, "type": "electric_scooter", "lat": 38.917403666666665, "is_reserved": 0, "fusion_lat": 0.0}, {"bike_id": "007280278c688891f41179fa341fb342", "fusion_lon": 0.0, "lon": -77.04416183333333, "name": "007280278c688891f41179fa341fb342", "is_disabled": 0, "rental_uris": {"android": "https://dc.lft.to/lastmile_qr_scan", "ios": "https://dc.lft.to/lastmile_qr_scan"}, "type": "electric_scooter", "lat": 38.917804, "is_reserved": 0, "fusion_lat": 0.0}, {"bike_id": "3b3692d3473d9250b51d44a28b9a36d9", "fusion_lon": 0.0, "lon": -77.03123266666667, "name": "3b3692d3473d9250b51d44a28b9a36d9", "is_disabled": 0, "rental_uris": {"android": "https://dc.lft.to/lastmile_qr_scan", "ios": "https://dc.lft.to/lastmile_qr_scan"}, "type": "electric_scooter", "lat": 38.923696666666665, "is_reserved": 0, "fusion_lat": 0.0}, {"bike_id": "ceef84dd29a5fd107713f4de5b997a27", "fusion_lon": 0.0, "lon": -77.02281733333334, "name": "ceef84dd29a5fd107713f4de5b997a27", "is_disabled": 0, "rental_uris": {"android": "https://dc.lft.to/lastmile_qr_scan", "ios": "https://dc.lft.to/lastmile_qr_scan"}, "type": "electric_scooter", "lat": 38.916215333333334, "is_reserved": 0, "fusion_lat": 0.0}, {"bike_id": "c365264ee5b596b74cebb49cbf4e6a64", "fusion_lon": 0.0, "lon": -77.0319615, "name": "c365264ee5b596b74cebb49cbf4e6a64", "is_disabled": 0, "rental_uris": {"android": "https://dc.lft.to/lastmile_qr_scan", "ios": "https://dc.lft.to/lastmile_qr_scan"}, "type": "electric_scooter", "lat": 38.9094565, "is_reserved": 0, "fusion_lat": 0.0}, {"bike_id": "2547db5cbd5d13ec257de51afcfb503e", "fusion_lon": 0.0, "lon": -77.02182933333333, "name": "2547db5cbd5d13ec257de51afcfb503e", "is_disabled": 0, "rental_uris": {"android": "https://dc.lft.to/lastmile_qr_scan", "ios": "https://dc.lft.to/lastmile_qr_scan"}, "type": "electric_scooter", "lat": 38.885024333333334, "is_reserved": 0, "fusion_lat": 0.0}, {"bike_id": "51ce245ac1787eb058fc15d29d783ab3", "fusion_lon": 0.0, "lon": -76.987242, "name": "51ce245ac1787eb058fc15d29d783ab3", "is_disabled": 0, "rental_uris": {"android": "https://dc.lft.to/lastmile_qr_scan", "ios": "https://dc.lft.to/lastmile_qr_scan"}, "type": "electric_scooter", "lat": 38.866339833333335, "is_reserved": 0, "fusion_lat": 0.0}, {"bike_id": "a01c59246edb2d415b0e14390562fc44", "fusion_lon": 0.0, "lon": -77.04637916666667, "name": "a01c59246edb2d415b0e14390562fc44", "is_disabled": 0, "rental_uris": {"android": "https://dc.lft.to/lastmile_qr_scan", "ios": "https://dc.lft.to/lastmile_qr_scan"}, "type": "electric_scooter", "lat": 38.895302666666666, "is_reserved": 0, "fusion_lat": 0.0}, {"bike_id": "2f8bbd3ac97a1bd55b1e5f52e4c60d63", "fusion_lon": 0.0, "lon": -77.03303966666667, "name": "2f8bbd3ac97a1bd55b1e5f52e4c60d63", "is_disabled": 0, "rental_uris": {"android": "https://dc.lft.to/lastmile_qr_scan", "ios": "https://dc.lft.to/lastmile_qr_scan"}, "type": "electric_scooter", "lat": 38.90745483333333, "is_reserved": 0, "fusion_lat": 0.0}, {"bike_id": "860dba82a51bdabed2e18a251f2e7243", "fusion_lon": 0.0, "lon": -77.02166866666667, "name": "860dba82a51bdabed2e18a251f2e7243", "is_disabled": 0, "rental_uris": {"android": "https://dc.lft.to/lastmile_qr_scan", "ios": "https://dc.lft.to/lastmile_qr_scan"}, "type": "electric_scooter", "lat": 38.897388666666664, "is_reserved": 0, "fusion_lat": 0.0}, {"bike_id": "bc7c5a9a2d0a5431980821dce4d4d9a3", "fusion_lon": 0.0, "lon": -77.02323366666667, "name": "bc7c5a9a2d0a5431980821dce4d4d9a3", "is_disabled": 0, "rental_uris": {"android": "https://dc.lft.to/lastmile_qr_scan", "ios": "https://dc.lft.to/lastmile_qr_scan"}, "type": "electric_scooter", "lat": 38.9293785, "is_reserved": 0, "fusion_lat": 0.0}, {"bike_id": "9eeaed8f9c5d87a0430a758454f19d39", "fusion_lon": 0.0, "lon": -77.0310965, "name": "9eeaed8f9c5d87a0430a758454f19d39", "is_disabled": 0, "rental_uris": {"android": "https://dc.lft.to/lastmile_qr_scan", "ios": "https://dc.lft.to/lastmile_qr_scan"}, "type": "electric_scooter", "lat": 38.94644383333333, "is_reserved": 0, "fusion_lat": 0.0}, {"bike_id": "4e5c3ba3a4a6f58460e1f20715cf12b7", "fusion_lon": 0.0, "lon": -77.02612533333334, "name": "4e5c3ba3a4a6f58460e1f20715cf12b7", "is_disabled": 0, "rental_uris": {"android": "https://dc.lft.to/lastmile_qr_scan", "ios": "https://dc.lft.to/lastmile_qr_scan"}, "type": "electric_scooter", "lat": 38.92811533333333, "is_reserved": 0, "fusion_lat": 0.0}, {"bike_id": "ac0066fb3d256699cc9adedf1cd469a9", "fusion_lon": 0.0, "lon": -76.99514333333333, "name": "ac0066fb3d256699cc9adedf1cd469a9", "is_disabled": 0, "rental_uris": {"android": "https://dc.lft.to/lastmile_qr_scan", "ios": "https://dc.lft.to/lastmile_qr_scan"}, "type": "electric_scooter", "lat": 38.90982416666667, "is_reserved": 0, "fusion_lat": 0.0}, {"bike_id": "00be405fd4f3ad82fa2993ffb073df36", "fusion_lon": 0.0, "lon": -77.03164183333334, "name": "00be405fd4f3ad82fa2993ffb073df36", "is_disabled": 0, "rental_uris": {"android": "https://dc.lft.to/lastmile_qr_scan", "ios": "https://dc.lft.to/lastmile_qr_scan"}, "type": "electric_scooter", "lat": 38.892179166666665, "is_reserved": 0, "fusion_lat": 0.0}, {"bike_id": "e205c593414acc18f6c314323916e50e", "fusion_lon": 0.0, "lon": -77.0385805, "name": "e205c593414acc18f6c314323916e50e", "is_disabled": 0, "rental_uris": {"android": "https://dc.lft.to/lastmile_qr_scan", "ios": "https://dc.lft.to/lastmile_qr_scan"}, "type": "electric_scooter", "lat": 38.9078575, "is_reserved": 0, "fusion_lat": 0.0}, {"bike_id": "7802c3356b00f60b35b047d40bf8c213", "fusion_lon": 0.0, "lon": -77.00365716666667, "name": "7802c3356b00f60b35b047d40bf8c213", "is_disabled": 0, "rental_uris": {"android": "https://dc.lft.to/lastmile_qr_scan", "ios": "https://dc.lft.to/lastmile_qr_scan"}, "type": "electric_scooter", "lat": 38.882619, "is_reserved": 0, "fusion_lat": 0.0}, {"bike_id": "e93a3e5e7b949b8797d68fd56be3e902", "fusion_lon": 0.0, "lon": -77.0065995, "name": "e93a3e5e7b949b8797d68fd56be3e902", "is_disabled": 0, "rental_uris": {"android": "https://dc.lft.to/lastmile_qr_scan", "ios": "https://dc.lft.to/lastmile_qr_scan"}, "type": "electric_scooter", "lat": 38.944636833333334, "is_reserved": 0, "fusion_lat": 0.0}, {"bike_id": "9dba2c078585a8b5f20f301aec69bd39", "fusion_lon": 0.0, "lon": -76.98841933333334, "name": "9dba2c078585a8b5f20f301aec69bd39", "is_disabled": 0, "rental_uris": {"android": "https://dc.lft.to/lastmile_qr_scan", "ios": "https://dc.lft.to/lastmile_qr_scan"}, "type": "electric_bike", "lat": 38.84277866666667, "is_reserved": 0, "fusion_lat": 0.0}, {"bike_id": "0177bb7a888e036baf5badd8793f3c08", "fusion_lon": 0.0, "lon": -77.04092883333334, "name": "0177bb7a888e036baf5badd8793f3c08", "is_disabled": 0, "rental_uris": {"android": "https://dc.lft.to/lastmile_qr_scan", "ios": "https://dc.lft.to/lastmile_qr_scan"}, "type": "electric_scooter", "lat": 38.90578433333334, "is_reserved": 0, "fusion_lat": 0.0}, {"bike_id": "e7e5e97fc71c2adc77d36b5df11ee6cb", "fusion_lon": 0.0, "lon": -77.03678766666667, "name": "e7e5e97fc71c2adc77d36b5df11ee6cb", "is_disabled": 0, "rental_uris": {"android": "https://dc.lft.to/lastmile_qr_scan", "ios": "https://dc.lft.to/lastmile_qr_scan"}, "type": "electric_scooter", "lat": 38.917123833333335, "is_reserved": 0, "fusion_lat": 0.0}, {"bike_id": "4732bf2d1921db2e4e57c5a7b0a9187b", "fusion_lon": 0.0, "lon": -77.027201, "name": "4732bf2d1921db2e4e57c5a7b0a9187b", "is_disabled": 0, "rental_uris": {"android": "https://dc.lft.to/lastmile_qr_scan", "ios": "https://dc.lft.to/lastmile_qr_scan"}, "type": "electric_scooter", "lat": 38.949583, "is_reserved": 0, "fusion_lat": 0.0}, {"bike_id": "217eae865253ab303ceb019021d87824", "fusion_lon": 0.0, "lon": -77.0130015, "name": "217eae865253ab303ceb019021d87824", "is_disabled": 0, "rental_uris": {"android": "https://dc.lft.to/lastmile_qr_scan", "ios": "https://dc.lft.to/lastmile_qr_scan"}, "type": "electric_scooter", "lat": 38.9005665, "is_reserved": 0, "fusion_lat": 0.0}, {"bike_id": "6d30ff445137578d9463713a5a6b9f3f", "fusion_lon": 0.0, "lon": -77.03847133333333, "name": "6d30ff445137578d9463713a5a6b9f3f", "is_disabled": 0, "rental_uris": {"android": "https://dc.lft.to/lastmile_qr_scan", "ios": "https://dc.lft.to/lastmile_qr_scan"}, "type": "electric_scooter", "lat": 38.915486, "is_reserved": 0, "fusion_lat": 0.0}, {"bike_id": "50395db9a433910eb40fc84009613876", "fusion_lon": 0.0, "lon": -77.11708016666667, "name": "50395db9a433910eb40fc84009613876", "is_disabled": 0, "rental_uris": {"android": "https://dc.lft.to/lastmile_qr_scan", "ios": "https://dc.lft.to/lastmile_qr_scan"}, "type": "electric_bike", "lat": 38.86745033333333, "is_reserved": 0, "fusion_lat": 0.0}, {"bike_id": "fcecbb43bd8ac0cb78eb4209ceff4062", "fusion_lon": 0.0, "lon": -77.0308085, "name": "fcecbb43bd8ac0cb78eb4209ceff4062", "is_disabled": 0, "rental_uris": {"android": "https://dc.lft.to/lastmile_qr_scan", "ios": "https://dc.lft.to/lastmile_qr_scan"}, "type": "electric_bike", "lat": 38.933199, "is_reserved": 0, "fusion_lat": 0.0}, {"bike_id": "886ef7dd0d9346fc70554fbf6ef2ccea", "fusion_lon": 0.0, "lon": -77.04999566666666, "name": "886ef7dd0d9346fc70554fbf6ef2ccea", "is_disabled": 0, "rental_uris": {"android": "https://dc.lft.to/lastmile_qr_scan", "ios": "https://dc.lft.to/lastmile_qr_scan"}, "type": "electric_scooter", "lat": 38.90628516666666, "is_reserved": 0, "fusion_lat": 0.0}, {"bike_id": "0a7e943138eb267251d3c7d2444523d4", "fusion_lon": 0.0, "lon": -77.02303, "name": "0a7e943138eb267251d3c7d2444523d4", "is_disabled": 0, "rental_uris": {"android": "https://dc.lft.to/lastmile_qr_scan", "ios": "https://dc.lft.to/lastmile_qr_scan"}, "type": "electric_scooter", "lat": 38.9275995, "is_reserved": 0, "fusion_lat": 0.0}, {"bike_id": "0163210aea2a03485bc93d5fe22b80e1", "fusion_lon": 0.0, "lon": -77.05094316666667, "name": "0163210aea2a03485bc93d5fe22b80e1", "is_disabled": 0, "rental_uris": {"android": "https://dc.lft.to/lastmile_qr_scan", "ios": "https://dc.lft.to/lastmile_qr_scan"}, "type": "electric_scooter", "lat": 38.905033, "is_reserved": 0, "fusion_lat": 0.0}, {"bike_id": "62e0908f91a1e826186ec73c0c273863", "fusion_lon": 0.0, "lon": -77.0057575, "name": "62e0908f91a1e826186ec73c0c273863", "is_disabled": 0, "rental_uris": {"android": "https://dc.lft.to/lastmile_qr_scan", "ios": "https://dc.lft.to/lastmile_qr_scan"}, "type": "electric_scooter", "lat": 38.9056195, "is_reserved": 0, "fusion_lat": 0.0}, {"bike_id": "8240585dfeaeb016ac96254e2c8db137", "fusion_lon": 0.0, "lon": -77.03519983333334, "name": "8240585dfeaeb016ac96254e2c8db137", "is_disabled": 0, "rental_uris": {"android": "https://dc.lft.to/lastmile_qr_scan", "ios": "https://dc.lft.to/lastmile_qr_scan"}, "type": "electric_scooter", "lat": 38.92316266666667, "is_reserved": 0, "fusion_lat": 0.0}, {"bike_id": "6a475328941fbf0c7767eaa59db81a12", "fusion_lon": 0.0, "lon": -77.0251785, "name": "6a475328941fbf0c7767eaa59db81a12", "is_disabled": 0, "rental_uris": {"android": "https://dc.lft.to/lastmile_qr_scan", "ios": "https://dc.lft.to/lastmile_qr_scan"}, "type": "electric_scooter", "lat": 38.946225166666665, "is_reserved": 0, "fusion_lat": 0.0}, {"bike_id": "8fd45934fc067ef1d90d9646e8c06409", "fusion_lon": 0.0, "lon": -77.01189566666666, "name": "8fd45934fc067ef1d90d9646e8c06409", "is_disabled": 0, "rental_uris": {"android": "https://dc.lft.to/lastmile_qr_scan", "ios": "https://dc.lft.to/lastmile_qr_scan"}, "type": "electric_scooter", "lat": 38.91551483333333, "is_reserved": 0, "fusion_lat": 0.0}, {"bike_id": "4e479a81a9524fe30a226e2d43a9384f", "fusion_lon": 0.0, "lon": -77.03655983333333, "name": "4e479a81a9524fe30a226e2d43a9384f", "is_disabled": 0, "rental_uris": {"android": "https://dc.lft.to/lastmile_qr_scan", "ios": "https://dc.lft.to/lastmile_qr_scan"}, "type": "electric_scooter", "lat": 38.929819333333334, "is_reserved": 0, "fusion_lat": 0.0}, {"bike_id": "5a14364356fedc2e1b5e0e03ea0dd88d", "fusion_lon": 0.0, "lon": -77.0194845, "name": "5a14364356fedc2e1b5e0e03ea0dd88d", "is_disabled": 0, "rental_uris": {"android": "https://dc.lft.to/lastmile_qr_scan", "ios": "https://dc.lft.to/lastmile_qr_scan"}, "type": "electric_scooter", "lat": 38.924188666666666, "is_reserved": 0, "fusion_lat": 0.0}, {"bike_id": "76dd4124135c1dd02e42f7fa07590a43", "fusion_lon": 0.0, "lon": -77.0066675, "name": "76dd4124135c1dd02e42f7fa07590a43", "is_disabled": 0, "rental_uris": {"android": "https://dc.lft.to/lastmile_qr_scan", "ios": "https://dc.lft.to/lastmile_qr_scan"}, "type": "electric_bike", "lat": 38.945031666666665, "is_reserved": 0, "fusion_lat": 0.0}, {"bike_id": "536495ec5c565ad21cf815e48ef65d09", "fusion_lon": 0.0, "lon": -76.94940533333333, "name": "536495ec5c565ad21cf815e48ef65d09", "is_disabled": 0, "rental_uris": {"android": "https://dc.lft.to/lastmile_qr_scan", "ios": "https://dc.lft.to/lastmile_qr_scan"}, "type": "electric_scooter", "lat": 38.893495333333334, "is_reserved": 0, "fusion_lat": 0.0}, {"bike_id": "56e6e938d4b1f574e907f2acfeabda27", "fusion_lon": 0.0, "lon": -76.987071, "name": "56e6e938d4b1f574e907f2acfeabda27", "is_disabled": 0, "rental_uris": {"android": "https://dc.lft.to/lastmile_qr_scan", "ios": "https://dc.lft.to/lastmile_qr_scan"}, "type": "electric_scooter", "lat": 38.866977, "is_reserved": 0, "fusion_lat": 0.0}, {"bike_id": "56f5688b8c4a2cb06f72eb0d7726a3ff", "fusion_lon": 0.0, "lon": -77.05396516666667, "name": "56f5688b8c4a2cb06f72eb0d7726a3ff", "is_disabled": 0, "rental_uris": {"android": "https://dc.lft.to/lastmile_qr_scan", "ios": "https://dc.lft.to/lastmile_qr_scan"}, "type": "electric_scooter", "lat": 38.928033, "is_reserved": 0, "fusion_lat": 0.0}, {"bike_id": "5dda38e115f4bea25944b4b3d85be90e", "fusion_lon": 0.0, "lon": -77.05273283333334, "name": "5dda38e115f4bea25944b4b3d85be90e", "is_disabled": 0, "rental_uris": {"android": "https://dc.lft.to/lastmile_qr_scan", "ios": "https://dc.lft.to/lastmile_qr_scan"}, "type": "electric_scooter", "lat": 38.925414333333336, "is_reserved": 0, "fusion_lat": 0.0}, {"bike_id": "f0c5fe86605226fc1c479057e6e75bf1", "fusion_lon": 0.0, "lon": -77.017726, "name": "f0c5fe86605226fc1c479057e6e75bf1", "is_disabled": 0, "rental_uris": {"android": "https://dc.lft.to/lastmile_qr_scan", "ios": "https://dc.lft.to/lastmile_qr_scan"}, "type": "electric_scooter", "lat": 38.877164, "is_reserved": 0, "fusion_lat": 0.0}, {"bike_id": "98674cac04840d9127cdbfcc39cc267e", "fusion_lon": 0.0, "lon": -76.9981725, "name": "98674cac04840d9127cdbfcc39cc267e", "is_disabled": 0, "rental_uris": {"android": "https://dc.lft.to/lastmile_qr_scan", "ios": "https://dc.lft.to/lastmile_qr_scan"}, "type": "electric_scooter", "lat": 38.90825233333333, "is_reserved": 0, "fusion_lat": 0.0}, {"bike_id": "b4debf5535c107592973d5a9f44abbce", "fusion_lon": 0.0, "lon": -77.0314695, "name": "b4debf5535c107592973d5a9f44abbce", "is_disabled": 0, "rental_uris": {"android": "https://dc.lft.to/lastmile_qr_scan", "ios": "https://dc.lft.to/lastmile_qr_scan"}, "type": "electric_scooter", "lat": 38.9179135, "is_reserved": 0, "fusion_lat": 0.0}, {"bike_id": "50a2c350e9bb2e81993cdd2ec910a33b", "fusion_lon": 0.0, "lon": -77.0175695, "name": "50a2c350e9bb2e81993cdd2ec910a33b", "is_disabled": 0, "rental_uris": {"android": "https://dc.lft.to/lastmile_qr_scan", "ios": "https://dc.lft.to/lastmile_qr_scan"}, "type": "electric_scooter", "lat": 38.8832755, "is_reserved": 0, "fusion_lat": 0.0}, {"bike_id": "468ab8f1773f8181907db7222d7e82c2", "fusion_lon": 0.0, "lon": -77.02708016666666, "name": "468ab8f1773f8181907db7222d7e82c2", "is_disabled": 0, "rental_uris": {"android": "https://dc.lft.to/lastmile_qr_scan", "ios": "https://dc.lft.to/lastmile_qr_scan"}, "type": "electric_scooter", "lat": 38.9068765, "is_reserved": 0, "fusion_lat": 0.0}, {"bike_id": "07e412957239fa18879f6523ec0fddc4", "fusion_lon": 0.0, "lon": -77.03565066666667, "name": "07e412957239fa18879f6523ec0fddc4", "is_disabled": 0, "rental_uris": {"android": "https://dc.lft.to/lastmile_qr_scan", "ios": "https://dc.lft.to/lastmile_qr_scan"}, "type": "electric_scooter", "lat": 38.923321333333334, "is_reserved": 0, "fusion_lat": 0.0}, {"bike_id": "c1a2a500ccc4645181dc10123877cf72", "fusion_lon": 0.0, "lon": -77.0270015, "name": "c1a2a500ccc4645181dc10123877cf72", "is_disabled": 0, "rental_uris": {"android": "https://dc.lft.to/lastmile_qr_scan", "ios": "https://dc.lft.to/lastmile_qr_scan"}, "type": "electric_scooter", "lat": 38.90667333333333, "is_reserved": 0, "fusion_lat": 0.0}, {"bike_id": "caff4e88b8f97d2dd4dedec62e47fafb", "fusion_lon": 0.0, "lon": -76.99351933333334, "name": "caff4e88b8f97d2dd4dedec62e47fafb", "is_disabled": 0, "rental_uris": {"android": "https://dc.lft.to/lastmile_qr_scan", "ios": "https://dc.lft.to/lastmile_qr_scan"}, "type": "electric_bike", "lat": 38.845063833333334, "is_reserved": 0, "fusion_lat": 0.0}, {"bike_id": "65e46a65aad32afff5cc12375c7d821a", "fusion_lon": 0.0, "lon": -77.00723816666667, "name": "65e46a65aad32afff5cc12375c7d821a", "is_disabled": 0, "rental_uris": {"android": "https://dc.lft.to/lastmile_qr_scan", "ios": "https://dc.lft.to/lastmile_qr_scan"}, "type": "electric_scooter", "lat": 38.884887, "is_reserved": 0, "fusion_lat": 0.0}, {"bike_id": "206e145886cc9d8521c4132870c32877", "fusion_lon": 0.0, "lon": -77.04594133333333, "name": "206e145886cc9d8521c4132870c32877", "is_disabled": 0, "rental_uris": {"android": "https://dc.lft.to/lastmile_qr_scan", "ios": "https://dc.lft.to/lastmile_qr_scan"}, "type": "electric_scooter", "lat": 38.91916483333333, "is_reserved": 0, "fusion_lat": 0.0}, {"bike_id": "e73c5dfd1ed285ff17953c0f96b13fa5", "fusion_lon": 0.0, "lon": -77.01476183333334, "name": "e73c5dfd1ed285ff17953c0f96b13fa5", "is_disabled": 0, "rental_uris": {"android": "https://dc.lft.to/lastmile_qr_scan", "ios": "https://dc.lft.to/lastmile_qr_scan"}, "type": "electric_scooter", "lat": 38.917753833333336, "is_reserved": 0, "fusion_lat": 0.0}, {"bike_id": "ce0ff21aaf0fb418a6c3c694d3162fb8", "fusion_lon": 0.0, "lon": -77.0271585, "name": "ce0ff21aaf0fb418a6c3c694d3162fb8", "is_disabled": 0, "rental_uris": {"android": "https://dc.lft.to/lastmile_qr_scan", "ios": "https://dc.lft.to/lastmile_qr_scan"}, "type": "electric_scooter", "lat": 38.9156625, "is_reserved": 0, "fusion_lat": 0.0}, {"bike_id": "8b5ef5aa210ab35259ce4b72bdd3442c", "fusion_lon": 0.0, "lon": -76.993469, "name": "8b5ef5aa210ab35259ce4b72bdd3442c", "is_disabled": 0, "rental_uris": {"android": "https://dc.lft.to/lastmile_qr_scan", "ios": "https://dc.lft.to/lastmile_qr_scan"}, "type": "electric_scooter", "lat": 38.914827833333334, "is_reserved": 0, "fusion_lat": 0.0}, {"bike_id": "a50b37dd307d7e9ce4e1c86892acf1f4", "fusion_lon": 0.0, "lon": -77.04142416666667, "name": "a50b37dd307d7e9ce4e1c86892acf1f4", "is_disabled": 0, "rental_uris": {"android": "https://dc.lft.to/lastmile_qr_scan", "ios": "https://dc.lft.to/lastmile_qr_scan"}, "type": "electric_scooter", "lat": 38.922989666666666, "is_reserved": 0, "fusion_lat": 0.0}, {"bike_id": "c45fd45531701d3b2378edcbb4936bf1", "fusion_lon": 0.0, "lon": -77.04330816666666, "name": "c45fd45531701d3b2378edcbb4936bf1", "is_disabled": 0, "rental_uris": {"android": "https://dc.lft.to/lastmile_qr_scan", "ios": "https://dc.lft.to/lastmile_qr_scan"}, "type": "electric_scooter", "lat": 38.903743666666664, "is_reserved": 0, "fusion_lat": 0.0}, {"bike_id": "d86a05fed99d72e3583442574aeec8ff", "fusion_lon": 0.0, "lon": -77.03826483333333, "name": "d86a05fed99d72e3583442574aeec8ff", "is_disabled": 0, "rental_uris": {"android": "https://dc.lft.to/lastmile_qr_scan", "ios": "https://dc.lft.to/lastmile_qr_scan"}, "type": "electric_scooter", "lat": 38.906688, "is_reserved": 0, "fusion_lat": 0.0}, {"bike_id": "ba5d1cbe60a8cba32f77710521c13ca9", "fusion_lon": 0.0, "lon": -77.0159605, "name": "ba5d1cbe60a8cba32f77710521c13ca9", "is_disabled": 0, "rental_uris": {"android": "https://dc.lft.to/lastmile_qr_scan", "ios": "https://dc.lft.to/lastmile_qr_scan"}, "type": "electric_scooter", "lat": 38.949354666666665, "is_reserved": 0, "fusion_lat": 0.0}, {"bike_id": "e933efceca31133e50a2134c9e5a0c0f", "fusion_lon": 0.0, "lon": -77.0241255, "name": "e933efceca31133e50a2134c9e5a0c0f", "is_disabled": 0, "rental_uris": {"android": "https://dc.lft.to/lastmile_qr_scan", "ios": "https://dc.lft.to/lastmile_qr_scan"}, "type": "electric_scooter", "lat": 38.93705, "is_reserved": 0, "fusion_lat": 0.0}, {"bike_id": "8ec0bed0860f9089b0270b40d2c8d443", "fusion_lon": 0.0, "lon": -76.981057, "name": "8ec0bed0860f9089b0270b40d2c8d443", "is_disabled": 0, "rental_uris": {"android": "https://dc.lft.to/lastmile_qr_scan", "ios": "https://dc.lft.to/lastmile_qr_scan"}, "type": "electric_bike", "lat": 38.877304333333335, "is_reserved": 0, "fusion_lat": 0.0}, {"bike_id": "791d898d5c48cb7bde253b7d57a9432b", "fusion_lon": 0.0, "lon": -77.0383715, "name": "791d898d5c48cb7bde253b7d57a9432b", "is_disabled": 0, "rental_uris": {"android": "https://dc.lft.to/lastmile_qr_scan", "ios": "https://dc.lft.to/lastmile_qr_scan"}, "type": "electric_scooter", "lat": 38.915482, "is_reserved": 0, "fusion_lat": 0.0}, {"bike_id": "156b729084e489f211b1f025f8b4175e", "fusion_lon": 0.0, "lon": -77.05533933333334, "name": "156b729084e489f211b1f025f8b4175e", "is_disabled": 0, "rental_uris": {"android": "https://dc.lft.to/lastmile_qr_scan", "ios": "https://dc.lft.to/lastmile_qr_scan"}, "type": "electric_scooter", "lat": 38.93009833333333, "is_reserved": 0, "fusion_lat": 0.0}, {"bike_id": "fd905ee3446b5a7ef01fad484ee5e0f5", "fusion_lon": 0.0, "lon": -77.027175, "name": "fd905ee3446b5a7ef01fad484ee5e0f5", "is_disabled": 0, "rental_uris": {"android": "https://dc.lft.to/lastmile_qr_scan", "ios": "https://dc.lft.to/lastmile_qr_scan"}, "type": "electric_scooter", "lat": 38.94965416666667, "is_reserved": 0, "fusion_lat": 0.0}, {"bike_id": "8933dfc76ab60b6a58c9aaaee162939a", "fusion_lon": 0.0, "lon": -77.01861483333333, "name": "8933dfc76ab60b6a58c9aaaee162939a", "is_disabled": 0, "rental_uris": {"android": "https://dc.lft.to/lastmile_qr_scan", "ios": "https://dc.lft.to/lastmile_qr_scan"}, "type": "electric_scooter", "lat": 38.97364966666667, "is_reserved": 0, "fusion_lat": 0.0}, {"bike_id": "d1a7dc90acd845120f41aff74988bd9e", "fusion_lon": 0.0, "lon": -77.03459633333334, "name": "d1a7dc90acd845120f41aff74988bd9e", "is_disabled": 0, "rental_uris": {"android": "https://dc.lft.to/lastmile_qr_scan", "ios": "https://dc.lft.to/lastmile_qr_scan"}, "type": "electric_scooter", "lat": 38.90402733333333, "is_reserved": 0, "fusion_lat": 0.0}, {"bike_id": "ea8933507c490707488f15d0ab6ef443", "fusion_lon": 0.0, "lon": -77.05856716666666, "name": "ea8933507c490707488f15d0ab6ef443", "is_disabled": 0, "rental_uris": {"android": "https://dc.lft.to/lastmile_qr_scan", "ios": "https://dc.lft.to/lastmile_qr_scan"}, "type": "electric_scooter", "lat": 38.936075, "is_reserved": 0, "fusion_lat": 0.0}, {"bike_id": "469464f67e4308b6aae3ad6b3493931f", "fusion_lon": 0.0, "lon": -77.029306, "name": "469464f67e4308b6aae3ad6b3493931f", "is_disabled": 0, "rental_uris": {"android": "https://dc.lft.to/lastmile_qr_scan", "ios": "https://dc.lft.to/lastmile_qr_scan"}, "type": "electric_scooter", "lat": 38.9052505, "is_reserved": 0, "fusion_lat": 0.0}, {"bike_id": "ca89b28e11e3edc8688e210593e3faf9", "fusion_lon": 0.0, "lon": -77.05856183333333, "name": "ca89b28e11e3edc8688e210593e3faf9", "is_disabled": 0, "rental_uris": {"android": "https://dc.lft.to/lastmile_qr_scan", "ios": "https://dc.lft.to/lastmile_qr_scan"}, "type": "electric_scooter", "lat": 38.935843, "is_reserved": 0, "fusion_lat": 0.0}, {"bike_id": "d89a20bfd9f1132da130dfcfc351ad53", "fusion_lon": 0.0, "lon": -77.02380716666667, "name": "d89a20bfd9f1132da130dfcfc351ad53", "is_disabled": 0, "rental_uris": {"android": "https://dc.lft.to/lastmile_qr_scan", "ios": "https://dc.lft.to/lastmile_qr_scan"}, "type": "electric_scooter", "lat": 38.90195216666667, "is_reserved": 0, "fusion_lat": 0.0}, {"bike_id": "ec0c3e6a9f532d9e45f6ee2a7b68148d", "fusion_lon": 0.0, "lon": -76.9335205, "name": "ec0c3e6a9f532d9e45f6ee2a7b68148d", "is_disabled": 0, "rental_uris": {"android": "https://dc.lft.to/lastmile_qr_scan", "ios": "https://dc.lft.to/lastmile_qr_scan"}, "type": "electric_scooter", "lat": 38.899150666666664, "is_reserved": 0, "fusion_lat": 0.0}, {"bike_id": "d6307642f1b6ca9d995d5a70e71f8322", "fusion_lon": 0.0, "lon": -77.01729316666666, "name": "d6307642f1b6ca9d995d5a70e71f8322", "is_disabled": 0, "rental_uris": {"android": "https://dc.lft.to/lastmile_qr_scan", "ios": "https://dc.lft.to/lastmile_qr_scan"}, "type": "electric_scooter", "lat": 38.872739833333334, "is_reserved": 0, "fusion_lat": 0.0}, {"bike_id": "eb984ff57c04a126b6deefdac306a2db", "fusion_lon": 0.0, "lon": -77.02693983333333, "name": "eb984ff57c04a126b6deefdac306a2db", "is_disabled": 0, "rental_uris": {"android": "https://dc.lft.to/lastmile_qr_scan", "ios": "https://dc.lft.to/lastmile_qr_scan"}, "type": "electric_scooter", "lat": 38.91121916666667, "is_reserved": 0, "fusion_lat": 0.0}, {"bike_id": "9f20e5f2f323157ef2dc635989182321", "fusion_lon": 0.0, "lon": -77.04923966666667, "name": "9f20e5f2f323157ef2dc635989182321", "is_disabled": 0, "rental_uris": {"android": "https://dc.lft.to/lastmile_qr_scan", "ios": "https://dc.lft.to/lastmile_qr_scan"}, "type": "electric_bike", "lat": 38.813503833333336, "is_reserved": 0, "fusion_lat": 0.0}, {"bike_id": "bd415f10f26491cc3a1d2a136eec30e5", "fusion_lon": 0.0, "lon": -77.0349385, "name": "bd415f10f26491cc3a1d2a136eec30e5", "is_disabled": 0, "rental_uris": {"android": "https://dc.lft.to/lastmile_qr_scan", "ios": "https://dc.lft.to/lastmile_qr_scan"}, "type": "electric_scooter", "lat": 38.9169555, "is_reserved": 0, "fusion_lat": 0.0}, {"bike_id": "c8d9aabf6b1d2612cffd0f5e36819dec", "fusion_lon": 0.0, "lon": -77.043977, "name": "c8d9aabf6b1d2612cffd0f5e36819dec", "is_disabled": 0, "rental_uris": {"android": "https://dc.lft.to/lastmile_qr_scan", "ios": "https://dc.lft.to/lastmile_qr_scan"}, "type": "electric_scooter", "lat": 38.9126105, "is_reserved": 0, "fusion_lat": 0.0}, {"bike_id": "e94878163162fcc33adcdb8ee722b96d", "fusion_lon": 0.0, "lon": -77.025515, "name": "e94878163162fcc33adcdb8ee722b96d", "is_disabled": 0, "rental_uris": {"android": "https://dc.lft.to/lastmile_qr_scan", "ios": "https://dc.lft.to/lastmile_qr_scan"}, "type": "electric_scooter", "lat": 38.880819, "is_reserved": 0, "fusion_lat": 0.0}, {"bike_id": "c28616ac600cc59daec8f1c1750fe359", "fusion_lon": 0.0, "lon": -77.01745633333333, "name": "c28616ac600cc59daec8f1c1750fe359", "is_disabled": 0, "rental_uris": {"android": "https://dc.lft.to/lastmile_qr_scan", "ios": "https://dc.lft.to/lastmile_qr_scan"}, "type": "electric_scooter", "lat": 38.875010333333336, "is_reserved": 0, "fusion_lat": 0.0}, {"bike_id": "082601d082da05ac44c6095e73798180", "fusion_lon": 0.0, "lon": -77.04571683333333, "name": "082601d082da05ac44c6095e73798180", "is_disabled": 0, "rental_uris": {"android": "https://dc.lft.to/lastmile_qr_scan", "ios": "https://dc.lft.to/lastmile_qr_scan"}, "type": "electric_bike", "lat": 38.92424316666666, "is_reserved": 0, "fusion_lat": 0.0}, {"bike_id": "8526976022dec443db6477082ad7ce26", "fusion_lon": 0.0, "lon": -77.0198115, "name": "8526976022dec443db6477082ad7ce26", "is_disabled": 0, "rental_uris": {"android": "https://dc.lft.to/lastmile_qr_scan", "ios": "https://dc.lft.to/lastmile_qr_scan"}, "type": "electric_scooter", "lat": 38.913611333333336, "is_reserved": 0, "fusion_lat": 0.0},