{"data": {"bikes": [{"type": "electric_scooter", "fusion_lon": 0.0, "bike_id": "ddbf3aa8c765e71fb4ebdc45a90e7d56", "is_disabled": 0, "lat": 38.898820666666666, "rental_uris": {"ios": "https://dc.lft.to/lastmile_qr_scan", "android": "https://dc.lft.to/lastmile_qr_scan"}, "is_reserved": 0, "lon": -77.03280116666667, "fusion_lat": 0.0, "name": "ddbf3aa8c765e71fb4ebdc45a90e7d56"}, {"type": "electric_scooter", "fusion_lon": 0.0, "bike_id": "d3736ccc4bf50d929c2619832e606ef8", "is_disabled": 0, "lat": 38.90648433333333, "rental_uris": {"ios": "https://dc.lft.to/lastmile_qr_scan", "android": "https://dc.lft.to/lastmile_qr_scan"}, "is_reserved": 0, "lon": -77.02471116666666, "fusion_lat": 0.0, "name": "d3736ccc4bf50d929c2619832e606ef8"}, {"type": "electric_scooter", "fusion_lon": 0.0, "bike_id": "c0399a61cc66c42bfd357eebeeca75f2", "is_disabled": 0, "lat": 38.90727716666667, "rental_uris": {"ios": "https://dc.lft.to/lastmile_qr_scan", "android": "https://dc.lft.to/lastmile_qr_scan"}, "is_reserved": 0, "lon": -77.04773233333333, "fusion_lat": 0.0, "name": "c0399a61cc66c42bfd357eebeeca75f2"}, {"type": "electric_scooter", "fusion_lon": 0.0, "bike_id": "3f400c26f28adbc3ca2a8a33e71f8b62", "is_disabled": 0, "lat": 38.920619333333335, "rental_uris": {"ios": "https://dc.lft.to/lastmile_qr_scan", "android": "https://dc.lft.to/lastmile_qr_scan"}, "is_reserved": 0, "lon": -77.0169305, "fusion_lat": 0.0, "name": "3f400c26f28adbc3ca2a8a33e71f8b62"}, {"type": "electric_scooter", "fusion_lon": 0.0, "bike_id": "a575da1698f65caf1470b07f0af65228", "is_disabled": 0, "lat": 38.9159385, "rental_uris": {"ios": "https://dc.lft.to/lastmile_qr_scan", "android": "https://dc.lft.to/lastmile_qr_scan"}, "is_reserved": 0, "lon": -77.0122385, "fusion_lat": 0.0, "name": "a575da1698f65caf1470b07f0af65228"}, {"type": "electric_scooter", "fusion_lon": 0.0, "bike_id": "cceacb33b21df04264a1503fb2a64497", "is_disabled": 0, "lat": 38.91734183333333, "rental_uris": {"ios": "https://dc.lft.to/lastmile_qr_scan", "android": "https://dc.lft.to/lastmile_qr_scan"}, "is_reserved": 0, "lon": -77.068504, "fusion_lat": 0.0, "name": "cceacb33b21df04264a1503fb2a64497"}, {"type": "electric_scooter", "fusion_lon": 0.0, "bike_id": "e7305f6d259c587c020a3881a790007f", "is_disabled": 0, "lat": 38.941937333333335, "rental_uris": {"ios": "https://dc.lft.to/lastmile_qr_scan", "android": "https://dc.lft.to/lastmile_qr_scan"}, "is_reserved": 0, "lon": -77.0247945, "fusion_lat": 0.0, "name": "e7305f6d259c587c020a3881a790007f"}, {"type": "electric_scooter", "fusion_lon": 0.0, "bike_id": "27c43fdd97694f4567477c150b96de72", "is_disabled": 0, "lat": 38.88141133333333, "rental_uris": {"ios": "https://dc.lft.to/lastmile_qr_scan", "android": "https://dc.lft.to/lastmile_qr_scan"}, "is_reserved": 0, "lon": -77.01761466666666, "fusion_lat": 0.0, "name": "27c43fdd97694f4567477c150b96de72"}, {"type": "electric_scooter", "fusion_lon": 0.0, "bike_id": "335676e6f7d7d8758ca71399449c0451", "is_disabled": 0, "lat": 38.907214833333335, "rental_uris": {"ios": "https://dc.lft.to/lastmile_qr_scan", "android": "https://dc.lft.to/lastmile_qr_scan"}, "is_reserved": 0, "lon": -77.0241975, "fusion_lat": 0.0, "name": "335676e6f7d7d8758ca71399449c0451"}, {"type": "electric_scooter", "fusion_lon": 0.0, "bike_id": "a72011ee71bf9028ee07a91aa0670a0f", "is_disabled": 0, "lat": 38.8995205, "rental_uris": {"ios": "https://dc.lft.to/lastmile_qr_scan", "android": "https://dc.lft.to/lastmile_qr_scan"}, "is_reserved": 0, "lon": -77.013912, "fusion_lat": 0.0, "name": "a72011ee71bf9028ee07a91aa0670a0f"}, {"type": "electric_scooter", "fusion_lon": 0.0, "bike_id": "8eb007925759006dad0c01a4d428b37b", "is_disabled": 0, "lat": 38.903862, "rental_uris": {"ios": "https://dc.lft.to/lastmile_qr_scan", "android": "https://dc.lft.to/lastmile_qr_scan"}, "is_reserved": 0, "lon": -77.04282716666667, "fusion_lat": 0.0, "name": "8eb007925759006dad0c01a4d428b37b"}, {"type": "electric_scooter", "fusion_lon": 0.0, "bike_id": "610bf083b12fa72c571fd65f6a2d0e54", "is_disabled": 0, "lat": 38.93604466666667, "rental_uris": {"ios": "https://dc.lft.to/lastmile_qr_scan", "android": "https://dc.lft.to/lastmile_qr_scan"}, "is_reserved": 0, "lon": -77.0570755, "fusion_lat": 0.0, "name": "610bf083b12fa72c571fd65f6a2d0e54"}, {"type": "electric_scooter", "fusion_lon": 0.0, "bike_id": "2ae3830bf718bd03184cb13d7e49223d", "is_disabled": 0, "lat": 38.892206, "rental_uris": {"ios": "https://dc.lft.to/lastmile_qr_scan", "android": "https://dc.lft.to/lastmile_qr_scan"}, "is_reserved": 0, "lon": -77.03120333333334, "fusion_lat": 0.0, "name": "2ae3830bf718bd03184cb13d7e49223d"}, {"type": "electric_scooter", "fusion_lon": 0.0, "bike_id": "e5fc4c9a3f3d357fdef20a264c6181f3", "is_disabled": 0, "lat": 38.905488166666665, "rental_uris": {"ios": "https://dc.lft.to/lastmile_qr_scan", "android": "https://dc.lft.to/lastmile_qr_scan"}, "is_reserved": 0, "lon": -77.047518, "fusion_lat": 0.0, "name": "e5fc4c9a3f3d357fdef20a264c6181f3"}, {"type": "electric_bike", "fusion_lon": 0.0, "bike_id": "e9e8712e862e6fdadbf2febfe69027ce", "is_disabled": 0, "lat": 38.865860833333336, "rental_uris": {"ios": "https://dc.lft.to/lastmile_qr_scan", "android": "https://dc.lft.to/lastmile_qr_scan"}, "is_reserved": 0, "lon": -76.98047816666667, "fusion_lat": 0.0, "name": "e9e8712e862e6fdadbf2febfe69027ce"}, {"type": "electric_scooter", "fusion_lon": 0.0, "bike_id": "e2acf2847afa0206a20ab63a51d774f9", "is_disabled": 0, "lat": 38.916260333333334, "rental_uris": {"ios": "https://dc.lft.to/lastmile_qr_scan", "android": "https://dc.lft.to/lastmile_qr_scan"}, "is_reserved": 0, "lon": -77.04625266666666, "fusion_lat": 0.0, "name": "e2acf2847afa0206a20ab63a51d774f9"}, {"type": "electric_scooter", "fusion_lon": 0.0, "bike_id": "0b41ed8384cd1ccbf85b2f057a390434", "is_disabled": 0, "lat": 38.9408225, "rental_uris": {"ios": "https://dc.lft.to/lastmile_qr_scan", "android": "https://dc.lft.to/lastmile_qr_scan"}, "is_reserved": 0, "lon": -77.0272115, "fusion_lat": 0.0, "name": "0b41ed8384cd1ccbf85b2f057a390434"}, {"type": "electric_scooter", "fusion_lon": 0.0, "bike_id": "a9bbaf7388a1b89ee1b8a53ee3a25188", "is_disabled": 0, "lat": 38.90159033333333, "rental_uris": {"ios": "https://dc.lft.to/lastmile_qr_scan", "android": "https://dc.lft.to/lastmile_qr_scan"}, "is_reserved": 0, "lon": -76.98066216666666, "fusion_lat": 0.0, "name": "a9bbaf7388a1b89ee1b8a53ee3a25188"}, {"type": "electric_scooter", "fusion_lon": 0.0, "bike_id": "eaf3f781f8569010022564a315c5cb84", "is_disabled": 0, "lat": 38.89465933333334, "rental_uris": {"ios": "https://dc.lft.to/lastmile_qr_scan", "android": "https://dc.lft.to/lastmile_qr_scan"}, "is_reserved": 0, "lon": -77.01862966666667, "fusion_lat": 0.0, "name": "eaf3f781f8569010022564a315c5cb84"}, {"type": "electric_scooter", "fusion_lon": 0.0, "bike_id": "4f5c1ad4688d6874d225e923745fbc47", "is_disabled": 0, "lat": 38.903759, "rental_uris": {"ios": "https://dc.lft.to/lastmile_qr_scan", "android": "https://dc.lft.to/lastmile_qr_scan"}, "is_reserved": 0, "lon": -77.02924233333333, "fusion_lat": 0.0, "name": "4f5c1ad4688d6874d225e923745fbc47"}, {"type": "electric_scooter", "fusion_lon": 0.0, "bike_id": "06b5967ccebb0b9b03b275269f7f6ffb", "is_disabled": 0, "lat": 38.88426116666667, "rental_uris": {"ios": "https://dc.lft.to/lastmile_qr_scan", "android": "https://dc.lft.to/lastmile_qr_scan"}, "is_reserved": 0, "lon": -76.95753033333334, "fusion_lat": 0.0, "name": "06b5967ccebb0b9b03b275269f7f6ffb"}, {"type": "electric_scooter", "fusion_lon": 0.0, "bike_id": "21c0528c02c4d0662ccb3147b23fd1e9", "is_disabled": 0, "lat": 38.892211, "rental_uris": {"ios": "https://dc.lft.to/lastmile_qr_scan", "android": "https://dc.lft.to/lastmile_qr_scan"}, "is_reserved": 0, "lon": -77.032202, "fusion_lat": 0.0, "name": "21c0528c02c4d0662ccb3147b23fd1e9"}, {"type": "electric_scooter", "fusion_lon": 0.0, "bike_id": "0b4440149146244344c0ce86a69d610e", "is_disabled": 0, "lat": 38.93350733333333, "rental_uris": {"ios": "https://dc.lft.to/lastmile_qr_scan", "android": "https://dc.lft.to/lastmile_qr_scan"}, "is_reserved": 0, "lon": -77.029734, "fusion_lat": 0.0, "name": "0b4440149146244344c0ce86a69d610e"}, {"type": "electric_scooter", "fusion_lon": 0.0, "bike_id": "a3632c056e1fef40c3cae734d2b9f5c9", "is_disabled": 0, "lat": 38.95601583333333, "rental_uris": {"ios": "https://dc.lft.to/lastmile_qr_scan", "android": "https://dc.lft.to/lastmile_qr_scan"}, "is_reserved": 0, "lon": -77.080682, "fusion_lat": 0.0, "name": "a3632c056e1fef40c3cae734d2b9f5c9"}, {"type": "electric_scooter", "fusion_lon": 0.0, "bike_id": "5731f0a9c62a2e8bde361ae42eb99466", "is_disabled": 0, "lat": 38.874001, "rental_uris": {"ios": "https://dc.lft.to/lastmile_qr_scan", "android": "https://dc.lft.to/lastmile_qr_scan"}, "is_reserved": 0, "lon": -76.9698345, "fusion_lat": 0.0, "name": "5731f0a9c62a2e8bde361ae42eb99466"}, {"type": "electric_scooter", "fusion_lon": 0.0, "bike_id": "0d69fee1046e608c29b1ca0851483a91", "is_disabled": 0, "lat": 38.9097105, "rental_uris": {"ios": "https://dc.lft.to/lastmile_qr_scan", "android": "https://dc.lft.to/lastmile_qr_scan"}, "is_reserved": 0, "lon": -77.03869766666666, "fusion_lat": 0.0, "name": "0d69fee1046e608c29b1ca0851483a91"}, {"type": "electric_scooter", "fusion_lon": 0.0, "bike_id": "84b118168f309582941ce24d7abf2d9d", "is_disabled": 0, "lat": 38.942424, "rental_uris": {"ios": "https://dc.lft.to/lastmile_qr_scan", "android": "https://dc.lft.to/lastmile_qr_scan"}, "is_reserved": 0, "lon": -77.02575716666666, "fusion_lat": 0.0, "name": "84b118168f309582941ce24d7abf2d9d"}, {"type": "electric_scooter", "fusion_lon": 0.0, "bike_id": "78972cf8ab8236e01a58f9d801167f95", "is_disabled": 0, "lat": 38.9276925, "rental_uris": {"ios": "https://dc.lft.to/lastmile_qr_scan", "android": "https://dc.lft.to/lastmile_qr_scan"}, "is_reserved": 0, "lon": -77.028223, "fusion_lat": 0.0, "name": "78972cf8ab8236e01a58f9d801167f95"}, {"type": "electric_scooter", "fusion_lon": 0.0, "bike_id": "6293a24cc42e30954b157e0aeac6f911", "is_disabled": 0, "lat": 38.894941833333334, "rental_uris": {"ios": "https://dc.lft.to/lastmile_qr_scan", "android": "https://dc.lft.to/lastmile_qr_scan"}, "is_reserved": 0, "lon": -77.00944283333334, "fusion_lat": 0.0, "name": "6293a24cc42e30954b157e0aeac6f911"}, {"type": "electric_scooter", "fusion_lon": 0.0, "bike_id": "68db0a1e7f17eeb96091b100669e9f98", "is_disabled": 0, "lat": 38.9195065, "rental_uris": {"ios": "https://dc.lft.to/lastmile_qr_scan", "android": "https://dc.lft.to/lastmile_qr_scan"}, "is_reserved": 0, "lon": -77.01769216666666, "fusion_lat": 0.0, "name": "68db0a1e7f17eeb96091b100669e9f98"}, {"type": "electric_scooter", "fusion_lon": 0.0, "bike_id": "8f1580faeb26074eb198e50c51fc2e25", "is_disabled": 0, "lat": 38.92594716666667, "rental_uris": {"ios": "https://dc.lft.to/lastmile_qr_scan", "android": "https://dc.lft.to/lastmile_qr_scan"}, "is_reserved": 0, "lon": -77.02584133333333, "fusion_lat": 0.0, "name": "8f1580faeb26074eb198e50c51fc2e25"}, {"type": "electric_scooter", "fusion_lon": 0.0, "bike_id": "469a3a02ab10607d097778335b28ef2e", "is_disabled": 0, "lat": 38.89507066666667, "rental_uris": {"ios": "https://dc.lft.to/lastmile_qr_scan", "android": "https://dc.lft.to/lastmile_qr_scan"}, "is_reserved": 0, "lon": -77.04672566666666, "fusion_lat": 0.0, "name": "469a3a02ab10607d097778335b28ef2e"}, {"type": "electric_scooter", "fusion_lon": 0.0, "bike_id": "e7d1b5362010365a66dabc8589e6dc70", "is_disabled": 0, "lat": 38.91954166666667, "rental_uris": {"ios": "https://dc.lft.to/lastmile_qr_scan", "android": "https://dc.lft.to/lastmile_qr_scan"}, "is_reserved": 0, "lon": -77.01883766666667, "fusion_lat": 0.0, "name": "e7d1b5362010365a66dabc8589e6dc70"}, {"type": "electric_scooter", "fusion_lon": 0.0, "bike_id": "a343c4ea90ecddf6b1c5b094318bbb3c", "is_disabled": 0, "lat": 38.91570566666667, "rental_uris": {"ios": "https://dc.lft.to/lastmile_qr_scan", "android": "https://dc.lft.to/lastmile_qr_scan"}, "is_reserved": 0, "lon": -77.04171766666667, "fusion_lat": 0.0, "name": "a343c4ea90ecddf6b1c5b094318bbb3c"}, {"type": "electric_scooter", "fusion_lon": 0.0, "bike_id": "2c7cc1b7813f4a1b52722382a92b8d01", "is_disabled": 0, "lat": 38.913515333333336, "rental_uris": {"ios": "https://dc.lft.to/lastmile_qr_scan", "android": "https://dc.lft.to/lastmile_qr_scan"}, "is_reserved": 0, "lon": -77.03196383333334, "fusion_lat": 0.0, "name": "2c7cc1b7813f4a1b52722382a92b8d01"}, {"type": "electric_bike", "fusion_lon": 0.0, "bike_id": "ffba014983fd45370b5e97f7ea94ba59", "is_disabled": 0, "lat": 38.86199333333333, "rental_uris": {"ios": "https://dc.lft.to/lastmile_qr_scan", "android": "https://dc.lft.to/lastmile_qr_scan"}, "is_reserved": 0, "lon": -76.99540416666666, "fusion_lat": 0.0, "name": "ffba014983fd45370b5e97f7ea94ba59"}, {"type": "electric_scooter", "fusion_lon": 0.0, "bike_id": "7cf04fc42564387a4df981743b0eadc7", "is_disabled": 0, "lat": 38.908757666666666, "rental_uris": {"ios": "https://dc.lft.to/lastmile_qr_scan", "android": "https://dc.lft.to/lastmile_qr_scan"}, "is_reserved": 0, "lon": -76.99811866666667, "fusion_lat": 0.0, "name": "7cf04fc42564387a4df981743b0eadc7"}, {"type": "electric_scooter", "fusion_lon": 0.0, "bike_id": "77e23972a9601935a8185d3a1b52f9e9", "is_disabled": 0, "lat": 38.876652166666666, "rental_uris": {"ios": "https://dc.lft.to/lastmile_qr_scan", "android": "https://dc.lft.to/lastmile_qr_scan"}, "is_reserved": 0, "lon": -77.000665, "fusion_lat": 0.0, "name": "77e23972a9601935a8185d3a1b52f9e9"}, {"type": "electric_scooter", "fusion_lon": 0.0, "bike_id": "00adecc9ab736411785bb5230194b85e", "is_disabled": 0, "lat": 38.90641516666667, "rental_uris": {"ios": "https://dc.lft.to/lastmile_qr_scan", "android": "https://dc.lft.to/lastmile_qr_scan"}, "is_reserved": 0, "lon": -77.017639, "fusion_lat": 0.0, "name": "00adecc9ab736411785bb5230194b85e"}, {"type": "electric_scooter", "fusion_lon": 0.0, "bike_id": "252b309d1339c3b78088eafa9e8f1d83", "is_disabled": 0, "lat": 38.93232533333333, "rental_uris": {"ios": "https://dc.lft.to/lastmile_qr_scan", "android": "https://dc.lft.to/lastmile_qr_scan"}, "is_reserved": 0, "lon": -77.02386066666666, "fusion_lat": 0.0, "name": "252b309d1339c3b78088eafa9e8f1d83"}, {"type": "electric_scooter", "fusion_lon": 0.0, "bike_id": "1bb0b18ecaca06e502afdad045ca938c", "is_disabled": 0, "lat": 38.9051425, "rental_uris": {"ios": "https://dc.lft.to/lastmile_qr_scan", "android": "https://dc.lft.to/lastmile_qr_scan"}, "is_reserved": 0, "lon": -77.03499233333334, "fusion_lat": 0.0, "name": "1bb0b18ecaca06e502afdad045ca938c"}, {"type": "electric_scooter", "fusion_lon": 0.0, "bike_id": "53789eb473168ca4e3ef4f8e722d9833", "is_disabled": 0, "lat": 38.91412916666667, "rental_uris": {"ios": "https://dc.lft.to/lastmile_qr_scan", "android": "https://dc.lft.to/lastmile_qr_scan"}, "is_reserved": 0, "lon": -77.03223533333333, "fusion_lat": 0.0, "name": "53789eb473168ca4e3ef4f8e722d9833"}, {"type": "electric_scooter", "fusion_lon": 0.0, "bike_id": "84bb18eff66bb7fdb99866da01c38365", "is_disabled": 0, "lat": 38.9239225, "rental_uris": {"ios": "https://dc.lft.to/lastmile_qr_scan", "android": "https://dc.lft.to/lastmile_qr_scan"}, "is_reserved": 0, "lon": -77.026986, "fusion_lat": 0.0, "name": "84bb18eff66bb7fdb99866da01c38365"}, {"type": "electric_scooter", "fusion_lon": 0.0, "bike_id": "65929e7545d2319b409803754b00608e", "is_disabled": 0, "lat": 38.9204945, "rental_uris": {"ios": "https://dc.lft.to/lastmile_qr_scan", "android": "https://dc.lft.to/lastmile_qr_scan"}, "is_reserved": 0, "lon": -77.0418855, "fusion_lat": 0.0, "name": "65929e7545d2319b409803754b00608e"}, {"type": "electric_scooter", "fusion_lon": 0.0, "bike_id": "fb20b7835907cb87206cb340a89b7725", "is_disabled": 0, "lat": 38.90965816666667, "rental_uris": {"ios": "https://dc.lft.to/lastmile_qr_scan", "android": "https://dc.lft.to/lastmile_qr_scan"}, "is_reserved": 0, "lon": -77.038346, "fusion_lat": 0.0, "name": "fb20b7835907cb87206cb340a89b7725"}, {"type": "electric_scooter", "fusion_lon": 0.0, "bike_id": "271118bf8ec22c0ffb8bbd4cbb8540ed", "is_disabled": 0, "lat": 38.920181, "rental_uris": {"ios": "https://dc.lft.to/lastmile_qr_scan", "android": "https://dc.lft.to/lastmile_qr_scan"}, "is_reserved": 0, "lon": -77.03138683333333, "fusion_lat": 0.0, "name": "271118bf8ec22c0ffb8bbd4cbb8540ed"}, {"type": "electric_scooter", "fusion_lon": 0.0, "bike_id": "930555d4b3ab791930a5a8654cac01e9", "is_disabled": 0, "lat": 38.908473, "rental_uris": {"ios": "https://dc.lft.to/lastmile_qr_scan", "android": "https://dc.lft.to/lastmile_qr_scan"}, "is_reserved": 0, "lon": -77.03632416666666, "fusion_lat": 0.0, "name": "930555d4b3ab791930a5a8654cac01e9"}, {"type": "electric_scooter", "fusion_lon": 0.0, "bike_id": "3aa070ca9490a3850c34a2157d2a6e8d", "is_disabled": 0, "lat": 38.924542333333335, "rental_uris": {"ios": "https://dc.lft.to/lastmile_qr_scan", "android": "https://dc.lft.to/lastmile_qr_scan"}, "is_reserved": 0, "lon": -77.03294316666667, "fusion_lat": 0.0, "name": "3aa070ca9490a3850c34a2157d2a6e8d"}, {"type": "electric_scooter", "fusion_lon": 0.0, "bike_id": "165e5f937427950524412a71f402c5ff", "is_disabled": 0, "lat": 38.917246, "rental_uris": {"ios": "https://dc.lft.to/lastmile_qr_scan", "android": "https://dc.lft.to/lastmile_qr_scan"}, "is_reserved": 0, "lon": -77.0460085, "fusion_lat": 0.0, "name": "165e5f937427950524412a71f402c5ff"}, {"type": "electric_scooter", "fusion_lon": 0.0, "bike_id": "7956391617197ea790bcfe8b007559d2", "is_disabled": 0, "lat": 38.892850333333335, "rental_uris": {"ios": "https://dc.lft.to/lastmile_qr_scan", "android": "https://dc.lft.to/lastmile_qr_scan"}, "is_reserved": 0, "lon": -76.950893, "fusion_lat": 0.0, "name": "7956391617197ea790bcfe8b007559d2"}, {"type": "electric_scooter", "fusion_lon": 0.0, "bike_id": "b0a0f0f331b56d5def59864a17e29c5d", "is_disabled": 0, "lat": 38.9195205, "rental_uris": {"ios": "https://dc.lft.to/lastmile_qr_scan", "android": "https://dc.lft.to/lastmile_qr_scan"}, "is_reserved": 0, "lon": -77.02482366666666, "fusion_lat": 0.0, "name": "b0a0f0f331b56d5def59864a17e29c5d"}, {"type": "electric_scooter", "fusion_lon": 0.0, "bike_id": "bd25f3ffd1d20a70d3baa872e9e7fe65", "is_disabled": 0, "lat": 38.91680683333333, "rental_uris": {"ios": "https://dc.lft.to/lastmile_qr_scan", "android": "https://dc.lft.to/lastmile_qr_scan"}, "is_reserved": 0, "lon": -77.03868766666666, "fusion_lat": 0.0, "name": "bd25f3ffd1d20a70d3baa872e9e7fe65"}, {"type": "electric_scooter", "fusion_lon": 0.0, "bike_id": "09e92a2705fd58d2350a04d8d72159f3", "is_disabled": 0, "lat": 38.8849675, "rental_uris": {"ios": "https://dc.lft.to/lastmile_qr_scan", "android": "https://dc.lft.to/lastmile_qr_scan"}, "is_reserved": 0, "lon": -77.02072233333334, "fusion_lat": 0.0, "name": "09e92a2705fd58d2350a04d8d72159f3"}, {"type": "electric_scooter", "fusion_lon": 0.0, "bike_id": "a21284c98047cac7d0159faa95cd4a1f", "is_disabled": 0, "lat": 38.892220333333334, "rental_uris": {"ios": "https://dc.lft.to/lastmile_qr_scan", "android": "https://dc.lft.to/lastmile_qr_scan"}, "is_reserved": 0, "lon": -77.0485905, "fusion_lat": 0.0, "name": "a21284c98047cac7d0159faa95cd4a1f"}, {"type": "electric_scooter", "fusion_lon": 0.0, "bike_id": "c87ab8f3031f842450026a1c4f0f59e1", "is_disabled": 0, "lat": 38.928234333333336, "rental_uris": {"ios": "https://dc.lft.to/lastmile_qr_scan", "android": "https://dc.lft.to/lastmile_qr_scan"}, "is_reserved": 0, "lon": -77.022602, "fusion_lat": 0.0, "name": "c87ab8f3031f842450026a1c4f0f59e1"}, {"type": "electric_scooter", "fusion_lon": 0.0, "bike_id": "f22d61cd9964290288728b8dc5054f0b", "is_disabled": 0, "lat": 38.92260816666667, "rental_uris": {"ios": "https://dc.lft.to/lastmile_qr_scan", "android": "https://dc.lft.to/lastmile_qr_scan"}, "is_reserved": 0, "lon": -77.01916216666666, "fusion_lat": 0.0, "name": "f22d61cd9964290288728b8dc5054f0b"}, {"type": "electric_bike", "fusion_lon": 0.0, "bike_id": "dc0af36ae777988bd8a4dcd7db3788d6", "is_disabled": 0, "lat": 38.895613833333336, "rental_uris": {"ios": "https://dc.lft.to/lastmile_qr_scan", "android": "https://dc.lft.to/lastmile_qr_scan"}, "is_reserved": 0, "lon": -77.12735566666667, "fusion_lat": 0.0, "name": "dc0af36ae777988bd8a4dcd7db3788d6"}, {"type": "electric_scooter", "fusion_lon": 0.0, "bike_id": "e07792ca932fc06649a089c327ca7543", "is_disabled": 0, "lat": 38.90010216666667, "rental_uris": {"ios": "https://dc.lft.to/lastmile_qr_scan", "android": "https://dc.lft.to/lastmile_qr_scan"}, "is_reserved": 0, "lon": -76.98894833333334, "fusion_lat": 0.0, "name": "e07792ca932fc06649a089c327ca7543"}, {"type": "electric_scooter", "fusion_lon": 0.0, "bike_id": "3520a4b239227aa87cc44a9482d3c691", "is_disabled": 0, "lat": 38.8954315, "rental_uris": {"ios": "https://dc.lft.to/lastmile_qr_scan", "android": "https://dc.lft.to/lastmile_qr_scan"}, "is_reserved": 0, "lon": -77.02806033333333, "fusion_lat": 0.0, "name": "3520a4b239227aa87cc44a9482d3c691"}, {"type": "electric_scooter", "fusion_lon": 0.0, "bike_id": "1603fcd4cb7d80470f7e67dbc0136c7d", "is_disabled": 0, "lat": 38.876677, "rental_uris": {"ios": "https://dc.lft.to/lastmile_qr_scan", "android": "https://dc.lft.to/lastmile_qr_scan"}, "is_reserved": 0, "lon": -77.003562, "fusion_lat": 0.0, "name": "1603fcd4cb7d80470f7e67dbc0136c7d"}, {"type": "electric_scooter", "fusion_lon": 0.0, "bike_id": "f5dd60a2246529decb0336d4041bc25b", "is_disabled": 0, "lat": 38.86268833333333, "rental_uris": {"ios": "https://dc.lft.to/lastmile_qr_scan", "android": "https://dc.lft.to/lastmile_qr_scan"}, "is_reserved": 0, "lon": -76.99571433333334, "fusion_lat": 0.0, "name": "f5dd60a2246529decb0336d4041bc25b"}, {"type": "electric_scooter", "fusion_lon": 0.0, "bike_id": "8707f68f27b85ab8e8adbf9747184423", "is_disabled": 0, "lat": 38.920151, "rental_uris": {"ios": "https://dc.lft.to/lastmile_qr_scan", "android": "https://dc.lft.to/lastmile_qr_scan"}, "is_reserved": 0, "lon": -77.04406133333333, "fusion_lat": 0.0, "name": "8707f68f27b85ab8e8adbf9747184423"}, {"type": "electric_scooter", "fusion_lon": 0.0, "bike_id": "eb080180724fae52a531efe2d3b928fb", "is_disabled": 0, "lat": 38.919754833333336, "rental_uris": {"ios": "https://dc.lft.to/lastmile_qr_scan", "android": "https://dc.lft.to/lastmile_qr_scan"}, "is_reserved": 0, "lon": -77.021792, "fusion_lat": 0.0, "name": "eb080180724fae52a531efe2d3b928fb"}, {"type": "electric_scooter", "fusion_lon": 0.0, "bike_id": "b41bde9c2ce519caf367798e5f42d7e6", "is_disabled": 0, "lat": 38.8772005, "rental_uris": {"ios": "https://dc.lft.to/lastmile_qr_scan", "android": "https://dc.lft.to/lastmile_qr_scan"}, "is_reserved": 0, "lon": -77.01765033333334, "fusion_lat": 0.0, "name": "b41bde9c2ce519caf367798e5f42d7e6"}, {"type": "electric_scooter", "fusion_lon": 0.0, "bike_id": "f041cebb86224e254b5bf5fb356f73b6", "is_disabled": 0, "lat": 38.899122166666665, "rental_uris": {"ios": "https://dc.lft.to/lastmile_qr_scan", "android": "https://dc.lft.to/lastmile_qr_scan"}, "is_reserved": 0, "lon": -76.93384716666667, "fusion_lat": 0.0, "name": "f041cebb86224e254b5bf5fb356f73b6"}, {"type": "electric_scooter", "fusion_lon": 0.0, "bike_id": "be4bd9e26c63ce4d299898d83ffe17c7", "is_disabled": 0, "lat": 38.94452966666667, "rental_uris": {"ios": "https://dc.lft.to/lastmile_qr_scan", "android": "https://dc.lft.to/lastmile_qr_scan"}, "is_reserved": 0, "lon": -77.0280335, "fusion_lat": 0.0, "name": "be4bd9e26c63ce4d299898d83ffe17c7"}, {"type": "electric_scooter", "fusion_lon": 0.0, "bike_id": "13622d8c5d1aa2fdce45a5897a20f66a", "is_disabled": 0, "lat": 38.887395166666664, "rental_uris": {"ios": "https://dc.lft.to/lastmile_qr_scan", "android": "https://dc.lft.to/lastmile_qr_scan"}, "is_reserved": 0, "lon": -77.01526733333333, "fusion_lat": 0.0, "name": "13622d8c5d1aa2fdce45a5897a20f66a"}, {"type": "electric_scooter", "fusion_lon": 0.0, "bike_id": "34143619aef035048d909f97bbe4a6c1", "is_disabled": 0, "lat": 38.903728, "rental_uris": {"ios": "https://dc.lft.to/lastmile_qr_scan", "android": "https://dc.lft.to/lastmile_qr_scan"}, "is_reserved": 0, "lon": -77.06684516666667, "fusion_lat": 0.0, "name": "34143619aef035048d909f97bbe4a6c1"}, {"type": "electric_scooter", "fusion_lon": 0.0, "bike_id": "7d3307f4c7b0ec8eaba73c0db89135f7", "is_disabled": 0, "lat": 38.917108999999996, "rental_uris": {"ios": "https://dc.lft.to/lastmile_qr_scan", "android": "https://dc.lft.to/lastmile_qr_scan"}, "is_reserved": 0, "lon": -77.03858833333334, "fusion_lat": 0.0, "name": "7d3307f4c7b0ec8eaba73c0db89135f7"}, {"type": "electric_scooter", "fusion_lon": 0.0, "bike_id": "71290dff68c4df021973640b263fe200", "is_disabled": 0, "lat": 38.9271865, "rental_uris": {"ios": "https://dc.lft.to/lastmile_qr_scan", "android": "https://dc.lft.to/lastmile_qr_scan"}, "is_reserved": 0, "lon": -77.02094066666666, "fusion_lat": 0.0, "name": "71290dff68c4df021973640b263fe200"}, {"type": "electric_scooter", "fusion_lon": 0.0, "bike_id": "2b0585bf2f67c4708c1c57a9893de1b3", "is_disabled": 0, "lat": 38.9209865, "rental_uris": {"ios": "https://dc.lft.to/lastmile_qr_scan", "android": "https://dc.lft.to/lastmile_qr_scan"}, "is_reserved": 0, "lon": -77.01767583333333, "fusion_lat": 0.0, "name": "2b0585bf2f67c4708c1c57a9893de1b3"}, {"type": "electric_scooter", "fusion_lon": 0.0, "bike_id": "412ba8ac54473d437b6c96a4f94e6db9", "is_disabled": 0, "lat": 38.86499033333333, "rental_uris": {"ios": "https://dc.lft.to/lastmile_qr_scan", "android": "https://dc.lft.to/lastmile_qr_scan"}, "is_reserved": 0, "lon": -76.98986416666666, "fusion_lat": 0.0, "name": "412ba8ac54473d437b6c96a4f94e6db9"}, {"type": "electric_scooter", "fusion_lon": 0.0, "bike_id": "b810c06405d6f182a63c7a2b77afb237", "is_disabled": 0, "lat": 38.924716833333335, "rental_uris": {"ios": "https://dc.lft.to/lastmile_qr_scan", "android": "https://dc.lft.to/lastmile_qr_scan"}, "is_reserved": 0, "lon": -77.03062833333334, "fusion_lat": 0.0, "name": "b810c06405d6f182a63c7a2b77afb237"}, {"type": "electric_scooter", "fusion_lon": 0.0, "bike_id": "d6d7d0ce85b6a38d3d2199f58b09d56a", "is_disabled": 0, "lat": 38.914123000000004, "rental_uris": {"ios": "https://dc.lft.to/lastmile_qr_scan", "android": "https://dc.lft.to/lastmile_qr_scan"}, "is_reserved": 0, "lon": -77.0415195, "fusion_lat": 0.0, "name": "d6d7d0ce85b6a38d3d2199f58b09d56a"}, {"type": "electric_scooter", "fusion_lon": 0.0, "bike_id": "2e628be74f4771bec1fecdf4714c40a2", "is_disabled": 0, "lat": 38.90030633333333, "rental_uris": {"ios": "https://dc.lft.to/lastmile_qr_scan", "android": "https://dc.lft.to/lastmile_qr_scan"}, "is_reserved": 0, "lon": -77.0371555, "fusion_lat": 0.0, "name": "2e628be74f4771bec1fecdf4714c40a2"}, {"type": "electric_scooter", "fusion_lon": 0.0, "bike_id": "23aba0e1d63f60b95d6057ba54c543bf", "is_disabled": 0, "lat": 38.893436666666666, "rental_uris": {"ios": "https://dc.lft.to/lastmile_qr_scan", "android": "https://dc.lft.to/lastmile_qr_scan"}, "is_reserved": 0, "lon": -76.99157666666666, "fusion_lat": 0.0, "name": "23aba0e1d63f60b95d6057ba54c543bf"}, {"type": "electric_scooter", "fusion_lon": 0.0, "bike_id": "5f07a56f1d64019517b1eb469eb136f5", "is_disabled": 0, "lat": 38.984345833333336, "rental_uris": {"ios": "https://dc.lft.to/lastmile_qr_scan", "android": "https://dc.lft.to/lastmile_qr_scan"}, "is_reserved": 0, "lon": -77.02672416666667, "fusion_lat": 0.0, "name": "5f07a56f1d64019517b1eb469eb136f5"}, {"type": "electric_scooter", "fusion_lon": 0.0, "bike_id": "5de8126f0e4f6b853abfa485c5341a5a", "is_disabled": 0, "lat": 38.902782, "rental_uris": {"ios": "https://dc.lft.to/lastmile_qr_scan", "android": "https://dc.lft.to/lastmile_qr_scan"}, "is_reserved": 0, "lon": -77.03482466666667, "fusion_lat": 0.0, "name": "5de8126f0e4f6b853abfa485c5341a5a"}, {"type": "electric_scooter", "fusion_lon": 0.0, "bike_id": "12dbe85caacd60bc299a4dae6b983cd4", "is_disabled": 0, "lat": 38.937382666666664, "rental_uris": {"ios": "https://dc.lft.to/lastmile_qr_scan", "android": "https://dc.lft.to/lastmile_qr_scan"}, "is_reserved": 0, "lon": -77.06872566666667, "fusion_lat": 0.0, "name": "12dbe85caacd60bc299a4dae6b983cd4"}, {"type": "electric_scooter", "fusion_lon": 0.0, "bike_id": "cb2e9ae4cddd079ecba1fb8aee8d5f35", "is_disabled": 0, "lat": 38.907545666666664, "rental_uris": {"ios": "https://dc.lft.to/lastmile_qr_scan", "android": "https://dc.lft.to/lastmile_qr_scan"}, "is_reserved": 0, "lon": -77.00358566666667, "fusion_lat": 0.0, "name": "cb2e9ae4cddd079ecba1fb8aee8d5f35"}, {"type": "electric_scooter", "fusion_lon": 0.0, "bike_id": "bce81147e54ee94564232f74f2acdea4", "is_disabled": 0, "lat": 38.911164666666664, "rental_uris": {"ios": "https://dc.lft.to/lastmile_qr_scan", "android": "https://dc.lft.to/lastmile_qr_scan"}, "is_reserved": 0, "lon": -77.04368283333334, "fusion_lat": 0.0, "name": "bce81147e54ee94564232f74f2acdea4"}, {"type": "electric_scooter", "fusion_lon": 0.0, "bike_id": "87f095e0f2e23bc984175198b33fb3e0", "is_disabled": 0, "lat": 38.9105325, "rental_uris": {"ios": "https://dc.lft.to/lastmile_qr_scan", "android": "https://dc.lft.to/lastmile_qr_scan"}, "is_reserved": 0, "lon": -77.04350533333333, "fusion_lat": 0.0, "name": "87f095e0f2e23bc984175198b33fb3e0"}, {"type": "electric_scooter", "fusion_lon": 0.0, "bike_id": "5fb3e8fb41b4d667df45eceba40bfede", "is_disabled": 0, "lat": 38.927584, "rental_uris": {"ios": "https://dc.lft.to/lastmile_qr_scan", "android": "https://dc.lft.to/lastmile_qr_scan"}, "is_reserved": 0, "lon": -77.0327305, "fusion_lat": 0.0, "name": "5fb3e8fb41b4d667df45eceba40bfede"}, {"type": "electric_scooter", "fusion_lon": 0.0, "bike_id": "80e4bcec161951d5454b7855c1ecced2", "is_disabled": 0, "lat": 38.885307166666664, "rental_uris": {"ios": "https://dc.lft.to/lastmile_qr_scan", "android": "https://dc.lft.to/lastmile_qr_scan"}, "is_reserved": 0, "lon": -77.0058445, "fusion_lat": 0.0, "name": "80e4bcec161951d5454b7855c1ecced2"}, {"type": "electric_scooter", "fusion_lon": 0.0, "bike_id": "dcba0e1ed4deba2db9bd5baca36bcdc2", "is_disabled": 0, "lat": 38.860141, "rental_uris": {"ios": "https://dc.lft.to/lastmile_qr_scan", "android": "https://dc.lft.to/lastmile_qr_scan"}, "is_reserved": 0, "lon": -76.96703866666667, "fusion_lat": 0.0, "name": "dcba0e1ed4deba2db9bd5baca36bcdc2"}, {"type": "electric_scooter", "fusion_lon": 0.0, "bike_id": "edfba6ab73bfc8e1ae8544643e72c8ae", "is_disabled": 0, "lat": 38.892239000000004, "rental_uris": {"ios": "https://dc.lft.to/lastmile_qr_scan", "android": "https://dc.lft.to/lastmile_qr_scan"}, "is_reserved": 0, "lon": -77.04862716666666, "fusion_lat": 0.0, "name": "edfba6ab73bfc8e1ae8544643e72c8ae"}, {"type": "electric_scooter", "fusion_lon": 0.0, "bike_id": "665c6edfe7c2a4fc191a2ce78cd2d2fe", "is_disabled": 0, "lat": 38.908736833333336, "rental_uris": {"ios": "https://dc.lft.to/lastmile_qr_scan", "android": "https://dc.lft.to/lastmile_qr_scan"}, "is_reserved": 0, "lon": -77.04321083333333, "fusion_lat": 0.0, "name": "665c6edfe7c2a4fc191a2ce78cd2d2fe"}, {"type": "electric_scooter", "fusion_lon": 0.0, "bike_id": "42ce2a1598c2a7fd70c09bf3a861ee0f", "is_disabled": 0, "lat": 38.941942166666664, "rental_uris": {"ios": "https://dc.lft.to/lastmile_qr_scan", "android": "https://dc.lft.to/lastmile_qr_scan"}, "is_reserved": 0, "lon": -77.0332545, "fusion_lat": 0.0, "name": "42ce2a1598c2a7fd70c09bf3a861ee0f"}, {"type": "electric_scooter", "fusion_lon": 0.0, "bike_id": "fbdeb299dd2fb6229587824cc083e408", "is_disabled": 0, "lat": 38.895216833333336, "rental_uris": {"ios": "https://dc.lft.to/lastmile_qr_scan", "android": "https://dc.lft.to/lastmile_qr_scan"}, "is_reserved": 0, "lon": -77.03931883333334, "fusion_lat": 0.0, "name": "fbdeb299dd2fb6229587824cc083e408"}, {"type": "electric_scooter", "fusion_lon": 0.0, "bike_id": "c20433a64041d197f7d292250007e760", "is_disabled": 0, "lat": 38.91928, "rental_uris": {"ios": "https://dc.lft.to/lastmile_qr_scan", "android": "https://dc.lft.to/lastmile_qr_scan"}, "is_reserved": 0, "lon": -77.02487066666667, "fusion_lat": 0.0, "name": "c20433a64041d197f7d292250007e760"}, {"type": "electric_scooter", "fusion_lon": 0.0, "bike_id": "f0761f5b5aef6840a4ad8bf455a83a0e", "is_disabled": 0, "lat": 38.906363999999996, "rental_uris": {"ios": "https://dc.lft.to/lastmile_qr_scan", "android": "https://dc.lft.to/lastmile_qr_scan"}, "is_reserved": 0, "lon": -77.0464895, "fusion_lat": 0.0, "name": "f0761f5b5aef6840a4ad8bf455a83a0e"}, {"type": "electric_scooter", "fusion_lon": 0.0, "bike_id": "c45df3dab0f6dfe2db1cc0ec78c9fef3", "is_disabled": 0, "lat": 38.909833166666665, "rental_uris": {"ios": "https://dc.lft.to/lastmile_qr_scan", "android": "https://dc.lft.to/lastmile_qr_scan"}, "is_reserved": 0, "lon": -77.021993, "fusion_lat": 0.0, "name": "c45df3dab0f6dfe2db1cc0ec78c9fef3"}, {"type": "electric_scooter", "fusion_lon": 0.0, "bike_id": "07adc9a543c9bd6de13718c0fa304ebb", "is_disabled": 0, "lat": 38.927097833333335, "rental_uris": {"ios": "https://dc.lft.to/lastmile_qr_scan", "android": "https://dc.lft.to/lastmile_qr_scan"}, "is_reserved": 0, "lon": -77.02080933333333, "fusion_lat": 0.0, "name": "07adc9a543c9bd6de13718c0fa304ebb"}, {"type": "electric_scooter", "fusion_lon": 0.0, "bike_id": "aca30cd8859e00d8256cbb13d7e54031", "is_disabled": 0, "lat": 38.927642, "rental_uris": {"ios": "https://dc.lft.to/lastmile_qr_scan", "android": "https://dc.lft.to/lastmile_qr_scan"}, "is_reserved": 0, "lon": -77.03240733333334, "fusion_lat": 0.0, "name": "aca30cd8859e00d8256cbb13d7e54031"}, {"type": "electric_scooter", "fusion_lon": 0.0, "bike_id": "c64863d0a44a38dd4d9dd4b11d2a6c1c", "is_disabled": 0, "lat": 38.900856166666664, "rental_uris": {"ios": "https://dc.lft.to/lastmile_qr_scan", "android": "https://dc.lft.to/lastmile_qr_scan"}, "is_reserved": 0, "lon": -77.04779566666667, "fusion_lat": 0.0, "name": "c64863d0a44a38dd4d9dd4b11d2a6c1c"}, {"type": "electric_scooter", "fusion_lon": 0.0, "bike_id": "8d5bd52716c8e59931aed713a46b0ed6", "is_disabled": 0, "lat": 38.887300333333336, "rental_uris": {"ios": "https://dc.lft.to/lastmile_qr_scan", "android": "https://dc.lft.to/lastmile_qr_scan"}, "is_reserved": 0, "lon": -77.0138555, "fusion_lat": 0.0, "name": "8d5bd52716c8e59931aed713a46b0ed6"}, {"type": "electric_scooter", "fusion_lon": 0.0, "bike_id": "2e4178961652a97bb2b326952f0b4ef9", "is_disabled": 0, "lat": 38.885585666666664, "rental_uris": {"ios": "https://dc.lft.to/lastmile_qr_scan", "android": "https://dc.lft.to/lastmile_qr_scan"}, "is_reserved": 0, "lon": -76.9979115, "fusion_lat": 0.0, "name": "2e4178961652a97bb2b326952f0b4ef9"}, {"type": "electric_scooter", "fusion_lon": 0.0, "bike_id": "fc1472031b0c32b64a69d013a90b0e0b", "is_disabled": 0, "lat": 38.900126666666665, "rental_uris": {"ios": "https://dc.lft.to/lastmile_qr_scan", "android": "https://dc.lft.to/lastmile_qr_scan"}, "is_reserved": 0, "lon": -77.01257183333334, "fusion_lat": 0.0, "name": "fc1472031b0c32b64a69d013a90b0e0b"}, {"type": "electric_scooter", "fusion_lon": 0.0, "bike_id": "b5ca2fc9f96611d122c943c9fe7f27ce", "is_disabled": 0, "lat": 38.899765333333335, "rental_uris": {"ios": "https://dc.lft.to/lastmile_qr_scan", "android": "https://dc.lft.to/lastmile_qr_scan"}, "is_reserved": 0, "lon": -76.9925705, "fusion_lat": 0.0, "name": "b5ca2fc9f96611d122c943c9fe7f27ce"}, {"type": "electric_scooter", "fusion_lon": 0.0, "bike_id": "08ed3332debc4d7c3e1b28417b0d470b", "is_disabled": 0, "lat": 38.89239366666666, "rental_uris": {"ios": "https://dc.lft.to/lastmile_qr_scan", "android": "https://dc.lft.to/lastmile_qr_scan"}, "is_reserved": 0, "lon": -77.0415985, "fusion_lat": 0.0, "name": "08ed3332debc4d7c3e1b28417b0d470b"}, {"type": "electric_bike", "fusion_lon": 0.0, "bike_id": "359cc97537e999da3c3f7f22499f5699", "is_disabled": 0, "lat": 38.8315715, "rental_uris": {"ios": "https://dc.lft.to/lastmile_qr_scan", "android": "https://dc.lft.to/lastmile_qr_scan"}, "is_reserved": 0, "lon": -76.99573283333334, "fusion_lat": 0.0, "name": "359cc97537e999da3c3f7f22499f5699"}, {"type": "electric_scooter", "fusion_lon": 0.0, "bike_id": "eca740185ada62c926d37d4f634f6e45", "is_disabled": 0, "lat": 38.92415583333333, "rental_uris": {"ios": "https://dc.lft.to/lastmile_qr_scan", "android": "https://dc.lft.to/lastmile_qr_scan"}, "is_reserved": 0, "lon": -77.019444, "fusion_lat": 0.0, "name": "eca740185ada62c926d37d4f634f6e45"}, {"type": "electric_scooter", "fusion_lon": 0.0, "bike_id": "78eb0de941c11e7b14b8214a635ddf0e", "is_disabled": 0, "lat": 38.90713216666666, "rental_uris": {"ios": "https://dc.lft.to/lastmile_qr_scan", "android": "https://dc.lft.to/lastmile_qr_scan"}, "is_reserved": 0, "lon": -77.02386766666666, "fusion_lat": 0.0, "name": "78eb0de941c11e7b14b8214a635ddf0e"}, {"type": "electric_scooter", "fusion_lon": 0.0, "bike_id": "9d9abf00d3218ed9ce0a89eeb6c3d58c", "is_disabled": 0, "lat": 38.91020783333333, "rental_uris": {"ios": "https://dc.lft.to/lastmile_qr_scan", "android": "https://dc.lft.to/lastmile_qr_scan"}, "is_reserved": 0, "lon": -77.0429705, "fusion_lat": 0.0, "name": "9d9abf00d3218ed9ce0a89eeb6c3d58c"}, {"type": "electric_scooter", "fusion_lon": 0.0, "bike_id": "b71253a1eab093e4ede9d3a085d37bed", "is_disabled": 0, "lat": 38.93940816666667, "rental_uris": {"ios": "https://dc.lft.to/lastmile_qr_scan", "android": "https://dc.lft.to/lastmile_qr_scan"}, "is_reserved": 0, "lon": -77.0751975, "fusion_lat": 0.0, "name": "b71253a1eab093e4ede9d3a085d37bed"}, {"type": "electric_scooter", "fusion_lon": 0.0, "bike_id": "1bc912a5d380d42b9244cedf58f1b322", "is_disabled": 0, "lat": 38.892291, "rental_uris": {"ios": "https://dc.lft.to/lastmile_qr_scan", "android": "https://dc.lft.to/lastmile_qr_scan"}, "is_reserved": 0, "lon": -77.0500555, "fusion_lat": 0.0, "name": "1bc912a5d380d42b9244cedf58f1b322"}, {"type": "electric_scooter", "fusion_lon": 0.0, "bike_id": "b866bcbe0cc63ff5ac5c98217f7fe76f", "is_disabled": 0, "lat": 38.933983833333336, "rental_uris": {"ios": "https://dc.lft.to/lastmile_qr_scan", "android": "https://dc.lft.to/lastmile_qr_scan"}, "is_reserved": 0, "lon": -77.05741633333334, "fusion_lat": 0.0, "name": "b866bcbe0cc63ff5ac5c98217f7fe76f"}, {"type": "electric_scooter", "fusion_lon": 0.0, "bike_id": "eb2f90afbed458342c5fc65ae4bcd5b7", "is_disabled": 0, "lat": 38.91366683333333, "rental_uris": {"ios": "https://dc.lft.to/lastmile_qr_scan", "android": "https://dc.lft.to/lastmile_qr_scan"}, "is_reserved": 0, "lon": -77.0224145, "fusion_lat": 0.0, "name": "eb2f90afbed458342c5fc65ae4bcd5b7"}, {"type": "electric_scooter", "fusion_lon": 0.0, "bike_id": "3ed26f442fd1f41caa567046c6982a88", "is_disabled": 0, "lat": 38.91686216666667, "rental_uris": {"ios": "https://dc.lft.to/lastmile_qr_scan", "android": "https://dc.lft.to/lastmile_qr_scan"}, "is_reserved": 0, "lon": -77.02524266666667, "fusion_lat": 0.0, "name": "3ed26f442fd1f41caa567046c6982a88"}, {"type": "electric_scooter", "fusion_lon": 0.0, "bike_id": "4997e04fdc198d033959cb0d6ab45618", "is_disabled": 0, "lat": 38.91883333333333, "rental_uris": {"ios": "https://dc.lft.to/lastmile_qr_scan", "android": "https://dc.lft.to/lastmile_qr_scan"}, "is_reserved": 0, "lon": -77.035778, "fusion_lat": 0.0, "name": "4997e04fdc198d033959cb0d6ab45618"}, {"type": "electric_scooter", "fusion_lon": 0.0, "bike_id": "f6e07debb9c494b4641033cd7a2afee1", "is_disabled": 0, "lat": 38.8746955, "rental_uris": {"ios": "https://dc.lft.to/lastmile_qr_scan", "android": "https://dc.lft.to/lastmile_qr_scan"}, "is_reserved": 0, "lon": -77.00555416666667, "fusion_lat": 0.0, "name": "f6e07debb9c494b4641033cd7a2afee1"}, {"type": "electric_scooter", "fusion_lon": 0.0, "bike_id": "f2f78bf6d3b1ec083273d6cb88798458", "is_disabled": 0, "lat": 38.8946555, "rental_uris": {"ios": "https://dc.lft.to/lastmile_qr_scan", "android": "https://dc.lft.to/lastmile_qr_scan"}, "is_reserved": 0, "lon": -77.02172383333334, "fusion_lat": 0.0, "name": "f2f78bf6d3b1ec083273d6cb88798458"}, {"type": "electric_scooter", "fusion_lon": 0.0, "bike_id": "937bac5988c8adaa5fce0af4ef55fe1c", "is_disabled": 0, "lat": 38.896126833333334, "rental_uris": {"ios": "https://dc.lft.to/lastmile_qr_scan", "android": "https://dc.lft.to/lastmile_qr_scan"}, "is_reserved": 0, "lon": -76.9988145, "fusion_lat": 0.0, "name": "937bac5988c8adaa5fce0af4ef55fe1c"}, {"type": "electric_scooter", "fusion_lon": 0.0, "bike_id": "dcc0b7281ce9be5b0f6f767439e1881e", "is_disabled": 0, "lat": 38.90033283333333, "rental_uris": {"ios": "https://dc.lft.to/lastmile_qr_scan", "android": "https://dc.lft.to/lastmile_qr_scan"}, "is_reserved": 0, "lon": -77.0238545, "fusion_lat": 0.0, "name": "dcc0b7281ce9be5b0f6f767439e1881e"}, {"type": "electric_scooter", "fusion_lon": 0.0, "bike_id": "eb1b4a087985bdbba48358a15bf0e01f", "is_disabled": 0, "lat": 38.966084, "rental_uris": {"ios": "https://dc.lft.to/lastmile_qr_scan", "android": "https://dc.lft.to/lastmile_qr_scan"}, "is_reserved": 0, "lon": -77.027473, "fusion_lat": 0.0, "name": "eb1b4a087985bdbba48358a15bf0e01f"}, {"type": "electric_scooter", "fusion_lon": 0.0, "bike_id": "5c38d24c2a4aa002748ed67be57bfe6a", "is_disabled": 0, "lat": 38.916412333333334, "rental_uris": {"ios": "https://dc.lft.to/lastmile_qr_scan", "android": "https://dc.lft.to/lastmile_qr_scan"}, "is_reserved": 0, "lon": -77.02291116666666, "fusion_lat": 0.0, "name": "5c38d24c2a4aa002748ed67be57bfe6a"}, {"type": "electric_scooter", "fusion_lon": 0.0, "bike_id": "2e20cf1e761643668f233aa8670f9d2d", "is_disabled": 0, "lat": 38.91782883333333, "rental_uris": {"ios": "https://dc.lft.to/lastmile_qr_scan", "android": "https://dc.lft.to/lastmile_qr_scan"}, "is_reserved": 0, "lon": -77.03171033333334, "fusion_lat": 0.0, "name": "2e20cf1e761643668f233aa8670f9d2d"}, {"type": "electric_scooter", "fusion_lon": 0.0, "bike_id": "70dcf04d3c6c8bf285135d89b77bf154", "is_disabled": 0, "lat": 38.917737, "rental_uris": {"ios": "https://dc.lft.to/lastmile_qr_scan", "android": "https://dc.lft.to/lastmile_qr_scan"}, "is_reserved": 0, "lon": -77.02305383333334, "fusion_lat": 0.0, "name": "70dcf04d3c6c8bf285135d89b77bf154"}, {"type": "electric_scooter", "fusion_lon": 0.0, "bike_id": "49edd66bc71a07ae2fdf6c4353c6e704", "is_disabled": 0, "lat": 38.865381166666666, "rental_uris": {"ios": "https://dc.lft.to/lastmile_qr_scan", "android": "https://dc.lft.to/lastmile_qr_scan"}, "is_reserved": 0, "lon": -76.9870475, "fusion_lat": 0.0, "name": "49edd66bc71a07ae2fdf6c4353c6e704"}, {"type": "electric_scooter", "fusion_lon": 0.0, "bike_id": "f7c32fd5290444ac5e2e32c0bcdd1cb1", "is_disabled": 0, "lat": 38.8626895, "rental_uris": {"ios": "https://dc.lft.to/lastmile_qr_scan", "android": "https://dc.lft.to/lastmile_qr_scan"}, "is_reserved": 0, "lon": -76.99528216666667, "fusion_lat": 0.0, "name": "f7c32fd5290444ac5e2e32c0bcdd1cb1"}, {"type": "electric_scooter", "fusion_lon": 0.0, "bike_id": "4c89ecee467cf40482fc0060f9ad7042", "is_disabled": 0, "lat": 38.95414933333333, "rental_uris": {"ios": "https://dc.lft.to/lastmile_qr_scan", "android": "https://dc.lft.to/lastmile_qr_scan"}, "is_reserved": 0, "lon": -77.01364916666667, "fusion_lat": 0.0, "name": "4c89ecee467cf40482fc0060f9ad7042"}, {"type": "electric_scooter", "fusion_lon": 0.0, "bike_id": "392b6357456a51ff9672006d0a4088fc", "is_disabled": 0, "lat": 38.88771333333333, "rental_uris": {"ios": "https://dc.lft.to/lastmile_qr_scan", "android": "https://dc.lft.to/lastmile_qr_scan"}, "is_reserved": 0, "lon": -77.03353616666666, "fusion_lat": 0.0, "name": "392b6357456a51ff9672006d0a4088fc"}, {"type": "electric_scooter", "fusion_lon": 0.0, "bike_id": "33dc34e690e474ca35455d19b7ff5f16", "is_disabled": 0, "lat": 38.90602533333333, "rental_uris": {"ios": "https://dc.lft.to/lastmile_qr_scan", "android": "https://dc.lft.to/lastmile_qr_scan"}, "is_reserved": 0, "lon": -77.043441, "fusion_lat": 0.0, "name": "33dc34e690e474ca35455d19b7ff5f16"}, {"type": "electric_scooter", "fusion_lon": 0.0, "bike_id": "9873982ac1015f50ea37f3b46114fc3c", "is_disabled": 0, "lat": 38.907653, "rental_uris": {"ios": "https://dc.lft.to/lastmile_qr_scan", "android": "https://dc.lft.to/lastmile_qr_scan"}, "is_reserved": 0, "lon": -77.0383975, "fusion_lat": 0.0, "name": "9873982ac1015f50ea37f3b46114fc3c"}, {"type": "electric_bike", "fusion_lon": 0.0, "bike_id": "35b60800501f9ff5f95d88b950fab615", "is_disabled": 0, "lat": 38.88852283333333, "rental_uris": {"ios": "https://dc.lft.to/lastmile_qr_scan", "android": "https://dc.lft.to/lastmile_qr_scan"}, "is_reserved": 0, "lon": -76.95748366666666, "fusion_lat": 0.0, "name": "35b60800501f9ff5f95d88b950fab615"}, {"type": "electric_scooter", "fusion_lon": 0.0, "bike_id": "77a56866399a74b25a40dcab0803e3b9", "is_disabled": 0, "lat": 38.93711066666667, "rental_uris": {"ios": "https://dc.lft.to/lastmile_qr_scan", "android": "https://dc.lft.to/lastmile_qr_scan"}, "is_reserved": 0, "lon": -77.02415233333333, "fusion_lat": 0.0, "name": "77a56866399a74b25a40dcab0803e3b9"}, {"type": "electric_scooter", "fusion_lon": 0.0, "bike_id": "cd439b8a64aecacd7c54710136d1f4a8", "is_disabled": 0, "lat": 38.892243666666666, "rental_uris": {"ios": "https://dc.lft.to/lastmile_qr_scan", "android": "https://dc.lft.to/lastmile_qr_scan"}, "is_reserved": 0, "lon": -77.02400316666666, "fusion_lat": 0.0, "name": "cd439b8a64aecacd7c54710136d1f4a8"}, {"type": "electric_scooter", "fusion_lon": 0.0, "bike_id": "4884a6bada5cdfb85352028e3315522b", "is_disabled": 0, "lat": 38.902659166666666, "rental_uris": {"ios": "https://dc.lft.to/lastmile_qr_scan", "android": "https://dc.lft.to/lastmile_qr_scan"}, "is_reserved": 0, "lon": -77.02663833333334, "fusion_lat": 0.0, "name": "4884a6bada5cdfb85352028e3315522b"}, {"type": "electric_scooter", "fusion_lon": 0.0, "bike_id": "33731d8e5bc5a3739e6301e06103cf0c", "is_disabled": 0, "lat": 38.920322666666664, "rental_uris": {"ios": "https://dc.lft.to/lastmile_qr_scan", "android": "https://dc.lft.to/lastmile_qr_scan"}, "is_reserved": 0, "lon": -77.0143555, "fusion_lat": 0.0, "name": "33731d8e5bc5a3739e6301e06103cf0c"}, {"type": "electric_scooter", "fusion_lon": 0.0, "bike_id": "2ecfb24686e95b5e9d0be6ee3ad95e80", "is_disabled": 0, "lat": 38.915385, "rental_uris": {"ios": "https://dc.lft.to/lastmile_qr_scan", "android": "https://dc.lft.to/lastmile_qr_scan"}, "is_reserved": 0, "lon": -77.03206533333334, "fusion_lat": 0.0, "name": "2ecfb24686e95b5e9d0be6ee3ad95e80"}, {"type": "electric_scooter", "fusion_lon": 0.0, "bike_id": "efc98362d43c094f1c502f68497e9a0c", "is_disabled": 0, "lat": 38.90878566666667, "rental_uris": {"ios": "https://dc.lft.to/lastmile_qr_scan", "android": "https://dc.lft.to/lastmile_qr_scan"}, "is_reserved": 0, "lon": -77.06785933333333, "fusion_lat": 0.0, "name": "efc98362d43c094f1c502f68497e9a0c"}, {"type": "electric_scooter", "fusion_lon": 0.0, "bike_id": "6b845d5f68083a07505319c6cae0bf29", "is_disabled": 0, "lat": 38.91949816666666, "rental_uris": {"ios": "https://dc.lft.to/lastmile_qr_scan", "android": "https://dc.lft.to/lastmile_qr_scan"}, "is_reserved": 0, "lon": -77.025986, "fusion_lat": 0.0, "name": "6b845d5f68083a07505319c6cae0bf29"}, {"type": "electric_scooter", "fusion_lon": 0.0, "bike_id": "1c2f95a2faa9fc0dbd83594c4adf2d5e", "is_disabled": 0, "lat": 38.902107666666666, "rental_uris": {"ios": "https://dc.lft.to/lastmile_qr_scan", "android": "https://dc.lft.to/lastmile_qr_scan"}, "is_reserved": 0, "lon": -77.04580983333334, "fusion_lat": 0.0, "name": "1c2f95a2faa9fc0dbd83594c4adf2d5e"}, {"type": "electric_scooter", "fusion_lon": 0.0, "bike_id": "cc659ec24202ff7264f4ca427c7c46d4", "is_disabled": 0, "lat": 38.93850316666666, "rental_uris": {"ios": "https://dc.lft.to/lastmile_qr_scan", "android": "https://dc.lft.to/lastmile_qr_scan"}, "is_reserved": 0, "lon": -77.03391416666666, "fusion_lat": 0.0, "name": "cc659ec24202ff7264f4ca427c7c46d4"}, {"type": "electric_scooter", "fusion_lon": 0.0, "bike_id": "0995bc0acf1c2e87b4197e54268313a8", "is_disabled": 0, "lat": 38.915690833333336, "rental_uris": {"ios": "https://dc.lft.to/lastmile_qr_scan", "android": "https://dc.lft.to/lastmile_qr_scan"}, "is_reserved": 0, "lon": -77.0417445, "fusion_lat": 0.0, "name": "0995bc0acf1c2e87b4197e54268313a8"}, {"type": "electric_scooter", "fusion_lon": 0.0, "bike_id": "ff7e613c5f754294d932a15cdce9769c", "is_disabled": 0, "lat": 38.9279665, "rental_uris": {"ios": "https://dc.lft.to/lastmile_qr_scan", "android": "https://dc.lft.to/lastmile_qr_scan"}, "is_reserved": 0, "lon": -77.023847, "fusion_lat": 0.0, "name": "ff7e613c5f754294d932a15cdce9769c"}, {"type": "electric_scooter", "fusion_lon": 0.0, "bike_id": "16ee71cdc414474d1fff5957c746730e", "is_disabled": 0, "lat": 38.91725683333333, "rental_uris": {"ios": "https://dc.lft.to/lastmile_qr_scan", "android": "https://dc.lft.to/lastmile_qr_scan"}, "is_reserved": 0, "lon": -77.0417415, "fusion_lat": 0.0, "name": "16ee71cdc414474d1fff5957c746730e"}, {"type": "electric_scooter", "fusion_lon": 0.0, "bike_id": "626a793bbcdc1c15ac42da4bdc8ad681", "is_disabled": 0, "lat": 38.90765116666667, "rental_uris": {"ios": "https://dc.lft.to/lastmile_qr_scan", "android": "https://dc.lft.to/lastmile_qr_scan"}, "is_reserved": 0, "lon": -77.0091905, "fusion_lat": 0.0, "name": "626a793bbcdc1c15ac42da4bdc8ad681"}, {"type": "electric_scooter", "fusion_lon": 0.0, "bike_id": "d6f026b897e384d12d42d0bdcaa2cdd6", "is_disabled": 0, "lat": 38.8852315, "rental_uris": {"ios": "https://dc.lft.to/lastmile_qr_scan", "android": "https://dc.lft.to/lastmile_qr_scan"}, "is_reserved": 0, "lon": -77.0281835, "fusion_lat": 0.0, "name": "d6f026b897e384d12d42d0bdcaa2cdd6"}, {"type": "electric_scooter", "fusion_lon": 0.0, "bike_id": "dd8a52469182ae364aec76353e8e4d8f", "is_disabled": 0, "lat": 38.892343833333335, "rental_uris": {"ios": "https://dc.lft.to/lastmile_qr_scan", "android": "https://dc.lft.to/lastmile_qr_scan"}, "is_reserved": 0, "lon": -77.0466975, "fusion_lat": 0.0, "name": "dd8a52469182ae364aec76353e8e4d8f"}, {"type": "electric_bike", "fusion_lon": 0.0, "bike_id": "615694496e50585d711c6cc23ef4174b", "is_disabled": 0, "lat": 38.863319, "rental_uris": {"ios": "https://dc.lft.to/lastmile_qr_scan", "android": "https://dc.lft.to/lastmile_qr_scan"}, "is_reserved": 0, "lon": -76.987199, "fusion_lat": 0.0, "name": "615694496e50585d711c6cc23ef4174b"}, {"type": "electric_scooter", "fusion_lon": 0.0, "bike_id": "7a70d0086004c62d2f91c50a30ec3e79", "is_disabled": 0, "lat": 38.923879666666664, "rental_uris": {"ios": "https://dc.lft.to/lastmile_qr_scan", "android": "https://dc.lft.to/lastmile_qr_scan"}, "is_reserved": 0, "lon": -77.03049583333333, "fusion_lat": 0.0, "name": "7a70d0086004c62d2f91c50a30ec3e79"}, {"type": "electric_scooter", "fusion_lon": 0.0, "bike_id": "2c25124eedab6ccae28c5f0b878c7f58", "is_disabled": 0, "lat": 38.9043005, "rental_uris": {"ios": "https://dc.lft.to/lastmile_qr_scan", "android": "https://dc.lft.to/lastmile_qr_scan"}, "is_reserved": 0, "lon": -77.0258945, "fusion_lat": 0.0, "name": "2c25124eedab6ccae28c5f0b878c7f58"}, {"type": "electric_scooter", "fusion_lon": 0.0, "bike_id": "2ceaa9d03639a8e2b66d809ec945fb0e", "is_disabled": 0, "lat": 38.92075483333333, "rental_uris": {"ios": "https://dc.lft.to/lastmile_qr_scan", "android": "https://dc.lft.to/lastmile_qr_scan"}, "is_reserved": 0, "lon": -76.997428, "fusion_lat": 0.0, "name": "2ceaa9d03639a8e2b66d809ec945fb0e"}, {"type": "electric_scooter", "fusion_lon": 0.0, "bike_id": "24d30065d4ffd77fe58299ea5905d71b", "is_disabled": 0, "lat": 38.920755666666665, "rental_uris": {"ios": "https://dc.lft.to/lastmile_qr_scan", "android": "https://dc.lft.to/lastmile_qr_scan"}, "is_reserved": 0, "lon": -77.0249875, "fusion_lat": 0.0, "name": "24d30065d4ffd77fe58299ea5905d71b"}, {"type": "electric_scooter", "fusion_lon": 0.0, "bike_id": "8809e91b82b52824999a137e199280db", "is_disabled": 0, "lat": 38.910514, "rental_uris": {"ios": "https://dc.lft.to/lastmile_qr_scan", "android": "https://dc.lft.to/lastmile_qr_scan"}, "is_reserved": 0, "lon": -77.05019883333334, "fusion_lat": 0.0, "name": "8809e91b82b52824999a137e199280db"}, {"type": "electric_scooter", "fusion_lon": 0.0, "bike_id": "19eee220edca0272d265f11710e1f063", "is_disabled": 0, "lat": 38.910383, "rental_uris": {"ios": "https://dc.lft.to/lastmile_qr_scan", "android": "https://dc.lft.to/lastmile_qr_scan"}, "is_reserved": 0, "lon": -76.98564816666666, "fusion_lat": 0.0, "name": "19eee220edca0272d265f11710e1f063"}, {"type": "electric_scooter", "fusion_lon": 0.0, "bike_id": "934e2f03e6c54bd04ac4971beb7f260d", "is_disabled": 0, "lat": 38.905278833333334, "rental_uris": {"ios": "https://dc.lft.to/lastmile_qr_scan", "android": "https://dc.lft.to/lastmile_qr_scan"}, "is_reserved": 0, "lon": -77.04916916666667, "fusion_lat": 0.0, "name": "934e2f03e6c54bd04ac4971beb7f260d"}, {"type": "electric_scooter", "fusion_lon": 0.0, "bike_id": "0b4cafe24ac9db61c7fd689c7fece405", "is_disabled": 0, "lat": 38.92077483333333, "rental_uris": {"ios": "https://dc.lft.to/lastmile_qr_scan", "android": "https://dc.lft.to/lastmile_qr_scan"}, "is_reserved": 0, "lon": -77.02301633333333, "fusion_lat": 0.0, "name": "0b4cafe24ac9db61c7fd689c7fece405"}, {"type": "electric_scooter", "fusion_lon": 0.0, "bike_id": "6efffa6635d706b8a6448810360418b6", "is_disabled": 0, "lat": 38.8923585, "rental_uris": {"ios": "https://dc.lft.to/lastmile_qr_scan", "android": "https://dc.lft.to/lastmile_qr_scan"}, "is_reserved": 0, "lon": -77.046752, "fusion_lat": 0.0, "name": "6efffa6635d706b8a6448810360418b6"}, {"type": "electric_scooter", "fusion_lon": 0.0, "bike_id": "b3538a621e7aa77f66976ac8e1889e3b", "is_disabled": 0, "lat": 38.912632, "rental_uris": {"ios": "https://dc.lft.to/lastmile_qr_scan", "android": "https://dc.lft.to/lastmile_qr_scan"}, "is_reserved": 0, "lon": -77.03826533333333, "fusion_lat": 0.0, "name": "b3538a621e7aa77f66976ac8e1889e3b"}, {"type": "electric_scooter", "fusion_lon": 0.0, "bike_id": "7ef5562f1d4db6767a75f9796f606dfc", "is_disabled": 0, "lat": 38.900297, "rental_uris": {"ios": "https://dc.lft.to/lastmile_qr_scan", "android": "https://dc.lft.to/lastmile_qr_scan"}, "is_reserved": 0, "lon": -76.99853083333333, "fusion_lat": 0.0, "name": "7ef5562f1d4db6767a75f9796f606dfc"}, {"type": "electric_scooter", "fusion_lon": 0.0, "bike_id": "981458047cb2bfe8d6a8e9d08ee218e5", "is_disabled": 0, "lat": 38.898058666666664, "rental_uris": {"ios": "https://dc.lft.to/lastmile_qr_scan", "android": "https://dc.lft.to/lastmile_qr_scan"}, "is_reserved": 0, "lon": -77.0419825, "fusion_lat": 0.0, "name": "981458047cb2bfe8d6a8e9d08ee218e5"}, {"type": "electric_scooter", "fusion_lon": 0.0, "bike_id": "0bb69e8306dcf2bbb6a0dd815a5c2e18", "is_disabled": 0, "lat": 38.90725316666666, "rental_uris": {"ios": "https://dc.lft.to/lastmile_qr_scan", "android": "https://dc.lft.to/lastmile_qr_scan"}, "is_reserved": 0, "lon": -77.035826, "fusion_lat": 0.0, "name": "0bb69e8306dcf2bbb6a0dd815a5c2e18"}, {"type": "electric_scooter", "fusion_lon": 0.0, "bike_id": "6000bf91f89bf7ad17bd56ace3e2394f", "is_disabled": 0, "lat": 38.93788133333334, "rental_uris": {"ios": "https://dc.lft.to/lastmile_qr_scan", "android": "https://dc.lft.to/lastmile_qr_scan"}, "is_reserved": 0, "lon": -77.02330933333333, "fusion_lat": 0.0, "name": "6000bf91f89bf7ad17bd56ace3e2394f"}, {"type": "electric_scooter", "fusion_lon": 0.0, "bike_id": "7e22980c9d2bbdbbaf21bf2f1f4a9620", "is_disabled": 0, "lat": 38.87663766666667, "rental_uris": {"ios": "https://dc.lft.to/lastmile_qr_scan", "android": "https://dc.lft.to/lastmile_qr_scan"}, "is_reserved": 0, "lon": -77.0034715, "fusion_lat": 0.0, "name": "7e22980c9d2bbdbbaf21bf2f1f4a9620"}, {"type": "electric_scooter", "fusion_lon": 0.0, "bike_id": "ebc590a9efe4f7f25044bbd552f26db0", "is_disabled": 0, "lat": 38.914244833333335, "rental_uris": {"ios": "https://dc.lft.to/lastmile_qr_scan", "android": "https://dc.lft.to/lastmile_qr_scan"}, "is_reserved": 0, "lon": -77.04595216666667, "fusion_lat": 0.0, "name": "ebc590a9efe4f7f25044bbd552f26db0"}, {"type": "electric_scooter", "fusion_lon": 0.0, "bike_id": "f8cdb1f41119304e1bb0808744ccdc57", "is_disabled": 0, "lat": 38.89982216666667, "rental_uris": {"ios": "https://dc.lft.to/lastmile_qr_scan", "android": "https://dc.lft.to/lastmile_qr_scan"}, "is_reserved": 0, "lon": -77.0221505, "fusion_lat": 0.0, "name": "f8cdb1f41119304e1bb0808744ccdc57"}, {"type": "electric_scooter", "fusion_lon": 0.0, "bike_id": "b2e686fb68c04539fe17a9e9ef3876a1", "is_disabled": 0, "lat": 38.91830483333333, "rental_uris": {"ios": "https://dc.lft.to/lastmile_qr_scan", "android": "https://dc.lft.to/lastmile_qr_scan"}, "is_reserved": 0, "lon": -77.03178233333334, "fusion_lat": 0.0, "name": "b2e686fb68c04539fe17a9e9ef3876a1"}, {"type": "electric_scooter", "fusion_lon": 0.0, "bike_id": "c6abf72e7c117745a0515f3a8305895a", "is_disabled": 0, "lat": 38.8973125, "rental_uris": {"ios": "https://dc.lft.to/lastmile_qr_scan", "android": "https://dc.lft.to/lastmile_qr_scan"}, "is_reserved": 0, "lon": -77.00917366666667, "fusion_lat": 0.0, "name": "c6abf72e7c117745a0515f3a8305895a"}, {"type": "electric_scooter", "fusion_lon": 0.0, "bike_id": "2aa7cb159c5902893b537d5762025518", "is_disabled": 0, "lat": 38.904674166666666, "rental_uris": {"ios": "https://dc.lft.to/lastmile_qr_scan", "android": "https://dc.lft.to/lastmile_qr_scan"}, "is_reserved": 0, "lon": -76.99502566666666, "fusion_lat": 0.0, "name": "2aa7cb159c5902893b537d5762025518"}, {"type": "electric_scooter", "fusion_lon": 0.0, "bike_id": "3f2ecf13e9837c772d25f9a95d4670d8", "is_disabled": 0, "lat": 38.919200833333335, "rental_uris": {"ios": "https://dc.lft.to/lastmile_qr_scan", "android": "https://dc.lft.to/lastmile_qr_scan"}, "is_reserved": 0, "lon": -77.07935133333334, "fusion_lat": 0.0, "name": "3f2ecf13e9837c772d25f9a95d4670d8"}, {"type": "electric_scooter", "fusion_lon": 0.0, "bike_id": "54e95684556f1fa3ca779e4e4a249659", "is_disabled": 0, "lat": 38.8848395, "rental_uris": {"ios": "https://dc.lft.to/lastmile_qr_scan", "android": "https://dc.lft.to/lastmile_qr_scan"}, "is_reserved": 0, "lon": -77.03473966666667, "fusion_lat": 0.0, "name": "54e95684556f1fa3ca779e4e4a249659"}, {"type": "electric_scooter", "fusion_lon": 0.0, "bike_id": "917ddfc460f392ffdb251702ce15cde8", "is_disabled": 0, "lat": 38.91771166666667, "rental_uris": {"ios": "https://dc.lft.to/lastmile_qr_scan", "android": "https://dc.lft.to/lastmile_qr_scan"}, "is_reserved": 0, "lon": -77.0145785, "fusion_lat": 0.0, "name": "917ddfc460f392ffdb251702ce15cde8"}, {"type": "electric_scooter", "fusion_lon": 0.0, "bike_id": "8a3d26e89fc905ad0f90b93496d93721", "is_disabled": 0, "lat": 38.922362666666665, "rental_uris": {"ios": "https://dc.lft.to/lastmile_qr_scan", "android": "https://dc.lft.to/lastmile_qr_scan"}, "is_reserved": 0, "lon": -77.01821083333333, "fusion_lat": 0.0, "name": "8a3d26e89fc905ad0f90b93496d93721"}, {"type": "electric_scooter", "fusion_lon": 0.0, "bike_id": "cbc24861204293cb9898690b21977ba6", "is_disabled": 0, "lat": 38.933235833333335, "rental_uris": {"ios": "https://dc.lft.to/lastmile_qr_scan", "android": "https://dc.lft.to/lastmile_qr_scan"}, "is_reserved": 0, "lon": -77.029225, "fusion_lat": 0.0, "name": "cbc24861204293cb9898690b21977ba6"}, {"type": "electric_scooter", "fusion_lon": 0.0, "bike_id": "82dcf15ca186ed918f2f109b39ff8205", "is_disabled": 0, "lat": 38.9230155, "rental_uris": {"ios": "https://dc.lft.to/lastmile_qr_scan", "android": "https://dc.lft.to/lastmile_qr_scan"}, "is_reserved": 0, "lon": -77.02322933333333, "fusion_lat": 0.0, "name": "82dcf15ca186ed918f2f109b39ff8205"}, {"type": "electric_scooter", "fusion_lon": 0.0, "bike_id": "5ce63b1c1772237362cde297fcfb4bd6", "is_disabled": 0, "lat": 38.905583, "rental_uris": {"ios": "https://dc.lft.to/lastmile_qr_scan", "android": "https://dc.lft.to/lastmile_qr_scan"}, "is_reserved": 0, "lon": -77.04667416666666, "fusion_lat": 0.0, "name": "5ce63b1c1772237362cde297fcfb4bd6"}, {"type": "electric_scooter", "fusion_lon": 0.0, "bike_id": "02418d5d2af96801932afeecedbd4ba3", "is_disabled": 0, "lat": 38.921951166666666, "rental_uris": {"ios": "https://dc.lft.to/lastmile_qr_scan", "android": "https://dc.lft.to/lastmile_qr_scan"}, "is_reserved": 0, "lon": -77.04698166666667, "fusion_lat": 0.0, "name": "02418d5d2af96801932afeecedbd4ba3"}, {"type": "electric_scooter", "fusion_lon": 0.0, "bike_id": "a3d28df98aeffca8d30d17f24ffd9cb7", "is_disabled": 0, "lat": 38.903764, "rental_uris": {"ios": "https://dc.lft.to/lastmile_qr_scan", "android": "https://dc.lft.to/lastmile_qr_scan"}, "is_reserved": 0, "lon": -76.99507383333334, "fusion_lat": 0.0, "name": "a3d28df98aeffca8d30d17f24ffd9cb7"}, {"type": "electric_scooter", "fusion_lon": 0.0, "bike_id": "ed43d107529bfd8b83c0d3bb337b6e8e", "is_disabled": 0, "lat": 38.898604, "rental_uris": {"ios": "https://dc.lft.to/lastmile_qr_scan", "android": "https://dc.lft.to/lastmile_qr_scan"}, "is_reserved": 0, "lon": -77.04878083333334, "fusion_lat": 0.0, "name": "ed43d107529bfd8b83c0d3bb337b6e8e"}, {"type": "electric_scooter", "fusion_lon": 0.0, "bike_id": "60faa533db6ff641eeef7fecd48ba4e1", "is_disabled": 0, "lat": 38.87819483333333, "rental_uris": {"ios": "https://dc.lft.to/lastmile_qr_scan", "android": "https://dc.lft.to/lastmile_qr_scan"}, "is_reserved": 0, "lon": -77.00736716666667, "fusion_lat": 0.0, "name": "60faa533db6ff641eeef7fecd48ba4e1"}, {"type": "electric_scooter", "fusion_lon": 0.0, "bike_id": "45380b2a85f119f4f8551adcb689d56e", "is_disabled": 0, "lat": 38.8754525, "rental_uris": {"ios": "https://dc.lft.to/lastmile_qr_scan", "android": "https://dc.lft.to/lastmile_qr_scan"}, "is_reserved": 0, "lon": -77.00535616666667, "fusion_lat": 0.0, "name": "45380b2a85f119f4f8551adcb689d56e"}, {"type": "electric_scooter", "fusion_lon": 0.0, "bike_id": "2c033ad28f6b39046280cb3dea299286", "is_disabled": 0, "lat": 38.9148645, "rental_uris": {"ios": "https://dc.lft.to/lastmile_qr_scan", "android": "https://dc.lft.to/lastmile_qr_scan"}, "is_reserved": 0, "lon": -77.02585716666667, "fusion_lat": 0.0, "name": "2c033ad28f6b39046280cb3dea299286"}, {"type": "electric_scooter", "fusion_lon": 0.0, "bike_id": "b2eb77974a3890c7c640b9ec03f225fc", "is_disabled": 0, "lat": 38.88449266666667, "rental_uris": {"ios": "https://dc.lft.to/lastmile_qr_scan", "android": "https://dc.lft.to/lastmile_qr_scan"}, "is_reserved": 0, "lon": -76.94214616666666, "fusion_lat": 0.0, "name": "b2eb77974a3890c7c640b9ec03f225fc"}, {"type": "electric_scooter", "fusion_lon": 0.0, "bike_id": "b11da47d85c4809f9799a1c566d2a5cf", "is_disabled": 0, "lat": 38.926202, "rental_uris": {"ios": "https://dc.lft.to/lastmile_qr_scan", "android": "https://dc.lft.to/lastmile_qr_scan"}, "is_reserved": 0, "lon": -77.03927766666666, "fusion_lat": 0.0, "name": "b11da47d85c4809f9799a1c566d2a5cf"}, {"type": "electric_scooter", "fusion_lon": 0.0, "bike_id": "b1ffae0766be956d1ddadb56132aff5e", "is_disabled": 0, "lat": 38.92698733333334, "rental_uris": {"ios": "https://dc.lft.to/lastmile_qr_scan", "android": "https://dc.lft.to/lastmile_qr_scan"}, "is_reserved": 0, "lon": -77.0238445, "fusion_lat": 0.0, "name": "b1ffae0766be956d1ddadb56132aff5e"}, {"type": "electric_scooter", "fusion_lon": 0.0, "bike_id": "43670ad30964c7f65c55714c9e886b13", "is_disabled": 0, "lat": 38.91764933333333, "rental_uris": {"ios": "https://dc.lft.to/lastmile_qr_scan", "android": "https://dc.lft.to/lastmile_qr_scan"}, "is_reserved": 0, "lon": -77.0228835, "fusion_lat": 0.0, "name": "43670ad30964c7f65c55714c9e886b13"}, {"type": "electric_scooter", "fusion_lon": 0.0, "bike_id": "e0f77b0e22feb130b26dcd9cbfd3ed88", "is_disabled": 0, "lat": 38.920751333333335, "rental_uris": {"ios": "https://dc.lft.to/lastmile_qr_scan", "android": "https://dc.lft.to/lastmile_qr_scan"}, "is_reserved": 0, "lon": -77.02518583333334, "fusion_lat": 0.0, "name": "e0f77b0e22feb130b26dcd9cbfd3ed88"}, {"type": "electric_scooter", "fusion_lon": 0.0, "bike_id": "d8af790ea7470f694503941e0541c68d", "is_disabled": 0, "lat": 38.89218616666667, "rental_uris": {"ios": "https://dc.lft.to/lastmile_qr_scan", "android": "https://dc.lft.to/lastmile_qr_scan"}, "is_reserved": 0, "lon": -77.02217016666667, "fusion_lat": 0.0, "name": "d8af790ea7470f694503941e0541c68d"}, {"type": "electric_scooter", "fusion_lon": 0.0, "bike_id": "bad94f16d4b4c95f58a69bd960a507f0", "is_disabled": 0, "lat": 38.87153833333333, "rental_uris": {"ios": "https://dc.lft.to/lastmile_qr_scan", "android": "https://dc.lft.to/lastmile_qr_scan"}, "is_reserved": 0, "lon": -77.006855, "fusion_lat": 0.0, "name": "bad94f16d4b4c95f58a69bd960a507f0"}, {"type": "electric_scooter", "fusion_lon": 0.0, "bike_id": "bf5fea883545353bbff6fd000491b8b1", "is_disabled": 0, "lat": 38.957205333333334, "rental_uris": {"ios": "https://dc.lft.to/lastmile_qr_scan", "android": "https://dc.lft.to/lastmile_qr_scan"}, "is_reserved": 0, "lon": -77.03254716666666, "fusion_lat": 0.0, "name": "bf5fea883545353bbff6fd000491b8b1"}, {"type": "electric_scooter", "fusion_lon": 0.0, "bike_id": "e5d06921efd25dc7c08aea6795870121", "is_disabled": 0, "lat": 38.891988166666664, "rental_uris": {"ios": "https://dc.lft.to/lastmile_qr_scan", "android": "https://dc.lft.to/lastmile_qr_scan"}, "is_reserved": 0, "lon": -77.02377583333333, "fusion_lat": 0.0, "name": "e5d06921efd25dc7c08aea6795870121"}, {"type": "electric_scooter", "fusion_lon": 0.0, "bike_id": "ded1bc513813b437e3f26d80fd80365a", "is_disabled": 0, "lat": 38.92055333333333, "rental_uris": {"ios": "https://dc.lft.to/lastmile_qr_scan", "android": "https://dc.lft.to/lastmile_qr_scan"}, "is_reserved": 0, "lon": -77.03209933333333, "fusion_lat": 0.0, "name": "ded1bc513813b437e3f26d80fd80365a"}, {"type": "electric_scooter", "fusion_lon": 0.0, "bike_id": "87091d8637a2cbd42e64fbd553188a43", "is_disabled": 0, "lat": 38.95655083333333, "rental_uris": {"ios": "https://dc.lft.to/lastmile_qr_scan", "android": "https://dc.lft.to/lastmile_qr_scan"}, "is_reserved": 0, "lon": -77.01968466666666, "fusion_lat": 0.0, "name": "87091d8637a2cbd42e64fbd553188a43"}, {"type": "electric_scooter", "fusion_lon": 0.0, "bike_id": "9bbaeccfd032cb16af4eedf42d771750", "is_disabled": 0, "lat": 38.880806666666665, "rental_uris": {"ios": "https://dc.lft.to/lastmile_qr_scan", "android": "https://dc.lft.to/lastmile_qr_scan"}, "is_reserved": 0, "lon": -76.98530233333334, "fusion_lat": 0.0, "name": "9bbaeccfd032cb16af4eedf42d771750"}, {"type": "electric_scooter", "fusion_lon": 0.0, "bike_id": "55722361e01642fa0d4fb7f5ff3dad3e", "is_disabled": 0, "lat": 38.89218316666667, "rental_uris": {"ios": "https://dc.lft.to/lastmile_qr_scan", "android": "https://dc.lft.to/lastmile_qr_scan"}, "is_reserved": 0, "lon": -77.02624566666667, "fusion_lat": 0.0, "name": "55722361e01642fa0d4fb7f5ff3dad3e"}, {"type": "electric_scooter", "fusion_lon": 0.0, "bike_id": "53440972de8a5bacb35765ceb0146096", "is_disabled": 0, "lat": 38.871717333333336, "rental_uris": {"ios": "https://dc.lft.to/lastmile_qr_scan", "android": "https://dc.lft.to/lastmile_qr_scan"}, "is_reserved": 0, "lon": -77.00624966666666, "fusion_lat": 0.0, "name": "53440972de8a5bacb35765ceb0146096"}, {"type": "electric_scooter", "fusion_lon": 0.0, "bike_id": "ebda66974f6d7fdf5c28ad4f8a5ab21f", "is_disabled": 0, "lat": 38.89219666666666, "rental_uris": {"ios": "https://dc.lft.to/lastmile_qr_scan", "android": "https://dc.lft.to/lastmile_qr_scan"}, "is_reserved": 0, "lon": -77.02786966666666, "fusion_lat": 0.0, "name": "ebda66974f6d7fdf5c28ad4f8a5ab21f"}, {"type": "electric_scooter", "fusion_lon": 0.0, "bike_id": "6961f5a73d1431f539c62f78a3e21413", "is_disabled": 0, "lat": 38.87921333333333, "rental_uris": {"ios": "https://dc.lft.to/lastmile_qr_scan", "android": "https://dc.lft.to/lastmile_qr_scan"}, "is_reserved": 0, "lon": -76.99542633333333, "fusion_lat": 0.0, "name": "6961f5a73d1431f539c62f78a3e21413"}, {"type": "electric_scooter", "fusion_lon": 0.0, "bike_id": "7f8901854c89046d30f2063346d1ba21", "is_disabled": 0, "lat": 38.9108195, "rental_uris": {"ios": "https://dc.lft.to/lastmile_qr_scan", "android": "https://dc.lft.to/lastmile_qr_scan"}, "is_reserved": 0, "lon": -76.99938316666666, "fusion_lat": 0.0, "name": "7f8901854c89046d30f2063346d1ba21"}, {"type": "electric_scooter", "fusion_lon": 0.0, "bike_id": "56b9633434719369e9b6a89dffe40530", "is_disabled": 0, "lat": 38.91873533333333, "rental_uris": {"ios": "https://dc.lft.to/lastmile_qr_scan", "android": "https://dc.lft.to/lastmile_qr_scan"}, "is_reserved": 0, "lon": -77.02592216666666, "fusion_lat": 0.0, "name": "56b9633434719369e9b6a89dffe40530"}, {"type": "electric_scooter", "fusion_lon": 0.0, "bike_id": "1a7a147ace47161a45aed99637bb97db", "is_disabled": 0, "lat": 38.892209333333334, "rental_uris": {"ios": "https://dc.lft.to/lastmile_qr_scan", "android": "https://dc.lft.to/lastmile_qr_scan"}, "is_reserved": 0, "lon": -77.02624466666667, "fusion_lat": 0.0, "name": "1a7a147ace47161a45aed99637bb97db"}, {"type": "electric_scooter", "fusion_lon": 0.0, "bike_id": "ac6f6cdf069f428a9a3ac18e9306d93f", "is_disabled": 0, "lat": 38.9284645, "rental_uris": {"ios": "https://dc.lft.to/lastmile_qr_scan", "android": "https://dc.lft.to/lastmile_qr_scan"}, "is_reserved": 0, "lon": -77.01587233333333, "fusion_lat": 0.0, "name": "ac6f6cdf069f428a9a3ac18e9306d93f"}, {"type": "electric_scooter", "fusion_lon": 0.0, "bike_id": "b1ce1d5de05f5e0e9512bc9791e3ce62", "is_disabled": 0, "lat": 38.941951, "rental_uris": {"ios": "https://dc.lft.to/lastmile_qr_scan", "android": "https://dc.lft.to/lastmile_qr_scan"}, "is_reserved": 0, "lon": -77.02518866666666, "fusion_lat": 0.0, "name": "b1ce1d5de05f5e0e9512bc9791e3ce62"}, {"type": "electric_scooter", "fusion_lon": 0.0, "bike_id": "8b57a2586b1f4ace652f59766a3c1107", "is_disabled": 0, "lat": 38.903148333333334, "rental_uris": {"ios": "https://dc.lft.to/lastmile_qr_scan", "android": "https://dc.lft.to/lastmile_qr_scan"}, "is_reserved": 0, "lon": -77.0264775, "fusion_lat": 0.0, "name": "8b57a2586b1f4ace652f59766a3c1107"}, {"type": "electric_scooter", "fusion_lon": 0.0, "bike_id": "e9ae4f99a6cb8f3b1c244d017d7f3a7a", "is_disabled": 0, "lat": 38.956274666666665, "rental_uris": {"ios": "https://dc.lft.to/lastmile_qr_scan", "android": "https://dc.lft.to/lastmile_qr_scan"}, "is_reserved": 0, "lon": -77.07013333333333, "fusion_lat": 0.0, "name": "e9ae4f99a6cb8f3b1c244d017d7f3a7a"}, {"type": "electric_scooter", "fusion_lon": 0.0, "bike_id": "0e7fd24ab2e97eb543843a5afe07985f", "is_disabled": 0, "lat": 38.9160345, "rental_uris": {"ios": "https://dc.lft.to/lastmile_qr_scan", "android": "https://dc.lft.to/lastmile_qr_scan"}, "is_reserved": 0, "lon": -77.03189416666666, "fusion_lat": 0.0, "name": "0e7fd24ab2e97eb543843a5afe07985f"}, {"type": "electric_scooter", "fusion_lon": 0.0, "bike_id": "d8f061290d62af728e8d7ce361101e3d", "is_disabled": 0, "lat": 38.91038783333333, "rental_uris": {"ios": "https://dc.lft.to/lastmile_qr_scan", "android": "https://dc.lft.to/lastmile_qr_scan"}, "is_reserved": 0, "lon": -77.07538216666667, "fusion_lat": 0.0, "name": "d8f061290d62af728e8d7ce361101e3d"}, {"type": "electric_scooter", "fusion_lon": 0.0, "bike_id": "fb38f856acea1809b05c6b82b7a21660", "is_disabled": 0, "lat": 38.87642666666667, "rental_uris": {"ios": "https://dc.lft.to/lastmile_qr_scan", "android": "https://dc.lft.to/lastmile_qr_scan"}, "is_reserved": 0, "lon": -76.99791983333333, "fusion_lat": 0.0, "name": "fb38f856acea1809b05c6b82b7a21660"}, {"type": "electric_scooter", "fusion_lon": 0.0, "bike_id": "be48f294459dfcd208d7ebc607a0ee60", "is_disabled": 0, "lat": 38.963934333333334, "rental_uris": {"ios": "https://dc.lft.to/lastmile_qr_scan", "android": "https://dc.lft.to/lastmile_qr_scan"}, "is_reserved": 0, "lon": -77.02588816666666, "fusion_lat": 0.0, "name": "be48f294459dfcd208d7ebc607a0ee60"}, {"type": "electric_scooter", "fusion_lon": 0.0, "bike_id": "8e5c9dc618b867a8f7aac926ec3464b2", "is_disabled": 0, "lat": 38.922683, "rental_uris": {"ios": "https://dc.lft.to/lastmile_qr_scan", "android": "https://dc.lft.to/lastmile_qr_scan"}, "is_reserved": 0, "lon": -77.0223495, "fusion_lat": 0.0, "name": "8e5c9dc618b867a8f7aac926ec3464b2"}, {"type": "electric_scooter", "fusion_lon": 0.0, "bike_id": "cf9a1fd43c2afce705dfffe4dc646e71", "is_disabled": 0, "lat": 38.961535833333336, "rental_uris": {"ios": "https://dc.lft.to/lastmile_qr_scan", "android": "https://dc.lft.to/lastmile_qr_scan"}, "is_reserved": 0, "lon": -77.02790783333333, "fusion_lat": 0.0, "name": "cf9a1fd43c2afce705dfffe4dc646e71"}, {"type": "electric_scooter", "fusion_lon": 0.0, "bike_id": "b0b33f0263ec373416f033c2183c3bd6", "is_disabled": 0, "lat": 38.918105, "rental_uris": {"ios": "https://dc.lft.to/lastmile_qr_scan", "android": "https://dc.lft.to/lastmile_qr_scan"}, "is_reserved": 0, "lon": -77.04541116666667, "fusion_lat": 0.0, "name": "b0b33f0263ec373416f033c2183c3bd6"}, {"type": "electric_scooter", "fusion_lon": 0.0, "bike_id": "9259a9811463bd18a5f86827e012adb6", "is_disabled": 0, "lat": 38.87532233333334, "rental_uris": {"ios": "https://dc.lft.to/lastmile_qr_scan", "android": "https://dc.lft.to/lastmile_qr_scan"}, "is_reserved": 0, "lon": -77.00050316666666, "fusion_lat": 0.0, "name": "9259a9811463bd18a5f86827e012adb6"}, {"type": "electric_scooter", "fusion_lon": 0.0, "bike_id": "4a84245c8a217bf464715a1cc5b4cdec", "is_disabled": 0, "lat": 38.903766, "rental_uris": {"ios": "https://dc.lft.to/lastmile_qr_scan", "android": "https://dc.lft.to/lastmile_qr_scan"}, "is_reserved": 0, "lon": -77.001933, "fusion_lat": 0.0, "name": "4a84245c8a217bf464715a1cc5b4cdec"}, {"type": "electric_scooter", "fusion_lon": 0.0, "bike_id": "90baf1d03963271715b712d3ab7e6562", "is_disabled": 0, "lat": 38.920771, "rental_uris": {"ios": "https://dc.lft.to/lastmile_qr_scan", "android": "https://dc.lft.to/lastmile_qr_scan"}, "is_reserved": 0, "lon": -77.02511133333333, "fusion_lat": 0.0, "name": "90baf1d03963271715b712d3ab7e6562"}, {"type": "electric_bike", "fusion_lon": 0.0, "bike_id": "51cc4683d23b0850ab0077e37b57514a", "is_disabled": 0, "lat": 38.98046516666667, "rental_uris": {"ios": "https://dc.lft.to/lastmile_qr_scan", "android": "https://dc.lft.to/lastmile_qr_scan"}, "is_reserved": 0, "lon": -76.95792033333333, "fusion_lat": 0.0, "name": "51cc4683d23b0850ab0077e37b57514a"}, {"type": "electric_scooter", "fusion_lon": 0.0, "bike_id": "de8042dea1c936dec091ccbc0b5d79c5", "is_disabled": 0, "lat": 38.88991716666666, "rental_uris": {"ios": "https://dc.lft.to/lastmile_qr_scan", "android": "https://dc.lft.to/lastmile_qr_scan"}, "is_reserved": 0, "lon": -77.0032255, "fusion_lat": 0.0, "name": "de8042dea1c936dec091ccbc0b5d79c5"}, {"type": "electric_scooter", "fusion_lon": 0.0, "bike_id": "35adca208b86d7c16378da9b7dbcd8ac", "is_disabled": 0, "lat": 38.8925535, "rental_uris": {"ios": "https://dc.lft.to/lastmile_qr_scan", "android": "https://dc.lft.to/lastmile_qr_scan"}, "is_reserved": 0, "lon": -77.04504383333334, "fusion_lat": 0.0, "name": "35adca208b86d7c16378da9b7dbcd8ac"}, {"type": "electric_scooter", "fusion_lon": 0.0, "bike_id": "faaaccce220746f3e273a99e37a45bb0", "is_disabled": 0, "lat": 38.937152, "rental_uris": {"ios": "https://dc.lft.to/lastmile_qr_scan", "android": "https://dc.lft.to/lastmile_qr_scan"}, "is_reserved": 0, "lon": -77.05929766666667, "fusion_lat": 0.0, "name": "faaaccce220746f3e273a99e37a45bb0"}, {"type": "electric_scooter", "fusion_lon": 0.0, "bike_id": "2e7f247fa868aa3e84ed9258bcff42e7", "is_disabled": 0, "lat": 38.9023325, "rental_uris": {"ios": "https://dc.lft.to/lastmile_qr_scan", "android": "https://dc.lft.to/lastmile_qr_scan"}, "is_reserved": 0, "lon": -77.03335983333334, "fusion_lat": 0.0, "name": "2e7f247fa868aa3e84ed9258bcff42e7"}, {"type": "electric_scooter", "fusion_lon": 0.0, "bike_id": "fbb95a9ae7742b6c7018959733d96569", "is_disabled": 0, "lat": 38.936990333333334, "rental_uris": {"ios": "https://dc.lft.to/lastmile_qr_scan", "android": "https://dc.lft.to/lastmile_qr_scan"}, "is_reserved": 0, "lon": -77.05598416666666, "fusion_lat": 0.0, "name": "fbb95a9ae7742b6c7018959733d96569"}, {"type": "electric_scooter", "fusion_lon": 0.0, "bike_id": "fa765dbaee9587409e9ff425f21040a9", "is_disabled": 0, "lat": 38.91137483333333, "rental_uris": {"ios": "https://dc.lft.to/lastmile_qr_scan", "android": "https://dc.lft.to/lastmile_qr_scan"}, "is_reserved": 0, "lon": -77.04665366666667, "fusion_lat": 0.0, "name": "fa765dbaee9587409e9ff425f21040a9"}, {"type": "electric_scooter", "fusion_lon": 0.0, "bike_id": "718f202dab049a901781c592f5356334", "is_disabled": 0, "lat": 38.887704666666664, "rental_uris": {"ios": "https://dc.lft.to/lastmile_qr_scan", "android": "https://dc.lft.to/lastmile_qr_scan"}, "is_reserved": 0, "lon": -77.03320666666667, "fusion_lat": 0.0, "name": "718f202dab049a901781c592f5356334"}, {"type": "electric_scooter", "fusion_lon": 0.0, "bike_id": "f36bcf5a7b99201d264492da68efe449", "is_disabled": 0, "lat": 38.89219966666667, "rental_uris": {"ios": "https://dc.lft.to/lastmile_qr_scan", "android": "https://dc.lft.to/lastmile_qr_scan"}, "is_reserved": 0, "lon": -77.02775783333334, "fusion_lat": 0.0, "name": "f36bcf5a7b99201d264492da68efe449"}, {"type": "electric_scooter", "fusion_lon": 0.0, "bike_id": "a9b67d44aba9f5a3587f8f0c351c72a5", "is_disabled": 0, "lat": 38.917427333333336, "rental_uris": {"ios": "https://dc.lft.to/lastmile_qr_scan", "android": "https://dc.lft.to/lastmile_qr_scan"}, "is_reserved": 0, "lon": -77.00697433333333, "fusion_lat": 0.0, "name": "a9b67d44aba9f5a3587f8f0c351c72a5"}, {"type": "electric_scooter", "fusion_lon": 0.0, "bike_id": "912d444bc1d49bc3d1070c5a3006caeb", "is_disabled": 0, "lat": 38.9099005, "rental_uris": {"ios": "https://dc.lft.to/lastmile_qr_scan", "android": "https://dc.lft.to/lastmile_qr_scan"}, "is_reserved": 0, "lon": -77.0400915, "fusion_lat": 0.0, "name": "912d444bc1d49bc3d1070c5a3006caeb"}, {"type": "electric_scooter", "fusion_lon": 0.0, "bike_id": "bb5a42aeddb4a30b4a1c028e20ec65bb", "is_disabled": 0, "lat": 38.925778666666666, "rental_uris": {"ios": "https://dc.lft.to/lastmile_qr_scan", "android": "https://dc.lft.to/lastmile_qr_scan"}, "is_reserved": 0, "lon": -76.99492383333333, "fusion_lat": 0.0, "name": "bb5a42aeddb4a30b4a1c028e20ec65bb"}, {"type": "electric_scooter", "fusion_lon": 0.0, "bike_id": "5d31d96ffa444c8f9ee5b850b13247e4", "is_disabled": 0, "lat": 38.91258066666666, "rental_uris": {"ios": "https://dc.lft.to/lastmile_qr_scan", "android": "https://dc.lft.to/lastmile_qr_scan"}, "is_reserved": 0, "lon": -77.03867216666667, "fusion_lat": 0.0, "name": "5d31d96ffa444c8f9ee5b850b13247e4"}, {"type": "electric_scooter", "fusion_lon": 0.0, "bike_id": "0a17eb962ca2b15f0fa3d3c0c262de3d", "is_disabled": 0, "lat": 38.89219833333333, "rental_uris": {"ios": "https://dc.lft.to/lastmile_qr_scan", "android": "https://dc.lft.to/lastmile_qr_scan"}, "is_reserved": 0, "lon": -77.02217983333334, "fusion_lat": 0.0, "name": "0a17eb962ca2b15f0fa3d3c0c262de3d"}, {"type": "electric_scooter", "fusion_lon": 0.0, "bike_id": "7f299862ca6d56f76218d1845ae2b823", "is_disabled": 0, "lat": 38.918305333333336, "rental_uris": {"ios": "https://dc.lft.to/lastmile_qr_scan", "android": "https://dc.lft.to/lastmile_qr_scan"}, "is_reserved": 0, "lon": -77.03182916666667, "fusion_lat": 0.0, "name": "7f299862ca6d56f76218d1845ae2b823"}, {"type": "electric_scooter", "fusion_lon": 0.0, "bike_id": "969264f1016aab7a6e25aa027c06fdc9", "is_disabled": 0, "lat": 38.91658, "rental_uris": {"ios": "https://dc.lft.to/lastmile_qr_scan", "android": "https://dc.lft.to/lastmile_qr_scan"}, "is_reserved": 0, "lon": -77.038534, "fusion_lat": 0.0, "name": "969264f1016aab7a6e25aa027c06fdc9"}, {"type": "electric_scooter", "fusion_lon": 0.0, "bike_id": "b421d5ec01821d44c7499dd30b523501", "is_disabled": 0, "lat": 38.92749666666667, "rental_uris": {"ios": "https://dc.lft.to/lastmile_qr_scan", "android": "https://dc.lft.to/lastmile_qr_scan"}, "is_reserved": 0, "lon": -77.027099, "fusion_lat": 0.0, "name": "b421d5ec01821d44c7499dd30b523501"}, {"type": "electric_scooter", "fusion_lon": 0.0, "bike_id": "86ffdb13a57aa6b0394fddfa6768e404", "is_disabled": 0, "lat": 38.924206833333336, "rental_uris": {"ios": "https://dc.lft.to/lastmile_qr_scan", "android": "https://dc.lft.to/lastmile_qr_scan"}, "is_reserved": 0, "lon": -77.0202705, "fusion_lat": 0.0, "name": "86ffdb13a57aa6b0394fddfa6768e404"}, {"type": "electric_scooter", "fusion_lon": 0.0, "bike_id": "b46b1fd05794e192e0b07bba963624a4", "is_disabled": 0, "lat": 38.90159116666667, "rental_uris": {"ios": "https://dc.lft.to/lastmile_qr_scan", "android": "https://dc.lft.to/lastmile_qr_scan"}, "is_reserved": 0, "lon": -77.03933966666666, "fusion_lat": 0.0, "name": "b46b1fd05794e192e0b07bba963624a4"}, {"type": "electric_scooter", "fusion_lon": 0.0, "bike_id": "a10509027dda43baff0e0160cb255798", "is_disabled": 0, "lat": 38.91718066666667, "rental_uris": {"ios": "https://dc.lft.to/lastmile_qr_scan", "android": "https://dc.lft.to/lastmile_qr_scan"}, "is_reserved": 0, "lon": -77.02400883333334, "fusion_lat": 0.0, "name": "a10509027dda43baff0e0160cb255798"}, {"type": "electric_scooter", "fusion_lon": 0.0, "bike_id": "589d841dee5679e9da6d8b8e88b0bfa6", "is_disabled": 0, "lat": 38.937925, "rental_uris": {"ios": "https://dc.lft.to/lastmile_qr_scan", "android": "https://dc.lft.to/lastmile_qr_scan"}, "is_reserved": 0, "lon": -77.03283716666667, "fusion_lat": 0.0, "name": "589d841dee5679e9da6d8b8e88b0bfa6"}, {"type": "electric_scooter", "fusion_lon": 0.0, "bike_id": "e4af6dfc5bb6b00f4083354d87625111", "is_disabled": 0, "lat": 38.8850695, "rental_uris": {"ios": "https://dc.lft.to/lastmile_qr_scan", "android": "https://dc.lft.to/lastmile_qr_scan"}, "is_reserved": 0, "lon": -76.95285283333334, "fusion_lat": 0.0, "name": "e4af6dfc5bb6b00f4083354d87625111"}, {"type": "electric_scooter", "fusion_lon": 0.0, "bike_id": "e1e2b41093bcc46999b226f107cd9326", "is_disabled": 0, "lat": 38.909818, "rental_uris": {"ios": "https://dc.lft.to/lastmile_qr_scan", "android": "https://dc.lft.to/lastmile_qr_scan"}, "is_reserved": 0, "lon": -76.99498283333334, "fusion_lat": 0.0, "name": "e1e2b41093bcc46999b226f107cd9326"}, {"type": "electric_scooter", "fusion_lon": 0.0, "bike_id": "3cd0ae46e2389ab1922794b3b3af9b2f", "is_disabled": 0, "lat": 38.91955733333333, "rental_uris": {"ios": "https://dc.lft.to/lastmile_qr_scan", "android": "https://dc.lft.to/lastmile_qr_scan"}, "is_reserved": 0, "lon": -77.0178135, "fusion_lat": 0.0, "name": "3cd0ae46e2389ab1922794b3b3af9b2f"}, {"type": "electric_scooter", "fusion_lon": 0.0, "bike_id": "a1cbf41d390559cf1b30331a9d8d2769", "is_disabled": 0, "lat": 38.90475966666666, "rental_uris": {"ios": "https://dc.lft.to/lastmile_qr_scan", "android": "https://dc.lft.to/lastmile_qr_scan"}, "is_reserved": 0, "lon": -77.03236666666666, "fusion_lat": 0.0, "name": "a1cbf41d390559cf1b30331a9d8d2769"}, {"type": "electric_scooter", "fusion_lon": 0.0, "bike_id": "9b53163b2fb36e325a0eb73322aa0de0", "is_disabled": 0, "lat": 38.879761333333335, "rental_uris": {"ios": "https://dc.lft.to/lastmile_qr_scan", "android": "https://dc.lft.to/lastmile_qr_scan"}, "is_reserved": 0, "lon": -77.00586233333334, "fusion_lat": 0.0, "name": "9b53163b2fb36e325a0eb73322aa0de0"}, {"type": "electric_scooter", "fusion_lon": 0.0, "bike_id": "4155bec83c702908d158dbb827392694", "is_disabled": 0, "lat": 38.91926216666667, "rental_uris": {"ios": "https://dc.lft.to/lastmile_qr_scan", "android": "https://dc.lft.to/lastmile_qr_scan"}, "is_reserved": 0, "lon": -77.02504916666666, "fusion_lat": 0.0, "name": "4155bec83c702908d158dbb827392694"}, {"type": "electric_scooter", "fusion_lon": 0.0, "bike_id": "47fc5caa0defcf64fce9ba5c7200e392", "is_disabled": 0, "lat": 38.91418616666667, "rental_uris": {"ios": "https://dc.lft.to/lastmile_qr_scan", "android": "https://dc.lft.to/lastmile_qr_scan"}, "is_reserved": 0, "lon": -77.03907616666666, "fusion_lat": 0.0, "name": "47fc5caa0defcf64fce9ba5c7200e392"}, {"type": "electric_scooter", "fusion_lon": 0.0, "bike_id": "d084dcc6cafc4681a5d7a6ec79e99f33", "is_disabled": 0, "lat": 38.927629, "rental_uris": {"ios": "https://dc.lft.to/lastmile_qr_scan", "android": "https://dc.lft.to/lastmile_qr_scan"}, "is_reserved": 0, "lon": -77.03271766666667, "fusion_lat": 0.0, "name": "d084dcc6cafc4681a5d7a6ec79e99f33"}, {"type": "electric_bike", "fusion_lon": 0.0, "bike_id": "cb60b0619761667f1f8b841a26ffc277", "is_disabled": 0, "lat": 38.95064033333333, "rental_uris": {"ios": "https://dc.lft.to/lastmile_qr_scan", "android": "https://dc.lft.to/lastmile_qr_scan"}, "is_reserved": 0, "lon": -77.0665345, "fusion_lat": 0.0, "name": "cb60b0619761667f1f8b841a26ffc277"}, {"type": "electric_scooter", "fusion_lon": 0.0, "bike_id": "0e62b75d937606fa43d6b6b6f886ad3f", "is_disabled": 0, "lat": 38.9310385, "rental_uris": {"ios": "https://dc.lft.to/lastmile_qr_scan", "android": "https://dc.lft.to/lastmile_qr_scan"}, "is_reserved": 0, "lon": -77.03803383333333, "fusion_lat": 0.0, "name": "0e62b75d937606fa43d6b6b6f886ad3f"}, {"type": "electric_scooter", "fusion_lon": 0.0, "bike_id": "541a8acf53f24502e3971f1ae5808b1b", "is_disabled": 0, "lat": 38.914375, "rental_uris": {"ios": "https://dc.lft.to/lastmile_qr_scan", "android": "https://dc.lft.to/lastmile_qr_scan"}, "is_reserved": 0, "lon": -77.0417595, "fusion_lat": 0.0, "name": "541a8acf53f24502e3971f1ae5808b1b"}, {"type": "electric_scooter", "fusion_lon": 0.0, "bike_id": "6691e3009502ff7126aa36a364987f78", "is_disabled": 0, "lat": 38.914206, "rental_uris": {"ios": "https://dc.lft.to/lastmile_qr_scan", "android": "https://dc.lft.to/lastmile_qr_scan"}, "is_reserved": 0, "lon": -77.038098, "fusion_lat": 0.0, "name": "6691e3009502ff7126aa36a364987f78"}, {"type": "electric_scooter", "fusion_lon": 0.0, "bike_id": "b3f234fb9f01e60a5e2c2f98b9971ef5", "is_disabled": 0, "lat": 38.897062166666664, "rental_uris": {"ios": "https://dc.lft.to/lastmile_qr_scan", "android": "https://dc.lft.to/lastmile_qr_scan"}, "is_reserved": 0, "lon": -77.02469366666666, "fusion_lat": 0.0, "name": "b3f234fb9f01e60a5e2c2f98b9971ef5"}, {"type": "electric_scooter", "fusion_lon": 0.0, "bike_id": "0d8f148989dfb1ecb9dfe4aa819ee2c5", "is_disabled": 0, "lat": 38.892244, "rental_uris": {"ios": "https://dc.lft.to/lastmile_qr_scan", "android": "https://dc.lft.to/lastmile_qr_scan"}, "is_reserved": 0, "lon": -77.04866216666667, "fusion_lat": 0.0, "name": "0d8f148989dfb1ecb9dfe4aa819ee2c5"}, {"type": "electric_scooter", "fusion_lon": 0.0, "bike_id": "6b535ad1ec7499a7a73a311a1626c0c1", "is_disabled": 0, "lat": 38.925151166666666, "rental_uris": {"ios": "https://dc.lft.to/lastmile_qr_scan", "android": "https://dc.lft.to/lastmile_qr_scan"}, "is_reserved": 0, "lon": -77.02256733333333, "fusion_lat": 0.0, "name": "6b535ad1ec7499a7a73a311a1626c0c1"}, {"type": "electric_scooter", "fusion_lon": 0.0, "bike_id": "ee650a512fb24b15c242eb34f4058cec", "is_disabled": 0, "lat": 38.91549333333333, "rental_uris": {"ios": "https://dc.lft.to/lastmile_qr_scan", "android": "https://dc.lft.to/lastmile_qr_scan"}, "is_reserved": 0, "lon": -77.038489, "fusion_lat": 0.0, "name": "ee650a512fb24b15c242eb34f4058cec"}, {"type": "electric_scooter", "fusion_lon": 0.0, "bike_id": "bc0a29a70ac0806d8cb5a895533c8c96", "is_disabled": 0, "lat": 38.917128166666664, "rental_uris": {"ios": "https://dc.lft.to/lastmile_qr_scan", "android": "https://dc.lft.to/lastmile_qr_scan"}, "is_reserved": 0, "lon": -77.0347725, "fusion_lat": 0.0, "name": "bc0a29a70ac0806d8cb5a895533c8c96"}, {"type": "electric_bike", "fusion_lon": 0.0, "bike_id": "7e1409fb00bc3b45800ca81531d0cac2", "is_disabled": 0, "lat": 38.89508333333333, "rental_uris": {"ios": "https://dc.lft.to/lastmile_qr_scan", "android": "https://dc.lft.to/lastmile_qr_scan"}, "is_reserved": 0, "lon": -77.04675833333333, "fusion_lat": 0.0, "name": "7e1409fb00bc3b45800ca81531d0cac2"}, {"type": "electric_scooter", "fusion_lon": 0.0, "bike_id": "3da45dc41b10c6b0182d76556867cbc3", "is_disabled": 0, "lat": 38.899495333333334, "rental_uris": {"ios": "https://dc.lft.to/lastmile_qr_scan", "android": "https://dc.lft.to/lastmile_qr_scan"}, "is_reserved": 0, "lon": -77.02215766666667, "fusion_lat": 0.0, "name": "3da45dc41b10c6b0182d76556867cbc3"}, {"type": "electric_scooter", "fusion_lon": 0.0, "bike_id": "98491429bfae444dc830116b6c701c8f", "is_disabled": 0, "lat": 38.915706666666665, "rental_uris": {"ios": "https://dc.lft.to/lastmile_qr_scan", "android": "https://dc.lft.to/lastmile_qr_scan"}, "is_reserved": 0, "lon": -77.03322433333334, "fusion_lat": 0.0, "name": "98491429bfae444dc830116b6c701c8f"}, {"type": "electric_scooter", "fusion_lon": 0.0, "bike_id": "d33c25d78f96dec5d48e293ef2a577d7", "is_disabled": 0, "lat": 38.914126, "rental_uris": {"ios": "https://dc.lft.to/lastmile_qr_scan", "android": "https://dc.lft.to/lastmile_qr_scan"}, "is_reserved": 0, "lon": -77.04498366666667, "fusion_lat": 0.0, "name": "d33c25d78f96dec5d48e293ef2a577d7"}, {"type": "electric_scooter", "fusion_lon": 0.0, "bike_id": "654a084e75f6ed151927c2f360e7d7fc", "is_disabled": 0, "lat": 38.892653, "rental_uris": {"ios": "https://dc.lft.to/lastmile_qr_scan", "android": "https://dc.lft.to/lastmile_qr_scan"}, "is_reserved": 0, "lon": -77.0420205, "fusion_lat": 0.0, "name": "654a084e75f6ed151927c2f360e7d7fc"}, {"type": "electric_scooter", "fusion_lon": 0.0, "bike_id": "ffdccec1f606c9071634f2bc558ac134", "is_disabled": 0, "lat": 38.8755015, "rental_uris": {"ios": "https://dc.lft.to/lastmile_qr_scan", "android": "https://dc.lft.to/lastmile_qr_scan"}, "is_reserved": 0, "lon": -76.96487566666667, "fusion_lat": 0.0, "name": "ffdccec1f606c9071634f2bc558ac134"}, {"type": "electric_scooter", "fusion_lon": 0.0, "bike_id": "994c2c6634d8313b99848616de2ec0c5", "is_disabled": 0, "lat": 38.901977333333335, "rental_uris": {"ios": "https://dc.lft.to/lastmile_qr_scan", "android": "https://dc.lft.to/lastmile_qr_scan"}, "is_reserved": 0, "lon": -77.0219935, "fusion_lat": 0.0, "name": "994c2c6634d8313b99848616de2ec0c5"}, {"type": "electric_scooter", "fusion_lon": 0.0, "bike_id": "be22b0a93b9d89e8aa4cbefe1ac1c563", "is_disabled": 0, "lat": 38.914681, "rental_uris": {"ios": "https://dc.lft.to/lastmile_qr_scan", "android": "https://dc.lft.to/lastmile_qr_scan"}, "is_reserved": 0, "lon": -77.03640266666666, "fusion_lat": 0.0, "name": "be22b0a93b9d89e8aa4cbefe1ac1c563"}, {"type": "electric_scooter", "fusion_lon": 0.0, "bike_id": "92ce18482282364bfecb13dfa82b3d15", "is_disabled": 0, "lat": 38.90841, "rental_uris": {"ios": "https://dc.lft.to/lastmile_qr_scan", "android": "https://dc.lft.to/lastmile_qr_scan"}, "is_reserved": 0, "lon": -77.0269425, "fusion_lat": 0.0, "name": "92ce18482282364bfecb13dfa82b3d15"}, {"type": "electric_scooter", "fusion_lon": 0.0, "bike_id": "40e62eeb88854150b0e29d0a483151f8", "is_disabled": 0, "lat": 38.90726316666667, "rental_uris": {"ios": "https://dc.lft.to/lastmile_qr_scan", "android": "https://dc.lft.to/lastmile_qr_scan"}, "is_reserved": 0, "lon": -77.04371016666667, "fusion_lat": 0.0, "name": "40e62eeb88854150b0e29d0a483151f8"}, {"type": "electric_scooter", "fusion_lon": 0.0, "bike_id": "fd4b1a30d76cb02ca946f9a62f273403", "is_disabled": 0, "lat": 38.903702333333335, "rental_uris": {"ios": "https://dc.lft.to/lastmile_qr_scan", "android": "https://dc.lft.to/lastmile_qr_scan"}, "is_reserved": 0, "lon": -77.03167733333333, "fusion_lat": 0.0, "name": "fd4b1a30d76cb02ca946f9a62f273403"}, {"type": "electric_scooter", "fusion_lon": 0.0, "bike_id": "668e42f548aff01c37fa52ed5a20c452", "is_disabled": 0, "lat": 38.86657733333333, "rental_uris": {"ios": "https://dc.lft.to/lastmile_qr_scan", "android": "https://dc.lft.to/lastmile_qr_scan"}, "is_reserved": 0, "lon": -76.98886833333333, "fusion_lat": 0.0, "name": "668e42f548aff01c37fa52ed5a20c452"}, {"type": "electric_scooter", "fusion_lon": 0.0, "bike_id": "62e789b98ffed4fa1f8b2ba884a32f47", "is_disabled": 0, "lat": 38.91796516666667, "rental_uris": {"ios": "https://dc.lft.to/lastmile_qr_scan", "android": "https://dc.lft.to/lastmile_qr_scan"}, "is_reserved": 0, "lon": -77.02707116666667, "fusion_lat": 0.0, "name": "62e789b98ffed4fa1f8b2ba884a32f47"}, {"type": "electric_scooter", "fusion_lon": 0.0, "bike_id": "9904969678a3ef0a8be6857c5d51cc73", "is_disabled": 0, "lat": 38.894368166666666, "rental_uris": {"ios": "https://dc.lft.to/lastmile_qr_scan", "android": "https://dc.lft.to/lastmile_qr_scan"}, "is_reserved": 0, "lon": -76.98083633333333, "fusion_lat": 0.0, "name": "9904969678a3ef0a8be6857c5d51cc73"}, {"type": "electric_scooter", "fusion_lon": 0.0, "bike_id": "adb7a5f921072efbf127ed28da1c9d73", "is_disabled": 0, "lat": 38.928726, "rental_uris": {"ios": "https://dc.lft.to/lastmile_qr_scan", "android": "https://dc.lft.to/lastmile_qr_scan"}, "is_reserved": 0, "lon": -77.02661566666667, "fusion_lat": 0.0, "name": "adb7a5f921072efbf127ed28da1c9d73"}, {"type": "electric_scooter", "fusion_lon": 0.0, "bike_id": "a55d0f13165cd0c6ebebf6f15817855e", "is_disabled": 0, "lat": 38.9023755, "rental_uris": {"ios": "https://dc.lft.to/lastmile_qr_scan", "android": "https://dc.lft.to/lastmile_qr_scan"}, "is_reserved": 0, "lon": -77.05996866666666, "fusion_lat": 0.0, "name": "a55d0f13165cd0c6ebebf6f15817855e"}, {"type": "electric_scooter", "fusion_lon": 0.0, "bike_id": "7f763f2f62f860f282fd5f8541eaef1d", "is_disabled": 0, "lat": 38.948335166666666, "rental_uris": {"ios": "https://dc.lft.to/lastmile_qr_scan", "android": "https://dc.lft.to/lastmile_qr_scan"}, "is_reserved": 0, "lon": -77.02559066666667, "fusion_lat": 0.0, "name": "7f763f2f62f860f282fd5f8541eaef1d"}, {"type": "electric_scooter", "fusion_lon": 0.0, "bike_id": "38fb542c971e47facf70b2c121a55867", "is_disabled": 0, "lat": 38.90561983333333, "rental_uris": {"ios": "https://dc.lft.to/lastmile_qr_scan", "android": "https://dc.lft.to/lastmile_qr_scan"}, "is_reserved": 0, "lon": -77.01755766666666, "fusion_lat": 0.0, "name": "38fb542c971e47facf70b2c121a55867"}, {"type": "electric_scooter", "fusion_lon": 0.0, "bike_id": "147f4169f36322be13780204e10398a5", "is_disabled": 0, "lat": 38.89629083333333, "rental_uris": {"ios": "https://dc.lft.to/lastmile_qr_scan", "android": "https://dc.lft.to/lastmile_qr_scan"}, "is_reserved": 0, "lon": -77.03205266666667, "fusion_lat": 0.0, "name": "147f4169f36322be13780204e10398a5"}, {"type": "electric_scooter", "fusion_lon": 0.0, "bike_id": "b72625ac42fabff7e5b61350120b63e9", "is_disabled": 0, "lat": 38.89220516666666, "rental_uris": {"ios": "https://dc.lft.to/lastmile_qr_scan", "android": "https://dc.lft.to/lastmile_qr_scan"}, "is_reserved": 0, "lon": -77.02627416666667, "fusion_lat": 0.0, "name": "b72625ac42fabff7e5b61350120b63e9"}, {"type": "electric_bike", "fusion_lon": 0.0, "bike_id": "9773019aabba10ad07feb3e6853c43ac", "is_disabled": 0, "lat": 38.83851816666667, "rental_uris": {"ios": "https://dc.lft.to/lastmile_qr_scan", "android": "https://dc.lft.to/lastmile_qr_scan"}, "is_reserved": 0, "lon": -76.99722483333333, "fusion_lat": 0.0, "name": "9773019aabba10ad07feb3e6853c43ac"}, {"type": "electric_scooter", "fusion_lon": 0.0, "bike_id": "c6c1d1584da42424a472cf87b19228d7", "is_disabled": 0, "lat": 38.892251, "rental_uris": {"ios": "https://dc.lft.to/lastmile_qr_scan", "android": "https://dc.lft.to/lastmile_qr_scan"}, "is_reserved": 0, "lon": -77.045063, "fusion_lat": 0.0, "name": "c6c1d1584da42424a472cf87b19228d7"}, {"type": "electric_scooter", "fusion_lon": 0.0, "bike_id": "acf7dafc39251d625976ed333b28c48d", "is_disabled": 0, "lat": 38.908711333333336, "rental_uris": {"ios": "https://dc.lft.to/lastmile_qr_scan", "android": "https://dc.lft.to/lastmile_qr_scan"}, "is_reserved": 0, "lon": -77.01886416666666, "fusion_lat": 0.0, "name": "acf7dafc39251d625976ed333b28c48d"}, {"type": "electric_scooter", "fusion_lon": 0.0, "bike_id": "0b8176de13fd07610f4fdf448cdeb03b", "is_disabled": 0, "lat": 38.930216, "rental_uris": {"ios": "https://dc.lft.to/lastmile_qr_scan", "android": "https://dc.lft.to/lastmile_qr_scan"}, "is_reserved": 0, "lon": -77.0279005, "fusion_lat": 0.0, "name": "0b8176de13fd07610f4fdf448cdeb03b"}, {"type": "electric_scooter", "fusion_lon": 0.0, "bike_id": "222f55e26484ad0f612735c44d48f46c", "is_disabled": 0, "lat": 38.8921935, "rental_uris": {"ios": "https://dc.lft.to/lastmile_qr_scan", "android": "https://dc.lft.to/lastmile_qr_scan"}, "is_reserved": 0, "lon": -77.0262425, "fusion_lat": 0.0, "name": "222f55e26484ad0f612735c44d48f46c"}, {"type": "electric_scooter", "fusion_lon": 0.0, "bike_id": "d94939a01a2d9706eeabc94fedd73f11", "is_disabled": 0, "lat": 38.89545433333333, "rental_uris": {"ios": "https://dc.lft.to/lastmile_qr_scan", "android": "https://dc.lft.to/lastmile_qr_scan"}, "is_reserved": 0, "lon": -76.98337233333334, "fusion_lat": 0.0, "name": "d94939a01a2d9706eeabc94fedd73f11"}, {"type": "electric_scooter", "fusion_lon": 0.0, "bike_id": "84925f5aaa81d918616bf76fa7b78bfc", "is_disabled": 0, "lat": 38.91256816666667, "rental_uris": {"ios": "https://dc.lft.to/lastmile_qr_scan", "android": "https://dc.lft.to/lastmile_qr_scan"}, "is_reserved": 0, "lon": -77.03825416666666, "fusion_lat": 0.0, "name": "84925f5aaa81d918616bf76fa7b78bfc"}, {"type": "electric_scooter", "fusion_lon": 0.0, "bike_id": "99f6b31c1f6b59895182f06c654bf7d1", "is_disabled": 0, "lat": 38.89214066666667, "rental_uris": {"ios": "https://dc.lft.to/lastmile_qr_scan", "android": "https://dc.lft.to/lastmile_qr_scan"}, "is_reserved": 0, "lon": -77.02779816666667, "fusion_lat": 0.0, "name": "99f6b31c1f6b59895182f06c654bf7d1"}, {"type": "electric_scooter", "fusion_lon": 0.0, "bike_id": "ef1a921c39cae85336ac9f473a9b1c80", "is_disabled": 0, "lat": 38.90365633333333, "rental_uris": {"ios": "https://dc.lft.to/lastmile_qr_scan", "android": "https://dc.lft.to/lastmile_qr_scan"}, "is_reserved": 0, "lon": -77.00342733333333, "fusion_lat": 0.0, "name": "ef1a921c39cae85336ac9f473a9b1c80"}, {"type": "electric_bike", "fusion_lon": 0.0, "bike_id": "40e4372f21024138500423b6f07e86de", "is_disabled": 0, "lat": 38.972542833333335, "rental_uris": {"ios": "https://dc.lft.to/lastmile_qr_scan", "android": "https://dc.lft.to/lastmile_qr_scan"}, "is_reserved": 0, "lon": -76.992714, "fusion_lat": 0.0, "name": "40e4372f21024138500423b6f07e86de"}, {"type": "electric_scooter", "fusion_lon": 0.0, "bike_id": "a830b3ad1de06a6301a7abc5be57606f", "is_disabled": 0, "lat": 38.90660466666667, "rental_uris": {"ios": "https://dc.lft.to/lastmile_qr_scan", "android": "https://dc.lft.to/lastmile_qr_scan"}, "is_reserved": 0, "lon": -76.97939933333333, "fusion_lat": 0.0, "name": "a830b3ad1de06a6301a7abc5be57606f"}, {"type": "electric_scooter", "fusion_lon": 0.0, "bike_id": "aaa9f1e1b05090c8efed2424d9627f58", "is_disabled": 0, "lat": 38.88211016666666, "rental_uris": {"ios": "https://dc.lft.to/lastmile_qr_scan", "android": "https://dc.lft.to/lastmile_qr_scan"}, "is_reserved": 0, "lon": -77.017668, "fusion_lat": 0.0, "name": "aaa9f1e1b05090c8efed2424d9627f58"}, {"type": "electric_scooter", "fusion_lon": 0.0, "bike_id": "a2c5eb271ddd566cecce900e9d4bb846", "is_disabled": 0, "lat": 38.909701, "rental_uris": {"ios": "https://dc.lft.to/lastmile_qr_scan", "android": "https://dc.lft.to/lastmile_qr_scan"}, "is_reserved": 0, "lon": -77.038665, "fusion_lat": 0.0, "name": "a2c5eb271ddd566cecce900e9d4bb846"}, {"type": "electric_bike", "fusion_lon": 0.0, "bike_id": "2f8e1d7e0a511a61c538e95af525563b", "is_disabled": 0, "lat": 38.835204166666664, "rental_uris": {"ios": "https://dc.lft.to/lastmile_qr_scan", "android": "https://dc.lft.to/lastmile_qr_scan"}, "is_reserved": 0, "lon": -76.98709933333333, "fusion_lat": 0.0, "name": "2f8e1d7e0a511a61c538e95af525563b"}, {"type": "electric_scooter", "fusion_lon": 0.0, "bike_id": "ce013e723a05b5a7a62a2acd40cc06c7", "is_disabled": 0, "lat": 38.91329133333333, "rental_uris": {"ios": "https://dc.lft.to/lastmile_qr_scan", "android": "https://dc.lft.to/lastmile_qr_scan"}, "is_reserved": 0, "lon": -77.0331955, "fusion_lat": 0.0, "name": "ce013e723a05b5a7a62a2acd40cc06c7"}, {"type": "electric_scooter", "fusion_lon": 0.0, "bike_id": "ee2939e5c6c5f5c4cbe593ae0933e6ea", "is_disabled": 0, "lat": 38.90981166666667, "rental_uris": {"ios": "https://dc.lft.to/lastmile_qr_scan", "android": "https://dc.lft.to/lastmile_qr_scan"}, "is_reserved": 0, "lon": -77.03838616666667, "fusion_lat": 0.0, "name": "ee2939e5c6c5f5c4cbe593ae0933e6ea"}, {"type": "electric_scooter", "fusion_lon": 0.0, "bike_id": "de77617093eafc49b715916a80b4d8fe", "is_disabled": 0, "lat": 38.88996383333333, "rental_uris": {"ios": "https://dc.lft.to/lastmile_qr_scan", "android": "https://dc.lft.to/lastmile_qr_scan"}, "is_reserved": 0, "lon": -76.954312, "fusion_lat": 0.0, "name": "de77617093eafc49b715916a80b4d8fe"},