{"data": {"bikes": [{"rental_uris": {"android": "https://dc.lft.to/lastmile_qr_scan", "ios": "https://dc.lft.to/lastmile_qr_scan"}, "lon": -77.07700566666666, "name": "9b2a25ea9a7b6e193bf0466a3a38a6f2", "lat": 38.94386516666667, "is_reserved": 0, "fusion_lat": 0.0, "bike_id": "9b2a25ea9a7b6e193bf0466a3a38a6f2", "type": "electric_scooter", "is_disabled": 0, "fusion_lon": 0.0}, {"rental_uris": {"android": "https://dc.lft.to/lastmile_qr_scan", "ios": "https://dc.lft.to/lastmile_qr_scan"}, "lon": -77.03339666666666, "name": "adec881dd9e92d1e50f9ad9396765bd2", "lat": 38.935134, "is_reserved": 0, "fusion_lat": 0.0, "bike_id": "adec881dd9e92d1e50f9ad9396765bd2", "type": "electric_scooter", "is_disabled": 0, "fusion_lon": 0.0}, {"rental_uris": {"android": "https://dc.lft.to/lastmile_qr_scan", "ios": "https://dc.lft.to/lastmile_qr_scan"}, "lon": -77.02411516666666, "name": "37ab015dd82967f199a275f7eb3f1240", "lat": 38.9085565, "is_reserved": 0, "fusion_lat": 0.0, "bike_id": "37ab015dd82967f199a275f7eb3f1240", "type": "electric_scooter", "is_disabled": 0, "fusion_lon": 0.0}, {"rental_uris": {"android": "https://dc.lft.to/lastmile_qr_scan", "ios": "https://dc.lft.to/lastmile_qr_scan"}, "lon": -77.03130066666667, "name": "c55907588105b5f505d5fedf9aaa3473", "lat": 38.91710033333333, "is_reserved": 0, "fusion_lat": 0.0, "bike_id": "c55907588105b5f505d5fedf9aaa3473", "type": "electric_scooter", "is_disabled": 0, "fusion_lon": 0.0}, {"rental_uris": {"android": "https://dc.lft.to/lastmile_qr_scan", "ios": "https://dc.lft.to/lastmile_qr_scan"}, "lon": -77.02200733333333, "name": "3d68c2f1c548d1290faa67d9d75d339b", "lat": 38.91984166666667, "is_reserved": 0, "fusion_lat": 0.0, "bike_id": "3d68c2f1c548d1290faa67d9d75d339b", "type": "electric_scooter", "is_disabled": 0, "fusion_lon": 0.0}, {"rental_uris": {"android": "https://dc.lft.to/lastmile_qr_scan", "ios": "https://dc.lft.to/lastmile_qr_scan"}, "lon": -77.054717, "name": "1a6d10252c09a94c8f6caf97fb8c380f", "lat": 38.896708333333336, "is_reserved": 0, "fusion_lat": 0.0, "bike_id": "1a6d10252c09a94c8f6caf97fb8c380f", "type": "electric_scooter", "is_disabled": 0, "fusion_lon": 0.0}, {"rental_uris": {"android": "https://dc.lft.to/lastmile_qr_scan", "ios": "https://dc.lft.to/lastmile_qr_scan"}, "lon": -76.98543833333333, "name": "fedbefbe3a5ee749d1475dca11a4a136", "lat": 38.8668725, "is_reserved": 0, "fusion_lat": 0.0, "bike_id": "fedbefbe3a5ee749d1475dca11a4a136", "type": "electric_scooter", "is_disabled": 0, "fusion_lon": 0.0}, {"rental_uris": {"android": "https://dc.lft.to/lastmile_qr_scan", "ios": "https://dc.lft.to/lastmile_qr_scan"}, "lon": -77.014257, "name": "f8750b624c42240dea29733857b79981", "lat": 38.97219333333334, "is_reserved": 0, "fusion_lat": 0.0, "bike_id": "f8750b624c42240dea29733857b79981", "type": "electric_bike", "is_disabled": 0, "fusion_lon": 0.0}, {"rental_uris": {"android": "https://dc.lft.to/lastmile_qr_scan", "ios": "https://dc.lft.to/lastmile_qr_scan"}, "lon": -77.02201, "name": "db4da030fe826988c7221daa506003de", "lat": 38.91048333333333, "is_reserved": 0, "fusion_lat": 0.0, "bike_id": "db4da030fe826988c7221daa506003de", "type": "electric_scooter", "is_disabled": 0, "fusion_lon": 0.0}, {"rental_uris": {"android": "https://dc.lft.to/lastmile_qr_scan", "ios": "https://dc.lft.to/lastmile_qr_scan"}, "lon": -77.00920483333333, "name": "b8dd79f039c0f44f9046d8eacfd84e2c", "lat": 38.896116166666665, "is_reserved": 0, "fusion_lat": 0.0, "bike_id": "b8dd79f039c0f44f9046d8eacfd84e2c", "type": "electric_scooter", "is_disabled": 0, "fusion_lon": 0.0}, {"rental_uris": {"android": "https://dc.lft.to/lastmile_qr_scan", "ios": "https://dc.lft.to/lastmile_qr_scan"}, "lon": -76.9924715, "name": "98eaba83c0e8bcbb7a063cfbf1d827f4", "lat": 38.794676333333335, "is_reserved": 0, "fusion_lat": 0.0, "bike_id": "98eaba83c0e8bcbb7a063cfbf1d827f4", "type": "electric_bike", "is_disabled": 0, "fusion_lon": 0.0}, {"rental_uris": {"android": "https://dc.lft.to/lastmile_qr_scan", "ios": "https://dc.lft.to/lastmile_qr_scan"}, "lon": -77.0342505, "name": "7bc23b926e5f222c0acbbb23d74cc51c", "lat": 38.90641633333333, "is_reserved": 0, "fusion_lat": 0.0, "bike_id": "7bc23b926e5f222c0acbbb23d74cc51c", "type": "electric_scooter", "is_disabled": 0, "fusion_lon": 0.0}, {"rental_uris": {"android": "https://dc.lft.to/lastmile_qr_scan", "ios": "https://dc.lft.to/lastmile_qr_scan"}, "lon": -77.02292666666666, "name": "164e3878d984f3baad1dfa1cd06b2518", "lat": 38.897083, "is_reserved": 0, "fusion_lat": 0.0, "bike_id": "164e3878d984f3baad1dfa1cd06b2518", "type": "electric_scooter", "is_disabled": 0, "fusion_lon": 0.0}, {"rental_uris": {"android": "https://dc.lft.to/lastmile_qr_scan", "ios": "https://dc.lft.to/lastmile_qr_scan"}, "lon": -77.050289, "name": "72927852a7cb8bef4b3367b8b6389efb", "lat": 38.923655, "is_reserved": 0, "fusion_lat": 0.0, "bike_id": "72927852a7cb8bef4b3367b8b6389efb", "type": "electric_scooter", "is_disabled": 0, "fusion_lon": 0.0}, {"rental_uris": {"android": "https://dc.lft.to/lastmile_qr_scan", "ios": "https://dc.lft.to/lastmile_qr_scan"}, "lon": -77.0272155, "name": "96ed1522eeb39af7b50ae9be307ebfd7", "lat": 38.92570883333333, "is_reserved": 0, "fusion_lat": 0.0, "bike_id": "96ed1522eeb39af7b50ae9be307ebfd7", "type": "electric_scooter", "is_disabled": 0, "fusion_lon": 0.0}, {"rental_uris": {"android": "https://dc.lft.to/lastmile_qr_scan", "ios": "https://dc.lft.to/lastmile_qr_scan"}, "lon": -77.020595, "name": "7380bea216a80ee3f4239bb826c9000d", "lat": 38.92366466666667, "is_reserved": 0, "fusion_lat": 0.0, "bike_id": "7380bea216a80ee3f4239bb826c9000d", "type": "electric_scooter", "is_disabled": 0, "fusion_lon": 0.0}, {"rental_uris": {"android": "https://dc.lft.to/lastmile_qr_scan", "ios": "https://dc.lft.to/lastmile_qr_scan"}, "lon": -77.0325325, "name": "0f1e5ba5d3c3651087390499206a4ee0", "lat": 38.92792516666667, "is_reserved": 0, "fusion_lat": 0.0, "bike_id": "0f1e5ba5d3c3651087390499206a4ee0", "type": "electric_bike", "is_disabled": 0, "fusion_lon": 0.0}, {"rental_uris": {"android": "https://dc.lft.to/lastmile_qr_scan", "ios": "https://dc.lft.to/lastmile_qr_scan"}, "lon": -76.99941533333333, "name": "bc8012929e56066b92dc82d90af94865", "lat": 38.9085715, "is_reserved": 0, "fusion_lat": 0.0, "bike_id": "bc8012929e56066b92dc82d90af94865", "type": "electric_scooter", "is_disabled": 0, "fusion_lon": 0.0}, {"rental_uris": {"android": "https://dc.lft.to/lastmile_qr_scan", "ios": "https://dc.lft.to/lastmile_qr_scan"}, "lon": -77.01105416666667, "name": "9dae4357e228e216ddbcc43058ec0b5c", "lat": 38.907208833333335, "is_reserved": 0, "fusion_lat": 0.0, "bike_id": "9dae4357e228e216ddbcc43058ec0b5c", "type": "electric_scooter", "is_disabled": 0, "fusion_lon": 0.0}, {"rental_uris": {"android": "https://dc.lft.to/lastmile_qr_scan", "ios": "https://dc.lft.to/lastmile_qr_scan"}, "lon": -77.04469233333333, "name": "514940cd7a358709f63a4eb1a6a89b94", "lat": 38.902735666666665, "is_reserved": 0, "fusion_lat": 0.0, "bike_id": "514940cd7a358709f63a4eb1a6a89b94", "type": "electric_scooter", "is_disabled": 0, "fusion_lon": 0.0}, {"rental_uris": {"android": "https://dc.lft.to/lastmile_qr_scan", "ios": "https://dc.lft.to/lastmile_qr_scan"}, "lon": -77.0315915, "name": "b4e343d82df2c4775d5b51cf2677b261", "lat": 38.895399, "is_reserved": 0, "fusion_lat": 0.0, "bike_id": "b4e343d82df2c4775d5b51cf2677b261", "type": "electric_scooter", "is_disabled": 0, "fusion_lon": 0.0}, {"rental_uris": {"android": "https://dc.lft.to/lastmile_qr_scan", "ios": "https://dc.lft.to/lastmile_qr_scan"}, "lon": -77.0175815, "name": "b4ed1d55a7d1ce83b973de7e7a00ec36", "lat": 38.9025395, "is_reserved": 0, "fusion_lat": 0.0, "bike_id": "b4ed1d55a7d1ce83b973de7e7a00ec36", "type": "electric_scooter", "is_disabled": 0, "fusion_lon": 0.0}, {"rental_uris": {"android": "https://dc.lft.to/lastmile_qr_scan", "ios": "https://dc.lft.to/lastmile_qr_scan"}, "lon": -76.978559, "name": "8205c7962ffaa817aadf66ddc30174b1", "lat": 38.84468283333333, "is_reserved": 0, "fusion_lat": 0.0, "bike_id": "8205c7962ffaa817aadf66ddc30174b1", "type": "electric_bike", "is_disabled": 0, "fusion_lon": 0.0}, {"rental_uris": {"android": "https://dc.lft.to/lastmile_qr_scan", "ios": "https://dc.lft.to/lastmile_qr_scan"}, "lon": -76.96681266666667, "name": "6ea123d52f655303c7d516c23f37defd", "lat": 38.856003, "is_reserved": 0, "fusion_lat": 0.0, "bike_id": "6ea123d52f655303c7d516c23f37defd", "type": "electric_scooter", "is_disabled": 0, "fusion_lon": 0.0}, {"rental_uris": {"android": "https://dc.lft.to/lastmile_qr_scan", "ios": "https://dc.lft.to/lastmile_qr_scan"}, "lon": -77.07760466666667, "name": "d54c2e038284d73b45016ed2a61fa1fc", "lat": 38.91169516666667, "is_reserved": 0, "fusion_lat": 0.0, "bike_id": "d54c2e038284d73b45016ed2a61fa1fc", "type": "electric_scooter", "is_disabled": 0, "fusion_lon": 0.0}, {"rental_uris": {"android": "https://dc.lft.to/lastmile_qr_scan", "ios": "https://dc.lft.to/lastmile_qr_scan"}, "lon": -77.01759883333334, "name": "35ebedddf8697ab592ba7a833a8dbd97", "lat": 38.902662, "is_reserved": 0, "fusion_lat": 0.0, "bike_id": "35ebedddf8697ab592ba7a833a8dbd97", "type": "electric_scooter", "is_disabled": 0, "fusion_lon": 0.0}, {"rental_uris": {"android": "https://dc.lft.to/lastmile_qr_scan", "ios": "https://dc.lft.to/lastmile_qr_scan"}, "lon": -77.02156866666667, "name": "15101db0e2721c40c669aa550c510f27", "lat": 38.9141595, "is_reserved": 0, "fusion_lat": 0.0, "bike_id": "15101db0e2721c40c669aa550c510f27", "type": "electric_scooter", "is_disabled": 0, "fusion_lon": 0.0}, {"rental_uris": {"android": "https://dc.lft.to/lastmile_qr_scan", "ios": "https://dc.lft.to/lastmile_qr_scan"}, "lon": -77.0266205, "name": "52583eea6d1197f22efbab70bf816a27", "lat": 38.92589783333333, "is_reserved": 0, "fusion_lat": 0.0, "bike_id": "52583eea6d1197f22efbab70bf816a27", "type": "electric_scooter", "is_disabled": 0, "fusion_lon": 0.0}, {"rental_uris": {"android": "https://dc.lft.to/lastmile_qr_scan", "ios": "https://dc.lft.to/lastmile_qr_scan"}, "lon": -77.04834116666666, "name": "d2943fcd3f89fde41c73ddb5fa7d6ec1", "lat": 38.9183975, "is_reserved": 0, "fusion_lat": 0.0, "bike_id": "d2943fcd3f89fde41c73ddb5fa7d6ec1", "type": "electric_scooter", "is_disabled": 0, "fusion_lon": 0.0}, {"rental_uris": {"android": "https://dc.lft.to/lastmile_qr_scan", "ios": "https://dc.lft.to/lastmile_qr_scan"}, "lon": -76.99010416666667, "name": "666d28c420c51f92b04b5c88c7d255bb", "lat": 38.885983, "is_reserved": 0, "fusion_lat": 0.0, "bike_id": "666d28c420c51f92b04b5c88c7d255bb", "type": "electric_scooter", "is_disabled": 0, "fusion_lon": 0.0}, {"rental_uris": {"android": "https://dc.lft.to/lastmile_qr_scan", "ios": "https://dc.lft.to/lastmile_qr_scan"}, "lon": -76.98836666666666, "name": "bd6078072c3601d2a8a825a74c427018", "lat": 38.842765, "is_reserved": 0, "fusion_lat": 0.0, "bike_id": "bd6078072c3601d2a8a825a74c427018", "type": "electric_bike", "is_disabled": 0, "fusion_lon": 0.0}, {"rental_uris": {"android": "https://dc.lft.to/lastmile_qr_scan", "ios": "https://dc.lft.to/lastmile_qr_scan"}, "lon": -77.04656983333334, "name": "e5260e7ccf79806bc0d17a14cae55371", "lat": 38.91003216666667, "is_reserved": 0, "fusion_lat": 0.0, "bike_id": "e5260e7ccf79806bc0d17a14cae55371", "type": "electric_scooter", "is_disabled": 0, "fusion_lon": 0.0}, {"rental_uris": {"android": "https://dc.lft.to/lastmile_qr_scan", "ios": "https://dc.lft.to/lastmile_qr_scan"}, "lon": -77.03122266666666, "name": "2d5964b6f5ac8d82273f98c281189635", "lat": 38.95933016666667, "is_reserved": 0, "fusion_lat": 0.0, "bike_id": "2d5964b6f5ac8d82273f98c281189635", "type": "electric_scooter", "is_disabled": 0, "fusion_lon": 0.0}, {"rental_uris": {"android": "https://dc.lft.to/lastmile_qr_scan", "ios": "https://dc.lft.to/lastmile_qr_scan"}, "lon": -77.03257633333334, "name": "1fa2b78fba7e10897ca3d97b5137dff1", "lat": 38.9011545, "is_reserved": 0, "fusion_lat": 0.0, "bike_id": "1fa2b78fba7e10897ca3d97b5137dff1", "type": "electric_scooter", "is_disabled": 0, "fusion_lon": 0.0}, {"rental_uris": {"android": "https://dc.lft.to/lastmile_qr_scan", "ios": "https://dc.lft.to/lastmile_qr_scan"}, "lon": -76.97487816666667, "name": "1bb230d506e5900a5fab87d7443471f3", "lat": 38.863826, "is_reserved": 0, "fusion_lat": 0.0, "bike_id": "1bb230d506e5900a5fab87d7443471f3", "type": "electric_bike", "is_disabled": 0, "fusion_lon": 0.0}, {"rental_uris": {"android": "https://dc.lft.to/lastmile_qr_scan", "ios": "https://dc.lft.to/lastmile_qr_scan"}, "lon": -77.02180116666666, "name": "18b20e89edc0d9acf2372ae143326f27", "lat": 38.90150966666667, "is_reserved": 0, "fusion_lat": 0.0, "bike_id": "18b20e89edc0d9acf2372ae143326f27", "type": "electric_scooter", "is_disabled": 0, "fusion_lon": 0.0}, {"rental_uris": {"android": "https://dc.lft.to/lastmile_qr_scan", "ios": "https://dc.lft.to/lastmile_qr_scan"}, "lon": -76.99005866666667, "name": "03f8157506149b238c79e169582660e5", "lat": 38.865088666666665, "is_reserved": 0, "fusion_lat": 0.0, "bike_id": "03f8157506149b238c79e169582660e5", "type": "electric_scooter", "is_disabled": 0, "fusion_lon": 0.0}, {"rental_uris": {"android": "https://dc.lft.to/lastmile_qr_scan", "ios": "https://dc.lft.to/lastmile_qr_scan"}, "lon": -77.04215216666667, "name": "b9dbc0724611623042ceb1fd31b2b8fe", "lat": 38.921577666666664, "is_reserved": 0, "fusion_lat": 0.0, "bike_id": "b9dbc0724611623042ceb1fd31b2b8fe", "type": "electric_scooter", "is_disabled": 0, "fusion_lon": 0.0}, {"rental_uris": {"android": "https://dc.lft.to/lastmile_qr_scan", "ios": "https://dc.lft.to/lastmile_qr_scan"}, "lon": -77.01974366666667, "name": "8a90f44603c7908f0793009dffbac697", "lat": 38.89901833333333, "is_reserved": 0, "fusion_lat": 0.0, "bike_id": "8a90f44603c7908f0793009dffbac697", "type": "electric_scooter", "is_disabled": 0, "fusion_lon": 0.0}, {"rental_uris": {"android": "https://dc.lft.to/lastmile_qr_scan", "ios": "https://dc.lft.to/lastmile_qr_scan"}, "lon": -77.02812633333333, "name": "de2e28a15cb5d1f4a01242fbdc3cd0f3", "lat": 38.917599833333334, "is_reserved": 0, "fusion_lat": 0.0, "bike_id": "de2e28a15cb5d1f4a01242fbdc3cd0f3", "type": "electric_scooter", "is_disabled": 0, "fusion_lon": 0.0}, {"rental_uris": {"android": "https://dc.lft.to/lastmile_qr_scan", "ios": "https://dc.lft.to/lastmile_qr_scan"}, "lon": -77.02712983333333, "name": "57df1846d2b033c1accfe2b21aec6c40", "lat": 38.90358283333333, "is_reserved": 0, "fusion_lat": 0.0, "bike_id": "57df1846d2b033c1accfe2b21aec6c40", "type": "electric_scooter", "is_disabled": 0, "fusion_lon": 0.0}, {"rental_uris": {"android": "https://dc.lft.to/lastmile_qr_scan", "ios": "https://dc.lft.to/lastmile_qr_scan"}, "lon": -77.04174316666666, "name": "22794b54a3e534a4eff6140b5ac8f1b8", "lat": 38.91393583333333, "is_reserved": 0, "fusion_lat": 0.0, "bike_id": "22794b54a3e534a4eff6140b5ac8f1b8", "type": "electric_scooter", "is_disabled": 0, "fusion_lon": 0.0}, {"rental_uris": {"android": "https://dc.lft.to/lastmile_qr_scan", "ios": "https://dc.lft.to/lastmile_qr_scan"}, "lon": -76.98276333333334, "name": "e25684bf5eff41a122ca7f646fc1b956", "lat": 38.90843516666666, "is_reserved": 0, "fusion_lat": 0.0, "bike_id": "e25684bf5eff41a122ca7f646fc1b956", "type": "electric_bike", "is_disabled": 0, "fusion_lon": 0.0}, {"rental_uris": {"android": "https://dc.lft.to/lastmile_qr_scan", "ios": "https://dc.lft.to/lastmile_qr_scan"}, "lon": -76.99408733333334, "name": "5db639a651dc8cd144dd84595112330e", "lat": 38.92172683333333, "is_reserved": 0, "fusion_lat": 0.0, "bike_id": "5db639a651dc8cd144dd84595112330e", "type": "electric_bike", "is_disabled": 0, "fusion_lon": 0.0}, {"rental_uris": {"android": "https://dc.lft.to/lastmile_qr_scan", "ios": "https://dc.lft.to/lastmile_qr_scan"}, "lon": -76.985323, "name": "0acb78cc36e3b8fd17ee66513c22a66d", "lat": 38.9041905, "is_reserved": 0, "fusion_lat": 0.0, "bike_id": "0acb78cc36e3b8fd17ee66513c22a66d", "type": "electric_scooter", "is_disabled": 0, "fusion_lon": 0.0}, {"rental_uris": {"android": "https://dc.lft.to/lastmile_qr_scan", "ios": "https://dc.lft.to/lastmile_qr_scan"}, "lon": -77.0327445, "name": "b141037f54b1361dc7246fc15de3ff2a", "lat": 38.93206833333333, "is_reserved": 0, "fusion_lat": 0.0, "bike_id": "b141037f54b1361dc7246fc15de3ff2a", "type": "electric_scooter", "is_disabled": 0, "fusion_lon": 0.0}, {"rental_uris": {"android": "https://dc.lft.to/lastmile_qr_scan", "ios": "https://dc.lft.to/lastmile_qr_scan"}, "lon": -77.0323435, "name": "7df3761292e9185c9eb587b587207f53", "lat": 38.93709916666667, "is_reserved": 0, "fusion_lat": 0.0, "bike_id": "7df3761292e9185c9eb587b587207f53", "type": "electric_scooter", "is_disabled": 0, "fusion_lon": 0.0}, {"rental_uris": {"android": "https://dc.lft.to/lastmile_qr_scan", "ios": "https://dc.lft.to/lastmile_qr_scan"}, "lon": -77.04171916666667, "name": "40b5b0279566b029670ed414a8c8f591", "lat": 38.9083495, "is_reserved": 0, "fusion_lat": 0.0, "bike_id": "40b5b0279566b029670ed414a8c8f591", "type": "electric_scooter", "is_disabled": 0, "fusion_lon": 0.0}, {"rental_uris": {"android": "https://dc.lft.to/lastmile_qr_scan", "ios": "https://dc.lft.to/lastmile_qr_scan"}, "lon": -77.02181483333334, "name": "a144d3b1f7ef7f9911a494b5d164e364", "lat": 38.89580983333333, "is_reserved": 0, "fusion_lat": 0.0, "bike_id": "a144d3b1f7ef7f9911a494b5d164e364", "type": "electric_scooter", "is_disabled": 0, "fusion_lon": 0.0}, {"rental_uris": {"android": "https://dc.lft.to/lastmile_qr_scan", "ios": "https://dc.lft.to/lastmile_qr_scan"}, "lon": -77.04688233333333, "name": "afb4107047b3fe64ac751af766acfbc8", "lat": 38.8922235, "is_reserved": 0, "fusion_lat": 0.0, "bike_id": "afb4107047b3fe64ac751af766acfbc8", "type": "electric_scooter", "is_disabled": 0, "fusion_lon": 0.0}, {"rental_uris": {"android": "https://dc.lft.to/lastmile_qr_scan", "ios": "https://dc.lft.to/lastmile_qr_scan"}, "lon": -77.02366366666666, "name": "5069d0f06b80cdb249fb58ea271195c2", "lat": 38.93268583333333, "is_reserved": 0, "fusion_lat": 0.0, "bike_id": "5069d0f06b80cdb249fb58ea271195c2", "type": "electric_scooter", "is_disabled": 0, "fusion_lon": 0.0}, {"rental_uris": {"android": "https://dc.lft.to/lastmile_qr_scan", "ios": "https://dc.lft.to/lastmile_qr_scan"}, "lon": -77.03145616666667, "name": "1f6b071b4cfca3be0eeaf0e1ef2e7e5e", "lat": 38.941771, "is_reserved": 0, "fusion_lat": 0.0, "bike_id": "1f6b071b4cfca3be0eeaf0e1ef2e7e5e", "type": "electric_scooter", "is_disabled": 0, "fusion_lon": 0.0}, {"rental_uris": {"android": "https://dc.lft.to/lastmile_qr_scan", "ios": "https://dc.lft.to/lastmile_qr_scan"}, "lon": -77.02298583333334, "name": "f05ed2019b8af24e7d83ce782df0b496", "lat": 38.89581583333333, "is_reserved": 0, "fusion_lat": 0.0, "bike_id": "f05ed2019b8af24e7d83ce782df0b496", "type": "electric_scooter", "is_disabled": 0, "fusion_lon": 0.0}, {"rental_uris": {"android": "https://dc.lft.to/lastmile_qr_scan", "ios": "https://dc.lft.to/lastmile_qr_scan"}, "lon": -77.01471833333333, "name": "a0b497c6edbc3a392395e0e1b453384e", "lat": 38.918508333333335, "is_reserved": 0, "fusion_lat": 0.0, "bike_id": "a0b497c6edbc3a392395e0e1b453384e", "type": "electric_scooter", "is_disabled": 0, "fusion_lon": 0.0}, {"rental_uris": {"android": "https://dc.lft.to/lastmile_qr_scan", "ios": "https://dc.lft.to/lastmile_qr_scan"}, "lon": -77.01211416666666, "name": "ed3ec4a45b2d205840373da7cf400fca", "lat": 38.918223833333336, "is_reserved": 0, "fusion_lat": 0.0, "bike_id": "ed3ec4a45b2d205840373da7cf400fca", "type": "electric_scooter", "is_disabled": 0, "fusion_lon": 0.0}, {"rental_uris": {"android": "https://dc.lft.to/lastmile_qr_scan", "ios": "https://dc.lft.to/lastmile_qr_scan"}, "lon": -77.04351, "name": "d2458279e9051031cb77e8c9b32b6257", "lat": 38.9132415, "is_reserved": 0, "fusion_lat": 0.0, "bike_id": "d2458279e9051031cb77e8c9b32b6257", "type": "electric_scooter", "is_disabled": 0, "fusion_lon": 0.0}, {"rental_uris": {"android": "https://dc.lft.to/lastmile_qr_scan", "ios": "https://dc.lft.to/lastmile_qr_scan"}, "lon": -76.975487, "name": "e2cd079dc149528e8d3dbca2985e660d", "lat": 38.903229, "is_reserved": 0, "fusion_lat": 0.0, "bike_id": "e2cd079dc149528e8d3dbca2985e660d", "type": "electric_scooter", "is_disabled": 0, "fusion_lon": 0.0}, {"rental_uris": {"android": "https://dc.lft.to/lastmile_qr_scan", "ios": "https://dc.lft.to/lastmile_qr_scan"}, "lon": -76.946404, "name": "ea86573e30ebdff00e93f0a17fa9dce6", "lat": 38.89864383333333, "is_reserved": 0, "fusion_lat": 0.0, "bike_id": "ea86573e30ebdff00e93f0a17fa9dce6", "type": "electric_scooter", "is_disabled": 0, "fusion_lon": 0.0}, {"rental_uris": {"android": "https://dc.lft.to/lastmile_qr_scan", "ios": "https://dc.lft.to/lastmile_qr_scan"}, "lon": -77.02116033333333, "name": "74e434a2b807837289acb212bb783c18", "lat": 38.90183533333333, "is_reserved": 0, "fusion_lat": 0.0, "bike_id": "74e434a2b807837289acb212bb783c18", "type": "electric_scooter", "is_disabled": 0, "fusion_lon": 0.0}, {"rental_uris": {"android": "https://dc.lft.to/lastmile_qr_scan", "ios": "https://dc.lft.to/lastmile_qr_scan"}, "lon": -77.03659733333333, "name": "ab0c23e4219568ac42afe4c275b390ab", "lat": 38.9297535, "is_reserved": 0, "fusion_lat": 0.0, "bike_id": "ab0c23e4219568ac42afe4c275b390ab", "type": "electric_scooter", "is_disabled": 0, "fusion_lon": 0.0}, {"rental_uris": {"android": "https://dc.lft.to/lastmile_qr_scan", "ios": "https://dc.lft.to/lastmile_qr_scan"}, "lon": -77.01284, "name": "9edd2f16affe2dcf201d381062161322", "lat": 38.9008055, "is_reserved": 0, "fusion_lat": 0.0, "bike_id": "9edd2f16affe2dcf201d381062161322", "type": "electric_bike", "is_disabled": 0, "fusion_lon": 0.0}, {"rental_uris": {"android": "https://dc.lft.to/lastmile_qr_scan", "ios": "https://dc.lft.to/lastmile_qr_scan"}, "lon": -76.98565633333334, "name": "ed441e789800bd35aec8d1a9c22c70ed", "lat": 38.8668285, "is_reserved": 0, "fusion_lat": 0.0, "bike_id": "ed441e789800bd35aec8d1a9c22c70ed", "type": "electric_scooter", "is_disabled": 0, "fusion_lon": 0.0}, {"rental_uris": {"android": "https://dc.lft.to/lastmile_qr_scan", "ios": "https://dc.lft.to/lastmile_qr_scan"}, "lon": -77.00340116666666, "name": "5f5ee636661608643a471f20a9c36aa1", "lat": 38.89922283333333, "is_reserved": 0, "fusion_lat": 0.0, "bike_id": "5f5ee636661608643a471f20a9c36aa1", "type": "electric_scooter", "is_disabled": 0, "fusion_lon": 0.0}, {"rental_uris": {"android": "https://dc.lft.to/lastmile_qr_scan", "ios": "https://dc.lft.to/lastmile_qr_scan"}, "lon": -77.04394166666667, "name": "27708f3b2fd25be948485b93ee312f71", "lat": 38.923551833333335, "is_reserved": 0, "fusion_lat": 0.0, "bike_id": "27708f3b2fd25be948485b93ee312f71", "type": "electric_scooter", "is_disabled": 0, "fusion_lon": 0.0}, {"rental_uris": {"android": "https://dc.lft.to/lastmile_qr_scan", "ios": "https://dc.lft.to/lastmile_qr_scan"}, "lon": -77.04038333333334, "name": "3ab247ab00c30a1862c14d346f6156c0", "lat": 38.91792, "is_reserved": 0, "fusion_lat": 0.0, "bike_id": "3ab247ab00c30a1862c14d346f6156c0", "type": "electric_scooter", "is_disabled": 0, "fusion_lon": 0.0}, {"rental_uris": {"android": "https://dc.lft.to/lastmile_qr_scan", "ios": "https://dc.lft.to/lastmile_qr_scan"}, "lon": -77.0316925, "name": "3906442a48fcfe561f6f3354ebeca4ff", "lat": 38.920897, "is_reserved": 0, "fusion_lat": 0.0, "bike_id": "3906442a48fcfe561f6f3354ebeca4ff", "type": "electric_scooter", "is_disabled": 0, "fusion_lon": 0.0}, {"rental_uris": {"android": "https://dc.lft.to/lastmile_qr_scan", "ios": "https://dc.lft.to/lastmile_qr_scan"}, "lon": -77.04399483333333, "name": "77364b0b59c008be47e5d415637ae32c", "lat": 38.9002745, "is_reserved": 0, "fusion_lat": 0.0, "bike_id": "77364b0b59c008be47e5d415637ae32c", "type": "electric_scooter", "is_disabled": 0, "fusion_lon": 0.0}, {"rental_uris": {"android": "https://dc.lft.to/lastmile_qr_scan", "ios": "https://dc.lft.to/lastmile_qr_scan"}, "lon": -77.02946733333333, "name": "72c48d1361dc32d657dbbfd961e7ab18", "lat": 38.90503366666667, "is_reserved": 0, "fusion_lat": 0.0, "bike_id": "72c48d1361dc32d657dbbfd961e7ab18", "type": "electric_scooter", "is_disabled": 0, "fusion_lon": 0.0}, {"rental_uris": {"android": "https://dc.lft.to/lastmile_qr_scan", "ios": "https://dc.lft.to/lastmile_qr_scan"}, "lon": -76.97051433333333, "name": "9dbbfed9bfb89bfb1eb7fb78edfaf7aa", "lat": 38.958756, "is_reserved": 0, "fusion_lat": 0.0, "bike_id": "9dbbfed9bfb89bfb1eb7fb78edfaf7aa", "type": "electric_bike", "is_disabled": 0, "fusion_lon": 0.0}, {"rental_uris": {"android": "https://dc.lft.to/lastmile_qr_scan", "ios": "https://dc.lft.to/lastmile_qr_scan"}, "lon": -77.01376433333333, "name": "e7e1bfad0f3d2a0eb0ed77968353e09b", "lat": 38.879039166666665, "is_reserved": 0, "fusion_lat": 0.0, "bike_id": "e7e1bfad0f3d2a0eb0ed77968353e09b", "type": "electric_scooter", "is_disabled": 0, "fusion_lon": 0.0}, {"rental_uris": {"android": "https://dc.lft.to/lastmile_qr_scan", "ios": "https://dc.lft.to/lastmile_qr_scan"}, "lon": -77.04005333333333, "name": "0d792a13260bf315848357e52f18056e", "lat": 38.93425233333333, "is_reserved": 0, "fusion_lat": 0.0, "bike_id": "0d792a13260bf315848357e52f18056e", "type": "electric_scooter", "is_disabled": 0, "fusion_lon": 0.0}, {"rental_uris": {"android": "https://dc.lft.to/lastmile_qr_scan", "ios": "https://dc.lft.to/lastmile_qr_scan"}, "lon": -77.0367915, "name": "e33675c5987a8b0db14a94161b31f197", "lat": 38.92155783333333, "is_reserved": 0, "fusion_lat": 0.0, "bike_id": "e33675c5987a8b0db14a94161b31f197", "type": "electric_scooter", "is_disabled": 0, "fusion_lon": 0.0}, {"rental_uris": {"android": "https://dc.lft.to/lastmile_qr_scan", "ios": "https://dc.lft.to/lastmile_qr_scan"}, "lon": -77.0451935, "name": "bea831857bae24942790ad8d274780fc", "lat": 38.89606283333333, "is_reserved": 0, "fusion_lat": 0.0, "bike_id": "bea831857bae24942790ad8d274780fc", "type": "electric_scooter", "is_disabled": 0, "fusion_lon": 0.0}, {"rental_uris": {"android": "https://dc.lft.to/lastmile_qr_scan", "ios": "https://dc.lft.to/lastmile_qr_scan"}, "lon": -77.03843716666667, "name": "6e8459b1bf36c65fc1fb8bbaa34cbe86", "lat": 38.902704, "is_reserved": 0, "fusion_lat": 0.0, "bike_id": "6e8459b1bf36c65fc1fb8bbaa34cbe86", "type": "electric_scooter", "is_disabled": 0, "fusion_lon": 0.0}, {"rental_uris": {"android": "https://dc.lft.to/lastmile_qr_scan", "ios": "https://dc.lft.to/lastmile_qr_scan"}, "lon": -77.032352, "name": "2162756423107ee20734f082c93fffb6", "lat": 38.926894833333336, "is_reserved": 0, "fusion_lat": 0.0, "bike_id": "2162756423107ee20734f082c93fffb6", "type": "electric_scooter", "is_disabled": 0, "fusion_lon": 0.0}, {"rental_uris": {"android": "https://dc.lft.to/lastmile_qr_scan", "ios": "https://dc.lft.to/lastmile_qr_scan"}, "lon": -77.02225583333333, "name": "9ec8dd99933d65fb9edb2bdcf3257892", "lat": 38.91271283333333, "is_reserved": 0, "fusion_lat": 0.0, "bike_id": "9ec8dd99933d65fb9edb2bdcf3257892", "type": "electric_scooter", "is_disabled": 0, "fusion_lon": 0.0}, {"rental_uris": {"android": "https://dc.lft.to/lastmile_qr_scan", "ios": "https://dc.lft.to/lastmile_qr_scan"}, "lon": -77.04020733333333, "name": "d4977ede95ae8e808be85af8a73e2bd4", "lat": 38.90323133333333, "is_reserved": 0, "fusion_lat": 0.0, "bike_id": "d4977ede95ae8e808be85af8a73e2bd4", "type": "electric_scooter", "is_disabled": 0, "fusion_lon": 0.0}, {"rental_uris": {"android": "https://dc.lft.to/lastmile_qr_scan", "ios": "https://dc.lft.to/lastmile_qr_scan"}, "lon": -77.0207255, "name": "288be7d27e3b12a69bfb62dcd18b2d28", "lat": 38.9209995, "is_reserved": 0, "fusion_lat": 0.0, "bike_id": "288be7d27e3b12a69bfb62dcd18b2d28", "type": "electric_scooter", "is_disabled": 0, "fusion_lon": 0.0}, {"rental_uris": {"android": "https://dc.lft.to/lastmile_qr_scan", "ios": "https://dc.lft.to/lastmile_qr_scan"}, "lon": -77.034476, "name": "64c16b11a7c4aac801c2233ce0909e79", "lat": 38.909496833333336, "is_reserved": 0, "fusion_lat": 0.0, "bike_id": "64c16b11a7c4aac801c2233ce0909e79", "type": "electric_scooter", "is_disabled": 0, "fusion_lon": 0.0}, {"rental_uris": {"android": "https://dc.lft.to/lastmile_qr_scan", "ios": "https://dc.lft.to/lastmile_qr_scan"}, "lon": -77.050322, "name": "53eb4212ce2507c96f8f4769c7be7d34", "lat": 38.92365983333333, "is_reserved": 0, "fusion_lat": 0.0, "bike_id": "53eb4212ce2507c96f8f4769c7be7d34", "type": "electric_scooter", "is_disabled": 0, "fusion_lon": 0.0}, {"rental_uris": {"android": "https://dc.lft.to/lastmile_qr_scan", "ios": "https://dc.lft.to/lastmile_qr_scan"}, "lon": -77.0575935, "name": "839bba816cbbc6750e3074c7d51f18e4", "lat": 38.924225, "is_reserved": 0, "fusion_lat": 0.0, "bike_id": "839bba816cbbc6750e3074c7d51f18e4", "type": "electric_scooter", "is_disabled": 0, "fusion_lon": 0.0}, {"rental_uris": {"android": "https://dc.lft.to/lastmile_qr_scan", "ios": "https://dc.lft.to/lastmile_qr_scan"}, "lon": -77.022137, "name": "dbedec95dc2e09403e5c830ecbc6bf7b", "lat": 38.9057215, "is_reserved": 0, "fusion_lat": 0.0, "bike_id": "dbedec95dc2e09403e5c830ecbc6bf7b", "type": "electric_scooter", "is_disabled": 0, "fusion_lon": 0.0}, {"rental_uris": {"android": "https://dc.lft.to/lastmile_qr_scan", "ios": "https://dc.lft.to/lastmile_qr_scan"}, "lon": -77.01855316666666, "name": "ddf6c53fbb8540ee7c6cdbc070c084b1", "lat": 38.973663, "is_reserved": 0, "fusion_lat": 0.0, "bike_id": "ddf6c53fbb8540ee7c6cdbc070c084b1", "type": "electric_scooter", "is_disabled": 0, "fusion_lon": 0.0}, {"rental_uris": {"android": "https://dc.lft.to/lastmile_qr_scan", "ios": "https://dc.lft.to/lastmile_qr_scan"}, "lon": -77.026103, "name": "c1ccc25e153e514be7a35ccaf6424b98", "lat": 38.896472333333335, "is_reserved": 0, "fusion_lat": 0.0, "bike_id": "c1ccc25e153e514be7a35ccaf6424b98", "type": "electric_scooter", "is_disabled": 0, "fusion_lon": 0.0}, {"rental_uris": {"android": "https://dc.lft.to/lastmile_qr_scan", "ios": "https://dc.lft.to/lastmile_qr_scan"}, "lon": -77.02704733333333, "name": "da74316b8d9cc226f49227c0ff5c534e", "lat": 38.90675566666667, "is_reserved": 0, "fusion_lat": 0.0, "bike_id": "da74316b8d9cc226f49227c0ff5c534e", "type": "electric_scooter", "is_disabled": 0, "fusion_lon": 0.0}, {"rental_uris": {"android": "https://dc.lft.to/lastmile_qr_scan", "ios": "https://dc.lft.to/lastmile_qr_scan"}, "lon": -77.03635333333334, "name": "bf3df31b485b153b153073d8dc008bd8", "lat": 38.9274175, "is_reserved": 0, "fusion_lat": 0.0, "bike_id": "bf3df31b485b153b153073d8dc008bd8", "type": "electric_scooter", "is_disabled": 0, "fusion_lon": 0.0}, {"rental_uris": {"android": "https://dc.lft.to/lastmile_qr_scan", "ios": "https://dc.lft.to/lastmile_qr_scan"}, "lon": -77.0168105, "name": "3241b616992cf97e18405a31c0dcd326", "lat": 38.901247, "is_reserved": 0, "fusion_lat": 0.0, "bike_id": "3241b616992cf97e18405a31c0dcd326", "type": "electric_scooter", "is_disabled": 0, "fusion_lon": 0.0}, {"rental_uris": {"android": "https://dc.lft.to/lastmile_qr_scan", "ios": "https://dc.lft.to/lastmile_qr_scan"}, "lon": -77.01155383333334, "name": "d9b7a01f87e2c445228f16ad6a6695de", "lat": 38.92027133333333, "is_reserved": 0, "fusion_lat": 0.0, "bike_id": "d9b7a01f87e2c445228f16ad6a6695de", "type": "electric_scooter", "is_disabled": 0, "fusion_lon": 0.0}, {"rental_uris": {"android": "https://dc.lft.to/lastmile_qr_scan", "ios": "https://dc.lft.to/lastmile_qr_scan"}, "lon": -77.02687116666667, "name": "6e1cac580f7dd4047e4a6c49819d5c62", "lat": 38.902368, "is_reserved": 0, "fusion_lat": 0.0, "bike_id": "6e1cac580f7dd4047e4a6c49819d5c62", "type": "electric_scooter", "is_disabled": 0, "fusion_lon": 0.0}, {"rental_uris": {"android": "https://dc.lft.to/lastmile_qr_scan", "ios": "https://dc.lft.to/lastmile_qr_scan"}, "lon": -76.99003383333333, "name": "58fd8bc091943cc3bae091e0f8ff7d08", "lat": 38.86504566666667, "is_reserved": 0, "fusion_lat": 0.0, "bike_id": "58fd8bc091943cc3bae091e0f8ff7d08", "type": "electric_scooter", "is_disabled": 0, "fusion_lon": 0.0}, {"rental_uris": {"android": "https://dc.lft.to/lastmile_qr_scan", "ios": "https://dc.lft.to/lastmile_qr_scan"}, "lon": -77.0487935, "name": "62936fe081364fd83ed6b0f1d0f60622", "lat": 38.913079833333335, "is_reserved": 0, "fusion_lat": 0.0, "bike_id": "62936fe081364fd83ed6b0f1d0f60622", "type": "electric_scooter", "is_disabled": 0, "fusion_lon": 0.0}, {"rental_uris": {"android": "https://dc.lft.to/lastmile_qr_scan", "ios": "https://dc.lft.to/lastmile_qr_scan"}, "lon": -77.01558033333333, "name": "73f726f3b63335dc43f45d7ab6c13cb2", "lat": 38.91407566666667, "is_reserved": 0, "fusion_lat": 0.0, "bike_id": "73f726f3b63335dc43f45d7ab6c13cb2", "type": "electric_scooter", "is_disabled": 0, "fusion_lon": 0.0}, {"rental_uris": {"android": "https://dc.lft.to/lastmile_qr_scan", "ios": "https://dc.lft.to/lastmile_qr_scan"}, "lon": -77.03280366666667, "name": "c7d335e3072a2c5f37acd2fd36bcd69a", "lat": 38.89890833333333, "is_reserved": 0, "fusion_lat": 0.0, "bike_id": "c7d335e3072a2c5f37acd2fd36bcd69a", "type": "electric_scooter", "is_disabled": 0, "fusion_lon": 0.0}, {"rental_uris": {"android": "https://dc.lft.to/lastmile_qr_scan", "ios": "https://dc.lft.to/lastmile_qr_scan"}, "lon": -76.99840333333333, "name": "a1660468af09ee29fc3fb9e8d0674327", "lat": 38.90236483333333, "is_reserved": 0, "fusion_lat": 0.0, "bike_id": "a1660468af09ee29fc3fb9e8d0674327", "type": "electric_scooter", "is_disabled": 0, "fusion_lon": 0.0}, {"rental_uris": {"android": "https://dc.lft.to/lastmile_qr_scan", "ios": "https://dc.lft.to/lastmile_qr_scan"}, "lon": -77.07599533333334, "name": "11fde3493a58210e1143670e25d28346", "lat": 38.94106266666667, "is_reserved": 0, "fusion_lat": 0.0, "bike_id": "11fde3493a58210e1143670e25d28346", "type": "electric_scooter", "is_disabled": 0, "fusion_lon": 0.0}, {"rental_uris": {"android": "https://dc.lft.to/lastmile_qr_scan", "ios": "https://dc.lft.to/lastmile_qr_scan"}, "lon": -77.046697, "name": "2877d8c78a9a954fed96531b829f81bb", "lat": 38.907794, "is_reserved": 0, "fusion_lat": 0.0, "bike_id": "2877d8c78a9a954fed96531b829f81bb", "type": "electric_scooter", "is_disabled": 0, "fusion_lon": 0.0}, {"rental_uris": {"android": "https://dc.lft.to/lastmile_qr_scan", "ios": "https://dc.lft.to/lastmile_qr_scan"}, "lon": -77.03754433333333, "name": "228ea86314c9dd4fec55b6555ca9f125", "lat": 38.9076945, "is_reserved": 0, "fusion_lat": 0.0, "bike_id": "228ea86314c9dd4fec55b6555ca9f125", "type": "electric_scooter", "is_disabled": 0, "fusion_lon": 0.0}, {"rental_uris": {"android": "https://dc.lft.to/lastmile_qr_scan", "ios": "https://dc.lft.to/lastmile_qr_scan"}, "lon": -77.03958666666666, "name": "8b5b05cf8894cf93cc7df55dba0bea21", "lat": 38.92605966666667, "is_reserved": 0, "fusion_lat": 0.0, "bike_id": "8b5b05cf8894cf93cc7df55dba0bea21", "type": "electric_scooter", "is_disabled": 0, "fusion_lon": 0.0}, {"rental_uris": {"android": "https://dc.lft.to/lastmile_qr_scan", "ios": "https://dc.lft.to/lastmile_qr_scan"}, "lon": -76.98825616666667, "name": "da284049c1ccfb9a766d048cbc91325f", "lat": 38.890802666666666, "is_reserved": 0, "fusion_lat": 0.0, "bike_id": "da284049c1ccfb9a766d048cbc91325f", "type": "electric_scooter", "is_disabled": 0, "fusion_lon": 0.0}, {"rental_uris": {"android": "https://dc.lft.to/lastmile_qr_scan", "ios": "https://dc.lft.to/lastmile_qr_scan"}, "lon": -77.04297016666666, "name": "b7a56eb970b506f93ff290d4a3fe5dff", "lat": 38.931797, "is_reserved": 0, "fusion_lat": 0.0, "bike_id": "b7a56eb970b506f93ff290d4a3fe5dff", "type": "electric_scooter", "is_disabled": 0, "fusion_lon": 0.0}, {"rental_uris": {"android": "https://dc.lft.to/lastmile_qr_scan", "ios": "https://dc.lft.to/lastmile_qr_scan"}, "lon": -76.9822845, "name": "37d164455bdf7b8b82517895034d32c9", "lat": 38.90197283333333, "is_reserved": 0, "fusion_lat": 0.0, "bike_id": "37d164455bdf7b8b82517895034d32c9", "type": "electric_scooter", "is_disabled": 0, "fusion_lon": 0.0}, {"rental_uris": {"android": "https://dc.lft.to/lastmile_qr_scan", "ios": "https://dc.lft.to/lastmile_qr_scan"}, "lon": -77.01544866666667, "name": "b891a7e35ebb43f34c4d2842cbd61440", "lat": 38.94126383333333, "is_reserved": 0, "fusion_lat": 0.0, "bike_id": "b891a7e35ebb43f34c4d2842cbd61440", "type": "electric_scooter", "is_disabled": 0, "fusion_lon": 0.0}, {"rental_uris": {"android": "https://dc.lft.to/lastmile_qr_scan", "ios": "https://dc.lft.to/lastmile_qr_scan"}, "lon": -77.023862, "name": "70b65c3f4e585ca2fe00fa88f81b03b6", "lat": 38.911433, "is_reserved": 0, "fusion_lat": 0.0, "bike_id": "70b65c3f4e585ca2fe00fa88f81b03b6", "type": "electric_scooter", "is_disabled": 0, "fusion_lon": 0.0}, {"rental_uris": {"android": "https://dc.lft.to/lastmile_qr_scan", "ios": "https://dc.lft.to/lastmile_qr_scan"}, "lon": -76.95099616666667, "name": "7d7eb67c7ceefcb556a8b475c006cd16", "lat": 38.88453233333333, "is_reserved": 0, "fusion_lat": 0.0, "bike_id": "7d7eb67c7ceefcb556a8b475c006cd16", "type": "electric_scooter", "is_disabled": 0, "fusion_lon": 0.0}, {"rental_uris": {"android": "https://dc.lft.to/lastmile_qr_scan", "ios": "https://dc.lft.to/lastmile_qr_scan"}, "lon": -77.02795033333334, "name": "1d41b45f335f8121a04f76d5a1c370ec", "lat": 38.9603855, "is_reserved": 0, "fusion_lat": 0.0, "bike_id": "1d41b45f335f8121a04f76d5a1c370ec", "type": "electric_scooter", "is_disabled": 0, "fusion_lon": 0.0}, {"rental_uris": {"android": "https://dc.lft.to/lastmile_qr_scan", "ios": "https://dc.lft.to/lastmile_qr_scan"}, "lon": -77.0186315, "name": "2039d719bf94217b769ef72263c87763", "lat": 38.89654433333333, "is_reserved": 0, "fusion_lat": 0.0, "bike_id": "2039d719bf94217b769ef72263c87763", "type": "electric_scooter", "is_disabled": 0, "fusion_lon": 0.0}, {"rental_uris": {"android": "https://dc.lft.to/lastmile_qr_scan", "ios": "https://dc.lft.to/lastmile_qr_scan"}, "lon": -77.02157716666666, "name": "08218854137d28954f24f27bd417cbb5", "lat": 38.924612333333336, "is_reserved": 0, "fusion_lat": 0.0, "bike_id": "08218854137d28954f24f27bd417cbb5", "type": "electric_scooter", "is_disabled": 0, "fusion_lon": 0.0}, {"rental_uris": {"android": "https://dc.lft.to/lastmile_qr_scan", "ios": "https://dc.lft.to/lastmile_qr_scan"}, "lon": -76.94655, "name": "48be0aa8ad7959a5fbad0fda408be4d0", "lat": 38.89826566666667, "is_reserved": 0, "fusion_lat": 0.0, "bike_id": "48be0aa8ad7959a5fbad0fda408be4d0", "type": "electric_scooter", "is_disabled": 0, "fusion_lon": 0.0}, {"rental_uris": {"android": "https://dc.lft.to/lastmile_qr_scan", "ios": "https://dc.lft.to/lastmile_qr_scan"}, "lon": -77.008717, "name": "8a8bce5786ce782f5105f819ebbe7ac3", "lat": 38.96460066666667, "is_reserved": 0, "fusion_lat": 0.0, "bike_id": "8a8bce5786ce782f5105f819ebbe7ac3", "type": "electric_bike", "is_disabled": 0, "fusion_lon": 0.0}, {"rental_uris": {"android": "https://dc.lft.to/lastmile_qr_scan", "ios": "https://dc.lft.to/lastmile_qr_scan"}, "lon": -77.01998666666667, "name": "a3c3b6571343768ca517391ab1b176ec", "lat": 38.9136295, "is_reserved": 0, "fusion_lat": 0.0, "bike_id": "a3c3b6571343768ca517391ab1b176ec", "type": "electric_scooter", "is_disabled": 0, "fusion_lon": 0.0}, {"rental_uris": {"android": "https://dc.lft.to/lastmile_qr_scan", "ios": "https://dc.lft.to/lastmile_qr_scan"}, "lon": -77.0326435, "name": "24259b2d0185944f3e4408338339357a", "lat": 38.928050999999996, "is_reserved": 0, "fusion_lat": 0.0, "bike_id": "24259b2d0185944f3e4408338339357a", "type": "electric_scooter", "is_disabled": 0, "fusion_lon": 0.0}, {"rental_uris": {"android": "https://dc.lft.to/lastmile_qr_scan", "ios": "https://dc.lft.to/lastmile_qr_scan"}, "lon": -77.02830883333333, "name": "e3ffb7a1b30eec56967bb488e11c6cc3", "lat": 38.93193516666667, "is_reserved": 0, "fusion_lat": 0.0, "bike_id": "e3ffb7a1b30eec56967bb488e11c6cc3", "type": "electric_scooter", "is_disabled": 0, "fusion_lon": 0.0}, {"rental_uris": {"android": "https://dc.lft.to/lastmile_qr_scan", "ios": "https://dc.lft.to/lastmile_qr_scan"}, "lon": -76.9575445, "name": "f8b0c8846ae7bf2c2412602a6d9a8e84", "lat": 38.88429216666667, "is_reserved": 0, "fusion_lat": 0.0, "bike_id": "f8b0c8846ae7bf2c2412602a6d9a8e84", "type": "electric_scooter", "is_disabled": 0, "fusion_lon": 0.0}, {"rental_uris": {"android": "https://dc.lft.to/lastmile_qr_scan", "ios": "https://dc.lft.to/lastmile_qr_scan"}, "lon": -77.03544566666666, "name": "954548d2013f782c586ca974daa78299", "lat": 38.924716, "is_reserved": 0, "fusion_lat": 0.0, "bike_id": "954548d2013f782c586ca974daa78299", "type": "electric_scooter", "is_disabled": 0, "fusion_lon": 0.0}, {"rental_uris": {"android": "https://dc.lft.to/lastmile_qr_scan", "ios": "https://dc.lft.to/lastmile_qr_scan"}, "lon": -77.031848, "name": "4e70625c87f566832685b7ab963beee4", "lat": 38.909772, "is_reserved": 0, "fusion_lat": 0.0, "bike_id": "4e70625c87f566832685b7ab963beee4", "type": "electric_scooter", "is_disabled": 0, "fusion_lon": 0.0}, {"rental_uris": {"android": "https://dc.lft.to/lastmile_qr_scan", "ios": "https://dc.lft.to/lastmile_qr_scan"}, "lon": -77.02473466666666, "name": "26cd853ecad12f11a8a8e3588b26f017", "lat": 38.93098166666667, "is_reserved": 0, "fusion_lat": 0.0, "bike_id": "26cd853ecad12f11a8a8e3588b26f017", "type": "electric_scooter", "is_disabled": 0, "fusion_lon": 0.0}, {"rental_uris": {"android": "https://dc.lft.to/lastmile_qr_scan", "ios": "https://dc.lft.to/lastmile_qr_scan"}, "lon": -77.019505, "name": "799b8458daa618dbc9c7583519d1222a", "lat": 38.90233083333333, "is_reserved": 0, "fusion_lat": 0.0, "bike_id": "799b8458daa618dbc9c7583519d1222a", "type": "electric_scooter", "is_disabled": 0, "fusion_lon": 0.0}, {"rental_uris": {"android": "https://dc.lft.to/lastmile_qr_scan", "ios": "https://dc.lft.to/lastmile_qr_scan"}, "lon": -77.02562516666667, "name": "3e6f917bf15f654bccdd3e1055f0b8eb", "lat": 38.9239755, "is_reserved": 0, "fusion_lat": 0.0, "bike_id": "3e6f917bf15f654bccdd3e1055f0b8eb", "type": "electric_scooter", "is_disabled": 0, "fusion_lon": 0.0}, {"rental_uris": {"android": "https://dc.lft.to/lastmile_qr_scan", "ios": "https://dc.lft.to/lastmile_qr_scan"}, "lon": -77.00582966666667, "name": "56fb4bc6c7b3cfce479cb3ebe5edecab", "lat": 38.929378666666665, "is_reserved": 0, "fusion_lat": 0.0, "bike_id": "56fb4bc6c7b3cfce479cb3ebe5edecab", "type": "electric_scooter", "is_disabled": 0, "fusion_lon": 0.0}, {"rental_uris": {"android": "https://dc.lft.to/lastmile_qr_scan", "ios": "https://dc.lft.to/lastmile_qr_scan"}, "lon": -77.02133933333333, "name": "992b3d2c933ad458a6eb35249a310714", "lat": 38.9230945, "is_reserved": 0, "fusion_lat": 0.0, "bike_id": "992b3d2c933ad458a6eb35249a310714", "type": "electric_scooter", "is_disabled": 0, "fusion_lon": 0.0}, {"rental_uris": {"android": "https://dc.lft.to/lastmile_qr_scan", "ios": "https://dc.lft.to/lastmile_qr_scan"}, "lon": -77.04417316666667, "name": "6fb38dba3998492fe36041b4dc0657d3", "lat": 38.9258735, "is_reserved": 0, "fusion_lat": 0.0, "bike_id": "6fb38dba3998492fe36041b4dc0657d3", "type": "electric_scooter", "is_disabled": 0, "fusion_lon": 0.0}, {"rental_uris": {"android": "https://dc.lft.to/lastmile_qr_scan", "ios": "https://dc.lft.to/lastmile_qr_scan"}, "lon": -76.99845666666667, "name": "d4445faf857860cf347de29baa22a0a8", "lat": 38.884569, "is_reserved": 0, "fusion_lat": 0.0, "bike_id": "d4445faf857860cf347de29baa22a0a8", "type": "electric_scooter", "is_disabled": 0, "fusion_lon": 0.0}, {"rental_uris": {"android": "https://dc.lft.to/lastmile_qr_scan", "ios": "https://dc.lft.to/lastmile_qr_scan"}, "lon": -77.043759, "name": "afd55c249b58262797c03e231aa81cdb", "lat": 38.892271666666666, "is_reserved": 0, "fusion_lat": 0.0, "bike_id": "afd55c249b58262797c03e231aa81cdb", "type": "electric_scooter", "is_disabled": 0, "fusion_lon": 0.0}, {"rental_uris": {"android": "https://dc.lft.to/lastmile_qr_scan", "ios": "https://dc.lft.to/lastmile_qr_scan"}, "lon": -77.0513005, "name": "eb05d573655747d2623a7f1847616363", "lat": 38.9251825, "is_reserved": 0, "fusion_lat": 0.0, "bike_id": "eb05d573655747d2623a7f1847616363", "type": "electric_scooter", "is_disabled": 0, "fusion_lon": 0.0}, {"rental_uris": {"android": "https://dc.lft.to/lastmile_qr_scan", "ios": "https://dc.lft.to/lastmile_qr_scan"}, "lon": -77.02585733333333, "name": "768ee9a8b741948d6482a6e004720d4c", "lat": 38.94308566666667, "is_reserved": 0, "fusion_lat": 0.0, "bike_id": "768ee9a8b741948d6482a6e004720d4c", "type": "electric_scooter", "is_disabled": 0, "fusion_lon": 0.0}, {"rental_uris": {"android": "https://dc.lft.to/lastmile_qr_scan", "ios": "https://dc.lft.to/lastmile_qr_scan"}, "lon": -77.0390205, "name": "4ee011201895df0141444242fb83ba21", "lat": 38.9014165, "is_reserved": 0, "fusion_lat": 0.0, "bike_id": "4ee011201895df0141444242fb83ba21", "type": "electric_scooter", "is_disabled": 0, "fusion_lon": 0.0}, {"rental_uris": {"android": "https://dc.lft.to/lastmile_qr_scan", "ios": "https://dc.lft.to/lastmile_qr_scan"}, "lon": -76.94637066666667, "name": "ec45452672b98a3a46a4fa48055292c0", "lat": 38.89867433333333, "is_reserved": 0, "fusion_lat": 0.0, "bike_id": "ec45452672b98a3a46a4fa48055292c0", "type": "electric_scooter", "is_disabled": 0, "fusion_lon": 0.0}, {"rental_uris": {"android": "https://dc.lft.to/lastmile_qr_scan", "ios": "https://dc.lft.to/lastmile_qr_scan"}, "lon": -77.03178466666667, "name": "d26d7d22097e9a91893280ea560a203c", "lat": 38.91758766666667, "is_reserved": 0, "fusion_lat": 0.0, "bike_id": "d26d7d22097e9a91893280ea560a203c", "type": "electric_scooter", "is_disabled": 0, "fusion_lon": 0.0}, {"rental_uris": {"android": "https://dc.lft.to/lastmile_qr_scan", "ios": "https://dc.lft.to/lastmile_qr_scan"}, "lon": -77.0344785, "name": "b7f4d646101a66184737ae0a08266b19", "lat": 38.909476, "is_reserved": 0, "fusion_lat": 0.0, "bike_id": "b7f4d646101a66184737ae0a08266b19", "type": "electric_scooter", "is_disabled": 0, "fusion_lon": 0.0}, {"rental_uris": {"android": "https://dc.lft.to/lastmile_qr_scan", "ios": "https://dc.lft.to/lastmile_qr_scan"}, "lon": -76.98653583333333, "name": "f59a59dcb115445c751ac65d7826ce6f", "lat": 38.85806733333333, "is_reserved": 0, "fusion_lat": 0.0, "bike_id": "f59a59dcb115445c751ac65d7826ce6f", "type": "electric_scooter", "is_disabled": 0, "fusion_lon": 0.0}, {"rental_uris": {"android": "https://dc.lft.to/lastmile_qr_scan", "ios": "https://dc.lft.to/lastmile_qr_scan"}, "lon": -77.07887, "name": "8deaafde2da4db2987e5dc4dc70c3184", "lat": 38.842537, "is_reserved": 0, "fusion_lat": 0.0, "bike_id": "8deaafde2da4db2987e5dc4dc70c3184", "type": "electric_bike", "is_disabled": 0, "fusion_lon": 0.0}, {"rental_uris": {"android": "https://dc.lft.to/lastmile_qr_scan", "ios": "https://dc.lft.to/lastmile_qr_scan"}, "lon": -77.04276233333333, "name": "bc389a0e8e7445e6e821beaf2e294a9c", "lat": 38.907453333333336, "is_reserved": 0, "fusion_lat": 0.0, "bike_id": "bc389a0e8e7445e6e821beaf2e294a9c", "type": "electric_scooter", "is_disabled": 0, "fusion_lon": 0.0}, {"rental_uris": {"android": "https://dc.lft.to/lastmile_qr_scan", "ios": "https://dc.lft.to/lastmile_qr_scan"}, "lon": -77.02214166666667, "name": "975d4d49bb3d3ed08de00ed16c1e40ca", "lat": 38.91268183333333, "is_reserved": 0, "fusion_lat": 0.0, "bike_id": "975d4d49bb3d3ed08de00ed16c1e40ca", "type": "electric_scooter", "is_disabled": 0, "fusion_lon": 0.0}, {"rental_uris": {"android": "https://dc.lft.to/lastmile_qr_scan", "ios": "https://dc.lft.to/lastmile_qr_scan"}, "lon": -77.017686, "name": "5cdc33fe8a0f1fd27025a5ef8f1098f5", "lat": 38.877188833333335, "is_reserved": 0, "fusion_lat": 0.0, "bike_id": "5cdc33fe8a0f1fd27025a5ef8f1098f5", "type": "electric_scooter", "is_disabled": 0, "fusion_lon": 0.0}, {"rental_uris": {"android": "https://dc.lft.to/lastmile_qr_scan", "ios": "https://dc.lft.to/lastmile_qr_scan"}, "lon": -77.04129566666667, "name": "88ef28761811c9055a508e2c6730178b", "lat": 38.900389, "is_reserved": 0, "fusion_lat": 0.0, "bike_id": "88ef28761811c9055a508e2c6730178b", "type": "electric_scooter", "is_disabled": 0, "fusion_lon": 0.0}, {"rental_uris": {"android": "https://dc.lft.to/lastmile_qr_scan", "ios": "https://dc.lft.to/lastmile_qr_scan"}, "lon": -77.02690766666667, "name": "911ac9ae90689d1afdfad8f86f44b508", "lat": 38.90950183333333, "is_reserved": 0, "fusion_lat": 0.0, "bike_id": "911ac9ae90689d1afdfad8f86f44b508", "type": "electric_scooter", "is_disabled": 0, "fusion_lon": 0.0}, {"rental_uris": {"android": "https://dc.lft.to/lastmile_qr_scan", "ios": "https://dc.lft.to/lastmile_qr_scan"}, "lon": -77.029835, "name": "d2ac18a677cf7306d2fcce054e8783b9", "lat": 38.946073, "is_reserved": 0, "fusion_lat": 0.0, "bike_id": "d2ac18a677cf7306d2fcce054e8783b9", "type": "electric_scooter", "is_disabled": 0, "fusion_lon": 0.0}, {"rental_uris": {"android": "https://dc.lft.to/lastmile_qr_scan", "ios": "https://dc.lft.to/lastmile_qr_scan"}, "lon": -77.03483183333333, "name": "bee53a966f778569ed232afb529c137e", "lat": 38.90965383333333, "is_reserved": 0, "fusion_lat": 0.0, "bike_id": "bee53a966f778569ed232afb529c137e", "type": "electric_scooter", "is_disabled": 0, "fusion_lon": 0.0}, {"rental_uris": {"android": "https://dc.lft.to/lastmile_qr_scan", "ios": "https://dc.lft.to/lastmile_qr_scan"}, "lon": -77.00414766666667, "name": "611c2fcd8056c7e7c693bc8fbe324cb1", "lat": 38.87581216666667, "is_reserved": 0, "fusion_lat": 0.0, "bike_id": "611c2fcd8056c7e7c693bc8fbe324cb1", "type": "electric_scooter", "is_disabled": 0, "fusion_lon": 0.0}, {"rental_uris": {"android": "https://dc.lft.to/lastmile_qr_scan", "ios": "https://dc.lft.to/lastmile_qr_scan"}, "lon": -77.014171, "name": "ef12c2c87e38ea060cb094dd7daea4b5", "lat": 38.906492, "is_reserved": 0, "fusion_lat": 0.0, "bike_id": "ef12c2c87e38ea060cb094dd7daea4b5", "type": "electric_scooter", "is_disabled": 0, "fusion_lon": 0.0}, {"rental_uris": {"android": "https://dc.lft.to/lastmile_qr_scan", "ios": "https://dc.lft.to/lastmile_qr_scan"}, "lon": -76.98007333333334, "name": "c0b87c6c4d13dff3dfa1825199316619", "lat": 38.864317, "is_reserved": 0, "fusion_lat": 0.0, "bike_id": "c0b87c6c4d13dff3dfa1825199316619", "type": "electric_scooter", "is_disabled": 0, "fusion_lon": 0.0}, {"rental_uris": {"android": "https://dc.lft.to/lastmile_qr_scan", "ios": "https://dc.lft.to/lastmile_qr_scan"}, "lon": -77.02751933333333, "name": "5c2ac80845c8b2bf1f998a6fdfd86e3b", "lat": 38.9439395, "is_reserved": 0, "fusion_lat": 0.0, "bike_id": "5c2ac80845c8b2bf1f998a6fdfd86e3b", "type": "electric_scooter", "is_disabled": 0, "fusion_lon": 0.0}, {"rental_uris": {"android": "https://dc.lft.to/lastmile_qr_scan", "ios": "https://dc.lft.to/lastmile_qr_scan"}, "lon": -77.05137533333334, "name": "416aa610d2f9fafa8ef17abec3230600", "lat": 38.905092, "is_reserved": 0, "fusion_lat": 0.0, "bike_id": "416aa610d2f9fafa8ef17abec3230600", "type": "electric_scooter", "is_disabled": 0, "fusion_lon": 0.0}, {"rental_uris": {"android": "https://dc.lft.to/lastmile_qr_scan", "ios": "https://dc.lft.to/lastmile_qr_scan"}, "lon": -77.04707633333334, "name": "d5cb8dadb719065f6d45835decb8fc7e", "lat": 38.9217335, "is_reserved": 0, "fusion_lat": 0.0, "bike_id": "d5cb8dadb719065f6d45835decb8fc7e", "type": "electric_scooter", "is_disabled": 0, "fusion_lon": 0.0}, {"rental_uris": {"android": "https://dc.lft.to/lastmile_qr_scan", "ios": "https://dc.lft.to/lastmile_qr_scan"}, "lon": -77.02378566666667, "name": "0a489c7b7cf752d63053a32c24b14659", "lat": 38.907262833333334, "is_reserved": 0, "fusion_lat": 0.0, "bike_id": "0a489c7b7cf752d63053a32c24b14659", "type": "electric_scooter", "is_disabled": 0, "fusion_lon": 0.0}, {"rental_uris": {"android": "https://dc.lft.to/lastmile_qr_scan", "ios": "https://dc.lft.to/lastmile_qr_scan"}, "lon": -77.02721516666666, "name": "cfd7d83ed729856a2890994b3a8200f1", "lat": 38.911038833333336, "is_reserved": 0, "fusion_lat": 0.0, "bike_id": "cfd7d83ed729856a2890994b3a8200f1", "type": "electric_scooter", "is_disabled": 0, "fusion_lon": 0.0}, {"rental_uris": {"android": "https://dc.lft.to/lastmile_qr_scan", "ios": "https://dc.lft.to/lastmile_qr_scan"}, "lon": -77.00013516666667, "name": "4ca043901254e4e1042f5a081dd67bb8", "lat": 38.874862666666665, "is_reserved": 0, "fusion_lat": 0.0, "bike_id": "4ca043901254e4e1042f5a081dd67bb8", "type": "electric_scooter", "is_disabled": 0, "fusion_lon": 0.0}, {"rental_uris": {"android": "https://dc.lft.to/lastmile_qr_scan", "ios": "https://dc.lft.to/lastmile_qr_scan"}, "lon": -77.04493466666666, "name": "c0ce8cc0c21fb59fa2b298ff3b48b300", "lat": 38.9127575, "is_reserved": 0, "fusion_lat": 0.0, "bike_id": "c0ce8cc0c21fb59fa2b298ff3b48b300", "type": "electric_scooter", "is_disabled": 0, "fusion_lon": 0.0}, {"rental_uris": {"android": "https://dc.lft.to/lastmile_qr_scan", "ios": "https://dc.lft.to/lastmile_qr_scan"}, "lon": -76.9961245, "name": "062038a46af03e663ed46563ad59eb43", "lat": 38.928474333333334, "is_reserved": 0, "fusion_lat": 0.0, "bike_id": "062038a46af03e663ed46563ad59eb43", "type": "electric_scooter", "is_disabled": 0, "fusion_lon": 0.0}, {"rental_uris": {"android": "https://dc.lft.to/lastmile_qr_scan", "ios": "https://dc.lft.to/lastmile_qr_scan"}, "lon": -77.029554, "name": "b8e5762f8b0181b903514d4fca3c8e62", "lat": 38.92248283333333, "is_reserved": 0, "fusion_lat": 0.0, "bike_id": "b8e5762f8b0181b903514d4fca3c8e62", "type": "electric_scooter", "is_disabled": 0, "fusion_lon": 0.0}, {"rental_uris": {"android": "https://dc.lft.to/lastmile_qr_scan", "ios": "https://dc.lft.to/lastmile_qr_scan"}, "lon": -77.04016966666667, "name": "55fd20852f88335c110d7adc26db9c8b", "lat": 38.8963505, "is_reserved": 0, "fusion_lat": 0.0, "bike_id": "55fd20852f88335c110d7adc26db9c8b", "type": "electric_scooter", "is_disabled": 0, "fusion_lon": 0.0}, {"rental_uris": {"android": "https://dc.lft.to/lastmile_qr_scan", "ios": "https://dc.lft.to/lastmile_qr_scan"}, "lon": -76.99040816666667, "name": "4a027d9d809b0878ea649318f6874dfe", "lat": 38.86389766666667, "is_reserved": 0, "fusion_lat": 0.0, "bike_id": "4a027d9d809b0878ea649318f6874dfe", "type": "electric_scooter", "is_disabled": 0, "fusion_lon": 0.0}, {"rental_uris": {"android": "https://dc.lft.to/lastmile_qr_scan", "ios": "https://dc.lft.to/lastmile_qr_scan"}, "lon": -77.03857816666667, "name": "a0f76da35dd8980920095c4d3d31ebfd", "lat": 38.902758666666664, "is_reserved": 0, "fusion_lat": 0.0, "bike_id": "a0f76da35dd8980920095c4d3d31ebfd", "type": "electric_scooter", "is_disabled": 0, "fusion_lon": 0.0}, {"rental_uris": {"android": "https://dc.lft.to/lastmile_qr_scan", "ios": "https://dc.lft.to/lastmile_qr_scan"}, "lon": -77.00756166666666, "name": "f3c4cf5ba688e8adce57ec6e6c2bffc2", "lat": 38.9978335, "is_reserved": 0, "fusion_lat": 0.0, "bike_id": "f3c4cf5ba688e8adce57ec6e6c2bffc2", "type": "electric_bike", "is_disabled": 0, "fusion_lon": 0.0}, {"rental_uris": {"android": "https://dc.lft.to/lastmile_qr_scan", "ios": "https://dc.lft.to/lastmile_qr_scan"}, "lon": -77.032623, "name": "2334ce17b4999e5f15a8380243e6f1ce", "lat": 38.93882966666666, "is_reserved": 0, "fusion_lat": 0.0, "bike_id": "2334ce17b4999e5f15a8380243e6f1ce", "type": "electric_scooter", "is_disabled": 0, "fusion_lon": 0.0}, {"rental_uris": {"android": "https://dc.lft.to/lastmile_qr_scan", "ios": "https://dc.lft.to/lastmile_qr_scan"}, "lon": -77.02948483333333, "name": "994e15433fb19fef19024bb862ca11d2", "lat": 38.916838, "is_reserved": 0, "fusion_lat": 0.0, "bike_id": "994e15433fb19fef19024bb862ca11d2", "type": "electric_scooter", "is_disabled": 0, "fusion_lon": 0.0}, {"rental_uris": {"android": "https://dc.lft.to/lastmile_qr_scan", "ios": "https://dc.lft.to/lastmile_qr_scan"}, "lon": -77.03636883333333, "name": "4cd7b6864fc83bb9c98f631b98893c7c", "lat": 38.91862866666666, "is_reserved": 0, "fusion_lat": 0.0, "bike_id": "4cd7b6864fc83bb9c98f631b98893c7c", "type": "electric_scooter", "is_disabled": 0, "fusion_lon": 0.0}, {"rental_uris": {"android": "https://dc.lft.to/lastmile_qr_scan", "ios": "https://dc.lft.to/lastmile_qr_scan"}, "lon": -77.01272383333334, "name": "37867a53e75182234efd45fb9bcb2166", "lat": 38.86448633333333, "is_reserved": 0, "fusion_lat": 0.0, "bike_id": "37867a53e75182234efd45fb9bcb2166", "type": "electric_bike", "is_disabled": 0, "fusion_lon": 0.0}, {"rental_uris": {"android": "https://dc.lft.to/lastmile_qr_scan", "ios": "https://dc.lft.to/lastmile_qr_scan"}, "lon": -77.03644233333333, "name": "2cccc5108c8ee1da7c09f4a96adde18c", "lat": 38.916134, "is_reserved": 0, "fusion_lat": 0.0, "bike_id": "2cccc5108c8ee1da7c09f4a96adde18c", "type": "electric_scooter", "is_disabled": 0, "fusion_lon": 0.0}, {"rental_uris": {"android": "https://dc.lft.to/lastmile_qr_scan", "ios": "https://dc.lft.to/lastmile_qr_scan"}, "lon": -77.02157266666667, "name": "3898d5abf55887bede9ff5600533896f", "lat": 38.94133133333333, "is_reserved": 0, "fusion_lat": 0.0, "bike_id": "3898d5abf55887bede9ff5600533896f", "type": "electric_scooter", "is_disabled": 0, "fusion_lon": 0.0}, {"rental_uris": {"android": "https://dc.lft.to/lastmile_qr_scan", "ios": "https://dc.lft.to/lastmile_qr_scan"}, "lon": -77.04341466666666, "name": "a4a341f67eb4f8fd9da31caf76c4fadf", "lat": 38.90872733333333, "is_reserved": 0, "fusion_lat": 0.0, "bike_id": "a4a341f67eb4f8fd9da31caf76c4fadf", "type": "electric_scooter", "is_disabled": 0, "fusion_lon": 0.0}, {"rental_uris": {"android": "https://dc.lft.to/lastmile_qr_scan", "ios": "https://dc.lft.to/lastmile_qr_scan"}, "lon": -77.068447, "name": "da15cd5ab67e3857a76258f4438877f4", "lat": 38.917237, "is_reserved": 0, "fusion_lat": 0.0, "bike_id": "da15cd5ab67e3857a76258f4438877f4", "type": "electric_scooter", "is_disabled": 0, "fusion_lon": 0.0}, {"rental_uris": {"android": "https://dc.lft.to/lastmile_qr_scan", "ios": "https://dc.lft.to/lastmile_qr_scan"}, "lon": -77.02705166666667, "name": "018d3227559c9f77550fd0a0bb5c50ba", "lat": 38.918344833333336, "is_reserved": 0, "fusion_lat": 0.0, "bike_id": "018d3227559c9f77550fd0a0bb5c50ba", "type": "electric_scooter", "is_disabled": 0, "fusion_lon": 0.0}, {"rental_uris": {"android": "https://dc.lft.to/lastmile_qr_scan", "ios": "https://dc.lft.to/lastmile_qr_scan"}, "lon": -77.0058515, "name": "659d7730ff0479ff467858ad317e12de", "lat": 38.875786, "is_reserved": 0, "fusion_lat": 0.0, "bike_id": "659d7730ff0479ff467858ad317e12de", "type": "electric_scooter", "is_disabled": 0, "fusion_lon": 0.0}, {"rental_uris": {"android": "https://dc.lft.to/lastmile_qr_scan", "ios": "https://dc.lft.to/lastmile_qr_scan"}, "lon": -76.983756, "name": "702e97cc5642d0d7ec63493982fb033f", "lat": 38.915085, "is_reserved": 0, "fusion_lat": 0.0, "bike_id": "702e97cc5642d0d7ec63493982fb033f", "type": "electric_scooter", "is_disabled": 0, "fusion_lon": 0.0}, {"rental_uris": {"android": "https://dc.lft.to/lastmile_qr_scan", "ios": "https://dc.lft.to/lastmile_qr_scan"}, "lon": -77.01362416666667, "name": "d0c6bafd442e5140f96f080569c02d0f", "lat": 38.9191425, "is_reserved": 0, "fusion_lat": 0.0, "bike_id": "d0c6bafd442e5140f96f080569c02d0f", "type": "electric_scooter", "is_disabled": 0, "fusion_lon": 0.0}, {"rental_uris": {"android": "https://dc.lft.to/lastmile_qr_scan", "ios": "https://dc.lft.to/lastmile_qr_scan"}, "lon": -76.9733215, "name": "3a7463e019fb3331608a314445876184", "lat": 38.90408883333333, "is_reserved": 0, "fusion_lat": 0.0, "bike_id": "3a7463e019fb3331608a314445876184", "type": "electric_scooter", "is_disabled": 0, "fusion_lon": 0.0}, {"rental_uris": {"android": "https://dc.lft.to/lastmile_qr_scan", "ios": "https://dc.lft.to/lastmile_qr_scan"}, "lon": -77.00579983333333, "name": "33ee95c55065d4233ca99b33c41200ad", "lat": 38.884795833333335, "is_reserved": 0, "fusion_lat": 0.0, "bike_id": "33ee95c55065d4233ca99b33c41200ad", "type": "electric_scooter", "is_disabled": 0, "fusion_lon": 0.0}, {"rental_uris": {"android": "https://dc.lft.to/lastmile_qr_scan", "ios": "https://dc.lft.to/lastmile_qr_scan"}, "lon": -77.02440016666667, "name": "2a32625dacb64e1206bdae8df1881073", "lat": 38.92059583333333, "is_reserved": 0, "fusion_lat": 0.0, "bike_id": "2a32625dacb64e1206bdae8df1881073", "type": "electric_scooter", "is_disabled": 0, "fusion_lon": 0.0}, {"rental_uris": {"android": "https://dc.lft.to/lastmile_qr_scan", "ios": "https://dc.lft.to/lastmile_qr_scan"}, "lon": -76.99950216666667, "name": "5e533635b74255cd0e03e7db74141fe2", "lat": 38.901243, "is_reserved": 0, "fusion_lat": 0.0, "bike_id": "5e533635b74255cd0e03e7db74141fe2", "type": "electric_scooter", "is_disabled": 0, "fusion_lon": 0.0}, {"rental_uris": {"android": "https://dc.lft.to/lastmile_qr_scan", "ios": "https://dc.lft.to/lastmile_qr_scan"}, "lon": -77.05334583333334, "name": "0b7660173b8d149c8de268e8f329b190", "lat": 38.90242416666667, "is_reserved": 0, "fusion_lat": 0.0, "bike_id": "0b7660173b8d149c8de268e8f329b190", "type": "electric_scooter", "is_disabled": 0, "fusion_lon": 0.0}, {"rental_uris": {"android": "https://dc.lft.to/lastmile_qr_scan", "ios": "https://dc.lft.to/lastmile_qr_scan"}, "lon": -77.02128616666667, "name": "f2ab62a0ebcc80a87344b342637208ef", "lat": 38.931069666666666, "is_reserved": 0, "fusion_lat": 0.0, "bike_id": "f2ab62a0ebcc80a87344b342637208ef", "type": "electric_scooter", "is_disabled": 0, "fusion_lon": 0.0}, {"rental_uris": {"android": "https://dc.lft.to/lastmile_qr_scan", "ios": "https://dc.lft.to/lastmile_qr_scan"}, "lon": -76.997163, "name": "9274098267cc75b62d951979ece815d8", "lat": 38.932232666666664, "is_reserved": 0, "fusion_lat": 0.0, "bike_id": "9274098267cc75b62d951979ece815d8", "type": "electric_scooter", "is_disabled": 0, "fusion_lon": 0.0}, {"rental_uris": {"android": "https://dc.lft.to/lastmile_qr_scan", "ios": "https://dc.lft.to/lastmile_qr_scan"}, "lon": -77.02655116666666, "name": "b2040a7ba30209f686bbc9ec595328a6", "lat": 38.98437883333333, "is_reserved": 0, "fusion_lat": 0.0, "bike_id": "b2040a7ba30209f686bbc9ec595328a6", "type": "electric_scooter", "is_disabled": 0, "fusion_lon": 0.0}, {"rental_uris": {"android": "https://dc.lft.to/lastmile_qr_scan", "ios": "https://dc.lft.to/lastmile_qr_scan"}, "lon": -76.98830433333333, "name": "125f33d42bf543cc9995755baafea957", "lat": 38.9003775, "is_reserved": 0, "fusion_lat": 0.0, "bike_id": "125f33d42bf543cc9995755baafea957", "type": "electric_scooter", "is_disabled": 0, "fusion_lon": 0.0}, {"rental_uris": {"android": "https://dc.lft.to/lastmile_qr_scan", "ios": "https://dc.lft.to/lastmile_qr_scan"}, "lon": -76.98698833333333, "name": "038b7bf1f5cea1ec4756b4c0bc4e73bc", "lat": 38.91912216666667, "is_reserved": 0, "fusion_lat": 0.0, "bike_id": "038b7bf1f5cea1ec4756b4c0bc4e73bc", "type": "electric_scooter", "is_disabled": 0, "fusion_lon": 0.0}, {"rental_uris": {"android": "https://dc.lft.to/lastmile_qr_scan", "ios": "https://dc.lft.to/lastmile_qr_scan"}, "lon": -77.02705883333333, "name": "1261f640596dfe09daffaa96dbc30bf0", "lat": 38.92879166666667, "is_reserved": 0, "fusion_lat": 0.0, "bike_id": "1261f640596dfe09daffaa96dbc30bf0", "type": "electric_scooter", "is_disabled": 0, "fusion_lon": 0.0}, {"rental_uris": {"android": "https://dc.lft.to/lastmile_qr_scan", "ios": "https://dc.lft.to/lastmile_qr_scan"}, "lon": -77.03125866666667, "name": "6edcab974f33a357646ec2662ad8665e", "lat": 38.916993833333336, "is_reserved": 0, "fusion_lat": 0.0, "bike_id": "6edcab974f33a357646ec2662ad8665e", "type": "electric_scooter", "is_disabled": 0, "fusion_lon": 0.0}, {"rental_uris": {"android": "https://dc.lft.to/lastmile_qr_scan", "ios": "https://dc.lft.to/lastmile_qr_scan"}, "lon": -77.04348566666667, "name": "0c524432f5c4cb4ee606a33d319747b4", "lat": 38.9041825, "is_reserved": 0, "fusion_lat": 0.0, "bike_id": "0c524432f5c4cb4ee606a33d319747b4", "type": "electric_scooter", "is_disabled": 0, "fusion_lon": 0.0}, {"rental_uris": {"android": "https://dc.lft.to/lastmile_qr_scan", "ios": "https://dc.lft.to/lastmile_qr_scan"}, "lon": -77.01892483333333, "name": "6a198d72d729c01e1cc2e6fd315178c7", "lat": 38.904957, "is_reserved": 0, "fusion_lat": 0.0, "bike_id": "6a198d72d729c01e1cc2e6fd315178c7", "type": "electric_bike", "is_disabled": 0, "fusion_lon": 0.0}, {"rental_uris": {"android": "https://dc.lft.to/lastmile_qr_scan", "ios": "https://dc.lft.to/lastmile_qr_scan"}, "lon": -77.04512516666666, "name": "ac2475e188b41a41adb09d2f7468c5cf", "lat": 38.89221416666667, "is_reserved": 0, "fusion_lat": 0.0, "bike_id": "ac2475e188b41a41adb09d2f7468c5cf", "type": "electric_scooter", "is_disabled": 0, "fusion_lon": 0.0}, {"rental_uris": {"android": "https://dc.lft.to/lastmile_qr_scan", "ios": "https://dc.lft.to/lastmile_qr_scan"}, "lon": -76.98196716666666, "name": "8fe4d037e7add1d22abfce6823d9d1cb", "lat": 38.865976, "is_reserved": 0, "fusion_lat": 0.0, "bike_id": "8fe4d037e7add1d22abfce6823d9d1cb", "type": "electric_scooter", "is_disabled": 0, "fusion_lon": 0.0}, {"rental_uris": {"android": "https://dc.lft.to/lastmile_qr_scan", "ios": "https://dc.lft.to/lastmile_qr_scan"}, "lon": -77.020969, "name": "a0c5a1cd1375075885c7f9f9754160eb", "lat": 38.9271295, "is_reserved": 0, "fusion_lat": 0.0, "bike_id": "a0c5a1cd1375075885c7f9f9754160eb", "type": "electric_scooter", "is_disabled": 0, "fusion_lon": 0.0}, {"rental_uris": {"android": "https://dc.lft.to/lastmile_qr_scan", "ios": "https://dc.lft.to/lastmile_qr_scan"}, "lon": -77.043999, "name": "3abcba3142394af67ceba55a144e73c3", "lat": 38.912123, "is_reserved": 0, "fusion_lat": 0.0, "bike_id": "3abcba3142394af67ceba55a144e73c3", "type": "electric_scooter", "is_disabled": 0, "fusion_lon": 0.0}, {"rental_uris": {"android": "https://dc.lft.to/lastmile_qr_scan", "ios": "https://dc.lft.to/lastmile_qr_scan"}, "lon": -77.03331383333334, "name": "d230766664dc006d68a71a9928ed15ff", "lat": 38.898416166666664, "is_reserved": 0, "fusion_lat": 0.0, "bike_id": "d230766664dc006d68a71a9928ed15ff", "type": "electric_scooter", "is_disabled": 0, "fusion_lon": 0.0}, {"rental_uris": {"android": "https://dc.lft.to/lastmile_qr_scan", "ios": "https://dc.lft.to/lastmile_qr_scan"}, "lon": -77.043466, "name": "fa4824062e140261958c974685ad3766", "lat": 38.907221666666665, "is_reserved": 0, "fusion_lat": 0.0, "bike_id": "fa4824062e140261958c974685ad3766", "type": "electric_scooter", "is_disabled": 0, "fusion_lon": 0.0}, {"rental_uris": {"android": "https://dc.lft.to/lastmile_qr_scan", "ios": "https://dc.lft.to/lastmile_qr_scan"}, "lon": -77.0433645, "name": "ed1361d722a8c48fba423be985a795b1", "lat": 38.897249333333335, "is_reserved": 0, "fusion_lat": 0.0, "bike_id": "ed1361d722a8c48fba423be985a795b1", "type": "electric_scooter", "is_disabled": 0, "fusion_lon": 0.0}, {"rental_uris": {"android": "https://dc.lft.to/lastmile_qr_scan", "ios": "https://dc.lft.to/lastmile_qr_scan"}, "lon": -77.01354366666666, "name": "fc8ee43935246134806143f1c5cefc08", "lat": 38.9162635, "is_reserved": 0, "fusion_lat": 0.0, "bike_id": "fc8ee43935246134806143f1c5cefc08", "type": "electric_scooter", "is_disabled": 0, "fusion_lon": 0.0}, {"rental_uris": {"android": "https://dc.lft.to/lastmile_qr_scan", "ios": "https://dc.lft.to/lastmile_qr_scan"}, "lon": -77.07376866666667, "name": "60b60b9981bb8f7c28f96db18abb0a4b", "lat": 38.96177983333333, "is_reserved": 0, "fusion_lat": 0.0, "bike_id": "60b60b9981bb8f7c28f96db18abb0a4b", "type": "electric_bike", "is_disabled": 0, "fusion_lon": 0.0}, {"rental_uris": {"android": "https://dc.lft.to/lastmile_qr_scan", "ios": "https://dc.lft.to/lastmile_qr_scan"}, "lon": -77.03631233333333, "name": "9043b8a56da08914d63d15923659876f", "lat": 38.93291883333333, "is_reserved": 0, "fusion_lat": 0.0, "bike_id": "9043b8a56da08914d63d15923659876f", "type": "electric_bike", "is_disabled": 0, "fusion_lon": 0.0}, {"rental_uris": {"android": "https://dc.lft.to/lastmile_qr_scan", "ios": "https://dc.lft.to/lastmile_qr_scan"}, "lon": -77.00060483333333, "name": "863142cddc52c08957d5de8fcf714836", "lat": 38.8943245, "is_reserved": 0, "fusion_lat": 0.0, "bike_id": "863142cddc52c08957d5de8fcf714836", "type": "electric_scooter", "is_disabled": 0, "fusion_lon": 0.0}, {"rental_uris": {"android": "https://dc.lft.to/lastmile_qr_scan", "ios": "https://dc.lft.to/lastmile_qr_scan"}, "lon": -76.985685, "name": "d7d7ed2234ef91d9f605a5c944dc5df5", "lat": 38.86683033333333, "is_reserved": 0, "fusion_lat": 0.0, "bike_id": "d7d7ed2234ef91d9f605a5c944dc5df5", "type": "electric_scooter", "is_disabled": 0, "fusion_lon": 0.0}, {"rental_uris": {"android": "https://dc.lft.to/lastmile_qr_scan", "ios": "https://dc.lft.to/lastmile_qr_scan"}, "lon": -76.98053983333334, "name": "edbaf0912e3df79a9cc5b49b419339f7", "lat": 38.885336333333335, "is_reserved": 0, "fusion_lat": 0.0, "bike_id": "edbaf0912e3df79a9cc5b49b419339f7", "type": "electric_scooter", "is_disabled": 0, "fusion_lon": 0.0}, {"rental_uris": {"android": "https://dc.lft.to/lastmile_qr_scan", "ios": "https://dc.lft.to/lastmile_qr_scan"}, "lon": -77.02487666666667, "name": "0979aeab55fef5ede27249785949f08f", "lat": 38.93888466666667, "is_reserved": 0, "fusion_lat": 0.0, "bike_id": "0979aeab55fef5ede27249785949f08f", "type": "electric_scooter", "is_disabled": 0, "fusion_lon": 0.0}, {"rental_uris": {"android": "https://dc.lft.to/lastmile_qr_scan", "ios": "https://dc.lft.to/lastmile_qr_scan"}, "lon": -77.05028783333333, "name": "b7439f62794d396226fa7f63141d81c4", "lat": 38.92367483333334, "is_reserved": 0, "fusion_lat": 0.0, "bike_id": "b7439f62794d396226fa7f63141d81c4", "type": "electric_scooter", "is_disabled": 0, "fusion_lon": 0.0}, {"rental_uris": {"android": "https://dc.lft.to/lastmile_qr_scan", "ios": "https://dc.lft.to/lastmile_qr_scan"}, "lon": -76.99373916666667, "name": "0b80b6ef127b87c54943b7977d67a669", "lat": 38.99096933333333, "is_reserved": 0, "fusion_lat": 0.0, "bike_id": "0b80b6ef127b87c54943b7977d67a669", "type": "electric_bike", "is_disabled": 0, "fusion_lon": 0.0}, {"rental_uris": {"android": "https://dc.lft.to/lastmile_qr_scan", "ios": "https://dc.lft.to/lastmile_qr_scan"}, "lon": -77.01885933333334, "name": "33e333cf23eaf7723351f4df320cc167", "lat": 38.9006995, "is_reserved": 0, "fusion_lat": 0.0, "bike_id": "33e333cf23eaf7723351f4df320cc167", "type": "electric_scooter", "is_disabled": 0, "fusion_lon": 0.0}, {"rental_uris": {"android": "https://dc.lft.to/lastmile_qr_scan", "ios": "https://dc.lft.to/lastmile_qr_scan"}, "lon": -77.00414916666666, "name": "6854ec5cd06f93bd14937d1d3dd0eff8", "lat": 38.87712066666667, "is_reserved": 0, "fusion_lat": 0.0, "bike_id": "6854ec5cd06f93bd14937d1d3dd0eff8", "type": "electric_scooter", "is_disabled": 0, "fusion_lon": 0.0}, {"rental_uris": {"android": "https://dc.lft.to/lastmile_qr_scan", "ios": "https://dc.lft.to/lastmile_qr_scan"}, "lon": -77.02205716666667, "name": "65fda01673a78ad89bb7cad0b85f01ca", "lat": 38.892314, "is_reserved": 0, "fusion_lat": 0.0, "bike_id": "65fda01673a78ad89bb7cad0b85f01ca", "type": "electric_scooter", "is_disabled": 0, "fusion_lon": 0.0}, {"rental_uris": {"android": "https://dc.lft.to/lastmile_qr_scan", "ios": "https://dc.lft.to/lastmile_qr_scan"}, "lon": -77.02664416666667, "name": "67e367f923196b0e70b123c12f1391f3", "lat": 38.931031833333336, "is_reserved": 0, "fusion_lat": 0.0, "bike_id": "67e367f923196b0e70b123c12f1391f3", "type": "electric_scooter", "is_disabled": 0, "fusion_lon": 0.0}, {"rental_uris": {"android": "https://dc.lft.to/lastmile_qr_scan", "ios": "https://dc.lft.to/lastmile_qr_scan"}, "lon": -77.02785483333334, "name": "79f1d6ce2bd752cafe56c15462434a8e", "lat": 38.93861183333333, "is_reserved": 0, "fusion_lat": 0.0, "bike_id": "79f1d6ce2bd752cafe56c15462434a8e", "type": "electric_scooter", "is_disabled": 0, "fusion_lon": 0.0}, {"rental_uris": {"android": "https://dc.lft.to/lastmile_qr_scan", "ios": "https://dc.lft.to/lastmile_qr_scan"}, "lon": -77.01447766666666, "name": "54d1136066f28c0d6be58e41872c94df", "lat": 38.975107666666666, "is_reserved": 0, "fusion_lat": 0.0, "bike_id": "54d1136066f28c0d6be58e41872c94df", "type": "electric_scooter", "is_disabled": 0, "fusion_lon": 0.0}, {"rental_uris": {"android": "https://dc.lft.to/lastmile_qr_scan", "ios": "https://dc.lft.to/lastmile_qr_scan"}, "lon": -77.01717716666667, "name": "1f8c8c530db6c5577e5748bd5c9b99ed", "lat": 38.90055533333334, "is_reserved": 0, "fusion_lat": 0.0, "bike_id": "1f8c8c530db6c5577e5748bd5c9b99ed", "type": "electric_scooter", "is_disabled": 0, "fusion_lon": 0.0}, {"rental_uris": {"android": "https://dc.lft.to/lastmile_qr_scan", "ios": "https://dc.lft.to/lastmile_qr_scan"}, "lon": -76.98198516666666, "name": "715f5ef20af9a4ece9655731265eda64", "lat": 38.920655, "is_reserved": 0, "fusion_lat": 0.0, "bike_id": "715f5ef20af9a4ece9655731265eda64", "type": "electric_scooter", "is_disabled": 0, "fusion_lon": 0.0}, {"rental_uris": {"android": "https://dc.lft.to/lastmile_qr_scan", "ios": "https://dc.lft.to/lastmile_qr_scan"}, "lon": -77.02487683333334, "name": "739999e431d77ed2b782b59369c9a3b6", "lat": 38.941834166666666, "is_reserved": 0, "fusion_lat": 0.0, "bike_id": "739999e431d77ed2b782b59369c9a3b6", "type": "electric_bike", "is_disabled": 0, "fusion_lon": 0.0}, {"rental_uris": {"android": "https://dc.lft.to/lastmile_qr_scan", "ios": "https://dc.lft.to/lastmile_qr_scan"}, "lon": -77.0408595, "name": "5e178abed109b08968331ac0227bd68f", "lat": 38.896205, "is_reserved": 0, "fusion_lat": 0.0, "bike_id": "5e178abed109b08968331ac0227bd68f", "type": "electric_scooter", "is_disabled": 0, "fusion_lon": 0.0}, {"rental_uris": {"android": "https://dc.lft.to/lastmile_qr_scan", "ios": "https://dc.lft.to/lastmile_qr_scan"}, "lon": -76.98544016666666, "name": "db6edfd1d99b7a13764effdd10d9a1c1", "lat": 38.8998085, "is_reserved": 0, "fusion_lat": 0.0, "bike_id": "db6edfd1d99b7a13764effdd10d9a1c1", "type": "electric_scooter", "is_disabled": 0, "fusion_lon": 0.0}, {"rental_uris": {"android": "https://dc.lft.to/lastmile_qr_scan", "ios": "https://dc.lft.to/lastmile_qr_scan"}, "lon": -77.0426465, "name": "7247b7ecc91defd0cfb97a98e53c6e3d", "lat": 38.907357833333336, "is_reserved": 0, "fusion_lat": 0.0, "bike_id": "7247b7ecc91defd0cfb97a98e53c6e3d", "type": "electric_scooter", "is_disabled": 0, "fusion_lon": 0.0}, {"rental_uris": {"android": "https://dc.lft.to/lastmile_qr_scan", "ios": "https://dc.lft.to/lastmile_qr_scan"}, "lon": -77.02507516666667, "name": "115e8678fe8343c7b2fb17692424ef9c", "lat": 38.91810066666667, "is_reserved": 0, "fusion_lat": 0.0, "bike_id": "115e8678fe8343c7b2fb17692424ef9c", "type": "electric_scooter", "is_disabled": 0, "fusion_lon": 0.0}, {"rental_uris": {"android": "https://dc.lft.to/lastmile_qr_scan", "ios": "https://dc.lft.to/lastmile_qr_scan"}, "lon": -77.02103116666666, "name": "99864ffa515dbeff5308fee2fe66b574", "lat": 38.930094, "is_reserved": 0, "fusion_lat": 0.0, "bike_id": "99864ffa515dbeff5308fee2fe66b574", "type": "electric_scooter", "is_disabled": 0, "fusion_lon": 0.0}, {"rental_uris": {"android": "https://dc.lft.to/lastmile_qr_scan", "ios": "https://dc.lft.to/lastmile_qr_scan"}, "lon": -77.04008316666666, "name": "93ac3c3af19ad8f293a96a00015ca040", "lat": 38.921942333333334, "is_reserved": 0, "fusion_lat": 0.0, "bike_id": "93ac3c3af19ad8f293a96a00015ca040", "type": "electric_scooter", "is_disabled": 0, "fusion_lon": 0.0}, {"rental_uris": {"android": "https://dc.lft.to/lastmile_qr_scan", "ios": "https://dc.lft.to/lastmile_qr_scan"}, "lon": -77.03848733333334, "name": "9ad1c8005aa92a40bd18e2448708efd6", "lat": 38.909731666666666, "is_reserved": 0, "fusion_lat": 0.0, "bike_id": "9ad1c8005aa92a40bd18e2448708efd6", "type": "electric_scooter", "is_disabled": 0, "fusion_lon": 0.0}, {"rental_uris": {"android": "https://dc.lft.to/lastmile_qr_scan", "ios": "https://dc.lft.to/lastmile_qr_scan"}, "lon": -77.02166633333333, "name": "cedccf46793dab499b9c7264e55b3b26", "lat": 38.92504266666667, "is_reserved": 0, "fusion_lat": 0.0, "bike_id": "cedccf46793dab499b9c7264e55b3b26", "type": "electric_scooter", "is_disabled": 0, "fusion_lon": 0.0}, {"rental_uris": {"android": "https://dc.lft.to/lastmile_qr_scan", "ios": "https://dc.lft.to/lastmile_qr_scan"}, "lon": -77.0328125, "name": "8ae917ac05a6421df554ca3f1c7d1321", "lat": 38.93762316666667, "is_reserved": 0, "fusion_lat": 0.0, "bike_id": "8ae917ac05a6421df554ca3f1c7d1321", "type": "electric_scooter", "is_disabled": 0, "fusion_lon": 0.0}, {"rental_uris": {"android": "https://dc.lft.to/lastmile_qr_scan", "ios": "https://dc.lft.to/lastmile_qr_scan"}, "lon": -77.04744566666666, "name": "bd9f0c0042dca781db3fccd9508b8974", "lat": 38.90191133333333, "is_reserved": 0, "fusion_lat": 0.0, "bike_id": "bd9f0c0042dca781db3fccd9508b8974", "type": "electric_scooter", "is_disabled": 0, "fusion_lon": 0.0}, {"rental_uris": {"android": "https://dc.lft.to/lastmile_qr_scan", "ios": "https://dc.lft.to/lastmile_qr_scan"}, "lon": -76.93210016666667, "name": "73b51316f31e0916d200242ea51b4dc3", "lat": 38.896659, "is_reserved": 0, "fusion_lat": 0.0, "bike_id": "73b51316f31e0916d200242ea51b4dc3", "type": "electric_scooter", "is_disabled": 0, "fusion_lon": 0.0}, {"rental_uris": {"android": "https://dc.lft.to/lastmile_qr_scan", "ios": "https://dc.lft.to/lastmile_qr_scan"}, "lon": -77.02323866666667, "name": "2c9f6e1c17ef2d37bd0c7f31962de47d", "lat": 38.907252166666666, "is_reserved": 0, "fusion_lat": 0.0, "bike_id": "2c9f6e1c17ef2d37bd0c7f31962de47d", "type": "electric_scooter", "is_disabled": 0, "fusion_lon": 0.0}, {"rental_uris": {"android": "https://dc.lft.to/lastmile_qr_scan", "ios": "https://dc.lft.to/lastmile_qr_scan"}, "lon": -76.99623583333333, "name": "51223370269072b0bce0f6d641ac69ef", "lat": 38.90062266666666, "is_reserved": 0, "fusion_lat": 0.0, "bike_id": "51223370269072b0bce0f6d641ac69ef", "type": "electric_scooter", "is_disabled": 0, "fusion_lon": 0.0}, {"rental_uris": {"android": "https://dc.lft.to/lastmile_qr_scan", "ios": "https://dc.lft.to/lastmile_qr_scan"}, "lon": -77.04137233333333, "name": "929da7a5d44ab4b35649c4ab6e548c65", "lat": 38.92192983333333, "is_reserved": 0, "fusion_lat": 0.0, "bike_id": "929da7a5d44ab4b35649c4ab6e548c65", "type": "electric_scooter", "is_disabled": 0, "fusion_lon": 0.0}, {"rental_uris": {"android": "https://dc.lft.to/lastmile_qr_scan", "ios": "https://dc.lft.to/lastmile_qr_scan"}, "lon": -77.0238625, "name": "7ae480c681af7c8551aebfe821529d9d", "lat": 38.892297, "is_reserved": 0, "fusion_lat": 0.0, "bike_id": "7ae480c681af7c8551aebfe821529d9d", "type": "electric_scooter", "is_disabled": 0, "fusion_lon": 0.0}, {"rental_uris": {"android": "https://dc.lft.to/lastmile_qr_scan", "ios": "https://dc.lft.to/lastmile_qr_scan"}, "lon": -77.0238105, "name": "bf5c4046cbcf1c7d3566d0666ce346bd", "lat": 38.891969333333336, "is_reserved": 0, "fusion_lat": 0.0, "bike_id": "bf5c4046cbcf1c7d3566d0666ce346bd", "type": "electric_scooter", "is_disabled": 0, "fusion_lon": 0.0}, {"rental_uris": {"android": "https://dc.lft.to/lastmile_qr_scan", "ios": "https://dc.lft.to/lastmile_qr_scan"}, "lon": -77.04266016666666, "name": "8aac5b58cdb173f621151de466e46687", "lat": 38.830977833333336, "is_reserved": 0, "fusion_lat": 0.0, "bike_id": "8aac5b58cdb173f621151de466e46687", "type": "electric_bike", "is_disabled": 0, "fusion_lon": 0.0}, {"rental_uris": {"android": "https://dc.lft.to/lastmile_qr_scan", "ios": "https://dc.lft.to/lastmile_qr_scan"}, "lon": -77.0431805, "name": "8f5e3d748237b7def5b411d8d2f70510", "lat": 38.91404216666667, "is_reserved": 0, "fusion_lat": 0.0, "bike_id": "8f5e3d748237b7def5b411d8d2f70510", "type": "electric_scooter", "is_disabled": 0, "fusion_lon": 0.0}, {"rental_uris": {"android": "https://dc.lft.to/lastmile_qr_scan", "ios": "https://dc.lft.to/lastmile_qr_scan"}, "lon": -77.021118, "name": "e1dc7a7f8b5fc77fbd9bd0c049543431", "lat": 38.927543166666666, "is_reserved": 0, "fusion_lat": 0.0, "bike_id": "e1dc7a7f8b5fc77fbd9bd0c049543431", "type": "electric_scooter", "is_disabled": 0, "fusion_lon": 0.0}, {"rental_uris": {"android": "https://dc.lft.to/lastmile_qr_scan", "ios": "https://dc.lft.to/lastmile_qr_scan"}, "lon": -77.0088835, "name": "a12f3e23414ac5e68a482d5440207648", "lat": 38.914739833333336, "is_reserved": 0, "fusion_lat": 0.0, "bike_id": "a12f3e23414ac5e68a482d5440207648", "type": "electric_scooter", "is_disabled": 0, "fusion_lon": 0.0}, {"rental_uris": {"android": "https://dc.lft.to/lastmile_qr_scan", "ios": "https://dc.lft.to/lastmile_qr_scan"}, "lon": -77.02228366666667, "name": "2e19b1b258e723c3ea6e792039379517", "lat": 38.956890666666666, "is_reserved": 0, "fusion_lat": 0.0, "bike_id": "2e19b1b258e723c3ea6e792039379517", "type": "electric_bike", "is_disabled": 0, "fusion_lon": 0.0}, {"rental_uris": {"android": "https://dc.lft.to/lastmile_qr_scan", "ios": "https://dc.lft.to/lastmile_qr_scan"}, "lon": -77.02372533333333, "name": "f40a1cf94484ee61d92a144c708ef857", "lat": 38.9068055, "is_reserved": 0, "fusion_lat": 0.0, "bike_id": "f40a1cf94484ee61d92a144c708ef857", "type": "electric_scooter", "is_disabled": 0, "fusion_lon": 0.0}, {"rental_uris": {"android": "https://dc.lft.to/lastmile_qr_scan", "ios": "https://dc.lft.to/lastmile_qr_scan"}, "lon": -76.92896616666667, "name": "8cf6127be174c58324e1ce9df0afea76", "lat": 38.90186416666667, "is_reserved": 0, "fusion_lat": 0.0, "bike_id": "8cf6127be174c58324e1ce9df0afea76", "type": "electric_scooter", "is_disabled": 0, "fusion_lon": 0.0}, {"rental_uris": {"android": "https://dc.lft.to/lastmile_qr_scan", "ios": "https://dc.lft.to/lastmile_qr_scan"}, "lon": -77.00348133333334, "name": "c6fd63eb93df4feb603a7212278dfd1d", "lat": 38.8870595, "is_reserved": 0, "fusion_lat": 0.0, "bike_id": "c6fd63eb93df4feb603a7212278dfd1d", "type": "electric_scooter", "is_disabled": 0, "fusion_lon": 0.0}, {"rental_uris": {"android": "https://dc.lft.to/lastmile_qr_scan", "ios": "https://dc.lft.to/lastmile_qr_scan"}, "lon": -77.0577005, "name": "e1c58670e93477223a4929d3874bd9cc", "lat": 38.9250175, "is_reserved": 0, "fusion_lat": 0.0, "bike_id": "e1c58670e93477223a4929d3874bd9cc", "type": "electric_scooter", "is_disabled": 0, "fusion_lon": 0.0}, {"rental_uris": {"android": "https://dc.lft.to/lastmile_qr_scan", "ios": "https://dc.lft.to/lastmile_qr_scan"}, "lon": -77.0666165, "name": "24f20aadf18f18fa4f4e959eda3e299d", "lat": 38.95078733333333, "is_reserved": 0, "fusion_lat": 0.0, "bike_id": "24f20aadf18f18fa4f4e959eda3e299d", "type": "electric_bike", "is_disabled": 0, "fusion_lon": 0.0}, {"rental_uris": {"android": "https://dc.lft.to/lastmile_qr_scan", "ios": "https://dc.lft.to/lastmile_qr_scan"}, "lon": -77.11610933333333, "name": "84f8f41a53c7afbddfc67a8f9ea2cf58", "lat": 38.8548365, "is_reserved": 0, "fusion_lat": 0.0, "bike_id": "84f8f41a53c7afbddfc67a8f9ea2cf58", "type": "electric_bike", "is_disabled": 0, "fusion_lon": 0.0}, {"rental_uris": {"android": "https://dc.lft.to/lastmile_qr_scan", "ios": "https://dc.lft.to/lastmile_qr_scan"}, "lon": -77.03704516666667, "name": "355876334fd96c7178da2f48f73f77f4", "lat": 38.9263845, "is_reserved": 0, "fusion_lat": 0.0, "bike_id": "355876334fd96c7178da2f48f73f77f4", "type": "electric_scooter", "is_disabled": 0, "fusion_lon": 0.0}, {"rental_uris": {"android": "https://dc.lft.to/lastmile_qr_scan", "ios": "https://dc.lft.to/lastmile_qr_scan"}, "lon": -77.21126466666666, "name": "51b12b15dc544d7cbe0a7c3ea34462b6", "lat": 38.874901, "is_reserved": 0, "fusion_lat": 0.0, "bike_id": "51b12b15dc544d7cbe0a7c3ea34462b6", "type": "electric_bike", "is_disabled": 0, "fusion_lon": 0.0}, {"rental_uris": {"android": "https://dc.lft.to/lastmile_qr_scan", "ios": "https://dc.lft.to/lastmile_qr_scan"}, "lon": -77.014709, "name": "b1ae3678f858b83fc74d93c78aae8330", "lat": 38.91756566666667, "is_reserved": 0, "fusion_lat": 0.0, "bike_id": "b1ae3678f858b83fc74d93c78aae8330", "type": "electric_scooter", "is_disabled": 0, "fusion_lon": 0.0}, {"rental_uris": {"android": "https://dc.lft.to/lastmile_qr_scan", "ios": "https://dc.lft.to/lastmile_qr_scan"}, "lon": -77.03184, "name": "14cbb58476d838b9ffd8314bb9a4016d", "lat": 38.913546333333336, "is_reserved": 0, "fusion_lat": 0.0, "bike_id": "14cbb58476d838b9ffd8314bb9a4016d", "type": "electric_scooter", "is_disabled": 0, "fusion_lon": 0.0}, {"rental_uris": {"android": "https://dc.lft.to/lastmile_qr_scan", "ios": "https://dc.lft.to/lastmile_qr_scan"}, "lon": -77.0334285, "name": "03bbe27022ee9441915f918069df843e", "lat": 38.89743333333333, "is_reserved": 0, "fusion_lat": 0.0, "bike_id": "03bbe27022ee9441915f918069df843e", "type": "electric_scooter", "is_disabled": 0, "fusion_lon": 0.0}, {"rental_uris": {"android": "https://dc.lft.to/lastmile_qr_scan", "ios": "https://dc.lft.to/lastmile_qr_scan"}, "lon": -77.0021005, "name": "cd2dafec9a17ce1358529571c234e0b8", "lat": 38.9145935, "is_reserved": 0, "fusion_lat": 0.0, "bike_id": "cd2dafec9a17ce1358529571c234e0b8", "type": "electric_scooter", "is_disabled": 0, "fusion_lon": 0.0}, {"rental_uris": {"android": "https://dc.lft.to/lastmile_qr_scan", "ios": "https://dc.lft.to/lastmile_qr_scan"}, "lon": -76.96912383333333, "name": "1d41af449c4bbd6335ccf3a7a31273a3", "lat": 38.846151166666665, "is_reserved": 0, "fusion_lat": 0.0, "bike_id": "1d41af449c4bbd6335ccf3a7a31273a3", "type": "electric_bike", "is_disabled": 0, "fusion_lon": 0.0}, {"rental_uris": {"android": "https://dc.lft.to/lastmile_qr_scan", "ios": "https://dc.lft.to/lastmile_qr_scan"}, "lon": -76.90734433333333, "name": "fd611d87eee6c489debba8444b3855d0", "lat": 38.896117833333335, "is_reserved": 0, "fusion_lat": 0.0, "bike_id": "fd611d87eee6c489debba8444b3855d0", "type": "electric_bike", "is_disabled": 0, "fusion_lon": 0.0}, {"rental_uris": {"android": "https://dc.lft.to/lastmile_qr_scan", "ios": "https://dc.lft.to/lastmile_qr_scan"}, "lon": -77.0258845, "name": "9a889b4cbc4f7e5435d5eb62fcf2eea9", "lat": 38.91412, "is_reserved": 0, "fusion_lat": 0.0, "bike_id": "9a889b4cbc4f7e5435d5eb62fcf2eea9", "type": "electric_scooter", "is_disabled": 0, "fusion_lon": 0.0}, {"rental_uris": {"android": "https://dc.lft.to/lastmile_qr_scan", "ios": "https://dc.lft.to/lastmile_qr_scan"}, "lon": -77.02282166666667, "name": "875a6bf83a1b4a51c79311764b2cfc02", "lat": 38.9176595, "is_reserved": 0, "fusion_lat": 0.0, "bike_id": "875a6bf83a1b4a51c79311764b2cfc02", "type": "electric_scooter", "is_disabled": 0, "fusion_lon": 0.0}, {"rental_uris": {"android": "https://dc.lft.to/lastmile_qr_scan", "ios": "https://dc.lft.to/lastmile_qr_scan"}, "lon": -77.02409216666666, "name": "f0c63b49afdc135bb956c7fa7b0580fc", "lat": 38.91693583333333, "is_reserved": 0, "fusion_lat": 0.0, "bike_id": "f0c63b49afdc135bb956c7fa7b0580fc", "type": "electric_scooter", "is_disabled": 0, "fusion_lon": 0.0}, {"rental_uris": {"android": "https://dc.lft.to/lastmile_qr_scan", "ios": "https://dc.lft.to/lastmile_qr_scan"}, "lon": -76.98796483333334, "name": "e901d60ac26fd09cefb401783454447b", "lat": 38.912372166666664, "is_reserved": 0, "fusion_lat": 0.0, "bike_id": "e901d60ac26fd09cefb401783454447b", "type": "electric_scooter", "is_disabled": 0, "fusion_lon": 0.0}, {"rental_uris": {"android": "https://dc.lft.to/lastmile_qr_scan", "ios": "https://dc.lft.to/lastmile_qr_scan"}, "lon": -77.03151533333333, "name": "247d167312f249576adf2f9dd98f216a", "lat": 38.92791116666667, "is_reserved": 0, "fusion_lat": 0.0, "bike_id": "247d167312f249576adf2f9dd98f216a", "type": "electric_scooter", "is_disabled": 0, "fusion_lon": 0.0}, {"rental_uris": {"android": "https://dc.lft.to/lastmile_qr_scan", "ios": "https://dc.lft.to/lastmile_qr_scan"}, "lon": -77.01814366666666, "name": "c76be61cdc927ece27c107f1ede8994b", "lat": 38.973778333333335, "is_reserved": 0, "fusion_lat": 0.0, "bike_id": "c76be61cdc927ece27c107f1ede8994b", "type": "electric_scooter", "is_disabled": 0, "fusion_lon": 0.0}, {"rental_uris": {"android": "https://dc.lft.to/lastmile_qr_scan", "ios": "https://dc.lft.to/lastmile_qr_scan"}, "lon": -77.02418416666667, "name": "3276cc6db03fcca4646257b3b961b0fb", "lat": 38.911424333333336, "is_reserved": 0, "fusion_lat": 0.0, "bike_id": "3276cc6db03fcca4646257b3b961b0fb", "type": "electric_scooter", "is_disabled": 0, "fusion_lon": 0.0}, {"rental_uris": {"android": "https://dc.lft.to/lastmile_qr_scan", "ios": "https://dc.lft.to/lastmile_qr_scan"}, "lon": -77.02973166666666, "name": "cb6c1f5fb6b5fc248410cab50e4a9acc", "lat": 38.90491633333333, "is_reserved": 0, "fusion_lat": 0.0, "bike_id": "cb6c1f5fb6b5fc248410cab50e4a9acc", "type": "electric_scooter", "is_disabled": 0, "fusion_lon": 0.0}, {"rental_uris": {"android": "https://dc.lft.to/lastmile_qr_scan", "ios": "https://dc.lft.to/lastmile_qr_scan"}, "lon": -77.03301516666667, "name": "c1fa43a94fd9f592511cf2def9b24f79", "lat": 38.902845, "is_reserved": 0, "fusion_lat": 0.0, "bike_id": "c1fa43a94fd9f592511cf2def9b24f79", "type": "electric_scooter", "is_disabled": 0, "fusion_lon": 0.0}, {"rental_uris": {"android": "https://dc.lft.to/lastmile_qr_scan", "ios": "https://dc.lft.to/lastmile_qr_scan"}, "lon": -77.0309325, "name": "f1c2f455fcbf4d3a3d7bfe5caa4aa7ef", "lat": 38.923727166666666, "is_reserved": 0, "fusion_lat": 0.0, "bike_id": "f1c2f455fcbf4d3a3d7bfe5caa4aa7ef", "type": "electric_scooter", "is_disabled": 0, "fusion_lon": 0.0}, {"rental_uris": {"android": "https://dc.lft.to/lastmile_qr_scan", "ios": "https://dc.lft.to/lastmile_qr_scan"}, "lon": -77.03641966666666, "name": "5bc94fcbcc7fc2d05daaa727654cfc90", "lat": 38.917344666666665, "is_reserved": 0, "fusion_lat": 0.0, "bike_id": "5bc94fcbcc7fc2d05daaa727654cfc90", "type": "electric_scooter", "is_disabled": 0, "fusion_lon": 0.0}, {"rental_uris": {"android": "https://dc.lft.to/lastmile_qr_scan", "ios": "https://dc.lft.to/lastmile_qr_scan"}, "lon": -76.93120966666666, "name": "906fdc9dc781e0d203e658389928b518", "lat": 38.898003833333334, "is_reserved": 0, "fusion_lat": 0.0, "bike_id": "906fdc9dc781e0d203e658389928b518", "type": "electric_scooter", "is_disabled": 0, "fusion_lon": 0.0}, {"rental_uris": {"android": "https://dc.lft.to/lastmile_qr_scan", "ios": "https://dc.lft.to/lastmile_qr_scan"}, "lon": -77.01615516666666, "name": "564bc7f8f316ff70a875ab1350a4c09d", "lat": 38.90370333333333, "is_reserved": 0, "fusion_lat": 0.0, "bike_id": "564bc7f8f316ff70a875ab1350a4c09d", "type": "electric_scooter", "is_disabled": 0, "fusion_lon": 0.0}, {"rental_uris": {"android": "https://dc.lft.to/lastmile_qr_scan", "ios": "https://dc.lft.to/lastmile_qr_scan"}, "lon": -77.0437535, "name": "b6534cbb152fe904cf31150eadb7f66b", "lat": 38.892182166666665, "is_reserved": 0, "fusion_lat": 0.0, "bike_id": "b6534cbb152fe904cf31150eadb7f66b", "type": "electric_scooter", "is_disabled": 0, "fusion_lon": 0.0}, {"rental_uris": {"android": "https://dc.lft.to/lastmile_qr_scan", "ios": "https://dc.lft.to/lastmile_qr_scan"}, "lon": -77.03858833333334, "name": "662a259957372ab6a98b1d6b06335d1b", "lat": 38.9078195, "is_reserved": 0, "fusion_lat": 0.0, "bike_id": "662a259957372ab6a98b1d6b06335d1b", "type": "electric_scooter", "is_disabled": 0, "fusion_lon": 0.0}, {"rental_uris": {"android": "https://dc.lft.to/lastmile_qr_scan", "ios": "https://dc.lft.to/lastmile_qr_scan"}, "lon": -77.01756466666667, "name": "82b92a721655f309e7064170a8e15636", "lat": 38.8947195, "is_reserved": 0, "fusion_lat": 0.0, "bike_id": "82b92a721655f309e7064170a8e15636", "type": "electric_scooter", "is_disabled": 0, "fusion_lon": 0.0}, {"rental_uris": {"android": "https://dc.lft.to/lastmile_qr_scan", "ios": "https://dc.lft.to/lastmile_qr_scan"}, "lon": -76.99001216666667, "name": "add69e29fa95767ab387d77a98c47548", "lat": 38.865044, "is_reserved": 0, "fusion_lat": 0.0, "bike_id": "add69e29fa95767ab387d77a98c47548", "type": "electric_scooter", "is_disabled": 0, "fusion_lon": 0.0}, {"rental_uris": {"android": "https://dc.lft.to/lastmile_qr_scan", "ios": "https://dc.lft.to/lastmile_qr_scan"}, "lon": -77.03820066666667, "name": "fcbc9a7d1685b70a758d8bdefeb2d5e0", "lat": 38.901304, "is_reserved": 0, "fusion_lat": 0.0, "bike_id": "fcbc9a7d1685b70a758d8bdefeb2d5e0", "type": "electric_scooter", "is_disabled": 0, "fusion_lon": 0.0}, {"rental_uris": {"android": "https://dc.lft.to/lastmile_qr_scan", "ios": "https://dc.lft.to/lastmile_qr_scan"}, "lon": -76.997765, "name": "f8656eb6138f40614f4a0ccdb32c2073", "lat": 38.961503666666665, "is_reserved": 0, "fusion_lat": 0.0, "bike_id": "f8656eb6138f40614f4a0ccdb32c2073", "type": "electric_scooter", "is_disabled": 0, "fusion_lon": 0.0}, {"rental_uris": {"android": "https://dc.lft.to/lastmile_qr_scan", "ios": "https://dc.lft.to/lastmile_qr_scan"}, "lon": -77.09056833333334, "name": "4525c3bc63d6b2c3d68b33dd1e6140f6", "lat": 38.942550833333335, "is_reserved": 0, "fusion_lat": 0.0, "bike_id": "4525c3bc63d6b2c3d68b33dd1e6140f6", "type": "electric_scooter", "is_disabled": 0, "fusion_lon": 0.0}, {"rental_uris": {"android": "https://dc.lft.to/lastmile_qr_scan", "ios": "https://dc.lft.to/lastmile_qr_scan"}, "lon": -77.038687, "name": "e8a693c7c886ba15491cf2f726fb90b9", "lat": 38.91255983333333, "is_reserved": 0, "fusion_lat": 0.0, "bike_id": "e8a693c7c886ba15491cf2f726fb90b9", "type": "electric_scooter", "is_disabled": 0, "fusion_lon": 0.0}, {"rental_uris": {"android": "https://dc.lft.to/lastmile_qr_scan", "ios": "https://dc.lft.to/lastmile_qr_scan"}, "lon": -77.044716, "name": "28729b2291ebe48f448a0777c32401a8", "lat": 38.93048116666667, "is_reserved": 0, "fusion_lat": 0.0, "bike_id": "28729b2291ebe48f448a0777c32401a8", "type": "electric_scooter", "is_disabled": 0, "fusion_lon": 0.0}, {"rental_uris": {"android": "https://dc.lft.to/lastmile_qr_scan", "ios": "https://dc.lft.to/lastmile_qr_scan"}, "lon": -76.985438, "name": "b60badfd45226963c2bd3dc34a51b814", "lat": 38.866873, "is_reserved": 0, "fusion_lat": 0.0, "bike_id": "b60badfd45226963c2bd3dc34a51b814", "type": "electric_scooter", "is_disabled": 0, "fusion_lon": 0.0}, {"rental_uris": {"android": "https://dc.lft.to/lastmile_qr_scan", "ios": "https://dc.lft.to/lastmile_qr_scan"}, "lon": -77.0303545, "name": "9b831cc36b795a0b09134d5fc29fa3d0", "lat": 38.9311145, "is_reserved": 0, "fusion_lat": 0.0, "bike_id": "9b831cc36b795a0b09134d5fc29fa3d0", "type": "electric_scooter", "is_disabled": 0, "fusion_lon": 0.0}, {"rental_uris": {"android": "https://dc.lft.to/lastmile_qr_scan", "ios": "https://dc.lft.to/lastmile_qr_scan"}, "lon": -77.03211233333333, "name": "d520d2f8561ccdfcf15593c3fbc14a19", "lat": 38.892386333333334, "is_reserved": 0, "fusion_lat": 0.0, "bike_id": "d520d2f8561ccdfcf15593c3fbc14a19", "type": "electric_scooter", "is_disabled": 0, "fusion_lon": 0.0}, {"rental_uris": {"android": "https://dc.lft.to/lastmile_qr_scan", "ios": "https://dc.lft.to/lastmile_qr_scan"}, "lon": -77.04345583333334, "name": "0a4f49540389ee2539ef83f46987aa82", "lat": 38.9040795, "is_reserved": 0, "fusion_lat": 0.0, "bike_id": "0a4f49540389ee2539ef83f46987aa82", "type": "electric_scooter", "is_disabled": 0, "fusion_lon": 0.0}, {"rental_uris": {"android": "https://dc.lft.to/lastmile_qr_scan", "ios": "https://dc.lft.to/lastmile_qr_scan"}, "lon": -77.00196833333334, "name": "42b730a4cac9c3afe8796777bf4dcd0d", "lat": 38.9414715, "is_reserved": 0, "fusion_lat": 0.0, "bike_id": "42b730a4cac9c3afe8796777bf4dcd0d", "type": "electric_bike", "is_disabled": 0, "fusion_lon": 0.0}, {"rental_uris": {"android": "https://dc.lft.to/lastmile_qr_scan", "ios": "https://dc.lft.to/lastmile_qr_scan"}, "lon": -77.06191983333333, "name": "aa69d72b7cdc9c527bcd5d037c8975f9", "lat": 38.918439166666666, "is_reserved": 0, "fusion_lat": 0.0, "bike_id": "aa69d72b7cdc9c527bcd5d037c8975f9", "type": "electric_scooter", "is_disabled": 0, "fusion_lon": 0.0}, {"rental_uris": {"android": "https://dc.lft.to/lastmile_qr_scan", "ios": "https://dc.lft.to/lastmile_qr_scan"}, "lon": -76.999147, "name": "6eee1d1dfac7ef1f00451c7dd1208cd0", "lat": 38.909246, "is_reserved": 0, "fusion_lat": 0.0, "bike_id": "6eee1d1dfac7ef1f00451c7dd1208cd0", "type": "electric_scooter", "is_disabled": 0, "fusion_lon": 0.0}, {"rental_uris": {"android": "https://dc.lft.to/lastmile_qr_scan", "ios": "https://dc.lft.to/lastmile_qr_scan"}, "lon": -77.020457, "name": "c4e065d03128ac2975caa8dbeee8c169", "lat": 38.92083433333333, "is_reserved": 0, "fusion_lat": 0.0, "bike_id": "c4e065d03128ac2975caa8dbeee8c169", "type": "electric_scooter", "is_disabled": 0, "fusion_lon": 0.0}, {"rental_uris": {"android": "https://dc.lft.to/lastmile_qr_scan", "ios": "https://dc.lft.to/lastmile_qr_scan"}, "lon": -77.02827016666667, "name": "1182e30b4c9ae637aef74108e883e828", "lat": 38.917084833333334, "is_reserved": 0, "fusion_lat": 0.0, "bike_id": "1182e30b4c9ae637aef74108e883e828", "type": "electric_scooter", "is_disabled": 0, "fusion_lon": 0.0}, {"rental_uris": {"android": "https://dc.lft.to/lastmile_qr_scan", "ios": "https://dc.lft.to/lastmile_qr_scan"}, "lon": -77.015118, "name": "7552cee0a641016f8af191fec6d94a36", "lat": 38.909997833333335, "is_reserved": 0, "fusion_lat": 0.0, "bike_id": "7552cee0a641016f8af191fec6d94a36", "type": "electric_scooter", "is_disabled": 0, "fusion_lon": 0.0}, {"rental_uris": {"android": "https://dc.lft.to/lastmile_qr_scan", "ios": "https://dc.lft.to/lastmile_qr_scan"}, "lon": -76.9809155, "name": "d60e0353db4bd59e4d5dd2961e8eed19", "lat": 38.9575715, "is_reserved": 0, "fusion_lat": 0.0, "bike_id": "d60e0353db4bd59e4d5dd2961e8eed19", "type": "electric_bike", "is_disabled": 0, "fusion_lon": 0.0}, {"rental_uris": {"android": "https://dc.lft.to/lastmile_qr_scan", "ios": "https://dc.lft.to/lastmile_qr_scan"}, "lon": -77.03914533333334, "name": "94fefef140070727d75cd0f24a1defae", "lat": 38.914061833333335, "is_reserved": 0, "fusion_lat": 0.0, "bike_id": "94fefef140070727d75cd0f24a1defae", "type": "electric_scooter", "is_disabled": 0, "fusion_lon": 0.0}, {"rental_uris": {"android": "https://dc.lft.to/lastmile_qr_scan", "ios": "https://dc.lft.to/lastmile_qr_scan"}, "lon": -76.96940716666667, "name": "f9a4672a9e4e53ae54b3bace79de3200", "lat": 38.959809666666665, "is_reserved": 0, "fusion_lat": 0.0, "bike_id": "f9a4672a9e4e53ae54b3bace79de3200", "type": "electric_bike", "is_disabled": 0, "fusion_lon": 0.0}, {"rental_uris": {"android": "https://dc.lft.to/lastmile_qr_scan", "ios": "https://dc.lft.to/lastmile_qr_scan"}, "lon": -77.042462, "name": "8ebe78f09e370fce055cb63926a4da88", "lat": 38.922208499999996, "is_reserved": 0, "fusion_lat": 0.0, "bike_id": "8ebe78f09e370fce055cb63926a4da88", "type": "electric_scooter", "is_disabled": 0, "fusion_lon": 0.0}, {"rental_uris": {"android": "https://dc.lft.to/lastmile_qr_scan", "ios": "https://dc.lft.to/lastmile_qr_scan"}, "lon": -77.0310115, "name": "e456bb427d8a36cc87a86489896c9a2f", "lat": 38.93186683333333, "is_reserved": 0, "fusion_lat": 0.0, "bike_id": "e456bb427d8a36cc87a86489896c9a2f", "type": "electric_scooter", "is_disabled": 0, "fusion_lon": 0.0}, {"rental_uris": {"android": "https://dc.lft.to/lastmile_qr_scan", "ios": "https://dc.lft.to/lastmile_qr_scan"}, "lon": -77.04256466666666, "name": "f04b27c093d08854808724ec4e551c09", "lat": 38.9220205, "is_reserved": 0, "fusion_lat": 0.0, "bike_id": "f04b27c093d08854808724ec4e551c09", "type": "electric_scooter", "is_disabled": 0, "fusion_lon": 0.0}, {"rental_uris": {"android": "https://dc.lft.to/lastmile_qr_scan", "ios": "https://dc.lft.to/lastmile_qr_scan"}, "lon": -77.00206766666666, "name": "4d8f4572d8f24f33e7d249842b604bc6", "lat": 38.91998066666667, "is_reserved": 0, "fusion_lat": 0.0, "bike_id": "4d8f4572d8f24f33e7d249842b604bc6", "type": "electric_scooter", "is_disabled": 0, "fusion_lon": 0.0}, {"rental_uris": {"android": "https://dc.lft.to/lastmile_qr_scan", "ios": "https://dc.lft.to/lastmile_qr_scan"}, "lon": -77.002172, "name": "424482b4a8b45ef75133023b6f862573", "lat": 38.91228366666667, "is_reserved": 0, "fusion_lat": 0.0, "bike_id": "424482b4a8b45ef75133023b6f862573", "type": "electric_scooter", "is_disabled": 0, "fusion_lon": 0.0}, {"rental_uris": {"android": "https://dc.lft.to/lastmile_qr_scan", "ios": "https://dc.lft.to/lastmile_qr_scan"}, "lon": -77.02175133333333, "name": "e5b2d43cae45f0d921c2700ec7b2b28b", "lat": 38.8950315, "is_reserved": 0, "fusion_lat": 0.0, "bike_id": "e5b2d43cae45f0d921c2700ec7b2b28b", "type": "electric_scooter", "is_disabled": 0, "fusion_lon": 0.0}, {"rental_uris": {"android": "https://dc.lft.to/lastmile_qr_scan", "ios": "https://dc.lft.to/lastmile_qr_scan"}, "lon": -77.0451665, "name": "55e6c0c56753c3c6bc04ab5c76ed77b3", "lat": 38.896072833333335, "is_reserved": 0, "fusion_lat": 0.0, "bike_id": "55e6c0c56753c3c6bc04ab5c76ed77b3", "type": "electric_scooter", "is_disabled": 0, "fusion_lon": 0.0}, {"rental_uris": {"android": "https://dc.lft.to/lastmile_qr_scan", "ios": "https://dc.lft.to/lastmile_qr_scan"},