{"data": {"bikes": [{"fusion_lat": 0.0, "name": "7aaae95b4f4d8d95270e216edbbe9664", "is_disabled": 0, "rental_uris": {"android": "https://dc.lft.to/lastmile_qr_scan", "ios": "https://dc.lft.to/lastmile_qr_scan"}, "fusion_lon": 0.0, "lat": 38.89069166666667, "bike_id": "7aaae95b4f4d8d95270e216edbbe9664", "type": "electric_scooter", "is_reserved": 0, "lon": -76.94458466666667}, {"fusion_lat": 0.0, "name": "7411ae38ab5687d2d6f808ccb2b44c63", "is_disabled": 0, "rental_uris": {"android": "https://dc.lft.to/lastmile_qr_scan", "ios": "https://dc.lft.to/lastmile_qr_scan"}, "fusion_lon": 0.0, "lat": 38.907896666666666, "bike_id": "7411ae38ab5687d2d6f808ccb2b44c63", "type": "electric_scooter", "is_reserved": 0, "lon": -77.02945283333334}, {"fusion_lat": 0.0, "name": "9d1f930442da080da9a7f26400a2f6c6", "is_disabled": 0, "rental_uris": {"android": "https://dc.lft.to/lastmile_qr_scan", "ios": "https://dc.lft.to/lastmile_qr_scan"}, "fusion_lon": 0.0, "lat": 38.91387566666667, "bike_id": "9d1f930442da080da9a7f26400a2f6c6", "type": "electric_scooter", "is_reserved": 0, "lon": -77.03320683333334}, {"fusion_lat": 0.0, "name": "1a1fc06a5f48634028fdda1c659a572f", "is_disabled": 0, "rental_uris": {"android": "https://dc.lft.to/lastmile_qr_scan", "ios": "https://dc.lft.to/lastmile_qr_scan"}, "fusion_lon": 0.0, "lat": 38.899058833333335, "bike_id": "1a1fc06a5f48634028fdda1c659a572f", "type": "electric_scooter", "is_reserved": 0, "lon": -77.056715}, {"fusion_lat": 0.0, "name": "8d0c1ff28bd5b81cb6b052387ee3bc8d", "is_disabled": 0, "rental_uris": {"android": "https://dc.lft.to/lastmile_qr_scan", "ios": "https://dc.lft.to/lastmile_qr_scan"}, "fusion_lon": 0.0, "lat": 38.917938166666666, "bike_id": "8d0c1ff28bd5b81cb6b052387ee3bc8d", "type": "electric_scooter", "is_reserved": 0, "lon": -77.00922916666667}, {"fusion_lat": 0.0, "name": "49c1e60dc37567e73f63a7c4db55b82b", "is_disabled": 0, "rental_uris": {"android": "https://dc.lft.to/lastmile_qr_scan", "ios": "https://dc.lft.to/lastmile_qr_scan"}, "fusion_lon": 0.0, "lat": 38.891686166666666, "bike_id": "49c1e60dc37567e73f63a7c4db55b82b", "type": "electric_scooter", "is_reserved": 0, "lon": -76.99463816666666}, {"fusion_lat": 0.0, "name": "5566653a71e4329300772dac029428c8", "is_disabled": 0, "rental_uris": {"android": "https://dc.lft.to/lastmile_qr_scan", "ios": "https://dc.lft.to/lastmile_qr_scan"}, "fusion_lon": 0.0, "lat": 38.925185, "bike_id": "5566653a71e4329300772dac029428c8", "type": "electric_scooter", "is_reserved": 0, "lon": -76.99564933333333}, {"fusion_lat": 0.0, "name": "9a153eb3f51c2bcc0c597ea17ceafd53", "is_disabled": 0, "rental_uris": {"android": "https://dc.lft.to/lastmile_qr_scan", "ios": "https://dc.lft.to/lastmile_qr_scan"}, "fusion_lon": 0.0, "lat": 38.9319935, "bike_id": "9a153eb3f51c2bcc0c597ea17ceafd53", "type": "electric_scooter", "is_reserved": 0, "lon": -77.02796733333334}, {"fusion_lat": 0.0, "name": "a45092b15e8af09ae9d5199639600094", "is_disabled": 0, "rental_uris": {"android": "https://dc.lft.to/lastmile_qr_scan", "ios": "https://dc.lft.to/lastmile_qr_scan"}, "fusion_lon": 0.0, "lat": 38.91679633333333, "bike_id": "a45092b15e8af09ae9d5199639600094", "type": "electric_scooter", "is_reserved": 0, "lon": -77.03682816666667}, {"fusion_lat": 0.0, "name": "424b0597cca075771ab356c40a0cd79d", "is_disabled": 0, "rental_uris": {"android": "https://dc.lft.to/lastmile_qr_scan", "ios": "https://dc.lft.to/lastmile_qr_scan"}, "fusion_lon": 0.0, "lat": 38.8994005, "bike_id": "424b0597cca075771ab356c40a0cd79d", "type": "electric_scooter", "is_reserved": 0, "lon": -77.00362833333334}, {"fusion_lat": 0.0, "name": "6f7bfaf5aa228a5493d688d24241ba74", "is_disabled": 0, "rental_uris": {"android": "https://dc.lft.to/lastmile_qr_scan", "ios": "https://dc.lft.to/lastmile_qr_scan"}, "fusion_lon": 0.0, "lat": 38.956447833333335, "bike_id": "6f7bfaf5aa228a5493d688d24241ba74", "type": "electric_scooter", "is_reserved": 0, "lon": -77.024107}, {"fusion_lat": 0.0, "name": "0222c5c45b3e3558b9fd983e1440a661", "is_disabled": 0, "rental_uris": {"android": "https://dc.lft.to/lastmile_qr_scan", "ios": "https://dc.lft.to/lastmile_qr_scan"}, "fusion_lon": 0.0, "lat": 38.8954795, "bike_id": "0222c5c45b3e3558b9fd983e1440a661", "type": "electric_scooter", "is_reserved": 0, "lon": -77.011959}, {"fusion_lat": 0.0, "name": "462e997c19a84f534cc5c9059232c860", "is_disabled": 0, "rental_uris": {"android": "https://dc.lft.to/lastmile_qr_scan", "ios": "https://dc.lft.to/lastmile_qr_scan"}, "fusion_lon": 0.0, "lat": 38.984756833333336, "bike_id": "462e997c19a84f534cc5c9059232c860", "type": "electric_scooter", "is_reserved": 0, "lon": -77.02639816666667}, {"fusion_lat": 0.0, "name": "e2d2700eb2e51c98f55cc6a0334d7ac2", "is_disabled": 0, "rental_uris": {"android": "https://dc.lft.to/lastmile_qr_scan", "ios": "https://dc.lft.to/lastmile_qr_scan"}, "fusion_lon": 0.0, "lat": 38.9216565, "bike_id": "e2d2700eb2e51c98f55cc6a0334d7ac2", "type": "electric_scooter", "is_reserved": 0, "lon": -77.0366605}, {"fusion_lat": 0.0, "name": "c216c52967d2ac135c5406722e1c7c96", "is_disabled": 0, "rental_uris": {"android": "https://dc.lft.to/lastmile_qr_scan", "ios": "https://dc.lft.to/lastmile_qr_scan"}, "fusion_lon": 0.0, "lat": 38.958356, "bike_id": "c216c52967d2ac135c5406722e1c7c96", "type": "electric_bike", "is_reserved": 0, "lon": -77.015114}, {"fusion_lat": 0.0, "name": "4f1b98b731c42450af6cd45f013601ab", "is_disabled": 0, "rental_uris": {"android": "https://dc.lft.to/lastmile_qr_scan", "ios": "https://dc.lft.to/lastmile_qr_scan"}, "fusion_lon": 0.0, "lat": 38.91846233333333, "bike_id": "4f1b98b731c42450af6cd45f013601ab", "type": "electric_scooter", "is_reserved": 0, "lon": -76.96535166666666}, {"fusion_lat": 0.0, "name": "a578420a7ab158e00cf281d375d3f1df", "is_disabled": 0, "rental_uris": {"android": "https://dc.lft.to/lastmile_qr_scan", "ios": "https://dc.lft.to/lastmile_qr_scan"}, "fusion_lon": 0.0, "lat": 38.8804425, "bike_id": "a578420a7ab158e00cf281d375d3f1df", "type": "electric_bike", "is_reserved": 0, "lon": -77.02518066666667}, {"fusion_lat": 0.0, "name": "3b3a6b3e7c9770b609cfb4d7e1e83551", "is_disabled": 0, "rental_uris": {"android": "https://dc.lft.to/lastmile_qr_scan", "ios": "https://dc.lft.to/lastmile_qr_scan"}, "fusion_lon": 0.0, "lat": 38.917082666666666, "bike_id": "3b3a6b3e7c9770b609cfb4d7e1e83551", "type": "electric_scooter", "is_reserved": 0, "lon": -77.02736716666666}, {"fusion_lat": 0.0, "name": "d1192a7e6eb0b8822740a8ef87e3a38b", "is_disabled": 0, "rental_uris": {"android": "https://dc.lft.to/lastmile_qr_scan", "ios": "https://dc.lft.to/lastmile_qr_scan"}, "fusion_lon": 0.0, "lat": 38.9166645, "bike_id": "d1192a7e6eb0b8822740a8ef87e3a38b", "type": "electric_scooter", "is_reserved": 0, "lon": -77.02822266666666}, {"fusion_lat": 0.0, "name": "f1a6e4e15b52452d66a35f21157d9510", "is_disabled": 0, "rental_uris": {"android": "https://dc.lft.to/lastmile_qr_scan", "ios": "https://dc.lft.to/lastmile_qr_scan"}, "fusion_lon": 0.0, "lat": 38.91707183333333, "bike_id": "f1a6e4e15b52452d66a35f21157d9510", "type": "electric_scooter", "is_reserved": 0, "lon": -77.02866783333333}, {"fusion_lat": 0.0, "name": "e9fbb1e83ebb25293c81949bcb4008cf", "is_disabled": 0, "rental_uris": {"android": "https://dc.lft.to/lastmile_qr_scan", "ios": "https://dc.lft.to/lastmile_qr_scan"}, "fusion_lon": 0.0, "lat": 38.897269333333334, "bike_id": "e9fbb1e83ebb25293c81949bcb4008cf", "type": "electric_scooter", "is_reserved": 0, "lon": -77.04621666666667}, {"fusion_lat": 0.0, "name": "6d6e1bb42250946b9546ccd12286cf08", "is_disabled": 0, "rental_uris": {"android": "https://dc.lft.to/lastmile_qr_scan", "ios": "https://dc.lft.to/lastmile_qr_scan"}, "fusion_lon": 0.0, "lat": 38.918169166666665, "bike_id": "6d6e1bb42250946b9546ccd12286cf08", "type": "electric_scooter", "is_reserved": 0, "lon": -77.00256483333334}, {"fusion_lat": 0.0, "name": "18f1cd122b4792808530f24003051073", "is_disabled": 0, "rental_uris": {"android": "https://dc.lft.to/lastmile_qr_scan", "ios": "https://dc.lft.to/lastmile_qr_scan"}, "fusion_lon": 0.0, "lat": 38.88766666666667, "bike_id": "18f1cd122b4792808530f24003051073", "type": "electric_scooter", "is_reserved": 0, "lon": -76.99465366666666}, {"fusion_lat": 0.0, "name": "25ad2224c31413a89e8a7e059cf6e099", "is_disabled": 0, "rental_uris": {"android": "https://dc.lft.to/lastmile_qr_scan", "ios": "https://dc.lft.to/lastmile_qr_scan"}, "fusion_lon": 0.0, "lat": 38.887147166666665, "bike_id": "25ad2224c31413a89e8a7e059cf6e099", "type": "electric_scooter", "is_reserved": 0, "lon": -77.01775166666667}, {"fusion_lat": 0.0, "name": "e213d7acc5f8cea159ce787bc9db1b88", "is_disabled": 0, "rental_uris": {"android": "https://dc.lft.to/lastmile_qr_scan", "ios": "https://dc.lft.to/lastmile_qr_scan"}, "fusion_lon": 0.0, "lat": 38.813422833333334, "bike_id": "e213d7acc5f8cea159ce787bc9db1b88", "type": "electric_bike", "is_reserved": 0, "lon": -77.05083566666667}, {"fusion_lat": 0.0, "name": "6b512b538d2a123bac9ab9a2ed3dd98c", "is_disabled": 0, "rental_uris": {"android": "https://dc.lft.to/lastmile_qr_scan", "ios": "https://dc.lft.to/lastmile_qr_scan"}, "fusion_lon": 0.0, "lat": 38.90386733333333, "bike_id": "6b512b538d2a123bac9ab9a2ed3dd98c", "type": "electric_scooter", "is_reserved": 0, "lon": -77.06704433333333}, {"fusion_lat": 0.0, "name": "4de13d581e20e7170a422948e7d09812", "is_disabled": 0, "rental_uris": {"android": "https://dc.lft.to/lastmile_qr_scan", "ios": "https://dc.lft.to/lastmile_qr_scan"}, "fusion_lon": 0.0, "lat": 38.883854, "bike_id": "4de13d581e20e7170a422948e7d09812", "type": "electric_scooter", "is_reserved": 0, "lon": -76.93043883333333}, {"fusion_lat": 0.0, "name": "5f5182a2611774b2bfb1ddcdc592c572", "is_disabled": 0, "rental_uris": {"android": "https://dc.lft.to/lastmile_qr_scan", "ios": "https://dc.lft.to/lastmile_qr_scan"}, "fusion_lon": 0.0, "lat": 38.928609333333334, "bike_id": "5f5182a2611774b2bfb1ddcdc592c572", "type": "electric_scooter", "is_reserved": 0, "lon": -77.03216333333333}, {"fusion_lat": 0.0, "name": "9f08d04cf7ed59dae6bb48d61d1c9122", "is_disabled": 0, "rental_uris": {"android": "https://dc.lft.to/lastmile_qr_scan", "ios": "https://dc.lft.to/lastmile_qr_scan"}, "fusion_lon": 0.0, "lat": 38.909059666666664, "bike_id": "9f08d04cf7ed59dae6bb48d61d1c9122", "type": "electric_scooter", "is_reserved": 0, "lon": -77.04468166666666}, {"fusion_lat": 0.0, "name": "0efab9c40fde52beeca631d60da518d9", "is_disabled": 0, "rental_uris": {"android": "https://dc.lft.to/lastmile_qr_scan", "ios": "https://dc.lft.to/lastmile_qr_scan"}, "fusion_lon": 0.0, "lat": 38.89647716666666, "bike_id": "0efab9c40fde52beeca631d60da518d9", "type": "electric_scooter", "is_reserved": 0, "lon": -77.05004166666667}, {"fusion_lat": 0.0, "name": "26dfc84e9ece626bf7f5517fcc958e26", "is_disabled": 0, "rental_uris": {"android": "https://dc.lft.to/lastmile_qr_scan", "ios": "https://dc.lft.to/lastmile_qr_scan"}, "fusion_lon": 0.0, "lat": 38.9492495, "bike_id": "26dfc84e9ece626bf7f5517fcc958e26", "type": "electric_bike", "is_reserved": 0, "lon": -77.06654933333333}, {"fusion_lat": 0.0, "name": "711ed315ecc1b4797a15826d980e9951", "is_disabled": 0, "rental_uris": {"android": "https://dc.lft.to/lastmile_qr_scan", "ios": "https://dc.lft.to/lastmile_qr_scan"}, "fusion_lon": 0.0, "lat": 38.958958833333334, "bike_id": "711ed315ecc1b4797a15826d980e9951", "type": "electric_scooter", "is_reserved": 0, "lon": -77.02734333333333}, {"fusion_lat": 0.0, "name": "95143d20c1ef628c4420ce7a6a68da6d", "is_disabled": 0, "rental_uris": {"android": "https://dc.lft.to/lastmile_qr_scan", "ios": "https://dc.lft.to/lastmile_qr_scan"}, "fusion_lon": 0.0, "lat": 38.9169385, "bike_id": "95143d20c1ef628c4420ce7a6a68da6d", "type": "electric_scooter", "is_reserved": 0, "lon": -77.02598033333334}, {"fusion_lat": 0.0, "name": "8e0dc069c7a550b1d0d6b06af1162990", "is_disabled": 0, "rental_uris": {"android": "https://dc.lft.to/lastmile_qr_scan", "ios": "https://dc.lft.to/lastmile_qr_scan"}, "fusion_lon": 0.0, "lat": 38.9195805, "bike_id": "8e0dc069c7a550b1d0d6b06af1162990", "type": "electric_scooter", "is_reserved": 0, "lon": -77.02476166666666}, {"fusion_lat": 0.0, "name": "b861d3d424445cad12bed5712c6b9f95", "is_disabled": 0, "rental_uris": {"android": "https://dc.lft.to/lastmile_qr_scan", "ios": "https://dc.lft.to/lastmile_qr_scan"}, "fusion_lon": 0.0, "lat": 38.89219533333333, "bike_id": "b861d3d424445cad12bed5712c6b9f95", "type": "electric_scooter", "is_reserved": 0, "lon": -77.04684316666666}, {"fusion_lat": 0.0, "name": "97c21ed6eded6ed14d68b1dc2bfa17f3", "is_disabled": 0, "rental_uris": {"android": "https://dc.lft.to/lastmile_qr_scan", "ios": "https://dc.lft.to/lastmile_qr_scan"}, "fusion_lon": 0.0, "lat": 38.885241, "bike_id": "97c21ed6eded6ed14d68b1dc2bfa17f3", "type": "electric_scooter", "is_reserved": 0, "lon": -76.9291515}, {"fusion_lat": 0.0, "name": "202582e6e267bbe84ed45878e8e31d45", "is_disabled": 0, "rental_uris": {"android": "https://dc.lft.to/lastmile_qr_scan", "ios": "https://dc.lft.to/lastmile_qr_scan"}, "fusion_lon": 0.0, "lat": 38.89910066666667, "bike_id": "202582e6e267bbe84ed45878e8e31d45", "type": "electric_scooter", "is_reserved": 0, "lon": -76.945864}, {"fusion_lat": 0.0, "name": "f814db4ddd516e1932f3426b7796a97c", "is_disabled": 0, "rental_uris": {"android": "https://dc.lft.to/lastmile_qr_scan", "ios": "https://dc.lft.to/lastmile_qr_scan"}, "fusion_lon": 0.0, "lat": 38.899127, "bike_id": "f814db4ddd516e1932f3426b7796a97c", "type": "electric_scooter", "is_reserved": 0, "lon": -76.93337533333333}, {"fusion_lat": 0.0, "name": "ad6d16d2052c5b27db0fd99752bb6b83", "is_disabled": 0, "rental_uris": {"android": "https://dc.lft.to/lastmile_qr_scan", "ios": "https://dc.lft.to/lastmile_qr_scan"}, "fusion_lon": 0.0, "lat": 38.92137666666667, "bike_id": "ad6d16d2052c5b27db0fd99752bb6b83", "type": "electric_scooter", "is_reserved": 0, "lon": -77.01802933333333}, {"fusion_lat": 0.0, "name": "ca41457558319a5335023ac960414011", "is_disabled": 0, "rental_uris": {"android": "https://dc.lft.to/lastmile_qr_scan", "ios": "https://dc.lft.to/lastmile_qr_scan"}, "fusion_lon": 0.0, "lat": 38.916934499999996, "bike_id": "ca41457558319a5335023ac960414011", "type": "electric_scooter", "is_reserved": 0, "lon": -77.032388}, {"fusion_lat": 0.0, "name": "6577c1e1aec7fd2862cbaed3e8173f3c", "is_disabled": 0, "rental_uris": {"android": "https://dc.lft.to/lastmile_qr_scan", "ios": "https://dc.lft.to/lastmile_qr_scan"}, "fusion_lon": 0.0, "lat": 38.875802166666666, "bike_id": "6577c1e1aec7fd2862cbaed3e8173f3c", "type": "electric_bike", "is_reserved": 0, "lon": -77.23408483333333}, {"fusion_lat": 0.0, "name": "e26b346cf56b4730997c22c42b6cdc7a", "is_disabled": 0, "rental_uris": {"android": "https://dc.lft.to/lastmile_qr_scan", "ios": "https://dc.lft.to/lastmile_qr_scan"}, "fusion_lon": 0.0, "lat": 38.95058383333333, "bike_id": "e26b346cf56b4730997c22c42b6cdc7a", "type": "electric_scooter", "is_reserved": 0, "lon": -77.08029016666667}, {"fusion_lat": 0.0, "name": "55fea8b9ac7ae1332a55a7c5a6570889", "is_disabled": 0, "rental_uris": {"android": "https://dc.lft.to/lastmile_qr_scan", "ios": "https://dc.lft.to/lastmile_qr_scan"}, "fusion_lon": 0.0, "lat": 38.918185666666666, "bike_id": "55fea8b9ac7ae1332a55a7c5a6570889", "type": "electric_scooter", "is_reserved": 0, "lon": -77.0135885}, {"fusion_lat": 0.0, "name": "25e6d9c8bc4ade645cd6ae9e306d7890", "is_disabled": 0, "rental_uris": {"android": "https://dc.lft.to/lastmile_qr_scan", "ios": "https://dc.lft.to/lastmile_qr_scan"}, "fusion_lon": 0.0, "lat": 38.939021333333336, "bike_id": "25e6d9c8bc4ade645cd6ae9e306d7890", "type": "electric_scooter", "is_reserved": 0, "lon": -77.03316366666667}, {"fusion_lat": 0.0, "name": "ff8ce3a5733791f78da5a41cd4f1b476", "is_disabled": 0, "rental_uris": {"android": "https://dc.lft.to/lastmile_qr_scan", "ios": "https://dc.lft.to/lastmile_qr_scan"}, "fusion_lon": 0.0, "lat": 38.956411333333335, "bike_id": "ff8ce3a5733791f78da5a41cd4f1b476", "type": "electric_scooter", "is_reserved": 0, "lon": -77.03303716666667}, {"fusion_lat": 0.0, "name": "0ce644365fcd035c566fa8ac558250ac", "is_disabled": 0, "rental_uris": {"android": "https://dc.lft.to/lastmile_qr_scan", "ios": "https://dc.lft.to/lastmile_qr_scan"}, "fusion_lon": 0.0, "lat": 38.91017266666667, "bike_id": "0ce644365fcd035c566fa8ac558250ac", "type": "electric_scooter", "is_reserved": 0, "lon": -77.0385015}, {"fusion_lat": 0.0, "name": "0c5a9828db4e7534e887edcd318eb4f8", "is_disabled": 0, "rental_uris": {"android": "https://dc.lft.to/lastmile_qr_scan", "ios": "https://dc.lft.to/lastmile_qr_scan"}, "fusion_lon": 0.0, "lat": 38.934573666666665, "bike_id": "0c5a9828db4e7534e887edcd318eb4f8", "type": "electric_scooter", "is_reserved": 0, "lon": -77.02338016666667}, {"fusion_lat": 0.0, "name": "21adc21501041989477709e88e817c60", "is_disabled": 0, "rental_uris": {"android": "https://dc.lft.to/lastmile_qr_scan", "ios": "https://dc.lft.to/lastmile_qr_scan"}, "fusion_lon": 0.0, "lat": 38.930749666666664, "bike_id": "21adc21501041989477709e88e817c60", "type": "electric_scooter", "is_reserved": 0, "lon": -77.03157083333333}, {"fusion_lat": 0.0, "name": "9d6d98c5425578c2781be4b3954ac2b1", "is_disabled": 0, "rental_uris": {"android": "https://dc.lft.to/lastmile_qr_scan", "ios": "https://dc.lft.to/lastmile_qr_scan"}, "fusion_lon": 0.0, "lat": 38.901065333333335, "bike_id": "9d6d98c5425578c2781be4b3954ac2b1", "type": "electric_scooter", "is_reserved": 0, "lon": -77.05812783333333}, {"fusion_lat": 0.0, "name": "0aeae3a2d2bc65867d6213c3f0391117", "is_disabled": 0, "rental_uris": {"android": "https://dc.lft.to/lastmile_qr_scan", "ios": "https://dc.lft.to/lastmile_qr_scan"}, "fusion_lon": 0.0, "lat": 38.9192665, "bike_id": "0aeae3a2d2bc65867d6213c3f0391117", "type": "electric_scooter", "is_reserved": 0, "lon": -77.00969183333333}, {"fusion_lat": 0.0, "name": "363673537e940a008c61805369a8e563", "is_disabled": 0, "rental_uris": {"android": "https://dc.lft.to/lastmile_qr_scan", "ios": "https://dc.lft.to/lastmile_qr_scan"}, "fusion_lon": 0.0, "lat": 38.92680716666667, "bike_id": "363673537e940a008c61805369a8e563", "type": "electric_scooter", "is_reserved": 0, "lon": -77.00858066666666}, {"fusion_lat": 0.0, "name": "24dc738ce4b93c543a14fbb474f642e0", "is_disabled": 0, "rental_uris": {"android": "https://dc.lft.to/lastmile_qr_scan", "ios": "https://dc.lft.to/lastmile_qr_scan"}, "fusion_lon": 0.0, "lat": 38.89951883333333, "bike_id": "24dc738ce4b93c543a14fbb474f642e0", "type": "electric_scooter", "is_reserved": 0, "lon": -77.006768}, {"fusion_lat": 0.0, "name": "8877fdf1731de7dbf5dd50bcd1892f1e", "is_disabled": 0, "rental_uris": {"android": "https://dc.lft.to/lastmile_qr_scan", "ios": "https://dc.lft.to/lastmile_qr_scan"}, "fusion_lon": 0.0, "lat": 38.88611916666667, "bike_id": "8877fdf1731de7dbf5dd50bcd1892f1e", "type": "electric_scooter", "is_reserved": 0, "lon": -77.01247566666666}, {"fusion_lat": 0.0, "name": "4b67ac77320c21533ad7fdbf6e022dbb", "is_disabled": 0, "rental_uris": {"android": "https://dc.lft.to/lastmile_qr_scan", "ios": "https://dc.lft.to/lastmile_qr_scan"}, "fusion_lon": 0.0, "lat": 38.90520933333333, "bike_id": "4b67ac77320c21533ad7fdbf6e022dbb", "type": "electric_scooter", "is_reserved": 0, "lon": -77.06882033333333}, {"fusion_lat": 0.0, "name": "9bd53ad601e9d8e71bc93d0f61fbbcd1", "is_disabled": 0, "rental_uris": {"android": "https://dc.lft.to/lastmile_qr_scan", "ios": "https://dc.lft.to/lastmile_qr_scan"}, "fusion_lon": 0.0, "lat": 38.9185785, "bike_id": "9bd53ad601e9d8e71bc93d0f61fbbcd1", "type": "electric_scooter", "is_reserved": 0, "lon": -76.96111983333333}, {"fusion_lat": 0.0, "name": "01df28edddb5684e105d4fa733bd252b", "is_disabled": 0, "rental_uris": {"android": "https://dc.lft.to/lastmile_qr_scan", "ios": "https://dc.lft.to/lastmile_qr_scan"}, "fusion_lon": 0.0, "lat": 38.88733283333333, "bike_id": "01df28edddb5684e105d4fa733bd252b", "type": "electric_scooter", "is_reserved": 0, "lon": -77.01534916666667}, {"fusion_lat": 0.0, "name": "98f632a64d783fd6608431962509f644", "is_disabled": 0, "rental_uris": {"android": "https://dc.lft.to/lastmile_qr_scan", "ios": "https://dc.lft.to/lastmile_qr_scan"}, "fusion_lon": 0.0, "lat": 38.932143833333335, "bike_id": "98f632a64d783fd6608431962509f644", "type": "electric_scooter", "is_reserved": 0, "lon": -77.0351805}, {"fusion_lat": 0.0, "name": "2061a20db6d3bf702583ea3e49017a2a", "is_disabled": 0, "rental_uris": {"android": "https://dc.lft.to/lastmile_qr_scan", "ios": "https://dc.lft.to/lastmile_qr_scan"}, "fusion_lon": 0.0, "lat": 38.88581283333333, "bike_id": "2061a20db6d3bf702583ea3e49017a2a", "type": "electric_scooter", "is_reserved": 0, "lon": -77.01950283333333}, {"fusion_lat": 0.0, "name": "14301715a67fae36021bbe2e68ae8919", "is_disabled": 0, "rental_uris": {"android": "https://dc.lft.to/lastmile_qr_scan", "ios": "https://dc.lft.to/lastmile_qr_scan"}, "fusion_lon": 0.0, "lat": 38.908916166666664, "bike_id": "14301715a67fae36021bbe2e68ae8919", "type": "electric_scooter", "is_reserved": 0, "lon": -76.99873516666666}, {"fusion_lat": 0.0, "name": "4c20074c799c7369bce2aaa0c3c5db9c", "is_disabled": 0, "rental_uris": {"android": "https://dc.lft.to/lastmile_qr_scan", "ios": "https://dc.lft.to/lastmile_qr_scan"}, "fusion_lon": 0.0, "lat": 38.91710466666667, "bike_id": "4c20074c799c7369bce2aaa0c3c5db9c", "type": "electric_scooter", "is_reserved": 0, "lon": -77.02901483333333}, {"fusion_lat": 0.0, "name": "b7e95be84b51ba5fc9dfd31ded299002", "is_disabled": 0, "rental_uris": {"android": "https://dc.lft.to/lastmile_qr_scan", "ios": "https://dc.lft.to/lastmile_qr_scan"}, "fusion_lon": 0.0, "lat": 38.91544966666667, "bike_id": "b7e95be84b51ba5fc9dfd31ded299002", "type": "electric_scooter", "is_reserved": 0, "lon": -76.98377733333334}, {"fusion_lat": 0.0, "name": "4ac1f3c9ca5b0d24d175f8dcca933e5b", "is_disabled": 0, "rental_uris": {"android": "https://dc.lft.to/lastmile_qr_scan", "ios": "https://dc.lft.to/lastmile_qr_scan"}, "fusion_lon": 0.0, "lat": 38.9231315, "bike_id": "4ac1f3c9ca5b0d24d175f8dcca933e5b", "type": "electric_scooter", "is_reserved": 0, "lon": -77.029035}, {"fusion_lat": 0.0, "name": "69bce928089c5e99d33a1f4545c77c01", "is_disabled": 0, "rental_uris": {"android": "https://dc.lft.to/lastmile_qr_scan", "ios": "https://dc.lft.to/lastmile_qr_scan"}, "fusion_lon": 0.0, "lat": 38.90066083333333, "bike_id": "69bce928089c5e99d33a1f4545c77c01", "type": "electric_scooter", "is_reserved": 0, "lon": -77.05422016666667}, {"fusion_lat": 0.0, "name": "8188fb64da46776c58cab95bea3bef20", "is_disabled": 0, "rental_uris": {"android": "https://dc.lft.to/lastmile_qr_scan", "ios": "https://dc.lft.to/lastmile_qr_scan"}, "fusion_lon": 0.0, "lat": 38.91652916666666, "bike_id": "8188fb64da46776c58cab95bea3bef20", "type": "electric_scooter", "is_reserved": 0, "lon": -77.0280745}, {"fusion_lat": 0.0, "name": "9f00afbd41d70670a99945cccb00135d", "is_disabled": 0, "rental_uris": {"android": "https://dc.lft.to/lastmile_qr_scan", "ios": "https://dc.lft.to/lastmile_qr_scan"}, "fusion_lon": 0.0, "lat": 38.87632983333334, "bike_id": "9f00afbd41d70670a99945cccb00135d", "type": "electric_scooter", "is_reserved": 0, "lon": -77.0094895}, {"fusion_lat": 0.0, "name": "1c277f3ec03e35e9aa4088e5974d93a9", "is_disabled": 0, "rental_uris": {"android": "https://dc.lft.to/lastmile_qr_scan", "ios": "https://dc.lft.to/lastmile_qr_scan"}, "fusion_lon": 0.0, "lat": 38.918125833333335, "bike_id": "1c277f3ec03e35e9aa4088e5974d93a9", "type": "electric_scooter", "is_reserved": 0, "lon": -77.0333755}, {"fusion_lat": 0.0, "name": "6d24b7a36059bf0cda61f9e8e9c2f00b", "is_disabled": 0, "rental_uris": {"android": "https://dc.lft.to/lastmile_qr_scan", "ios": "https://dc.lft.to/lastmile_qr_scan"}, "fusion_lon": 0.0, "lat": 38.916770166666666, "bike_id": "6d24b7a36059bf0cda61f9e8e9c2f00b", "type": "electric_scooter", "is_reserved": 0, "lon": -77.02416283333334}, {"fusion_lat": 0.0, "name": "3b67ee538aa6844818494d6bb097ca9b", "is_disabled": 0, "rental_uris": {"android": "https://dc.lft.to/lastmile_qr_scan", "ios": "https://dc.lft.to/lastmile_qr_scan"}, "fusion_lon": 0.0, "lat": 38.9002785, "bike_id": "3b67ee538aa6844818494d6bb097ca9b", "type": "electric_scooter", "is_reserved": 0, "lon": -76.98849766666666}, {"fusion_lat": 0.0, "name": "0838fe606729a240d6c24ac78a339ec5", "is_disabled": 0, "rental_uris": {"android": "https://dc.lft.to/lastmile_qr_scan", "ios": "https://dc.lft.to/lastmile_qr_scan"}, "fusion_lon": 0.0, "lat": 38.919076833333335, "bike_id": "0838fe606729a240d6c24ac78a339ec5", "type": "electric_scooter", "is_reserved": 0, "lon": -77.0121795}, {"fusion_lat": 0.0, "name": "c01bd27655d224e7b154b9c6937e1e88", "is_disabled": 0, "rental_uris": {"android": "https://dc.lft.to/lastmile_qr_scan", "ios": "https://dc.lft.to/lastmile_qr_scan"}, "fusion_lon": 0.0, "lat": 38.926097666666664, "bike_id": "c01bd27655d224e7b154b9c6937e1e88", "type": "electric_scooter", "is_reserved": 0, "lon": -77.02218233333333}, {"fusion_lat": 0.0, "name": "8e7c88c26ca7fb33b61daa842c3f5d44", "is_disabled": 0, "rental_uris": {"android": "https://dc.lft.to/lastmile_qr_scan", "ios": "https://dc.lft.to/lastmile_qr_scan"}, "fusion_lon": 0.0, "lat": 38.887468166666665, "bike_id": "8e7c88c26ca7fb33b61daa842c3f5d44", "type": "electric_scooter", "is_reserved": 0, "lon": -77.02226316666666}, {"fusion_lat": 0.0, "name": "898ecc7a8d473ce6141283000d30b176", "is_disabled": 0, "rental_uris": {"android": "https://dc.lft.to/lastmile_qr_scan", "ios": "https://dc.lft.to/lastmile_qr_scan"}, "fusion_lon": 0.0, "lat": 38.940205166666665, "bike_id": "898ecc7a8d473ce6141283000d30b176", "type": "electric_scooter", "is_reserved": 0, "lon": -77.02765816666667}, {"fusion_lat": 0.0, "name": "4fbc127391baa9dcd6e024c863641317", "is_disabled": 0, "rental_uris": {"android": "https://dc.lft.to/lastmile_qr_scan", "ios": "https://dc.lft.to/lastmile_qr_scan"}, "fusion_lon": 0.0, "lat": 38.91931116666667, "bike_id": "4fbc127391baa9dcd6e024c863641317", "type": "electric_scooter", "is_reserved": 0, "lon": -77.02501216666667}, {"fusion_lat": 0.0, "name": "5f886b07d1c3e3221da2aad08dbf3a74", "is_disabled": 0, "rental_uris": {"android": "https://dc.lft.to/lastmile_qr_scan", "ios": "https://dc.lft.to/lastmile_qr_scan"}, "fusion_lon": 0.0, "lat": 38.926132833333334, "bike_id": "5f886b07d1c3e3221da2aad08dbf3a74", "type": "electric_scooter", "is_reserved": 0, "lon": -77.02168066666667}, {"fusion_lat": 0.0, "name": "6e1aa08c5c7e0ff12455f82a63bba660", "is_disabled": 0, "rental_uris": {"android": "https://dc.lft.to/lastmile_qr_scan", "ios": "https://dc.lft.to/lastmile_qr_scan"}, "fusion_lon": 0.0, "lat": 38.90958, "bike_id": "6e1aa08c5c7e0ff12455f82a63bba660", "type": "electric_scooter", "is_reserved": 0, "lon": -76.98546566666667}, {"fusion_lat": 0.0, "name": "8572ee74f5e3bc82c2ffe94fa6fe0e84", "is_disabled": 0, "rental_uris": {"android": "https://dc.lft.to/lastmile_qr_scan", "ios": "https://dc.lft.to/lastmile_qr_scan"}, "fusion_lon": 0.0, "lat": 38.8245705, "bike_id": "8572ee74f5e3bc82c2ffe94fa6fe0e84", "type": "electric_bike", "is_reserved": 0, "lon": -77.007858}, {"fusion_lat": 0.0, "name": "20198bb1a89856d0477fa60b6cbfbcf9", "is_disabled": 0, "rental_uris": {"android": "https://dc.lft.to/lastmile_qr_scan", "ios": "https://dc.lft.to/lastmile_qr_scan"}, "fusion_lon": 0.0, "lat": 38.899011, "bike_id": "20198bb1a89856d0477fa60b6cbfbcf9", "type": "electric_scooter", "is_reserved": 0, "lon": -76.94548}, {"fusion_lat": 0.0, "name": "81a9c1ec23d72e99e92ab5276cea52dc", "is_disabled": 0, "rental_uris": {"android": "https://dc.lft.to/lastmile_qr_scan", "ios": "https://dc.lft.to/lastmile_qr_scan"}, "fusion_lon": 0.0, "lat": 38.9135665, "bike_id": "81a9c1ec23d72e99e92ab5276cea52dc", "type": "electric_scooter", "is_reserved": 0, "lon": -77.04581366666666}, {"fusion_lat": 0.0, "name": "9227811e9adbe1e72c5564a811d8928b", "is_disabled": 0, "rental_uris": {"android": "https://dc.lft.to/lastmile_qr_scan", "ios": "https://dc.lft.to/lastmile_qr_scan"}, "fusion_lon": 0.0, "lat": 38.87683966666667, "bike_id": "9227811e9adbe1e72c5564a811d8928b", "type": "electric_scooter", "is_reserved": 0, "lon": -77.00750183333334}, {"fusion_lat": 0.0, "name": "ba884b647263550c26839f38a0022d79", "is_disabled": 0, "rental_uris": {"android": "https://dc.lft.to/lastmile_qr_scan", "ios": "https://dc.lft.to/lastmile_qr_scan"}, "fusion_lon": 0.0, "lat": 38.905204, "bike_id": "ba884b647263550c26839f38a0022d79", "type": "electric_scooter", "is_reserved": 0, "lon": -77.05651266666666}, {"fusion_lat": 0.0, "name": "9f76765332dd7252aea2ffcf0ef7d373", "is_disabled": 0, "rental_uris": {"android": "https://dc.lft.to/lastmile_qr_scan", "ios": "https://dc.lft.to/lastmile_qr_scan"}, "fusion_lon": 0.0, "lat": 38.923903833333334, "bike_id": "9f76765332dd7252aea2ffcf0ef7d373", "type": "electric_scooter", "is_reserved": 0, "lon": -77.03644566666667}, {"fusion_lat": 0.0, "name": "f344e91828cd35855ce85240f81de2d2", "is_disabled": 0, "rental_uris": {"android": "https://dc.lft.to/lastmile_qr_scan", "ios": "https://dc.lft.to/lastmile_qr_scan"}, "fusion_lon": 0.0, "lat": 38.9005165, "bike_id": "f344e91828cd35855ce85240f81de2d2", "type": "electric_scooter", "is_reserved": 0, "lon": -77.00773266666667}, {"fusion_lat": 0.0, "name": "46f5bffa7046385ecd00b87e5e25a54e", "is_disabled": 0, "rental_uris": {"android": "https://dc.lft.to/lastmile_qr_scan", "ios": "https://dc.lft.to/lastmile_qr_scan"}, "fusion_lon": 0.0, "lat": 38.878799, "bike_id": "46f5bffa7046385ecd00b87e5e25a54e", "type": "electric_scooter", "is_reserved": 0, "lon": -77.02226683333333}, {"fusion_lat": 0.0, "name": "64b98bc7c93fb57bbcf5a19f827425b0", "is_disabled": 0, "rental_uris": {"android": "https://dc.lft.to/lastmile_qr_scan", "ios": "https://dc.lft.to/lastmile_qr_scan"}, "fusion_lon": 0.0, "lat": 38.88766316666667, "bike_id": "64b98bc7c93fb57bbcf5a19f827425b0", "type": "electric_scooter", "is_reserved": 0, "lon": -76.97751966666667}, {"fusion_lat": 0.0, "name": "6c4ff6927787067bad350294973a9095", "is_disabled": 0, "rental_uris": {"android": "https://dc.lft.to/lastmile_qr_scan", "ios": "https://dc.lft.to/lastmile_qr_scan"}, "fusion_lon": 0.0, "lat": 38.92495916666667, "bike_id": "6c4ff6927787067bad350294973a9095", "type": "electric_scooter", "is_reserved": 0, "lon": -77.052287}, {"fusion_lat": 0.0, "name": "610a355ca96c10b365857b24c9c3d583", "is_disabled": 0, "rental_uris": {"android": "https://dc.lft.to/lastmile_qr_scan", "ios": "https://dc.lft.to/lastmile_qr_scan"}, "fusion_lon": 0.0, "lat": 38.908681, "bike_id": "610a355ca96c10b365857b24c9c3d583", "type": "electric_scooter", "is_reserved": 0, "lon": -77.03221083333334}, {"fusion_lat": 0.0, "name": "a7ad0758ce86efd15e832b34d81fe1e3", "is_disabled": 0, "rental_uris": {"android": "https://dc.lft.to/lastmile_qr_scan", "ios": "https://dc.lft.to/lastmile_qr_scan"}, "fusion_lon": 0.0, "lat": 38.91631866666667, "bike_id": "a7ad0758ce86efd15e832b34d81fe1e3", "type": "electric_scooter", "is_reserved": 0, "lon": -77.02952083333334}, {"fusion_lat": 0.0, "name": "fe5b6941f9e37b2b7dde42fa5400fdd2", "is_disabled": 0, "rental_uris": {"android": "https://dc.lft.to/lastmile_qr_scan", "ios": "https://dc.lft.to/lastmile_qr_scan"}, "fusion_lon": 0.0, "lat": 38.9009995, "bike_id": "fe5b6941f9e37b2b7dde42fa5400fdd2", "type": "electric_scooter", "is_reserved": 0, "lon": -77.0580865}, {"fusion_lat": 0.0, "name": "d6141abb713c12f455a4551b9d90c0b8", "is_disabled": 0, "rental_uris": {"android": "https://dc.lft.to/lastmile_qr_scan", "ios": "https://dc.lft.to/lastmile_qr_scan"}, "fusion_lon": 0.0, "lat": 38.921657, "bike_id": "d6141abb713c12f455a4551b9d90c0b8", "type": "electric_scooter", "is_reserved": 0, "lon": -77.04341166666667}, {"fusion_lat": 0.0, "name": "fe24f6b8c0a53fada240854ae3ecb6f6", "is_disabled": 0, "rental_uris": {"android": "https://dc.lft.to/lastmile_qr_scan", "ios": "https://dc.lft.to/lastmile_qr_scan"}, "fusion_lon": 0.0, "lat": 38.878792833333335, "bike_id": "fe24f6b8c0a53fada240854ae3ecb6f6", "type": "electric_scooter", "is_reserved": 0, "lon": -77.00589133333334}, {"fusion_lat": 0.0, "name": "4ab0d2af48db0272de3da2ad8386d824", "is_disabled": 0, "rental_uris": {"android": "https://dc.lft.to/lastmile_qr_scan", "ios": "https://dc.lft.to/lastmile_qr_scan"}, "fusion_lon": 0.0, "lat": 38.873729166666664, "bike_id": "4ab0d2af48db0272de3da2ad8386d824", "type": "electric_scooter", "is_reserved": 0, "lon": -77.0008955}, {"fusion_lat": 0.0, "name": "0451c617f24350ae3d707157dd507e32", "is_disabled": 0, "rental_uris": {"android": "https://dc.lft.to/lastmile_qr_scan", "ios": "https://dc.lft.to/lastmile_qr_scan"}, "fusion_lon": 0.0, "lat": 38.908531833333335, "bike_id": "0451c617f24350ae3d707157dd507e32", "type": "electric_scooter", "is_reserved": 0, "lon": -77.04537183333333}, {"fusion_lat": 0.0, "name": "b7a90948681c2b73f6fef1ce0972d86b", "is_disabled": 0, "rental_uris": {"android": "https://dc.lft.to/lastmile_qr_scan", "ios": "https://dc.lft.to/lastmile_qr_scan"}, "fusion_lon": 0.0, "lat": 38.89896383333333, "bike_id": "b7a90948681c2b73f6fef1ce0972d86b", "type": "electric_scooter", "is_reserved": 0, "lon": -77.032756}, {"fusion_lat": 0.0, "name": "bb9a55c859c90b76204cdb0e064a0a46", "is_disabled": 0, "rental_uris": {"android": "https://dc.lft.to/lastmile_qr_scan", "ios": "https://dc.lft.to/lastmile_qr_scan"}, "fusion_lon": 0.0, "lat": 38.948408, "bike_id": "bb9a55c859c90b76204cdb0e064a0a46", "type": "electric_scooter", "is_reserved": 0, "lon": -77.07980033333334}, {"fusion_lat": 0.0, "name": "1c094206428825b1ae1ee649d28ff6e1", "is_disabled": 0, "rental_uris": {"android": "https://dc.lft.to/lastmile_qr_scan", "ios": "https://dc.lft.to/lastmile_qr_scan"}, "fusion_lon": 0.0, "lat": 38.961325333333335, "bike_id": "1c094206428825b1ae1ee649d28ff6e1", "type": "electric_bike", "is_reserved": 0, "lon": -77.03272483333333}, {"fusion_lat": 0.0, "name": "b26fe4118e6d82e1ad36120ec6fd81a7", "is_disabled": 0, "rental_uris": {"android": "https://dc.lft.to/lastmile_qr_scan", "ios": "https://dc.lft.to/lastmile_qr_scan"}, "fusion_lon": 0.0, "lat": 38.884641, "bike_id": "b26fe4118e6d82e1ad36120ec6fd81a7", "type": "electric_scooter", "is_reserved": 0, "lon": -76.94979833333333}, {"fusion_lat": 0.0, "name": "ebdf2700e6cf5850bec3957db1ff8770", "is_disabled": 0, "rental_uris": {"android": "https://dc.lft.to/lastmile_qr_scan", "ios": "https://dc.lft.to/lastmile_qr_scan"}, "fusion_lon": 0.0, "lat": 38.88498383333334, "bike_id": "ebdf2700e6cf5850bec3957db1ff8770", "type": "electric_scooter", "is_reserved": 0, "lon": -76.92953766666666}, {"fusion_lat": 0.0, "name": "d857f5d148441dbe38bcc220d137d4d0", "is_disabled": 0, "rental_uris": {"android": "https://dc.lft.to/lastmile_qr_scan", "ios": "https://dc.lft.to/lastmile_qr_scan"}, "fusion_lon": 0.0, "lat": 38.876136833333334, "bike_id": "d857f5d148441dbe38bcc220d137d4d0", "type": "electric_scooter", "is_reserved": 0, "lon": -77.00124816666667}, {"fusion_lat": 0.0, "name": "e2e5435f0c7d0daf2f12d4897380d6e3", "is_disabled": 0, "rental_uris": {"android": "https://dc.lft.to/lastmile_qr_scan", "ios": "https://dc.lft.to/lastmile_qr_scan"}, "fusion_lon": 0.0, "lat": 38.89609733333333, "bike_id": "e2e5435f0c7d0daf2f12d4897380d6e3", "type": "electric_scooter", "is_reserved": 0, "lon": -77.00927833333333}, {"fusion_lat": 0.0, "name": "c6a5571da05cfa6ca1f837d2e9398aba", "is_disabled": 0, "rental_uris": {"android": "https://dc.lft.to/lastmile_qr_scan", "ios": "https://dc.lft.to/lastmile_qr_scan"}, "fusion_lon": 0.0, "lat": 38.900436166666665, "bike_id": "c6a5571da05cfa6ca1f837d2e9398aba", "type": "electric_scooter", "is_reserved": 0, "lon": -77.03663633333333}, {"fusion_lat": 0.0, "name": "9a1bb2ee16b364021fabcf39338ca362", "is_disabled": 0, "rental_uris": {"android": "https://dc.lft.to/lastmile_qr_scan", "ios": "https://dc.lft.to/lastmile_qr_scan"}, "fusion_lon": 0.0, "lat": 38.87708283333333, "bike_id": "9a1bb2ee16b364021fabcf39338ca362", "type": "electric_scooter", "is_reserved": 0, "lon": -76.99380466666666}, {"fusion_lat": 0.0, "name": "539f661ff50c0aba78c02078c6f6f44b", "is_disabled": 0, "rental_uris": {"android": "https://dc.lft.to/lastmile_qr_scan", "ios": "https://dc.lft.to/lastmile_qr_scan"}, "fusion_lon": 0.0, "lat": 38.88613566666667, "bike_id": "539f661ff50c0aba78c02078c6f6f44b", "type": "electric_scooter", "is_reserved": 0, "lon": -77.01556283333333}, {"fusion_lat": 0.0, "name": "b7c9ec933fefce67c0b170cfa95f4f80", "is_disabled": 0, "rental_uris": {"android": "https://dc.lft.to/lastmile_qr_scan", "ios": "https://dc.lft.to/lastmile_qr_scan"}, "fusion_lon": 0.0, "lat": 38.907532333333336, "bike_id": "b7c9ec933fefce67c0b170cfa95f4f80", "type": "electric_scooter", "is_reserved": 0, "lon": -77.03615516666666}, {"fusion_lat": 0.0, "name": "52def7ec306f403b8c83ab94a915f6f4", "is_disabled": 0, "rental_uris": {"android": "https://dc.lft.to/lastmile_qr_scan", "ios": "https://dc.lft.to/lastmile_qr_scan"}, "fusion_lon": 0.0, "lat": 38.898749333333335, "bike_id": "52def7ec306f403b8c83ab94a915f6f4", "type": "electric_scooter", "is_reserved": 0, "lon": -76.93180966666667}, {"fusion_lat": 0.0, "name": "5bef3ef8d596c3239709c73f370652c3", "is_disabled": 0, "rental_uris": {"android": "https://dc.lft.to/lastmile_qr_scan", "ios": "https://dc.lft.to/lastmile_qr_scan"}, "fusion_lon": 0.0, "lat": 38.9172625, "bike_id": "5bef3ef8d596c3239709c73f370652c3", "type": "electric_scooter", "is_reserved": 0, "lon": -77.0416235}, {"fusion_lat": 0.0, "name": "c02ebc189c32d985d8752fc7f847b182", "is_disabled": 0, "rental_uris": {"android": "https://dc.lft.to/lastmile_qr_scan", "ios": "https://dc.lft.to/lastmile_qr_scan"}, "fusion_lon": 0.0, "lat": 38.900262166666664, "bike_id": "c02ebc189c32d985d8752fc7f847b182", "type": "electric_scooter", "is_reserved": 0, "lon": -77.03630833333334}, {"fusion_lat": 0.0, "name": "1fc697206f760caad505ab5d57706f5e", "is_disabled": 0, "rental_uris": {"android": "https://dc.lft.to/lastmile_qr_scan", "ios": "https://dc.lft.to/lastmile_qr_scan"}, "fusion_lon": 0.0, "lat": 38.90768383333333, "bike_id": "1fc697206f760caad505ab5d57706f5e", "type": "electric_scooter", "is_reserved": 0, "lon": -77.03192633333333}, {"fusion_lat": 0.0, "name": "82a33ce4619d482e1e43e062195ef60b", "is_disabled": 0, "rental_uris": {"android": "https://dc.lft.to/lastmile_qr_scan", "ios": "https://dc.lft.to/lastmile_qr_scan"}, "fusion_lon": 0.0, "lat": 38.922574166666664, "bike_id": "82a33ce4619d482e1e43e062195ef60b", "type": "electric_scooter", "is_reserved": 0, "lon": -77.01949383333333}, {"fusion_lat": 0.0, "name": "c41d576047b6b9dcf37f0746b6484b99", "is_disabled": 0, "rental_uris": {"android": "https://dc.lft.to/lastmile_qr_scan", "ios": "https://dc.lft.to/lastmile_qr_scan"}, "fusion_lon": 0.0, "lat": 38.92395766666667, "bike_id": "c41d576047b6b9dcf37f0746b6484b99", "type": "electric_scooter", "is_reserved": 0, "lon": -77.02484666666666}, {"fusion_lat": 0.0, "name": "7d237bf7e63c4067a0f807e3bd2e06ec", "is_disabled": 0, "rental_uris": {"android": "https://dc.lft.to/lastmile_qr_scan", "ios": "https://dc.lft.to/lastmile_qr_scan"}, "fusion_lon": 0.0, "lat": 38.887117833333335, "bike_id": "7d237bf7e63c4067a0f807e3bd2e06ec", "type": "electric_scooter", "is_reserved": 0, "lon": -76.9967335}, {"fusion_lat": 0.0, "name": "2ba5195f69106aae7111933ef91d1326", "is_disabled": 0, "rental_uris": {"android": "https://dc.lft.to/lastmile_qr_scan", "ios": "https://dc.lft.to/lastmile_qr_scan"}, "fusion_lon": 0.0, "lat": 38.88410183333333, "bike_id": "2ba5195f69106aae7111933ef91d1326", "type": "electric_bike", "is_reserved": 0, "lon": -76.95406383333334}, {"fusion_lat": 0.0, "name": "fb7c6ac9bddaab425335f9c6bc69d5fa", "is_disabled": 0, "rental_uris": {"android": "https://dc.lft.to/lastmile_qr_scan", "ios": "https://dc.lft.to/lastmile_qr_scan"}, "fusion_lon": 0.0, "lat": 38.932924, "bike_id": "fb7c6ac9bddaab425335f9c6bc69d5fa", "type": "electric_scooter", "is_reserved": 0, "lon": -77.02353666666667}, {"fusion_lat": 0.0, "name": "3ba05cca1a9c307b3fe890636d97186a", "is_disabled": 0, "rental_uris": {"android": "https://dc.lft.to/lastmile_qr_scan", "ios": "https://dc.lft.to/lastmile_qr_scan"}, "fusion_lon": 0.0, "lat": 38.9063545, "bike_id": "3ba05cca1a9c307b3fe890636d97186a", "type": "electric_scooter", "is_reserved": 0, "lon": -77.03712716666666}, {"fusion_lat": 0.0, "name": "ee0ee9d319a7fc9850551f9aad9d4010", "is_disabled": 0, "rental_uris": {"android": "https://dc.lft.to/lastmile_qr_scan", "ios": "https://dc.lft.to/lastmile_qr_scan"}, "fusion_lon": 0.0, "lat": 38.916013666666665, "bike_id": "ee0ee9d319a7fc9850551f9aad9d4010", "type": "electric_scooter", "is_reserved": 0, "lon": -77.02210383333333}, {"fusion_lat": 0.0, "name": "13d3ca995321d8bb20c1dcf5994a4e5d", "is_disabled": 0, "rental_uris": {"android": "https://dc.lft.to/lastmile_qr_scan", "ios": "https://dc.lft.to/lastmile_qr_scan"}, "fusion_lon": 0.0, "lat": 38.9325615, "bike_id": "13d3ca995321d8bb20c1dcf5994a4e5d", "type": "electric_scooter", "is_reserved": 0, "lon": -77.02839066666667}, {"fusion_lat": 0.0, "name": "dd5f992716162671078e5c063ab29729", "is_disabled": 0, "rental_uris": {"android": "https://dc.lft.to/lastmile_qr_scan", "ios": "https://dc.lft.to/lastmile_qr_scan"}, "fusion_lon": 0.0, "lat": 38.879364333333335, "bike_id": "dd5f992716162671078e5c063ab29729", "type": "electric_scooter", "is_reserved": 0, "lon": -77.00914233333333}, {"fusion_lat": 0.0, "name": "9fc892ad39a1ffeff262d7302f2bcb86", "is_disabled": 0, "rental_uris": {"android": "https://dc.lft.to/lastmile_qr_scan", "ios": "https://dc.lft.to/lastmile_qr_scan"}, "fusion_lon": 0.0, "lat": 38.87799733333333, "bike_id": "9fc892ad39a1ffeff262d7302f2bcb86", "type": "electric_scooter", "is_reserved": 0, "lon": -77.00117166666666}, {"fusion_lat": 0.0, "name": "4e33929732a9a93fda8d1092d7aec103", "is_disabled": 0, "rental_uris": {"android": "https://dc.lft.to/lastmile_qr_scan", "ios": "https://dc.lft.to/lastmile_qr_scan"}, "fusion_lon": 0.0, "lat": 38.89737933333333, "bike_id": "4e33929732a9a93fda8d1092d7aec103", "type": "electric_scooter", "is_reserved": 0, "lon": -77.04428866666667}, {"fusion_lat": 0.0, "name": "09ebe7f69c0d2dde9b270771933c6631", "is_disabled": 0, "rental_uris": {"android": "https://dc.lft.to/lastmile_qr_scan", "ios": "https://dc.lft.to/lastmile_qr_scan"}, "fusion_lon": 0.0, "lat": 38.904241166666665, "bike_id": "09ebe7f69c0d2dde9b270771933c6631", "type": "electric_scooter", "is_reserved": 0, "lon": -77.0354015}, {"fusion_lat": 0.0, "name": "b0ff1ae9e5f1bcd1ea117044ab8b0e14", "is_disabled": 0, "rental_uris": {"android": "https://dc.lft.to/lastmile_qr_scan", "ios": "https://dc.lft.to/lastmile_qr_scan"}, "fusion_lon": 0.0, "lat": 38.928278666666664, "bike_id": "b0ff1ae9e5f1bcd1ea117044ab8b0e14", "type": "electric_scooter", "is_reserved": 0, "lon": -77.01410416666667}, {"fusion_lat": 0.0, "name": "c831d68fbc5ac45a5c961ce7b75bc914", "is_disabled": 0, "rental_uris": {"android": "https://dc.lft.to/lastmile_qr_scan", "ios": "https://dc.lft.to/lastmile_qr_scan"}, "fusion_lon": 0.0, "lat": 38.86623, "bike_id": "c831d68fbc5ac45a5c961ce7b75bc914", "type": "electric_bike", "is_reserved": 0, "lon": -76.94569583333333}, {"fusion_lat": 0.0, "name": "efa6a377f916592a72cacd63729e244c", "is_disabled": 0, "rental_uris": {"android": "https://dc.lft.to/lastmile_qr_scan", "ios": "https://dc.lft.to/lastmile_qr_scan"}, "fusion_lon": 0.0, "lat": 38.91550566666667, "bike_id": "efa6a377f916592a72cacd63729e244c", "type": "electric_scooter", "is_reserved": 0, "lon": -77.01200783333333}, {"fusion_lat": 0.0, "name": "c90dc5c89cb41a365aaaff8595a259cc", "is_disabled": 0, "rental_uris": {"android": "https://dc.lft.to/lastmile_qr_scan", "ios": "https://dc.lft.to/lastmile_qr_scan"}, "fusion_lon": 0.0, "lat": 38.9167405, "bike_id": "c90dc5c89cb41a365aaaff8595a259cc", "type": "electric_scooter", "is_reserved": 0, "lon": -77.0384855}, {"fusion_lat": 0.0, "name": "1ce5e51cd72641cb99abfe261d5cc965", "is_disabled": 0, "rental_uris": {"android": "https://dc.lft.to/lastmile_qr_scan", "ios": "https://dc.lft.to/lastmile_qr_scan"}, "fusion_lon": 0.0, "lat": 38.90429266666666, "bike_id": "1ce5e51cd72641cb99abfe261d5cc965", "type": "electric_scooter", "is_reserved": 0, "lon": -77.025079}, {"fusion_lat": 0.0, "name": "93faea5c5d34361ebf7fbfc85adba590", "is_disabled": 0, "rental_uris": {"android": "https://dc.lft.to/lastmile_qr_scan", "ios": "https://dc.lft.to/lastmile_qr_scan"}, "fusion_lon": 0.0, "lat": 38.914146833333334, "bike_id": "93faea5c5d34361ebf7fbfc85adba590", "type": "electric_scooter", "is_reserved": 0, "lon": -77.0317155}, {"fusion_lat": 0.0, "name": "afeadba6efd827fc4703d9efceff432f", "is_disabled": 0, "rental_uris": {"android": "https://dc.lft.to/lastmile_qr_scan", "ios": "https://dc.lft.to/lastmile_qr_scan"}, "fusion_lon": 0.0, "lat": 38.930266833333334, "bike_id": "afeadba6efd827fc4703d9efceff432f", "type": "electric_scooter", "is_reserved": 0, "lon": -77.03791833333334}, {"fusion_lat": 0.0, "name": "f1bd5d196e73a0f6748633d06f670d51", "is_disabled": 0, "rental_uris": {"android": "https://dc.lft.to/lastmile_qr_scan", "ios": "https://dc.lft.to/lastmile_qr_scan"}, "fusion_lon": 0.0, "lat": 38.920131833333336, "bike_id": "f1bd5d196e73a0f6748633d06f670d51", "type": "electric_scooter", "is_reserved": 0, "lon": -77.0313245}, {"fusion_lat": 0.0, "name": "08d8c1ed55adad28a8091746576b1ce2", "is_disabled": 0, "rental_uris": {"android": "https://dc.lft.to/lastmile_qr_scan", "ios": "https://dc.lft.to/lastmile_qr_scan"}, "fusion_lon": 0.0, "lat": 38.88872966666667, "bike_id": "08d8c1ed55adad28a8091746576b1ce2", "type": "electric_scooter", "is_reserved": 0, "lon": -77.0399665}, {"fusion_lat": 0.0, "name": "7572b879f639236ae792dbd417a58d74", "is_disabled": 0, "rental_uris": {"android": "https://dc.lft.to/lastmile_qr_scan", "ios": "https://dc.lft.to/lastmile_qr_scan"}, "fusion_lon": 0.0, "lat": 38.9236265, "bike_id": "7572b879f639236ae792dbd417a58d74", "type": "electric_scooter", "is_reserved": 0, "lon": -77.032278}, {"fusion_lat": 0.0, "name": "f0236ac3d88c1f1941d2a0f2892ea988", "is_disabled": 0, "rental_uris": {"android": "https://dc.lft.to/lastmile_qr_scan", "ios": "https://dc.lft.to/lastmile_qr_scan"}, "fusion_lon": 0.0, "lat": 38.92448566666667, "bike_id": "f0236ac3d88c1f1941d2a0f2892ea988", "type": "electric_scooter", "is_reserved": 0, "lon": -77.00879366666666}, {"fusion_lat": 0.0, "name": "6ddb5b64d8b29cd7ad3de74fb4971beb", "is_disabled": 0, "rental_uris": {"android": "https://dc.lft.to/lastmile_qr_scan", "ios": "https://dc.lft.to/lastmile_qr_scan"}, "fusion_lon": 0.0, "lat": 38.923305, "bike_id": "6ddb5b64d8b29cd7ad3de74fb4971beb", "type": "electric_scooter", "is_reserved": 0, "lon": -77.02967183333334}, {"fusion_lat": 0.0, "name": "188cb6fbf8860c44473cdabcf61770ae", "is_disabled": 0, "rental_uris": {"android": "https://dc.lft.to/lastmile_qr_scan", "ios": "https://dc.lft.to/lastmile_qr_scan"}, "fusion_lon": 0.0, "lat": 38.90247433333333, "bike_id": "188cb6fbf8860c44473cdabcf61770ae", "type": "electric_scooter", "is_reserved": 0, "lon": -77.043656}, {"fusion_lat": 0.0, "name": "dcf0a5009f25f0ca8a214f92426b1848", "is_disabled": 0, "rental_uris": {"android": "https://dc.lft.to/lastmile_qr_scan", "ios": "https://dc.lft.to/lastmile_qr_scan"}, "fusion_lon": 0.0, "lat": 38.88328333333333, "bike_id": "dcf0a5009f25f0ca8a214f92426b1848", "type": "electric_scooter", "is_reserved": 0, "lon": -77.013934}, {"fusion_lat": 0.0, "name": "32f1d8f5b5fb02bd3e3ac48d1db65ac8", "is_disabled": 0, "rental_uris": {"android": "https://dc.lft.to/lastmile_qr_scan", "ios": "https://dc.lft.to/lastmile_qr_scan"}, "fusion_lon": 0.0, "lat": 38.97258083333333, "bike_id": "32f1d8f5b5fb02bd3e3ac48d1db65ac8", "type": "electric_bike", "is_reserved": 0, "lon": -76.9927315}, {"fusion_lat": 0.0, "name": "95a9c733886965e1e47e0e0bb7d92a0c", "is_disabled": 0, "rental_uris": {"android": "https://dc.lft.to/lastmile_qr_scan", "ios": "https://dc.lft.to/lastmile_qr_scan"}, "fusion_lon": 0.0, "lat": 39.03900083333333, "bike_id": "95a9c733886965e1e47e0e0bb7d92a0c", "type": "electric_bike", "is_reserved": 0, "lon": -77.0503715}, {"fusion_lat": 0.0, "name": "a6717d6539380d0b5bfb1ec8d1509ed4", "is_disabled": 0, "rental_uris": {"android": "https://dc.lft.to/lastmile_qr_scan", "ios": "https://dc.lft.to/lastmile_qr_scan"}, "fusion_lon": 0.0, "lat": 38.905164166666665, "bike_id": "a6717d6539380d0b5bfb1ec8d1509ed4", "type": "electric_scooter", "is_reserved": 0, "lon": -77.06763166666667}, {"fusion_lat": 0.0, "name": "0b4fb19fd7d9961d25eb0bf6228652b5", "is_disabled": 0, "rental_uris": {"android": "https://dc.lft.to/lastmile_qr_scan", "ios": "https://dc.lft.to/lastmile_qr_scan"}, "fusion_lon": 0.0, "lat": 38.89683683333333, "bike_id": "0b4fb19fd7d9961d25eb0bf6228652b5", "type": "electric_scooter", "is_reserved": 0, "lon": -77.05116766666667}, {"fusion_lat": 0.0, "name": "7928fa80ab0e727d637380b20601455c", "is_disabled": 0, "rental_uris": {"android": "https://dc.lft.to/lastmile_qr_scan", "ios": "https://dc.lft.to/lastmile_qr_scan"}, "fusion_lon": 0.0, "lat": 38.899307666666665, "bike_id": "7928fa80ab0e727d637380b20601455c", "type": "electric_scooter", "is_reserved": 0, "lon": -76.9973525}, {"fusion_lat": 0.0, "name": "128edeb77f991f8500db56b3a3f301fc", "is_disabled": 0, "rental_uris": {"android": "https://dc.lft.to/lastmile_qr_scan", "ios": "https://dc.lft.to/lastmile_qr_scan"}, "fusion_lon": 0.0, "lat": 38.911261, "bike_id": "128edeb77f991f8500db56b3a3f301fc", "type": "electric_scooter", "is_reserved": 0, "lon": -77.02097816666667}, {"fusion_lat": 0.0, "name": "3d69ebe8835b359acdd7612a83b109b5", "is_disabled": 0, "rental_uris": {"android": "https://dc.lft.to/lastmile_qr_scan", "ios": "https://dc.lft.to/lastmile_qr_scan"}, "fusion_lon": 0.0, "lat": 38.961867, "bike_id": "3d69ebe8835b359acdd7612a83b109b5", "type": "electric_bike", "is_reserved": 0, "lon": -77.05265883333334}, {"fusion_lat": 0.0, "name": "97716144ff2254b41158fb3a7d07c4b3", "is_disabled": 0, "rental_uris": {"android": "https://dc.lft.to/lastmile_qr_scan", "ios": "https://dc.lft.to/lastmile_qr_scan"}, "fusion_lon": 0.0, "lat": 38.89703466666667, "bike_id": "97716144ff2254b41158fb3a7d07c4b3", "type": "electric_scooter", "is_reserved": 0, "lon": -77.04338866666667}, {"fusion_lat": 0.0, "name": "6483b1114836667179231cef8b3fcc9e", "is_disabled": 0, "rental_uris": {"android": "https://dc.lft.to/lastmile_qr_scan", "ios": "https://dc.lft.to/lastmile_qr_scan"}, "fusion_lon": 0.0, "lat": 38.8911985, "bike_id": "6483b1114836667179231cef8b3fcc9e", "type": "electric_scooter", "is_reserved": 0, "lon": -76.943817}, {"fusion_lat": 0.0, "name": "7ac3f970535abeab5e7e0b48ef09c53b", "is_disabled": 0, "rental_uris": {"android": "https://dc.lft.to/lastmile_qr_scan", "ios": "https://dc.lft.to/lastmile_qr_scan"}, "fusion_lon": 0.0, "lat": 38.89037116666667, "bike_id": "7ac3f970535abeab5e7e0b48ef09c53b", "type": "electric_scooter", "is_reserved": 0, "lon": -77.029765}, {"fusion_lat": 0.0, "name": "e051ccfcdbe2c5b712c972b81f70b0b4", "is_disabled": 0, "rental_uris": {"android": "https://dc.lft.to/lastmile_qr_scan", "ios": "https://dc.lft.to/lastmile_qr_scan"}, "fusion_lon": 0.0, "lat": 38.969892333333334, "bike_id": "e051ccfcdbe2c5b712c972b81f70b0b4", "type": "electric_scooter", "is_reserved": 0, "lon": -77.01158716666667}, {"fusion_lat": 0.0, "name": "f3ce2764757de19bf539fcf1e27c3f18", "is_disabled": 0, "rental_uris": {"android": "https://dc.lft.to/lastmile_qr_scan", "ios": "https://dc.lft.to/lastmile_qr_scan"}, "fusion_lon": 0.0, "lat": 38.91173083333334, "bike_id": "f3ce2764757de19bf539fcf1e27c3f18", "type": "electric_scooter", "is_reserved": 0, "lon": -77.00443183333333}, {"fusion_lat": 0.0, "name": "3b0b4b9f4377f0bbbb8ebda7474eb501", "is_disabled": 0, "rental_uris": {"android": "https://dc.lft.to/lastmile_qr_scan", "ios": "https://dc.lft.to/lastmile_qr_scan"}, "fusion_lon": 0.0, "lat": 38.897347833333335, "bike_id": "3b0b4b9f4377f0bbbb8ebda7474eb501", "type": "electric_bike", "is_reserved": 0, "lon": -76.92044666666666}, {"fusion_lat": 0.0, "name": "8bc0b78572735ff0b1d75e1b694fa774", "is_disabled": 0, "rental_uris": {"android": "https://dc.lft.to/lastmile_qr_scan", "ios": "https://dc.lft.to/lastmile_qr_scan"}, "fusion_lon": 0.0, "lat": 38.90930916666667, "bike_id": "8bc0b78572735ff0b1d75e1b694fa774", "type": "electric_scooter", "is_reserved": 0, "lon": -77.07279833333334}, {"fusion_lat": 0.0, "name": "ff07f005edd244b805b61f018da9db14", "is_disabled": 0, "rental_uris": {"android": "https://dc.lft.to/lastmile_qr_scan", "ios": "https://dc.lft.to/lastmile_qr_scan"}, "fusion_lon": 0.0, "lat": 38.930569, "bike_id": "ff07f005edd244b805b61f018da9db14", "type": "electric_scooter", "is_reserved": 0, "lon": -77.04054566666667}, {"fusion_lat": 0.0, "name": "773763bd18f56708270679f80830d394", "is_disabled": 0, "rental_uris": {"android": "https://dc.lft.to/lastmile_qr_scan", "ios": "https://dc.lft.to/lastmile_qr_scan"}, "fusion_lon": 0.0, "lat": 38.9155185, "bike_id": "773763bd18f56708270679f80830d394", "type": "electric_scooter", "is_reserved": 0, "lon": -77.03255933333334}, {"fusion_lat": 0.0, "name": "2cb91a2306817ac5a84d71056a8cd25a", "is_disabled": 0, "rental_uris": {"android": "https://dc.lft.to/lastmile_qr_scan", "ios": "https://dc.lft.to/lastmile_qr_scan"}, "fusion_lon": 0.0, "lat": 38.9111225, "bike_id": "2cb91a2306817ac5a84d71056a8cd25a", "type": "electric_scooter", "is_reserved": 0, "lon": -77.02765816666667}, {"fusion_lat": 0.0, "name": "01bd9505a958e73460d7013728dfd0ba", "is_disabled": 0, "rental_uris": {"android": "https://dc.lft.to/lastmile_qr_scan", "ios": "https://dc.lft.to/lastmile_qr_scan"}, "fusion_lon": 0.0, "lat": 38.973780833333336, "bike_id": "01bd9505a958e73460d7013728dfd0ba", "type": "electric_scooter", "is_reserved": 0, "lon": -77.01283733333334}, {"fusion_lat": 0.0, "name": "30df65fb00c9cb0237c1b5abaaf195a5", "is_disabled": 0, "rental_uris": {"android": "https://dc.lft.to/lastmile_qr_scan", "ios": "https://dc.lft.to/lastmile_qr_scan"}, "fusion_lon": 0.0, "lat": 38.908864666666666, "bike_id": "30df65fb00c9cb0237c1b5abaaf195a5", "type": "electric_scooter", "is_reserved": 0, "lon": -77.04276183333333}, {"fusion_lat": 0.0, "name": "c50685f9862b1982699342dd4b9cd4cf", "is_disabled": 0, "rental_uris": {"android": "https://dc.lft.to/lastmile_qr_scan", "ios": "https://dc.lft.to/lastmile_qr_scan"}, "fusion_lon": 0.0, "lat": 38.8812625, "bike_id": "c50685f9862b1982699342dd4b9cd4cf", "type": "electric_scooter", "is_reserved": 0, "lon": -76.99283716666666}, {"fusion_lat": 0.0, "name": "6b3e4f7d964581aa83cdfbee43afa3de", "is_disabled": 0, "rental_uris": {"android": "https://dc.lft.to/lastmile_qr_scan", "ios": "https://dc.lft.to/lastmile_qr_scan"}, "fusion_lon": 0.0, "lat": 38.905243, "bike_id": "6b3e4f7d964581aa83cdfbee43afa3de", "type": "electric_scooter", "is_reserved": 0, "lon": -77.03466516666667}, {"fusion_lat": 0.0, "name": "3120ac4132ecc37452f59ecd263a1820", "is_disabled": 0, "rental_uris": {"android": "https://dc.lft.to/lastmile_qr_scan", "ios": "https://dc.lft.to/lastmile_qr_scan"}, "fusion_lon": 0.0, "lat": 38.90178433333333, "bike_id": "3120ac4132ecc37452f59ecd263a1820", "type": "electric_scooter", "is_reserved": 0, "lon": -76.94143716666666}, {"fusion_lat": 0.0, "name": "3801841a9d6ec1d83393e2fd403987e1", "is_disabled": 0, "rental_uris": {"android": "https://dc.lft.to/lastmile_qr_scan", "ios": "https://dc.lft.to/lastmile_qr_scan"}, "fusion_lon": 0.0, "lat": 38.8951735, "bike_id": "3801841a9d6ec1d83393e2fd403987e1", "type": "electric_scooter", "is_reserved": 0, "lon": -76.980813}, {"fusion_lat": 0.0, "name": "8281bdba7cbbe29898470e2289855ea0", "is_disabled": 0, "rental_uris": {"android": "https://dc.lft.to/lastmile_qr_scan", "ios": "https://dc.lft.to/lastmile_qr_scan"}, "fusion_lon": 0.0, "lat": 38.95732816666667, "bike_id": "8281bdba7cbbe29898470e2289855ea0", "type": "electric_scooter", "is_reserved": 0, "lon": -77.02405066666667}, {"fusion_lat": 0.0, "name": "cb8d9e0f6e5bb829f73a082dc0f9dd2c", "is_disabled": 0, "rental_uris": {"android": "https://dc.lft.to/lastmile_qr_scan", "ios": "https://dc.lft.to/lastmile_qr_scan"}, "fusion_lon": 0.0, "lat": 38.9352335, "bike_id": "cb8d9e0f6e5bb829f73a082dc0f9dd2c", "type": "electric_scooter", "is_reserved": 0, "lon": -77.08700983333334}, {"fusion_lat": 0.0, "name": "4db4a1f075804ec503216cdb108d545e", "is_disabled": 0, "rental_uris": {"android": "https://dc.lft.to/lastmile_qr_scan", "ios": "https://dc.lft.to/lastmile_qr_scan"}, "fusion_lon": 0.0, "lat": 38.909579666666666, "bike_id": "4db4a1f075804ec503216cdb108d545e", "type": "electric_scooter", "is_reserved": 0, "lon": -77.03172416666666}, {"fusion_lat": 0.0, "name": "8eea87aba9c40f348a9c9ee50e305d6f", "is_disabled": 0, "rental_uris": {"android": "https://dc.lft.to/lastmile_qr_scan", "ios": "https://dc.lft.to/lastmile_qr_scan"}, "fusion_lon": 0.0, "lat": 38.89992433333333, "bike_id": "8eea87aba9c40f348a9c9ee50e305d6f", "type": "electric_scooter", "is_reserved": 0, "lon": -77.011987}, {"fusion_lat": 0.0, "name": "d0e6f02334fe9de18885ad30a3381c6a", "is_disabled": 0, "rental_uris": {"android": "https://dc.lft.to/lastmile_qr_scan", "ios": "https://dc.lft.to/lastmile_qr_scan"}, "fusion_lon": 0.0, "lat": 38.918364833333335, "bike_id": "d0e6f02334fe9de18885ad30a3381c6a", "type": "electric_scooter", "is_reserved": 0, "lon": -77.024024}, {"fusion_lat": 0.0, "name": "b0571e0fbcca7f396fa99ea8bae74a58", "is_disabled": 0, "rental_uris": {"android": "https://dc.lft.to/lastmile_qr_scan", "ios": "https://dc.lft.to/lastmile_qr_scan"}, "fusion_lon": 0.0, "lat": 38.907181333333334, "bike_id": "b0571e0fbcca7f396fa99ea8bae74a58", "type": "electric_scooter", "is_reserved": 0, "lon": -77.04296283333333}, {"fusion_lat": 0.0, "name": "60064532a31cf40f0b79356d9fa10bec", "is_disabled": 0, "rental_uris": {"android": "https://dc.lft.to/lastmile_qr_scan", "ios": "https://dc.lft.to/lastmile_qr_scan"}, "fusion_lon": 0.0, "lat": 38.93061633333333, "bike_id": "60064532a31cf40f0b79356d9fa10bec", "type": "electric_scooter", "is_reserved": 0, "lon": -77.0394435}, {"fusion_lat": 0.0, "name": "e3fbf96fb1be77b276b94d598329cda1", "is_disabled": 0, "rental_uris": {"android": "https://dc.lft.to/lastmile_qr_scan", "ios": "https://dc.lft.to/lastmile_qr_scan"}, "fusion_lon": 0.0, "lat": 38.876133833333334, "bike_id": "e3fbf96fb1be77b276b94d598329cda1", "type": "electric_scooter", "is_reserved": 0, "lon": -77.001217}, {"fusion_lat": 0.0, "name": "ca878d8394f9709adfe8d069841b54ed", "is_disabled": 0, "rental_uris": {"android": "https://dc.lft.to/lastmile_qr_scan", "ios": "https://dc.lft.to/lastmile_qr_scan"}, "fusion_lon": 0.0, "lat": 38.87567933333333, "bike_id": "ca878d8394f9709adfe8d069841b54ed", "type": "electric_scooter", "is_reserved": 0, "lon": -77.00932583333334}, {"fusion_lat": 0.0, "name": "72fccfa4b362b882db9b41026c7efcf6", "is_disabled": 0, "rental_uris": {"android": "https://dc.lft.to/lastmile_qr_scan", "ios": "https://dc.lft.to/lastmile_qr_scan"}, "fusion_lon": 0.0, "lat": 38.904844, "bike_id": "72fccfa4b362b882db9b41026c7efcf6", "type": "electric_scooter", "is_reserved": 0, "lon": -76.94956966666666}, {"fusion_lat": 0.0, "name": "19273b882b03648383067c25b62f6f26", "is_disabled": 0, "rental_uris": {"android": "https://dc.lft.to/lastmile_qr_scan", "ios": "https://dc.lft.to/lastmile_qr_scan"}, "fusion_lon": 0.0, "lat": 38.98821933333333, "bike_id": "19273b882b03648383067c25b62f6f26", "type": "electric_bike", "is_reserved": 0, "lon": -77.0265195}, {"fusion_lat": 0.0, "name": "bd22f65b9f28d506505aab01b1dbf5c2", "is_disabled": 0, "rental_uris": {"android": "https://dc.lft.to/lastmile_qr_scan", "ios": "https://dc.lft.to/lastmile_qr_scan"}, "fusion_lon": 0.0, "lat": 38.89229316666667, "bike_id": "bd22f65b9f28d506505aab01b1dbf5c2", "type": "electric_scooter", "is_reserved": 0, "lon": -77.05003466666666}, {"fusion_lat": 0.0, "name": "6bd6c52db2de8ed54a47043530f3c22c", "is_disabled": 0, "rental_uris": {"android": "https://dc.lft.to/lastmile_qr_scan", "ios": "https://dc.lft.to/lastmile_qr_scan"}, "fusion_lon": 0.0, "lat": 38.91552333333333, "bike_id": "6bd6c52db2de8ed54a47043530f3c22c", "type": "electric_scooter", "is_reserved": 0, "lon": -77.0415585}, {"fusion_lat": 0.0, "name": "c36feccc45c1ac9cdb980b3e7c0b7fa7", "is_disabled": 0, "rental_uris": {"android": "https://dc.lft.to/lastmile_qr_scan", "ios": "https://dc.lft.to/lastmile_qr_scan"}, "fusion_lon": 0.0, "lat": 38.897108, "bike_id": "c36feccc45c1ac9cdb980b3e7c0b7fa7", "type": "electric_scooter", "is_reserved": 0, "lon": -77.02212416666667}, {"fusion_lat": 0.0, "name": "72be21c38a6af36f22b1c3db96992e0c", "is_disabled": 0, "rental_uris": {"android": "https://dc.lft.to/lastmile_qr_scan", "ios": "https://dc.lft.to/lastmile_qr_scan"}, "fusion_lon": 0.0, "lat": 38.927977, "bike_id": "72be21c38a6af36f22b1c3db96992e0c", "type": "electric_scooter", "is_reserved": 0, "lon": -76.95555483333334}, {"fusion_lat": 0.0, "name": "1c40e7bd04fc75dfdcf18b2cce17813d", "is_disabled": 0, "rental_uris": {"android": "https://dc.lft.to/lastmile_qr_scan", "ios": "https://dc.lft.to/lastmile_qr_scan"}, "fusion_lon": 0.0, "lat": 38.90544516666667, "bike_id": "1c40e7bd04fc75dfdcf18b2cce17813d", "type": "electric_scooter", "is_reserved": 0, "lon": -77.007075}, {"fusion_lat": 0.0, "name": "b0d06a3559e534348efa01aef364604c", "is_disabled": 0, "rental_uris": {"android": "https://dc.lft.to/lastmile_qr_scan", "ios": "https://dc.lft.to/lastmile_qr_scan"}, "fusion_lon": 0.0, "lat": 38.90285133333333, "bike_id": "b0d06a3559e534348efa01aef364604c", "type": "electric_scooter", "is_reserved": 0, "lon": -77.03455633333333}, {"fusion_lat": 0.0, "name": "06e9b1b7cbdf66a3223a365d7537003c", "is_disabled": 0, "rental_uris": {"android": "https://dc.lft.to/lastmile_qr_scan", "ios": "https://dc.lft.to/lastmile_qr_scan"}, "fusion_lon": 0.0, "lat": 38.9053155, "bike_id": "06e9b1b7cbdf66a3223a365d7537003c", "type": "electric_scooter", "is_reserved": 0, "lon": -77.05764133333334}, {"fusion_lat": 0.0, "name": "507d9d2cc940d8498872a2a5a34e181d", "is_disabled": 0, "rental_uris": {"android": "https://dc.lft.to/lastmile_qr_scan", "ios": "https://dc.lft.to/lastmile_qr_scan"}, "fusion_lon": 0.0, "lat": 38.924477, "bike_id": "507d9d2cc940d8498872a2a5a34e181d", "type": "electric_scooter", "is_reserved": 0, "lon": -77.05247233333333}, {"fusion_lat": 0.0, "name": "a1a708ba50feca6df3a5fa2200dd8a5e", "is_disabled": 0, "rental_uris": {"android": "https://dc.lft.to/lastmile_qr_scan", "ios": "https://dc.lft.to/lastmile_qr_scan"}, "fusion_lon": 0.0, "lat": 38.9053135, "bike_id": "a1a708ba50feca6df3a5fa2200dd8a5e", "type": "electric_scooter", "is_reserved": 0, "lon": -77.03462283333333}, {"fusion_lat": 0.0, "name": "5d2cf4ac39161f554074ff7f3a03dc13", "is_disabled": 0, "rental_uris": {"android": "https://dc.lft.to/lastmile_qr_scan", "ios": "https://dc.lft.to/lastmile_qr_scan"}, "fusion_lon": 0.0, "lat": 38.927196, "bike_id": "5d2cf4ac39161f554074ff7f3a03dc13", "type": "electric_scooter", "is_reserved": 0, "lon": -77.06011083333334}, {"fusion_lat": 0.0, "name": "e63164086478932ea2ee14c2a03cd591", "is_disabled": 0, "rental_uris": {"android": "https://dc.lft.to/lastmile_qr_scan", "ios": "https://dc.lft.to/lastmile_qr_scan"}, "fusion_lon": 0.0, "lat": 38.94922116666667, "bike_id": "e63164086478932ea2ee14c2a03cd591", "type": "electric_scooter", "is_reserved": 0, "lon": -77.01855333333333}, {"fusion_lat": 0.0, "name": "35ed387ca9415d23d4feccb6f098ea7e", "is_disabled": 0, "rental_uris": {"android": "https://dc.lft.to/lastmile_qr_scan", "ios": "https://dc.lft.to/lastmile_qr_scan"}, "fusion_lon": 0.0, "lat": 38.88247033333333, "bike_id": "35ed387ca9415d23d4feccb6f098ea7e", "type": "electric_bike", "is_reserved": 0, "lon": -76.9625745}, {"fusion_lat": 0.0, "name": "be5f490a1f6b3e76c52d389afc10b3ca", "is_disabled": 0, "rental_uris": {"android": "https://dc.lft.to/lastmile_qr_scan", "ios": "https://dc.lft.to/lastmile_qr_scan"}, "fusion_lon": 0.0, "lat": 38.91667483333333, "bike_id": "be5f490a1f6b3e76c52d389afc10b3ca", "type": "electric_scooter", "is_reserved": 0, "lon": -77.03464066666666}, {"fusion_lat": 0.0, "name": "5efa3806adbdd02188666f50c52afef6", "is_disabled": 0, "rental_uris": {"android": "https://dc.lft.to/lastmile_qr_scan", "ios": "https://dc.lft.to/lastmile_qr_scan"}, "fusion_lon": 0.0, "lat": 38.871143333333336, "bike_id": "5efa3806adbdd02188666f50c52afef6", "type": "electric_scooter", "is_reserved": 0, "lon": -76.96580766666666}, {"fusion_lat": 0.0, "name": "5a4ab9c397931d329ab4eef140bbeadf", "is_disabled": 0, "rental_uris": {"android": "https://dc.lft.to/lastmile_qr_scan", "ios": "https://dc.lft.to/lastmile_qr_scan"}, "fusion_lon": 0.0, "lat": 38.902194333333334, "bike_id": "5a4ab9c397931d329ab4eef140bbeadf", "type": "electric_scooter", "is_reserved": 0, "lon": -77.04447333333333}, {"fusion_lat": 0.0, "name": "721d42a9740d206a3e870cd1596e6f3c", "is_disabled": 0, "rental_uris": {"android": "https://dc.lft.to/lastmile_qr_scan", "ios": "https://dc.lft.to/lastmile_qr_scan"}, "fusion_lon": 0.0, "lat": 38.9405535, "bike_id": "721d42a9740d206a3e870cd1596e6f3c", "type": "electric_bike", "is_reserved": 0, "lon": -76.9041575}, {"fusion_lat": 0.0, "name": "8b7452116292c0fc80179aeb3156a0e4", "is_disabled": 0, "rental_uris": {"android": "https://dc.lft.to/lastmile_qr_scan", "ios": "https://dc.lft.to/lastmile_qr_scan"}, "fusion_lon": 0.0, "lat": 38.87939266666667, "bike_id": "8b7452116292c0fc80179aeb3156a0e4", "type": "electric_scooter", "is_reserved": 0, "lon": -77.02343483333334}, {"fusion_lat": 0.0, "name": "25dfc8875bb5f4ad3b90e2ce56ba4af2", "is_disabled": 0, "rental_uris": {"android": "https://dc.lft.to/lastmile_qr_scan", "ios": "https://dc.lft.to/lastmile_qr_scan"}, "fusion_lon": 0.0, "lat": 38.89221716666667, "bike_id": "25dfc8875bb5f4ad3b90e2ce56ba4af2", "type": "electric_scooter", "is_reserved": 0, "lon": -77.03981333333333}, {"fusion_lat": 0.0, "name": "10ed72c94ba012cccbc60f992b356bfc", "is_disabled": 0, "rental_uris": {"android": "https://dc.lft.to/lastmile_qr_scan", "ios": "https://dc.lft.to/lastmile_qr_scan"}, "fusion_lon": 0.0, "lat": 38.91117116666667, "bike_id": "10ed72c94ba012cccbc60f992b356bfc", "type": "electric_scooter", "is_reserved": 0, "lon": -77.03248183333334}, {"fusion_lat": 0.0, "name": "8e4700b60653d7e407800c6592409909", "is_disabled": 0, "rental_uris": {"android": "https://dc.lft.to/lastmile_qr_scan", "ios": "https://dc.lft.to/lastmile_qr_scan"}, "fusion_lon": 0.0, "lat": 38.91719066666667, "bike_id": "8e4700b60653d7e407800c6592409909", "type": "electric_scooter", "is_reserved": 0, "lon": -77.04150966666667}, {"fusion_lat": 0.0, "name": "8c067ff43786fa8dfeb8c5b35f236944", "is_disabled": 0, "rental_uris": {"android": "https://dc.lft.to/lastmile_qr_scan", "ios": "https://dc.lft.to/lastmile_qr_scan"}, "fusion_lon": 0.0, "lat": 38.994448, "bike_id": "8c067ff43786fa8dfeb8c5b35f236944", "type": "electric_bike", "is_reserved": 0, "lon": -76.99585316666666}, {"fusion_lat": 0.0, "name": "635fceb8d72eb40a5e5974775cbb8bb0", "is_disabled": 0, "rental_uris": {"android": "https://dc.lft.to/lastmile_qr_scan", "ios": "https://dc.lft.to/lastmile_qr_scan"}, "fusion_lon": 0.0, "lat": 38.935488, "bike_id": "635fceb8d72eb40a5e5974775cbb8bb0", "type": "electric_scooter", "is_reserved": 0, "lon": -77.032643}, {"fusion_lat": 0.0, "name": "56f592aaf10976ba5e8343eb23d8850a", "is_disabled": 0, "rental_uris": {"android": "https://dc.lft.to/lastmile_qr_scan", "ios": "https://dc.lft.to/lastmile_qr_scan"}, "fusion_lon": 0.0, "lat": 38.916915333333336, "bike_id": "56f592aaf10976ba5e8343eb23d8850a", "type": "electric_scooter", "is_reserved": 0, "lon": -77.02892083333333}, {"fusion_lat": 0.0, "name": "da546990995816e39820916ceb9806ab", "is_disabled": 0, "rental_uris": {"android": "https://dc.lft.to/lastmile_qr_scan", "ios": "https://dc.lft.to/lastmile_qr_scan"}, "fusion_lon": 0.0, "lat": 38.986703, "bike_id": "da546990995816e39820916ceb9806ab", "type": "electric_bike", "is_reserved": 0, "lon": -76.9999905}, {"fusion_lat": 0.0, "name": "af52b6214a459058d7c367ba0793b181", "is_disabled": 0, "rental_uris": {"android": "https://dc.lft.to/lastmile_qr_scan", "ios": "https://dc.lft.to/lastmile_qr_scan"}, "fusion_lon": 0.0, "lat": 38.914150666666664, "bike_id": "af52b6214a459058d7c367ba0793b181", "type": "electric_scooter", "is_reserved": 0, "lon": -77.03941616666667}, {"fusion_lat": 0.0, "name": "f4c2abb9ad2d397e83f0f007e1c3a1bf", "is_disabled": 0, "rental_uris": {"android": "https://dc.lft.to/lastmile_qr_scan", "ios": "https://dc.lft.to/lastmile_qr_scan"}, "fusion_lon": 0.0, "lat": 38.91958783333333, "bike_id": "f4c2abb9ad2d397e83f0f007e1c3a1bf", "type": "electric_bike", "is_reserved": 0, "lon": -77.10106999999999}, {"fusion_lat": 0.0, "name": "556dd9f25de9c5e2252215c744327014", "is_disabled": 0, "rental_uris": {"android": "https://dc.lft.to/lastmile_qr_scan", "ios": "https://dc.lft.to/lastmile_qr_scan"}, "fusion_lon": 0.0, "lat": 38.906425666666664, "bike_id": "556dd9f25de9c5e2252215c744327014", "type": "electric_scooter", "is_reserved": 0, "lon": -77.01420316666666}, {"fusion_lat": 0.0, "name": "aba9ca33415a41ea5e857a07de4b1c96", "is_disabled": 0, "rental_uris": {"android": "https://dc.lft.to/lastmile_qr_scan", "ios": "https://dc.lft.to/lastmile_qr_scan"}, "fusion_lon": 0.0, "lat": 38.906571166666666, "bike_id": "aba9ca33415a41ea5e857a07de4b1c96", "type": "electric_scooter", "is_reserved": 0, "lon": -77.05019383333334}, {"fusion_lat": 0.0, "name": "1c1a84d8610e806bf70740882a55a490", "is_disabled": 0, "rental_uris": {"android": "https://dc.lft.to/lastmile_qr_scan", "ios": "https://dc.lft.to/lastmile_qr_scan"}, "fusion_lon": 0.0, "lat": 38.92222233333333, "bike_id": "1c1a84d8610e806bf70740882a55a490", "type": "electric_scooter", "is_reserved": 0, "lon": -76.9837465}, {"fusion_lat": 0.0, "name": "deff28378e9e07baa9e0b3d7373cc73e", "is_disabled": 0, "rental_uris": {"android": "https://dc.lft.to/lastmile_qr_scan", "ios": "https://dc.lft.to/lastmile_qr_scan"}, "fusion_lon": 0.0, "lat": 38.908616, "bike_id": "deff28378e9e07baa9e0b3d7373cc73e", "type": "electric_scooter", "is_reserved": 0, "lon": -77.00929716666667}, {"fusion_lat": 0.0, "name": "02a3316c07b43cf4f0913e6bb7ab2891", "is_disabled": 0, "rental_uris": {"android": "https://dc.lft.to/lastmile_qr_scan", "ios": "https://dc.lft.to/lastmile_qr_scan"}, "fusion_lon": 0.0, "lat": 38.87619466666666, "bike_id": "02a3316c07b43cf4f0913e6bb7ab2891", "type": "electric_scooter", "is_reserved": 0, "lon": -77.00120083333333}, {"fusion_lat": 0.0, "name": "c8e67c42e32689f2d9ca16cc45c102a5", "is_disabled": 0, "rental_uris": {"android": "https://dc.lft.to/lastmile_qr_scan", "ios": "https://dc.lft.to/lastmile_qr_scan"}, "fusion_lon": 0.0, "lat": 38.902648666666664, "bike_id": "c8e67c42e32689f2d9ca16cc45c102a5", "type": "electric_scooter", "is_reserved": 0, "lon": -77.05947633333334}, {"fusion_lat": 0.0, "name": "6a3e724868c2219bda922cef59b4badd", "is_disabled": 0, "rental_uris": {"android": "https://dc.lft.to/lastmile_qr_scan", "ios": "https://dc.lft.to/lastmile_qr_scan"}, "fusion_lon": 0.0, "lat": 38.913259833333335, "bike_id": "6a3e724868c2219bda922cef59b4badd", "type": "electric_scooter", "is_reserved": 0, "lon": -77.03178883333334}, {"fusion_lat": 0.0, "name": "ef387f966fb07589921245a9638fee3a", "is_disabled": 0, "rental_uris": {"android": "https://dc.lft.to/lastmile_qr_scan", "ios": "https://dc.lft.to/lastmile_qr_scan"}, "fusion_lon": 0.0, "lat": 38.8872645, "bike_id": "ef387f966fb07589921245a9638fee3a", "type": "electric_scooter", "is_reserved": 0, "lon": -76.98355116666667}, {"fusion_lat": 0.0, "name": "6d6bd1d90d1cfb3ab92b0dd787de4606", "is_disabled": 0, "rental_uris": {"android": "https://dc.lft.to/lastmile_qr_scan", "ios": "https://dc.lft.to/lastmile_qr_scan"}, "fusion_lon": 0.0, "lat": 38.9208, "bike_id": "6d6bd1d90d1cfb3ab92b0dd787de4606", "type": "electric_bike", "is_reserved": 0, "lon": -76.98943566666667}, {"fusion_lat": 0.0, "name": "b1b62aefa42fefdd57aa563325274c57", "is_disabled": 0, "rental_uris": {"android": "https://dc.lft.to/lastmile_qr_scan", "ios": "https://dc.lft.to/lastmile_qr_scan"}, "fusion_lon": 0.0, "lat": 38.912676, "bike_id": "b1b62aefa42fefdd57aa563325274c57", "type": "electric_scooter", "is_reserved": 0, "lon": -77.0388245}, {"fusion_lat": 0.0, "name": "606af638d335e6a6930e76c336fbe67e", "is_disabled": 0, "rental_uris": {"android": "https://dc.lft.to/lastmile_qr_scan", "ios": "https://dc.lft.to/lastmile_qr_scan"}, "fusion_lon": 0.0, "lat": 38.897443, "bike_id": "606af638d335e6a6930e76c336fbe67e", "type": "electric_scooter", "is_reserved": 0, "lon": -77.00331116666666}, {"fusion_lat": 0.0, "name": "dace58866db909df49453933e33e9e42", "is_disabled": 0, "rental_uris": {"android": "https://dc.lft.to/lastmile_qr_scan", "ios": "https://dc.lft.to/lastmile_qr_scan"}, "fusion_lon": 0.0, "lat": 38.885451833333335, "bike_id": "dace58866db909df49453933e33e9e42", "type": "electric_scooter", "is_reserved": 0, "lon": -77.015116}, {"fusion_lat": 0.0, "name": "5179542007af1b842692204587481081", "is_disabled": 0, "rental_uris": {"android": "https://dc.lft.to/lastmile_qr_scan", "ios": "https://dc.lft.to/lastmile_qr_scan"}, "fusion_lon": 0.0, "lat": 38.8932835, "bike_id": "5179542007af1b842692204587481081", "type": "electric_scooter", "is_reserved": 0, "lon": -77.02246933333333}, {"fusion_lat": 0.0, "name": "a2ba0b0f0d78554d7e427da73ac271e6", "is_disabled": 0, "rental_uris": {"android": "https://dc.lft.to/lastmile_qr_scan", "ios": "https://dc.lft.to/lastmile_qr_scan"}, "fusion_lon": 0.0, "lat": 38.90117516666667, "bike_id": "a2ba0b0f0d78554d7e427da73ac271e6", "type": "electric_scooter", "is_reserved": 0, "lon": -77.051577}, {"fusion_lat": 0.0, "name": "1b1d03e953f83dfccaef21a97ef39e82", "is_disabled": 0, "rental_uris": {"android": "https://dc.lft.to/lastmile_qr_scan", "ios": "https://dc.lft.to/lastmile_qr_scan"}, "fusion_lon": 0.0, "lat": 38.910936666666665, "bike_id": "1b1d03e953f83dfccaef21a97ef39e82", "type": "electric_scooter", "is_reserved": 0, "lon": -77.0320275}, {"fusion_lat": 0.0, "name": "d2d203a377eb79cbcc0bc35937b7027c", "is_disabled": 0, "rental_uris": {"android": "https://dc.lft.to/lastmile_qr_scan", "ios": "https://dc.lft.to/lastmile_qr_scan"}, "fusion_lon": 0.0, "lat": 38.942299166666665, "bike_id": "d2d203a377eb79cbcc0bc35937b7027c", "type": "electric_scooter", "is_reserved": 0, "lon": -77.01382516666666}, {"fusion_lat": 0.0, "name": "4622dc09a2890d870b8cb477c31ec2a1", "is_disabled": 0, "rental_uris": {"android": "https://dc.lft.to/lastmile_qr_scan", "ios": "https://dc.lft.to/lastmile_qr_scan"}, "fusion_lon": 0.0, "lat": 38.93654, "bike_id": "4622dc09a2890d870b8cb477c31ec2a1", "type": "electric_scooter", "is_reserved": 0, "lon": -77.03049933333334}, {"fusion_lat": 0.0, "name": "566d6ff7d5d969f2839751dd13163b32", "is_disabled": 0, "rental_uris": {"android": "https://dc.lft.to/lastmile_qr_scan", "ios": "https://dc.lft.to/lastmile_qr_scan"}, "fusion_lon": 0.0, "lat": 39.01417416666666, "bike_id": "566d6ff7d5d969f2839751dd13163b32", "type": "electric_bike", "is_reserved": 0, "lon": -77.044969}, {"fusion_lat": 0.0, "name": "95665f0a42157a34fc8c75c11f4fcdd1", "is_disabled": 0, "rental_uris": {"android": "https://dc.lft.to/lastmile_qr_scan", "ios": "https://dc.lft.to/lastmile_qr_scan"}, "fusion_lon": 0.0, "lat": 38.91639683333333, "bike_id": "95665f0a42157a34fc8c75c11f4fcdd1", "type": "electric_scooter", "is_reserved": 0, "lon": -77.02950383333334}, {"fusion_lat": 0.0, "name": "27587f6f77cd1739486a253c3de596b8", "is_disabled": 0, "rental_uris": {"android": "https://dc.lft.to/lastmile_qr_scan", "ios": "https://dc.lft.to/lastmile_qr_scan"}, "fusion_lon": 0.0, "lat": 38.81608416666667, "bike_id": "27587f6f77cd1739486a253c3de596b8", "type": "electric_bike", "is_reserved": 0, "lon": -76.99661533333334}, {"fusion_lat": 0.0, "name": "9e4a34bb1190fb1aceb97e968fc6e804", "is_disabled": 0, "rental_uris": {"android": "https://dc.lft.to/lastmile_qr_scan", "ios": "https://dc.lft.to/lastmile_qr_scan"}, "fusion_lon": 0.0, "lat": 38.900605, "bike_id": "9e4a34bb1190fb1aceb97e968fc6e804", "type": "electric_scooter", "is_reserved": 0, "lon": -76.98715333333334}, {"fusion_lat": 0.0, "name": "34d0d7dc57e0beb4dd12157856ca7dcc", "is_disabled": 0, "rental_uris": {"android": "https://dc.lft.to/lastmile_qr_scan", "ios": "https://dc.lft.to/lastmile_qr_scan"}, "fusion_lon": 0.0, "lat": 38.885079166666664, "bike_id": "34d0d7dc57e0beb4dd12157856ca7dcc", "type": "electric_scooter", "is_reserved": 0, "lon": -76.99751216666667}, {"fusion_lat": 0.0, "name": "320e5ef03f8920fdad102b9e0cd81351", "is_disabled": 0, "rental_uris": {"android": "https://dc.lft.to/lastmile_qr_scan", "ios": "https://dc.lft.to/lastmile_qr_scan"}, "fusion_lon": 0.0, "lat": 38.909709, "bike_id": "320e5ef03f8920fdad102b9e0cd81351", "type": "electric_scooter", "is_reserved": 0, "lon": -77.03338066666667}, {"fusion_lat": 0.0, "name": "9bda9f04e0b71289e6257aa564c82658", "is_disabled": 0, "rental_uris": {"android": "https://dc.lft.to/lastmile_qr_scan", "ios": "https://dc.lft.to/lastmile_qr_scan"}, "fusion_lon": 0.0, "lat": 38.84915266666667, "bike_id": "9bda9f04e0b71289e6257aa564c82658", "type": "electric_bike", "is_reserved": 0, "lon": -77.079249}, {"fusion_lat": 0.0, "name": "2d5586e84c5743e4031e2e081cfe63f1", "is_disabled": 0, "rental_uris": {"android": "https://dc.lft.to/lastmile_qr_scan", "ios": "https://dc.lft.to/lastmile_qr_scan"}, "fusion_lon": 0.0, "lat": 38.9037225, "bike_id": "2d5586e84c5743e4031e2e081cfe63f1", "type": "electric_bike", "is_reserved": 0, "lon": -77.04034033333333}, {"fusion_lat": 0.0, "name": "08afaa49285dd9d43ba61df853de6aa2", "is_disabled": 0, "rental_uris": {"android": "https://dc.lft.to/lastmile_qr_scan", "ios": "https://dc.lft.to/lastmile_qr_scan"}, "fusion_lon": 0.0, "lat": 38.88723366666667, "bike_id": "08afaa49285dd9d43ba61df853de6aa2", "type": "electric_scooter", "is_reserved": 0, "lon": -77.02203183333333}, {"fusion_lat": 0.0, "name": "977fb3486a29d33cc1ad143d37f25ceb", "is_disabled": 0, "rental_uris": {"android": "https://dc.lft.to/lastmile_qr_scan", "ios": "https://dc.lft.to/lastmile_qr_scan"}, "fusion_lon": 0.0, "lat": 38.905914333333335, "bike_id": "977fb3486a29d33cc1ad143d37f25ceb", "type": "electric_scooter", "is_reserved": 0, "lon": -77.04489483333333}, {"fusion_lat": 0.0, "name": "b8acf2076e9104c3663de58f6b8c734b", "is_disabled": 0, "rental_uris": {"android": "https://dc.lft.to/lastmile_qr_scan", "ios": "https://dc.lft.to/lastmile_qr_scan"}, "fusion_lon": 0.0, "lat": 38.92763733333334, "bike_id": "b8acf2076e9104c3663de58f6b8c734b", "type": "electric_scooter", "is_reserved": 0, "lon": -77.016188}, {"fusion_lat": 0.0, "name": "1f9cee1d23fbad7936f641f11d690296", "is_disabled": 0, "rental_uris": {"android": "https://dc.lft.to/lastmile_qr_scan", "ios": "https://dc.lft.to/lastmile_qr_scan"}, "fusion_lon": 0.0, "lat": 38.9156745, "bike_id": "1f9cee1d23fbad7936f641f11d690296", "type": "electric_scooter", "is_reserved": 0, "lon": -77.06751633333333}, {"fusion_lat": 0.0, "name": "daf239ba0984cf116034f2f3eccf5a5d", "is_disabled": 0, "rental_uris": {"android": "https://dc.lft.to/lastmile_qr_scan", "ios": "https://dc.lft.to/lastmile_qr_scan"}, "fusion_lon": 0.0, "lat": 38.94409866666667, "bike_id": "daf239ba0984cf116034f2f3eccf5a5d", "type": "electric_scooter", "is_reserved": 0, "lon": -77.0320665}, {"fusion_lat": 0.0, "name": "6de0b1a3482dd2ffbcab849a34503074", "is_disabled": 0, "rental_uris": {"android": "https://dc.lft.to/lastmile_qr_scan", "ios": "https://dc.lft.to/lastmile_qr_scan"}, "fusion_lon": 0.0, "lat": 38.926046, "bike_id": "6de0b1a3482dd2ffbcab849a34503074", "type": "electric_scooter", "is_reserved": 0, "lon": -77.02153483333333}, {"fusion_lat": 0.0, "name": "fc6e1a6b4c407bcf7f9668744d521832", "is_disabled": 0, "rental_uris": {"android": "https://dc.lft.to/lastmile_qr_scan", "ios": "https://dc.lft.to/lastmile_qr_scan"}, "fusion_lon": 0.0, "lat": 38.87898966666667, "bike_id": "fc6e1a6b4c407bcf7f9668744d521832", "type": "electric_scooter", "is_reserved": 0, "lon": -77.01359416666666}, {"fusion_lat": 0.0, "name": "ef53f676ddc879c2fe2a6912b8597143", "is_disabled": 0, "rental_uris": {"android": "https://dc.lft.to/lastmile_qr_scan", "ios": "https://dc.lft.to/lastmile_qr_scan"}, "fusion_lon": 0.0, "lat": 38.8982885, "bike_id": "ef53f676ddc879c2fe2a6912b8597143", "type": "electric_scooter", "is_reserved": 0, "lon": -76.94648966666666}, {"fusion_lat": 0.0, "name": "52b55bff810fc49f48bc2c636ec4cca2", "is_disabled": 0, "rental_uris": {"android": "https://dc.lft.to/lastmile_qr_scan", "ios": "https://dc.lft.to/lastmile_qr_scan"}, "fusion_lon": 0.0, "lat": 38.913317, "bike_id": "52b55bff810fc49f48bc2c636ec4cca2", "type": "electric_scooter", "is_reserved": 0, "lon": -77.05034333333333}, {"fusion_lat": 0.0, "name": "be0032bdccb22949d0fd3a22e77ec7da", "is_disabled": 0, "rental_uris": {"android": "https://dc.lft.to/lastmile_qr_scan", "ios": "https://dc.lft.to/lastmile_qr_scan"}, "fusion_lon": 0.0, "lat": 38.892087, "bike_id": "be0032bdccb22949d0fd3a22e77ec7da", "type": "electric_scooter", "is_reserved": 0, "lon": -76.97702566666666}, {"fusion_lat": 0.0, "name": "ef5f1066425ccc4793470ef2d4566dc0", "is_disabled": 0, "rental_uris": {"android": "https://dc.lft.to/lastmile_qr_scan", "ios": "https://dc.lft.to/lastmile_qr_scan"}, "fusion_lon": 0.0, "lat": 38.922571833333336, "bike_id": "ef5f1066425ccc4793470ef2d4566dc0", "type": "electric_scooter", "is_reserved": 0, "lon": -77.01840366666667}, {"fusion_lat": 0.0, "name": "13077c7e51cb0cfd2aba529ed00047df", "is_disabled": 0, "rental_uris": {"android": "https://dc.lft.to/lastmile_qr_scan", "ios": "https://dc.lft.to/lastmile_qr_scan"}, "fusion_lon": 0.0, "lat": 38.90497083333333, "bike_id": "13077c7e51cb0cfd2aba529ed00047df", "type": "electric_scooter", "is_reserved": 0, "lon": -77.0512425}, {"fusion_lat": 0.0, "name": "a48409faa1071d716b3385260fcba59a", "is_disabled": 0, "rental_uris": {"android": "https://dc.lft.to/lastmile_qr_scan", "ios": "https://dc.lft.to/lastmile_qr_scan"}, "fusion_lon": 0.0, "lat": 38.91264833333334, "bike_id": "a48409faa1071d716b3385260fcba59a", "type": "electric_scooter", "is_reserved": 0, "lon": -77.03881966666667}, {"fusion_lat": 0.0, "name": "ff7f68bec5136a526a7176a702d04711", "is_disabled": 0, "rental_uris": {"android": "https://dc.lft.to/lastmile_qr_scan", "ios": "https://dc.lft.to/lastmile_qr_scan"}, "fusion_lon": 0.0, "lat": 38.86214866666667, "bike_id": "ff7f68bec5136a526a7176a702d04711", "type": "electric_bike", "is_reserved": 0, "lon": -76.99547083333333}, {"fusion_lat": 0.0, "name": "c06d2c25a085eb3db7df12517aa07a1b", "is_disabled": 0, "rental_uris": {"android": "https://dc.lft.to/lastmile_qr_scan", "ios": "https://dc.lft.to/lastmile_qr_scan"}, "fusion_lon": 0.0, "lat": 38.89988916666667, "bike_id": "c06d2c25a085eb3db7df12517aa07a1b", "type": "electric_scooter", "is_reserved": 0, "lon": -77.02092183333333}, {"fusion_lat": 0.0, "name": "207a3450afd0f399990c94e396be6b1e", "is_disabled": 0, "rental_uris": {"android": "https://dc.lft.to/lastmile_qr_scan", "ios": "https://dc.lft.to/lastmile_qr_scan"}, "fusion_lon": 0.0, "lat": 38.899106833333335, "bike_id": "207a3450afd0f399990c94e396be6b1e", "type": "electric_scooter", "is_reserved": 0, "lon": -77.041647}, {"fusion_lat": 0.0, "name": "c51a1a24fbd034b7386527b76945bdbe", "is_disabled": 0, "rental_uris": {"android": "https://dc.lft.to/lastmile_qr_scan", "ios": "https://dc.lft.to/lastmile_qr_scan"}, "fusion_lon": 0.0, "lat": 38.87765783333333, "bike_id": "c51a1a24fbd034b7386527b76945bdbe", "type": "electric_scooter", "is_reserved": 0, "lon": -76.993787}, {"fusion_lat": 0.0, "name": "7fd4112b5a726767754ac3bda91433ff", "is_disabled": 0, "rental_uris": {"android": "https://dc.lft.to/lastmile_qr_scan", "ios": "https://dc.lft.to/lastmile_qr_scan"}, "fusion_lon": 0.0, "lat": 38.93306666666667, "bike_id": "7fd4112b5a726767754ac3bda91433ff", "type": "electric_scooter", "is_reserved": 0, "lon": -77.030828}, {"fusion_lat": 0.0, "name": "220bab790304ab8e724f660d01bb7e46", "is_disabled": 0, "rental_uris": {"android": "https://dc.lft.to/lastmile_qr_scan", "ios": "https://dc.lft.to/lastmile_qr_scan"}, "fusion_lon": 0.0, "lat": 38.896315, "bike_id": "220bab790304ab8e724f660d01bb7e46", "type": "electric_scooter", "is_reserved": 0, "lon": -77.0337875}, {"fusion_lat": 0.0, "name": "62a59647b7ea445b6d44f5e5d026f28e", "is_disabled": 0, "rental_uris": {"android": "https://dc.lft.to/lastmile_qr_scan", "ios": "https://dc.lft.to/lastmile_qr_scan"}, "fusion_lon": 0.0, "lat": 38.905725333333336, "bike_id": "62a59647b7ea445b6d44f5e5d026f28e", "type": "electric_scooter", "is_reserved": 0, "lon": -77.038327}, {"fusion_lat": 0.0, "name": "9ffb26d3334e2500679947e4cfbf3e96", "is_disabled": 0, "rental_uris": {"android": "https://dc.lft.to/lastmile_qr_scan", "ios": "https://dc.lft.to/lastmile_qr_scan"}, "fusion_lon": 0.0, "lat": 38.904108666666666, "bike_id": "9ffb26d3334e2500679947e4cfbf3e96", "type": "electric_scooter", "is_reserved": 0, "lon": -76.97331533333333}, {"fusion_lat": 0.0, "name": "c37654e3ee37c2836ec12bf0b621d866", "is_disabled": 0, "rental_uris": {"android": "https://dc.lft.to/lastmile_qr_scan", "ios": "https://dc.lft.to/lastmile_qr_scan"}, "fusion_lon": 0.0, "lat": 38.90028066666667, "bike_id": "c37654e3ee37c2836ec12bf0b621d866", "type": "electric_scooter", "is_reserved": 0, "lon": -77.03990666666667}, {"fusion_lat": 0.0, "name": "887e8c01ea27d559b888cc7cee0f40a7", "is_disabled": 0, "rental_uris": {"android": "https://dc.lft.to/lastmile_qr_scan", "ios": "https://dc.lft.to/lastmile_qr_scan"}, "fusion_lon": 0.0, "lat": 38.92073116666667, "bike_id": "887e8c01ea27d559b888cc7cee0f40a7", "type": "electric_scooter", "is_reserved": 0, "lon": -77.0021165}, {"fusion_lat": 0.0, "name": "3cf1bd1166da94cb9a1e74d183e1770b", "is_disabled": 0, "rental_uris": {"android": "https://dc.lft.to/lastmile_qr_scan", "ios": "https://dc.lft.to/lastmile_qr_scan"}, "fusion_lon": 0.0, "lat": 38.936012833333336, "bike_id": "3cf1bd1166da94cb9a1e74d183e1770b", "type": "electric_scooter", "is_reserved": 0, "lon": -77.02287533333333}, {"fusion_lat": 0.0, "name": "18826090e8af6b2a955a1f60118c845f", "is_disabled": 0, "rental_uris": {"android": "https://dc.lft.to/lastmile_qr_scan", "ios": "https://dc.lft.to/lastmile_qr_scan"}, "fusion_lon": 0.0, "lat": 38.908991666666665, "bike_id": "18826090e8af6b2a955a1f60118c845f", "type": "electric_scooter", "is_reserved": 0, "lon": -77.03286933333334}, {"fusion_lat": 0.0, "name": "17ee5c7e5224873625f1c3d7d7e4314c", "is_disabled": 0, "rental_uris": {"android": "https://dc.lft.to/lastmile_qr_scan", "ios": "https://dc.lft.to/lastmile_qr_scan"}, "fusion_lon": 0.0, "lat": 38.90640166666667, "bike_id": "17ee5c7e5224873625f1c3d7d7e4314c", "type": "electric_scooter", "is_reserved": 0, "lon": -77.0179405}, {"fusion_lat": 0.0, "name": "967a98551c7dbae1c2abc7127cfe59bf", "is_disabled": 0, "rental_uris": {"android": "https://dc.lft.to/lastmile_qr_scan", "ios": "https://dc.lft.to/lastmile_qr_scan"}, "fusion_lon": 0.0, "lat": 38.927912, "bike_id": "967a98551c7dbae1c2abc7127cfe59bf", "type": "electric_scooter", "is_reserved": 0, "lon": -77.03208}, {"fusion_lat": 0.0, "name": "0b42a23a3f746675076a2b1f4f0b58fb", "is_disabled": 0, "rental_uris": {"android": "https://dc.lft.to/lastmile_qr_scan", "ios": "https://dc.lft.to/lastmile_qr_scan"}, "fusion_lon": 0.0, "lat": 38.899580666666665, "bike_id": "0b42a23a3f746675076a2b1f4f0b58fb", "type": "electric_scooter", "is_reserved": 0, "lon": -77.02395666666666}, {"fusion_lat": 0.0, "name": "706ea0584a4c885214f0dce914708a35", "is_disabled": 0, "rental_uris": {"android": "https://dc.lft.to/lastmile_qr_scan", "ios": "https://dc.lft.to/lastmile_qr_scan"}, "fusion_lon": 0.0, "lat": 38.90370133333333, "bike_id": "706ea0584a4c885214f0dce914708a35", "type": "electric_scooter", "is_reserved": 0, "lon": -77.01840183333333}, {"fusion_lat": 0.0, "name": "7f92215acae4b1e6ff85cb940a3e2ac2", "is_disabled": 0, "rental_uris": {"android": "https://dc.lft.to/lastmile_qr_scan", "ios": "https://dc.lft.to/lastmile_qr_scan"}, "fusion_lon": 0.0, "lat": 38.9176815, "bike_id": "7f92215acae4b1e6ff85cb940a3e2ac2", "type": "electric_scooter", "is_reserved": 0, "lon": -77.036431}, {"fusion_lat": 0.0, "name": "a34d215199a2d91e5b177cd53abf516e", "is_disabled": 0, "rental_uris": {"android": "https://dc.lft.to/lastmile_qr_scan", "ios": "https://dc.lft.to/lastmile_qr_scan"}, "fusion_lon": 0.0, "lat": 38.804965833333334, "bike_id": "a34d215199a2d91e5b177cd53abf516e", "type": "electric_bike", "is_reserved": 0, "lon": -77.101598}, {"fusion_lat": 0.0, "name": "3b101ccaf0f41e2ec8d42ed8dcf2ce60", "is_disabled": 0, "rental_uris": {"android": "https://dc.lft.to/lastmile_qr_scan", "ios": "https://dc.lft.to/lastmile_qr_scan"}, "fusion_lon": 0.0, "lat": 38.9130535, "bike_id": "3b101ccaf0f41e2ec8d42ed8dcf2ce60", "type": "electric_scooter", "is_reserved": 0, "lon": -77.04870616666666}, {"fusion_lat": 0.0, "name": "d8bce0455c5e2d66e0fad43f516b8369", "is_disabled": 0, "rental_uris": {"android": "https://dc.lft.to/lastmile_qr_scan", "ios": "https://dc.lft.to/lastmile_qr_scan"}, "fusion_lon": 0.0, "lat": 38.92503333333333, "bike_id": "d8bce0455c5e2d66e0fad43f516b8369", "type": "electric_scooter", "is_reserved": 0, "lon": -77.02140466666667}, {"fusion_lat": 0.0, "name": "4832fa3ff74ef464ab445e099e8483e9", "is_disabled": 0, "rental_uris": {"android": "https://dc.lft.to/lastmile_qr_scan", "ios": "https://dc.lft.to/lastmile_qr_scan"}, "fusion_lon": 0.0, "lat": 38.9196895, "bike_id": "4832fa3ff74ef464ab445e099e8483e9", "type": "electric_scooter", "is_reserved": 0, "lon": -77.07089266666667}, {"fusion_lat": 0.0, "name": "8084994bd2b08c6dfb5b1c6c78cc1ae9", "is_disabled": 0, "rental_uris": {"android": "https://dc.lft.to/lastmile_qr_scan", "ios": "https://dc.lft.to/lastmile_qr_scan"}, "fusion_lon": 0.0, "lat": 38.861677666666665, "bike_id": "8084994bd2b08c6dfb5b1c6c78cc1ae9", "type": "electric_scooter", "is_reserved": 0, "lon": -76.98367733333333}, {"fusion_lat": 0.0, "name": "c89705195250712d3aabd6e155ac84b3", "is_disabled": 0, "rental_uris": {"android": "https://dc.lft.to/lastmile_qr_scan", "ios": "https://dc.lft.to/lastmile_qr_scan"}, "fusion_lon": 0.0, "lat": 38.948984833333334, "bike_id": "c89705195250712d3aabd6e155ac84b3", "type": "electric_bike", "is_reserved": 0, "lon": -76.96372883333333}, {"fusion_lat": 0.0, "name": "1b95a1170ab7c3c1db8b776b4e9801e3", "is_disabled": 0, "rental_uris": {"android": "https://dc.lft.to/lastmile_qr_scan", "ios": "https://dc.lft.to/lastmile_qr_scan"}, "fusion_lon": 0.0, "lat": 38.89287983333333, "bike_id": "1b95a1170ab7c3c1db8b776b4e9801e3", "type": "electric_scooter", "is_reserved": 0, "lon": -76.98309233333333}, {"fusion_lat": 0.0, "name": "d540ca45dd85e7f754b01a3f68561b9d", "is_disabled": 0, "rental_uris": {"android": "https://dc.lft.to/lastmile_qr_scan", "ios": "https://dc.lft.to/lastmile_qr_scan"}, "fusion_lon": 0.0, "lat": 38.920072833333336, "bike_id": "d540ca45dd85e7f754b01a3f68561b9d", "type": "electric_scooter", "is_reserved": 0, "lon": -77.03131433333333}, {"fusion_lat": 0.0, "name": "7b05df5fb0f984ace2fcba7aa71da268", "is_disabled": 0, "rental_uris": {"android": "https://dc.lft.to/lastmile_qr_scan", "ios": "https://dc.lft.to/lastmile_qr_scan"}, "fusion_lon": 0.0, "lat": 38.94293566666666, "bike_id": "7b05df5fb0f984ace2fcba7aa71da268", "type": "electric_scooter", "is_reserved": 0, "lon": -77.02169816666667}, {"fusion_lat": 0.0, "name": "c256fd41080a512c27be41775c80ca8a", "is_disabled": 0, "rental_uris": {"android": "https://dc.lft.to/lastmile_qr_scan", "ios": "https://dc.lft.to/lastmile_qr_scan"}, "fusion_lon": 0.0, "lat": 38.952925, "bike_id": "c256fd41080a512c27be41775c80ca8a", "type": "electric_bike", "is_reserved": 0, "lon": -76.99996783333333}, {"fusion_lat": 0.0, "name": "89f3f3142c1d1bc841d8153ddd514deb", "is_disabled": 0, "rental_uris": {"android": "https://dc.lft.to/lastmile_qr_scan", "ios": "https://dc.lft.to/lastmile_qr_scan"}, "fusion_lon": 0.0, "lat": 38.8896705, "bike_id": "89f3f3142c1d1bc841d8153ddd514deb", "type": "electric_scooter", "is_reserved": 0, "lon": -76.97969033333334}, {"fusion_lat": 0.0, "name": "ab2134369fab8896cd123be3f7d4cda1", "is_disabled": 0, "rental_uris": {"android": "https://dc.lft.to/lastmile_qr_scan", "ios": "https://dc.lft.to/lastmile_qr_scan"}, "fusion_lon": 0.0, "lat": 38.89491, "bike_id": "ab2134369fab8896cd123be3f7d4cda1", "type": "electric_scooter", "is_reserved": 0, "lon": -77.002584}, {"fusion_lat": 0.0, "name": "3a1ee41e81960458be8043d390d50ee8", "is_disabled": 0, "rental_uris": {"android": "https://dc.lft.to/lastmile_qr_scan", "ios": "https://dc.lft.to/lastmile_qr_scan"}, "fusion_lon": 0.0, "lat": 38.841287666666666, "bike_id": "3a1ee41e81960458be8043d390d50ee8", "type": "electric_bike", "is_reserved": 0, "lon": -77.06305016666667}, {"fusion_lat": 0.0, "name": "19403209fe7be7f33e84251e4ebc1dcf", "is_disabled": 0, "rental_uris": {"android": "https://dc.lft.to/lastmile_qr_scan", "ios": "https://dc.lft.to/lastmile_qr_scan"}, "fusion_lon": 0.0, "lat": 38.898323166666664, "bike_id": "19403209fe7be7f33e84251e4ebc1dcf", "type": "electric_scooter", "is_reserved": 0, "lon": -77.049979}, {"fusion_lat": 0.0, "name": "0eb3ce11bb394101e446c26d515cd76a", "is_disabled": 0, "rental_uris": {"android": "https://dc.lft.to/lastmile_qr_scan", "ios": "https://dc.lft.to/lastmile_qr_scan"}, "fusion_lon": 0.0, "lat": 38.933975, "bike_id": "0eb3ce11bb394101e446c26d515cd76a", "type": "electric_scooter", "is_reserved": 0, "lon": -77.02835933333333}, {"fusion_lat": 0.0, "name": "f87d8a8f916dc1ec3c327a8e0909afc8", "is_disabled": 0, "rental_uris": {"android": "https://dc.lft.to/lastmile_qr_scan", "ios": "https://dc.lft.to/lastmile_qr_scan"}, "fusion_lon": 0.0, "lat": 38.900634, "bike_id": "f87d8a8f916dc1ec3c327a8e0909afc8", "type": "electric_scooter", "is_reserved": 0, "lon": -77.04527433333334}, {"fusion_lat": 0.0, "name": "c5f6df40c60b39eb7b2f5d4800f0b228", "is_disabled": 0, "rental_uris": {"android": "https://dc.lft.to/lastmile_qr_scan", "ios": "https://dc.lft.to/lastmile_qr_scan"}, "fusion_lon": 0.0, "lat": 38.923998833333336, "bike_id": "c5f6df40c60b39eb7b2f5d4800f0b228", "type": "electric_scooter", "is_reserved": 0, "lon": -77.04300483333333}, {"fusion_lat": 0.0, "name": "8351a705cbe6c91f18c3a9a4a590bd9a", "is_disabled": 0, "rental_uris": {"android": "https://dc.lft.to/lastmile_qr_scan", "ios": "https://dc.lft.to/lastmile_qr_scan"}, "fusion_lon": 0.0, "lat": 38.883884333333334, "bike_id": "8351a705cbe6c91f18c3a9a4a590bd9a", "type": "electric_scooter", "is_reserved": 0, "lon": -77.01946016666666}, {"fusion_lat": 0.0, "name": "fa4354efbc38848a0c7a1702b6d9d66c", "is_disabled": 0, "rental_uris": {"android": "https://dc.lft.to/lastmile_qr_scan", "ios": "https://dc.lft.to/lastmile_qr_scan"}, "fusion_lon": 0.0, "lat": 38.89668016666667, "bike_id": "fa4354efbc38848a0c7a1702b6d9d66c", "type": "electric_scooter", "is_reserved": 0, "lon": -77.02478833333333}, {"fusion_lat": 0.0, "name": "5b5fd7e127d1ed84513edd7c4d6b862b", "is_disabled": 0, "rental_uris": {"android": "https://dc.lft.to/lastmile_qr_scan", "ios": "https://dc.lft.to/lastmile_qr_scan"}, "fusion_lon": 0.0, "lat": 38.879163, "bike_id": "5b5fd7e127d1ed84513edd7c4d6b862b", "type": "electric_scooter", "is_reserved": 0, "lon": -77.02236633333334}, {"fusion_lat": 0.0, "name": "b4941c8c5e186007be4af8151400787a", "is_disabled": 0, "rental_uris": {"android": "https://dc.lft.to/lastmile_qr_scan", "ios": "https://dc.lft.to/lastmile_qr_scan"}, "fusion_lon": 0.0, "lat": 38.81939883333333, "bike_id": "b4941c8c5e186007be4af8151400787a", "type": "electric_bike", "is_reserved": 0, "lon": -77.00200616666666}, {"fusion_lat": 0.0, "name": "e532c8db88a921adacbb6fdface1cf26", "is_disabled": 0, "rental_uris": {"android": "https://dc.lft.to/lastmile_qr_scan", "ios": "https://dc.lft.to/lastmile_qr_scan"}, "fusion_lon": 0.0, "lat": 38.909576666666666, "bike_id": "e532c8db88a921adacbb6fdface1cf26", "type": "electric_scooter", "is_reserved": 0, "lon": -76.9854075}, {"fusion_lat": 0.0, "name": "b5d9a2139ba6be4cef8985d92b4f5086", "is_disabled": 0, "rental_uris": {"android": "https://dc.lft.to/lastmile_qr_scan", "ios": "https://dc.lft.to/lastmile_qr_scan"}, "fusion_lon": 0.0, "lat": 38.923005, "bike_id": "b5d9a2139ba6be4cef8985d92b4f5086", "type": "electric_scooter", "is_reserved": 0, "lon": -77.0414515}, {"fusion_lat": 0.0, "name": "8384e45a7bc88572bec0809f2800d1e2", "is_disabled": 0, "rental_uris": {"android": "https://dc.lft.to/lastmile_qr_scan", "ios": "https://dc.lft.to/lastmile_qr_scan"}, "fusion_lon": 0.0, "lat": 38.881308833333335, "bike_id": "8384e45a7bc88572bec0809f2800d1e2", "type": "electric_scooter", "is_reserved": 0, "lon": -77.02709816666666}, {"fusion_lat": 0.0, "name": "0c46d9936eb3989d54cd286a65635292", "is_disabled": 0, "rental_uris": {"android": "https://dc.lft.to/lastmile_qr_scan", "ios": "https://dc.lft.to/lastmile_qr_scan"}, "fusion_lon": 0.0, "lat": 38.921757166666666, "bike_id": "0c46d9936eb3989d54cd286a65635292", "type": "electric_scooter", "is_reserved": 0, "lon": -76.9978865}, {"fusion_lat": 0.0, "name": "d76cd177020d2d804d47509a093d3d26", "is_disabled": 0, "rental_uris": {"android": "https://dc.lft.to/lastmile_qr_scan", "ios": "https://dc.lft.to/lastmile_qr_scan"}, "fusion_lon": 0.0, "lat": 38.91257066666667, "bike_id": "d76cd177020d2d804d47509a093d3d26", "type": "electric_scooter", "is_reserved": 0, "lon": -77.04920716666666}, {"fusion_lat": 0.0, "name": "a8c0bc159aabc94a5f67ca11736b684e", "is_disabled": 0, "rental_uris": {"android": "https://dc.lft.to/lastmile_qr_scan", "ios": "https://dc.lft.to/lastmile_qr_scan"}, "fusion_lon": 0.0, "lat": 38.90466033333333, "bike_id": "a8c0bc159aabc94a5f67ca11736b684e", "type": "electric_scooter", "is_reserved": 0, "lon": -77.03357383333334}, {"fusion_lat": 0.0, "name": "cf41650530cc1dc9740ead6f98bdde8d", "is_disabled": 0, "rental_uris": {"android": "https://dc.lft.to/lastmile_qr_scan", "ios": "https://dc.lft.to/lastmile_qr_scan"}, "fusion_lon": 0.0, "lat": 38.90857716666667, "bike_id": "cf41650530cc1dc9740ead6f98bdde8d", "type": "electric_scooter", "is_reserved": 0, "lon": -77.04593766666666}, {"fusion_lat": 0.0, "name": "2a0441c1744fb3cb15ef62c644a5580f", "is_disabled": 0, "rental_uris": {"android": "https://dc.lft.to/lastmile_qr_scan", "ios": "https://dc.lft.to/lastmile_qr_scan"}, "fusion_lon": 0.0, "lat": 38.913563, "bike_id": "2a0441c1744fb3cb15ef62c644a5580f", "type": "electric_scooter", "is_reserved": 0, "lon": -77.04872166666667}, {"fusion_lat": 0.0, "name": "be4fa58a8eb224829e779bec4f34a3bd", "is_disabled": 0, "rental_uris": {"android": "https://dc.lft.to/lastmile_qr_scan", "ios": "https://dc.lft.to/lastmile_qr_scan"}, "fusion_lon": 0.0, "lat": 38.886965000000004, "bike_id": "be4fa58a8eb224829e779bec4f34a3bd", "type": "electric_scooter", "is_reserved": 0, "lon": -77.03156766666666}, {"fusion_lat": 0.0, "name": "a065ee5f2a5c96b87d33faa7aaaf34a0", "is_disabled": 0, "rental_uris": {"android": "https://dc.lft.to/lastmile_qr_scan", "ios": "https://dc.lft.to/lastmile_qr_scan"}, "fusion_lon": 0.0, "lat": 38.91030933333333, "bike_id": "a065ee5f2a5c96b87d33faa7aaaf34a0", "type": "electric_scooter", "is_reserved": 0, "lon": -77.0150895}, {"fusion_lat": 0.0, "name": "fe1974934f3c859b3d4b6ca8ee2f319c", "is_disabled": 0, "rental_uris": {"android": "https://dc.lft.to/lastmile_qr_scan", "ios": "https://dc.lft.to/lastmile_qr_scan"}, "fusion_lon": 0.0, "lat": 38.89008333333334, "bike_id": "fe1974934f3c859b3d4b6ca8ee2f319c", "type": "electric_scooter", "is_reserved": 0, "lon": -76.937457}, {"fusion_lat": 0.0, "name": "5765de8cd66cf09fd1458be056f8aa6a", "is_disabled": 0, "rental_uris": {"android": "https://dc.lft.to/lastmile_qr_scan", "ios": "https://dc.lft.to/lastmile_qr_scan"}, "fusion_lon": 0.0, "lat": 38.898669166666664, "bike_id": "5765de8cd66cf09fd1458be056f8aa6a", "type": "electric_scooter", "is_reserved": 0, "lon": -77.02815983333333}, {"fusion_lat": 0.0, "name": "c4054c1cde50513e3641f1d5a478cb09", "is_disabled": 0, "rental_uris": {"android": "https://dc.lft.to/lastmile_qr_scan", "ios": "https://dc.lft.to/lastmile_qr_scan"},