{"data": {"bikes": [{"lat": 38.90551166666667, "lon": -77.003039, "is_disabled": 0, "fusion_lon": 0.0, "is_reserved": 0, "name": "d93b1070cdebf744f6ef37df880116a3", "type": "electric_scooter", "bike_id": "d93b1070cdebf744f6ef37df880116a3", "rental_uris": {"ios": "https://dc.lft.to/lastmile_qr_scan", "android": "https://dc.lft.to/lastmile_qr_scan"}, "fusion_lat": 0.0}, {"lat": 38.8874425, "lon": -77.02567166666667, "is_disabled": 0, "fusion_lon": 0.0, "is_reserved": 0, "name": "81074516573d2957baf7382a1c98ab28", "type": "electric_scooter", "bike_id": "81074516573d2957baf7382a1c98ab28", "rental_uris": {"ios": "https://dc.lft.to/lastmile_qr_scan", "android": "https://dc.lft.to/lastmile_qr_scan"}, "fusion_lat": 0.0}, {"lat": 38.90678033333333, "lon": -77.03863233333334, "is_disabled": 0, "fusion_lon": 0.0, "is_reserved": 0, "name": "b60feec0369ba7c4281e8e28ae961a6b", "type": "electric_scooter", "bike_id": "b60feec0369ba7c4281e8e28ae961a6b", "rental_uris": {"ios": "https://dc.lft.to/lastmile_qr_scan", "android": "https://dc.lft.to/lastmile_qr_scan"}, "fusion_lat": 0.0}, {"lat": 38.9362145, "lon": -77.08640483333333, "is_disabled": 0, "fusion_lon": 0.0, "is_reserved": 0, "name": "6326788db9de88ce53bf0fb68b9b67a2", "type": "electric_scooter", "bike_id": "6326788db9de88ce53bf0fb68b9b67a2", "rental_uris": {"ios": "https://dc.lft.to/lastmile_qr_scan", "android": "https://dc.lft.to/lastmile_qr_scan"}, "fusion_lat": 0.0}, {"lat": 38.9140035, "lon": -77.02993266666667, "is_disabled": 0, "fusion_lon": 0.0, "is_reserved": 0, "name": "ec5194fdaa892f5e9863b42cdf1ec1c9", "type": "electric_scooter", "bike_id": "ec5194fdaa892f5e9863b42cdf1ec1c9", "rental_uris": {"ios": "https://dc.lft.to/lastmile_qr_scan", "android": "https://dc.lft.to/lastmile_qr_scan"}, "fusion_lat": 0.0}, {"lat": 38.94833466666667, "lon": -77.10003183333333, "is_disabled": 0, "fusion_lon": 0.0, "is_reserved": 0, "name": "1052081b9991a4cde1bafe14905331b1", "type": "electric_scooter", "bike_id": "1052081b9991a4cde1bafe14905331b1", "rental_uris": {"ios": "https://dc.lft.to/lastmile_qr_scan", "android": "https://dc.lft.to/lastmile_qr_scan"}, "fusion_lat": 0.0}, {"lat": 38.9030505, "lon": -77.05814083333334, "is_disabled": 0, "fusion_lon": 0.0, "is_reserved": 0, "name": "8c45296a74b486badc26e2e9726fbc99", "type": "electric_scooter", "bike_id": "8c45296a74b486badc26e2e9726fbc99", "rental_uris": {"ios": "https://dc.lft.to/lastmile_qr_scan", "android": "https://dc.lft.to/lastmile_qr_scan"}, "fusion_lat": 0.0}, {"lat": 38.98480933333333, "lon": -77.0263685, "is_disabled": 0, "fusion_lon": 0.0, "is_reserved": 0, "name": "6bc068dc8bfa6ab3c2be4fa438c48124", "type": "electric_scooter", "bike_id": "6bc068dc8bfa6ab3c2be4fa438c48124", "rental_uris": {"ios": "https://dc.lft.to/lastmile_qr_scan", "android": "https://dc.lft.to/lastmile_qr_scan"}, "fusion_lat": 0.0}, {"lat": 38.90700733333333, "lon": -77.0434195, "is_disabled": 0, "fusion_lon": 0.0, "is_reserved": 0, "name": "c18a0e091d8158d3d4d488c4114c0014", "type": "electric_scooter", "bike_id": "c18a0e091d8158d3d4d488c4114c0014", "rental_uris": {"ios": "https://dc.lft.to/lastmile_qr_scan", "android": "https://dc.lft.to/lastmile_qr_scan"}, "fusion_lat": 0.0}, {"lat": 38.89002833333333, "lon": -76.97733316666667, "is_disabled": 0, "fusion_lon": 0.0, "is_reserved": 0, "name": "17961494479939814f463637456e1156", "type": "electric_scooter", "bike_id": "17961494479939814f463637456e1156", "rental_uris": {"ios": "https://dc.lft.to/lastmile_qr_scan", "android": "https://dc.lft.to/lastmile_qr_scan"}, "fusion_lat": 0.0}, {"lat": 38.90121, "lon": -77.01652733333333, "is_disabled": 0, "fusion_lon": 0.0, "is_reserved": 0, "name": "2b355a07cc006c315ac646ebfd3688de", "type": "electric_scooter", "bike_id": "2b355a07cc006c315ac646ebfd3688de", "rental_uris": {"ios": "https://dc.lft.to/lastmile_qr_scan", "android": "https://dc.lft.to/lastmile_qr_scan"}, "fusion_lat": 0.0}, {"lat": 38.915725333333334, "lon": -77.01236516666667, "is_disabled": 0, "fusion_lon": 0.0, "is_reserved": 0, "name": "179dc28083ab7644c999a8890234653d", "type": "electric_scooter", "bike_id": "179dc28083ab7644c999a8890234653d", "rental_uris": {"ios": "https://dc.lft.to/lastmile_qr_scan", "android": "https://dc.lft.to/lastmile_qr_scan"}, "fusion_lat": 0.0}, {"lat": 38.9169605, "lon": -77.0434655, "is_disabled": 0, "fusion_lon": 0.0, "is_reserved": 0, "name": "77e508b7cbbfb84ba33f287d8d934842", "type": "electric_scooter", "bike_id": "77e508b7cbbfb84ba33f287d8d934842", "rental_uris": {"ios": "https://dc.lft.to/lastmile_qr_scan", "android": "https://dc.lft.to/lastmile_qr_scan"}, "fusion_lat": 0.0}, {"lat": 38.897302333333336, "lon": -77.02709316666666, "is_disabled": 0, "fusion_lon": 0.0, "is_reserved": 0, "name": "6fc97e9d2594459c401b5944cd86ccd2", "type": "electric_scooter", "bike_id": "6fc97e9d2594459c401b5944cd86ccd2", "rental_uris": {"ios": "https://dc.lft.to/lastmile_qr_scan", "android": "https://dc.lft.to/lastmile_qr_scan"}, "fusion_lat": 0.0}, {"lat": 38.92429716666667, "lon": -77.02038883333333, "is_disabled": 0, "fusion_lon": 0.0, "is_reserved": 0, "name": "42bf2606807e314d237edee577ec7294", "type": "electric_scooter", "bike_id": "42bf2606807e314d237edee577ec7294", "rental_uris": {"ios": "https://dc.lft.to/lastmile_qr_scan", "android": "https://dc.lft.to/lastmile_qr_scan"}, "fusion_lat": 0.0}, {"lat": 38.87463916666667, "lon": -77.01452, "is_disabled": 0, "fusion_lon": 0.0, "is_reserved": 0, "name": "84b9fd508f95c40acf04166d6c335458", "type": "electric_scooter", "bike_id": "84b9fd508f95c40acf04166d6c335458", "rental_uris": {"ios": "https://dc.lft.to/lastmile_qr_scan", "android": "https://dc.lft.to/lastmile_qr_scan"}, "fusion_lat": 0.0}, {"lat": 38.892089166666665, "lon": -77.02653383333333, "is_disabled": 0, "fusion_lon": 0.0, "is_reserved": 0, "name": "5a3bed34f6bdd31e899ab8815a1bb255", "type": "electric_scooter", "bike_id": "5a3bed34f6bdd31e899ab8815a1bb255", "rental_uris": {"ios": "https://dc.lft.to/lastmile_qr_scan", "android": "https://dc.lft.to/lastmile_qr_scan"}, "fusion_lat": 0.0}, {"lat": 38.911112333333335, "lon": -77.04537766666667, "is_disabled": 0, "fusion_lon": 0.0, "is_reserved": 0, "name": "a5e58b85a1a74b8954d89209a3dcd5a8", "type": "electric_scooter", "bike_id": "a5e58b85a1a74b8954d89209a3dcd5a8", "rental_uris": {"ios": "https://dc.lft.to/lastmile_qr_scan", "android": "https://dc.lft.to/lastmile_qr_scan"}, "fusion_lat": 0.0}, {"lat": 38.84302183333333, "lon": -76.99534516666667, "is_disabled": 0, "fusion_lon": 0.0, "is_reserved": 0, "name": "f7158e578706c559d1a561a3b46cb2b6", "type": "electric_scooter", "bike_id": "f7158e578706c559d1a561a3b46cb2b6", "rental_uris": {"ios": "https://dc.lft.to/lastmile_qr_scan", "android": "https://dc.lft.to/lastmile_qr_scan"}, "fusion_lat": 0.0}, {"lat": 38.9233295, "lon": -77.05682516666667, "is_disabled": 0, "fusion_lon": 0.0, "is_reserved": 0, "name": "481e9be9d6c175694bbe0b7d1cd605ff", "type": "electric_scooter", "bike_id": "481e9be9d6c175694bbe0b7d1cd605ff", "rental_uris": {"ios": "https://dc.lft.to/lastmile_qr_scan", "android": "https://dc.lft.to/lastmile_qr_scan"}, "fusion_lat": 0.0}, {"lat": 38.89224816666667, "lon": -77.04197666666667, "is_disabled": 0, "fusion_lon": 0.0, "is_reserved": 0, "name": "7560114a15c21ba9f0622b9f5aa9aa13", "type": "electric_scooter", "bike_id": "7560114a15c21ba9f0622b9f5aa9aa13", "rental_uris": {"ios": "https://dc.lft.to/lastmile_qr_scan", "android": "https://dc.lft.to/lastmile_qr_scan"}, "fusion_lat": 0.0}, {"lat": 38.915961333333335, "lon": -77.04509966666667, "is_disabled": 0, "fusion_lon": 0.0, "is_reserved": 0, "name": "4cb350d190ddc79902e32fc72fd9d58a", "type": "electric_scooter", "bike_id": "4cb350d190ddc79902e32fc72fd9d58a", "rental_uris": {"ios": "https://dc.lft.to/lastmile_qr_scan", "android": "https://dc.lft.to/lastmile_qr_scan"}, "fusion_lat": 0.0}, {"lat": 38.92590216666667, "lon": -77.21007816666666, "is_disabled": 0, "fusion_lon": 0.0, "is_reserved": 0, "name": "adf4c250d3d450e8215dbf8dda5da0bc", "type": "electric_bike", "bike_id": "adf4c250d3d450e8215dbf8dda5da0bc", "rental_uris": {"ios": "https://dc.lft.to/lastmile_qr_scan", "android": "https://dc.lft.to/lastmile_qr_scan"}, "fusion_lat": 0.0}, {"lat": 38.92306766666667, "lon": -77.041087, "is_disabled": 0, "fusion_lon": 0.0, "is_reserved": 0, "name": "30040a4223e621875e88ca85eb6f1729", "type": "electric_scooter", "bike_id": "30040a4223e621875e88ca85eb6f1729", "rental_uris": {"ios": "https://dc.lft.to/lastmile_qr_scan", "android": "https://dc.lft.to/lastmile_qr_scan"}, "fusion_lat": 0.0}, {"lat": 38.90632466666667, "lon": -77.02501, "is_disabled": 0, "fusion_lon": 0.0, "is_reserved": 0, "name": "caf116bc1a9e98d0719c39e57bd34876", "type": "electric_scooter", "bike_id": "caf116bc1a9e98d0719c39e57bd34876", "rental_uris": {"ios": "https://dc.lft.to/lastmile_qr_scan", "android": "https://dc.lft.to/lastmile_qr_scan"}, "fusion_lat": 0.0}, {"lat": 38.916116833333334, "lon": -77.03189466666667, "is_disabled": 0, "fusion_lon": 0.0, "is_reserved": 0, "name": "fe43ce359b73417ffb22b6374a1c172a", "type": "electric_scooter", "bike_id": "fe43ce359b73417ffb22b6374a1c172a", "rental_uris": {"ios": "https://dc.lft.to/lastmile_qr_scan", "android": "https://dc.lft.to/lastmile_qr_scan"}, "fusion_lat": 0.0}, {"lat": 38.91509083333333, "lon": -77.01575566666666, "is_disabled": 0, "fusion_lon": 0.0, "is_reserved": 0, "name": "6a9d97f7dc6b34eaa2436dcef4f8a8f0", "type": "electric_scooter", "bike_id": "6a9d97f7dc6b34eaa2436dcef4f8a8f0", "rental_uris": {"ios": "https://dc.lft.to/lastmile_qr_scan", "android": "https://dc.lft.to/lastmile_qr_scan"}, "fusion_lat": 0.0}, {"lat": 38.9009435, "lon": -77.02086266666667, "is_disabled": 0, "fusion_lon": 0.0, "is_reserved": 0, "name": "6da6e4bb8ecd8890a4c3f74d8c6a6b3d", "type": "electric_scooter", "bike_id": "6da6e4bb8ecd8890a4c3f74d8c6a6b3d", "rental_uris": {"ios": "https://dc.lft.to/lastmile_qr_scan", "android": "https://dc.lft.to/lastmile_qr_scan"}, "fusion_lat": 0.0}, {"lat": 38.82787966666667, "lon": -77.1249735, "is_disabled": 0, "fusion_lon": 0.0, "is_reserved": 0, "name": "2c824777feb8bf29ba0d3b448163aae0", "type": "electric_bike", "bike_id": "2c824777feb8bf29ba0d3b448163aae0", "rental_uris": {"ios": "https://dc.lft.to/lastmile_qr_scan", "android": "https://dc.lft.to/lastmile_qr_scan"}, "fusion_lat": 0.0}, {"lat": 38.924595, "lon": -77.05232633333334, "is_disabled": 0, "fusion_lon": 0.0, "is_reserved": 0, "name": "78bbcc71ac8962b34a695f5436c76c22", "type": "electric_scooter", "bike_id": "78bbcc71ac8962b34a695f5436c76c22", "rental_uris": {"ios": "https://dc.lft.to/lastmile_qr_scan", "android": "https://dc.lft.to/lastmile_qr_scan"}, "fusion_lat": 0.0}, {"lat": 38.887643833333335, "lon": -77.01303966666667, "is_disabled": 0, "fusion_lon": 0.0, "is_reserved": 0, "name": "13afb3bd0e961a65b827021b82695414", "type": "electric_scooter", "bike_id": "13afb3bd0e961a65b827021b82695414", "rental_uris": {"ios": "https://dc.lft.to/lastmile_qr_scan", "android": "https://dc.lft.to/lastmile_qr_scan"}, "fusion_lat": 0.0}, {"lat": 38.9158755, "lon": -77.01722966666667, "is_disabled": 0, "fusion_lon": 0.0, "is_reserved": 0, "name": "98f6c7c2d2524ad0586472d39a1a2a27", "type": "electric_scooter", "bike_id": "98f6c7c2d2524ad0586472d39a1a2a27", "rental_uris": {"ios": "https://dc.lft.to/lastmile_qr_scan", "android": "https://dc.lft.to/lastmile_qr_scan"}, "fusion_lat": 0.0}, {"lat": 38.9542085, "lon": -77.02769, "is_disabled": 0, "fusion_lon": 0.0, "is_reserved": 0, "name": "e49ebcd960f1c05aeaa39cd17621f8db", "type": "electric_scooter", "bike_id": "e49ebcd960f1c05aeaa39cd17621f8db", "rental_uris": {"ios": "https://dc.lft.to/lastmile_qr_scan", "android": "https://dc.lft.to/lastmile_qr_scan"}, "fusion_lat": 0.0}, {"lat": 38.899351333333335, "lon": -77.020207, "is_disabled": 0, "fusion_lon": 0.0, "is_reserved": 0, "name": "f804f6e89f5fa6ce400124c584e55c65", "type": "electric_scooter", "bike_id": "f804f6e89f5fa6ce400124c584e55c65", "rental_uris": {"ios": "https://dc.lft.to/lastmile_qr_scan", "android": "https://dc.lft.to/lastmile_qr_scan"}, "fusion_lat": 0.0}, {"lat": 38.93182566666667, "lon": -77.042979, "is_disabled": 0, "fusion_lon": 0.0, "is_reserved": 0, "name": "4dbda3f64d9d7779ab02e020abffb226", "type": "electric_scooter", "bike_id": "4dbda3f64d9d7779ab02e020abffb226", "rental_uris": {"ios": "https://dc.lft.to/lastmile_qr_scan", "android": "https://dc.lft.to/lastmile_qr_scan"}, "fusion_lat": 0.0}, {"lat": 38.926661333333335, "lon": -77.0278365, "is_disabled": 0, "fusion_lon": 0.0, "is_reserved": 0, "name": "75664452901b7a3b153e27e4e69f6353", "type": "electric_scooter", "bike_id": "75664452901b7a3b153e27e4e69f6353", "rental_uris": {"ios": "https://dc.lft.to/lastmile_qr_scan", "android": "https://dc.lft.to/lastmile_qr_scan"}, "fusion_lat": 0.0}, {"lat": 38.89769016666666, "lon": -76.9845905, "is_disabled": 0, "fusion_lon": 0.0, "is_reserved": 0, "name": "ad1cadad957283e2a78cd64e02ef32d3", "type": "electric_scooter", "bike_id": "ad1cadad957283e2a78cd64e02ef32d3", "rental_uris": {"ios": "https://dc.lft.to/lastmile_qr_scan", "android": "https://dc.lft.to/lastmile_qr_scan"}, "fusion_lat": 0.0}, {"lat": 38.920587166666664, "lon": -77.0422305, "is_disabled": 0, "fusion_lon": 0.0, "is_reserved": 0, "name": "fc9485e1ce75debe02b864796da23d3f", "type": "electric_scooter", "bike_id": "fc9485e1ce75debe02b864796da23d3f", "rental_uris": {"ios": "https://dc.lft.to/lastmile_qr_scan", "android": "https://dc.lft.to/lastmile_qr_scan"}, "fusion_lat": 0.0}, {"lat": 38.9173615, "lon": -77.02114533333334, "is_disabled": 0, "fusion_lon": 0.0, "is_reserved": 0, "name": "c2269c4b825d375c979e021d09a02e41", "type": "electric_scooter", "bike_id": "c2269c4b825d375c979e021d09a02e41", "rental_uris": {"ios": "https://dc.lft.to/lastmile_qr_scan", "android": "https://dc.lft.to/lastmile_qr_scan"}, "fusion_lat": 0.0}, {"lat": 38.92388583333333, "lon": -77.02738733333334, "is_disabled": 0, "fusion_lon": 0.0, "is_reserved": 0, "name": "a15eb208994524bacea6d7da22c87841", "type": "electric_scooter", "bike_id": "a15eb208994524bacea6d7da22c87841", "rental_uris": {"ios": "https://dc.lft.to/lastmile_qr_scan", "android": "https://dc.lft.to/lastmile_qr_scan"}, "fusion_lat": 0.0}, {"lat": 38.884076666666665, "lon": -77.0175995, "is_disabled": 0, "fusion_lon": 0.0, "is_reserved": 0, "name": "57e3ce07e72499a9981fedef91d7c86e", "type": "electric_scooter", "bike_id": "57e3ce07e72499a9981fedef91d7c86e", "rental_uris": {"ios": "https://dc.lft.to/lastmile_qr_scan", "android": "https://dc.lft.to/lastmile_qr_scan"}, "fusion_lat": 0.0}, {"lat": 38.86889016666667, "lon": -76.990023, "is_disabled": 0, "fusion_lon": 0.0, "is_reserved": 0, "name": "9437511d27ae5765d7283b8d94066c10", "type": "electric_scooter", "bike_id": "9437511d27ae5765d7283b8d94066c10", "rental_uris": {"ios": "https://dc.lft.to/lastmile_qr_scan", "android": "https://dc.lft.to/lastmile_qr_scan"}, "fusion_lat": 0.0}, {"lat": 38.922826, "lon": -77.03661483333333, "is_disabled": 0, "fusion_lon": 0.0, "is_reserved": 0, "name": "5960b51fde823eaeb4f5b75d613c3c79", "type": "electric_scooter", "bike_id": "5960b51fde823eaeb4f5b75d613c3c79", "rental_uris": {"ios": "https://dc.lft.to/lastmile_qr_scan", "android": "https://dc.lft.to/lastmile_qr_scan"}, "fusion_lat": 0.0}, {"lat": 38.92327933333333, "lon": -77.02287316666667, "is_disabled": 0, "fusion_lon": 0.0, "is_reserved": 0, "name": "7dbaaa4ee1ea648a7c8c95aa37677903", "type": "electric_scooter", "bike_id": "7dbaaa4ee1ea648a7c8c95aa37677903", "rental_uris": {"ios": "https://dc.lft.to/lastmile_qr_scan", "android": "https://dc.lft.to/lastmile_qr_scan"}, "fusion_lat": 0.0}, {"lat": 38.90533383333333, "lon": -77.0581095, "is_disabled": 0, "fusion_lon": 0.0, "is_reserved": 0, "name": "9b1f82df48f942badefcf2d1133b72eb", "type": "electric_scooter", "bike_id": "9b1f82df48f942badefcf2d1133b72eb", "rental_uris": {"ios": "https://dc.lft.to/lastmile_qr_scan", "android": "https://dc.lft.to/lastmile_qr_scan"}, "fusion_lat": 0.0}, {"lat": 38.9286375, "lon": -77.0366485, "is_disabled": 0, "fusion_lon": 0.0, "is_reserved": 0, "name": "0d2ab0a57656cdd5d14a56ca5c20b4d2", "type": "electric_scooter", "bike_id": "0d2ab0a57656cdd5d14a56ca5c20b4d2", "rental_uris": {"ios": "https://dc.lft.to/lastmile_qr_scan", "android": "https://dc.lft.to/lastmile_qr_scan"}, "fusion_lat": 0.0}, {"lat": 38.90987366666667, "lon": -77.0219795, "is_disabled": 0, "fusion_lon": 0.0, "is_reserved": 0, "name": "73971cc5cd6b8d9b9472b43eeb989cd5", "type": "electric_scooter", "bike_id": "73971cc5cd6b8d9b9472b43eeb989cd5", "rental_uris": {"ios": "https://dc.lft.to/lastmile_qr_scan", "android": "https://dc.lft.to/lastmile_qr_scan"}, "fusion_lat": 0.0}, {"lat": 38.860613666666666, "lon": -76.96719016666667, "is_disabled": 0, "fusion_lon": 0.0, "is_reserved": 0, "name": "935916c978ec611fbd248d5cf28cb700", "type": "electric_scooter", "bike_id": "935916c978ec611fbd248d5cf28cb700", "rental_uris": {"ios": "https://dc.lft.to/lastmile_qr_scan", "android": "https://dc.lft.to/lastmile_qr_scan"}, "fusion_lat": 0.0}, {"lat": 39.03429833333333, "lon": -77.04310483333333, "is_disabled": 0, "fusion_lon": 0.0, "is_reserved": 0, "name": "2d44a9ee6a65560a879628485b4c6db8", "type": "electric_bike", "bike_id": "2d44a9ee6a65560a879628485b4c6db8", "rental_uris": {"ios": "https://dc.lft.to/lastmile_qr_scan", "android": "https://dc.lft.to/lastmile_qr_scan"}, "fusion_lat": 0.0}, {"lat": 38.906708, "lon": -77.050108, "is_disabled": 0, "fusion_lon": 0.0, "is_reserved": 0, "name": "95165ef3a290208d08e5a2f28b0c7ab1", "type": "electric_scooter", "bike_id": "95165ef3a290208d08e5a2f28b0c7ab1", "rental_uris": {"ios": "https://dc.lft.to/lastmile_qr_scan", "android": "https://dc.lft.to/lastmile_qr_scan"}, "fusion_lat": 0.0}, {"lat": 38.87483916666667, "lon": -77.006061, "is_disabled": 0, "fusion_lon": 0.0, "is_reserved": 0, "name": "106f26cd180c01033a26b7c4d56c3d60", "type": "electric_scooter", "bike_id": "106f26cd180c01033a26b7c4d56c3d60", "rental_uris": {"ios": "https://dc.lft.to/lastmile_qr_scan", "android": "https://dc.lft.to/lastmile_qr_scan"}, "fusion_lat": 0.0}, {"lat": 38.919115166666664, "lon": -77.02733033333334, "is_disabled": 0, "fusion_lon": 0.0, "is_reserved": 0, "name": "1e68c5d3a506f806e3d389f87be7fc60", "type": "electric_scooter", "bike_id": "1e68c5d3a506f806e3d389f87be7fc60", "rental_uris": {"ios": "https://dc.lft.to/lastmile_qr_scan", "android": "https://dc.lft.to/lastmile_qr_scan"}, "fusion_lat": 0.0}, {"lat": 38.8966165, "lon": -77.05026866666667, "is_disabled": 0, "fusion_lon": 0.0, "is_reserved": 0, "name": "63d7a526e24a78bbc910763dca437a66", "type": "electric_scooter", "bike_id": "63d7a526e24a78bbc910763dca437a66", "rental_uris": {"ios": "https://dc.lft.to/lastmile_qr_scan", "android": "https://dc.lft.to/lastmile_qr_scan"}, "fusion_lat": 0.0}, {"lat": 38.876587, "lon": -76.99459633333333, "is_disabled": 0, "fusion_lon": 0.0, "is_reserved": 0, "name": "09add396f4ab2bcecdc2d0d3f7dcc607", "type": "electric_scooter", "bike_id": "09add396f4ab2bcecdc2d0d3f7dcc607", "rental_uris": {"ios": "https://dc.lft.to/lastmile_qr_scan", "android": "https://dc.lft.to/lastmile_qr_scan"}, "fusion_lat": 0.0}, {"lat": 38.916048333333336, "lon": -77.01148816666667, "is_disabled": 0, "fusion_lon": 0.0, "is_reserved": 0, "name": "f9ab8b16226d56613a1399251b0f69a8", "type": "electric_scooter", "bike_id": "f9ab8b16226d56613a1399251b0f69a8", "rental_uris": {"ios": "https://dc.lft.to/lastmile_qr_scan", "android": "https://dc.lft.to/lastmile_qr_scan"}, "fusion_lat": 0.0}, {"lat": 38.90423633333333, "lon": -77.02776766666666, "is_disabled": 0, "fusion_lon": 0.0, "is_reserved": 0, "name": "5d7ed90115000065f82ca1741f56bca7", "type": "electric_scooter", "bike_id": "5d7ed90115000065f82ca1741f56bca7", "rental_uris": {"ios": "https://dc.lft.to/lastmile_qr_scan", "android": "https://dc.lft.to/lastmile_qr_scan"}, "fusion_lat": 0.0}, {"lat": 38.895617333333334, "lon": -77.127396, "is_disabled": 0, "fusion_lon": 0.0, "is_reserved": 0, "name": "4da0d51a187719336c5d15ebf2d31ea1", "type": "electric_bike", "bike_id": "4da0d51a187719336c5d15ebf2d31ea1", "rental_uris": {"ios": "https://dc.lft.to/lastmile_qr_scan", "android": "https://dc.lft.to/lastmile_qr_scan"}, "fusion_lat": 0.0}, {"lat": 38.90069583333333, "lon": -77.02620133333333, "is_disabled": 0, "fusion_lon": 0.0, "is_reserved": 0, "name": "fb791fe61f49b6d12b0509bc065289a4", "type": "electric_bike", "bike_id": "fb791fe61f49b6d12b0509bc065289a4", "rental_uris": {"ios": "https://dc.lft.to/lastmile_qr_scan", "android": "https://dc.lft.to/lastmile_qr_scan"}, "fusion_lat": 0.0}, {"lat": 38.899573333333336, "lon": -77.02026283333333, "is_disabled": 0, "fusion_lon": 0.0, "is_reserved": 0, "name": "a386b59577dd901579783f5589a61718", "type": "electric_scooter", "bike_id": "a386b59577dd901579783f5589a61718", "rental_uris": {"ios": "https://dc.lft.to/lastmile_qr_scan", "android": "https://dc.lft.to/lastmile_qr_scan"}, "fusion_lat": 0.0}, {"lat": 38.873724833333334, "lon": -77.001703, "is_disabled": 0, "fusion_lon": 0.0, "is_reserved": 0, "name": "65f479220d840327d42b539be9ba7868", "type": "electric_scooter", "bike_id": "65f479220d840327d42b539be9ba7868", "rental_uris": {"ios": "https://dc.lft.to/lastmile_qr_scan", "android": "https://dc.lft.to/lastmile_qr_scan"}, "fusion_lat": 0.0}, {"lat": 38.912518, "lon": -77.03064216666667, "is_disabled": 0, "fusion_lon": 0.0, "is_reserved": 0, "name": "d4675ada66aa89ade4c574ef77f9357c", "type": "electric_scooter", "bike_id": "d4675ada66aa89ade4c574ef77f9357c", "rental_uris": {"ios": "https://dc.lft.to/lastmile_qr_scan", "android": "https://dc.lft.to/lastmile_qr_scan"}, "fusion_lat": 0.0}, {"lat": 38.909416, "lon": -77.022892, "is_disabled": 0, "fusion_lon": 0.0, "is_reserved": 0, "name": "0b907f691186dc822709dcbd2de974ea", "type": "electric_scooter", "bike_id": "0b907f691186dc822709dcbd2de974ea", "rental_uris": {"ios": "https://dc.lft.to/lastmile_qr_scan", "android": "https://dc.lft.to/lastmile_qr_scan"}, "fusion_lat": 0.0}, {"lat": 38.921470166666666, "lon": -77.02103616666666, "is_disabled": 0, "fusion_lon": 0.0, "is_reserved": 0, "name": "af627d017d4c158d0ac95e80f5de9dcc", "type": "electric_scooter", "bike_id": "af627d017d4c158d0ac95e80f5de9dcc", "rental_uris": {"ios": "https://dc.lft.to/lastmile_qr_scan", "android": "https://dc.lft.to/lastmile_qr_scan"}, "fusion_lat": 0.0}, {"lat": 38.93422783333333, "lon": -77.0400165, "is_disabled": 0, "fusion_lon": 0.0, "is_reserved": 0, "name": "da6af8003773523b1d229d95bb0da494", "type": "electric_scooter", "bike_id": "da6af8003773523b1d229d95bb0da494", "rental_uris": {"ios": "https://dc.lft.to/lastmile_qr_scan", "android": "https://dc.lft.to/lastmile_qr_scan"}, "fusion_lat": 0.0}, {"lat": 39.014157166666664, "lon": -77.04502966666666, "is_disabled": 0, "fusion_lon": 0.0, "is_reserved": 0, "name": "b2275939ec3d466ba7a928120f335fbd", "type": "electric_bike", "bike_id": "b2275939ec3d466ba7a928120f335fbd", "rental_uris": {"ios": "https://dc.lft.to/lastmile_qr_scan", "android": "https://dc.lft.to/lastmile_qr_scan"}, "fusion_lat": 0.0}, {"lat": 38.906583499999996, "lon": -77.03920683333334, "is_disabled": 0, "fusion_lon": 0.0, "is_reserved": 0, "name": "8c9921a9fe2ecd9e01ac83ec39b37940", "type": "electric_scooter", "bike_id": "8c9921a9fe2ecd9e01ac83ec39b37940", "rental_uris": {"ios": "https://dc.lft.to/lastmile_qr_scan", "android": "https://dc.lft.to/lastmile_qr_scan"}, "fusion_lat": 0.0}, {"lat": 38.885710333333336, "lon": -77.00584616666667, "is_disabled": 0, "fusion_lon": 0.0, "is_reserved": 0, "name": "b664716a56b9abe6201d9c21b63dfb41", "type": "electric_scooter", "bike_id": "b664716a56b9abe6201d9c21b63dfb41", "rental_uris": {"ios": "https://dc.lft.to/lastmile_qr_scan", "android": "https://dc.lft.to/lastmile_qr_scan"}, "fusion_lat": 0.0}, {"lat": 38.98984566666667, "lon": -77.09625166666666, "is_disabled": 0, "fusion_lon": 0.0, "is_reserved": 0, "name": "1ba7ccdfde68b1b87b1c2b7aba3971fe", "type": "electric_bike", "bike_id": "1ba7ccdfde68b1b87b1c2b7aba3971fe", "rental_uris": {"ios": "https://dc.lft.to/lastmile_qr_scan", "android": "https://dc.lft.to/lastmile_qr_scan"}, "fusion_lat": 0.0}, {"lat": 38.90503733333333, "lon": -77.06025966666667, "is_disabled": 0, "fusion_lon": 0.0, "is_reserved": 0, "name": "a060238fc3543c57a5f96a1477e75cc7", "type": "electric_scooter", "bike_id": "a060238fc3543c57a5f96a1477e75cc7", "rental_uris": {"ios": "https://dc.lft.to/lastmile_qr_scan", "android": "https://dc.lft.to/lastmile_qr_scan"}, "fusion_lat": 0.0}, {"lat": 38.8754425, "lon": -77.00537183333333, "is_disabled": 0, "fusion_lon": 0.0, "is_reserved": 0, "name": "66a5e48af1b95aaa20e7e6ac265131da", "type": "electric_scooter", "bike_id": "66a5e48af1b95aaa20e7e6ac265131da", "rental_uris": {"ios": "https://dc.lft.to/lastmile_qr_scan", "android": "https://dc.lft.to/lastmile_qr_scan"}, "fusion_lat": 0.0}, {"lat": 38.86392283333333, "lon": -77.2011085, "is_disabled": 0, "fusion_lon": 0.0, "is_reserved": 0, "name": "7ea5a5e648db406757da21b54eb64140", "type": "electric_bike", "bike_id": "7ea5a5e648db406757da21b54eb64140", "rental_uris": {"ios": "https://dc.lft.to/lastmile_qr_scan", "android": "https://dc.lft.to/lastmile_qr_scan"}, "fusion_lat": 0.0}, {"lat": 38.8982315, "lon": -76.9465345, "is_disabled": 0, "fusion_lon": 0.0, "is_reserved": 0, "name": "4a54907af0b21ed6d07a6029b5554b6b", "type": "electric_scooter", "bike_id": "4a54907af0b21ed6d07a6029b5554b6b", "rental_uris": {"ios": "https://dc.lft.to/lastmile_qr_scan", "android": "https://dc.lft.to/lastmile_qr_scan"}, "fusion_lat": 0.0}, {"lat": 38.90729366666667, "lon": -77.0571545, "is_disabled": 0, "fusion_lon": 0.0, "is_reserved": 0, "name": "08f7bc68a9ac349425f333ff976e41fb", "type": "electric_scooter", "bike_id": "08f7bc68a9ac349425f333ff976e41fb", "rental_uris": {"ios": "https://dc.lft.to/lastmile_qr_scan", "android": "https://dc.lft.to/lastmile_qr_scan"}, "fusion_lat": 0.0}, {"lat": 38.893561, "lon": -77.00340066666666, "is_disabled": 0, "fusion_lon": 0.0, "is_reserved": 0, "name": "b17724e1fa3b3fbbc5c469e7a51e3b7f", "type": "electric_scooter", "bike_id": "b17724e1fa3b3fbbc5c469e7a51e3b7f", "rental_uris": {"ios": "https://dc.lft.to/lastmile_qr_scan", "android": "https://dc.lft.to/lastmile_qr_scan"}, "fusion_lat": 0.0}, {"lat": 38.918010333333335, "lon": -77.024891, "is_disabled": 0, "fusion_lon": 0.0, "is_reserved": 0, "name": "e5c01210b3f38836a32f1adfcfc98459", "type": "electric_scooter", "bike_id": "e5c01210b3f38836a32f1adfcfc98459", "rental_uris": {"ios": "https://dc.lft.to/lastmile_qr_scan", "android": "https://dc.lft.to/lastmile_qr_scan"}, "fusion_lat": 0.0}, {"lat": 38.905085666666665, "lon": -77.04838433333333, "is_disabled": 0, "fusion_lon": 0.0, "is_reserved": 0, "name": "730b733d6f54a9777f348a8902511fd0", "type": "electric_scooter", "bike_id": "730b733d6f54a9777f348a8902511fd0", "rental_uris": {"ios": "https://dc.lft.to/lastmile_qr_scan", "android": "https://dc.lft.to/lastmile_qr_scan"}, "fusion_lat": 0.0}, {"lat": 38.901755333333334, "lon": -77.05097116666667, "is_disabled": 0, "fusion_lon": 0.0, "is_reserved": 0, "name": "9b1f789bb99d7f60487425fce0b37d9c", "type": "electric_scooter", "bike_id": "9b1f789bb99d7f60487425fce0b37d9c", "rental_uris": {"ios": "https://dc.lft.to/lastmile_qr_scan", "android": "https://dc.lft.to/lastmile_qr_scan"}, "fusion_lat": 0.0}, {"lat": 38.8874, "lon": -77.02129366666666, "is_disabled": 0, "fusion_lon": 0.0, "is_reserved": 0, "name": "537ce86f7e4f5fd407319a448022d486", "type": "electric_scooter", "bike_id": "537ce86f7e4f5fd407319a448022d486", "rental_uris": {"ios": "https://dc.lft.to/lastmile_qr_scan", "android": "https://dc.lft.to/lastmile_qr_scan"}, "fusion_lat": 0.0}, {"lat": 38.8419245, "lon": -77.067578, "is_disabled": 0, "fusion_lon": 0.0, "is_reserved": 0, "name": "8283c0413b398f6200e8b2ffbbc5002d", "type": "electric_bike", "bike_id": "8283c0413b398f6200e8b2ffbbc5002d", "rental_uris": {"ios": "https://dc.lft.to/lastmile_qr_scan", "android": "https://dc.lft.to/lastmile_qr_scan"}, "fusion_lat": 0.0}, {"lat": 38.92396733333333, "lon": -76.99747733333334, "is_disabled": 0, "fusion_lon": 0.0, "is_reserved": 0, "name": "2e8a635ce359d5fbe1ac6e217702b79c", "type": "electric_scooter", "bike_id": "2e8a635ce359d5fbe1ac6e217702b79c", "rental_uris": {"ios": "https://dc.lft.to/lastmile_qr_scan", "android": "https://dc.lft.to/lastmile_qr_scan"}, "fusion_lat": 0.0}, {"lat": 38.909697333333334, "lon": -77.05190633333333, "is_disabled": 0, "fusion_lon": 0.0, "is_reserved": 0, "name": "018c2fc0868bdfa2a7e427732c1a64c4", "type": "electric_scooter", "bike_id": "018c2fc0868bdfa2a7e427732c1a64c4", "rental_uris": {"ios": "https://dc.lft.to/lastmile_qr_scan", "android": "https://dc.lft.to/lastmile_qr_scan"}, "fusion_lat": 0.0}, {"lat": 38.973501666666664, "lon": -77.02787883333333, "is_disabled": 0, "fusion_lon": 0.0, "is_reserved": 0, "name": "10c379510e2b2d4d981ca2c4fa0ff478", "type": "electric_scooter", "bike_id": "10c379510e2b2d4d981ca2c4fa0ff478", "rental_uris": {"ios": "https://dc.lft.to/lastmile_qr_scan", "android": "https://dc.lft.to/lastmile_qr_scan"}, "fusion_lat": 0.0}, {"lat": 38.897307166666664, "lon": -77.0460545, "is_disabled": 0, "fusion_lon": 0.0, "is_reserved": 0, "name": "6acb4ed4b97f16f0d3800b531cc94d7f", "type": "electric_scooter", "bike_id": "6acb4ed4b97f16f0d3800b531cc94d7f", "rental_uris": {"ios": "https://dc.lft.to/lastmile_qr_scan", "android": "https://dc.lft.to/lastmile_qr_scan"}, "fusion_lat": 0.0}, {"lat": 38.91965966666667, "lon": -77.0386015, "is_disabled": 0, "fusion_lon": 0.0, "is_reserved": 0, "name": "9d474193272d53704b3b468bb6cfe6bc", "type": "electric_scooter", "bike_id": "9d474193272d53704b3b468bb6cfe6bc", "rental_uris": {"ios": "https://dc.lft.to/lastmile_qr_scan", "android": "https://dc.lft.to/lastmile_qr_scan"}, "fusion_lat": 0.0}, {"lat": 38.94253583333333, "lon": -77.03630116666666, "is_disabled": 0, "fusion_lon": 0.0, "is_reserved": 0, "name": "b3735c5816f84f1bd70ddcc6c20fddb3", "type": "electric_scooter", "bike_id": "b3735c5816f84f1bd70ddcc6c20fddb3", "rental_uris": {"ios": "https://dc.lft.to/lastmile_qr_scan", "android": "https://dc.lft.to/lastmile_qr_scan"}, "fusion_lat": 0.0}, {"lat": 38.89366066666667, "lon": -77.02610233333333, "is_disabled": 0, "fusion_lon": 0.0, "is_reserved": 0, "name": "3494eea4878fe600d3a2d3dadd59e651", "type": "electric_scooter", "bike_id": "3494eea4878fe600d3a2d3dadd59e651", "rental_uris": {"ios": "https://dc.lft.to/lastmile_qr_scan", "android": "https://dc.lft.to/lastmile_qr_scan"}, "fusion_lat": 0.0}, {"lat": 38.882528, "lon": -77.00555266666667, "is_disabled": 0, "fusion_lon": 0.0, "is_reserved": 0, "name": "abfb248bbfc8afebfc97de081665dec9", "type": "electric_scooter", "bike_id": "abfb248bbfc8afebfc97de081665dec9", "rental_uris": {"ios": "https://dc.lft.to/lastmile_qr_scan", "android": "https://dc.lft.to/lastmile_qr_scan"}, "fusion_lat": 0.0}, {"lat": 38.87370966666667, "lon": -77.00087066666667, "is_disabled": 0, "fusion_lon": 0.0, "is_reserved": 0, "name": "a434bf681297f4cc3689ffdf56988bbe", "type": "electric_scooter", "bike_id": "a434bf681297f4cc3689ffdf56988bbe", "rental_uris": {"ios": "https://dc.lft.to/lastmile_qr_scan", "android": "https://dc.lft.to/lastmile_qr_scan"}, "fusion_lat": 0.0}, {"lat": 38.894944833333334, "lon": -77.00355916666666, "is_disabled": 0, "fusion_lon": 0.0, "is_reserved": 0, "name": "2df63770fc80624e99151b991f2fc87a", "type": "electric_scooter", "bike_id": "2df63770fc80624e99151b991f2fc87a", "rental_uris": {"ios": "https://dc.lft.to/lastmile_qr_scan", "android": "https://dc.lft.to/lastmile_qr_scan"}, "fusion_lat": 0.0}, {"lat": 38.869663833333334, "lon": -76.978505, "is_disabled": 0, "fusion_lon": 0.0, "is_reserved": 0, "name": "c8208c89ee5a719d0991d009c942a12e", "type": "electric_scooter", "bike_id": "c8208c89ee5a719d0991d009c942a12e", "rental_uris": {"ios": "https://dc.lft.to/lastmile_qr_scan", "android": "https://dc.lft.to/lastmile_qr_scan"}, "fusion_lat": 0.0}, {"lat": 38.8987725, "lon": -77.0500505, "is_disabled": 0, "fusion_lon": 0.0, "is_reserved": 0, "name": "61cfb24b575ab4f9f819cd3a7ebb4060", "type": "electric_scooter", "bike_id": "61cfb24b575ab4f9f819cd3a7ebb4060", "rental_uris": {"ios": "https://dc.lft.to/lastmile_qr_scan", "android": "https://dc.lft.to/lastmile_qr_scan"}, "fusion_lat": 0.0}, {"lat": 38.908089, "lon": -77.03433783333334, "is_disabled": 0, "fusion_lon": 0.0, "is_reserved": 0, "name": "69258265b26493b2b570d8af403b7dc8", "type": "electric_scooter", "bike_id": "69258265b26493b2b570d8af403b7dc8", "rental_uris": {"ios": "https://dc.lft.to/lastmile_qr_scan", "android": "https://dc.lft.to/lastmile_qr_scan"}, "fusion_lat": 0.0}, {"lat": 38.872666833333334, "lon": -77.01362466666667, "is_disabled": 0, "fusion_lon": 0.0, "is_reserved": 0, "name": "4d3a4c6005d6c9c1c76cd458a5c604e3", "type": "electric_scooter", "bike_id": "4d3a4c6005d6c9c1c76cd458a5c604e3", "rental_uris": {"ios": "https://dc.lft.to/lastmile_qr_scan", "android": "https://dc.lft.to/lastmile_qr_scan"}, "fusion_lat": 0.0}, {"lat": 38.87559783333333, "lon": -77.00558816666667, "is_disabled": 0, "fusion_lon": 0.0, "is_reserved": 0, "name": "8713de10008e4d7844a2427ac8707de2", "type": "electric_scooter", "bike_id": "8713de10008e4d7844a2427ac8707de2", "rental_uris": {"ios": "https://dc.lft.to/lastmile_qr_scan", "android": "https://dc.lft.to/lastmile_qr_scan"}, "fusion_lat": 0.0}, {"lat": 38.918455, "lon": -77.02467716666666, "is_disabled": 0, "fusion_lon": 0.0, "is_reserved": 0, "name": "527e219343aadc4df9f0363b0a247d39", "type": "electric_scooter", "bike_id": "527e219343aadc4df9f0363b0a247d39", "rental_uris": {"ios": "https://dc.lft.to/lastmile_qr_scan", "android": "https://dc.lft.to/lastmile_qr_scan"}, "fusion_lat": 0.0}, {"lat": 38.950398, "lon": -77.02703633333333, "is_disabled": 0, "fusion_lon": 0.0, "is_reserved": 0, "name": "0ba42620d7ffa9d5150b88909acf2f3f", "type": "electric_scooter", "bike_id": "0ba42620d7ffa9d5150b88909acf2f3f", "rental_uris": {"ios": "https://dc.lft.to/lastmile_qr_scan", "android": "https://dc.lft.to/lastmile_qr_scan"}, "fusion_lat": 0.0}, {"lat": 38.89815016666667, "lon": -77.0466475, "is_disabled": 0, "fusion_lon": 0.0, "is_reserved": 0, "name": "2ef0dfad0b4fdb571fb81db8fe036438", "type": "electric_bike", "bike_id": "2ef0dfad0b4fdb571fb81db8fe036438", "rental_uris": {"ios": "https://dc.lft.to/lastmile_qr_scan", "android": "https://dc.lft.to/lastmile_qr_scan"}, "fusion_lat": 0.0}, {"lat": 38.90951866666666, "lon": -77.02685183333334, "is_disabled": 0, "fusion_lon": 0.0, "is_reserved": 0, "name": "e32ffca8fe9c4f776e519f3ad894f3a1", "type": "electric_scooter", "bike_id": "e32ffca8fe9c4f776e519f3ad894f3a1", "rental_uris": {"ios": "https://dc.lft.to/lastmile_qr_scan", "android": "https://dc.lft.to/lastmile_qr_scan"}, "fusion_lat": 0.0}, {"lat": 38.902731333333335, "lon": -77.04230816666667, "is_disabled": 0, "fusion_lon": 0.0, "is_reserved": 0, "name": "1395db0cb3c2b535dc14f9140d36af38", "type": "electric_scooter", "bike_id": "1395db0cb3c2b535dc14f9140d36af38", "rental_uris": {"ios": "https://dc.lft.to/lastmile_qr_scan", "android": "https://dc.lft.to/lastmile_qr_scan"}, "fusion_lat": 0.0}, {"lat": 38.89222483333333, "lon": -77.045038, "is_disabled": 0, "fusion_lon": 0.0, "is_reserved": 0, "name": "40af58427efe49a31bc174d874f55cd4", "type": "electric_scooter", "bike_id": "40af58427efe49a31bc174d874f55cd4", "rental_uris": {"ios": "https://dc.lft.to/lastmile_qr_scan", "android": "https://dc.lft.to/lastmile_qr_scan"}, "fusion_lat": 0.0}, {"lat": 38.9287125, "lon": -77.01359666666667, "is_disabled": 0, "fusion_lon": 0.0, "is_reserved": 0, "name": "7484b592870ffa6491c480b8b8f785f0", "type": "electric_scooter", "bike_id": "7484b592870ffa6491c480b8b8f785f0", "rental_uris": {"ios": "https://dc.lft.to/lastmile_qr_scan", "android": "https://dc.lft.to/lastmile_qr_scan"}, "fusion_lat": 0.0}, {"lat": 38.911078, "lon": -77.0454065, "is_disabled": 0, "fusion_lon": 0.0, "is_reserved": 0, "name": "e1e8e6b62cde5298acdc232b9417f74c", "type": "electric_scooter", "bike_id": "e1e8e6b62cde5298acdc232b9417f74c", "rental_uris": {"ios": "https://dc.lft.to/lastmile_qr_scan", "android": "https://dc.lft.to/lastmile_qr_scan"}, "fusion_lat": 0.0}, {"lat": 38.90406683333333, "lon": -76.97333166666667, "is_disabled": 0, "fusion_lon": 0.0, "is_reserved": 0, "name": "6f1f347cb5627d9f271b0c62d743e5b8", "type": "electric_scooter", "bike_id": "6f1f347cb5627d9f271b0c62d743e5b8", "rental_uris": {"ios": "https://dc.lft.to/lastmile_qr_scan", "android": "https://dc.lft.to/lastmile_qr_scan"}, "fusion_lat": 0.0}, {"lat": 38.92506183333333, "lon": -77.03877583333333, "is_disabled": 0, "fusion_lon": 0.0, "is_reserved": 0, "name": "4838f99c33e1830bf468bb2650a63046", "type": "electric_scooter", "bike_id": "4838f99c33e1830bf468bb2650a63046", "rental_uris": {"ios": "https://dc.lft.to/lastmile_qr_scan", "android": "https://dc.lft.to/lastmile_qr_scan"}, "fusion_lat": 0.0}, {"lat": 38.906869666666665, "lon": -77.03597883333333, "is_disabled": 0, "fusion_lon": 0.0, "is_reserved": 0, "name": "b684b432c29760522cf0073d646af0f4", "type": "electric_scooter", "bike_id": "b684b432c29760522cf0073d646af0f4", "rental_uris": {"ios": "https://dc.lft.to/lastmile_qr_scan", "android": "https://dc.lft.to/lastmile_qr_scan"}, "fusion_lat": 0.0}, {"lat": 38.916077333333334, "lon": -77.03390433333334, "is_disabled": 0, "fusion_lon": 0.0, "is_reserved": 0, "name": "f76e764a80b6caa2bc2a9cae9b5cb9aa", "type": "electric_scooter", "bike_id": "f76e764a80b6caa2bc2a9cae9b5cb9aa", "rental_uris": {"ios": "https://dc.lft.to/lastmile_qr_scan", "android": "https://dc.lft.to/lastmile_qr_scan"}, "fusion_lat": 0.0}, {"lat": 38.90984183333333, "lon": -77.031937, "is_disabled": 0, "fusion_lon": 0.0, "is_reserved": 0, "name": "f28fb3528aa0f501d686c4e2736210fa", "type": "electric_scooter", "bike_id": "f28fb3528aa0f501d686c4e2736210fa", "rental_uris": {"ios": "https://dc.lft.to/lastmile_qr_scan", "android": "https://dc.lft.to/lastmile_qr_scan"}, "fusion_lat": 0.0}, {"lat": 38.9277435, "lon": -77.02284633333333, "is_disabled": 0, "fusion_lon": 0.0, "is_reserved": 0, "name": "5a65b970d02991ed40d52b9007c844ef", "type": "electric_scooter", "bike_id": "5a65b970d02991ed40d52b9007c844ef", "rental_uris": {"ios": "https://dc.lft.to/lastmile_qr_scan", "android": "https://dc.lft.to/lastmile_qr_scan"}, "fusion_lat": 0.0}, {"lat": 38.923255833333336, "lon": -77.019508, "is_disabled": 0, "fusion_lon": 0.0, "is_reserved": 0, "name": "d8e125e20e4a89bc03af210a6f2d6c36", "type": "electric_scooter", "bike_id": "d8e125e20e4a89bc03af210a6f2d6c36", "rental_uris": {"ios": "https://dc.lft.to/lastmile_qr_scan", "android": "https://dc.lft.to/lastmile_qr_scan"}, "fusion_lat": 0.0}, {"lat": 38.92480416666667, "lon": -77.05226466666667, "is_disabled": 0, "fusion_lon": 0.0, "is_reserved": 0, "name": "8094577dd8f2902be1f7cd9035847579", "type": "electric_scooter", "bike_id": "8094577dd8f2902be1f7cd9035847579", "rental_uris": {"ios": "https://dc.lft.to/lastmile_qr_scan", "android": "https://dc.lft.to/lastmile_qr_scan"}, "fusion_lat": 0.0}, {"lat": 38.894718, "lon": -77.003104, "is_disabled": 0, "fusion_lon": 0.0, "is_reserved": 0, "name": "d379ed72b23c5e8ea6693d52d14b9784", "type": "electric_scooter", "bike_id": "d379ed72b23c5e8ea6693d52d14b9784", "rental_uris": {"ios": "https://dc.lft.to/lastmile_qr_scan", "android": "https://dc.lft.to/lastmile_qr_scan"}, "fusion_lat": 0.0}, {"lat": 38.90867083333333, "lon": -77.044844, "is_disabled": 0, "fusion_lon": 0.0, "is_reserved": 0, "name": "f218c204410524bfffb7f20cb5607aee", "type": "electric_scooter", "bike_id": "f218c204410524bfffb7f20cb5607aee", "rental_uris": {"ios": "https://dc.lft.to/lastmile_qr_scan", "android": "https://dc.lft.to/lastmile_qr_scan"}, "fusion_lat": 0.0}, {"lat": 38.900286333333334, "lon": -77.01189216666667, "is_disabled": 0, "fusion_lon": 0.0, "is_reserved": 0, "name": "885c0a38b16bd0ed0946d9c3e5180d2c", "type": "electric_scooter", "bike_id": "885c0a38b16bd0ed0946d9c3e5180d2c", "rental_uris": {"ios": "https://dc.lft.to/lastmile_qr_scan", "android": "https://dc.lft.to/lastmile_qr_scan"}, "fusion_lat": 0.0}, {"lat": 38.93360066666666, "lon": -77.05729866666667, "is_disabled": 0, "fusion_lon": 0.0, "is_reserved": 0, "name": "1eec62ce8bae786b6377a874c27ff94c", "type": "electric_scooter", "bike_id": "1eec62ce8bae786b6377a874c27ff94c", "rental_uris": {"ios": "https://dc.lft.to/lastmile_qr_scan", "android": "https://dc.lft.to/lastmile_qr_scan"}, "fusion_lat": 0.0}, {"lat": 38.89183966666667, "lon": -77.00334433333333, "is_disabled": 0, "fusion_lon": 0.0, "is_reserved": 0, "name": "3bb6d698229226fcc07e28abfb419c13", "type": "electric_scooter", "bike_id": "3bb6d698229226fcc07e28abfb419c13", "rental_uris": {"ios": "https://dc.lft.to/lastmile_qr_scan", "android": "https://dc.lft.to/lastmile_qr_scan"}, "fusion_lat": 0.0}, {"lat": 38.902817166666665, "lon": -77.04081933333333, "is_disabled": 0, "fusion_lon": 0.0, "is_reserved": 0, "name": "42b6ad87eb52d88f19bf1fa4a66fd7f5", "type": "electric_scooter", "bike_id": "42b6ad87eb52d88f19bf1fa4a66fd7f5", "rental_uris": {"ios": "https://dc.lft.to/lastmile_qr_scan", "android": "https://dc.lft.to/lastmile_qr_scan"}, "fusion_lat": 0.0}, {"lat": 38.91660683333333, "lon": -77.02474783333334, "is_disabled": 0, "fusion_lon": 0.0, "is_reserved": 0, "name": "8c34ceb4ba680e5e99b1aaadb01b1990", "type": "electric_scooter", "bike_id": "8c34ceb4ba680e5e99b1aaadb01b1990", "rental_uris": {"ios": "https://dc.lft.to/lastmile_qr_scan", "android": "https://dc.lft.to/lastmile_qr_scan"}, "fusion_lat": 0.0}, {"lat": 38.8747905, "lon": -77.006016, "is_disabled": 0, "fusion_lon": 0.0, "is_reserved": 0, "name": "5322d9c75809aa91025f7b570a5fd17e", "type": "electric_scooter", "bike_id": "5322d9c75809aa91025f7b570a5fd17e", "rental_uris": {"ios": "https://dc.lft.to/lastmile_qr_scan", "android": "https://dc.lft.to/lastmile_qr_scan"}, "fusion_lat": 0.0}, {"lat": 38.87653683333333, "lon": -77.00311166666667, "is_disabled": 0, "fusion_lon": 0.0, "is_reserved": 0, "name": "9f7e2263b3e9c4d6b3eb481b1a21a126", "type": "electric_scooter", "bike_id": "9f7e2263b3e9c4d6b3eb481b1a21a126", "rental_uris": {"ios": "https://dc.lft.to/lastmile_qr_scan", "android": "https://dc.lft.to/lastmile_qr_scan"}, "fusion_lat": 0.0}, {"lat": 38.80976366666667, "lon": -77.07662583333334, "is_disabled": 0, "fusion_lon": 0.0, "is_reserved": 0, "name": "3d987a148dbd4790704617a8ae22470e", "type": "electric_bike", "bike_id": "3d987a148dbd4790704617a8ae22470e", "rental_uris": {"ios": "https://dc.lft.to/lastmile_qr_scan", "android": "https://dc.lft.to/lastmile_qr_scan"}, "fusion_lat": 0.0}, {"lat": 38.895779, "lon": -76.9831515, "is_disabled": 0, "fusion_lon": 0.0, "is_reserved": 0, "name": "9af395be4fb275aa9a6a7f812ff50da3", "type": "electric_scooter", "bike_id": "9af395be4fb275aa9a6a7f812ff50da3", "rental_uris": {"ios": "https://dc.lft.to/lastmile_qr_scan", "android": "https://dc.lft.to/lastmile_qr_scan"}, "fusion_lat": 0.0}, {"lat": 38.906714, "lon": -77.0270935, "is_disabled": 0, "fusion_lon": 0.0, "is_reserved": 0, "name": "918a352e3c39ec7018b4a1fd9bc33d66", "type": "electric_scooter", "bike_id": "918a352e3c39ec7018b4a1fd9bc33d66", "rental_uris": {"ios": "https://dc.lft.to/lastmile_qr_scan", "android": "https://dc.lft.to/lastmile_qr_scan"}, "fusion_lat": 0.0}, {"lat": 38.92489483333333, "lon": -77.02138033333334, "is_disabled": 0, "fusion_lon": 0.0, "is_reserved": 0, "name": "395482e6b22c789c9008ca127521fb26", "type": "electric_scooter", "bike_id": "395482e6b22c789c9008ca127521fb26", "rental_uris": {"ios": "https://dc.lft.to/lastmile_qr_scan", "android": "https://dc.lft.to/lastmile_qr_scan"}, "fusion_lat": 0.0}, {"lat": 38.89227833333333, "lon": -77.02203683333333, "is_disabled": 0, "fusion_lon": 0.0, "is_reserved": 0, "name": "427d839a2baa8b76904b56a708abb099", "type": "electric_scooter", "bike_id": "427d839a2baa8b76904b56a708abb099", "rental_uris": {"ios": "https://dc.lft.to/lastmile_qr_scan", "android": "https://dc.lft.to/lastmile_qr_scan"}, "fusion_lat": 0.0}, {"lat": 38.949651833333334, "lon": -77.06660316666667, "is_disabled": 0, "fusion_lon": 0.0, "is_reserved": 0, "name": "5afe4157cca5b80197d401da8ad0307d", "type": "electric_scooter", "bike_id": "5afe4157cca5b80197d401da8ad0307d", "rental_uris": {"ios": "https://dc.lft.to/lastmile_qr_scan", "android": "https://dc.lft.to/lastmile_qr_scan"}, "fusion_lat": 0.0}, {"lat": 38.9154265, "lon": -77.02177916666666, "is_disabled": 0, "fusion_lon": 0.0, "is_reserved": 0, "name": "812290957e1ebde33ea39209f334dbef", "type": "electric_scooter", "bike_id": "812290957e1ebde33ea39209f334dbef", "rental_uris": {"ios": "https://dc.lft.to/lastmile_qr_scan", "android": "https://dc.lft.to/lastmile_qr_scan"}, "fusion_lat": 0.0}, {"lat": 38.90954816666667, "lon": -77.03568733333333, "is_disabled": 0, "fusion_lon": 0.0, "is_reserved": 0, "name": "78385ad8702dfb4462888d1e710ee700", "type": "electric_scooter", "bike_id": "78385ad8702dfb4462888d1e710ee700", "rental_uris": {"ios": "https://dc.lft.to/lastmile_qr_scan", "android": "https://dc.lft.to/lastmile_qr_scan"}, "fusion_lat": 0.0}, {"lat": 38.89267916666667, "lon": -77.0035805, "is_disabled": 0, "fusion_lon": 0.0, "is_reserved": 0, "name": "10f85cbf2267a52eada890372f918669", "type": "electric_scooter", "bike_id": "10f85cbf2267a52eada890372f918669", "rental_uris": {"ios": "https://dc.lft.to/lastmile_qr_scan", "android": "https://dc.lft.to/lastmile_qr_scan"}, "fusion_lat": 0.0}, {"lat": 38.892233, "lon": -77.04094283333333, "is_disabled": 0, "fusion_lon": 0.0, "is_reserved": 0, "name": "ec2c47291811e0607e366469895378c6", "type": "electric_scooter", "bike_id": "ec2c47291811e0607e366469895378c6", "rental_uris": {"ios": "https://dc.lft.to/lastmile_qr_scan", "android": "https://dc.lft.to/lastmile_qr_scan"}, "fusion_lat": 0.0}, {"lat": 38.96179083333333, "lon": -77.01434466666667, "is_disabled": 0, "fusion_lon": 0.0, "is_reserved": 0, "name": "65a9dbe8fccc1e36ec54017c62a5fe35", "type": "electric_scooter", "bike_id": "65a9dbe8fccc1e36ec54017c62a5fe35", "rental_uris": {"ios": "https://dc.lft.to/lastmile_qr_scan", "android": "https://dc.lft.to/lastmile_qr_scan"}, "fusion_lat": 0.0}, {"lat": 38.91597633333333, "lon": -76.993656, "is_disabled": 0, "fusion_lon": 0.0, "is_reserved": 0, "name": "458baef8f69925623b64d9a2fa6c13f6", "type": "electric_scooter", "bike_id": "458baef8f69925623b64d9a2fa6c13f6", "rental_uris": {"ios": "https://dc.lft.to/lastmile_qr_scan", "android": "https://dc.lft.to/lastmile_qr_scan"}, "fusion_lat": 0.0}, {"lat": 38.84753633333333, "lon": -76.99504283333333, "is_disabled": 0, "fusion_lon": 0.0, "is_reserved": 0, "name": "fd5ceb02ff820ff2839aabe2e07100da", "type": "electric_scooter", "bike_id": "fd5ceb02ff820ff2839aabe2e07100da", "rental_uris": {"ios": "https://dc.lft.to/lastmile_qr_scan", "android": "https://dc.lft.to/lastmile_qr_scan"}, "fusion_lat": 0.0}, {"lat": 38.948156166666664, "lon": -77.10007416666667, "is_disabled": 0, "fusion_lon": 0.0, "is_reserved": 0, "name": "d03b35a9fa456bdb6ea12b8d035f3fde", "type": "electric_bike", "bike_id": "d03b35a9fa456bdb6ea12b8d035f3fde", "rental_uris": {"ios": "https://dc.lft.to/lastmile_qr_scan", "android": "https://dc.lft.to/lastmile_qr_scan"}, "fusion_lat": 0.0}, {"lat": 38.90014516666667, "lon": -77.0376375, "is_disabled": 0, "fusion_lon": 0.0, "is_reserved": 0, "name": "9f4bc52b069306f35b1a701196376e6b", "type": "electric_scooter", "bike_id": "9f4bc52b069306f35b1a701196376e6b", "rental_uris": {"ios": "https://dc.lft.to/lastmile_qr_scan", "android": "https://dc.lft.to/lastmile_qr_scan"}, "fusion_lat": 0.0}, {"lat": 38.926543333333335, "lon": -77.043169, "is_disabled": 0, "fusion_lon": 0.0, "is_reserved": 0, "name": "7f883ddeacff065a6ccd29bc3d5c33c1", "type": "electric_scooter", "bike_id": "7f883ddeacff065a6ccd29bc3d5c33c1", "rental_uris": {"ios": "https://dc.lft.to/lastmile_qr_scan", "android": "https://dc.lft.to/lastmile_qr_scan"}, "fusion_lat": 0.0}, {"lat": 38.893324666666665, "lon": -77.03170966666667, "is_disabled": 0, "fusion_lon": 0.0, "is_reserved": 0, "name": "6ab56e8009ecfdbbd5e25622532f89ae", "type": "electric_scooter", "bike_id": "6ab56e8009ecfdbbd5e25622532f89ae", "rental_uris": {"ios": "https://dc.lft.to/lastmile_qr_scan", "android": "https://dc.lft.to/lastmile_qr_scan"}, "fusion_lat": 0.0}, {"lat": 38.85984766666667, "lon": -76.99654066666666, "is_disabled": 0, "fusion_lon": 0.0, "is_reserved": 0, "name": "890bfb44a54d242b1948bd8a5917168e", "type": "electric_scooter", "bike_id": "890bfb44a54d242b1948bd8a5917168e", "rental_uris": {"ios": "https://dc.lft.to/lastmile_qr_scan", "android": "https://dc.lft.to/lastmile_qr_scan"}, "fusion_lat": 0.0}, {"lat": 38.91658833333334, "lon": -77.030028, "is_disabled": 0, "fusion_lon": 0.0, "is_reserved": 0, "name": "52140abee068e9cdf6ac44e2f3069b4d", "type": "electric_scooter", "bike_id": "52140abee068e9cdf6ac44e2f3069b4d", "rental_uris": {"ios": "https://dc.lft.to/lastmile_qr_scan", "android": "https://dc.lft.to/lastmile_qr_scan"}, "fusion_lat": 0.0}, {"lat": 38.92282333333333, "lon": -77.03660733333334, "is_disabled": 0, "fusion_lon": 0.0, "is_reserved": 0, "name": "404b80c2b5fc7455049bdad4a1b6953b", "type": "electric_scooter", "bike_id": "404b80c2b5fc7455049bdad4a1b6953b", "rental_uris": {"ios": "https://dc.lft.to/lastmile_qr_scan", "android": "https://dc.lft.to/lastmile_qr_scan"}, "fusion_lat": 0.0}, {"lat": 38.9172555, "lon": -77.046058, "is_disabled": 0, "fusion_lon": 0.0, "is_reserved": 0, "name": "3293c2557ebaefd8ccc1a79b167f223a", "type": "electric_scooter", "bike_id": "3293c2557ebaefd8ccc1a79b167f223a", "rental_uris": {"ios": "https://dc.lft.to/lastmile_qr_scan", "android": "https://dc.lft.to/lastmile_qr_scan"}, "fusion_lat": 0.0}, {"lat": 38.9188105, "lon": -77.02184383333334, "is_disabled": 0, "fusion_lon": 0.0, "is_reserved": 0, "name": "3869041460e31fc0a7ce8772ac68dbef", "type": "electric_scooter", "bike_id": "3869041460e31fc0a7ce8772ac68dbef", "rental_uris": {"ios": "https://dc.lft.to/lastmile_qr_scan", "android": "https://dc.lft.to/lastmile_qr_scan"}, "fusion_lat": 0.0}, {"lat": 38.876626333333334, "lon": -77.00306933333333, "is_disabled": 0, "fusion_lon": 0.0, "is_reserved": 0, "name": "5e02a14e5223e33f42d926730df429a1", "type": "electric_scooter", "bike_id": "5e02a14e5223e33f42d926730df429a1", "rental_uris": {"ios": "https://dc.lft.to/lastmile_qr_scan", "android": "https://dc.lft.to/lastmile_qr_scan"}, "fusion_lat": 0.0}, {"lat": 38.924148833333334, "lon": -77.0506795, "is_disabled": 0, "fusion_lon": 0.0, "is_reserved": 0, "name": "bf3855cbffd89947bb50392b5d385e35", "type": "electric_scooter", "bike_id": "bf3855cbffd89947bb50392b5d385e35", "rental_uris": {"ios": "https://dc.lft.to/lastmile_qr_scan", "android": "https://dc.lft.to/lastmile_qr_scan"}, "fusion_lat": 0.0}, {"lat": 38.8972395, "lon": -77.05526716666667, "is_disabled": 0, "fusion_lon": 0.0, "is_reserved": 0, "name": "f746d842aadfc2d5dda4d0295285e0b1", "type": "electric_scooter", "bike_id": "f746d842aadfc2d5dda4d0295285e0b1", "rental_uris": {"ios": "https://dc.lft.to/lastmile_qr_scan", "android": "https://dc.lft.to/lastmile_qr_scan"}, "fusion_lat": 0.0}, {"lat": 38.90512566666666, "lon": -77.048264, "is_disabled": 0, "fusion_lon": 0.0, "is_reserved": 0, "name": "175121d3c5d294f1a4e830c7843befd2", "type": "electric_scooter", "bike_id": "175121d3c5d294f1a4e830c7843befd2", "rental_uris": {"ios": "https://dc.lft.to/lastmile_qr_scan", "android": "https://dc.lft.to/lastmile_qr_scan"}, "fusion_lat": 0.0}, {"lat": 38.9500715, "lon": -77.08048333333333, "is_disabled": 0, "fusion_lon": 0.0, "is_reserved": 0, "name": "f0dba9c2258a7c4f8d2b1d2d028f03cf", "type": "electric_scooter", "bike_id": "f0dba9c2258a7c4f8d2b1d2d028f03cf", "rental_uris": {"ios": "https://dc.lft.to/lastmile_qr_scan", "android": "https://dc.lft.to/lastmile_qr_scan"}, "fusion_lat": 0.0}, {"lat": 39.05249216666667, "lon": -77.08070133333334, "is_disabled": 0, "fusion_lon": 0.0, "is_reserved": 0, "name": "bb218049eb3ddc3fcb65ced793471142", "type": "electric_bike", "bike_id": "bb218049eb3ddc3fcb65ced793471142", "rental_uris": {"ios": "https://dc.lft.to/lastmile_qr_scan", "android": "https://dc.lft.to/lastmile_qr_scan"}, "fusion_lat": 0.0}, {"lat": 38.96439216666667, "lon": -77.03157983333334, "is_disabled": 0, "fusion_lon": 0.0, "is_reserved": 0, "name": "ae83e40fa6f6dab6370bcbebad3902d0", "type": "electric_bike", "bike_id": "ae83e40fa6f6dab6370bcbebad3902d0", "rental_uris": {"ios": "https://dc.lft.to/lastmile_qr_scan", "android": "https://dc.lft.to/lastmile_qr_scan"}, "fusion_lat": 0.0}, {"lat": 38.877101833333334, "lon": -77.01714633333333, "is_disabled": 0, "fusion_lon": 0.0, "is_reserved": 0, "name": "96fbb607496ac9a28d7471cea83dfad5", "type": "electric_scooter", "bike_id": "96fbb607496ac9a28d7471cea83dfad5", "rental_uris": {"ios": "https://dc.lft.to/lastmile_qr_scan", "android": "https://dc.lft.to/lastmile_qr_scan"}, "fusion_lat": 0.0}, {"lat": 38.847541666666665, "lon": -76.99498883333334, "is_disabled": 0, "fusion_lon": 0.0, "is_reserved": 0, "name": "2672e52475c9e683e4f579ff0d023423", "type": "electric_scooter", "bike_id": "2672e52475c9e683e4f579ff0d023423", "rental_uris": {"ios": "https://dc.lft.to/lastmile_qr_scan", "android": "https://dc.lft.to/lastmile_qr_scan"}, "fusion_lat": 0.0}, {"lat": 38.868923333333335, "lon": -76.98519733333333, "is_disabled": 0, "fusion_lon": 0.0, "is_reserved": 0, "name": "1830567093a32020e32667d3ec510c79", "type": "electric_bike", "bike_id": "1830567093a32020e32667d3ec510c79", "rental_uris": {"ios": "https://dc.lft.to/lastmile_qr_scan", "android": "https://dc.lft.to/lastmile_qr_scan"}, "fusion_lat": 0.0}, {"lat": 38.92343, "lon": -77.05176633333333, "is_disabled": 0, "fusion_lon": 0.0, "is_reserved": 0, "name": "7208c560f51e2551e641d34c9b8bbcfe", "type": "electric_scooter", "bike_id": "7208c560f51e2551e641d34c9b8bbcfe", "rental_uris": {"ios": "https://dc.lft.to/lastmile_qr_scan", "android": "https://dc.lft.to/lastmile_qr_scan"}, "fusion_lat": 0.0}, {"lat": 38.922186833333335, "lon": -77.02123666666667, "is_disabled": 0, "fusion_lon": 0.0, "is_reserved": 0, "name": "3d899772001b9bec9080b26b71c41e1b", "type": "electric_scooter", "bike_id": "3d899772001b9bec9080b26b71c41e1b", "rental_uris": {"ios": "https://dc.lft.to/lastmile_qr_scan", "android": "https://dc.lft.to/lastmile_qr_scan"}, "fusion_lat": 0.0}, {"lat": 38.889589, "lon": -76.93685733333334, "is_disabled": 0, "fusion_lon": 0.0, "is_reserved": 0, "name": "88aaa51c89a47890498b9406f46d057a", "type": "electric_scooter", "bike_id": "88aaa51c89a47890498b9406f46d057a", "rental_uris": {"ios": "https://dc.lft.to/lastmile_qr_scan", "android": "https://dc.lft.to/lastmile_qr_scan"}, "fusion_lat": 0.0}, {"lat": 38.90240383333333, "lon": -77.03769166666666, "is_disabled": 0, "fusion_lon": 0.0, "is_reserved": 0, "name": "3edc38869e1084b901a3b80f1db6b785", "type": "electric_scooter", "bike_id": "3edc38869e1084b901a3b80f1db6b785", "rental_uris": {"ios": "https://dc.lft.to/lastmile_qr_scan", "android": "https://dc.lft.to/lastmile_qr_scan"}, "fusion_lat": 0.0}, {"lat": 38.915695, "lon": -77.01909466666666, "is_disabled": 0, "fusion_lon": 0.0, "is_reserved": 0, "name": "fbf705e67b263a76c9318ef17876f2c5", "type": "electric_scooter", "bike_id": "fbf705e67b263a76c9318ef17876f2c5", "rental_uris": {"ios": "https://dc.lft.to/lastmile_qr_scan", "android": "https://dc.lft.to/lastmile_qr_scan"}, "fusion_lat": 0.0}, {"lat": 38.89976016666667, "lon": -76.98553166666667, "is_disabled": 0, "fusion_lon": 0.0, "is_reserved": 0, "name": "5e1ca888f5c016bc285651e3882126d9", "type": "electric_scooter", "bike_id": "5e1ca888f5c016bc285651e3882126d9", "rental_uris": {"ios": "https://dc.lft.to/lastmile_qr_scan", "android": "https://dc.lft.to/lastmile_qr_scan"}, "fusion_lat": 0.0}, {"lat": 38.9077735, "lon": -77.07166366666667, "is_disabled": 0, "fusion_lon": 0.0, "is_reserved": 0, "name": "8ac9e0c9324576e511c02b91689cd694", "type": "electric_scooter", "bike_id": "8ac9e0c9324576e511c02b91689cd694", "rental_uris": {"ios": "https://dc.lft.to/lastmile_qr_scan", "android": "https://dc.lft.to/lastmile_qr_scan"}, "fusion_lat": 0.0}, {"lat": 38.90436166666667, "lon": -76.99826216666666, "is_disabled": 0, "fusion_lon": 0.0, "is_reserved": 0, "name": "d066185c73dcf72ac6a29c08852d7020", "type": "electric_scooter", "bike_id": "d066185c73dcf72ac6a29c08852d7020", "rental_uris": {"ios": "https://dc.lft.to/lastmile_qr_scan", "android": "https://dc.lft.to/lastmile_qr_scan"}, "fusion_lat": 0.0}, {"lat": 38.896280833333336, "lon": -77.02403033333333, "is_disabled": 0, "fusion_lon": 0.0, "is_reserved": 0, "name": "772877c2b76234e40533537bdc00f4c6", "type": "electric_scooter", "bike_id": "772877c2b76234e40533537bdc00f4c6", "rental_uris": {"ios": "https://dc.lft.to/lastmile_qr_scan", "android": "https://dc.lft.to/lastmile_qr_scan"}, "fusion_lat": 0.0}, {"lat": 38.9033555, "lon": -77.0628705, "is_disabled": 0, "fusion_lon": 0.0, "is_reserved": 0, "name": "afc25db752dfc9fde7741e514c1839a1", "type": "electric_scooter", "bike_id": "afc25db752dfc9fde7741e514c1839a1", "rental_uris": {"ios": "https://dc.lft.to/lastmile_qr_scan", "android": "https://dc.lft.to/lastmile_qr_scan"}, "fusion_lat": 0.0}, {"lat": 38.905530166666665, "lon": -77.048776, "is_disabled": 0, "fusion_lon": 0.0, "is_reserved": 0, "name": "5d54dc8e05f8edab949f5495fde339db", "type": "electric_scooter", "bike_id": "5d54dc8e05f8edab949f5495fde339db", "rental_uris": {"ios": "https://dc.lft.to/lastmile_qr_scan", "android": "https://dc.lft.to/lastmile_qr_scan"}, "fusion_lat": 0.0}, {"lat": 38.8922055, "lon": -77.04369366666667, "is_disabled": 0, "fusion_lon": 0.0, "is_reserved": 0, "name": "195e9eba81b70417dccc3600268b21de", "type": "electric_scooter", "bike_id": "195e9eba81b70417dccc3600268b21de", "rental_uris": {"ios": "https://dc.lft.to/lastmile_qr_scan", "android": "https://dc.lft.to/lastmile_qr_scan"}, "fusion_lat": 0.0}, {"lat": 38.92049183333334, "lon": -77.04197516666666, "is_disabled": 0, "fusion_lon": 0.0, "is_reserved": 0, "name": "0a050604b2fd5bf83fe3bbb840267ec3", "type": "electric_scooter", "bike_id": "0a050604b2fd5bf83fe3bbb840267ec3", "rental_uris": {"ios": "https://dc.lft.to/lastmile_qr_scan", "android": "https://dc.lft.to/lastmile_qr_scan"}, "fusion_lat": 0.0}, {"lat": 38.941657, "lon": -76.98548666666667, "is_disabled": 0, "fusion_lon": 0.0, "is_reserved": 0, "name": "35f17ee877fbaad4575c53c308deb165", "type": "electric_bike", "bike_id": "35f17ee877fbaad4575c53c308deb165", "rental_uris": {"ios": "https://dc.lft.to/lastmile_qr_scan", "android": "https://dc.lft.to/lastmile_qr_scan"}, "fusion_lat": 0.0}, {"lat": 38.91045283333333, "lon": -77.03439883333333, "is_disabled": 0, "fusion_lon": 0.0, "is_reserved": 0, "name": "c87d709b355b6e7b30c799eefa8baf75", "type": "electric_scooter", "bike_id": "c87d709b355b6e7b30c799eefa8baf75", "rental_uris": {"ios": "https://dc.lft.to/lastmile_qr_scan", "android": "https://dc.lft.to/lastmile_qr_scan"}, "fusion_lat": 0.0}, {"lat": 38.90358066666667, "lon": -77.03836966666667, "is_disabled": 0, "fusion_lon": 0.0, "is_reserved": 0, "name": "cfd9369fe8b145baeec64a767355432d", "type": "electric_scooter", "bike_id": "cfd9369fe8b145baeec64a767355432d", "rental_uris": {"ios": "https://dc.lft.to/lastmile_qr_scan", "android": "https://dc.lft.to/lastmile_qr_scan"}, "fusion_lat": 0.0}, {"lat": 38.91550866666667, "lon": -77.03183516666667, "is_disabled": 0, "fusion_lon": 0.0, "is_reserved": 0, "name": "39f969a2d6ea6202c03473610501f961", "type": "electric_scooter", "bike_id": "39f969a2d6ea6202c03473610501f961", "rental_uris": {"ios": "https://dc.lft.to/lastmile_qr_scan", "android": "https://dc.lft.to/lastmile_qr_scan"}, "fusion_lat": 0.0}, {"lat": 38.91757233333333, "lon": -77.03202333333333, "is_disabled": 0, "fusion_lon": 0.0, "is_reserved": 0, "name": "d2455126c08a979eb667e1e4caa0ed4f", "type": "electric_scooter", "bike_id": "d2455126c08a979eb667e1e4caa0ed4f", "rental_uris": {"ios": "https://dc.lft.to/lastmile_qr_scan", "android": "https://dc.lft.to/lastmile_qr_scan"}, "fusion_lat": 0.0}, {"lat": 38.897319333333336, "lon": -77.00769616666666, "is_disabled": 0, "fusion_lon": 0.0, "is_reserved": 0, "name": "0c45de8ebc7acf36ceaa049eeffeced1", "type": "electric_scooter", "bike_id": "0c45de8ebc7acf36ceaa049eeffeced1", "rental_uris": {"ios": "https://dc.lft.to/lastmile_qr_scan", "android": "https://dc.lft.to/lastmile_qr_scan"}, "fusion_lat": 0.0}, {"lat": 38.914143833333334, "lon": -77.02097866666666, "is_disabled": 0, "fusion_lon": 0.0, "is_reserved": 0, "name": "30180543a2d4297899122cc549f39320", "type": "electric_scooter", "bike_id": "30180543a2d4297899122cc549f39320", "rental_uris": {"ios": "https://dc.lft.to/lastmile_qr_scan", "android": "https://dc.lft.to/lastmile_qr_scan"}, "fusion_lat": 0.0}, {"lat": 38.89866683333333, "lon": -77.02182983333333, "is_disabled": 0, "fusion_lon": 0.0, "is_reserved": 0, "name": "0ff35625d3abcebb35c2f717d0e47208", "type": "electric_scooter", "bike_id": "0ff35625d3abcebb35c2f717d0e47208", "rental_uris": {"ios": "https://dc.lft.to/lastmile_qr_scan", "android": "https://dc.lft.to/lastmile_qr_scan"}, "fusion_lat": 0.0}, {"lat": 38.92669766666667, "lon": -77.02118366666667, "is_disabled": 0, "fusion_lon": 0.0, "is_reserved": 0, "name": "054d1ac76d89966b50eda737a12711cb", "type": "electric_scooter", "bike_id": "054d1ac76d89966b50eda737a12711cb", "rental_uris": {"ios": "https://dc.lft.to/lastmile_qr_scan", "android": "https://dc.lft.to/lastmile_qr_scan"}, "fusion_lat": 0.0}, {"lat": 38.922263666666666, "lon": -77.02216366666667, "is_disabled": 0, "fusion_lon": 0.0, "is_reserved": 0, "name": "3c808f53725d81cfe35f73b5567e4efc", "type": "electric_scooter", "bike_id": "3c808f53725d81cfe35f73b5567e4efc", "rental_uris": {"ios": "https://dc.lft.to/lastmile_qr_scan", "android": "https://dc.lft.to/lastmile_qr_scan"}, "fusion_lat": 0.0}, {"lat": 38.9221145, "lon": -77.04195416666667, "is_disabled": 0, "fusion_lon": 0.0, "is_reserved": 0, "name": "bf1903ab07b49d03921873f138c5182a", "type": "electric_scooter", "bike_id": "bf1903ab07b49d03921873f138c5182a", "rental_uris": {"ios": "https://dc.lft.to/lastmile_qr_scan", "android": "https://dc.lft.to/lastmile_qr_scan"}, "fusion_lat": 0.0}, {"lat": 38.84718083333333, "lon": -76.9681545, "is_disabled": 0, "fusion_lon": 0.0, "is_reserved": 0, "name": "2f07ed7f8f67ae2d4ba8a40644639749", "type": "electric_scooter", "bike_id": "2f07ed7f8f67ae2d4ba8a40644639749", "rental_uris": {"ios": "https://dc.lft.to/lastmile_qr_scan", "android": "https://dc.lft.to/lastmile_qr_scan"}, "fusion_lat": 0.0}, {"lat": 38.9038155, "lon": -77.03187883333334, "is_disabled": 0, "fusion_lon": 0.0, "is_reserved": 0, "name": "87e572a79a2f9cc19c04601a438b8faf", "type": "electric_scooter", "bike_id": "87e572a79a2f9cc19c04601a438b8faf", "rental_uris": {"ios": "https://dc.lft.to/lastmile_qr_scan", "android": "https://dc.lft.to/lastmile_qr_scan"}, "fusion_lat": 0.0}, {"lat": 38.8922145, "lon": -77.023546, "is_disabled": 0, "fusion_lon": 0.0, "is_reserved": 0, "name": "1545b82ef68deb8853d5d31deb6bdd71", "type": "electric_scooter", "bike_id": "1545b82ef68deb8853d5d31deb6bdd71", "rental_uris": {"ios": "https://dc.lft.to/lastmile_qr_scan", "android": "https://dc.lft.to/lastmile_qr_scan"}, "fusion_lat": 0.0}, {"lat": 38.89944116666667, "lon": -77.04496816666666, "is_disabled": 0, "fusion_lon": 0.0, "is_reserved": 0, "name": "aefe52bbb4a57e7376ad985257c5fb37", "type": "electric_scooter", "bike_id": "aefe52bbb4a57e7376ad985257c5fb37", "rental_uris": {"ios": "https://dc.lft.to/lastmile_qr_scan", "android": "https://dc.lft.to/lastmile_qr_scan"}, "fusion_lat": 0.0}, {"lat": 38.9288545, "lon": -77.032382, "is_disabled": 0, "fusion_lon": 0.0, "is_reserved": 0, "name": "3ad37cd92e4e220e87230dbea2c28c15", "type": "electric_scooter", "bike_id": "3ad37cd92e4e220e87230dbea2c28c15", "rental_uris": {"ios": "https://dc.lft.to/lastmile_qr_scan", "android": "https://dc.lft.to/lastmile_qr_scan"}, "fusion_lat": 0.0}, {"lat": 38.8984705, "lon": -77.043764, "is_disabled": 0, "fusion_lon": 0.0, "is_reserved": 0, "name": "0e2d025f006179c713b9fe42820deb1b", "type": "electric_bike", "bike_id": "0e2d025f006179c713b9fe42820deb1b", "rental_uris": {"ios": "https://dc.lft.to/lastmile_qr_scan", "android": "https://dc.lft.to/lastmile_qr_scan"}, "fusion_lat": 0.0}, {"lat": 38.873087, "lon": -77.001381, "is_disabled": 0, "fusion_lon": 0.0, "is_reserved": 0, "name": "36552ce43e06f0a0e1a3fbed236bdce5", "type": "electric_scooter", "bike_id": "36552ce43e06f0a0e1a3fbed236bdce5", "rental_uris": {"ios": "https://dc.lft.to/lastmile_qr_scan", "android": "https://dc.lft.to/lastmile_qr_scan"}, "fusion_lat": 0.0}, {"lat": 38.9039195, "lon": -77.05138116666667, "is_disabled": 0, "fusion_lon": 0.0, "is_reserved": 0, "name": "959f169c725d1f3bf3eb0ec63921c6b4", "type": "electric_scooter", "bike_id": "959f169c725d1f3bf3eb0ec63921c6b4", "rental_uris": {"ios": "https://dc.lft.to/lastmile_qr_scan", "android": "https://dc.lft.to/lastmile_qr_scan"}, "fusion_lat": 0.0}, {"lat": 38.907436833333335, "lon": -77.03577533333333, "is_disabled": 0, "fusion_lon": 0.0, "is_reserved": 0, "name": "5da14acbc06ee3c124f138cf5f884ace", "type": "electric_scooter", "bike_id": "5da14acbc06ee3c124f138cf5f884ace", "rental_uris": {"ios": "https://dc.lft.to/lastmile_qr_scan", "android": "https://dc.lft.to/lastmile_qr_scan"}, "fusion_lat": 0.0}, {"lat": 38.90487266666667, "lon": -77.02803916666667, "is_disabled": 0, "fusion_lon": 0.0, "is_reserved": 0, "name": "f7a51066d9968c653514a6b55da627c8", "type": "electric_scooter", "bike_id": "f7a51066d9968c653514a6b55da627c8", "rental_uris": {"ios": "https://dc.lft.to/lastmile_qr_scan", "android": "https://dc.lft.to/lastmile_qr_scan"}, "fusion_lat": 0.0}, {"lat": 38.90146, "lon": -76.97427233333333, "is_disabled": 0, "fusion_lon": 0.0, "is_reserved": 0, "name": "676300bb10178ae10aaf3d79ff150bce", "type": "electric_scooter", "bike_id": "676300bb10178ae10aaf3d79ff150bce", "rental_uris": {"ios": "https://dc.lft.to/lastmile_qr_scan", "android": "https://dc.lft.to/lastmile_qr_scan"}, "fusion_lat": 0.0}, {"lat": 38.914144, "lon": -77.02101583333334, "is_disabled": 0, "fusion_lon": 0.0, "is_reserved": 0, "name": "c334e4bf54c979aade2f03b57eec3792", "type": "electric_scooter", "bike_id": "c334e4bf54c979aade2f03b57eec3792", "rental_uris": {"ios": "https://dc.lft.to/lastmile_qr_scan", "android": "https://dc.lft.to/lastmile_qr_scan"}, "fusion_lat": 0.0}, {"lat": 38.89738916666667, "lon": -77.01278916666666, "is_disabled": 0, "fusion_lon": 0.0, "is_reserved": 0, "name": "a8ddf31a06fcaa2bc876a1e46b47f634", "type": "electric_scooter", "bike_id": "a8ddf31a06fcaa2bc876a1e46b47f634", "rental_uris": {"ios": "https://dc.lft.to/lastmile_qr_scan", "android": "https://dc.lft.to/lastmile_qr_scan"}, "fusion_lat": 0.0}, {"lat": 38.919889, "lon": -76.973046, "is_disabled": 0, "fusion_lon": 0.0, "is_reserved": 0, "name": "97d59068a6cf4c2f76767179618685df", "type": "electric_scooter", "bike_id": "97d59068a6cf4c2f76767179618685df", "rental_uris": {"ios": "https://dc.lft.to/lastmile_qr_scan", "android": "https://dc.lft.to/lastmile_qr_scan"}, "fusion_lat": 0.0}, {"lat": 38.887454166666664, "lon": -77.01784666666667, "is_disabled": 0, "fusion_lon": 0.0, "is_reserved": 0, "name": "b69aee98e5d5e7ff9a68d34f786bcc07", "type": "electric_scooter", "bike_id": "b69aee98e5d5e7ff9a68d34f786bcc07", "rental_uris": {"ios": "https://dc.lft.to/lastmile_qr_scan", "android": "https://dc.lft.to/lastmile_qr_scan"}, "fusion_lat": 0.0}, {"lat": 38.92207333333333, "lon": -77.037783, "is_disabled": 0, "fusion_lon": 0.0, "is_reserved": 0, "name": "279f87feeb6532fd5c58de6e64e36be0", "type": "electric_scooter", "bike_id": "279f87feeb6532fd5c58de6e64e36be0", "rental_uris": {"ios": "https://dc.lft.to/lastmile_qr_scan", "android": "https://dc.lft.to/lastmile_qr_scan"}, "fusion_lat": 0.0}, {"lat": 38.88771766666667, "lon": -76.98295283333333, "is_disabled": 0, "fusion_lon": 0.0, "is_reserved": 0, "name": "2601c37c81774a02a746077eff4601cb", "type": "electric_scooter", "bike_id": "2601c37c81774a02a746077eff4601cb", "rental_uris": {"ios": "https://dc.lft.to/lastmile_qr_scan", "android": "https://dc.lft.to/lastmile_qr_scan"}, "fusion_lat": 0.0}, {"lat": 38.9159215, "lon": -77.01486166666666, "is_disabled": 0, "fusion_lon": 0.0, "is_reserved": 0, "name": "ea5f1314cf6c5d96df6fb2a6cda8dfea", "type": "electric_scooter", "bike_id": "ea5f1314cf6c5d96df6fb2a6cda8dfea", "rental_uris": {"ios": "https://dc.lft.to/lastmile_qr_scan", "android": "https://dc.lft.to/lastmile_qr_scan"}, "fusion_lat": 0.0}, {"lat": 38.9321295, "lon": -77.03522233333334, "is_disabled": 0, "fusion_lon": 0.0, "is_reserved": 0, "name": "4f1701d142b20d0a361f77416ae07751", "type": "electric_scooter", "bike_id": "4f1701d142b20d0a361f77416ae07751", "rental_uris": {"ios": "https://dc.lft.to/lastmile_qr_scan", "android": "https://dc.lft.to/lastmile_qr_scan"}, "fusion_lat": 0.0}, {"lat": 38.90795766666667, "lon": -77.04251316666667, "is_disabled": 0, "fusion_lon": 0.0, "is_reserved": 0, "name": "570ccba74dba5f03a39143af92ba1bb3", "type": "electric_scooter", "bike_id": "570ccba74dba5f03a39143af92ba1bb3", "rental_uris": {"ios": "https://dc.lft.to/lastmile_qr_scan", "android": "https://dc.lft.to/lastmile_qr_scan"}, "fusion_lat": 0.0}, {"lat": 38.902435, "lon": -77.03569616666667, "is_disabled": 0, "fusion_lon": 0.0, "is_reserved": 0, "name": "e59bf03cbc95bc298faf7eb526567778", "type": "electric_scooter", "bike_id": "e59bf03cbc95bc298faf7eb526567778", "rental_uris": {"ios": "https://dc.lft.to/lastmile_qr_scan", "android": "https://dc.lft.to/lastmile_qr_scan"}, "fusion_lat": 0.0}, {"lat": 38.923015666666664, "lon": -77.04169, "is_disabled": 0, "fusion_lon": 0.0, "is_reserved": 0, "name": "eac9ce38971dcf7d828de5706dc72751", "type": "electric_scooter", "bike_id": "eac9ce38971dcf7d828de5706dc72751", "rental_uris": {"ios": "https://dc.lft.to/lastmile_qr_scan", "android": "https://dc.lft.to/lastmile_qr_scan"}, "fusion_lat": 0.0}, {"lat": 38.91108166666667, "lon": -76.99749233333333, "is_disabled": 0, "fusion_lon": 0.0, "is_reserved": 0, "name": "202a4a2b756671030e7e1caebd73d386", "type": "electric_scooter", "bike_id": "202a4a2b756671030e7e1caebd73d386", "rental_uris": {"ios": "https://dc.lft.to/lastmile_qr_scan", "android": "https://dc.lft.to/lastmile_qr_scan"}, "fusion_lat": 0.0}, {"lat": 38.937052333333334, "lon": -77.02400066666667, "is_disabled": 0, "fusion_lon": 0.0, "is_reserved": 0, "name": "9c2f5db948c6a4a2c8ff59115162356e", "type": "electric_scooter", "bike_id": "9c2f5db948c6a4a2c8ff59115162356e", "rental_uris": {"ios": "https://dc.lft.to/lastmile_qr_scan", "android": "https://dc.lft.to/lastmile_qr_scan"}, "fusion_lat": 0.0}, {"lat": 38.92784433333333, "lon": -77.015601, "is_disabled": 0, "fusion_lon": 0.0, "is_reserved": 0, "name": "672a4b655bf73c37db951408785bb256", "type": "electric_scooter", "bike_id": "672a4b655bf73c37db951408785bb256", "rental_uris": {"ios": "https://dc.lft.to/lastmile_qr_scan", "android": "https://dc.lft.to/lastmile_qr_scan"}, "fusion_lat": 0.0}, {"lat": 38.898262833333334, "lon": -77.02581, "is_disabled": 0, "fusion_lon": 0.0, "is_reserved": 0, "name": "e98a0ff2a4be65d407ffbfd0f5906549", "type": "electric_scooter", "bike_id": "e98a0ff2a4be65d407ffbfd0f5906549", "rental_uris": {"ios": "https://dc.lft.to/lastmile_qr_scan", "android": "https://dc.lft.to/lastmile_qr_scan"}, "fusion_lat": 0.0}, {"lat": 38.9211995, "lon": -77.012117, "is_disabled": 0, "fusion_lon": 0.0, "is_reserved": 0, "name": "f1ae1cbbd19d58aa38feea5e946d25d2", "type": "electric_bike", "bike_id": "f1ae1cbbd19d58aa38feea5e946d25d2", "rental_uris": {"ios": "https://dc.lft.to/lastmile_qr_scan", "android": "https://dc.lft.to/lastmile_qr_scan"}, "fusion_lat": 0.0}, {"lat": 38.9049915, "lon": -77.06472416666666, "is_disabled": 0, "fusion_lon": 0.0, "is_reserved": 0, "name": "13eb05913100b463079813a176658a52", "type": "electric_scooter", "bike_id": "13eb05913100b463079813a176658a52", "rental_uris": {"ios": "https://dc.lft.to/lastmile_qr_scan", "android": "https://dc.lft.to/lastmile_qr_scan"}, "fusion_lat": 0.0}, {"lat": 38.95620516666666, "lon": -76.93873083333334, "is_disabled": 0, "fusion_lon": 0.0, "is_reserved": 0, "name": "64b4e9130eacb290c3ed6b7cd77abcc7", "type": "electric_bike", "bike_id": "64b4e9130eacb290c3ed6b7cd77abcc7", "rental_uris": {"ios": "https://dc.lft.to/lastmile_qr_scan", "android": "https://dc.lft.to/lastmile_qr_scan"}, "fusion_lat": 0.0}, {"lat": 38.8765645, "lon": -77.00306183333333, "is_disabled": 0, "fusion_lon": 0.0, "is_reserved": 0, "name": "8d5f245c6ae36cfb53665b70993b0912", "type": "electric_scooter", "bike_id": "8d5f245c6ae36cfb53665b70993b0912", "rental_uris": {"ios": "https://dc.lft.to/lastmile_qr_scan", "android": "https://dc.lft.to/lastmile_qr_scan"}, "fusion_lat": 0.0}, {"lat": 38.9070995, "lon": -77.03445483333333, "is_disabled": 0, "fusion_lon": 0.0, "is_reserved": 0, "name": "8c8933eee139662a2d08b1b287519ad7", "type": "electric_scooter", "bike_id": "8c8933eee139662a2d08b1b287519ad7", "rental_uris": {"ios": "https://dc.lft.to/lastmile_qr_scan", "android": "https://dc.lft.to/lastmile_qr_scan"}, "fusion_lat": 0.0}, {"lat": 38.90430466666667, "lon": -77.04664183333334, "is_disabled": 0, "fusion_lon": 0.0, "is_reserved": 0, "name": "46b763037ee91033e40ccb5a3d4683d7", "type": "electric_scooter", "bike_id": "46b763037ee91033e40ccb5a3d4683d7", "rental_uris": {"ios": "https://dc.lft.to/lastmile_qr_scan", "android": "https://dc.lft.to/lastmile_qr_scan"}, "fusion_lat": 0.0}, {"lat": 38.9175135, "lon": -77.031878, "is_disabled": 0, "fusion_lon": 0.0, "is_reserved": 0, "name": "61e5085a0db2b347155b395b5716a412", "type": "electric_scooter", "bike_id": "61e5085a0db2b347155b395b5716a412", "rental_uris": {"ios": "https://dc.lft.to/lastmile_qr_scan", "android": "https://dc.lft.to/lastmile_qr_scan"}, "fusion_lat": 0.0}, {"lat": 38.885045, "lon": -77.02977483333333, "is_disabled": 0, "fusion_lon": 0.0, "is_reserved": 0, "name": "96ae9693dd8080e6eb3887ea5cb7389d", "type": "electric_scooter", "bike_id": "96ae9693dd8080e6eb3887ea5cb7389d", "rental_uris": {"ios": "https://dc.lft.to/lastmile_qr_scan", "android": "https://dc.lft.to/lastmile_qr_scan"}, "fusion_lat": 0.0}, {"lat": 38.914139, "lon": -77.021772, "is_disabled": 0, "fusion_lon": 0.0, "is_reserved": 0, "name": "00cd11a318f16752f6fa2b6e5f729de3", "type": "electric_scooter", "bike_id": "00cd11a318f16752f6fa2b6e5f729de3", "rental_uris": {"ios": "https://dc.lft.to/lastmile_qr_scan", "android": "https://dc.lft.to/lastmile_qr_scan"}, "fusion_lat": 0.0}, {"lat": 38.920510666666665, "lon": -77.041908, "is_disabled": 0, "fusion_lon": 0.0, "is_reserved": 0, "name": "569126991cf27e44794326d19f1e6028", "type": "electric_scooter", "bike_id": "569126991cf27e44794326d19f1e6028", "rental_uris": {"ios": "https://dc.lft.to/lastmile_qr_scan", "android": "https://dc.lft.to/lastmile_qr_scan"}, "fusion_lat": 0.0}, {"lat": 38.907156666666666, "lon": -77.07628833333334, "is_disabled": 0, "fusion_lon": 0.0, "is_reserved": 0, "name": "5f0989af5974cf39dcfa21d9f8b2b041", "type": "electric_scooter", "bike_id": "5f0989af5974cf39dcfa21d9f8b2b041", "rental_uris": {"ios": "https://dc.lft.to/lastmile_qr_scan", "android": "https://dc.lft.to/lastmile_qr_scan"}, "fusion_lat": 0.0}, {"lat": 38.9231685, "lon": -77.04208483333333, "is_disabled": 0, "fusion_lon": 0.0, "is_reserved": 0, "name": "7711a5b4e420ddc759d067cadfaab749", "type": "electric_scooter", "bike_id": "7711a5b4e420ddc759d067cadfaab749", "rental_uris": {"ios": "https://dc.lft.to/lastmile_qr_scan", "android": "https://dc.lft.to/lastmile_qr_scan"}, "fusion_lat": 0.0}, {"lat": 38.99495783333333, "lon": -77.0779305, "is_disabled": 0, "fusion_lon": 0.0, "is_reserved": 0, "name": "ec81447bdceca832a9b87e9f6b1d47c9", "type": "electric_bike", "bike_id": "ec81447bdceca832a9b87e9f6b1d47c9", "rental_uris": {"ios": "https://dc.lft.to/lastmile_qr_scan", "android": "https://dc.lft.to/lastmile_qr_scan"}, "fusion_lat": 0.0}, {"lat": 38.90520683333333, "lon": -77.06602316666667, "is_disabled": 0, "fusion_lon": 0.0, "is_reserved": 0, "name": "8fa0903fd7dae2364637a0aca7cda0a1", "type": "electric_scooter", "bike_id": "8fa0903fd7dae2364637a0aca7cda0a1", "rental_uris": {"ios": "https://dc.lft.to/lastmile_qr_scan", "android": "https://dc.lft.to/lastmile_qr_scan"}, "fusion_lat": 0.0}, {"lat": 38.91109933333333, "lon": -77.03211533333334, "is_disabled": 0, "fusion_lon": 0.0, "is_reserved": 0, "name": "57fbdbaf1fae7e7a723eff04fff30360", "type": "electric_scooter", "bike_id": "57fbdbaf1fae7e7a723eff04fff30360", "rental_uris": {"ios": "https://dc.lft.to/lastmile_qr_scan", "android": "https://dc.lft.to/lastmile_qr_scan"}, "fusion_lat": 0.0}, {"lat": 38.9090915, "lon": -77.04207883333333, "is_disabled": 0, "fusion_lon": 0.0, "is_reserved": 0, "name": "e122b7a781d781d19f33fe2447209fad", "type": "electric_scooter", "bike_id": "e122b7a781d781d19f33fe2447209fad", "rental_uris": {"ios": "https://dc.lft.to/lastmile_qr_scan", "android": "https://dc.lft.to/lastmile_qr_scan"}, "fusion_lat": 0.0}, {"lat": 38.895078166666664, "lon": -77.04658233333333, "is_disabled": 0, "fusion_lon": 0.0, "is_reserved": 0, "name": "62274f133dd5a40664de712e44d00248", "type": "electric_scooter", "bike_id": "62274f133dd5a40664de712e44d00248", "rental_uris": {"ios": "https://dc.lft.to/lastmile_qr_scan", "android": "https://dc.lft.to/lastmile_qr_scan"}, "fusion_lat": 0.0}, {"lat": 38.9007345, "lon": -77.01318766666667, "is_disabled": 0, "fusion_lon": 0.0, "is_reserved": 0, "name": "a558807a6f2abeccefb1cbabdaab94e2", "type": "electric_scooter", "bike_id": "a558807a6f2abeccefb1cbabdaab94e2", "rental_uris": {"ios": "https://dc.lft.to/lastmile_qr_scan", "android": "https://dc.lft.to/lastmile_qr_scan"}, "fusion_lat": 0.0}, {"lat": 38.87220533333333, "lon": -77.005634, "is_disabled": 0, "fusion_lon": 0.0, "is_reserved": 0, "name": "de9be8e1202c3167ce588aa8c90ca17c", "type": "electric_scooter", "bike_id": "de9be8e1202c3167ce588aa8c90ca17c", "rental_uris": {"ios": "https://dc.lft.to/lastmile_qr_scan", "android": "https://dc.lft.to/lastmile_qr_scan"}, "fusion_lat": 0.0}, {"lat": 38.91264116666667, "lon": -77.0353275, "is_disabled": 0, "fusion_lon": 0.0, "is_reserved": 0, "name": "865cca0500e2983128a4f820275eed7a", "type": "electric_scooter", "bike_id": "865cca0500e2983128a4f820275eed7a", "rental_uris": {"ios": "https://dc.lft.to/lastmile_qr_scan", "android": "https://dc.lft.to/lastmile_qr_scan"}, "fusion_lat": 0.0}, {"lat": 38.898470833333334, "lon": -77.0410765, "is_disabled": 0, "fusion_lon": 0.0, "is_reserved": 0, "name": "16c5f887d1fc0a4252d3d78526f689b4", "type": "electric_scooter", "bike_id": "16c5f887d1fc0a4252d3d78526f689b4", "rental_uris": {"ios": "https://dc.lft.to/lastmile_qr_scan", "android": "https://dc.lft.to/lastmile_qr_scan"}, "fusion_lat": 0.0}, {"lat": 38.95428116666667, "lon": -77.018488, "is_disabled": 0, "fusion_lon": 0.0, "is_reserved": 0, "name": "c39dd8527e7db08626496685755d3e71", "type": "electric_scooter", "bike_id": "c39dd8527e7db08626496685755d3e71", "rental_uris": {"ios": "https://dc.lft.to/lastmile_qr_scan", "android": "https://dc.lft.to/lastmile_qr_scan"}, "fusion_lat": 0.0}, {"lat": 38.89471316666667, "lon": -76.98596766666667, "is_disabled": 0, "fusion_lon": 0.0, "is_reserved": 0, "name": "cbe9a640f9f8d6f00e4cadbb7033b378", "type": "electric_scooter", "bike_id": "cbe9a640f9f8d6f00e4cadbb7033b378", "rental_uris": {"ios": "https://dc.lft.to/lastmile_qr_scan", "android": "https://dc.lft.to/lastmile_qr_scan"}, "fusion_lat": 0.0}, {"lat": 38.8990615, "lon": -77.01386316666667, "is_disabled": 0, "fusion_lon": 0.0, "is_reserved": 0, "name": "8deb167efecd8f051bff09b7e265fd32", "type": "electric_scooter", "bike_id": "8deb167efecd8f051bff09b7e265fd32", "rental_uris": {"ios": "https://dc.lft.to/lastmile_qr_scan", "android": "https://dc.lft.to/lastmile_qr_scan"}, "fusion_lat": 0.0}, {"lat": 38.87679283333333, "lon": -77.00344283333334, "is_disabled": 0, "fusion_lon": 0.0, "is_reserved": 0, "name": "310025805c22844f64ccb1efcb4c5954", "type": "electric_scooter", "bike_id": "310025805c22844f64ccb1efcb4c5954", "rental_uris": {"ios": "https://dc.lft.to/lastmile_qr_scan", "android": "https://dc.lft.to/lastmile_qr_scan"}, "fusion_lat": 0.0}, {"lat": 38.87612883333333, "lon": -77.00835416666666, "is_disabled": 0, "fusion_lon": 0.0, "is_reserved": 0, "name": "4b5f599b8f14a27c4037db2cf6d2ba09", "type": "electric_bike", "bike_id": "4b5f599b8f14a27c4037db2cf6d2ba09", "rental_uris": {"ios": "https://dc.lft.to/lastmile_qr_scan", "android": "https://dc.lft.to/lastmile_qr_scan"}, "fusion_lat": 0.0}, {"lat": 38.9241425, "lon": -77.02005483333333, "is_disabled": 0, "fusion_lon": 0.0, "is_reserved": 0, "name": "fdd2d02cb9db99b259b4ba9f5f18eff9", "type": "electric_scooter", "bike_id": "fdd2d02cb9db99b259b4ba9f5f18eff9", "rental_uris": {"ios": "https://dc.lft.to/lastmile_qr_scan", "android": "https://dc.lft.to/lastmile_qr_scan"}, "fusion_lat": 0.0}, {"lat": 38.919285333333335, "lon": -77.03145883333333, "is_disabled": 0, "fusion_lon": 0.0, "is_reserved": 0, "name": "775afd550edb1f6e825b53a4e8f3c3e5", "type": "electric_scooter", "bike_id": "775afd550edb1f6e825b53a4e8f3c3e5", "rental_uris": {"ios": "https://dc.lft.to/lastmile_qr_scan", "android": "https://dc.lft.to/lastmile_qr_scan"}, "fusion_lat": 0.0}, {"lat": 38.887326333333334, "lon": -77.02380216666667, "is_disabled": 0, "fusion_lon": 0.0, "is_reserved": 0, "name": "53c5e1087b5737bdf1185b01e01caa67", "type": "electric_scooter", "bike_id": "53c5e1087b5737bdf1185b01e01caa67", "rental_uris": {"ios": "https://dc.lft.to/lastmile_qr_scan", "android": "https://dc.lft.to/lastmile_qr_scan"}, "fusion_lat": 0.0}, {"lat": 38.892208833333335, "lon": -77.04329983333334, "is_disabled": 0, "fusion_lon": 0.0, "is_reserved": 0, "name": "f9a890ccd3b958ef6d0eac635b3c3519", "type": "electric_scooter", "bike_id": "f9a890ccd3b958ef6d0eac635b3c3519", "rental_uris": {"ios": "https://dc.lft.to/lastmile_qr_scan", "android": "https://dc.lft.to/lastmile_qr_scan"}, "fusion_lat": 0.0}, {"lat": 38.911238833333336, "lon": -77.0219885, "is_disabled": 0, "fusion_lon": 0.0, "is_reserved": 0, "name": "ab5ee5f84054bfc530f3cbf2fbfbb6ad", "type": "electric_scooter", "bike_id": "ab5ee5f84054bfc530f3cbf2fbfbb6ad", "rental_uris": {"ios": "https://dc.lft.to/lastmile_qr_scan", "android": "https://dc.lft.to/lastmile_qr_scan"}, "fusion_lat": 0.0}, {"lat": 38.90874133333333, "lon": -77.03262166666667, "is_disabled": 0, "fusion_lon": 0.0, "is_reserved": 0, "name": "ae911d584a7152ce795d73ece5765a54", "type": "electric_scooter", "bike_id": "ae911d584a7152ce795d73ece5765a54", "rental_uris": {"ios": "https://dc.lft.to/lastmile_qr_scan", "android": "https://dc.lft.to/lastmile_qr_scan"}, "fusion_lat": 0.0}, {"lat": 38.846114166666666, "lon": -76.96913783333333, "is_disabled": 0, "fusion_lon": 0.0, "is_reserved": 0, "name": "773795f0141dc2a7e9d66af4914f478e", "type": "electric_bike", "bike_id": "773795f0141dc2a7e9d66af4914f478e", "rental_uris": {"ios": "https://dc.lft.to/lastmile_qr_scan", "android": "https://dc.lft.to/lastmile_qr_scan"}, "fusion_lat": 0.0}, {"lat": 38.9085825, "lon": -77.03846333333334, "is_disabled": 0, "fusion_lon": 0.0, "is_reserved": 0, "name": "6b1504a4d851797adda6da1f04026f99", "type": "electric_scooter", "bike_id": "6b1504a4d851797adda6da1f04026f99", "rental_uris": {"ios": "https://dc.lft.to/lastmile_qr_scan", "android": "https://dc.lft.to/lastmile_qr_scan"}, "fusion_lat": 0.0}, {"lat": 38.90006566666667, "lon": -77.00662316666667, "is_disabled": 0, "fusion_lon": 0.0, "is_reserved": 0, "name": "984106146cb6fd51b84a0bd4fa9a8586", "type": "electric_scooter", "bike_id": "984106146cb6fd51b84a0bd4fa9a8586", "rental_uris": {"ios": "https://dc.lft.to/lastmile_qr_scan", "android": "https://dc.lft.to/lastmile_qr_scan"}, "fusion_lat": 0.0}, {"lat": 38.924513166666664, "lon": -77.02044566666666, "is_disabled": 0, "fusion_lon": 0.0, "is_reserved": 0, "name": "34af94c6c22985ed91c92624bc4aebdb", "type": "electric_scooter", "bike_id": "34af94c6c22985ed91c92624bc4aebdb", "rental_uris": {"ios": "https://dc.lft.to/lastmile_qr_scan", "android": "https://dc.lft.to/lastmile_qr_scan"}, "fusion_lat": 0.0}, {"lat": 38.887588666666666, "lon": -76.9869335, "is_disabled": 0, "fusion_lon": 0.0, "is_reserved": 0, "name": "1525b4a257fedf8a7c960ac4906729ac", "type": "electric_scooter", "bike_id": "1525b4a257fedf8a7c960ac4906729ac", "rental_uris": {"ios": "https://dc.lft.to/lastmile_qr_scan", "android": "https://dc.lft.to/lastmile_qr_scan"}, "fusion_lat": 0.0}, {"lat": 38.910386833333334, "lon": -77.04260233333333, "is_disabled": 0, "fusion_lon": 0.0, "is_reserved": 0, "name": "0daabda93d04115736f2d71f51242955", "type": "electric_scooter", "bike_id": "0daabda93d04115736f2d71f51242955", "rental_uris": {"ios": "https://dc.lft.to/lastmile_qr_scan", "android": "https://dc.lft.to/lastmile_qr_scan"}, "fusion_lat": 0.0}, {"lat": 38.922289166666665, "lon": -77.02023216666667, "is_disabled": 0, "fusion_lon": 0.0, "is_reserved": 0, "name": "737de7a19144f99afcc49b08a68287f6", "type": "electric_scooter", "bike_id": "737de7a19144f99afcc49b08a68287f6", "rental_uris": {"ios": "https://dc.lft.to/lastmile_qr_scan", "android": "https://dc.lft.to/lastmile_qr_scan"}, "fusion_lat": 0.0}, {"lat": 38.9067, "lon": -77.02718866666666, "is_disabled": 0, "fusion_lon": 0.0, "is_reserved": 0, "name": "c1e51bce6c069596a44404153bda6c56", "type": "electric_scooter", "bike_id": "c1e51bce6c069596a44404153bda6c56", "rental_uris": {"ios": "https://dc.lft.to/lastmile_qr_scan", "android": "https://dc.lft.to/lastmile_qr_scan"}, "fusion_lat": 0.0}, {"lat": 38.884196833333334, "lon": -77.00819683333333, "is_disabled": 0, "fusion_lon": 0.0, "is_reserved": 0, "name": "df9deb9c6eb661e3009d7bfeae29ef6f", "type": "electric_scooter", "bike_id": "df9deb9c6eb661e3009d7bfeae29ef6f", "rental_uris": {"ios": "https://dc.lft.to/lastmile_qr_scan", "android": "https://dc.lft.to/lastmile_qr_scan"}, "fusion_lat": 0.0}, {"lat": 38.90031483333333, "lon": -77.039972, "is_disabled": 0, "fusion_lon": 0.0, "is_reserved": 0, "name": "cd84b8617c50ce15a94ee35b88dbe29b", "type": "electric_scooter", "bike_id": "cd84b8617c50ce15a94ee35b88dbe29b", "rental_uris": {"ios": "https://dc.lft.to/lastmile_qr_scan", "android": "https://dc.lft.to/lastmile_qr_scan"}, "fusion_lat": 0.0}, {"lat": 38.92343533333333, "lon": -77.01907116666666, "is_disabled": 0, "fusion_lon": 0.0, "is_reserved": 0, "name": "a35099a5cd6cfc55a8b14736ff22769f", "type": "electric_scooter", "bike_id": "a35099a5cd6cfc55a8b14736ff22769f", "rental_uris": {"ios": "https://dc.lft.to/lastmile_qr_scan", "android": "https://dc.lft.to/lastmile_qr_scan"}, "fusion_lat": 0.0}, {"lat": 38.90143666666667, "lon": -77.025612, "is_disabled": 0, "fusion_lon": 0.0, "is_reserved": 0, "name": "ebb8fd7eb341baf410000cdc35b74207", "type": "electric_scooter", "bike_id": "ebb8fd7eb341baf410000cdc35b74207", "rental_uris": {"ios": "https://dc.lft.to/lastmile_qr_scan", "android": "https://dc.lft.to/lastmile_qr_scan"}, "fusion_lat": 0.0}, {"lat": 38.896666833333335, "lon": -76.93210466666666, "is_disabled": 0, "fusion_lon": 0.0, "is_reserved": 0, "name": "fd47fb2831b064cda88ab860bceda4a0", "type": "electric_scooter", "bike_id": "fd47fb2831b064cda88ab860bceda4a0", "rental_uris": {"ios": "https://dc.lft.to/lastmile_qr_scan", "android": "https://dc.lft.to/lastmile_qr_scan"}, "fusion_lat": 0.0}, {"lat": 38.9246215, "lon": -77.02249166666667, "is_disabled": 0, "fusion_lon": 0.0, "is_reserved": 0, "name": "bd73a14c9039622634d39e821dddaf36", "type": "electric_scooter", "bike_id": "bd73a14c9039622634d39e821dddaf36", "rental_uris": {"ios": "https://dc.lft.to/lastmile_qr_scan", "android": "https://dc.lft.to/lastmile_qr_scan"}, "fusion_lat": 0.0}, {"lat": 38.901514, "lon": -77.02692, "is_disabled": 0, "fusion_lon": 0.0, "is_reserved": 0, "name": "98b0805b0717a4c0015e0efb3a2c7125", "type": "electric_scooter", "bike_id": "98b0805b0717a4c0015e0efb3a2c7125", "rental_uris": {"ios": "https://dc.lft.to/lastmile_qr_scan", "android": "https://dc.lft.to/lastmile_qr_scan"}, "fusion_lat": 0.0}, {"lat": 38.91196983333333, "lon": -77.04535166666666, "is_disabled": 0, "fusion_lon": 0.0, "is_reserved": 0, "name": "31df9deb14ccea27046a79e679364f33", "type": "electric_scooter", "bike_id": "31df9deb14ccea27046a79e679364f33", "rental_uris": {"ios": "https://dc.lft.to/lastmile_qr_scan", "android": "https://dc.lft.to/lastmile_qr_scan"}, "fusion_lat": 0.0}, {"lat": 38.94977183333334, "lon": -77.02448033333333, "is_disabled": 0, "fusion_lon": 0.0, "is_reserved": 0, "name": "5d6ce9761967c716e62f5b66ea194840", "type": "electric_scooter", "bike_id": "5d6ce9761967c716e62f5b66ea194840", "rental_uris": {"ios": "https://dc.lft.to/lastmile_qr_scan", "android": "https://dc.lft.to/lastmile_qr_scan"}, "fusion_lat": 0.0}, {"lat": 38.91280366666667, "lon": -77.04510816666667, "is_disabled": 0, "fusion_lon": 0.0, "is_reserved": 0, "name": "5d5584d8e43a97d088165897fb6374de", "type": "electric_scooter", "bike_id": "5d5584d8e43a97d088165897fb6374de", "rental_uris": {"ios": "https://dc.lft.to/lastmile_qr_scan", "android": "https://dc.lft.to/lastmile_qr_scan"}, "fusion_lat": 0.0}, {"lat": 38.83627216666667, "lon": -77.069519, "is_disabled": 0, "fusion_lon": 0.0, "is_reserved": 0, "name": "18aa16006195d1dfb5dba4210a7fa0de", "type": "electric_bike", "bike_id": "18aa16006195d1dfb5dba4210a7fa0de", "rental_uris": {"ios": "https://dc.lft.to/lastmile_qr_scan", "android": "https://dc.lft.to/lastmile_qr_scan"}, "fusion_lat": 0.0}, {"lat": 38.876526, "lon": -77.00579883333333, "is_disabled": 0, "fusion_lon": 0.0, "is_reserved": 0, "name": "f1b536db5f844c2ba363a493cc2cced6", "type": "electric_scooter", "bike_id": "f1b536db5f844c2ba363a493cc2cced6", "rental_uris": {"ios": "https://dc.lft.to/lastmile_qr_scan", "android": "https://dc.lft.to/lastmile_qr_scan"}, "fusion_lat": 0.0}, {"lat": 38.899289, "lon": -77.0127545, "is_disabled": 0, "fusion_lon": 0.0, "is_reserved": 0, "name": "f09fa3558066c4b032245a9f73af7a3f", "type": "electric_scooter", "bike_id": "f09fa3558066c4b032245a9f73af7a3f", "rental_uris": {"ios": "https://dc.lft.to/lastmile_qr_scan", "android": "https://dc.lft.to/lastmile_qr_scan"}, "fusion_lat": 0.0}, {"lat": 38.9615545, "lon": -77.02782116666667, "is_disabled": 0, "fusion_lon": 0.0, "is_reserved": 0, "name": "e55f9056b3ff13626813b51e527de7cf", "type": "electric_scooter", "bike_id": "e55f9056b3ff13626813b51e527de7cf", "rental_uris": {"ios": "https://dc.lft.to/lastmile_qr_scan", "android": "https://dc.lft.to/lastmile_qr_scan"}, "fusion_lat": 0.0}, {"lat": 38.91263433333334, "lon": -77.01537083333334, "is_disabled": 0, "fusion_lon": 0.0, "is_reserved": 0, "name": "ea73c33fd69d823cabcc26905c65d4eb", "type": "electric_scooter", "bike_id": "ea73c33fd69d823cabcc26905c65d4eb", "rental_uris": {"ios": "https://dc.lft.to/lastmile_qr_scan", "android": "https://dc.lft.to/lastmile_qr_scan"}, "fusion_lat": 0.0}, {"lat": 38.90634033333333, "lon": -77.00941933333333, "is_disabled": 0, "fusion_lon": 0.0, "is_reserved": 0, "name": "f4a3a0bf73cfdb9977967379cc399a35", "type": "electric_scooter", "bike_id": "f4a3a0bf73cfdb9977967379cc399a35", "rental_uris": {"ios": "https://dc.lft.to/lastmile_qr_scan", "android": "https://dc.lft.to/lastmile_qr_scan"}, "fusion_lat": 0.0}, {"lat": 38.88767266666667, "lon": -77.02239033333333, "is_disabled": 0, "fusion_lon": 0.0, "is_reserved": 0, "name": "5e4898a30bf21361403c5ecd2a50c228", "type": "electric_scooter", "bike_id": "5e4898a30bf21361403c5ecd2a50c228", "rental_uris": {"ios": "https://dc.lft.to/lastmile_qr_scan", "android": "https://dc.lft.to/lastmile_qr_scan"}, "fusion_lat": 0.0}, {"lat": 38.918602, "lon": -76.96085883333333, "is_disabled": 0, "fusion_lon": 0.0, "is_reserved": 0, "name": "e460c3848e5764efaf7d6d2aede40bcf", "type": "electric_bike", "bike_id": "e460c3848e5764efaf7d6d2aede40bcf", "rental_uris": {"ios": "https://dc.lft.to/lastmile_qr_scan", "android": "https://dc.lft.to/lastmile_qr_scan"}, "fusion_lat": 0.0}, {"lat": 38.915796, "lon": -77.031838, "is_disabled": 0, "fusion_lon": 0.0, "is_reserved": 0, "name": "6a69a07c56cd8e227f93f50eacb8b1a5", "type": "electric_scooter", "bike_id": "6a69a07c56cd8e227f93f50eacb8b1a5", "rental_uris": {"ios": "https://dc.lft.to/lastmile_qr_scan", "android": "https://dc.lft.to/lastmile_qr_scan"}, "fusion_lat": 0.0}, {"lat": 38.908207, "lon": -77.06377033333334, "is_disabled": 0, "fusion_lon": 0.0, "is_reserved": 0, "name": "2b402f01ed235c1d0964c4856a42e0ac", "type": "electric_scooter", "bike_id": "2b402f01ed235c1d0964c4856a42e0ac", "rental_uris": {"ios": "https://dc.lft.to/lastmile_qr_scan", "android": "https://dc.lft.to/lastmile_qr_scan"}, "fusion_lat": 0.0}, {"lat": 38.90827933333333, "lon": -76.93438183333333, "is_disabled": 0, "fusion_lon": 0.0, "is_reserved": 0, "name": "6276a35ee71929b26147ea023b60d797", "type": "electric_scooter", "bike_id": "6276a35ee71929b26147ea023b60d797", "rental_uris": {"ios": "https://dc.lft.to/lastmile_qr_scan", "android": "https://dc.lft.to/lastmile_qr_scan"}, "fusion_lat": 0.0}, {"lat": 38.907173666666665, "lon": -77.01665383333334, "is_disabled": 0, "fusion_lon": 0.0, "is_reserved": 0, "name": "9c06793a81df457e0408e5a8dfcc06a2", "type": "electric_scooter", "bike_id": "9c06793a81df457e0408e5a8dfcc06a2", "rental_uris": {"ios": "https://dc.lft.to/lastmile_qr_scan", "android": "https://dc.lft.to/lastmile_qr_scan"}, "fusion_lat": 0.0}, {"lat": 38.8907305, "lon": -76.98835833333334, "is_disabled": 0, "fusion_lon": 0.0, "is_reserved": 0, "name": "2ea0e6ce01f96d730d979e60e5953888", "type": "electric_scooter", "bike_id": "2ea0e6ce01f96d730d979e60e5953888", "rental_uris": {"ios": "https://dc.lft.to/lastmile_qr_scan", "android": "https://dc.lft.to/lastmile_qr_scan"}, "fusion_lat": 0.0}, {"lat": 38.88743633333333, "lon": -77.02570166666666, "is_disabled": 0, "fusion_lon": 0.0, "is_reserved": 0, "name": "15aaad7657bddf35fe4597b3d5de7788", "type": "electric_scooter", "bike_id": "15aaad7657bddf35fe4597b3d5de7788", "rental_uris": {"ios": "https://dc.lft.to/lastmile_qr_scan", "android": "https://dc.lft.to/lastmile_qr_scan"}, "fusion_lat": 0.0}, {"lat": 38.92139516666667, "lon": -77.0435705, "is_disabled": 0, "fusion_lon": 0.0, "is_reserved": 0, "name": "2b620ef17b76b63f5cbf3e24909b1eec", "type": "electric_scooter", "bike_id": "2b620ef17b76b63f5cbf3e24909b1eec", "rental_uris": {"ios": "https://dc.lft.to/lastmile_qr_scan", "android": "https://dc.lft.to/lastmile_qr_scan"}, "fusion_lat": 0.0}, {"lat": 38.90025816666667, "lon": -77.037114, "is_disabled": 0, "fusion_lon": 0.0, "is_reserved": 0, "name": "7569f8c127b424694659cd8857443437", "type": "electric_scooter", "bike_id": "7569f8c127b424694659cd8857443437", "rental_uris": {"ios": "https://dc.lft.to/lastmile_qr_scan", "android": "https://dc.lft.to/lastmile_qr_scan"}, "fusion_lat": 0.0}, {"lat": 38.8994935, "lon": -77.04523416666666, "is_disabled": 0, "fusion_lon": 0.0, "is_reserved": 0, "name": "7067acf6ffc7cb4fce0971999efa2ed0", "type": "electric_scooter", "bike_id": "7067acf6ffc7cb4fce0971999efa2ed0", "rental_uris": {"ios": "https://dc.lft.to/lastmile_qr_scan", "android": "https://dc.lft.to/lastmile_qr_scan"}, "fusion_lat": 0.0}, {"lat": 38.896171333333335, "lon": -76.9856995, "is_disabled": 0, "fusion_lon": 0.0, "is_reserved": 0, "name": "63311ec738294eb94c5777c406c20c91", "type": "electric_scooter", "bike_id": "63311ec738294eb94c5777c406c20c91", "rental_uris": {"ios": "https://dc.lft.to/lastmile_qr_scan", "android": "https://dc.lft.to/lastmile_qr_scan"}, "fusion_lat": 0.0}, {"lat": 38.9260715, "lon": -77.02384383333333, "is_disabled": 0, "fusion_lon": 0.0, "is_reserved": 0, "name": "1c8e1f3673c9821e9002db381feb26d8", "type": "electric_scooter", "bike_id": "1c8e1f3673c9821e9002db381feb26d8", "rental_uris": {"ios": "https://dc.lft.to/lastmile_qr_scan", "android": "https://dc.lft.to/lastmile_qr_scan"}, "fusion_lat": 0.0}, {"lat": 38.90272233333334, "lon": -77.01158883333333, "is_disabled": 0, "fusion_lon": 0.0, "is_reserved": 0, "name": "a05a0e82323d42982794f93da40ea7d1", "type": "electric_scooter", "bike_id": "a05a0e82323d42982794f93da40ea7d1", "rental_uris": {"ios": "https://dc.lft.to/lastmile_qr_scan", "android": "https://dc.lft.to/lastmile_qr_scan"}, "fusion_lat": 0.0}, {"lat": 38.899427, "lon": -77.04501383333333, "is_disabled": 0, "fusion_lon": 0.0, "is_reserved": 0, "name": "124ab678c99b83a46557d2ca415d4915", "type": "electric_scooter", "bike_id": "124ab678c99b83a46557d2ca415d4915", "rental_uris": {"ios": "https://dc.lft.to/lastmile_qr_scan", "android": "https://dc.lft.to/lastmile_qr_scan"}, "fusion_lat": 0.0}, {"lat": 38.900013333333334, "lon": -77.04271783333333, "is_disabled": 0, "fusion_lon": 0.0, "is_reserved": 0, "name": "7a0c72447760fe41d90516c7ef0a6388", "type": "electric_bike", "bike_id": "7a0c72447760fe41d90516c7ef0a6388", "rental_uris": {"ios": "https://dc.lft.to/lastmile_qr_scan", "android": "https://dc.lft.to/lastmile_qr_scan"}, "fusion_lat": 0.0}, {"lat": 38.90500433333333, "lon": -77.04340266666667, "is_disabled": 0, "fusion_lon": 0.0, "is_reserved": 0, "name": "b08d4142c83adddefc47f34137cb8b3a", "type": "electric_scooter", "bike_id": "b08d4142c83adddefc47f34137cb8b3a", "rental_uris": {"ios": "https://dc.lft.to/lastmile_qr_scan", "android": "https://dc.lft.to/lastmile_qr_scan"}, "fusion_lat": 0.0}, {"lat": 38.906697333333334, "lon": -77.03483366666667, "is_disabled": 0, "fusion_lon": 0.0, "is_reserved": 0, "name": "f4ff7babe460fdd2c201ec28a1f6b9b6", "type": "electric_scooter", "bike_id": "f4ff7babe460fdd2c201ec28a1f6b9b6", "rental_uris": {"ios": "https://dc.lft.to/lastmile_qr_scan", "android": "https://dc.lft.to/lastmile_qr_scan"}, "fusion_lat": 0.0}, {"lat": 38.92050966666667, "lon": -77.04622916666666, "is_disabled": 0, "fusion_lon": 0.0, "is_reserved": 0, "name": "b87fedafe26ca6f00921b62d866e9a5b", "type": "electric_scooter", "bike_id": "b87fedafe26ca6f00921b62d866e9a5b", "rental_uris": {"ios": "https://dc.lft.to/lastmile_qr_scan", "android": "https://dc.lft.to/lastmile_qr_scan"}, "fusion_lat": 0.0}, {"lat": 38.95647733333333, "lon": -77.00987183333334, "is_disabled": 0, "fusion_lon": 0.0, "is_reserved": 0, "name": "3b6017cbecbca71bc4177c097cd538bb", "type": "electric_scooter", "bike_id": "3b6017cbecbca71bc4177c097cd538bb", "rental_uris": {"ios": "https://dc.lft.to/lastmile_qr_scan", "android": "https://dc.lft.to/lastmile_qr_scan"}, "fusion_lat": 0.0}, {"lat": 38.89930783333333, "lon": -77.04972116666667, "is_disabled": 0, "fusion_lon": 0.0, "is_reserved": 0, "name": "41c10a0ab7b455892f554ab6054ba1de", "type": "electric_scooter", "bike_id": "41c10a0ab7b455892f554ab6054ba1de", "rental_uris": {"ios": "https://dc.lft.to/lastmile_qr_scan", "android": "https://dc.lft.to/lastmile_qr_scan"}, "fusion_lat": 0.0}, {"lat": 38.905643, "lon": -77.02911416666667, "is_disabled": 0, "fusion_lon": 0.0, "is_reserved": 0, "name": "77e7f78dd86383f4c2dd221a78ad4831", "type": "electric_bike", "bike_id": "77e7f78dd86383f4c2dd221a78ad4831", "rental_uris": {"ios": "https://dc.lft.to/lastmile_qr_scan", "android": "https://dc.lft.to/lastmile_qr_scan"}, "fusion_lat": 0.0}, {"lat": 38.902511833333335, "lon": -76.98478533333333, "is_disabled": 0, "fusion_lon": 0.0, "is_reserved": 0, "name": "fdf1269077c5ac8e0f4cfcafebc041cb", "type": "electric_scooter", "bike_id": "fdf1269077c5ac8e0f4cfcafebc041cb", "rental_uris": {"ios": "https://dc.lft.to/lastmile_qr_scan", "android": "https://dc.lft.to/lastmile_qr_scan"}, "fusion_lat": 0.0}, {"lat": 38.902685166666664, "lon": -77.034567, "is_disabled": 0, "fusion_lon": 0.0, "is_reserved": 0, "name": "56e729f01a8ad485b3105684b426fea8", "type": "electric_scooter", "bike_id": "56e729f01a8ad485b3105684b426fea8", "rental_uris": {"ios": "https://dc.lft.to/lastmile_qr_scan", "android": "https://dc.lft.to/lastmile_qr_scan"}, "fusion_lat": 0.0}, {"lat": 38.90893916666667, "lon": -77.03985866666666, "is_disabled": 0, "fusion_lon": 0.0, "is_reserved": 0, "name": "995b21ecd2973285e9b4aed63476301e", "type": "electric_scooter", "bike_id": "995b21ecd2973285e9b4aed63476301e", "rental_uris": {"ios": "https://dc.lft.to/lastmile_qr_scan", "android": "https://dc.lft.to/lastmile_qr_scan"}, "fusion_lat": 0.0},