{"data": {"bikes": [{"fusion_lat": 0.0, "name": "189462c7bf44a7b546074fa6c899d53a", "lon": -77.117065, "rental_uris": {"android": "https://dc.lft.to/lastmile_qr_scan", "ios": "https://dc.lft.to/lastmile_qr_scan"}, "fusion_lon": 0.0, "bike_id": "189462c7bf44a7b546074fa6c899d53a", "is_disabled": 0, "lat": 38.86742366666667, "is_reserved": 0, "type": "electric_bike"}, {"fusion_lat": 0.0, "name": "7bcc7bc3bc073e0bd8d9ca9878934c24", "lon": -77.02272516666666, "rental_uris": {"android": "https://dc.lft.to/lastmile_qr_scan", "ios": "https://dc.lft.to/lastmile_qr_scan"}, "fusion_lon": 0.0, "bike_id": "7bcc7bc3bc073e0bd8d9ca9878934c24", "is_disabled": 0, "lat": 38.901468333333334, "is_reserved": 0, "type": "electric_scooter"}, {"fusion_lat": 0.0, "name": "b0751e40b074bf331b09533f5227e0bf", "lon": -76.99787683333334, "rental_uris": {"android": "https://dc.lft.to/lastmile_qr_scan", "ios": "https://dc.lft.to/lastmile_qr_scan"}, "fusion_lon": 0.0, "bike_id": "b0751e40b074bf331b09533f5227e0bf", "is_disabled": 0, "lat": 38.829175166666666, "is_reserved": 0, "type": "electric_bike"}, {"fusion_lat": 0.0, "name": "6c7b761a4faa18d58e5179cf9f9d7733", "lon": -77.03437966666667, "rental_uris": {"android": "https://dc.lft.to/lastmile_qr_scan", "ios": "https://dc.lft.to/lastmile_qr_scan"}, "fusion_lon": 0.0, "bike_id": "6c7b761a4faa18d58e5179cf9f9d7733", "is_disabled": 0, "lat": 38.918079, "is_reserved": 0, "type": "electric_scooter"}, {"fusion_lat": 0.0, "name": "d34d87cc23f7575ed741cc3aa1c355f8", "lon": -76.94993883333333, "rental_uris": {"android": "https://dc.lft.to/lastmile_qr_scan", "ios": "https://dc.lft.to/lastmile_qr_scan"}, "fusion_lon": 0.0, "bike_id": "d34d87cc23f7575ed741cc3aa1c355f8", "is_disabled": 0, "lat": 38.89366166666667, "is_reserved": 0, "type": "electric_scooter"}, {"fusion_lat": 0.0, "name": "b859578ed9dd3ab26344d3cd60ef82bb", "lon": -77.02692883333333, "rental_uris": {"android": "https://dc.lft.to/lastmile_qr_scan", "ios": "https://dc.lft.to/lastmile_qr_scan"}, "fusion_lon": 0.0, "bike_id": "b859578ed9dd3ab26344d3cd60ef82bb", "is_disabled": 0, "lat": 38.926088, "is_reserved": 0, "type": "electric_scooter"}, {"fusion_lat": 0.0, "name": "865c1f4d3641478727bdee45ce5c6f82", "lon": -77.02712833333334, "rental_uris": {"android": "https://dc.lft.to/lastmile_qr_scan", "ios": "https://dc.lft.to/lastmile_qr_scan"}, "fusion_lon": 0.0, "bike_id": "865c1f4d3641478727bdee45ce5c6f82", "is_disabled": 0, "lat": 38.896600666666664, "is_reserved": 0, "type": "electric_scooter"}, {"fusion_lat": 0.0, "name": "77fbaa3aea8d0f092e576c9c5dd7e3f2", "lon": -77.03992666666667, "rental_uris": {"android": "https://dc.lft.to/lastmile_qr_scan", "ios": "https://dc.lft.to/lastmile_qr_scan"}, "fusion_lon": 0.0, "bike_id": "77fbaa3aea8d0f092e576c9c5dd7e3f2", "is_disabled": 0, "lat": 38.8886735, "is_reserved": 0, "type": "electric_scooter"}, {"fusion_lat": 0.0, "name": "0a219fb13b30162dec6c3ba5054d3d3f", "lon": -77.03091733333333, "rental_uris": {"android": "https://dc.lft.to/lastmile_qr_scan", "ios": "https://dc.lft.to/lastmile_qr_scan"}, "fusion_lon": 0.0, "bike_id": "0a219fb13b30162dec6c3ba5054d3d3f", "is_disabled": 0, "lat": 38.91053766666667, "is_reserved": 0, "type": "electric_scooter"}, {"fusion_lat": 0.0, "name": "bcb2dcd46970637d15b8c10edf9bcb45", "lon": -77.03207816666666, "rental_uris": {"android": "https://dc.lft.to/lastmile_qr_scan", "ios": "https://dc.lft.to/lastmile_qr_scan"}, "fusion_lon": 0.0, "bike_id": "bcb2dcd46970637d15b8c10edf9bcb45", "is_disabled": 0, "lat": 38.91768833333333, "is_reserved": 0, "type": "electric_scooter"}, {"fusion_lat": 0.0, "name": "61d5072ed3133f8e6a1e46945ab391a4", "lon": -77.03536983333333, "rental_uris": {"android": "https://dc.lft.to/lastmile_qr_scan", "ios": "https://dc.lft.to/lastmile_qr_scan"}, "fusion_lon": 0.0, "bike_id": "61d5072ed3133f8e6a1e46945ab391a4", "is_disabled": 0, "lat": 38.918361, "is_reserved": 0, "type": "electric_scooter"}, {"fusion_lat": 0.0, "name": "97f1631b946793f1c16d812ea340fa68", "lon": -77.023117, "rental_uris": {"android": "https://dc.lft.to/lastmile_qr_scan", "ios": "https://dc.lft.to/lastmile_qr_scan"}, "fusion_lon": 0.0, "bike_id": "97f1631b946793f1c16d812ea340fa68", "is_disabled": 0, "lat": 38.89478916666667, "is_reserved": 0, "type": "electric_scooter"}, {"fusion_lat": 0.0, "name": "14e660d36874a964af3e41de54a29dfb", "lon": -77.05137583333334, "rental_uris": {"android": "https://dc.lft.to/lastmile_qr_scan", "ios": "https://dc.lft.to/lastmile_qr_scan"}, "fusion_lon": 0.0, "bike_id": "14e660d36874a964af3e41de54a29dfb", "is_disabled": 0, "lat": 38.9253175, "is_reserved": 0, "type": "electric_scooter"}, {"fusion_lat": 0.0, "name": "b08a27249e9814425ae6f8bc96de24b4", "lon": -77.01996, "rental_uris": {"android": "https://dc.lft.to/lastmile_qr_scan", "ios": "https://dc.lft.to/lastmile_qr_scan"}, "fusion_lon": 0.0, "bike_id": "b08a27249e9814425ae6f8bc96de24b4", "is_disabled": 0, "lat": 38.966294166666664, "is_reserved": 0, "type": "electric_scooter"}, {"fusion_lat": 0.0, "name": "964d1189b32bb21d1cd0825ca92e45ad", "lon": -77.00581333333334, "rental_uris": {"android": "https://dc.lft.to/lastmile_qr_scan", "ios": "https://dc.lft.to/lastmile_qr_scan"}, "fusion_lon": 0.0, "bike_id": "964d1189b32bb21d1cd0825ca92e45ad", "is_disabled": 0, "lat": 38.90617983333333, "is_reserved": 0, "type": "electric_scooter"}, {"fusion_lat": 0.0, "name": "3fc4cab3958bf23d8371930acb8a977c", "lon": -76.98356816666667, "rental_uris": {"android": "https://dc.lft.to/lastmile_qr_scan", "ios": "https://dc.lft.to/lastmile_qr_scan"}, "fusion_lon": 0.0, "bike_id": "3fc4cab3958bf23d8371930acb8a977c", "is_disabled": 0, "lat": 38.9153505, "is_reserved": 0, "type": "electric_scooter"}, {"fusion_lat": 0.0, "name": "ebf538112d8b1c0e6aa5f041d7b87092", "lon": -76.994938, "rental_uris": {"android": "https://dc.lft.to/lastmile_qr_scan", "ios": "https://dc.lft.to/lastmile_qr_scan"}, "fusion_lon": 0.0, "bike_id": "ebf538112d8b1c0e6aa5f041d7b87092", "is_disabled": 0, "lat": 38.930459, "is_reserved": 0, "type": "electric_scooter"}, {"fusion_lat": 0.0, "name": "c92a2526fc7fe9b369e627f0d8be643b", "lon": -77.03075783333334, "rental_uris": {"android": "https://dc.lft.to/lastmile_qr_scan", "ios": "https://dc.lft.to/lastmile_qr_scan"}, "fusion_lon": 0.0, "bike_id": "c92a2526fc7fe9b369e627f0d8be643b", "is_disabled": 0, "lat": 38.880335333333335, "is_reserved": 0, "type": "electric_scooter"}, {"fusion_lat": 0.0, "name": "2d4776cdb5eff702bfdefd4fa9cee798", "lon": -76.99499383333334, "rental_uris": {"android": "https://dc.lft.to/lastmile_qr_scan", "ios": "https://dc.lft.to/lastmile_qr_scan"}, "fusion_lon": 0.0, "bike_id": "2d4776cdb5eff702bfdefd4fa9cee798", "is_disabled": 0, "lat": 38.876826, "is_reserved": 0, "type": "electric_scooter"}, {"fusion_lat": 0.0, "name": "6e17b07b13f3a8cce5221c7948432ce9", "lon": -77.02264366666667, "rental_uris": {"android": "https://dc.lft.to/lastmile_qr_scan", "ios": "https://dc.lft.to/lastmile_qr_scan"}, "fusion_lon": 0.0, "bike_id": "6e17b07b13f3a8cce5221c7948432ce9", "is_disabled": 0, "lat": 38.92681, "is_reserved": 0, "type": "electric_scooter"}, {"fusion_lat": 0.0, "name": "5f52835021c4f6751e6df8163786ed28", "lon": -77.03337833333333, "rental_uris": {"android": "https://dc.lft.to/lastmile_qr_scan", "ios": "https://dc.lft.to/lastmile_qr_scan"}, "fusion_lon": 0.0, "bike_id": "5f52835021c4f6751e6df8163786ed28", "is_disabled": 0, "lat": 38.89839966666667, "is_reserved": 0, "type": "electric_scooter"}, {"fusion_lat": 0.0, "name": "8bfa64ef3b42c4234c46bb54a3cf40de", "lon": -77.05736633333333, "rental_uris": {"android": "https://dc.lft.to/lastmile_qr_scan", "ios": "https://dc.lft.to/lastmile_qr_scan"}, "fusion_lon": 0.0, "bike_id": "8bfa64ef3b42c4234c46bb54a3cf40de", "is_disabled": 0, "lat": 38.933589833333336, "is_reserved": 0, "type": "electric_scooter"}, {"fusion_lat": 0.0, "name": "182a247d728f22ef535b490c92e5b345", "lon": -77.10721516666666, "rental_uris": {"android": "https://dc.lft.to/lastmile_qr_scan", "ios": "https://dc.lft.to/lastmile_qr_scan"}, "fusion_lon": 0.0, "bike_id": "182a247d728f22ef535b490c92e5b345", "is_disabled": 0, "lat": 38.96484266666667, "is_reserved": 0, "type": "electric_bike"}, {"fusion_lat": 0.0, "name": "cd2cf0384da41aedfdd25fdb3b354253", "lon": -76.9996925, "rental_uris": {"android": "https://dc.lft.to/lastmile_qr_scan", "ios": "https://dc.lft.to/lastmile_qr_scan"}, "fusion_lon": 0.0, "bike_id": "cd2cf0384da41aedfdd25fdb3b354253", "is_disabled": 0, "lat": 38.95333683333333, "is_reserved": 0, "type": "electric_scooter"}, {"fusion_lat": 0.0, "name": "e2957d72e8ef1dde0366ed6948d8bc84", "lon": -77.01191983333334, "rental_uris": {"android": "https://dc.lft.to/lastmile_qr_scan", "ios": "https://dc.lft.to/lastmile_qr_scan"}, "fusion_lon": 0.0, "bike_id": "e2957d72e8ef1dde0366ed6948d8bc84", "is_disabled": 0, "lat": 38.9001905, "is_reserved": 0, "type": "electric_scooter"}, {"fusion_lat": 0.0, "name": "93ff1221852a627df57582c746d9a310", "lon": -77.0307575, "rental_uris": {"android": "https://dc.lft.to/lastmile_qr_scan", "ios": "https://dc.lft.to/lastmile_qr_scan"}, "fusion_lon": 0.0, "bike_id": "93ff1221852a627df57582c746d9a310", "is_disabled": 0, "lat": 38.922367666666666, "is_reserved": 0, "type": "electric_scooter"}, {"fusion_lat": 0.0, "name": "ce6f22902b9e62282069ff06fdc24cce", "lon": -77.03181333333333, "rental_uris": {"android": "https://dc.lft.to/lastmile_qr_scan", "ios": "https://dc.lft.to/lastmile_qr_scan"}, "fusion_lon": 0.0, "bike_id": "ce6f22902b9e62282069ff06fdc24cce", "is_disabled": 0, "lat": 38.90943, "is_reserved": 0, "type": "electric_scooter"}, {"fusion_lat": 0.0, "name": "807c179eedc89c5384545030dce774f9", "lon": -76.9740955, "rental_uris": {"android": "https://dc.lft.to/lastmile_qr_scan", "ios": "https://dc.lft.to/lastmile_qr_scan"}, "fusion_lon": 0.0, "bike_id": "807c179eedc89c5384545030dce774f9", "is_disabled": 0, "lat": 38.90239566666666, "is_reserved": 0, "type": "electric_scooter"}, {"fusion_lat": 0.0, "name": "84dbbbf8c54fd4ff0c754d58de0b1184", "lon": -77.04688, "rental_uris": {"android": "https://dc.lft.to/lastmile_qr_scan", "ios": "https://dc.lft.to/lastmile_qr_scan"}, "fusion_lon": 0.0, "bike_id": "84dbbbf8c54fd4ff0c754d58de0b1184", "is_disabled": 0, "lat": 38.90564533333333, "is_reserved": 0, "type": "electric_scooter"}, {"fusion_lat": 0.0, "name": "53ecafcc3b08e136e4885bcad09f153c", "lon": -77.02482333333333, "rental_uris": {"android": "https://dc.lft.to/lastmile_qr_scan", "ios": "https://dc.lft.to/lastmile_qr_scan"}, "fusion_lon": 0.0, "bike_id": "53ecafcc3b08e136e4885bcad09f153c", "is_disabled": 0, "lat": 38.93875533333333, "is_reserved": 0, "type": "electric_scooter"}, {"fusion_lat": 0.0, "name": "9cc012ef6e84151416d3bc1b50a00035", "lon": -77.00562533333333, "rental_uris": {"android": "https://dc.lft.to/lastmile_qr_scan", "ios": "https://dc.lft.to/lastmile_qr_scan"}, "fusion_lon": 0.0, "bike_id": "9cc012ef6e84151416d3bc1b50a00035", "is_disabled": 0, "lat": 38.88496966666666, "is_reserved": 0, "type": "electric_scooter"}, {"fusion_lat": 0.0, "name": "b115389af8a2fa074e989aa6beb31563", "lon": -76.907404, "rental_uris": {"android": "https://dc.lft.to/lastmile_qr_scan", "ios": "https://dc.lft.to/lastmile_qr_scan"}, "fusion_lon": 0.0, "bike_id": "b115389af8a2fa074e989aa6beb31563", "is_disabled": 0, "lat": 38.89613116666666, "is_reserved": 0, "type": "electric_bike"}, {"fusion_lat": 0.0, "name": "30a2413aa370f9df67822954e23ee7e7", "lon": -76.98494683333334, "rental_uris": {"android": "https://dc.lft.to/lastmile_qr_scan", "ios": "https://dc.lft.to/lastmile_qr_scan"}, "fusion_lon": 0.0, "bike_id": "30a2413aa370f9df67822954e23ee7e7", "is_disabled": 0, "lat": 38.8665085, "is_reserved": 0, "type": "electric_scooter"}, {"fusion_lat": 0.0, "name": "e5b11ea28a9a1399719b583fc219c3b2", "lon": -77.01596966666666, "rental_uris": {"android": "https://dc.lft.to/lastmile_qr_scan", "ios": "https://dc.lft.to/lastmile_qr_scan"}, "fusion_lon": 0.0, "bike_id": "e5b11ea28a9a1399719b583fc219c3b2", "is_disabled": 0, "lat": 38.87471383333333, "is_reserved": 0, "type": "electric_scooter"}, {"fusion_lat": 0.0, "name": "7415e9242f7d5d456394f7c86a2e7a2a", "lon": -77.02871066666667, "rental_uris": {"android": "https://dc.lft.to/lastmile_qr_scan", "ios": "https://dc.lft.to/lastmile_qr_scan"}, "fusion_lon": 0.0, "bike_id": "7415e9242f7d5d456394f7c86a2e7a2a", "is_disabled": 0, "lat": 38.9258085, "is_reserved": 0, "type": "electric_scooter"}, {"fusion_lat": 0.0, "name": "b064dcd6e198985238a5225a56431ade", "lon": -77.05476516666667, "rental_uris": {"android": "https://dc.lft.to/lastmile_qr_scan", "ios": "https://dc.lft.to/lastmile_qr_scan"}, "fusion_lon": 0.0, "bike_id": "b064dcd6e198985238a5225a56431ade", "is_disabled": 0, "lat": 38.897823, "is_reserved": 0, "type": "electric_scooter"}, {"fusion_lat": 0.0, "name": "95750261d606a45f5ecc088a314672ec", "lon": -77.01593116666666, "rental_uris": {"android": "https://dc.lft.to/lastmile_qr_scan", "ios": "https://dc.lft.to/lastmile_qr_scan"}, "fusion_lon": 0.0, "bike_id": "95750261d606a45f5ecc088a314672ec", "is_disabled": 0, "lat": 38.90153016666667, "is_reserved": 0, "type": "electric_scooter"}, {"fusion_lat": 0.0, "name": "2e6e56bf19cd48e1953895502b76d04d", "lon": -77.0181275, "rental_uris": {"android": "https://dc.lft.to/lastmile_qr_scan", "ios": "https://dc.lft.to/lastmile_qr_scan"}, "fusion_lon": 0.0, "bike_id": "2e6e56bf19cd48e1953895502b76d04d", "is_disabled": 0, "lat": 38.97376216666667, "is_reserved": 0, "type": "electric_bike"}, {"fusion_lat": 0.0, "name": "a0fef9e9ea12d4bc1cdafedfbda31878", "lon": -77.0048025, "rental_uris": {"android": "https://dc.lft.to/lastmile_qr_scan", "ios": "https://dc.lft.to/lastmile_qr_scan"}, "fusion_lon": 0.0, "bike_id": "a0fef9e9ea12d4bc1cdafedfbda31878", "is_disabled": 0, "lat": 38.880510666666666, "is_reserved": 0, "type": "electric_scooter"}, {"fusion_lat": 0.0, "name": "868f9c0780e3b95065355001e650ba41", "lon": -77.00968316666666, "rental_uris": {"android": "https://dc.lft.to/lastmile_qr_scan", "ios": "https://dc.lft.to/lastmile_qr_scan"}, "fusion_lon": 0.0, "bike_id": "868f9c0780e3b95065355001e650ba41", "is_disabled": 0, "lat": 38.91698566666667, "is_reserved": 0, "type": "electric_scooter"}, {"fusion_lat": 0.0, "name": "baf0efba22f06f20d2c5dc9f2091c254", "lon": -77.04678916666667, "rental_uris": {"android": "https://dc.lft.to/lastmile_qr_scan", "ios": "https://dc.lft.to/lastmile_qr_scan"}, "fusion_lon": 0.0, "bike_id": "baf0efba22f06f20d2c5dc9f2091c254", "is_disabled": 0, "lat": 38.89561066666667, "is_reserved": 0, "type": "electric_scooter"}, {"fusion_lat": 0.0, "name": "fc5de332b0cf377b26d75000659937f6", "lon": -77.04496316666666, "rental_uris": {"android": "https://dc.lft.to/lastmile_qr_scan", "ios": "https://dc.lft.to/lastmile_qr_scan"}, "fusion_lon": 0.0, "bike_id": "fc5de332b0cf377b26d75000659937f6", "is_disabled": 0, "lat": 38.90604616666667, "is_reserved": 0, "type": "electric_scooter"}, {"fusion_lat": 0.0, "name": "fb914ca3181fd0bd77df91cfd3ef4196", "lon": -77.0154865, "rental_uris": {"android": "https://dc.lft.to/lastmile_qr_scan", "ios": "https://dc.lft.to/lastmile_qr_scan"}, "fusion_lon": 0.0, "bike_id": "fb914ca3181fd0bd77df91cfd3ef4196", "is_disabled": 0, "lat": 38.930094833333335, "is_reserved": 0, "type": "electric_scooter"}, {"fusion_lat": 0.0, "name": "c473b7893bd2ffbe3483a6050aa8737c", "lon": -77.00459116666667, "rental_uris": {"android": "https://dc.lft.to/lastmile_qr_scan", "ios": "https://dc.lft.to/lastmile_qr_scan"}, "fusion_lon": 0.0, "bike_id": "c473b7893bd2ffbe3483a6050aa8737c", "is_disabled": 0, "lat": 38.914411333333334, "is_reserved": 0, "type": "electric_scooter"}, {"fusion_lat": 0.0, "name": "23374b9e734b559233800ad2ce320b03", "lon": -76.941544, "rental_uris": {"android": "https://dc.lft.to/lastmile_qr_scan", "ios": "https://dc.lft.to/lastmile_qr_scan"}, "fusion_lon": 0.0, "bike_id": "23374b9e734b559233800ad2ce320b03", "is_disabled": 0, "lat": 38.883603666666666, "is_reserved": 0, "type": "electric_scooter"}, {"fusion_lat": 0.0, "name": "95a3b1d58f9bc0db786bf93dd1e8b8dd", "lon": -77.03220433333334, "rental_uris": {"android": "https://dc.lft.to/lastmile_qr_scan", "ios": "https://dc.lft.to/lastmile_qr_scan"}, "fusion_lon": 0.0, "bike_id": "95a3b1d58f9bc0db786bf93dd1e8b8dd", "is_disabled": 0, "lat": 38.90962566666666, "is_reserved": 0, "type": "electric_scooter"}, {"fusion_lat": 0.0, "name": "e608974cdd756ada93e4ff92212f836b", "lon": -77.04014233333334, "rental_uris": {"android": "https://dc.lft.to/lastmile_qr_scan", "ios": "https://dc.lft.to/lastmile_qr_scan"}, "fusion_lon": 0.0, "bike_id": "e608974cdd756ada93e4ff92212f836b", "is_disabled": 0, "lat": 38.907233, "is_reserved": 0, "type": "electric_scooter"}, {"fusion_lat": 0.0, "name": "2bad89f7ad4e94ec8f3d697e7a22fa4b", "lon": -77.02996233333333, "rental_uris": {"android": "https://dc.lft.to/lastmile_qr_scan", "ios": "https://dc.lft.to/lastmile_qr_scan"}, "fusion_lon": 0.0, "bike_id": "2bad89f7ad4e94ec8f3d697e7a22fa4b", "is_disabled": 0, "lat": 38.9224625, "is_reserved": 0, "type": "electric_scooter"}, {"fusion_lat": 0.0, "name": "9895c8069b809c19bcfb88c69d413258", "lon": -77.034347, "rental_uris": {"android": "https://dc.lft.to/lastmile_qr_scan", "ios": "https://dc.lft.to/lastmile_qr_scan"}, "fusion_lon": 0.0, "bike_id": "9895c8069b809c19bcfb88c69d413258", "is_disabled": 0, "lat": 38.90279116666667, "is_reserved": 0, "type": "electric_scooter"}, {"fusion_lat": 0.0, "name": "16dbb3c2ae10b1b6bf31b462b1f86f8c", "lon": -77.01990666666667, "rental_uris": {"android": "https://dc.lft.to/lastmile_qr_scan", "ios": "https://dc.lft.to/lastmile_qr_scan"}, "fusion_lon": 0.0, "bike_id": "16dbb3c2ae10b1b6bf31b462b1f86f8c", "is_disabled": 0, "lat": 38.91356416666667, "is_reserved": 0, "type": "electric_scooter"}, {"fusion_lat": 0.0, "name": "46dbf9226dafabd82fa68d72bcc0f3b5", "lon": -77.019617, "rental_uris": {"android": "https://dc.lft.to/lastmile_qr_scan", "ios": "https://dc.lft.to/lastmile_qr_scan"}, "fusion_lon": 0.0, "bike_id": "46dbf9226dafabd82fa68d72bcc0f3b5", "is_disabled": 0, "lat": 38.9221375, "is_reserved": 0, "type": "electric_scooter"}, {"fusion_lat": 0.0, "name": "f54f985c0b299142d686f953b2af1423", "lon": -76.98199833333334, "rental_uris": {"android": "https://dc.lft.to/lastmile_qr_scan", "ios": "https://dc.lft.to/lastmile_qr_scan"}, "fusion_lon": 0.0, "bike_id": "f54f985c0b299142d686f953b2af1423", "is_disabled": 0, "lat": 38.899412833333336, "is_reserved": 0, "type": "electric_scooter"}, {"fusion_lat": 0.0, "name": "b71471e551699aadb919cb2b73ffcbfd", "lon": -77.01505166666666, "rental_uris": {"android": "https://dc.lft.to/lastmile_qr_scan", "ios": "https://dc.lft.to/lastmile_qr_scan"}, "fusion_lon": 0.0, "bike_id": "b71471e551699aadb919cb2b73ffcbfd", "is_disabled": 0, "lat": 38.885119, "is_reserved": 0, "type": "electric_scooter"}, {"fusion_lat": 0.0, "name": "dd23ee193fd9b78a82dc2931eb56864e", "lon": -77.09959666666667, "rental_uris": {"android": "https://dc.lft.to/lastmile_qr_scan", "ios": "https://dc.lft.to/lastmile_qr_scan"}, "fusion_lon": 0.0, "bike_id": "dd23ee193fd9b78a82dc2931eb56864e", "is_disabled": 0, "lat": 38.85792716666667, "is_reserved": 0, "type": "electric_bike"}, {"fusion_lat": 0.0, "name": "8e64aef917b18ec300c48d49f45d014d", "lon": -77.042043, "rental_uris": {"android": "https://dc.lft.to/lastmile_qr_scan", "ios": "https://dc.lft.to/lastmile_qr_scan"}, "fusion_lon": 0.0, "bike_id": "8e64aef917b18ec300c48d49f45d014d", "is_disabled": 0, "lat": 38.92713716666667, "is_reserved": 0, "type": "electric_scooter"}, {"fusion_lat": 0.0, "name": "b5d030fc30dd4425ab22b624cd905089", "lon": -77.02790383333334, "rental_uris": {"android": "https://dc.lft.to/lastmile_qr_scan", "ios": "https://dc.lft.to/lastmile_qr_scan"}, "fusion_lon": 0.0, "bike_id": "b5d030fc30dd4425ab22b624cd905089", "is_disabled": 0, "lat": 38.89542466666666, "is_reserved": 0, "type": "electric_scooter"}, {"fusion_lat": 0.0, "name": "be68c1ae7e048af7b3b798c8fd7e6bf5", "lon": -77.03657333333334, "rental_uris": {"android": "https://dc.lft.to/lastmile_qr_scan", "ios": "https://dc.lft.to/lastmile_qr_scan"}, "fusion_lon": 0.0, "bike_id": "be68c1ae7e048af7b3b798c8fd7e6bf5", "is_disabled": 0, "lat": 38.903464666666665, "is_reserved": 0, "type": "electric_scooter"}, {"fusion_lat": 0.0, "name": "49bc6d2c09e5d0d1236bf1b21d2e4279", "lon": -77.033804, "rental_uris": {"android": "https://dc.lft.to/lastmile_qr_scan", "ios": "https://dc.lft.to/lastmile_qr_scan"}, "fusion_lon": 0.0, "bike_id": "49bc6d2c09e5d0d1236bf1b21d2e4279", "is_disabled": 0, "lat": 38.91113516666667, "is_reserved": 0, "type": "electric_scooter"}, {"fusion_lat": 0.0, "name": "33e974509d687ee988c8be7ef3f4d6e5", "lon": -76.996982, "rental_uris": {"android": "https://dc.lft.to/lastmile_qr_scan", "ios": "https://dc.lft.to/lastmile_qr_scan"}, "fusion_lon": 0.0, "bike_id": "33e974509d687ee988c8be7ef3f4d6e5", "is_disabled": 0, "lat": 38.884826833333335, "is_reserved": 0, "type": "electric_scooter"}, {"fusion_lat": 0.0, "name": "e5c9eb15a4f327eb7657053d9c4acdd0", "lon": -77.028147, "rental_uris": {"android": "https://dc.lft.to/lastmile_qr_scan", "ios": "https://dc.lft.to/lastmile_qr_scan"}, "fusion_lon": 0.0, "bike_id": "e5c9eb15a4f327eb7657053d9c4acdd0", "is_disabled": 0, "lat": 38.911994666666665, "is_reserved": 0, "type": "electric_scooter"}, {"fusion_lat": 0.0, "name": "5cf8e8e304951beb9cf3d6e5705579ad", "lon": -77.04658816666667, "rental_uris": {"android": "https://dc.lft.to/lastmile_qr_scan", "ios": "https://dc.lft.to/lastmile_qr_scan"}, "fusion_lon": 0.0, "bike_id": "5cf8e8e304951beb9cf3d6e5705579ad", "is_disabled": 0, "lat": 38.90241833333333, "is_reserved": 0, "type": "electric_bike"}, {"fusion_lat": 0.0, "name": "e19aa89b7c02076ca0e6eed8ddb4913a", "lon": -77.00229933333334, "rental_uris": {"android": "https://dc.lft.to/lastmile_qr_scan", "ios": "https://dc.lft.to/lastmile_qr_scan"}, "fusion_lon": 0.0, "bike_id": "e19aa89b7c02076ca0e6eed8ddb4913a", "is_disabled": 0, "lat": 38.9024555, "is_reserved": 0, "type": "electric_scooter"}, {"fusion_lat": 0.0, "name": "f9ccb5d4905b69603c7a56dbad2404e0", "lon": -77.03648866666667, "rental_uris": {"android": "https://dc.lft.to/lastmile_qr_scan", "ios": "https://dc.lft.to/lastmile_qr_scan"}, "fusion_lon": 0.0, "bike_id": "f9ccb5d4905b69603c7a56dbad2404e0", "is_disabled": 0, "lat": 38.90268966666667, "is_reserved": 0, "type": "electric_scooter"}, {"fusion_lat": 0.0, "name": "80c0aedd694adf6ac2d1a8d99e3deb23", "lon": -77.04998166666667, "rental_uris": {"android": "https://dc.lft.to/lastmile_qr_scan", "ios": "https://dc.lft.to/lastmile_qr_scan"}, "fusion_lon": 0.0, "bike_id": "80c0aedd694adf6ac2d1a8d99e3deb23", "is_disabled": 0, "lat": 38.892266, "is_reserved": 0, "type": "electric_scooter"}, {"fusion_lat": 0.0, "name": "3a8864524883804d78be549078742f6e", "lon": -76.990181, "rental_uris": {"android": "https://dc.lft.to/lastmile_qr_scan", "ios": "https://dc.lft.to/lastmile_qr_scan"}, "fusion_lon": 0.0, "bike_id": "3a8864524883804d78be549078742f6e", "is_disabled": 0, "lat": 38.8826015, "is_reserved": 0, "type": "electric_bike"}, {"fusion_lat": 0.0, "name": "22e0b7378e26b61b786714df315d9b68", "lon": -77.02487216666667, "rental_uris": {"android": "https://dc.lft.to/lastmile_qr_scan", "ios": "https://dc.lft.to/lastmile_qr_scan"}, "fusion_lon": 0.0, "bike_id": "22e0b7378e26b61b786714df315d9b68", "is_disabled": 0, "lat": 38.93854366666667, "is_reserved": 0, "type": "electric_bike"}, {"fusion_lat": 0.0, "name": "ddd2dad1a994a7ec537ac78780aea08c", "lon": -77.001664, "rental_uris": {"android": "https://dc.lft.to/lastmile_qr_scan", "ios": "https://dc.lft.to/lastmile_qr_scan"}, "fusion_lon": 0.0, "bike_id": "ddd2dad1a994a7ec537ac78780aea08c", "is_disabled": 0, "lat": 38.90260216666667, "is_reserved": 0, "type": "electric_scooter"}, {"fusion_lat": 0.0, "name": "c533522462179ac35a08e107805076b2", "lon": -77.03697683333333, "rental_uris": {"android": "https://dc.lft.to/lastmile_qr_scan", "ios": "https://dc.lft.to/lastmile_qr_scan"}, "fusion_lon": 0.0, "bike_id": "c533522462179ac35a08e107805076b2", "is_disabled": 0, "lat": 38.91664633333333, "is_reserved": 0, "type": "electric_scooter"}, {"fusion_lat": 0.0, "name": "dcbcdf98cb3d44f8e50b81e96f1178f6", "lon": -77.024808, "rental_uris": {"android": "https://dc.lft.to/lastmile_qr_scan", "ios": "https://dc.lft.to/lastmile_qr_scan"}, "fusion_lon": 0.0, "bike_id": "dcbcdf98cb3d44f8e50b81e96f1178f6", "is_disabled": 0, "lat": 38.9309785, "is_reserved": 0, "type": "electric_scooter"}, {"fusion_lat": 0.0, "name": "8c04c2ab64a54efe1f9fb4a7bfb9ccd6", "lon": -77.071627, "rental_uris": {"android": "https://dc.lft.to/lastmile_qr_scan", "ios": "https://dc.lft.to/lastmile_qr_scan"}, "fusion_lon": 0.0, "bike_id": "8c04c2ab64a54efe1f9fb4a7bfb9ccd6", "is_disabled": 0, "lat": 38.907803333333334, "is_reserved": 0, "type": "electric_bike"}, {"fusion_lat": 0.0, "name": "21eb75cf964d2cad0dbab3865e2cb249", "lon": -76.91209683333334, "rental_uris": {"android": "https://dc.lft.to/lastmile_qr_scan", "ios": "https://dc.lft.to/lastmile_qr_scan"}, "fusion_lon": 0.0, "bike_id": "21eb75cf964d2cad0dbab3865e2cb249", "is_disabled": 0, "lat": 38.9031115, "is_reserved": 0, "type": "electric_bike"}, {"fusion_lat": 0.0, "name": "4ca038bf47937cc2770a1c91ebf96ce3", "lon": -77.02833783333334, "rental_uris": {"android": "https://dc.lft.to/lastmile_qr_scan", "ios": "https://dc.lft.to/lastmile_qr_scan"}, "fusion_lon": 0.0, "bike_id": "4ca038bf47937cc2770a1c91ebf96ce3", "is_disabled": 0, "lat": 38.93202983333333, "is_reserved": 0, "type": "electric_scooter"}, {"fusion_lat": 0.0, "name": "1bf4aab390babcf9a2231515752c4d97", "lon": -77.03525316666666, "rental_uris": {"android": "https://dc.lft.to/lastmile_qr_scan", "ios": "https://dc.lft.to/lastmile_qr_scan"}, "fusion_lon": 0.0, "bike_id": "1bf4aab390babcf9a2231515752c4d97", "is_disabled": 0, "lat": 38.917043166666666, "is_reserved": 0, "type": "electric_scooter"}, {"fusion_lat": 0.0, "name": "04c24c0ffc3ee98a370da8133e9aac64", "lon": -76.96508733333333, "rental_uris": {"android": "https://dc.lft.to/lastmile_qr_scan", "ios": "https://dc.lft.to/lastmile_qr_scan"}, "fusion_lon": 0.0, "bike_id": "04c24c0ffc3ee98a370da8133e9aac64", "is_disabled": 0, "lat": 38.876512, "is_reserved": 0, "type": "electric_scooter"}, {"fusion_lat": 0.0, "name": "6881382a13ff1148c38539c28c56f7d1", "lon": -76.98706733333333, "rental_uris": {"android": "https://dc.lft.to/lastmile_qr_scan", "ios": "https://dc.lft.to/lastmile_qr_scan"}, "fusion_lon": 0.0, "bike_id": "6881382a13ff1148c38539c28c56f7d1", "is_disabled": 0, "lat": 38.866967333333335, "is_reserved": 0, "type": "electric_scooter"}, {"fusion_lat": 0.0, "name": "0555372238ce15f50d16dfd9e2d9a435", "lon": -76.97739533333333, "rental_uris": {"android": "https://dc.lft.to/lastmile_qr_scan", "ios": "https://dc.lft.to/lastmile_qr_scan"}, "fusion_lon": 0.0, "bike_id": "0555372238ce15f50d16dfd9e2d9a435", "is_disabled": 0, "lat": 38.864672666666664, "is_reserved": 0, "type": "electric_scooter"}, {"fusion_lat": 0.0, "name": "c79177a83b76eadd56c4dea69a55c49d", "lon": -77.0416255, "rental_uris": {"android": "https://dc.lft.to/lastmile_qr_scan", "ios": "https://dc.lft.to/lastmile_qr_scan"}, "fusion_lon": 0.0, "bike_id": "c79177a83b76eadd56c4dea69a55c49d", "is_disabled": 0, "lat": 38.916459833333334, "is_reserved": 0, "type": "electric_scooter"}, {"fusion_lat": 0.0, "name": "29c8faa73e7e5ea7ef0c49509c7e8ae5", "lon": -77.00604166666666, "rental_uris": {"android": "https://dc.lft.to/lastmile_qr_scan", "ios": "https://dc.lft.to/lastmile_qr_scan"}, "fusion_lon": 0.0, "bike_id": "29c8faa73e7e5ea7ef0c49509c7e8ae5", "is_disabled": 0, "lat": 38.875720333333334, "is_reserved": 0, "type": "electric_scooter"}, {"fusion_lat": 0.0, "name": "27504b40da89df5e061ca7834201c4a2", "lon": -77.007782, "rental_uris": {"android": "https://dc.lft.to/lastmile_qr_scan", "ios": "https://dc.lft.to/lastmile_qr_scan"}, "fusion_lon": 0.0, "bike_id": "27504b40da89df5e061ca7834201c4a2", "is_disabled": 0, "lat": 38.897321, "is_reserved": 0, "type": "electric_scooter"}, {"fusion_lat": 0.0, "name": "fae4c80af3b80c2dc9b620592b4891a1", "lon": -77.018756, "rental_uris": {"android": "https://dc.lft.to/lastmile_qr_scan", "ios": "https://dc.lft.to/lastmile_qr_scan"}, "fusion_lon": 0.0, "bike_id": "fae4c80af3b80c2dc9b620592b4891a1", "is_disabled": 0, "lat": 38.93204583333333, "is_reserved": 0, "type": "electric_bike"}, {"fusion_lat": 0.0, "name": "b19c02de1842548c913c14d98c6631cf", "lon": -77.03706316666667, "rental_uris": {"android": "https://dc.lft.to/lastmile_qr_scan", "ios": "https://dc.lft.to/lastmile_qr_scan"}, "fusion_lon": 0.0, "bike_id": "b19c02de1842548c913c14d98c6631cf", "is_disabled": 0, "lat": 38.92830716666667, "is_reserved": 0, "type": "electric_scooter"}, {"fusion_lat": 0.0, "name": "5f3255d3294e7bab9a2895626c9b09dc", "lon": -77.01543233333334, "rental_uris": {"android": "https://dc.lft.to/lastmile_qr_scan", "ios": "https://dc.lft.to/lastmile_qr_scan"}, "fusion_lon": 0.0, "bike_id": "5f3255d3294e7bab9a2895626c9b09dc", "is_disabled": 0, "lat": 38.89168866666667, "is_reserved": 0, "type": "electric_scooter"}, {"fusion_lat": 0.0, "name": "831313c7deb67d32ed89937f4934fddb", "lon": -77.01287783333333, "rental_uris": {"android": "https://dc.lft.to/lastmile_qr_scan", "ios": "https://dc.lft.to/lastmile_qr_scan"}, "fusion_lon": 0.0, "bike_id": "831313c7deb67d32ed89937f4934fddb", "is_disabled": 0, "lat": 38.951538666666664, "is_reserved": 0, "type": "electric_bike"}, {"fusion_lat": 0.0, "name": "d3e0b89fb65ef13e7dec9188c9b8ae49", "lon": -76.97213216666667, "rental_uris": {"android": "https://dc.lft.to/lastmile_qr_scan", "ios": "https://dc.lft.to/lastmile_qr_scan"}, "fusion_lon": 0.0, "bike_id": "d3e0b89fb65ef13e7dec9188c9b8ae49", "is_disabled": 0, "lat": 38.98358666666667, "is_reserved": 0, "type": "electric_bike"}, {"fusion_lat": 0.0, "name": "785e0d17134dfb1374897c27efcc0e1b", "lon": -77.06953633333333, "rental_uris": {"android": "https://dc.lft.to/lastmile_qr_scan", "ios": "https://dc.lft.to/lastmile_qr_scan"}, "fusion_lon": 0.0, "bike_id": "785e0d17134dfb1374897c27efcc0e1b", "is_disabled": 0, "lat": 38.917824, "is_reserved": 0, "type": "electric_scooter"}, {"fusion_lat": 0.0, "name": "641367d0d7732ffca3dcad7b624c5150", "lon": -77.038753, "rental_uris": {"android": "https://dc.lft.to/lastmile_qr_scan", "ios": "https://dc.lft.to/lastmile_qr_scan"}, "fusion_lon": 0.0, "bike_id": "641367d0d7732ffca3dcad7b624c5150", "is_disabled": 0, "lat": 38.931248333333336, "is_reserved": 0, "type": "electric_scooter"}, {"fusion_lat": 0.0, "name": "fe73fc70ed88ee41a26f2241d2df6c69", "lon": -76.97141416666666, "rental_uris": {"android": "https://dc.lft.to/lastmile_qr_scan", "ios": "https://dc.lft.to/lastmile_qr_scan"}, "fusion_lon": 0.0, "bike_id": "fe73fc70ed88ee41a26f2241d2df6c69", "is_disabled": 0, "lat": 38.9233775, "is_reserved": 0, "type": "electric_bike"}, {"fusion_lat": 0.0, "name": "d13859acd44e8953829d6a9b806cfda2", "lon": -77.01842433333333, "rental_uris": {"android": "https://dc.lft.to/lastmile_qr_scan", "ios": "https://dc.lft.to/lastmile_qr_scan"}, "fusion_lon": 0.0, "bike_id": "d13859acd44e8953829d6a9b806cfda2", "is_disabled": 0, "lat": 38.946285, "is_reserved": 0, "type": "electric_scooter"}, {"fusion_lat": 0.0, "name": "287ce2576425ca406c004a0847d8b942", "lon": -77.18566233333334, "rental_uris": {"android": "https://dc.lft.to/lastmile_qr_scan", "ios": "https://dc.lft.to/lastmile_qr_scan"}, "fusion_lon": 0.0, "bike_id": "287ce2576425ca406c004a0847d8b942", "is_disabled": 0, "lat": 38.92966366666667, "is_reserved": 0, "type": "electric_bike"}, {"fusion_lat": 0.0, "name": "8825397c44cc9d84f98ad55bd224ee88", "lon": -76.98241816666666, "rental_uris": {"android": "https://dc.lft.to/lastmile_qr_scan", "ios": "https://dc.lft.to/lastmile_qr_scan"}, "fusion_lon": 0.0, "bike_id": "8825397c44cc9d84f98ad55bd224ee88", "is_disabled": 0, "lat": 38.953284333333336, "is_reserved": 0, "type": "electric_bike"}, {"fusion_lat": 0.0, "name": "e8ed72337df9e15f57e1f32fe7040ade", "lon": -77.02494783333333, "rental_uris": {"android": "https://dc.lft.to/lastmile_qr_scan", "ios": "https://dc.lft.to/lastmile_qr_scan"}, "fusion_lon": 0.0, "bike_id": "e8ed72337df9e15f57e1f32fe7040ade", "is_disabled": 0, "lat": 38.9180695, "is_reserved": 0, "type": "electric_scooter"}, {"fusion_lat": 0.0, "name": "05d78d95cf9c4c59739572105945e79f", "lon": -77.00536033333333, "rental_uris": {"android": "https://dc.lft.to/lastmile_qr_scan", "ios": "https://dc.lft.to/lastmile_qr_scan"}, "fusion_lon": 0.0, "bike_id": "05d78d95cf9c4c59739572105945e79f", "is_disabled": 0, "lat": 38.90037133333333, "is_reserved": 0, "type": "electric_scooter"}, {"fusion_lat": 0.0, "name": "a1e4ebe34e1c3cd2a50e94f2c663da85", "lon": -76.989104, "rental_uris": {"android": "https://dc.lft.to/lastmile_qr_scan", "ios": "https://dc.lft.to/lastmile_qr_scan"}, "fusion_lon": 0.0, "bike_id": "a1e4ebe34e1c3cd2a50e94f2c663da85", "is_disabled": 0, "lat": 38.954356, "is_reserved": 0, "type": "electric_bike"}, {"fusion_lat": 0.0, "name": "dd8dbc2724ed961597a6a1197e325733", "lon": -77.0394565, "rental_uris": {"android": "https://dc.lft.to/lastmile_qr_scan", "ios": "https://dc.lft.to/lastmile_qr_scan"}, "fusion_lon": 0.0, "bike_id": "dd8dbc2724ed961597a6a1197e325733", "is_disabled": 0, "lat": 38.89875033333333, "is_reserved": 0, "type": "electric_scooter"}, {"fusion_lat": 0.0, "name": "97df9097c8465004beaaabdfdf5f7faa", "lon": -77.05254283333333, "rental_uris": {"android": "https://dc.lft.to/lastmile_qr_scan", "ios": "https://dc.lft.to/lastmile_qr_scan"}, "fusion_lon": 0.0, "bike_id": "97df9097c8465004beaaabdfdf5f7faa", "is_disabled": 0, "lat": 38.9273025, "is_reserved": 0, "type": "electric_scooter"}, {"fusion_lat": 0.0, "name": "77d3ff4d06f26f712f930984b3e183a1", "lon": -76.98082883333333, "rental_uris": {"android": "https://dc.lft.to/lastmile_qr_scan", "ios": "https://dc.lft.to/lastmile_qr_scan"}, "fusion_lon": 0.0, "bike_id": "77d3ff4d06f26f712f930984b3e183a1", "is_disabled": 0, "lat": 38.9028455, "is_reserved": 0, "type": "electric_bike"}, {"fusion_lat": 0.0, "name": "3b186bf644d07f382b91876e7714144c", "lon": -77.0464635, "rental_uris": {"android": "https://dc.lft.to/lastmile_qr_scan", "ios": "https://dc.lft.to/lastmile_qr_scan"}, "fusion_lon": 0.0, "bike_id": "3b186bf644d07f382b91876e7714144c", "is_disabled": 0, "lat": 39.054961166666665, "is_reserved": 0, "type": "electric_bike"}, {"fusion_lat": 0.0, "name": "3e630f88e62453210c18cb1a5079fd97", "lon": -76.88402333333333, "rental_uris": {"android": "https://dc.lft.to/lastmile_qr_scan", "ios": "https://dc.lft.to/lastmile_qr_scan"}, "fusion_lon": 0.0, "bike_id": "3e630f88e62453210c18cb1a5079fd97", "is_disabled": 0, "lat": 38.93167416666667, "is_reserved": 0, "type": "electric_bike"}, {"fusion_lat": 0.0, "name": "1c2206266cb537125e1625cae1afad37", "lon": -76.99385166666667, "rental_uris": {"android": "https://dc.lft.to/lastmile_qr_scan", "ios": "https://dc.lft.to/lastmile_qr_scan"}, "fusion_lon": 0.0, "bike_id": "1c2206266cb537125e1625cae1afad37", "is_disabled": 0, "lat": 38.8988785, "is_reserved": 0, "type": "electric_scooter"}, {"fusion_lat": 0.0, "name": "225c255029ca89f204bbe34b8e8a7a6d", "lon": -77.04499616666666, "rental_uris": {"android": "https://dc.lft.to/lastmile_qr_scan", "ios": "https://dc.lft.to/lastmile_qr_scan"}, "fusion_lon": 0.0, "bike_id": "225c255029ca89f204bbe34b8e8a7a6d", "is_disabled": 0, "lat": 38.91111633333333, "is_reserved": 0, "type": "electric_scooter"}, {"fusion_lat": 0.0, "name": "02936fc214c6e3be25a8b8583c3b3605", "lon": -77.03137266666667, "rental_uris": {"android": "https://dc.lft.to/lastmile_qr_scan", "ios": "https://dc.lft.to/lastmile_qr_scan"}, "fusion_lon": 0.0, "bike_id": "02936fc214c6e3be25a8b8583c3b3605", "is_disabled": 0, "lat": 38.913736666666665, "is_reserved": 0, "type": "electric_scooter"}, {"fusion_lat": 0.0, "name": "30260fb5ba5a87c8ee73dda5b54fae44", "lon": -77.02689366666667, "rental_uris": {"android": "https://dc.lft.to/lastmile_qr_scan", "ios": "https://dc.lft.to/lastmile_qr_scan"}, "fusion_lon": 0.0, "bike_id": "30260fb5ba5a87c8ee73dda5b54fae44", "is_disabled": 0, "lat": 38.910317166666665, "is_reserved": 0, "type": "electric_scooter"}, {"fusion_lat": 0.0, "name": "0c5dff967cfc0ac61265fe1cd6cd52f6", "lon": -77.04234383333333, "rental_uris": {"android": "https://dc.lft.to/lastmile_qr_scan", "ios": "https://dc.lft.to/lastmile_qr_scan"}, "fusion_lon": 0.0, "bike_id": "0c5dff967cfc0ac61265fe1cd6cd52f6", "is_disabled": 0, "lat": 38.901335, "is_reserved": 0, "type": "electric_scooter"}, {"fusion_lat": 0.0, "name": "5b40cf63788988f77fd7283f4b65b7f5", "lon": -77.03955166666667, "rental_uris": {"android": "https://dc.lft.to/lastmile_qr_scan", "ios": "https://dc.lft.to/lastmile_qr_scan"}, "fusion_lon": 0.0, "bike_id": "5b40cf63788988f77fd7283f4b65b7f5", "is_disabled": 0, "lat": 38.89246633333333, "is_reserved": 0, "type": "electric_scooter"}, {"fusion_lat": 0.0, "name": "6164f29e9d497ff567ff2914f1f98106", "lon": -77.012369, "rental_uris": {"android": "https://dc.lft.to/lastmile_qr_scan", "ios": "https://dc.lft.to/lastmile_qr_scan"}, "fusion_lon": 0.0, "bike_id": "6164f29e9d497ff567ff2914f1f98106", "is_disabled": 0, "lat": 38.8874065, "is_reserved": 0, "type": "electric_scooter"}, {"fusion_lat": 0.0, "name": "e7fa6287cb0ac853c05ae91caa754d2d", "lon": -77.00280583333333, "rental_uris": {"android": "https://dc.lft.to/lastmile_qr_scan", "ios": "https://dc.lft.to/lastmile_qr_scan"}, "fusion_lon": 0.0, "bike_id": "e7fa6287cb0ac853c05ae91caa754d2d", "is_disabled": 0, "lat": 38.9570595, "is_reserved": 0, "type": "electric_bike"}, {"fusion_lat": 0.0, "name": "31d6f3cd0a2831bb3bc940af3b7f8058", "lon": -76.96764283333333, "rental_uris": {"android": "https://dc.lft.to/lastmile_qr_scan", "ios": "https://dc.lft.to/lastmile_qr_scan"}, "fusion_lon": 0.0, "bike_id": "31d6f3cd0a2831bb3bc940af3b7f8058", "is_disabled": 0, "lat": 38.87341266666667, "is_reserved": 0, "type": "electric_scooter"}, {"fusion_lat": 0.0, "name": "98518ee681e4ccca9f24d54e940e477f", "lon": -77.0400045, "rental_uris": {"android": "https://dc.lft.to/lastmile_qr_scan", "ios": "https://dc.lft.to/lastmile_qr_scan"}, "fusion_lon": 0.0, "bike_id": "98518ee681e4ccca9f24d54e940e477f", "is_disabled": 0, "lat": 38.9072885, "is_reserved": 0, "type": "electric_scooter"}, {"fusion_lat": 0.0, "name": "c95fa64d20d1df5e8614c1cfe2e713d9", "lon": -77.04172466666667, "rental_uris": {"android": "https://dc.lft.to/lastmile_qr_scan", "ios": "https://dc.lft.to/lastmile_qr_scan"}, "fusion_lon": 0.0, "bike_id": "c95fa64d20d1df5e8614c1cfe2e713d9", "is_disabled": 0, "lat": 38.90510333333334, "is_reserved": 0, "type": "electric_scooter"}, {"fusion_lat": 0.0, "name": "9b6d3c6a4badf08a4979305ec4cf643c", "lon": -77.18117733333334, "rental_uris": {"android": "https://dc.lft.to/lastmile_qr_scan", "ios": "https://dc.lft.to/lastmile_qr_scan"}, "fusion_lon": 0.0, "bike_id": "9b6d3c6a4badf08a4979305ec4cf643c", "is_disabled": 0, "lat": 38.9322505, "is_reserved": 0, "type": "electric_bike"}, {"fusion_lat": 0.0, "name": "2f60a42c15f783be4dce4fc0c0c010bf", "lon": -77.04891366666666, "rental_uris": {"android": "https://dc.lft.to/lastmile_qr_scan", "ios": "https://dc.lft.to/lastmile_qr_scan"}, "fusion_lon": 0.0, "bike_id": "2f60a42c15f783be4dce4fc0c0c010bf", "is_disabled": 0, "lat": 38.898771333333336, "is_reserved": 0, "type": "electric_scooter"}, {"fusion_lat": 0.0, "name": "6399a9b0079423b627a64e3d2c30bd74", "lon": -77.02155783333333, "rental_uris": {"android": "https://dc.lft.to/lastmile_qr_scan", "ios": "https://dc.lft.to/lastmile_qr_scan"}, "fusion_lon": 0.0, "bike_id": "6399a9b0079423b627a64e3d2c30bd74", "is_disabled": 0, "lat": 38.894744833333334, "is_reserved": 0, "type": "electric_scooter"}, {"fusion_lat": 0.0, "name": "a7957df68dfa1c52d2a9003cdd41e592", "lon": -77.0580815, "rental_uris": {"android": "https://dc.lft.to/lastmile_qr_scan", "ios": "https://dc.lft.to/lastmile_qr_scan"}, "fusion_lon": 0.0, "bike_id": "a7957df68dfa1c52d2a9003cdd41e592", "is_disabled": 0, "lat": 38.905043166666665, "is_reserved": 0, "type": "electric_scooter"}, {"fusion_lat": 0.0, "name": "d07480424592199820b9aa7ca39e3e28", "lon": -77.02502033333333, "rental_uris": {"android": "https://dc.lft.to/lastmile_qr_scan", "ios": "https://dc.lft.to/lastmile_qr_scan"}, "fusion_lon": 0.0, "bike_id": "d07480424592199820b9aa7ca39e3e28", "is_disabled": 0, "lat": 38.91475666666667, "is_reserved": 0, "type": "electric_scooter"}, {"fusion_lat": 0.0, "name": "725d3a1e7b6cb16e5366ea3a4b3cd08d", "lon": -77.05950083333333, "rental_uris": {"android": "https://dc.lft.to/lastmile_qr_scan", "ios": "https://dc.lft.to/lastmile_qr_scan"}, "fusion_lon": 0.0, "bike_id": "725d3a1e7b6cb16e5366ea3a4b3cd08d", "is_disabled": 0, "lat": 38.918378833333335, "is_reserved": 0, "type": "electric_scooter"}, {"fusion_lat": 0.0, "name": "d89c1dfc4a6ed87b5ff3e935c047cbf5", "lon": -77.00902033333334, "rental_uris": {"android": "https://dc.lft.to/lastmile_qr_scan", "ios": "https://dc.lft.to/lastmile_qr_scan"}, "fusion_lon": 0.0, "bike_id": "d89c1dfc4a6ed87b5ff3e935c047cbf5", "is_disabled": 0, "lat": 38.900322833333334, "is_reserved": 0, "type": "electric_scooter"}, {"fusion_lat": 0.0, "name": "423bfaf060983e6880db31d21c375640", "lon": -77.04322516666667, "rental_uris": {"android": "https://dc.lft.to/lastmile_qr_scan", "ios": "https://dc.lft.to/lastmile_qr_scan"}, "fusion_lon": 0.0, "bike_id": "423bfaf060983e6880db31d21c375640", "is_disabled": 0, "lat": 38.926206666666666, "is_reserved": 0, "type": "electric_scooter"}, {"fusion_lat": 0.0, "name": "6077efda7de3faeb2179941b10d98868", "lon": -77.027872, "rental_uris": {"android": "https://dc.lft.to/lastmile_qr_scan", "ios": "https://dc.lft.to/lastmile_qr_scan"}, "fusion_lon": 0.0, "bike_id": "6077efda7de3faeb2179941b10d98868", "is_disabled": 0, "lat": 38.961333, "is_reserved": 0, "type": "electric_scooter"}, {"fusion_lat": 0.0, "name": "bf82306da8a9564f9eb1b259c94eac6d", "lon": -77.004073, "rental_uris": {"android": "https://dc.lft.to/lastmile_qr_scan", "ios": "https://dc.lft.to/lastmile_qr_scan"}, "fusion_lon": 0.0, "bike_id": "bf82306da8a9564f9eb1b259c94eac6d", "is_disabled": 0, "lat": 38.9308705, "is_reserved": 0, "type": "electric_scooter"}, {"fusion_lat": 0.0, "name": "72224cc02528719624e7c1c64bcee797", "lon": -77.04507416666667, "rental_uris": {"android": "https://dc.lft.to/lastmile_qr_scan", "ios": "https://dc.lft.to/lastmile_qr_scan"}, "fusion_lon": 0.0, "bike_id": "72224cc02528719624e7c1c64bcee797", "is_disabled": 0, "lat": 38.8999085, "is_reserved": 0, "type": "electric_scooter"}, {"fusion_lat": 0.0, "name": "66cf01ee7c2e58d1c500be80228e9010", "lon": -77.03792916666667, "rental_uris": {"android": "https://dc.lft.to/lastmile_qr_scan", "ios": "https://dc.lft.to/lastmile_qr_scan"}, "fusion_lon": 0.0, "bike_id": "66cf01ee7c2e58d1c500be80228e9010", "is_disabled": 0, "lat": 38.915420166666664, "is_reserved": 0, "type": "electric_scooter"}, {"fusion_lat": 0.0, "name": "6f081e37281077c838ce0269f2c1aa9d", "lon": -77.04646633333333, "rental_uris": {"android": "https://dc.lft.to/lastmile_qr_scan", "ios": "https://dc.lft.to/lastmile_qr_scan"}, "fusion_lon": 0.0, "bike_id": "6f081e37281077c838ce0269f2c1aa9d", "is_disabled": 0, "lat": 38.921175166666664, "is_reserved": 0, "type": "electric_scooter"}, {"fusion_lat": 0.0, "name": "a2108d138736dcca918ed63419aad4a8", "lon": -76.95891533333334, "rental_uris": {"android": "https://dc.lft.to/lastmile_qr_scan", "ios": "https://dc.lft.to/lastmile_qr_scan"}, "fusion_lon": 0.0, "bike_id": "a2108d138736dcca918ed63419aad4a8", "is_disabled": 0, "lat": 38.8900855, "is_reserved": 0, "type": "electric_scooter"}, {"fusion_lat": 0.0, "name": "47cd85868e32b7d7ee28907a7c639174", "lon": -77.03393316666667, "rental_uris": {"android": "https://dc.lft.to/lastmile_qr_scan", "ios": "https://dc.lft.to/lastmile_qr_scan"}, "fusion_lon": 0.0, "bike_id": "47cd85868e32b7d7ee28907a7c639174", "is_disabled": 0, "lat": 38.905609, "is_reserved": 0, "type": "electric_scooter"}, {"fusion_lat": 0.0, "name": "fdd5b027cdb136ab2ebeb21423365aa8", "lon": -77.0610205, "rental_uris": {"android": "https://dc.lft.to/lastmile_qr_scan", "ios": "https://dc.lft.to/lastmile_qr_scan"}, "fusion_lon": 0.0, "bike_id": "fdd5b027cdb136ab2ebeb21423365aa8", "is_disabled": 0, "lat": 38.93700033333333, "is_reserved": 0, "type": "electric_scooter"}, {"fusion_lat": 0.0, "name": "e30d2fc53bf3e313357e34a29d66b742", "lon": -77.03371783333333, "rental_uris": {"android": "https://dc.lft.to/lastmile_qr_scan", "ios": "https://dc.lft.to/lastmile_qr_scan"}, "fusion_lon": 0.0, "bike_id": "e30d2fc53bf3e313357e34a29d66b742", "is_disabled": 0, "lat": 38.92131883333333, "is_reserved": 0, "type": "electric_scooter"}, {"fusion_lat": 0.0, "name": "2ca99a10fdbe0daab13904b4eb07a587", "lon": -77.05128283333333, "rental_uris": {"android": "https://dc.lft.to/lastmile_qr_scan", "ios": "https://dc.lft.to/lastmile_qr_scan"}, "fusion_lon": 0.0, "bike_id": "2ca99a10fdbe0daab13904b4eb07a587", "is_disabled": 0, "lat": 38.923618833333336, "is_reserved": 0, "type": "electric_scooter"}, {"fusion_lat": 0.0, "name": "5806c01e8dea6699a5b065608d59f88b", "lon": -77.00136883333333, "rental_uris": {"android": "https://dc.lft.to/lastmile_qr_scan", "ios": "https://dc.lft.to/lastmile_qr_scan"}, "fusion_lon": 0.0, "bike_id": "5806c01e8dea6699a5b065608d59f88b", "is_disabled": 0, "lat": 38.89464616666667, "is_reserved": 0, "type": "electric_scooter"}, {"fusion_lat": 0.0, "name": "47f04d4fc8a45b3c09b1114677990304", "lon": -77.02422383333334, "rental_uris": {"android": "https://dc.lft.to/lastmile_qr_scan", "ios": "https://dc.lft.to/lastmile_qr_scan"}, "fusion_lon": 0.0, "bike_id": "47f04d4fc8a45b3c09b1114677990304", "is_disabled": 0, "lat": 38.937934166666665, "is_reserved": 0, "type": "electric_bike"}, {"fusion_lat": 0.0, "name": "41526d138b0be3743cda587df9f3f796", "lon": -77.046746, "rental_uris": {"android": "https://dc.lft.to/lastmile_qr_scan", "ios": "https://dc.lft.to/lastmile_qr_scan"}, "fusion_lon": 0.0, "bike_id": "41526d138b0be3743cda587df9f3f796", "is_disabled": 0, "lat": 38.89453566666667, "is_reserved": 0, "type": "electric_scooter"}, {"fusion_lat": 0.0, "name": "774b7fc32da8b0c2cfbe622a4428fef2", "lon": -77.0414535, "rental_uris": {"android": "https://dc.lft.to/lastmile_qr_scan", "ios": "https://dc.lft.to/lastmile_qr_scan"}, "fusion_lon": 0.0, "bike_id": "774b7fc32da8b0c2cfbe622a4428fef2", "is_disabled": 0, "lat": 38.917432, "is_reserved": 0, "type": "electric_scooter"}, {"fusion_lat": 0.0, "name": "377ac8d614a4c8b40583bcf92ada2550", "lon": -77.01427433333333, "rental_uris": {"android": "https://dc.lft.to/lastmile_qr_scan", "ios": "https://dc.lft.to/lastmile_qr_scan"}, "fusion_lon": 0.0, "bike_id": "377ac8d614a4c8b40583bcf92ada2550", "is_disabled": 0, "lat": 38.952297333333334, "is_reserved": 0, "type": "electric_scooter"}, {"fusion_lat": 0.0, "name": "f1777c09d8542ee8e913dc7578664179", "lon": -77.0230185, "rental_uris": {"android": "https://dc.lft.to/lastmile_qr_scan", "ios": "https://dc.lft.to/lastmile_qr_scan"}, "fusion_lon": 0.0, "bike_id": "f1777c09d8542ee8e913dc7578664179", "is_disabled": 0, "lat": 38.927694, "is_reserved": 0, "type": "electric_scooter"}, {"fusion_lat": 0.0, "name": "ca706943a3bd4ede4c5cc798889f9341", "lon": -77.01190816666667, "rental_uris": {"android": "https://dc.lft.to/lastmile_qr_scan", "ios": "https://dc.lft.to/lastmile_qr_scan"}, "fusion_lon": 0.0, "bike_id": "ca706943a3bd4ede4c5cc798889f9341", "is_disabled": 0, "lat": 38.91540966666667, "is_reserved": 0, "type": "electric_scooter"}, {"fusion_lat": 0.0, "name": "a8363fdd1f404c575575ea17ba1238f8", "lon": -77.0289055, "rental_uris": {"android": "https://dc.lft.to/lastmile_qr_scan", "ios": "https://dc.lft.to/lastmile_qr_scan"}, "fusion_lon": 0.0, "bike_id": "a8363fdd1f404c575575ea17ba1238f8", "is_disabled": 0, "lat": 38.939833666666665, "is_reserved": 0, "type": "electric_scooter"}, {"fusion_lat": 0.0, "name": "d08b906113cb0423cc64a86b3298decb", "lon": -77.0256075, "rental_uris": {"android": "https://dc.lft.to/lastmile_qr_scan", "ios": "https://dc.lft.to/lastmile_qr_scan"}, "fusion_lon": 0.0, "bike_id": "d08b906113cb0423cc64a86b3298decb", "is_disabled": 0, "lat": 38.938559833333336, "is_reserved": 0, "type": "electric_scooter"}, {"fusion_lat": 0.0, "name": "477624faaff8b5535b1b41fddfcb1afb", "lon": -77.13099633333333, "rental_uris": {"android": "https://dc.lft.to/lastmile_qr_scan", "ios": "https://dc.lft.to/lastmile_qr_scan"}, "fusion_lon": 0.0, "bike_id": "477624faaff8b5535b1b41fddfcb1afb", "is_disabled": 0, "lat": 39.0243375, "is_reserved": 0, "type": "electric_bike"}, {"fusion_lat": 0.0, "name": "0bce5ec64ccf78ec489c1858bcee88b9", "lon": -77.05109816666666, "rental_uris": {"android": "https://dc.lft.to/lastmile_qr_scan", "ios": "https://dc.lft.to/lastmile_qr_scan"}, "fusion_lon": 0.0, "bike_id": "0bce5ec64ccf78ec489c1858bcee88b9", "is_disabled": 0, "lat": 38.923562, "is_reserved": 0, "type": "electric_scooter"}, {"fusion_lat": 0.0, "name": "6dfc68e0caed24bfd5d06e54e0fcb571", "lon": -77.04175433333333, "rental_uris": {"android": "https://dc.lft.to/lastmile_qr_scan", "ios": "https://dc.lft.to/lastmile_qr_scan"}, "fusion_lon": 0.0, "bike_id": "6dfc68e0caed24bfd5d06e54e0fcb571", "is_disabled": 0, "lat": 38.9185915, "is_reserved": 0, "type": "electric_scooter"}, {"fusion_lat": 0.0, "name": "acdee603a4b45aba1de07cfbefd1d5c4", "lon": -77.24539316666667, "rental_uris": {"android": "https://dc.lft.to/lastmile_qr_scan", "ios": "https://dc.lft.to/lastmile_qr_scan"}, "fusion_lon": 0.0, "bike_id": "acdee603a4b45aba1de07cfbefd1d5c4", "is_disabled": 0, "lat": 38.88238316666666, "is_reserved": 0, "type": "electric_bike"}, {"fusion_lat": 0.0, "name": "9ec0368640d1a330d475cb6455e9d9ae", "lon": -77.04626566666667, "rental_uris": {"android": "https://dc.lft.to/lastmile_qr_scan", "ios": "https://dc.lft.to/lastmile_qr_scan"}, "fusion_lon": 0.0, "bike_id": "9ec0368640d1a330d475cb6455e9d9ae", "is_disabled": 0, "lat": 38.902634, "is_reserved": 0, "type": "electric_scooter"}, {"fusion_lat": 0.0, "name": "0e5feaf5df8603871fdbeaf0c8814718", "lon": -77.02956883333333, "rental_uris": {"android": "https://dc.lft.to/lastmile_qr_scan", "ios": "https://dc.lft.to/lastmile_qr_scan"}, "fusion_lon": 0.0, "bike_id": "0e5feaf5df8603871fdbeaf0c8814718", "is_disabled": 0, "lat": 38.916729, "is_reserved": 0, "type": "electric_scooter"}, {"fusion_lat": 0.0, "name": "7cf4388fdb9a8db9d916795853952647", "lon": -77.02824766666667, "rental_uris": {"android": "https://dc.lft.to/lastmile_qr_scan", "ios": "https://dc.lft.to/lastmile_qr_scan"}, "fusion_lon": 0.0, "bike_id": "7cf4388fdb9a8db9d916795853952647", "is_disabled": 0, "lat": 38.8872405, "is_reserved": 0, "type": "electric_scooter"}, {"fusion_lat": 0.0, "name": "f5335b500134d52d14985174647df41d", "lon": -76.9914215, "rental_uris": {"android": "https://dc.lft.to/lastmile_qr_scan", "ios": "https://dc.lft.to/lastmile_qr_scan"}, "fusion_lon": 0.0, "bike_id": "f5335b500134d52d14985174647df41d", "is_disabled": 0, "lat": 38.885938, "is_reserved": 0, "type": "electric_scooter"}, {"fusion_lat": 0.0, "name": "80cdfabc847e56f138c53ad8082a2002", "lon": -77.02214183333334, "rental_uris": {"android": "https://dc.lft.to/lastmile_qr_scan", "ios": "https://dc.lft.to/lastmile_qr_scan"}, "fusion_lon": 0.0, "bike_id": "80cdfabc847e56f138c53ad8082a2002", "is_disabled": 0, "lat": 38.92467383333333, "is_reserved": 0, "type": "electric_scooter"}, {"fusion_lat": 0.0, "name": "c7e2764a8bed2b74cd391d84559d7113", "lon": -77.04286016666667, "rental_uris": {"android": "https://dc.lft.to/lastmile_qr_scan", "ios": "https://dc.lft.to/lastmile_qr_scan"}, "fusion_lon": 0.0, "bike_id": "c7e2764a8bed2b74cd391d84559d7113", "is_disabled": 0, "lat": 38.905328, "is_reserved": 0, "type": "electric_scooter"}, {"fusion_lat": 0.0, "name": "6598271112769753b0ed21184710fbd1", "lon": -76.99467116666666, "rental_uris": {"android": "https://dc.lft.to/lastmile_qr_scan", "ios": "https://dc.lft.to/lastmile_qr_scan"}, "fusion_lon": 0.0, "bike_id": "6598271112769753b0ed21184710fbd1", "is_disabled": 0, "lat": 38.86212283333333, "is_reserved": 0, "type": "electric_scooter"}, {"fusion_lat": 0.0, "name": "f09ebf4eef0fe282bf89fbbc52ef962f", "lon": -77.03272366666667, "rental_uris": {"android": "https://dc.lft.to/lastmile_qr_scan", "ios": "https://dc.lft.to/lastmile_qr_scan"}, "fusion_lon": 0.0, "bike_id": "f09ebf4eef0fe282bf89fbbc52ef962f", "is_disabled": 0, "lat": 38.92087733333334, "is_reserved": 0, "type": "electric_scooter"}, {"fusion_lat": 0.0, "name": "de61b6857acada37ad25bd2222391650", "lon": -77.04906033333333, "rental_uris": {"android": "https://dc.lft.to/lastmile_qr_scan", "ios": "https://dc.lft.to/lastmile_qr_scan"}, "fusion_lon": 0.0, "bike_id": "de61b6857acada37ad25bd2222391650", "is_disabled": 0, "lat": 38.91166116666667, "is_reserved": 0, "type": "electric_scooter"}, {"fusion_lat": 0.0, "name": "ac8181e3c65f8a630f8c33aa5edda696", "lon": -77.01504266666667, "rental_uris": {"android": "https://dc.lft.to/lastmile_qr_scan", "ios": "https://dc.lft.to/lastmile_qr_scan"}, "fusion_lon": 0.0, "bike_id": "ac8181e3c65f8a630f8c33aa5edda696", "is_disabled": 0, "lat": 38.90040033333333, "is_reserved": 0, "type": "electric_scooter"}, {"fusion_lat": 0.0, "name": "1325294451f50469d8a66e5f841e20c8", "lon": -77.04416233333333, "rental_uris": {"android": "https://dc.lft.to/lastmile_qr_scan", "ios": "https://dc.lft.to/lastmile_qr_scan"}, "fusion_lon": 0.0, "bike_id": "1325294451f50469d8a66e5f841e20c8", "is_disabled": 0, "lat": 38.90948183333333, "is_reserved": 0, "type": "electric_scooter"}, {"fusion_lat": 0.0, "name": "88328718d0e4d466dace00a54049b25a", "lon": -77.0034225, "rental_uris": {"android": "https://dc.lft.to/lastmile_qr_scan", "ios": "https://dc.lft.to/lastmile_qr_scan"}, "fusion_lon": 0.0, "bike_id": "88328718d0e4d466dace00a54049b25a", "is_disabled": 0, "lat": 38.90738983333333, "is_reserved": 0, "type": "electric_scooter"}, {"fusion_lat": 0.0, "name": "b87f7b3da83192eeca0646faa61d8469", "lon": -77.0437755, "rental_uris": {"android": "https://dc.lft.to/lastmile_qr_scan", "ios": "https://dc.lft.to/lastmile_qr_scan"}, "fusion_lon": 0.0, "bike_id": "b87f7b3da83192eeca0646faa61d8469", "is_disabled": 0, "lat": 38.8922315, "is_reserved": 0, "type": "electric_scooter"}, {"fusion_lat": 0.0, "name": "7e9c742c2217f05cdbb03748858a3eeb", "lon": -76.98265983333333, "rental_uris": {"android": "https://dc.lft.to/lastmile_qr_scan", "ios": "https://dc.lft.to/lastmile_qr_scan"}, "fusion_lon": 0.0, "bike_id": "7e9c742c2217f05cdbb03748858a3eeb", "is_disabled": 0, "lat": 38.89920016666667, "is_reserved": 0, "type": "electric_scooter"}, {"fusion_lat": 0.0, "name": "ac688943e155a68097398ac9c66ee3cc", "lon": -77.094634, "rental_uris": {"android": "https://dc.lft.to/lastmile_qr_scan", "ios": "https://dc.lft.to/lastmile_qr_scan"}, "fusion_lon": 0.0, "bike_id": "ac688943e155a68097398ac9c66ee3cc", "is_disabled": 0, "lat": 38.807595166666665, "is_reserved": 0, "type": "electric_bike"}, {"fusion_lat": 0.0, "name": "6d760966e324e738cefec40382805b56", "lon": -77.011945, "rental_uris": {"android": "https://dc.lft.to/lastmile_qr_scan", "ios": "https://dc.lft.to/lastmile_qr_scan"}, "fusion_lon": 0.0, "bike_id": "6d760966e324e738cefec40382805b56", "is_disabled": 0, "lat": 38.91560066666667, "is_reserved": 0, "type": "electric_scooter"}, {"fusion_lat": 0.0, "name": "bd54052f1758f6ff661c90fd7692012d", "lon": -77.00725883333334, "rental_uris": {"android": "https://dc.lft.to/lastmile_qr_scan", "ios": "https://dc.lft.to/lastmile_qr_scan"}, "fusion_lon": 0.0, "bike_id": "bd54052f1758f6ff661c90fd7692012d", "is_disabled": 0, "lat": 38.903426833333334, "is_reserved": 0, "type": "electric_scooter"}, {"fusion_lat": 0.0, "name": "e330006e56f71bcd6385e4cd45f0d4dd", "lon": -77.05439883333334, "rental_uris": {"android": "https://dc.lft.to/lastmile_qr_scan", "ios": "https://dc.lft.to/lastmile_qr_scan"}, "fusion_lon": 0.0, "bike_id": "e330006e56f71bcd6385e4cd45f0d4dd", "is_disabled": 0, "lat": 38.896012666666664, "is_reserved": 0, "type": "electric_scooter"}, {"fusion_lat": 0.0, "name": "d64eff2c50911abdc5cb68ed0a3dde72", "lon": -77.06057083333333, "rental_uris": {"android": "https://dc.lft.to/lastmile_qr_scan", "ios": "https://dc.lft.to/lastmile_qr_scan"}, "fusion_lon": 0.0, "bike_id": "d64eff2c50911abdc5cb68ed0a3dde72", "is_disabled": 0, "lat": 38.90508166666667, "is_reserved": 0, "type": "electric_scooter"}, {"fusion_lat": 0.0, "name": "0b4cfcb0d2385b3577ed8f9a77b849bb", "lon": -77.02218916666666, "rental_uris": {"android": "https://dc.lft.to/lastmile_qr_scan", "ios": "https://dc.lft.to/lastmile_qr_scan"}, "fusion_lon": 0.0, "bike_id": "0b4cfcb0d2385b3577ed8f9a77b849bb", "is_disabled": 0, "lat": 38.935490333333334, "is_reserved": 0, "type": "electric_scooter"}, {"fusion_lat": 0.0, "name": "f0b7d23c81bdbc77364645c5b44e7380", "lon": -77.028382, "rental_uris": {"android": "https://dc.lft.to/lastmile_qr_scan", "ios": "https://dc.lft.to/lastmile_qr_scan"}, "fusion_lon": 0.0, "bike_id": "f0b7d23c81bdbc77364645c5b44e7380", "is_disabled": 0, "lat": 38.932172, "is_reserved": 0, "type": "electric_scooter"}, {"fusion_lat": 0.0, "name": "bad6a8d88c548c895a81a6e9ab8bd23f", "lon": -77.02568133333334, "rental_uris": {"android": "https://dc.lft.to/lastmile_qr_scan", "ios": "https://dc.lft.to/lastmile_qr_scan"}, "fusion_lon": 0.0, "bike_id": "bad6a8d88c548c895a81a6e9ab8bd23f", "is_disabled": 0, "lat": 38.884172166666666, "is_reserved": 0, "type": "electric_scooter"}, {"fusion_lat": 0.0, "name": "893d66a0f7ec0aeb3e4bf2d7af20f6c0", "lon": -77.0325455, "rental_uris": {"android": "https://dc.lft.to/lastmile_qr_scan", "ios": "https://dc.lft.to/lastmile_qr_scan"}, "fusion_lon": 0.0, "bike_id": "893d66a0f7ec0aeb3e4bf2d7af20f6c0", "is_disabled": 0, "lat": 38.92159383333333, "is_reserved": 0, "type": "electric_scooter"}, {"fusion_lat": 0.0, "name": "8137ec2545e6b94f56421c6ae37afa1f", "lon": -76.97421916666667, "rental_uris": {"android": "https://dc.lft.to/lastmile_qr_scan", "ios": "https://dc.lft.to/lastmile_qr_scan"}, "fusion_lon": 0.0, "bike_id": "8137ec2545e6b94f56421c6ae37afa1f", "is_disabled": 0, "lat": 38.864153, "is_reserved": 0, "type": "electric_scooter"}, {"fusion_lat": 0.0, "name": "1aa4ed509ff4f56cf03c90fa31d48c2f", "lon": -76.9008215, "rental_uris": {"android": "https://dc.lft.to/lastmile_qr_scan", "ios": "https://dc.lft.to/lastmile_qr_scan"}, "fusion_lon": 0.0, "bike_id": "1aa4ed509ff4f56cf03c90fa31d48c2f", "is_disabled": 0, "lat": 38.887598833333335, "is_reserved": 0, "type": "electric_bike"}, {"fusion_lat": 0.0, "name": "ab415686419e28a396f541606b9fe927", "lon": -77.01270783333334, "rental_uris": {"android": "https://dc.lft.to/lastmile_qr_scan", "ios": "https://dc.lft.to/lastmile_qr_scan"}, "fusion_lon": 0.0, "bike_id": "ab415686419e28a396f541606b9fe927", "is_disabled": 0, "lat": 38.892263666666665, "is_reserved": 0, "type": "electric_scooter"}, {"fusion_lat": 0.0, "name": "3aa7abf6f679a04e5dee76a58f91c484", "lon": -77.0340285, "rental_uris": {"android": "https://dc.lft.to/lastmile_qr_scan", "ios": "https://dc.lft.to/lastmile_qr_scan"}, "fusion_lon": 0.0, "bike_id": "3aa7abf6f679a04e5dee76a58f91c484", "is_disabled": 0, "lat": 38.9226675, "is_reserved": 0, "type": "electric_scooter"}, {"fusion_lat": 0.0, "name": "a002231eb3e7aaf936e3f356218dde42", "lon": -77.03222233333334, "rental_uris": {"android": "https://dc.lft.to/lastmile_qr_scan", "ios": "https://dc.lft.to/lastmile_qr_scan"}, "fusion_lon": 0.0, "bike_id": "a002231eb3e7aaf936e3f356218dde42", "is_disabled": 0, "lat": 38.900793666666665, "is_reserved": 0, "type": "electric_scooter"}, {"fusion_lat": 0.0, "name": "b803ca39379d1f0ccbcb012b4503929f", "lon": -77.02011683333333, "rental_uris": {"android": "https://dc.lft.to/lastmile_qr_scan", "ios": "https://dc.lft.to/lastmile_qr_scan"}, "fusion_lon": 0.0, "bike_id": "b803ca39379d1f0ccbcb012b4503929f", "is_disabled": 0, "lat": 38.902757, "is_reserved": 0, "type": "electric_scooter"}, {"fusion_lat": 0.0, "name": "31a24ca64e5c0d32e53ee29d0c33bed7", "lon": -77.0198345, "rental_uris": {"android": "https://dc.lft.to/lastmile_qr_scan", "ios": "https://dc.lft.to/lastmile_qr_scan"}, "fusion_lon": 0.0, "bike_id": "31a24ca64e5c0d32e53ee29d0c33bed7", "is_disabled": 0, "lat": 38.915592333333336, "is_reserved": 0, "type": "electric_scooter"}, {"fusion_lat": 0.0, "name": "7e9ee85e49147571341f96a239e5f7ab", "lon": -77.038065, "rental_uris": {"android": "https://dc.lft.to/lastmile_qr_scan", "ios": "https://dc.lft.to/lastmile_qr_scan"}, "fusion_lon": 0.0, "bike_id": "7e9ee85e49147571341f96a239e5f7ab", "is_disabled": 0, "lat": 38.931075166666666, "is_reserved": 0, "type": "electric_scooter"}, {"fusion_lat": 0.0, "name": "9e853bbed343af7fae94e66555ce85d2", "lon": -76.98716066666667, "rental_uris": {"android": "https://dc.lft.to/lastmile_qr_scan", "ios": "https://dc.lft.to/lastmile_qr_scan"}, "fusion_lon": 0.0, "bike_id": "9e853bbed343af7fae94e66555ce85d2", "is_disabled": 0, "lat": 38.86622966666667, "is_reserved": 0, "type": "electric_scooter"}, {"fusion_lat": 0.0, "name": "c7ae88dde2722c3d17e3d34ff077e694", "lon": -77.01891433333333, "rental_uris": {"android": "https://dc.lft.to/lastmile_qr_scan", "ios": "https://dc.lft.to/lastmile_qr_scan"}, "fusion_lon": 0.0, "bike_id": "c7ae88dde2722c3d17e3d34ff077e694", "is_disabled": 0, "lat": 38.923295833333334, "is_reserved": 0, "type": "electric_scooter"}, {"fusion_lat": 0.0, "name": "37f1aeaae26103253879db37eb510289", "lon": -77.07430066666667, "rental_uris": {"android": "https://dc.lft.to/lastmile_qr_scan", "ios": "https://dc.lft.to/lastmile_qr_scan"}, "fusion_lon": 0.0, "bike_id": "37f1aeaae26103253879db37eb510289", "is_disabled": 0, "lat": 38.999431666666666, "is_reserved": 0, "type": "electric_bike"}, {"fusion_lat": 0.0, "name": "5a4e80f46e36db803bdcd78c6b617eb6", "lon": -77.02517083333333, "rental_uris": {"android": "https://dc.lft.to/lastmile_qr_scan", "ios": "https://dc.lft.to/lastmile_qr_scan"}, "fusion_lon": 0.0, "bike_id": "5a4e80f46e36db803bdcd78c6b617eb6", "is_disabled": 0, "lat": 38.908541166666666, "is_reserved": 0, "type": "electric_scooter"}, {"fusion_lat": 0.0, "name": "2af43b4cd65af7f179be0b18eeff1d0e", "lon": -77.0617645, "rental_uris": {"android": "https://dc.lft.to/lastmile_qr_scan", "ios": "https://dc.lft.to/lastmile_qr_scan"}, "fusion_lon": 0.0, "bike_id": "2af43b4cd65af7f179be0b18eeff1d0e", "is_disabled": 0, "lat": 38.80702866666667, "is_reserved": 0, "type": "electric_bike"}, {"fusion_lat": 0.0, "name": "6ebe2ed7150fe754d4d4565c471cc9f4", "lon": -77.05470266666667, "rental_uris": {"android": "https://dc.lft.to/lastmile_qr_scan", "ios": "https://dc.lft.to/lastmile_qr_scan"}, "fusion_lon": 0.0, "bike_id": "6ebe2ed7150fe754d4d4565c471cc9f4", "is_disabled": 0, "lat": 38.92913033333333, "is_reserved": 0, "type": "electric_scooter"}, {"fusion_lat": 0.0, "name": "0158404eadabd9149560701ad661c238", "lon": -77.03190166666667, "rental_uris": {"android": "https://dc.lft.to/lastmile_qr_scan", "ios": "https://dc.lft.to/lastmile_qr_scan"}, "fusion_lon": 0.0, "bike_id": "0158404eadabd9149560701ad661c238", "is_disabled": 0, "lat": 38.9173425, "is_reserved": 0, "type": "electric_scooter"}, {"fusion_lat": 0.0, "name": "c413c31550de064109c79a2474208e8a", "lon": -77.048888, "rental_uris": {"android": "https://dc.lft.to/lastmile_qr_scan", "ios": "https://dc.lft.to/lastmile_qr_scan"}, "fusion_lon": 0.0, "bike_id": "c413c31550de064109c79a2474208e8a", "is_disabled": 0, "lat": 38.899398, "is_reserved": 0, "type": "electric_scooter"}, {"fusion_lat": 0.0, "name": "bb113ee31de864e02eeb6a2ed9061f8e", "lon": -76.94921766666667, "rental_uris": {"android": "https://dc.lft.to/lastmile_qr_scan", "ios": "https://dc.lft.to/lastmile_qr_scan"}, "fusion_lon": 0.0, "bike_id": "bb113ee31de864e02eeb6a2ed9061f8e", "is_disabled": 0, "lat": 38.89352566666667, "is_reserved": 0, "type": "electric_scooter"}, {"fusion_lat": 0.0, "name": "aadc5a81e20c7c7e8bff5bf52d9b215b", "lon": -77.0438015, "rental_uris": {"android": "https://dc.lft.to/lastmile_qr_scan", "ios": "https://dc.lft.to/lastmile_qr_scan"}, "fusion_lon": 0.0, "bike_id": "aadc5a81e20c7c7e8bff5bf52d9b215b", "is_disabled": 0, "lat": 38.8922305, "is_reserved": 0, "type": "electric_scooter"}, {"fusion_lat": 0.0, "name": "46f444d43ed61f9d815176e29b57cb3a", "lon": -76.99027583333333, "rental_uris": {"android": "https://dc.lft.to/lastmile_qr_scan", "ios": "https://dc.lft.to/lastmile_qr_scan"}, "fusion_lon": 0.0, "bike_id": "46f444d43ed61f9d815176e29b57cb3a", "is_disabled": 0, "lat": 38.88260966666667, "is_reserved": 0, "type": "electric_scooter"}, {"fusion_lat": 0.0, "name": "e0615efb8afd0d9045ca1cebab92f544", "lon": -77.046375, "rental_uris": {"android": "https://dc.lft.to/lastmile_qr_scan", "ios": "https://dc.lft.to/lastmile_qr_scan"}, "fusion_lon": 0.0, "bike_id": "e0615efb8afd0d9045ca1cebab92f544", "is_disabled": 0, "lat": 38.89220133333333, "is_reserved": 0, "type": "electric_scooter"}, {"fusion_lat": 0.0, "name": "de2a6364799b736d6a6ba6ce4b07954f", "lon": -77.04152716666667, "rental_uris": {"android": "https://dc.lft.to/lastmile_qr_scan", "ios": "https://dc.lft.to/lastmile_qr_scan"}, "fusion_lon": 0.0, "bike_id": "de2a6364799b736d6a6ba6ce4b07954f", "is_disabled": 0, "lat": 38.9171365, "is_reserved": 0, "type": "electric_scooter"}, {"fusion_lat": 0.0, "name": "59ff65bbef992000a269c0b32f7d1649", "lon": -76.93470883333333, "rental_uris": {"android": "https://dc.lft.to/lastmile_qr_scan", "ios": "https://dc.lft.to/lastmile_qr_scan"}, "fusion_lon": 0.0, "bike_id": "59ff65bbef992000a269c0b32f7d1649", "is_disabled": 0, "lat": 38.89500816666666, "is_reserved": 0, "type": "electric_scooter"}, {"fusion_lat": 0.0, "name": "4469b45844f263e40e0fc85046ad2954", "lon": -77.07451483333334, "rental_uris": {"android": "https://dc.lft.to/lastmile_qr_scan", "ios": "https://dc.lft.to/lastmile_qr_scan"}, "fusion_lon": 0.0, "bike_id": "4469b45844f263e40e0fc85046ad2954", "is_disabled": 0, "lat": 38.9450685, "is_reserved": 0, "type": "electric_scooter"}, {"fusion_lat": 0.0, "name": "d5688328bbd9fce29f309da831a638cc", "lon": -77.0284505, "rental_uris": {"android": "https://dc.lft.to/lastmile_qr_scan", "ios": "https://dc.lft.to/lastmile_qr_scan"}, "fusion_lon": 0.0, "bike_id": "d5688328bbd9fce29f309da831a638cc", "is_disabled": 0, "lat": 38.934164, "is_reserved": 0, "type": "electric_scooter"}, {"fusion_lat": 0.0, "name": "331e1737544d69a9aa8ac7bfa0801d37", "lon": -77.02200416666666, "rental_uris": {"android": "https://dc.lft.to/lastmile_qr_scan", "ios": "https://dc.lft.to/lastmile_qr_scan"}, "fusion_lon": 0.0, "bike_id": "331e1737544d69a9aa8ac7bfa0801d37", "is_disabled": 0, "lat": 38.915322333333336, "is_reserved": 0, "type": "electric_scooter"}, {"fusion_lat": 0.0, "name": "9da656f9505ccc8934b92f424159fbf8", "lon": -77.04320983333334, "rental_uris": {"android": "https://dc.lft.to/lastmile_qr_scan", "ios": "https://dc.lft.to/lastmile_qr_scan"}, "fusion_lon": 0.0, "bike_id": "9da656f9505ccc8934b92f424159fbf8", "is_disabled": 0, "lat": 38.906690166666664, "is_reserved": 0, "type": "electric_scooter"}, {"fusion_lat": 0.0, "name": "cb12606be417b727b2255a3a30e1a443", "lon": -77.041749, "rental_uris": {"android": "https://dc.lft.to/lastmile_qr_scan", "ios": "https://dc.lft.to/lastmile_qr_scan"}, "fusion_lon": 0.0, "bike_id": "cb12606be417b727b2255a3a30e1a443", "is_disabled": 0, "lat": 38.911779, "is_reserved": 0, "type": "electric_scooter"}, {"fusion_lat": 0.0, "name": "ef8352445529f7e84f92589f70a62bd6", "lon": -77.03304916666667, "rental_uris": {"android": "https://dc.lft.to/lastmile_qr_scan", "ios": "https://dc.lft.to/lastmile_qr_scan"}, "fusion_lon": 0.0, "bike_id": "ef8352445529f7e84f92589f70a62bd6", "is_disabled": 0, "lat": 38.903217, "is_reserved": 0, "type": "electric_scooter"}, {"fusion_lat": 0.0, "name": "14140472146c24f5763e2e6bb16552d1", "lon": -76.99122883333334, "rental_uris": {"android": "https://dc.lft.to/lastmile_qr_scan", "ios": "https://dc.lft.to/lastmile_qr_scan"}, "fusion_lon": 0.0, "bike_id": "14140472146c24f5763e2e6bb16552d1", "is_disabled": 0, "lat": 38.908660833333336, "is_reserved": 0, "type": "electric_scooter"}, {"fusion_lat": 0.0, "name": "9fe56d918284bf9c3dfbbc727d2f49bc", "lon": -77.1252335, "rental_uris": {"android": "https://dc.lft.to/lastmile_qr_scan", "ios": "https://dc.lft.to/lastmile_qr_scan"}, "fusion_lon": 0.0, "bike_id": "9fe56d918284bf9c3dfbbc727d2f49bc", "is_disabled": 0, "lat": 39.056333333333335, "is_reserved": 0, "type": "electric_bike"}, {"fusion_lat": 0.0, "name": "6549bc6ee83b6ba61bfc003f15f824b0", "lon": -76.999261, "rental_uris": {"android": "https://dc.lft.to/lastmile_qr_scan", "ios": "https://dc.lft.to/lastmile_qr_scan"}, "fusion_lon": 0.0, "bike_id": "6549bc6ee83b6ba61bfc003f15f824b0", "is_disabled": 0, "lat": 38.843126166666664, "is_reserved": 0, "type": "electric_scooter"}, {"fusion_lat": 0.0, "name": "903c45c3c1d57923ee3fde0b494de8fb", "lon": -77.04147316666666, "rental_uris": {"android": "https://dc.lft.to/lastmile_qr_scan", "ios": "https://dc.lft.to/lastmile_qr_scan"}, "fusion_lon": 0.0, "bike_id": "903c45c3c1d57923ee3fde0b494de8fb", "is_disabled": 0, "lat": 38.907394833333335, "is_reserved": 0, "type": "electric_scooter"}, {"fusion_lat": 0.0, "name": "07f3a599eb2cd5d851e3a53aee4e26d7", "lon": -77.04677016666666, "rental_uris": {"android": "https://dc.lft.to/lastmile_qr_scan", "ios": "https://dc.lft.to/lastmile_qr_scan"}, "fusion_lon": 0.0, "bike_id": "07f3a599eb2cd5d851e3a53aee4e26d7", "is_disabled": 0, "lat": 38.89556316666667, "is_reserved": 0, "type": "electric_scooter"}, {"fusion_lat": 0.0, "name": "d93a8209acad4d2e8a57ca5c858f8c6c", "lon": -77.01408683333334, "rental_uris": {"android": "https://dc.lft.to/lastmile_qr_scan", "ios": "https://dc.lft.to/lastmile_qr_scan"}, "fusion_lon": 0.0, "bike_id": "d93a8209acad4d2e8a57ca5c858f8c6c", "is_disabled": 0, "lat": 38.91398383333333, "is_reserved": 0, "type": "electric_scooter"}, {"fusion_lat": 0.0, "name": "d3295729e5d369f95b618e9d6cf68033", "lon": -77.04551366666666, "rental_uris": {"android": "https://dc.lft.to/lastmile_qr_scan", "ios": "https://dc.lft.to/lastmile_qr_scan"}, "fusion_lon": 0.0, "bike_id": "d3295729e5d369f95b618e9d6cf68033", "is_disabled": 0, "lat": 38.91311066666667, "is_reserved": 0, "type": "electric_scooter"}, {"fusion_lat": 0.0, "name": "3634e1904ba75ed7db464e5e64e0d7f3", "lon": -77.05135866666667, "rental_uris": {"android": "https://dc.lft.to/lastmile_qr_scan", "ios": "https://dc.lft.to/lastmile_qr_scan"}, "fusion_lon": 0.0, "bike_id": "3634e1904ba75ed7db464e5e64e0d7f3", "is_disabled": 0, "lat": 38.92357116666667, "is_reserved": 0, "type": "electric_scooter"}, {"fusion_lat": 0.0, "name": "12b7e38b7adef13f083f5400a6a3ad46", "lon": -76.93019666666666, "rental_uris": {"android": "https://dc.lft.to/lastmile_qr_scan", "ios": "https://dc.lft.to/lastmile_qr_scan"}, "fusion_lon": 0.0, "bike_id": "12b7e38b7adef13f083f5400a6a3ad46", "is_disabled": 0, "lat": 38.901628, "is_reserved": 0, "type": "electric_scooter"}, {"fusion_lat": 0.0, "name": "f69cfe6803045481e9d925cf9a660204", "lon": -76.93013066666667, "rental_uris": {"android": "https://dc.lft.to/lastmile_qr_scan", "ios": "https://dc.lft.to/lastmile_qr_scan"}, "fusion_lon": 0.0, "bike_id": "f69cfe6803045481e9d925cf9a660204", "is_disabled": 0, "lat": 38.89646366666667, "is_reserved": 0, "type": "electric_bike"}, {"fusion_lat": 0.0, "name": "1f94df2be8a0c8eb10e4fd1cc09bab56", "lon": -77.03451883333334, "rental_uris": {"android": "https://dc.lft.to/lastmile_qr_scan", "ios": "https://dc.lft.to/lastmile_qr_scan"}, "fusion_lon": 0.0, "bike_id": "1f94df2be8a0c8eb10e4fd1cc09bab56", "is_disabled": 0, "lat": 38.918169166666665, "is_reserved": 0, "type": "electric_scooter"}, {"fusion_lat": 0.0, "name": "206213aa6dd4f474b57f075d775f40a4", "lon": -77.04208233333334, "rental_uris": {"android": "https://dc.lft.to/lastmile_qr_scan", "ios": "https://dc.lft.to/lastmile_qr_scan"}, "fusion_lon": 0.0, "bike_id": "206213aa6dd4f474b57f075d775f40a4", "is_disabled": 0, "lat": 38.911201, "is_reserved": 0, "type": "electric_scooter"}, {"fusion_lat": 0.0, "name": "c477dbf5860633965ed1d352a928c841", "lon": -77.0802565, "rental_uris": {"android": "https://dc.lft.to/lastmile_qr_scan", "ios": "https://dc.lft.to/lastmile_qr_scan"}, "fusion_lon": 0.0, "bike_id": "c477dbf5860633965ed1d352a928c841", "is_disabled": 0, "lat": 38.95053466666667, "is_reserved": 0, "type": "electric_scooter"}, {"fusion_lat": 0.0, "name": "d8338ddb36c1b9dcf5c0ce05f38cd5b6", "lon": -76.97535933333333, "rental_uris": {"android": "https://dc.lft.to/lastmile_qr_scan", "ios": "https://dc.lft.to/lastmile_qr_scan"}, "fusion_lon": 0.0, "bike_id": "d8338ddb36c1b9dcf5c0ce05f38cd5b6", "is_disabled": 0, "lat": 38.903258, "is_reserved": 0, "type": "electric_bike"}, {"fusion_lat": 0.0, "name": "9931cd03f06064dac44efb78e8dfdeb9", "lon": -77.059139, "rental_uris": {"android": "https://dc.lft.to/lastmile_qr_scan", "ios": "https://dc.lft.to/lastmile_qr_scan"}, "fusion_lon": 0.0, "bike_id": "9931cd03f06064dac44efb78e8dfdeb9", "is_disabled": 0, "lat": 38.90545633333333, "is_reserved": 0, "type": "electric_scooter"}, {"fusion_lat": 0.0, "name": "46a3a7a5a37672c9e21fe224909b4a24", "lon": -77.03645816666666, "rental_uris": {"android": "https://dc.lft.to/lastmile_qr_scan", "ios": "https://dc.lft.to/lastmile_qr_scan"}, "fusion_lon": 0.0, "bike_id": "46a3a7a5a37672c9e21fe224909b4a24", "is_disabled": 0, "lat": 38.902707166666666, "is_reserved": 0, "type": "electric_scooter"}, {"fusion_lat": 0.0, "name": "c7bcb66ee6c46714bd3e9d8b0983674a", "lon": -76.9287605, "rental_uris": {"android": "https://dc.lft.to/lastmile_qr_scan", "ios": "https://dc.lft.to/lastmile_qr_scan"}, "fusion_lon": 0.0, "bike_id": "c7bcb66ee6c46714bd3e9d8b0983674a", "is_disabled": 0, "lat": 38.978367166666665, "is_reserved": 0, "type": "electric_bike"}, {"fusion_lat": 0.0, "name": "92b290665c4faf8bcade2be451f13f7e", "lon": -77.09102283333333, "rental_uris": {"android": "https://dc.lft.to/lastmile_qr_scan", "ios": "https://dc.lft.to/lastmile_qr_scan"}, "fusion_lon": 0.0, "bike_id": "92b290665c4faf8bcade2be451f13f7e", "is_disabled": 0, "lat": 38.94154116666667, "is_reserved": 0, "type": "electric_scooter"}, {"fusion_lat": 0.0, "name": "697a3da010f1fe94dd11457d778bc5fe", "lon": -76.98079916666667, "rental_uris": {"android": "https://dc.lft.to/lastmile_qr_scan", "ios": "https://dc.lft.to/lastmile_qr_scan"}, "fusion_lon": 0.0, "bike_id": "697a3da010f1fe94dd11457d778bc5fe", "is_disabled": 0, "lat": 38.9194375, "is_reserved": 0, "type": "electric_scooter"}, {"fusion_lat": 0.0, "name": "1f3afd460bceed79f6eef95c3892d953", "lon": -77.038367, "rental_uris": {"android": "https://dc.lft.to/lastmile_qr_scan", "ios": "https://dc.lft.to/lastmile_qr_scan"}, "fusion_lon": 0.0, "bike_id": "1f3afd460bceed79f6eef95c3892d953", "is_disabled": 0, "lat": 38.91115033333333, "is_reserved": 0, "type": "electric_scooter"}, {"fusion_lat": 0.0, "name": "3055ed6547db5602f17649028038bf91", "lon": -77.06265583333334, "rental_uris": {"android": "https://dc.lft.to/lastmile_qr_scan", "ios": "https://dc.lft.to/lastmile_qr_scan"}, "fusion_lon": 0.0, "bike_id": "3055ed6547db5602f17649028038bf91", "is_disabled": 0, "lat": 38.90498066666667, "is_reserved": 0, "type": "electric_scooter"}, {"fusion_lat": 0.0, "name": "efd326ba263e89128dca3160dbaf0cb7", "lon": -77.015277, "rental_uris": {"android": "https://dc.lft.to/lastmile_qr_scan", "ios": "https://dc.lft.to/lastmile_qr_scan"}, "fusion_lon": 0.0, "bike_id": "efd326ba263e89128dca3160dbaf0cb7", "is_disabled": 0, "lat": 38.94113683333333, "is_reserved": 0, "type": "electric_scooter"}, {"fusion_lat": 0.0, "name": "a5fbba017704156cbd3b3ab88e5f4833", "lon": -77.03261233333333, "rental_uris": {"android": "https://dc.lft.to/lastmile_qr_scan", "ios": "https://dc.lft.to/lastmile_qr_scan"}, "fusion_lon": 0.0, "bike_id": "a5fbba017704156cbd3b3ab88e5f4833", "is_disabled": 0, "lat": 38.92987933333333, "is_reserved": 0, "type": "electric_scooter"}, {"fusion_lat": 0.0, "name": "cb20cfaf80ebbb563adebde4ac3c6c63", "lon": -77.04136266666667, "rental_uris": {"android": "https://dc.lft.to/lastmile_qr_scan", "ios": "https://dc.lft.to/lastmile_qr_scan"}, "fusion_lon": 0.0, "bike_id": "cb20cfaf80ebbb563adebde4ac3c6c63", "is_disabled": 0, "lat": 38.9264125, "is_reserved": 0, "type": "electric_scooter"}, {"fusion_lat": 0.0, "name": "eb5be98f3591555f0b51869f2255582e", "lon": -77.03025633333333, "rental_uris": {"android": "https://dc.lft.to/lastmile_qr_scan", "ios": "https://dc.lft.to/lastmile_qr_scan"}, "fusion_lon": 0.0, "bike_id": "eb5be98f3591555f0b51869f2255582e", "is_disabled": 0, "lat": 38.918065, "is_reserved": 0, "type": "electric_scooter"}, {"fusion_lat": 0.0, "name": "de651609c6027157d90549232e912655", "lon": -77.00578033333333, "rental_uris": {"android": "https://dc.lft.to/lastmile_qr_scan", "ios": "https://dc.lft.to/lastmile_qr_scan"}, "fusion_lon": 0.0, "bike_id": "de651609c6027157d90549232e912655", "is_disabled": 0, "lat": 38.8369755, "is_reserved": 0, "type": "electric_scooter"}, {"fusion_lat": 0.0, "name": "734ba6840e890fe2453f029f230e5297", "lon": -76.99778666666667, "rental_uris": {"android": "https://dc.lft.to/lastmile_qr_scan", "ios": "https://dc.lft.to/lastmile_qr_scan"}, "fusion_lon": 0.0, "bike_id": "734ba6840e890fe2453f029f230e5297", "is_disabled": 0, "lat": 38.8442345, "is_reserved": 0, "type": "electric_scooter"}, {"fusion_lat": 0.0, "name": "45aa2628ecdc60162cc4b9fe6e28362f", "lon": -77.04686566666666, "rental_uris": {"android": "https://dc.lft.to/lastmile_qr_scan", "ios": "https://dc.lft.to/lastmile_qr_scan"}, "fusion_lon": 0.0, "bike_id": "45aa2628ecdc60162cc4b9fe6e28362f", "is_disabled": 0, "lat": 38.90263616666667, "is_reserved": 0, "type": "electric_scooter"}, {"fusion_lat": 0.0, "name": "4a264939cf215a7e56eb3f1e10a450c5", "lon": -77.04658516666667, "rental_uris": {"android": "https://dc.lft.to/lastmile_qr_scan", "ios": "https://dc.lft.to/lastmile_qr_scan"}, "fusion_lon": 0.0, "bike_id": "4a264939cf215a7e56eb3f1e10a450c5", "is_disabled": 0, "lat": 38.91359466666667, "is_reserved": 0, "type": "electric_scooter"}, {"fusion_lat": 0.0, "name": "41796c9591d36ac5cd892082b160480d", "lon": -77.027404, "rental_uris": {"android": "https://dc.lft.to/lastmile_qr_scan", "ios": "https://dc.lft.to/lastmile_qr_scan"}, "fusion_lon": 0.0, "bike_id": "41796c9591d36ac5cd892082b160480d", "is_disabled": 0, "lat": 38.94375566666667, "is_reserved": 0, "type": "electric_scooter"}, {"fusion_lat": 0.0, "name": "4f84acdd5b9d2b392a0b0562ff7eddb5", "lon": -77.01995133333334, "rental_uris": {"android": "https://dc.lft.to/lastmile_qr_scan", "ios": "https://dc.lft.to/lastmile_qr_scan"}, "fusion_lon": 0.0, "bike_id": "4f84acdd5b9d2b392a0b0562ff7eddb5", "is_disabled": 0, "lat": 38.905551833333334, "is_reserved": 0, "type": "electric_scooter"}, {"fusion_lat": 0.0, "name": "c4e5a125477275df54cee1060fbaf360", "lon": -77.00668566666667, "rental_uris": {"android": "https://dc.lft.to/lastmile_qr_scan", "ios": "https://dc.lft.to/lastmile_qr_scan"}, "fusion_lon": 0.0, "bike_id": "c4e5a125477275df54cee1060fbaf360", "is_disabled": 0, "lat": 38.90006133333333, "is_reserved": 0, "type": "electric_scooter"}, {"fusion_lat": 0.0, "name": "661a2ae9badb01ef8e29571db5772b7c", "lon": -77.03071066666666, "rental_uris": {"android": "https://dc.lft.to/lastmile_qr_scan", "ios": "https://dc.lft.to/lastmile_qr_scan"}, "fusion_lon": 0.0, "bike_id": "661a2ae9badb01ef8e29571db5772b7c", "is_disabled": 0, "lat": 38.899640166666664, "is_reserved": 0, "type": "electric_scooter"}, {"fusion_lat": 0.0, "name": "77c4dbe0f1631dff0e9787225a8c8f70", "lon": -76.985062, "rental_uris": {"android": "https://dc.lft.to/lastmile_qr_scan", "ios": "https://dc.lft.to/lastmile_qr_scan"}, "fusion_lon": 0.0, "bike_id": "77c4dbe0f1631dff0e9787225a8c8f70", "is_disabled": 0, "lat": 38.860074833333336, "is_reserved": 0, "type": "electric_scooter"}, {"fusion_lat": 0.0, "name": "1b5022c58ed5c6e5d69fdbfb001c5d69", "lon": -77.02458733333333, "rental_uris": {"android": "https://dc.lft.to/lastmile_qr_scan", "ios": "https://dc.lft.to/lastmile_qr_scan"}, "fusion_lon": 0.0, "bike_id": "1b5022c58ed5c6e5d69fdbfb001c5d69", "is_disabled": 0, "lat": 38.93882216666667, "is_reserved": 0, "type": "electric_scooter"}, {"fusion_lat": 0.0, "name": "9accedbf8f324d5f35ff3f0eca1f6faf", "lon": -77.0207155, "rental_uris": {"android": "https://dc.lft.to/lastmile_qr_scan", "ios": "https://dc.lft.to/lastmile_qr_scan"}, "fusion_lon": 0.0, "bike_id": "9accedbf8f324d5f35ff3f0eca1f6faf", "is_disabled": 0, "lat": 38.93642633333333, "is_reserved": 0, "type": "electric_bike"}, {"fusion_lat": 0.0, "name": "7652ad3407dd702671214a402d535b95", "lon": -77.0392055, "rental_uris": {"android": "https://dc.lft.to/lastmile_qr_scan", "ios": "https://dc.lft.to/lastmile_qr_scan"}, "fusion_lon": 0.0, "bike_id": "7652ad3407dd702671214a402d535b95", "is_disabled": 0, "lat": 38.918418, "is_reserved": 0, "type": "electric_scooter"}, {"fusion_lat": 0.0, "name": "c583c7b35fa7bfeeb7a4c16ff2561e23", "lon": -77.0013225, "rental_uris": {"android": "https://dc.lft.to/lastmile_qr_scan", "ios": "https://dc.lft.to/lastmile_qr_scan"}, "fusion_lon": 0.0, "bike_id": "c583c7b35fa7bfeeb7a4c16ff2561e23", "is_disabled": 0, "lat": 38.89469583333333, "is_reserved": 0, "type": "electric_scooter"}, {"fusion_lat": 0.0, "name": "2f5aff70ab3853fc0a10941cccda0cbc", "lon": -77.02471533333333, "rental_uris": {"android": "https://dc.lft.to/lastmile_qr_scan", "ios": "https://dc.lft.to/lastmile_qr_scan"}, "fusion_lon": 0.0, "bike_id": "2f5aff70ab3853fc0a10941cccda0cbc", "is_disabled": 0, "lat": 38.94202383333333, "is_reserved": 0, "type": "electric_scooter"}, {"fusion_lat": 0.0, "name": "d88836b231bd13e8db2f27ce2438b13f", "lon": -76.95753416666666, "rental_uris": {"android": "https://dc.lft.to/lastmile_qr_scan", "ios": "https://dc.lft.to/lastmile_qr_scan"}, "fusion_lon": 0.0, "bike_id": "d88836b231bd13e8db2f27ce2438b13f", "is_disabled": 0, "lat": 38.969523333333335, "is_reserved": 0, "type": "electric_bike"}, {"fusion_lat": 0.0, "name": "98575dc858d2e4f997f17b8db5f4d2e7", "lon": -76.97329, "rental_uris": {"android": "https://dc.lft.to/lastmile_qr_scan", "ios": "https://dc.lft.to/lastmile_qr_scan"}, "fusion_lon": 0.0, "bike_id": "98575dc858d2e4f997f17b8db5f4d2e7", "is_disabled": 0, "lat": 38.904088333333334, "is_reserved": 0, "type": "electric_scooter"}, {"fusion_lat": 0.0, "name": "2c5543958801fccfe9206734f558efdd", "lon": -77.04083883333334, "rental_uris": {"android": "https://dc.lft.to/lastmile_qr_scan", "ios": "https://dc.lft.to/lastmile_qr_scan"}, "fusion_lon": 0.0, "bike_id": "2c5543958801fccfe9206734f558efdd", "is_disabled": 0, "lat": 38.910492, "is_reserved": 0, "type": "electric_scooter"}, {"fusion_lat": 0.0, "name": "107b15ca7634c96e2f04c4da47ec2227", "lon": -77.0240635, "rental_uris": {"android": "https://dc.lft.to/lastmile_qr_scan", "ios": "https://dc.lft.to/lastmile_qr_scan"}, "fusion_lon": 0.0, "bike_id": "107b15ca7634c96e2f04c4da47ec2227", "is_disabled": 0, "lat": 38.91137616666666, "is_reserved": 0, "type": "electric_scooter"}, {"fusion_lat": 0.0, "name": "50b646e5187947a37537465a01445080", "lon": -77.0716165, "rental_uris": {"android": "https://dc.lft.to/lastmile_qr_scan", "ios": "https://dc.lft.to/lastmile_qr_scan"}, "fusion_lon": 0.0, "bike_id": "50b646e5187947a37537465a01445080", "is_disabled": 0, "lat": 38.9086805, "is_reserved": 0, "type": "electric_scooter"}, {"fusion_lat": 0.0, "name": "48add4be4e0ab4b7dee8140302f73114", "lon": -76.93370333333333, "rental_uris": {"android": "https://dc.lft.to/lastmile_qr_scan", "ios": "https://dc.lft.to/lastmile_qr_scan"}, "fusion_lon": 0.0, "bike_id": "48add4be4e0ab4b7dee8140302f73114", "is_disabled": 0, "lat": 38.899097, "is_reserved": 0, "type": "electric_scooter"}, {"fusion_lat": 0.0, "name": "7aac61d2eafc56026d12d0c3907c65e4", "lon": -77.02961083333334, "rental_uris": {"android": "https://dc.lft.to/lastmile_qr_scan", "ios": "https://dc.lft.to/lastmile_qr_scan"}, "fusion_lon": 0.0, "bike_id": "7aac61d2eafc56026d12d0c3907c65e4", "is_disabled": 0, "lat": 38.92582183333333, "is_reserved": 0, "type": "electric_scooter"}, {"fusion_lat": 0.0, "name": "f884f92c6857322b5f2839a4969070be", "lon": -77.05330366666666, "rental_uris": {"android": "https://dc.lft.to/lastmile_qr_scan", "ios": "https://dc.lft.to/lastmile_qr_scan"}, "fusion_lon": 0.0, "bike_id": "f884f92c6857322b5f2839a4969070be", "is_disabled": 0, "lat": 38.90000966666667, "is_reserved": 0, "type": "electric_scooter"}, {"fusion_lat": 0.0, "name": "1f625881f0def0e50090c65158896d3e", "lon": -77.043502, "rental_uris": {"android": "https://dc.lft.to/lastmile_qr_scan", "ios": "https://dc.lft.to/lastmile_qr_scan"}, "fusion_lon": 0.0, "bike_id": "1f625881f0def0e50090c65158896d3e", "is_disabled": 0, "lat": 38.905702833333336, "is_reserved": 0, "type": "electric_scooter"}, {"fusion_lat": 0.0, "name": "bce7a3eee2a97ee8b3af1032ebddd29c", "lon": -77.0441725, "rental_uris": {"android": "https://dc.lft.to/lastmile_qr_scan", "ios": "https://dc.lft.to/lastmile_qr_scan"}, "fusion_lon": 0.0, "bike_id": "bce7a3eee2a97ee8b3af1032ebddd29c", "is_disabled": 0, "lat": 38.912600833333336, "is_reserved": 0, "type": "electric_scooter"}, {"fusion_lat": 0.0, "name": "beaa36205c009393ab9d88de5bb091a6", "lon": -77.06702866666667, "rental_uris": {"android": "https://dc.lft.to/lastmile_qr_scan", "ios": "https://dc.lft.to/lastmile_qr_scan"}, "fusion_lon": 0.0, "bike_id": "beaa36205c009393ab9d88de5bb091a6", "is_disabled": 0, "lat": 38.91442966666666, "is_reserved": 0, "type": "electric_scooter"}, {"fusion_lat": 0.0, "name": "6602bfea36fcc36d305d969f400cc32f", "lon": -76.99348733333333, "rental_uris": {"android": "https://dc.lft.to/lastmile_qr_scan", "ios": "https://dc.lft.to/lastmile_qr_scan"}, "fusion_lon": 0.0, "bike_id": "6602bfea36fcc36d305d969f400cc32f", "is_disabled": 0, "lat": 38.8829445, "is_reserved": 0, "type": "electric_scooter"}, {"fusion_lat": 0.0, "name": "9f2515a691b8e2f661ce8a1c313d0dd5", "lon": -77.0432175, "rental_uris": {"android": "https://dc.lft.to/lastmile_qr_scan", "ios": "https://dc.lft.to/lastmile_qr_scan"}, "fusion_lon": 0.0, "bike_id": "9f2515a691b8e2f661ce8a1c313d0dd5", "is_disabled": 0, "lat": 38.900885, "is_reserved": 0, "type": "electric_scooter"}, {"fusion_lat": 0.0, "name": "70063e704cca0b48a9205710fb109804", "lon": -77.043627, "rental_uris": {"android": "https://dc.lft.to/lastmile_qr_scan", "ios": "https://dc.lft.to/lastmile_qr_scan"}, "fusion_lon": 0.0, "bike_id": "70063e704cca0b48a9205710fb109804", "is_disabled": 0, "lat": 38.9111965, "is_reserved": 0, "type": "electric_scooter"}, {"fusion_lat": 0.0, "name": "b2a9ada0235538f9a048815598005ac7", "lon": -77.02628116666666, "rental_uris": {"android": "https://dc.lft.to/lastmile_qr_scan", "ios": "https://dc.lft.to/lastmile_qr_scan"}, "fusion_lon": 0.0, "bike_id": "b2a9ada0235538f9a048815598005ac7", "is_disabled": 0, "lat": 38.93851033333333, "is_reserved": 0, "type": "electric_bike"}, {"fusion_lat": 0.0, "name": "5d3aab224fc10d8157d56caf4cb8e4d5", "lon": -77.00736816666667, "rental_uris": {"android": "https://dc.lft.to/lastmile_qr_scan", "ios": "https://dc.lft.to/lastmile_qr_scan"}, "fusion_lon": 0.0, "bike_id": "5d3aab224fc10d8157d56caf4cb8e4d5", "is_disabled": 0, "lat": 38.89828083333333, "is_reserved": 0, "type": "electric_scooter"}, {"fusion_lat": 0.0, "name": "72fef7e420b03e0f315305f49028e7c1", "lon": -77.051303, "rental_uris": {"android": "https://dc.lft.to/lastmile_qr_scan", "ios": "https://dc.lft.to/lastmile_qr_scan"}, "fusion_lon": 0.0, "bike_id": "72fef7e420b03e0f315305f49028e7c1", "is_disabled": 0, "lat": 38.923604166666664, "is_reserved": 0, "type": "electric_scooter"}, {"fusion_lat": 0.0, "name": "df7e2f2b24157b65eb1c108b11d2f57a", "lon": -77.02626933333333, "rental_uris": {"android": "https://dc.lft.to/lastmile_qr_scan", "ios": "https://dc.lft.to/lastmile_qr_scan"}, "fusion_lon": 0.0, "bike_id": "df7e2f2b24157b65eb1c108b11d2f57a", "is_disabled": 0, "lat": 38.892175, "is_reserved": 0, "type": "electric_scooter"}, {"fusion_lat": 0.0, "name": "324413cf20a8da082e3e78a7f01bbafd", "lon": -77.01341983333333, "rental_uris": {"android": "https://dc.lft.to/lastmile_qr_scan", "ios": "https://dc.lft.to/lastmile_qr_scan"}, "fusion_lon": 0.0, "bike_id": "324413cf20a8da082e3e78a7f01bbafd", "is_disabled": 0, "lat": 38.87810233333333, "is_reserved": 0, "type": "electric_scooter"}, {"fusion_lat": 0.0, "name": "0e2dbf6d107b5fe4619f0d3970cbeda4", "lon": -77.02765916666667, "rental_uris": {"android": "https://dc.lft.to/lastmile_qr_scan", "ios": "https://dc.lft.to/lastmile_qr_scan"}, "fusion_lon": 0.0, "bike_id": "0e2dbf6d107b5fe4619f0d3970cbeda4", "is_disabled": 0, "lat": 38.8919245, "is_reserved": 0, "type": "electric_scooter"}, {"fusion_lat": 0.0, "name": "837e98ee1c9b116c36d14caf95fdac50", "lon": -77.05490333333333, "rental_uris": {"android": "https://dc.lft.to/lastmile_qr_scan", "ios": "https://dc.lft.to/lastmile_qr_scan"}, "fusion_lon": 0.0, "bike_id": "837e98ee1c9b116c36d14caf95fdac50", "is_disabled": 0, "lat": 39.014749333333334, "is_reserved": 0, "type": "electric_bike"}, {"fusion_lat": 0.0, "name": "216b29310a2fe2e0a23e26f8e9c297a1", "lon": -76.98191083333333, "rental_uris": {"android": "https://dc.lft.to/lastmile_qr_scan", "ios": "https://dc.lft.to/lastmile_qr_scan"}, "fusion_lon": 0.0, "bike_id": "216b29310a2fe2e0a23e26f8e9c297a1", "is_disabled": 0, "lat": 38.96739, "is_reserved": 0, "type": "electric_bike"}, {"fusion_lat": 0.0, "name": "4b3321bd2e2376f1219bef998e0748ee", "lon": -77.023809, "rental_uris": {"android": "https://dc.lft.to/lastmile_qr_scan", "ios": "https://dc.lft.to/lastmile_qr_scan"}, "fusion_lon": 0.0, "bike_id": "4b3321bd2e2376f1219bef998e0748ee", "is_disabled": 0, "lat": 38.90362533333333, "is_reserved": 0, "type": "electric_scooter"}, {"fusion_lat": 0.0, "name": "432ef4a9419c9f38cfce028cd681c115", "lon": -77.03753916666666, "rental_uris": {"android": "https://dc.lft.to/lastmile_qr_scan", "ios": "https://dc.lft.to/lastmile_qr_scan"}, "fusion_lon": 0.0, "bike_id": "432ef4a9419c9f38cfce028cd681c115", "is_disabled": 0, "lat": 38.90772183333333, "is_reserved": 0, "type": "electric_scooter"}, {"fusion_lat": 0.0, "name": "91816f33a41155be425cc163a680b21b", "lon": -77.02841416666666, "rental_uris": {"android": "https://dc.lft.to/lastmile_qr_scan", "ios": "https://dc.lft.to/lastmile_qr_scan"}, "fusion_lon": 0.0, "bike_id": "91816f33a41155be425cc163a680b21b", "is_disabled": 0, "lat": 38.93412683333333, "is_reserved": 0, "type": "electric_scooter"}, {"fusion_lat": 0.0, "name": "813243ee1649ff81aa92e1a190097412", "lon": -77.02692333333333, "rental_uris": {"android": "https://dc.lft.to/lastmile_qr_scan", "ios": "https://dc.lft.to/lastmile_qr_scan"}, "fusion_lon": 0.0, "bike_id": "813243ee1649ff81aa92e1a190097412", "is_disabled": 0, "lat": 38.906524166666664, "is_reserved": 0, "type": "electric_scooter"}, {"fusion_lat": 0.0, "name": "6832e0e1ae922debd886e40a2e7c1dd4", "lon": -77.0466005, "rental_uris": {"android": "https://dc.lft.to/lastmile_qr_scan", "ios": "https://dc.lft.to/lastmile_qr_scan"}, "fusion_lon": 0.0, "bike_id": "6832e0e1ae922debd886e40a2e7c1dd4", "is_disabled": 0, "lat": 38.90407833333333, "is_reserved": 0, "type": "electric_scooter"}, {"fusion_lat": 0.0, "name": "216150fe3f9f602a7ea8d52bb2d9edfa", "lon": -77.0364265, "rental_uris": {"android": "https://dc.lft.to/lastmile_qr_scan", "ios": "https://dc.lft.to/lastmile_qr_scan"}, "fusion_lon": 0.0, "bike_id": "216150fe3f9f602a7ea8d52bb2d9edfa", "is_disabled": 0, "lat": 38.92272066666666, "is_reserved": 0, "type": "electric_scooter"}, {"fusion_lat": 0.0, "name": "aa777ca3c1ce3bfd0548f77e6ebcd92e", "lon": -77.00219583333333, "rental_uris": {"android": "https://dc.lft.to/lastmile_qr_scan", "ios": "https://dc.lft.to/lastmile_qr_scan"}, "fusion_lon": 0.0, "bike_id": "aa777ca3c1ce3bfd0548f77e6ebcd92e", "is_disabled": 0, "lat": 38.894564833333334, "is_reserved": 0, "type": "electric_scooter"}, {"fusion_lat": 0.0, "name": "5cdd4b178dca423d4fa1ea904cf8305c", "lon": -77.03273316666667, "rental_uris": {"android": "https://dc.lft.to/lastmile_qr_scan", "ios": "https://dc.lft.to/lastmile_qr_scan"}, "fusion_lon": 0.0, "bike_id": "5cdd4b178dca423d4fa1ea904cf8305c", "is_disabled": 0, "lat": 38.932528166666664, "is_reserved": 0, "type": "electric_scooter"}, {"fusion_lat": 0.0, "name": "9bf9f3fe38ea86980b68f056b8d445ae", "lon": -77.02281466666666, "rental_uris": {"android": "https://dc.lft.to/lastmile_qr_scan", "ios": "https://dc.lft.to/lastmile_qr_scan"}, "fusion_lon": 0.0, "bike_id": "9bf9f3fe38ea86980b68f056b8d445ae", "is_disabled": 0, "lat": 38.9077855, "is_reserved": 0, "type": "electric_scooter"}, {"fusion_lat": 0.0, "name": "a16aefd799e1f76d1430c9d521da5eb0", "lon": -77.03352383333333, "rental_uris": {"android": "https://dc.lft.to/lastmile_qr_scan", "ios": "https://dc.lft.to/lastmile_qr_scan"}, "fusion_lon": 0.0, "bike_id": "a16aefd799e1f76d1430c9d521da5eb0", "is_disabled": 0, "lat": 38.921658666666666, "is_reserved": 0, "type": "electric_scooter"}, {"fusion_lat": 0.0, "name": "a1fd472004772e48e81bdb991b3a2cec", "lon": -76.9929035, "rental_uris": {"android": "https://dc.lft.to/lastmile_qr_scan", "ios": "https://dc.lft.to/lastmile_qr_scan"}, "fusion_lon": 0.0, "bike_id": "a1fd472004772e48e81bdb991b3a2cec", "is_disabled": 0, "lat": 38.894877, "is_reserved": 0, "type": "electric_bike"}, {"fusion_lat": 0.0, "name": "ce5533bb903041874b4672edb1012ff1", "lon": -77.006089, "rental_uris": {"android": "https://dc.lft.to/lastmile_qr_scan", "ios": "https://dc.lft.to/lastmile_qr_scan"}, "fusion_lon": 0.0, "bike_id": "ce5533bb903041874b4672edb1012ff1", "is_disabled": 0, "lat": 38.8757535, "is_reserved": 0, "type": "electric_scooter"}, {"fusion_lat": 0.0, "name": "f5a5af770a63a3bfb7a4416431f3118f", "lon": -77.00354383333334, "rental_uris": {"android": "https://dc.lft.to/lastmile_qr_scan", "ios": "https://dc.lft.to/lastmile_qr_scan"}, "fusion_lon": 0.0, "bike_id": "f5a5af770a63a3bfb7a4416431f3118f", "is_disabled": 0, "lat": 38.881877333333335, "is_reserved": 0, "type": "electric_scooter"}, {"fusion_lat": 0.0, "name": "6cc56c79ebe8565b12cc876cca77dbe4", "lon": -77.02293566666667, "rental_uris": {"android": "https://dc.lft.to/lastmile_qr_scan", "ios": "https://dc.lft.to/lastmile_qr_scan"}, "fusion_lon": 0.0, "bike_id": "6cc56c79ebe8565b12cc876cca77dbe4", "is_disabled": 0, "lat": 38.91744766666667, "is_reserved": 0, "type": "electric_scooter"}, {"fusion_lat": 0.0, "name": "c882ea1e1da7e44166b4a5f3d587ef28", "lon": -77.02492666666667, "rental_uris": {"android": "https://dc.lft.to/lastmile_qr_scan", "ios": "https://dc.lft.to/lastmile_qr_scan"}, "fusion_lon": 0.0, "bike_id": "c882ea1e1da7e44166b4a5f3d587ef28", "is_disabled": 0, "lat": 38.91806833333333, "is_reserved": 0, "type": "electric_scooter"}, {"fusion_lat": 0.0, "name": "c6cf3b0ff646648b8a787ddc8075c823", "lon": -77.0293135, "rental_uris": {"android": "https://dc.lft.to/lastmile_qr_scan", "ios": "https://dc.lft.to/lastmile_qr_scan"}, "fusion_lon": 0.0, "bike_id": "c6cf3b0ff646648b8a787ddc8075c823", "is_disabled": 0, "lat": 38.898573166666665, "is_reserved": 0, "type": "electric_scooter"}, {"fusion_lat": 0.0, "name": "699d822cb4b272e182ee14ce2da4d56d", "lon": -77.06564883333333, "rental_uris": {"android": "https://dc.lft.to/lastmile_qr_scan", "ios": "https://dc.lft.to/lastmile_qr_scan"}, "fusion_lon": 0.0, "bike_id": "699d822cb4b272e182ee14ce2da4d56d", "is_disabled": 0, "lat": 38.883335, "is_reserved": 0, "type": "electric_bike"}, {"fusion_lat": 0.0, "name": "f2eb1643b8a63963afda68fcd6a1d13a", "lon": -77.037955, "rental_uris": {"android": "https://dc.lft.to/lastmile_qr_scan", "ios": "https://dc.lft.to/lastmile_qr_scan"}, "fusion_lon": 0.0, "bike_id": "f2eb1643b8a63963afda68fcd6a1d13a", "is_disabled": 0, "lat": 38.9198325, "is_reserved": 0, "type": "electric_scooter"}, {"fusion_lat": 0.0, "name": "0d2802d69eaa8288d22058fba3e6b00e", "lon": -76.9761565, "rental_uris": {"android": "https://dc.lft.to/lastmile_qr_scan", "ios": "https://dc.lft.to/lastmile_qr_scan"}, "fusion_lon": 0.0, "bike_id": "0d2802d69eaa8288d22058fba3e6b00e", "is_disabled": 0, "lat": 38.892876666666666, "is_reserved": 0, "type": "electric_bike"}, {"fusion_lat": 0.0, "name": "35de3e7a2d5c1ac68b6eefeaeaed1a6b", "lon": -77.1178245, "rental_uris": {"android": "https://dc.lft.to/lastmile_qr_scan", "ios": "https://dc.lft.to/lastmile_qr_scan"}, "fusion_lon": 0.0, "bike_id": "35de3e7a2d5c1ac68b6eefeaeaed1a6b", "is_disabled": 0, "lat": 39.05492, "is_reserved": 0, "type": "electric_bike"}, {"fusion_lat": 0.0, "name": "fccc580905e1ce455e3a7d8c0296d554", "lon": -77.01796916666666, "rental_uris": {"android": "https://dc.lft.to/lastmile_qr_scan", "ios": "https://dc.lft.to/lastmile_qr_scan"}, "fusion_lon": 0.0, "bike_id": "fccc580905e1ce455e3a7d8c0296d554", "is_disabled": 0, "lat": 38.918992833333334, "is_reserved": 0, "type": "electric_scooter"}, {"fusion_lat": 0.0, "name": "bc8e806c4a42584fc5e0404a239347b7", "lon": -77.0327415, "rental_uris": {"android": "https://dc.lft.to/lastmile_qr_scan", "ios": "https://dc.lft.to/lastmile_qr_scan"}, "fusion_lon": 0.0, "bike_id": "bc8e806c4a42584fc5e0404a239347b7", "is_disabled": 0, "lat": 38.940947333333334, "is_reserved": 0, "type": "electric_bike"}, {"fusion_lat": 0.0, "name": "0da019ac30775bf32759a38306e3e3bd", "lon": -77.03431133333333, "rental_uris": {"android": "https://dc.lft.to/lastmile_qr_scan", "ios": "https://dc.lft.to/lastmile_qr_scan"}, "fusion_lon": 0.0, "bike_id": "0da019ac30775bf32759a38306e3e3bd", "is_disabled": 0, "lat": 38.90094, "is_reserved": 0, "type": "electric_scooter"}, {"fusion_lat": 0.0, "name": "7f9f67a4f1ae6a38686ff33785cb50a2", "lon": -77.05314716666666, "rental_uris": {"android": "https://dc.lft.to/lastmile_qr_scan", "ios": "https://dc.lft.to/lastmile_qr_scan"}, "fusion_lon": 0.0, "bike_id": "7f9f67a4f1ae6a38686ff33785cb50a2", "is_disabled": 0, "lat": 38.904185, "is_reserved": 0, "type": "electric_scooter"}, {"fusion_lat": 0.0, "name": "a3f4531010a73665be7af101e7b55770", "lon": -77.0310915, "rental_uris": {"android": "https://dc.lft.to/lastmile_qr_scan", "ios": "https://dc.lft.to/lastmile_qr_scan"}, "fusion_lon": 0.0, "bike_id": "a3f4531010a73665be7af101e7b55770", "is_disabled": 0, "lat": 38.915601, "is_reserved": 0, "type": "electric_scooter"}, {"fusion_lat": 0.0, "name": "3fd1c359c1bee90b76c85faa904f2e42", "lon": -77.06372366666666, "rental_uris": {"android": "https://dc.lft.to/lastmile_qr_scan", "ios": "https://dc.lft.to/lastmile_qr_scan"}, "fusion_lon": 0.0, "bike_id": "3fd1c359c1bee90b76c85faa904f2e42", "is_disabled": 0, "lat": 38.90797233333333, "is_reserved": 0, "type": "electric_scooter"}, {"fusion_lat": 0.0, "name": "712d694b08e34d7c20e3f2d1155b9711", "lon": -77.039422, "rental_uris": {"android": "https://dc.lft.to/lastmile_qr_scan", "ios": "https://dc.lft.to/lastmile_qr_scan"}, "fusion_lon": 0.0, "bike_id": "712d694b08e34d7c20e3f2d1155b9711", "is_disabled": 0, "lat": 38.8986615, "is_reserved": 0, "type": "electric_scooter"}, {"fusion_lat": 0.0, "name": "e07764f97ce539ee6ddce2f01c77c6e6", "lon": -77.02268833333333, "rental_uris": {"android": "https://dc.lft.to/lastmile_qr_scan", "ios": "https://dc.lft.to/lastmile_qr_scan"}, "fusion_lon": 0.0, "bike_id": "e07764f97ce539ee6ddce2f01c77c6e6", "is_disabled": 0, "lat": 38.92473016666667, "is_reserved": 0, "type": "electric_scooter"}, {"fusion_lat": 0.0, "name": "46157c1d9ef4bd751d4a0146e3e5507a", "lon": -77.03194516666667, "rental_uris": {"android": "https://dc.lft.to/lastmile_qr_scan", "ios": "https://dc.lft.to/lastmile_qr_scan"}, "fusion_lon": 0.0, "bike_id": "46157c1d9ef4bd751d4a0146e3e5507a", "is_disabled": 0, "lat": 38.919514666666664, "is_reserved": 0, "type": "electric_scooter"}, {"fusion_lat": 0.0, "name": "37b21dcb212c8ecd049074ca5fc48775", "lon": -76.95196933333334, "rental_uris": {"android": "https://dc.lft.to/lastmile_qr_scan", "ios": "https://dc.lft.to/lastmile_qr_scan"}, "fusion_lon": 0.0, "bike_id": "37b21dcb212c8ecd049074ca5fc48775", "is_disabled": 0, "lat": 38.90002966666667, "is_reserved": 0, "type": "electric_scooter"},