{"data": {"bikes": [{"bike_id": "f6c29a3a4e6a1f6faaf9a418fa5ac5a4", "lon": -77.00743116666666, "lat": 38.911844333333335, "fusion_lon": 0.0, "rental_uris": {"ios": "https://dc.lft.to/lastmile_qr_scan", "android": "https://dc.lft.to/lastmile_qr_scan"}, "is_disabled": 0, "is_reserved": 0, "name": "f6c29a3a4e6a1f6faaf9a418fa5ac5a4", "type": "electric_scooter", "fusion_lat": 0.0}, {"bike_id": "4a767ef0d4fcddf2d0712080b0395b09", "lon": -76.98911966666667, "lat": 38.86631166666667, "fusion_lon": 0.0, "rental_uris": {"ios": "https://dc.lft.to/lastmile_qr_scan", "android": "https://dc.lft.to/lastmile_qr_scan"}, "is_disabled": 0, "is_reserved": 0, "name": "4a767ef0d4fcddf2d0712080b0395b09", "type": "electric_scooter", "fusion_lat": 0.0}, {"bike_id": "0527afaf29cdea4767e8678fd3c06eff", "lon": -76.92999383333333, "lat": 38.89699616666667, "fusion_lon": 0.0, "rental_uris": {"ios": "https://dc.lft.to/lastmile_qr_scan", "android": "https://dc.lft.to/lastmile_qr_scan"}, "is_disabled": 0, "is_reserved": 0, "name": "0527afaf29cdea4767e8678fd3c06eff", "type": "electric_scooter", "fusion_lat": 0.0}, {"bike_id": "2c82a9667fde37aca6146018dd201190", "lon": -77.02491583333334, "lat": 38.91708066666666, "fusion_lon": 0.0, "rental_uris": {"ios": "https://dc.lft.to/lastmile_qr_scan", "android": "https://dc.lft.to/lastmile_qr_scan"}, "is_disabled": 0, "is_reserved": 0, "name": "2c82a9667fde37aca6146018dd201190", "type": "electric_scooter", "fusion_lat": 0.0}, {"bike_id": "0b8dc36814b3cfde15a48af2831a51d1", "lon": -77.0318125, "lat": 38.90990633333333, "fusion_lon": 0.0, "rental_uris": {"ios": "https://dc.lft.to/lastmile_qr_scan", "android": "https://dc.lft.to/lastmile_qr_scan"}, "is_disabled": 0, "is_reserved": 0, "name": "0b8dc36814b3cfde15a48af2831a51d1", "type": "electric_scooter", "fusion_lat": 0.0}, {"bike_id": "2088ed0db564d7df104d8d78f3da608a", "lon": -77.02304283333334, "lat": 38.91645783333333, "fusion_lon": 0.0, "rental_uris": {"ios": "https://dc.lft.to/lastmile_qr_scan", "android": "https://dc.lft.to/lastmile_qr_scan"}, "is_disabled": 0, "is_reserved": 0, "name": "2088ed0db564d7df104d8d78f3da608a", "type": "electric_scooter", "fusion_lat": 0.0}, {"bike_id": "f4aa7c20fea6c4ddf8441e53752a8cc7", "lon": -77.0231115, "lat": 38.909584833333334, "fusion_lon": 0.0, "rental_uris": {"ios": "https://dc.lft.to/lastmile_qr_scan", "android": "https://dc.lft.to/lastmile_qr_scan"}, "is_disabled": 0, "is_reserved": 0, "name": "f4aa7c20fea6c4ddf8441e53752a8cc7", "type": "electric_scooter", "fusion_lat": 0.0}, {"bike_id": "805b730b5ccdecd6cf1d9d65a575550b", "lon": -77.04992133333333, "lat": 38.9037265, "fusion_lon": 0.0, "rental_uris": {"ios": "https://dc.lft.to/lastmile_qr_scan", "android": "https://dc.lft.to/lastmile_qr_scan"}, "is_disabled": 0, "is_reserved": 0, "name": "805b730b5ccdecd6cf1d9d65a575550b", "type": "electric_scooter", "fusion_lat": 0.0}, {"bike_id": "fba71253012a60d48ece20fc23b70c57", "lon": -77.04494183333334, "lat": 38.9037045, "fusion_lon": 0.0, "rental_uris": {"ios": "https://dc.lft.to/lastmile_qr_scan", "android": "https://dc.lft.to/lastmile_qr_scan"}, "is_disabled": 0, "is_reserved": 0, "name": "fba71253012a60d48ece20fc23b70c57", "type": "electric_scooter", "fusion_lat": 0.0}, {"bike_id": "5788e41918b041599100f42e95957208", "lon": -77.03213633333333, "lat": 38.9200155, "fusion_lon": 0.0, "rental_uris": {"ios": "https://dc.lft.to/lastmile_qr_scan", "android": "https://dc.lft.to/lastmile_qr_scan"}, "is_disabled": 0, "is_reserved": 0, "name": "5788e41918b041599100f42e95957208", "type": "electric_scooter", "fusion_lat": 0.0}, {"bike_id": "22f916cb4d2c8f7c6066f9894c6e5dee", "lon": -77.00066866666667, "lat": 38.9072205, "fusion_lon": 0.0, "rental_uris": {"ios": "https://dc.lft.to/lastmile_qr_scan", "android": "https://dc.lft.to/lastmile_qr_scan"}, "is_disabled": 0, "is_reserved": 0, "name": "22f916cb4d2c8f7c6066f9894c6e5dee", "type": "electric_scooter", "fusion_lat": 0.0}, {"bike_id": "1a7f5369535c780da7d5ae11b3c1d6df", "lon": -77.0213485, "lat": 38.936867, "fusion_lon": 0.0, "rental_uris": {"ios": "https://dc.lft.to/lastmile_qr_scan", "android": "https://dc.lft.to/lastmile_qr_scan"}, "is_disabled": 0, "is_reserved": 0, "name": "1a7f5369535c780da7d5ae11b3c1d6df", "type": "electric_bike", "fusion_lat": 0.0}, {"bike_id": "2191d4af422dd9f7d6b2097babd14428", "lon": -77.070598, "lat": 38.89925933333333, "fusion_lon": 0.0, "rental_uris": {"ios": "https://dc.lft.to/lastmile_qr_scan", "android": "https://dc.lft.to/lastmile_qr_scan"}, "is_disabled": 0, "is_reserved": 0, "name": "2191d4af422dd9f7d6b2097babd14428", "type": "electric_scooter", "fusion_lat": 0.0}, {"bike_id": "f37501612abf4d750e57bcbfeb6731a1", "lon": -77.05968916666667, "lat": 38.928366833333335, "fusion_lon": 0.0, "rental_uris": {"ios": "https://dc.lft.to/lastmile_qr_scan", "android": "https://dc.lft.to/lastmile_qr_scan"}, "is_disabled": 0, "is_reserved": 0, "name": "f37501612abf4d750e57bcbfeb6731a1", "type": "electric_scooter", "fusion_lat": 0.0}, {"bike_id": "d10c3405718644637865ad1bd39c988c", "lon": -77.06454816666667, "lat": 38.973971166666665, "fusion_lon": 0.0, "rental_uris": {"ios": "https://dc.lft.to/lastmile_qr_scan", "android": "https://dc.lft.to/lastmile_qr_scan"}, "is_disabled": 0, "is_reserved": 0, "name": "d10c3405718644637865ad1bd39c988c", "type": "electric_bike", "fusion_lat": 0.0}, {"bike_id": "37302fb88daefc4ecda9f1f26cc03e3a", "lon": -76.929838, "lat": 38.90145016666666, "fusion_lon": 0.0, "rental_uris": {"ios": "https://dc.lft.to/lastmile_qr_scan", "android": "https://dc.lft.to/lastmile_qr_scan"}, "is_disabled": 0, "is_reserved": 0, "name": "37302fb88daefc4ecda9f1f26cc03e3a", "type": "electric_scooter", "fusion_lat": 0.0}, {"bike_id": "dd2010bbd52f3db13167d54fcb7a0945", "lon": -77.041837, "lat": 38.90651166666667, "fusion_lon": 0.0, "rental_uris": {"ios": "https://dc.lft.to/lastmile_qr_scan", "android": "https://dc.lft.to/lastmile_qr_scan"}, "is_disabled": 0, "is_reserved": 0, "name": "dd2010bbd52f3db13167d54fcb7a0945", "type": "electric_scooter", "fusion_lat": 0.0}, {"bike_id": "87156f48321a162a09de1555f45126a6", "lon": -77.0320105, "lat": 38.9071225, "fusion_lon": 0.0, "rental_uris": {"ios": "https://dc.lft.to/lastmile_qr_scan", "android": "https://dc.lft.to/lastmile_qr_scan"}, "is_disabled": 0, "is_reserved": 0, "name": "87156f48321a162a09de1555f45126a6", "type": "electric_scooter", "fusion_lat": 0.0}, {"bike_id": "1d00481ecf6f20b3e549754fa222ebe2", "lon": -77.00445116666667, "lat": 38.8765755, "fusion_lon": 0.0, "rental_uris": {"ios": "https://dc.lft.to/lastmile_qr_scan", "android": "https://dc.lft.to/lastmile_qr_scan"}, "is_disabled": 0, "is_reserved": 0, "name": "1d00481ecf6f20b3e549754fa222ebe2", "type": "electric_scooter", "fusion_lat": 0.0}, {"bike_id": "ecb1c9b6d8dcd853ad0f6c5f656760e8", "lon": -76.98743283333333, "lat": 38.908028333333334, "fusion_lon": 0.0, "rental_uris": {"ios": "https://dc.lft.to/lastmile_qr_scan", "android": "https://dc.lft.to/lastmile_qr_scan"}, "is_disabled": 0, "is_reserved": 0, "name": "ecb1c9b6d8dcd853ad0f6c5f656760e8", "type": "electric_scooter", "fusion_lat": 0.0}, {"bike_id": "6634c5ad46c73be7d57a13f5fbc02ba7", "lon": -76.9676975, "lat": 38.8741935, "fusion_lon": 0.0, "rental_uris": {"ios": "https://dc.lft.to/lastmile_qr_scan", "android": "https://dc.lft.to/lastmile_qr_scan"}, "is_disabled": 0, "is_reserved": 0, "name": "6634c5ad46c73be7d57a13f5fbc02ba7", "type": "electric_scooter", "fusion_lat": 0.0}, {"bike_id": "1a6bfccbb6682348b4f85a4312e728a9", "lon": -77.02691716666666, "lat": 38.92252, "fusion_lon": 0.0, "rental_uris": {"ios": "https://dc.lft.to/lastmile_qr_scan", "android": "https://dc.lft.to/lastmile_qr_scan"}, "is_disabled": 0, "is_reserved": 0, "name": "1a6bfccbb6682348b4f85a4312e728a9", "type": "electric_scooter", "fusion_lat": 0.0}, {"bike_id": "b618f1ffa4524a1ef4f7dc9dee006706", "lon": -77.04905883333333, "lat": 38.888411833333336, "fusion_lon": 0.0, "rental_uris": {"ios": "https://dc.lft.to/lastmile_qr_scan", "android": "https://dc.lft.to/lastmile_qr_scan"}, "is_disabled": 0, "is_reserved": 0, "name": "b618f1ffa4524a1ef4f7dc9dee006706", "type": "electric_scooter", "fusion_lat": 0.0}, {"bike_id": "2a2b448e9447fa9fa99ad17e84126693", "lon": -77.0366565, "lat": 38.92241883333333, "fusion_lon": 0.0, "rental_uris": {"ios": "https://dc.lft.to/lastmile_qr_scan", "android": "https://dc.lft.to/lastmile_qr_scan"}, "is_disabled": 0, "is_reserved": 0, "name": "2a2b448e9447fa9fa99ad17e84126693", "type": "electric_scooter", "fusion_lat": 0.0}, {"bike_id": "80e7ef277cb70336ec04b4a7181d18ba", "lon": -77.0531795, "lat": 38.915530333333336, "fusion_lon": 0.0, "rental_uris": {"ios": "https://dc.lft.to/lastmile_qr_scan", "android": "https://dc.lft.to/lastmile_qr_scan"}, "is_disabled": 0, "is_reserved": 0, "name": "80e7ef277cb70336ec04b4a7181d18ba", "type": "electric_scooter", "fusion_lat": 0.0}, {"bike_id": "99a84158678b7cfaf2c4b444b3fd3b04", "lon": -77.04333066666666, "lat": 38.8922595, "fusion_lon": 0.0, "rental_uris": {"ios": "https://dc.lft.to/lastmile_qr_scan", "android": "https://dc.lft.to/lastmile_qr_scan"}, "is_disabled": 0, "is_reserved": 0, "name": "99a84158678b7cfaf2c4b444b3fd3b04", "type": "electric_scooter", "fusion_lat": 0.0}, {"bike_id": "e1f9570343ed7fa7613693bac728d0dc", "lon": -77.04764966666667, "lat": 38.917597, "fusion_lon": 0.0, "rental_uris": {"ios": "https://dc.lft.to/lastmile_qr_scan", "android": "https://dc.lft.to/lastmile_qr_scan"}, "is_disabled": 0, "is_reserved": 0, "name": "e1f9570343ed7fa7613693bac728d0dc", "type": "electric_scooter", "fusion_lat": 0.0}, {"bike_id": "bba7c431e97e3b2829211aa7179fecd6", "lon": -77.03831583333333, "lat": 38.9079825, "fusion_lon": 0.0, "rental_uris": {"ios": "https://dc.lft.to/lastmile_qr_scan", "android": "https://dc.lft.to/lastmile_qr_scan"}, "is_disabled": 0, "is_reserved": 0, "name": "bba7c431e97e3b2829211aa7179fecd6", "type": "electric_scooter", "fusion_lat": 0.0}, {"bike_id": "fab47729f2b3b98fe0581000d8a7d9a9", "lon": -77.03194533333334, "lat": 38.928614833333334, "fusion_lon": 0.0, "rental_uris": {"ios": "https://dc.lft.to/lastmile_qr_scan", "android": "https://dc.lft.to/lastmile_qr_scan"}, "is_disabled": 0, "is_reserved": 0, "name": "fab47729f2b3b98fe0581000d8a7d9a9", "type": "electric_scooter", "fusion_lat": 0.0}, {"bike_id": "8607b4db0f719ad445437143dbfe8ded", "lon": -77.06284966666666, "lat": 38.9044735, "fusion_lon": 0.0, "rental_uris": {"ios": "https://dc.lft.to/lastmile_qr_scan", "android": "https://dc.lft.to/lastmile_qr_scan"}, "is_disabled": 0, "is_reserved": 0, "name": "8607b4db0f719ad445437143dbfe8ded", "type": "electric_scooter", "fusion_lat": 0.0}, {"bike_id": "b5200aa88b81b1334dc379de8d1213bb", "lon": -77.03735583333334, "lat": 38.916216666666664, "fusion_lon": 0.0, "rental_uris": {"ios": "https://dc.lft.to/lastmile_qr_scan", "android": "https://dc.lft.to/lastmile_qr_scan"}, "is_disabled": 0, "is_reserved": 0, "name": "b5200aa88b81b1334dc379de8d1213bb", "type": "electric_scooter", "fusion_lat": 0.0}, {"bike_id": "68550dedc78fd249f294abd0de0958f1", "lon": -77.04022833333333, "lat": 38.918811166666664, "fusion_lon": 0.0, "rental_uris": {"ios": "https://dc.lft.to/lastmile_qr_scan", "android": "https://dc.lft.to/lastmile_qr_scan"}, "is_disabled": 0, "is_reserved": 0, "name": "68550dedc78fd249f294abd0de0958f1", "type": "electric_scooter", "fusion_lat": 0.0}, {"bike_id": "81648f15e3f611362866b2fd992c1e02", "lon": -76.97017466666667, "lat": 38.85064233333333, "fusion_lon": 0.0, "rental_uris": {"ios": "https://dc.lft.to/lastmile_qr_scan", "android": "https://dc.lft.to/lastmile_qr_scan"}, "is_disabled": 0, "is_reserved": 0, "name": "81648f15e3f611362866b2fd992c1e02", "type": "electric_scooter", "fusion_lat": 0.0}, {"bike_id": "1548976ff5b1065e7e0da4837403c149", "lon": -77.06536466666667, "lat": 38.95070033333333, "fusion_lon": 0.0, "rental_uris": {"ios": "https://dc.lft.to/lastmile_qr_scan", "android": "https://dc.lft.to/lastmile_qr_scan"}, "is_disabled": 0, "is_reserved": 0, "name": "1548976ff5b1065e7e0da4837403c149", "type": "electric_scooter", "fusion_lat": 0.0}, {"bike_id": "966892808ff3a27bd6cd532d7c714ddb", "lon": -77.04050016666666, "lat": 38.92876733333333, "fusion_lon": 0.0, "rental_uris": {"ios": "https://dc.lft.to/lastmile_qr_scan", "android": "https://dc.lft.to/lastmile_qr_scan"}, "is_disabled": 0, "is_reserved": 0, "name": "966892808ff3a27bd6cd532d7c714ddb", "type": "electric_scooter", "fusion_lat": 0.0}, {"bike_id": "b1cd00cfeeea9c6cd639503d3549c2bd", "lon": -77.0247635, "lat": 38.918694333333335, "fusion_lon": 0.0, "rental_uris": {"ios": "https://dc.lft.to/lastmile_qr_scan", "android": "https://dc.lft.to/lastmile_qr_scan"}, "is_disabled": 0, "is_reserved": 0, "name": "b1cd00cfeeea9c6cd639503d3549c2bd", "type": "electric_scooter", "fusion_lat": 0.0}, {"bike_id": "32b19ed8d995116a7d6fb532be7e876a", "lon": -77.0300875, "lat": 38.91914583333333, "fusion_lon": 0.0, "rental_uris": {"ios": "https://dc.lft.to/lastmile_qr_scan", "android": "https://dc.lft.to/lastmile_qr_scan"}, "is_disabled": 0, "is_reserved": 0, "name": "32b19ed8d995116a7d6fb532be7e876a", "type": "electric_scooter", "fusion_lat": 0.0}, {"bike_id": "3f19ec62ae9a0f6f7e7a585ec5783910", "lon": -77.01312433333334, "lat": 38.901363333333336, "fusion_lon": 0.0, "rental_uris": {"ios": "https://dc.lft.to/lastmile_qr_scan", "android": "https://dc.lft.to/lastmile_qr_scan"}, "is_disabled": 0, "is_reserved": 0, "name": "3f19ec62ae9a0f6f7e7a585ec5783910", "type": "electric_scooter", "fusion_lat": 0.0}, {"bike_id": "7935842f0254f97ab90b993d3d435325", "lon": -76.93971133333334, "lat": 38.89318016666667, "fusion_lon": 0.0, "rental_uris": {"ios": "https://dc.lft.to/lastmile_qr_scan", "android": "https://dc.lft.to/lastmile_qr_scan"}, "is_disabled": 0, "is_reserved": 0, "name": "7935842f0254f97ab90b993d3d435325", "type": "electric_scooter", "fusion_lat": 0.0}, {"bike_id": "670dbe6ca078879f09f6d7e625d0afb0", "lon": -77.03181266666667, "lat": 38.91323633333333, "fusion_lon": 0.0, "rental_uris": {"ios": "https://dc.lft.to/lastmile_qr_scan", "android": "https://dc.lft.to/lastmile_qr_scan"}, "is_disabled": 0, "is_reserved": 0, "name": "670dbe6ca078879f09f6d7e625d0afb0", "type": "electric_scooter", "fusion_lat": 0.0}, {"bike_id": "6b73fce7ce4fa2365042d5a0bccb0b7f", "lon": -77.04345566666667, "lat": 38.89647633333333, "fusion_lon": 0.0, "rental_uris": {"ios": "https://dc.lft.to/lastmile_qr_scan", "android": "https://dc.lft.to/lastmile_qr_scan"}, "is_disabled": 0, "is_reserved": 0, "name": "6b73fce7ce4fa2365042d5a0bccb0b7f", "type": "electric_scooter", "fusion_lat": 0.0}, {"bike_id": "bd4e1530e0fdafaa6eea3d8cddcd55b0", "lon": -76.98612166666666, "lat": 38.86689283333333, "fusion_lon": 0.0, "rental_uris": {"ios": "https://dc.lft.to/lastmile_qr_scan", "android": "https://dc.lft.to/lastmile_qr_scan"}, "is_disabled": 0, "is_reserved": 0, "name": "bd4e1530e0fdafaa6eea3d8cddcd55b0", "type": "electric_scooter", "fusion_lat": 0.0}, {"bike_id": "aa07e9d1d3b4c2a2530108b8c54c90ac", "lon": -76.9849565, "lat": 38.9132125, "fusion_lon": 0.0, "rental_uris": {"ios": "https://dc.lft.to/lastmile_qr_scan", "android": "https://dc.lft.to/lastmile_qr_scan"}, "is_disabled": 0, "is_reserved": 0, "name": "aa07e9d1d3b4c2a2530108b8c54c90ac", "type": "electric_scooter", "fusion_lat": 0.0}, {"bike_id": "f06934fa9b1cf2154e08fd7a7671474f", "lon": -77.032106, "lat": 38.89771966666667, "fusion_lon": 0.0, "rental_uris": {"ios": "https://dc.lft.to/lastmile_qr_scan", "android": "https://dc.lft.to/lastmile_qr_scan"}, "is_disabled": 0, "is_reserved": 0, "name": "f06934fa9b1cf2154e08fd7a7671474f", "type": "electric_scooter", "fusion_lat": 0.0}, {"bike_id": "e84737fbad45bfd93faed7da292ccd82", "lon": -76.93186833333333, "lat": 38.89877583333333, "fusion_lon": 0.0, "rental_uris": {"ios": "https://dc.lft.to/lastmile_qr_scan", "android": "https://dc.lft.to/lastmile_qr_scan"}, "is_disabled": 0, "is_reserved": 0, "name": "e84737fbad45bfd93faed7da292ccd82", "type": "electric_scooter", "fusion_lat": 0.0}, {"bike_id": "f4a646b1ac0cf20dbd4199f14c66ead6", "lon": -76.99752433333333, "lat": 38.83789983333333, "fusion_lon": 0.0, "rental_uris": {"ios": "https://dc.lft.to/lastmile_qr_scan", "android": "https://dc.lft.to/lastmile_qr_scan"}, "is_disabled": 0, "is_reserved": 0, "name": "f4a646b1ac0cf20dbd4199f14c66ead6", "type": "electric_bike", "fusion_lat": 0.0}, {"bike_id": "3315e011f747127548f8a1e4d7263088", "lon": -77.04187916666666, "lat": 38.90369833333333, "fusion_lon": 0.0, "rental_uris": {"ios": "https://dc.lft.to/lastmile_qr_scan", "android": "https://dc.lft.to/lastmile_qr_scan"}, "is_disabled": 0, "is_reserved": 0, "name": "3315e011f747127548f8a1e4d7263088", "type": "electric_scooter", "fusion_lat": 0.0}, {"bike_id": "1c91ddd14f8be8ddecbe6dd13e105b74", "lon": -77.00698766666666, "lat": 38.87940866666667, "fusion_lon": 0.0, "rental_uris": {"ios": "https://dc.lft.to/lastmile_qr_scan", "android": "https://dc.lft.to/lastmile_qr_scan"}, "is_disabled": 0, "is_reserved": 0, "name": "1c91ddd14f8be8ddecbe6dd13e105b74", "type": "electric_scooter", "fusion_lat": 0.0}, {"bike_id": "a92c1dd7bf7805fe3b253c0a93958e23", "lon": -77.01625033333333, "lat": 38.913608833333335, "fusion_lon": 0.0, "rental_uris": {"ios": "https://dc.lft.to/lastmile_qr_scan", "android": "https://dc.lft.to/lastmile_qr_scan"}, "is_disabled": 0, "is_reserved": 0, "name": "a92c1dd7bf7805fe3b253c0a93958e23", "type": "electric_scooter", "fusion_lat": 0.0}, {"bike_id": "96ead8e1d0a49d802cd0a6f68730420d", "lon": -77.01013683333333, "lat": 38.91187466666667, "fusion_lon": 0.0, "rental_uris": {"ios": "https://dc.lft.to/lastmile_qr_scan", "android": "https://dc.lft.to/lastmile_qr_scan"}, "is_disabled": 0, "is_reserved": 0, "name": "96ead8e1d0a49d802cd0a6f68730420d", "type": "electric_scooter", "fusion_lat": 0.0}, {"bike_id": "752151f9528758e48d6dcca39a9489f3", "lon": -77.03246383333334, "lat": 38.911239, "fusion_lon": 0.0, "rental_uris": {"ios": "https://dc.lft.to/lastmile_qr_scan", "android": "https://dc.lft.to/lastmile_qr_scan"}, "is_disabled": 0, "is_reserved": 0, "name": "752151f9528758e48d6dcca39a9489f3", "type": "electric_scooter", "fusion_lat": 0.0}, {"bike_id": "e7358813af2f65c4a9e6f404906fea9a", "lon": -77.02200583333334, "lat": 38.91053, "fusion_lon": 0.0, "rental_uris": {"ios": "https://dc.lft.to/lastmile_qr_scan", "android": "https://dc.lft.to/lastmile_qr_scan"}, "is_disabled": 0, "is_reserved": 0, "name": "e7358813af2f65c4a9e6f404906fea9a", "type": "electric_scooter", "fusion_lat": 0.0}, {"bike_id": "13608b2e22562af7b880f9a487cfd944", "lon": -76.99612633333334, "lat": 38.93085766666667, "fusion_lon": 0.0, "rental_uris": {"ios": "https://dc.lft.to/lastmile_qr_scan", "android": "https://dc.lft.to/lastmile_qr_scan"}, "is_disabled": 0, "is_reserved": 0, "name": "13608b2e22562af7b880f9a487cfd944", "type": "electric_scooter", "fusion_lat": 0.0}, {"bike_id": "c5df125b83ea2686da3345645c57279e", "lon": -77.02809433333333, "lat": 38.895033, "fusion_lon": 0.0, "rental_uris": {"ios": "https://dc.lft.to/lastmile_qr_scan", "android": "https://dc.lft.to/lastmile_qr_scan"}, "is_disabled": 0, "is_reserved": 0, "name": "c5df125b83ea2686da3345645c57279e", "type": "electric_scooter", "fusion_lat": 0.0}, {"bike_id": "6001b52f18c4326e80fe823e191bc9be", "lon": -76.94934016666667, "lat": 38.8935925, "fusion_lon": 0.0, "rental_uris": {"ios": "https://dc.lft.to/lastmile_qr_scan", "android": "https://dc.lft.to/lastmile_qr_scan"}, "is_disabled": 0, "is_reserved": 0, "name": "6001b52f18c4326e80fe823e191bc9be", "type": "electric_scooter", "fusion_lat": 0.0}, {"bike_id": "b000584640cb2632640ed12cb191fe7d", "lon": -77.04110233333333, "lat": 38.92312166666667, "fusion_lon": 0.0, "rental_uris": {"ios": "https://dc.lft.to/lastmile_qr_scan", "android": "https://dc.lft.to/lastmile_qr_scan"}, "is_disabled": 0, "is_reserved": 0, "name": "b000584640cb2632640ed12cb191fe7d", "type": "electric_scooter", "fusion_lat": 0.0}, {"bike_id": "ec143ace8033b95f29512eed29ec0afc", "lon": -77.026507, "lat": 38.92180333333334, "fusion_lon": 0.0, "rental_uris": {"ios": "https://dc.lft.to/lastmile_qr_scan", "android": "https://dc.lft.to/lastmile_qr_scan"}, "is_disabled": 0, "is_reserved": 0, "name": "ec143ace8033b95f29512eed29ec0afc", "type": "electric_scooter", "fusion_lat": 0.0}, {"bike_id": "197eba36c290c9d01eb3d71adc7002a9", "lon": -77.02811983333334, "lat": 38.90995816666667, "fusion_lon": 0.0, "rental_uris": {"ios": "https://dc.lft.to/lastmile_qr_scan", "android": "https://dc.lft.to/lastmile_qr_scan"}, "is_disabled": 0, "is_reserved": 0, "name": "197eba36c290c9d01eb3d71adc7002a9", "type": "electric_scooter", "fusion_lat": 0.0}, {"bike_id": "c2f41fb7959c3cd8dd8959fcb5d95216", "lon": -77.02406983333333, "lat": 38.915688833333334, "fusion_lon": 0.0, "rental_uris": {"ios": "https://dc.lft.to/lastmile_qr_scan", "android": "https://dc.lft.to/lastmile_qr_scan"}, "is_disabled": 0, "is_reserved": 0, "name": "c2f41fb7959c3cd8dd8959fcb5d95216", "type": "electric_scooter", "fusion_lat": 0.0}, {"bike_id": "412b3f42bf1d0d432145b0056019567d", "lon": -76.95749183333334, "lat": 38.96959833333333, "fusion_lon": 0.0, "rental_uris": {"ios": "https://dc.lft.to/lastmile_qr_scan", "android": "https://dc.lft.to/lastmile_qr_scan"}, "is_disabled": 0, "is_reserved": 0, "name": "412b3f42bf1d0d432145b0056019567d", "type": "electric_bike", "fusion_lat": 0.0}, {"bike_id": "4c3f04b073192344649ea51bb0c20105", "lon": -77.022497, "lat": 38.924691833333334, "fusion_lon": 0.0, "rental_uris": {"ios": "https://dc.lft.to/lastmile_qr_scan", "android": "https://dc.lft.to/lastmile_qr_scan"}, "is_disabled": 0, "is_reserved": 0, "name": "4c3f04b073192344649ea51bb0c20105", "type": "electric_scooter", "fusion_lat": 0.0}, {"bike_id": "9bcbaf15b920c5cb756d809879362fce", "lon": -77.024802, "lat": 38.880132833333334, "fusion_lon": 0.0, "rental_uris": {"ios": "https://dc.lft.to/lastmile_qr_scan", "android": "https://dc.lft.to/lastmile_qr_scan"}, "is_disabled": 0, "is_reserved": 0, "name": "9bcbaf15b920c5cb756d809879362fce", "type": "electric_scooter", "fusion_lat": 0.0}, {"bike_id": "7efd674109fdce0992417effed068c7f", "lon": -77.04496916666666, "lat": 38.9102865, "fusion_lon": 0.0, "rental_uris": {"ios": "https://dc.lft.to/lastmile_qr_scan", "android": "https://dc.lft.to/lastmile_qr_scan"}, "is_disabled": 0, "is_reserved": 0, "name": "7efd674109fdce0992417effed068c7f", "type": "electric_scooter", "fusion_lat": 0.0}, {"bike_id": "1518d48f8d8e23de32706902ca3d135c", "lon": -77.04688783333333, "lat": 38.89223233333333, "fusion_lon": 0.0, "rental_uris": {"ios": "https://dc.lft.to/lastmile_qr_scan", "android": "https://dc.lft.to/lastmile_qr_scan"}, "is_disabled": 0, "is_reserved": 0, "name": "1518d48f8d8e23de32706902ca3d135c", "type": "electric_scooter", "fusion_lat": 0.0}, {"bike_id": "6f999ca39fd847dd3d88f6c018c48d70", "lon": -77.03654283333333, "lat": 38.918487166666665, "fusion_lon": 0.0, "rental_uris": {"ios": "https://dc.lft.to/lastmile_qr_scan", "android": "https://dc.lft.to/lastmile_qr_scan"}, "is_disabled": 0, "is_reserved": 0, "name": "6f999ca39fd847dd3d88f6c018c48d70", "type": "electric_scooter", "fusion_lat": 0.0}, {"bike_id": "5954ab59d0c6a535227393599bb72a35", "lon": -76.9930495, "lat": 38.900142, "fusion_lon": 0.0, "rental_uris": {"ios": "https://dc.lft.to/lastmile_qr_scan", "android": "https://dc.lft.to/lastmile_qr_scan"}, "is_disabled": 0, "is_reserved": 0, "name": "5954ab59d0c6a535227393599bb72a35", "type": "electric_scooter", "fusion_lat": 0.0}, {"bike_id": "0573377d23fc1c17c4be9dc66519b1db", "lon": -77.04097266666666, "lat": 38.91566866666667, "fusion_lon": 0.0, "rental_uris": {"ios": "https://dc.lft.to/lastmile_qr_scan", "android": "https://dc.lft.to/lastmile_qr_scan"}, "is_disabled": 0, "is_reserved": 0, "name": "0573377d23fc1c17c4be9dc66519b1db", "type": "electric_scooter", "fusion_lat": 0.0}, {"bike_id": "f33581a77c8dea8d46bf8d67396c7dd5", "lon": -77.036428, "lat": 38.91743316666667, "fusion_lon": 0.0, "rental_uris": {"ios": "https://dc.lft.to/lastmile_qr_scan", "android": "https://dc.lft.to/lastmile_qr_scan"}, "is_disabled": 0, "is_reserved": 0, "name": "f33581a77c8dea8d46bf8d67396c7dd5", "type": "electric_scooter", "fusion_lat": 0.0}, {"bike_id": "a8527621299ee5be6358fc6d5c076b4a", "lon": -77.05495266666667, "lat": 39.01480133333333, "fusion_lon": 0.0, "rental_uris": {"ios": "https://dc.lft.to/lastmile_qr_scan", "android": "https://dc.lft.to/lastmile_qr_scan"}, "is_disabled": 0, "is_reserved": 0, "name": "a8527621299ee5be6358fc6d5c076b4a", "type": "electric_bike", "fusion_lat": 0.0}, {"bike_id": "1e803fec6a4b5ae3b99ed9a6685195d8", "lon": -77.04884283333334, "lat": 38.903947, "fusion_lon": 0.0, "rental_uris": {"ios": "https://dc.lft.to/lastmile_qr_scan", "android": "https://dc.lft.to/lastmile_qr_scan"}, "is_disabled": 0, "is_reserved": 0, "name": "1e803fec6a4b5ae3b99ed9a6685195d8", "type": "electric_scooter", "fusion_lat": 0.0}, {"bike_id": "64d6cdaf3a78ea4927a458c3b4f7403d", "lon": -77.0229505, "lat": 38.91701283333333, "fusion_lon": 0.0, "rental_uris": {"ios": "https://dc.lft.to/lastmile_qr_scan", "android": "https://dc.lft.to/lastmile_qr_scan"}, "is_disabled": 0, "is_reserved": 0, "name": "64d6cdaf3a78ea4927a458c3b4f7403d", "type": "electric_scooter", "fusion_lat": 0.0}, {"bike_id": "0acbf76210b4df643f9e98d5bd1a62cf", "lon": -77.02380733333334, "lat": 38.906345, "fusion_lon": 0.0, "rental_uris": {"ios": "https://dc.lft.to/lastmile_qr_scan", "android": "https://dc.lft.to/lastmile_qr_scan"}, "is_disabled": 0, "is_reserved": 0, "name": "0acbf76210b4df643f9e98d5bd1a62cf", "type": "electric_scooter", "fusion_lat": 0.0}, {"bike_id": "8f71b21246b44b1cd62b62b471827353", "lon": -76.99470183333334, "lat": 38.86211266666667, "fusion_lon": 0.0, "rental_uris": {"ios": "https://dc.lft.to/lastmile_qr_scan", "android": "https://dc.lft.to/lastmile_qr_scan"}, "is_disabled": 0, "is_reserved": 0, "name": "8f71b21246b44b1cd62b62b471827353", "type": "electric_scooter", "fusion_lat": 0.0}, {"bike_id": "1a3df8a25d961d194b7a6cb90a424835", "lon": -77.10838333333334, "lat": 38.812015333333335, "fusion_lon": 0.0, "rental_uris": {"ios": "https://dc.lft.to/lastmile_qr_scan", "android": "https://dc.lft.to/lastmile_qr_scan"}, "is_disabled": 0, "is_reserved": 0, "name": "1a3df8a25d961d194b7a6cb90a424835", "type": "electric_bike", "fusion_lat": 0.0}, {"bike_id": "b5087946234b02a3e0b25c68cdcd03e8", "lon": -77.027063, "lat": 38.9181315, "fusion_lon": 0.0, "rental_uris": {"ios": "https://dc.lft.to/lastmile_qr_scan", "android": "https://dc.lft.to/lastmile_qr_scan"}, "is_disabled": 0, "is_reserved": 0, "name": "b5087946234b02a3e0b25c68cdcd03e8", "type": "electric_scooter", "fusion_lat": 0.0}, {"bike_id": "73261ae7c0697a30e740803de7ea72bc", "lon": -77.04433716666666, "lat": 38.910137666666664, "fusion_lon": 0.0, "rental_uris": {"ios": "https://dc.lft.to/lastmile_qr_scan", "android": "https://dc.lft.to/lastmile_qr_scan"}, "is_disabled": 0, "is_reserved": 0, "name": "73261ae7c0697a30e740803de7ea72bc", "type": "electric_scooter", "fusion_lat": 0.0}, {"bike_id": "4c860a0f20ee07796e03b3cbf917e145", "lon": -77.04001616666666, "lat": 38.901265333333335, "fusion_lon": 0.0, "rental_uris": {"ios": "https://dc.lft.to/lastmile_qr_scan", "android": "https://dc.lft.to/lastmile_qr_scan"}, "is_disabled": 0, "is_reserved": 0, "name": "4c860a0f20ee07796e03b3cbf917e145", "type": "electric_scooter", "fusion_lat": 0.0}, {"bike_id": "7fb72a9fbf1984b33ec1bf92c171de43", "lon": -77.00780483333334, "lat": 38.897457333333335, "fusion_lon": 0.0, "rental_uris": {"ios": "https://dc.lft.to/lastmile_qr_scan", "android": "https://dc.lft.to/lastmile_qr_scan"}, "is_disabled": 0, "is_reserved": 0, "name": "7fb72a9fbf1984b33ec1bf92c171de43", "type": "electric_scooter", "fusion_lat": 0.0}, {"bike_id": "302036619c9430145b4fd35b8eabf5fb", "lon": -77.0689535, "lat": 38.906402, "fusion_lon": 0.0, "rental_uris": {"ios": "https://dc.lft.to/lastmile_qr_scan", "android": "https://dc.lft.to/lastmile_qr_scan"}, "is_disabled": 0, "is_reserved": 0, "name": "302036619c9430145b4fd35b8eabf5fb", "type": "electric_scooter", "fusion_lat": 0.0}, {"bike_id": "7b4334c774193c3a9c5d347a2808bc5c", "lon": -76.92707633333333, "lat": 38.88210083333333, "fusion_lon": 0.0, "rental_uris": {"ios": "https://dc.lft.to/lastmile_qr_scan", "android": "https://dc.lft.to/lastmile_qr_scan"}, "is_disabled": 0, "is_reserved": 0, "name": "7b4334c774193c3a9c5d347a2808bc5c", "type": "electric_scooter", "fusion_lat": 0.0}, {"bike_id": "cf6ed23373f3a6dd2910eb6c388c3e24", "lon": -77.01796583333334, "lat": 38.893176833333335, "fusion_lon": 0.0, "rental_uris": {"ios": "https://dc.lft.to/lastmile_qr_scan", "android": "https://dc.lft.to/lastmile_qr_scan"}, "is_disabled": 0, "is_reserved": 0, "name": "cf6ed23373f3a6dd2910eb6c388c3e24", "type": "electric_scooter", "fusion_lat": 0.0}, {"bike_id": "130b8faddb5dc0f9034e330a60ea47cf", "lon": -77.00068916666666, "lat": 38.90841183333333, "fusion_lon": 0.0, "rental_uris": {"ios": "https://dc.lft.to/lastmile_qr_scan", "android": "https://dc.lft.to/lastmile_qr_scan"}, "is_disabled": 0, "is_reserved": 0, "name": "130b8faddb5dc0f9034e330a60ea47cf", "type": "electric_scooter", "fusion_lat": 0.0}, {"bike_id": "998d1c715e86c7b9a6beb3a299d40527", "lon": -77.03544033333333, "lat": 38.92647316666667, "fusion_lon": 0.0, "rental_uris": {"ios": "https://dc.lft.to/lastmile_qr_scan", "android": "https://dc.lft.to/lastmile_qr_scan"}, "is_disabled": 0, "is_reserved": 0, "name": "998d1c715e86c7b9a6beb3a299d40527", "type": "electric_scooter", "fusion_lat": 0.0}, {"bike_id": "931f7d5ef4bdef7b1a712bb2c0f0817a", "lon": -77.05065333333333, "lat": 38.92411383333334, "fusion_lon": 0.0, "rental_uris": {"ios": "https://dc.lft.to/lastmile_qr_scan", "android": "https://dc.lft.to/lastmile_qr_scan"}, "is_disabled": 0, "is_reserved": 0, "name": "931f7d5ef4bdef7b1a712bb2c0f0817a", "type": "electric_scooter", "fusion_lat": 0.0}, {"bike_id": "2213bb0d24dbe1c8d2fb3683566212f6", "lon": -76.99678833333333, "lat": 38.9219195, "fusion_lon": 0.0, "rental_uris": {"ios": "https://dc.lft.to/lastmile_qr_scan", "android": "https://dc.lft.to/lastmile_qr_scan"}, "is_disabled": 0, "is_reserved": 0, "name": "2213bb0d24dbe1c8d2fb3683566212f6", "type": "electric_scooter", "fusion_lat": 0.0}, {"bike_id": "1cab495c48999828e75b1ef6463c30d7", "lon": -76.99694683333334, "lat": 38.921855, "fusion_lon": 0.0, "rental_uris": {"ios": "https://dc.lft.to/lastmile_qr_scan", "android": "https://dc.lft.to/lastmile_qr_scan"}, "is_disabled": 0, "is_reserved": 0, "name": "1cab495c48999828e75b1ef6463c30d7", "type": "electric_scooter", "fusion_lat": 0.0}, {"bike_id": "07bf9e5a5b8f3de7178d3c53ff0b442d", "lon": -77.01024533333333, "lat": 38.88514133333334, "fusion_lon": 0.0, "rental_uris": {"ios": "https://dc.lft.to/lastmile_qr_scan", "android": "https://dc.lft.to/lastmile_qr_scan"}, "is_disabled": 0, "is_reserved": 0, "name": "07bf9e5a5b8f3de7178d3c53ff0b442d", "type": "electric_scooter", "fusion_lat": 0.0}, {"bike_id": "69fa4ff0ab294754171de74fa64b10ca", "lon": -77.017264, "lat": 38.97728016666667, "fusion_lon": 0.0, "rental_uris": {"ios": "https://dc.lft.to/lastmile_qr_scan", "android": "https://dc.lft.to/lastmile_qr_scan"}, "is_disabled": 0, "is_reserved": 0, "name": "69fa4ff0ab294754171de74fa64b10ca", "type": "electric_scooter", "fusion_lat": 0.0}, {"bike_id": "2db411b5a24a2904aee2ca0b82c37c60", "lon": -76.99675, "lat": 38.79598216666667, "fusion_lon": 0.0, "rental_uris": {"ios": "https://dc.lft.to/lastmile_qr_scan", "android": "https://dc.lft.to/lastmile_qr_scan"}, "is_disabled": 0, "is_reserved": 0, "name": "2db411b5a24a2904aee2ca0b82c37c60", "type": "electric_bike", "fusion_lat": 0.0}, {"bike_id": "06907eaa02e5e192b00a432126c83634", "lon": -76.94779516666667, "lat": 38.888835666666665, "fusion_lon": 0.0, "rental_uris": {"ios": "https://dc.lft.to/lastmile_qr_scan", "android": "https://dc.lft.to/lastmile_qr_scan"}, "is_disabled": 0, "is_reserved": 0, "name": "06907eaa02e5e192b00a432126c83634", "type": "electric_scooter", "fusion_lat": 0.0}, {"bike_id": "aa5c7fb28df1316b8ec698c77434aa0f", "lon": -77.03198466666667, "lat": 38.9094485, "fusion_lon": 0.0, "rental_uris": {"ios": "https://dc.lft.to/lastmile_qr_scan", "android": "https://dc.lft.to/lastmile_qr_scan"}, "is_disabled": 0, "is_reserved": 0, "name": "aa5c7fb28df1316b8ec698c77434aa0f", "type": "electric_scooter", "fusion_lat": 0.0}, {"bike_id": "b39ba14dd11fc61293aa3a7922b47d0d", "lon": -76.97829666666667, "lat": 38.907727333333334, "fusion_lon": 0.0, "rental_uris": {"ios": "https://dc.lft.to/lastmile_qr_scan", "android": "https://dc.lft.to/lastmile_qr_scan"}, "is_disabled": 0, "is_reserved": 0, "name": "b39ba14dd11fc61293aa3a7922b47d0d", "type": "electric_scooter", "fusion_lat": 0.0}, {"bike_id": "b309eab60539ea7c225092baf080642c", "lon": -77.02416333333333, "lat": 38.90294883333333, "fusion_lon": 0.0, "rental_uris": {"ios": "https://dc.lft.to/lastmile_qr_scan", "android": "https://dc.lft.to/lastmile_qr_scan"}, "is_disabled": 0, "is_reserved": 0, "name": "b309eab60539ea7c225092baf080642c", "type": "electric_scooter", "fusion_lat": 0.0}, {"bike_id": "bc6397852823892dbd8ea5607f7758a5", "lon": -77.03464416666667, "lat": 38.9024595, "fusion_lon": 0.0, "rental_uris": {"ios": "https://dc.lft.to/lastmile_qr_scan", "android": "https://dc.lft.to/lastmile_qr_scan"}, "is_disabled": 0, "is_reserved": 0, "name": "bc6397852823892dbd8ea5607f7758a5", "type": "electric_scooter", "fusion_lat": 0.0}, {"bike_id": "96cb005879ec5b740ab7c9bea27d5272", "lon": -77.02301716666666, "lat": 38.915867166666665, "fusion_lon": 0.0, "rental_uris": {"ios": "https://dc.lft.to/lastmile_qr_scan", "android": "https://dc.lft.to/lastmile_qr_scan"}, "is_disabled": 0, "is_reserved": 0, "name": "96cb005879ec5b740ab7c9bea27d5272", "type": "electric_scooter", "fusion_lat": 0.0}, {"bike_id": "ae2723bd4964290a483fa3fe5b352748", "lon": -77.04665166666666, "lat": 38.900624666666666, "fusion_lon": 0.0, "rental_uris": {"ios": "https://dc.lft.to/lastmile_qr_scan", "android": "https://dc.lft.to/lastmile_qr_scan"}, "is_disabled": 0, "is_reserved": 0, "name": "ae2723bd4964290a483fa3fe5b352748", "type": "electric_scooter", "fusion_lat": 0.0}, {"bike_id": "cad8f58e899a397397566643b3bff96f", "lon": -76.98743066666667, "lat": 38.919004, "fusion_lon": 0.0, "rental_uris": {"ios": "https://dc.lft.to/lastmile_qr_scan", "android": "https://dc.lft.to/lastmile_qr_scan"}, "is_disabled": 0, "is_reserved": 0, "name": "cad8f58e899a397397566643b3bff96f", "type": "electric_scooter", "fusion_lat": 0.0}, {"bike_id": "58fc69eebe0c4596db5ff804163eb15b", "lon": -77.02744166666666, "lat": 38.952122, "fusion_lon": 0.0, "rental_uris": {"ios": "https://dc.lft.to/lastmile_qr_scan", "android": "https://dc.lft.to/lastmile_qr_scan"}, "is_disabled": 0, "is_reserved": 0, "name": "58fc69eebe0c4596db5ff804163eb15b", "type": "electric_scooter", "fusion_lat": 0.0}, {"bike_id": "daa3c8764db5378464d11e786f6710d0", "lon": -77.02671333333333, "lat": 38.995932333333336, "fusion_lon": 0.0, "rental_uris": {"ios": "https://dc.lft.to/lastmile_qr_scan", "android": "https://dc.lft.to/lastmile_qr_scan"}, "is_disabled": 0, "is_reserved": 0, "name": "daa3c8764db5378464d11e786f6710d0", "type": "electric_bike", "fusion_lat": 0.0}, {"bike_id": "2cf284313994bf49c03e6b3b1dbf6258", "lon": -77.02366066666667, "lat": 38.89224866666667, "fusion_lon": 0.0, "rental_uris": {"ios": "https://dc.lft.to/lastmile_qr_scan", "android": "https://dc.lft.to/lastmile_qr_scan"}, "is_disabled": 0, "is_reserved": 0, "name": "2cf284313994bf49c03e6b3b1dbf6258", "type": "electric_scooter", "fusion_lat": 0.0}, {"bike_id": "f1b3e9c18a282d81dbeac75e4aa4023f", "lon": -76.93156833333333, "lat": 38.908250333333335, "fusion_lon": 0.0, "rental_uris": {"ios": "https://dc.lft.to/lastmile_qr_scan", "android": "https://dc.lft.to/lastmile_qr_scan"}, "is_disabled": 0, "is_reserved": 0, "name": "f1b3e9c18a282d81dbeac75e4aa4023f", "type": "electric_scooter", "fusion_lat": 0.0}, {"bike_id": "057c512bf7f5c954cb8f54a181b91c30", "lon": -77.04562966666667, "lat": 38.90963166666667, "fusion_lon": 0.0, "rental_uris": {"ios": "https://dc.lft.to/lastmile_qr_scan", "android": "https://dc.lft.to/lastmile_qr_scan"}, "is_disabled": 0, "is_reserved": 0, "name": "057c512bf7f5c954cb8f54a181b91c30", "type": "electric_scooter", "fusion_lat": 0.0}, {"bike_id": "b93036fa8db5abd9a2b596a49a615f19", "lon": -77.032865, "lat": 38.930550333333336, "fusion_lon": 0.0, "rental_uris": {"ios": "https://dc.lft.to/lastmile_qr_scan", "android": "https://dc.lft.to/lastmile_qr_scan"}, "is_disabled": 0, "is_reserved": 0, "name": "b93036fa8db5abd9a2b596a49a615f19", "type": "electric_scooter", "fusion_lat": 0.0}, {"bike_id": "9309a33d54c1e5bebffd8e7d9f9ec1ac", "lon": -76.99642266666666, "lat": 38.9044005, "fusion_lon": 0.0, "rental_uris": {"ios": "https://dc.lft.to/lastmile_qr_scan", "android": "https://dc.lft.to/lastmile_qr_scan"}, "is_disabled": 0, "is_reserved": 0, "name": "9309a33d54c1e5bebffd8e7d9f9ec1ac", "type": "electric_scooter", "fusion_lat": 0.0}, {"bike_id": "05297816150f930fcb670daef49d65a9", "lon": -77.025029, "lat": 38.942004, "fusion_lon": 0.0, "rental_uris": {"ios": "https://dc.lft.to/lastmile_qr_scan", "android": "https://dc.lft.to/lastmile_qr_scan"}, "is_disabled": 0, "is_reserved": 0, "name": "05297816150f930fcb670daef49d65a9", "type": "electric_scooter", "fusion_lat": 0.0}, {"bike_id": "0df5c4a60f5884be6382bd1d4be98174", "lon": -77.027295, "lat": 38.887461333333334, "fusion_lon": 0.0, "rental_uris": {"ios": "https://dc.lft.to/lastmile_qr_scan", "android": "https://dc.lft.to/lastmile_qr_scan"}, "is_disabled": 0, "is_reserved": 0, "name": "0df5c4a60f5884be6382bd1d4be98174", "type": "electric_scooter", "fusion_lat": 0.0}, {"bike_id": "30bba427e14138d794f41731523f1cd0", "lon": -77.02389416666666, "lat": 38.911442, "fusion_lon": 0.0, "rental_uris": {"ios": "https://dc.lft.to/lastmile_qr_scan", "android": "https://dc.lft.to/lastmile_qr_scan"}, "is_disabled": 0, "is_reserved": 0, "name": "30bba427e14138d794f41731523f1cd0", "type": "electric_scooter", "fusion_lat": 0.0}, {"bike_id": "7aa829bd4b5c8bc6af6088981be42460", "lon": -77.04119683333333, "lat": 38.90280416666667, "fusion_lon": 0.0, "rental_uris": {"ios": "https://dc.lft.to/lastmile_qr_scan", "android": "https://dc.lft.to/lastmile_qr_scan"}, "is_disabled": 0, "is_reserved": 0, "name": "7aa829bd4b5c8bc6af6088981be42460", "type": "electric_scooter", "fusion_lat": 0.0}, {"bike_id": "d918804bfe8381203078421b8a7e8075", "lon": -77.028583, "lat": 38.89721733333333, "fusion_lon": 0.0, "rental_uris": {"ios": "https://dc.lft.to/lastmile_qr_scan", "android": "https://dc.lft.to/lastmile_qr_scan"}, "is_disabled": 0, "is_reserved": 0, "name": "d918804bfe8381203078421b8a7e8075", "type": "electric_scooter", "fusion_lat": 0.0}, {"bike_id": "be75bb0b819998c11bfcb52be7a3786c", "lon": -77.04777783333333, "lat": 38.917615166666664, "fusion_lon": 0.0, "rental_uris": {"ios": "https://dc.lft.to/lastmile_qr_scan", "android": "https://dc.lft.to/lastmile_qr_scan"}, "is_disabled": 0, "is_reserved": 0, "name": "be75bb0b819998c11bfcb52be7a3786c", "type": "electric_scooter", "fusion_lat": 0.0}, {"bike_id": "5dd45fb77af0bcef56aa2a62fb8b0934", "lon": -77.04286616666667, "lat": 38.90803483333333, "fusion_lon": 0.0, "rental_uris": {"ios": "https://dc.lft.to/lastmile_qr_scan", "android": "https://dc.lft.to/lastmile_qr_scan"}, "is_disabled": 0, "is_reserved": 0, "name": "5dd45fb77af0bcef56aa2a62fb8b0934", "type": "electric_scooter", "fusion_lat": 0.0}, {"bike_id": "7cbff86f07950d14725a238837b300f4", "lon": -76.973357, "lat": 38.86515416666667, "fusion_lon": 0.0, "rental_uris": {"ios": "https://dc.lft.to/lastmile_qr_scan", "android": "https://dc.lft.to/lastmile_qr_scan"}, "is_disabled": 0, "is_reserved": 0, "name": "7cbff86f07950d14725a238837b300f4", "type": "electric_bike", "fusion_lat": 0.0}, {"bike_id": "c29375521095398250c2ef596ec5d023", "lon": -77.0078325, "lat": 38.897233166666666, "fusion_lon": 0.0, "rental_uris": {"ios": "https://dc.lft.to/lastmile_qr_scan", "android": "https://dc.lft.to/lastmile_qr_scan"}, "is_disabled": 0, "is_reserved": 0, "name": "c29375521095398250c2ef596ec5d023", "type": "electric_scooter", "fusion_lat": 0.0}, {"bike_id": "e1405daf58f1517f0ca50c8e2427f138", "lon": -76.99542666666666, "lat": 38.926658833333335, "fusion_lon": 0.0, "rental_uris": {"ios": "https://dc.lft.to/lastmile_qr_scan", "android": "https://dc.lft.to/lastmile_qr_scan"}, "is_disabled": 0, "is_reserved": 0, "name": "e1405daf58f1517f0ca50c8e2427f138", "type": "electric_scooter", "fusion_lat": 0.0}, {"bike_id": "69d00afee5c697c741e3b2b0ad7bc5e2", "lon": -77.0364465, "lat": 38.917441833333335, "fusion_lon": 0.0, "rental_uris": {"ios": "https://dc.lft.to/lastmile_qr_scan", "android": "https://dc.lft.to/lastmile_qr_scan"}, "is_disabled": 0, "is_reserved": 0, "name": "69d00afee5c697c741e3b2b0ad7bc5e2", "type": "electric_scooter", "fusion_lat": 0.0}, {"bike_id": "ea18763689bed11229331ad1f9fe7053", "lon": -77.0351405, "lat": 38.92160483333333, "fusion_lon": 0.0, "rental_uris": {"ios": "https://dc.lft.to/lastmile_qr_scan", "android": "https://dc.lft.to/lastmile_qr_scan"}, "is_disabled": 0, "is_reserved": 0, "name": "ea18763689bed11229331ad1f9fe7053", "type": "electric_scooter", "fusion_lat": 0.0}, {"bike_id": "8c8fbb5189a1622f00d4c036068ced85", "lon": -77.0312145, "lat": 38.91706683333334, "fusion_lon": 0.0, "rental_uris": {"ios": "https://dc.lft.to/lastmile_qr_scan", "android": "https://dc.lft.to/lastmile_qr_scan"}, "is_disabled": 0, "is_reserved": 0, "name": "8c8fbb5189a1622f00d4c036068ced85", "type": "electric_scooter", "fusion_lat": 0.0}, {"bike_id": "9f876441aba0d0eb4910a1c9c822fd58", "lon": -77.02197383333333, "lat": 38.91044566666667, "fusion_lon": 0.0, "rental_uris": {"ios": "https://dc.lft.to/lastmile_qr_scan", "android": "https://dc.lft.to/lastmile_qr_scan"}, "is_disabled": 0, "is_reserved": 0, "name": "9f876441aba0d0eb4910a1c9c822fd58", "type": "electric_scooter", "fusion_lat": 0.0}, {"bike_id": "92b387ba95a512b5e6ffa0f20c1f9ef8", "lon": -77.02593766666666, "lat": 38.91690066666666, "fusion_lon": 0.0, "rental_uris": {"ios": "https://dc.lft.to/lastmile_qr_scan", "android": "https://dc.lft.to/lastmile_qr_scan"}, "is_disabled": 0, "is_reserved": 0, "name": "92b387ba95a512b5e6ffa0f20c1f9ef8", "type": "electric_scooter", "fusion_lat": 0.0}, {"bike_id": "7627543a2bbad15794a33dc5c6b0cfd1", "lon": -77.020957, "lat": 38.9326545, "fusion_lon": 0.0, "rental_uris": {"ios": "https://dc.lft.to/lastmile_qr_scan", "android": "https://dc.lft.to/lastmile_qr_scan"}, "is_disabled": 0, "is_reserved": 0, "name": "7627543a2bbad15794a33dc5c6b0cfd1", "type": "electric_scooter", "fusion_lat": 0.0}, {"bike_id": "93131325f0561bdd5fc7549ab930efb4", "lon": -77.04467033333333, "lat": 38.911030833333335, "fusion_lon": 0.0, "rental_uris": {"ios": "https://dc.lft.to/lastmile_qr_scan", "android": "https://dc.lft.to/lastmile_qr_scan"}, "is_disabled": 0, "is_reserved": 0, "name": "93131325f0561bdd5fc7549ab930efb4", "type": "electric_scooter", "fusion_lat": 0.0}, {"bike_id": "f36dbad5fe7d9919384ac2e6925f9999", "lon": -77.01374316666667, "lat": 38.87087433333333, "fusion_lon": 0.0, "rental_uris": {"ios": "https://dc.lft.to/lastmile_qr_scan", "android": "https://dc.lft.to/lastmile_qr_scan"}, "is_disabled": 0, "is_reserved": 0, "name": "f36dbad5fe7d9919384ac2e6925f9999", "type": "electric_scooter", "fusion_lat": 0.0}, {"bike_id": "ec8767d001591725dbe27c45a05f72ec", "lon": -77.00703233333333, "lat": 38.900281166666666, "fusion_lon": 0.0, "rental_uris": {"ios": "https://dc.lft.to/lastmile_qr_scan", "android": "https://dc.lft.to/lastmile_qr_scan"}, "is_disabled": 0, "is_reserved": 0, "name": "ec8767d001591725dbe27c45a05f72ec", "type": "electric_scooter", "fusion_lat": 0.0}, {"bike_id": "16ef68e7144db750ba9f67202a7ebea1", "lon": -77.04106583333333, "lat": 38.92447283333333, "fusion_lon": 0.0, "rental_uris": {"ios": "https://dc.lft.to/lastmile_qr_scan", "android": "https://dc.lft.to/lastmile_qr_scan"}, "is_disabled": 0, "is_reserved": 0, "name": "16ef68e7144db750ba9f67202a7ebea1", "type": "electric_scooter", "fusion_lat": 0.0}, {"bike_id": "9773ece94ea5863d0b279e8c4342fd89", "lon": -77.05899866666667, "lat": 38.9053665, "fusion_lon": 0.0, "rental_uris": {"ios": "https://dc.lft.to/lastmile_qr_scan", "android": "https://dc.lft.to/lastmile_qr_scan"}, "is_disabled": 0, "is_reserved": 0, "name": "9773ece94ea5863d0b279e8c4342fd89", "type": "electric_scooter", "fusion_lat": 0.0}, {"bike_id": "5b78d1b28f92272d81033c42c6938150", "lon": -77.03183083333333, "lat": 38.9087585, "fusion_lon": 0.0, "rental_uris": {"ios": "https://dc.lft.to/lastmile_qr_scan", "android": "https://dc.lft.to/lastmile_qr_scan"}, "is_disabled": 0, "is_reserved": 0, "name": "5b78d1b28f92272d81033c42c6938150", "type": "electric_scooter", "fusion_lat": 0.0}, {"bike_id": "6c9a913020404d1606b9ec1b54f43c56", "lon": -76.98932616666667, "lat": 38.90237, "fusion_lon": 0.0, "rental_uris": {"ios": "https://dc.lft.to/lastmile_qr_scan", "android": "https://dc.lft.to/lastmile_qr_scan"}, "is_disabled": 0, "is_reserved": 0, "name": "6c9a913020404d1606b9ec1b54f43c56", "type": "electric_scooter", "fusion_lat": 0.0}, {"bike_id": "e9d97258e24c735681dd261ee463d934", "lon": -77.00712266666666, "lat": 38.884912, "fusion_lon": 0.0, "rental_uris": {"ios": "https://dc.lft.to/lastmile_qr_scan", "android": "https://dc.lft.to/lastmile_qr_scan"}, "is_disabled": 0, "is_reserved": 0, "name": "e9d97258e24c735681dd261ee463d934", "type": "electric_scooter", "fusion_lat": 0.0}, {"bike_id": "28972d90c50d0b4e7bf7c20f70ac2b54", "lon": -77.03662183333333, "lat": 38.92242866666667, "fusion_lon": 0.0, "rental_uris": {"ios": "https://dc.lft.to/lastmile_qr_scan", "android": "https://dc.lft.to/lastmile_qr_scan"}, "is_disabled": 0, "is_reserved": 0, "name": "28972d90c50d0b4e7bf7c20f70ac2b54", "type": "electric_scooter", "fusion_lat": 0.0}, {"bike_id": "d2dc45f958371914373b6e17aa5976e1", "lon": -77.00304483333333, "lat": 38.9003555, "fusion_lon": 0.0, "rental_uris": {"ios": "https://dc.lft.to/lastmile_qr_scan", "android": "https://dc.lft.to/lastmile_qr_scan"}, "is_disabled": 0, "is_reserved": 0, "name": "d2dc45f958371914373b6e17aa5976e1", "type": "electric_scooter", "fusion_lat": 0.0}, {"bike_id": "e02ddb9c0449bfa26ee7bc4b871b4b9b", "lon": -77.038763, "lat": 38.902442, "fusion_lon": 0.0, "rental_uris": {"ios": "https://dc.lft.to/lastmile_qr_scan", "android": "https://dc.lft.to/lastmile_qr_scan"}, "is_disabled": 0, "is_reserved": 0, "name": "e02ddb9c0449bfa26ee7bc4b871b4b9b", "type": "electric_scooter", "fusion_lat": 0.0}, {"bike_id": "6c0527708ef98223fd0ea23dbd690f3f", "lon": -77.00022616666666, "lat": 38.873895, "fusion_lon": 0.0, "rental_uris": {"ios": "https://dc.lft.to/lastmile_qr_scan", "android": "https://dc.lft.to/lastmile_qr_scan"}, "is_disabled": 0, "is_reserved": 0, "name": "6c0527708ef98223fd0ea23dbd690f3f", "type": "electric_scooter", "fusion_lat": 0.0}, {"bike_id": "62fd5cc5c4349b7c17d17941972fe95e", "lon": -77.04043, "lat": 38.916996166666664, "fusion_lon": 0.0, "rental_uris": {"ios": "https://dc.lft.to/lastmile_qr_scan", "android": "https://dc.lft.to/lastmile_qr_scan"}, "is_disabled": 0, "is_reserved": 0, "name": "62fd5cc5c4349b7c17d17941972fe95e", "type": "electric_scooter", "fusion_lat": 0.0}, {"bike_id": "52bbab63fccf40cfda258d9543725c29", "lon": -77.03442366666667, "lat": 38.90379983333333, "fusion_lon": 0.0, "rental_uris": {"ios": "https://dc.lft.to/lastmile_qr_scan", "android": "https://dc.lft.to/lastmile_qr_scan"}, "is_disabled": 0, "is_reserved": 0, "name": "52bbab63fccf40cfda258d9543725c29", "type": "electric_scooter", "fusion_lat": 0.0}, {"bike_id": "cb610cd5a3805957719ae7313427ce87", "lon": -77.02807216666666, "lat": 38.9153985, "fusion_lon": 0.0, "rental_uris": {"ios": "https://dc.lft.to/lastmile_qr_scan", "android": "https://dc.lft.to/lastmile_qr_scan"}, "is_disabled": 0, "is_reserved": 0, "name": "cb610cd5a3805957719ae7313427ce87", "type": "electric_scooter", "fusion_lat": 0.0}, {"bike_id": "2f83ec322b74b647827b5d0e69d28097", "lon": -77.043083, "lat": 38.8922225, "fusion_lon": 0.0, "rental_uris": {"ios": "https://dc.lft.to/lastmile_qr_scan", "android": "https://dc.lft.to/lastmile_qr_scan"}, "is_disabled": 0, "is_reserved": 0, "name": "2f83ec322b74b647827b5d0e69d28097", "type": "electric_scooter", "fusion_lat": 0.0}, {"bike_id": "3772dc1263506ca06f6b73c14399d0ba", "lon": -77.03221333333333, "lat": 38.89223716666667, "fusion_lon": 0.0, "rental_uris": {"ios": "https://dc.lft.to/lastmile_qr_scan", "android": "https://dc.lft.to/lastmile_qr_scan"}, "is_disabled": 0, "is_reserved": 0, "name": "3772dc1263506ca06f6b73c14399d0ba", "type": "electric_scooter", "fusion_lat": 0.0}, {"bike_id": "8db43c02e1e438605bb005bd9bfed672", "lon": -77.04505733333333, "lat": 38.892269166666665, "fusion_lon": 0.0, "rental_uris": {"ios": "https://dc.lft.to/lastmile_qr_scan", "android": "https://dc.lft.to/lastmile_qr_scan"}, "is_disabled": 0, "is_reserved": 0, "name": "8db43c02e1e438605bb005bd9bfed672", "type": "electric_scooter", "fusion_lat": 0.0}, {"bike_id": "7c2351ec3982d0f65d515b9acf6b5587", "lon": -76.995098, "lat": 38.8860815, "fusion_lon": 0.0, "rental_uris": {"ios": "https://dc.lft.to/lastmile_qr_scan", "android": "https://dc.lft.to/lastmile_qr_scan"}, "is_disabled": 0, "is_reserved": 0, "name": "7c2351ec3982d0f65d515b9acf6b5587", "type": "electric_scooter", "fusion_lat": 0.0}, {"bike_id": "b9f9f7bdb49bd6585f07f1f084ab0705", "lon": -77.0424615, "lat": 38.92219516666667, "fusion_lon": 0.0, "rental_uris": {"ios": "https://dc.lft.to/lastmile_qr_scan", "android": "https://dc.lft.to/lastmile_qr_scan"}, "is_disabled": 0, "is_reserved": 0, "name": "b9f9f7bdb49bd6585f07f1f084ab0705", "type": "electric_scooter", "fusion_lat": 0.0}, {"bike_id": "880e7b30a23c27ec6907d8dc20122871", "lon": -77.04207133333334, "lat": 38.90694666666667, "fusion_lon": 0.0, "rental_uris": {"ios": "https://dc.lft.to/lastmile_qr_scan", "android": "https://dc.lft.to/lastmile_qr_scan"}, "is_disabled": 0, "is_reserved": 0, "name": "880e7b30a23c27ec6907d8dc20122871", "type": "electric_scooter", "fusion_lat": 0.0}, {"bike_id": "7ab32d5694cf4df307a45849063da816", "lon": -77.03195483333333, "lat": 38.91326083333333, "fusion_lon": 0.0, "rental_uris": {"ios": "https://dc.lft.to/lastmile_qr_scan", "android": "https://dc.lft.to/lastmile_qr_scan"}, "is_disabled": 0, "is_reserved": 0, "name": "7ab32d5694cf4df307a45849063da816", "type": "electric_scooter", "fusion_lat": 0.0}, {"bike_id": "9672fdc64334a538edc19519695f096c", "lon": -77.04470233333333, "lat": 38.89615283333333, "fusion_lon": 0.0, "rental_uris": {"ios": "https://dc.lft.to/lastmile_qr_scan", "android": "https://dc.lft.to/lastmile_qr_scan"}, "is_disabled": 0, "is_reserved": 0, "name": "9672fdc64334a538edc19519695f096c", "type": "electric_scooter", "fusion_lat": 0.0}, {"bike_id": "806dfe3ad1d364dc0b663228a367a3c3", "lon": -77.18561766666667, "lat": 38.92966716666667, "fusion_lon": 0.0, "rental_uris": {"ios": "https://dc.lft.to/lastmile_qr_scan", "android": "https://dc.lft.to/lastmile_qr_scan"}, "is_disabled": 0, "is_reserved": 0, "name": "806dfe3ad1d364dc0b663228a367a3c3", "type": "electric_bike", "fusion_lat": 0.0}, {"bike_id": "34cdd08f76dd0bcec8aea08b36f82ffe", "lon": -77.03447016666667, "lat": 38.93317583333334, "fusion_lon": 0.0, "rental_uris": {"ios": "https://dc.lft.to/lastmile_qr_scan", "android": "https://dc.lft.to/lastmile_qr_scan"}, "is_disabled": 0, "is_reserved": 0, "name": "34cdd08f76dd0bcec8aea08b36f82ffe", "type": "electric_scooter", "fusion_lat": 0.0}, {"bike_id": "64e34407c315fe1fef26804f62d006a6", "lon": -77.0465045, "lat": 39.05502366666666, "fusion_lon": 0.0, "rental_uris": {"ios": "https://dc.lft.to/lastmile_qr_scan", "android": "https://dc.lft.to/lastmile_qr_scan"}, "is_disabled": 0, "is_reserved": 0, "name": "64e34407c315fe1fef26804f62d006a6", "type": "electric_bike", "fusion_lat": 0.0}, {"bike_id": "fd4df1d6d701071efd507a87e993f838", "lon": -77.05799783333333, "lat": 38.9027285, "fusion_lon": 0.0, "rental_uris": {"ios": "https://dc.lft.to/lastmile_qr_scan", "android": "https://dc.lft.to/lastmile_qr_scan"}, "is_disabled": 0, "is_reserved": 0, "name": "fd4df1d6d701071efd507a87e993f838", "type": "electric_scooter", "fusion_lat": 0.0}, {"bike_id": "a5237557648064d27e78a798495b5164", "lon": -77.04502083333334, "lat": 38.910064166666665, "fusion_lon": 0.0, "rental_uris": {"ios": "https://dc.lft.to/lastmile_qr_scan", "android": "https://dc.lft.to/lastmile_qr_scan"}, "is_disabled": 0, "is_reserved": 0, "name": "a5237557648064d27e78a798495b5164", "type": "electric_scooter", "fusion_lat": 0.0}, {"bike_id": "7cf27038de25737cb7b51c618dab5029", "lon": -76.96616066666667, "lat": 38.94227433333333, "fusion_lon": 0.0, "rental_uris": {"ios": "https://dc.lft.to/lastmile_qr_scan", "android": "https://dc.lft.to/lastmile_qr_scan"}, "is_disabled": 0, "is_reserved": 0, "name": "7cf27038de25737cb7b51c618dab5029", "type": "electric_bike", "fusion_lat": 0.0}, {"bike_id": "b140f7ebedfe38b2456a78dd628c90de", "lon": -77.03702083333333, "lat": 38.914035166666665, "fusion_lon": 0.0, "rental_uris": {"ios": "https://dc.lft.to/lastmile_qr_scan", "android": "https://dc.lft.to/lastmile_qr_scan"}, "is_disabled": 0, "is_reserved": 0, "name": "b140f7ebedfe38b2456a78dd628c90de", "type": "electric_scooter", "fusion_lat": 0.0}, {"bike_id": "eee661b68d97ba3e6f277059f8a45139", "lon": -77.02407833333334, "lat": 38.920015, "fusion_lon": 0.0, "rental_uris": {"ios": "https://dc.lft.to/lastmile_qr_scan", "android": "https://dc.lft.to/lastmile_qr_scan"}, "is_disabled": 0, "is_reserved": 0, "name": "eee661b68d97ba3e6f277059f8a45139", "type": "electric_scooter", "fusion_lat": 0.0}, {"bike_id": "792eded46069a0ddfc13c0da18f52fa2", "lon": -77.039912, "lat": 38.934045166666664, "fusion_lon": 0.0, "rental_uris": {"ios": "https://dc.lft.to/lastmile_qr_scan", "android": "https://dc.lft.to/lastmile_qr_scan"}, "is_disabled": 0, "is_reserved": 0, "name": "792eded46069a0ddfc13c0da18f52fa2", "type": "electric_scooter", "fusion_lat": 0.0}, {"bike_id": "b1ad6eb1ab9c81455d0549aa3aad3819", "lon": -77.05003383333333, "lat": 38.892349, "fusion_lon": 0.0, "rental_uris": {"ios": "https://dc.lft.to/lastmile_qr_scan", "android": "https://dc.lft.to/lastmile_qr_scan"}, "is_disabled": 0, "is_reserved": 0, "name": "b1ad6eb1ab9c81455d0549aa3aad3819", "type": "electric_scooter", "fusion_lat": 0.0}, {"bike_id": "b45705993a71aaf549ba2682319bf5ed", "lon": -76.99558999999999, "lat": 38.8621555, "fusion_lon": 0.0, "rental_uris": {"ios": "https://dc.lft.to/lastmile_qr_scan", "android": "https://dc.lft.to/lastmile_qr_scan"}, "is_disabled": 0, "is_reserved": 0, "name": "b45705993a71aaf549ba2682319bf5ed", "type": "electric_bike", "fusion_lat": 0.0}, {"bike_id": "46be69b24be8d95a20adb2a0156a0e82", "lon": -76.93371733333333, "lat": 38.901860166666665, "fusion_lon": 0.0, "rental_uris": {"ios": "https://dc.lft.to/lastmile_qr_scan", "android": "https://dc.lft.to/lastmile_qr_scan"}, "is_disabled": 0, "is_reserved": 0, "name": "46be69b24be8d95a20adb2a0156a0e82", "type": "electric_scooter", "fusion_lat": 0.0}, {"bike_id": "bf375b03318fe5b715db5e309b743421", "lon": -77.03958516666667, "lat": 38.89247483333333, "fusion_lon": 0.0, "rental_uris": {"ios": "https://dc.lft.to/lastmile_qr_scan", "android": "https://dc.lft.to/lastmile_qr_scan"}, "is_disabled": 0, "is_reserved": 0, "name": "bf375b03318fe5b715db5e309b743421", "type": "electric_scooter", "fusion_lat": 0.0}, {"bike_id": "d5d9774e4b8c054d9c37b78511f4b6c6", "lon": -77.02213583333334, "lat": 38.905969166666665, "fusion_lon": 0.0, "rental_uris": {"ios": "https://dc.lft.to/lastmile_qr_scan", "android": "https://dc.lft.to/lastmile_qr_scan"}, "is_disabled": 0, "is_reserved": 0, "name": "d5d9774e4b8c054d9c37b78511f4b6c6", "type": "electric_scooter", "fusion_lat": 0.0}, {"bike_id": "1aa3a16b136a84bb05a1057c924f0c2b", "lon": -77.02895266666667, "lat": 38.91719283333333, "fusion_lon": 0.0, "rental_uris": {"ios": "https://dc.lft.to/lastmile_qr_scan", "android": "https://dc.lft.to/lastmile_qr_scan"}, "is_disabled": 0, "is_reserved": 0, "name": "1aa3a16b136a84bb05a1057c924f0c2b", "type": "electric_scooter", "fusion_lat": 0.0}, {"bike_id": "b24be20fc16c1d4db6d9078f6fecaf55", "lon": -77.03498516666667, "lat": 38.94499583333333, "fusion_lon": 0.0, "rental_uris": {"ios": "https://dc.lft.to/lastmile_qr_scan", "android": "https://dc.lft.to/lastmile_qr_scan"}, "is_disabled": 0, "is_reserved": 0, "name": "b24be20fc16c1d4db6d9078f6fecaf55", "type": "electric_scooter", "fusion_lat": 0.0}, {"bike_id": "8609b3f6fdec5ad57285c590fe67952a", "lon": -77.02493, "lat": 38.917086166666664, "fusion_lon": 0.0, "rental_uris": {"ios": "https://dc.lft.to/lastmile_qr_scan", "android": "https://dc.lft.to/lastmile_qr_scan"}, "is_disabled": 0, "is_reserved": 0, "name": "8609b3f6fdec5ad57285c590fe67952a", "type": "electric_scooter", "fusion_lat": 0.0}, {"bike_id": "ccb6d6d72e64fd558fd379e24c330a17", "lon": -77.06940616666667, "lat": 38.960972, "fusion_lon": 0.0, "rental_uris": {"ios": "https://dc.lft.to/lastmile_qr_scan", "android": "https://dc.lft.to/lastmile_qr_scan"}, "is_disabled": 0, "is_reserved": 0, "name": "ccb6d6d72e64fd558fd379e24c330a17", "type": "electric_bike", "fusion_lat": 0.0}, {"bike_id": "3b3180b778905a7fef9267b6f431ee04", "lon": -77.06936833333333, "lat": 38.95546816666667, "fusion_lon": 0.0, "rental_uris": {"ios": "https://dc.lft.to/lastmile_qr_scan", "android": "https://dc.lft.to/lastmile_qr_scan"}, "is_disabled": 0, "is_reserved": 0, "name": "3b3180b778905a7fef9267b6f431ee04", "type": "electric_bike", "fusion_lat": 0.0}, {"bike_id": "b46bb1f30351d5c09d77aeb28e07c6a1", "lon": -77.0077835, "lat": 38.905563, "fusion_lon": 0.0, "rental_uris": {"ios": "https://dc.lft.to/lastmile_qr_scan", "android": "https://dc.lft.to/lastmile_qr_scan"}, "is_disabled": 0, "is_reserved": 0, "name": "b46bb1f30351d5c09d77aeb28e07c6a1", "type": "electric_scooter", "fusion_lat": 0.0}, {"bike_id": "da961817692dbb29a242fa8ef3074f04", "lon": -76.93027483333333, "lat": 38.900857333333335, "fusion_lon": 0.0, "rental_uris": {"ios": "https://dc.lft.to/lastmile_qr_scan", "android": "https://dc.lft.to/lastmile_qr_scan"}, "is_disabled": 0, "is_reserved": 0, "name": "da961817692dbb29a242fa8ef3074f04", "type": "electric_scooter", "fusion_lat": 0.0}, {"bike_id": "814334df4def1d95e3f1076c97aeebd8", "lon": -77.02524283333334, "lat": 38.916905666666665, "fusion_lon": 0.0, "rental_uris": {"ios": "https://dc.lft.to/lastmile_qr_scan", "android": "https://dc.lft.to/lastmile_qr_scan"}, "is_disabled": 0, "is_reserved": 0, "name": "814334df4def1d95e3f1076c97aeebd8", "type": "electric_scooter", "fusion_lat": 0.0}, {"bike_id": "76327f16fe25d22a73671224941a5dfd", "lon": -77.0087995, "lat": 38.885026333333336, "fusion_lon": 0.0, "rental_uris": {"ios": "https://dc.lft.to/lastmile_qr_scan", "android": "https://dc.lft.to/lastmile_qr_scan"}, "is_disabled": 0, "is_reserved": 0, "name": "76327f16fe25d22a73671224941a5dfd", "type": "electric_scooter", "fusion_lat": 0.0}, {"bike_id": "8a6250767aab796b1703c1fc23330ec2", "lon": -76.92741733333334, "lat": 38.900674, "fusion_lon": 0.0, "rental_uris": {"ios": "https://dc.lft.to/lastmile_qr_scan", "android": "https://dc.lft.to/lastmile_qr_scan"}, "is_disabled": 0, "is_reserved": 0, "name": "8a6250767aab796b1703c1fc23330ec2", "type": "electric_scooter", "fusion_lat": 0.0}, {"bike_id": "1c064dbd42a5b9d92b45cfeb468c4303", "lon": -77.0250405, "lat": 38.942016, "fusion_lon": 0.0, "rental_uris": {"ios": "https://dc.lft.to/lastmile_qr_scan", "android": "https://dc.lft.to/lastmile_qr_scan"}, "is_disabled": 0, "is_reserved": 0, "name": "1c064dbd42a5b9d92b45cfeb468c4303", "type": "electric_scooter", "fusion_lat": 0.0}, {"bike_id": "94bd45224530bb6cb967454c07bab889", "lon": -77.0118725, "lat": 38.900165, "fusion_lon": 0.0, "rental_uris": {"ios": "https://dc.lft.to/lastmile_qr_scan", "android": "https://dc.lft.to/lastmile_qr_scan"}, "is_disabled": 0, "is_reserved": 0, "name": "94bd45224530bb6cb967454c07bab889", "type": "electric_scooter", "fusion_lat": 0.0}, {"bike_id": "a11c4c955d7840144159c667103009c4", "lon": -77.03592366666666, "lat": 38.936725833333334, "fusion_lon": 0.0, "rental_uris": {"ios": "https://dc.lft.to/lastmile_qr_scan", "android": "https://dc.lft.to/lastmile_qr_scan"}, "is_disabled": 0, "is_reserved": 0, "name": "a11c4c955d7840144159c667103009c4", "type": "electric_scooter", "fusion_lat": 0.0}, {"bike_id": "a28bb86250ca60018b10a245fdf89634", "lon": -77.01298716666666, "lat": 38.93028183333333, "fusion_lon": 0.0, "rental_uris": {"ios": "https://dc.lft.to/lastmile_qr_scan", "android": "https://dc.lft.to/lastmile_qr_scan"}, "is_disabled": 0, "is_reserved": 0, "name": "a28bb86250ca60018b10a245fdf89634", "type": "electric_scooter", "fusion_lat": 0.0}, {"bike_id": "a84ce201c3a5d97df6ce9d753b4049a6", "lon": -77.04656783333333, "lat": 38.90958116666667, "fusion_lon": 0.0, "rental_uris": {"ios": "https://dc.lft.to/lastmile_qr_scan", "android": "https://dc.lft.to/lastmile_qr_scan"}, "is_disabled": 0, "is_reserved": 0, "name": "a84ce201c3a5d97df6ce9d753b4049a6", "type": "electric_scooter", "fusion_lat": 0.0}, {"bike_id": "296e192b8d68eb219bd0334424bc47db", "lon": -77.04899966666666, "lat": 38.8900245, "fusion_lon": 0.0, "rental_uris": {"ios": "https://dc.lft.to/lastmile_qr_scan", "android": "https://dc.lft.to/lastmile_qr_scan"}, "is_disabled": 0, "is_reserved": 0, "name": "296e192b8d68eb219bd0334424bc47db", "type": "electric_scooter", "fusion_lat": 0.0}, {"bike_id": "57a0e8f86b3c2a898cc78227b90a4ee8", "lon": -77.02409433333334, "lat": 38.92088233333333, "fusion_lon": 0.0, "rental_uris": {"ios": "https://dc.lft.to/lastmile_qr_scan", "android": "https://dc.lft.to/lastmile_qr_scan"}, "is_disabled": 0, "is_reserved": 0, "name": "57a0e8f86b3c2a898cc78227b90a4ee8", "type": "electric_scooter", "fusion_lat": 0.0}, {"bike_id": "c0d93203a5943a4977f581f510a77843", "lon": -77.02691433333334, "lat": 38.91517416666667, "fusion_lon": 0.0, "rental_uris": {"ios": "https://dc.lft.to/lastmile_qr_scan", "android": "https://dc.lft.to/lastmile_qr_scan"}, "is_disabled": 0, "is_reserved": 0, "name": "c0d93203a5943a4977f581f510a77843", "type": "electric_scooter", "fusion_lat": 0.0}, {"bike_id": "992fc67abb0794abf3219cb520b6e90c", "lon": -77.0642995, "lat": 38.9087825, "fusion_lon": 0.0, "rental_uris": {"ios": "https://dc.lft.to/lastmile_qr_scan", "android": "https://dc.lft.to/lastmile_qr_scan"}, "is_disabled": 0, "is_reserved": 0, "name": "992fc67abb0794abf3219cb520b6e90c", "type": "electric_scooter", "fusion_lat": 0.0}, {"bike_id": "7f142478860ffc6bb0875ebcfb41dc0b", "lon": -77.00565383333333, "lat": 38.885058666666666, "fusion_lon": 0.0, "rental_uris": {"ios": "https://dc.lft.to/lastmile_qr_scan", "android": "https://dc.lft.to/lastmile_qr_scan"}, "is_disabled": 0, "is_reserved": 0, "name": "7f142478860ffc6bb0875ebcfb41dc0b", "type": "electric_scooter", "fusion_lat": 0.0}, {"bike_id": "89522c5625b3dbd283e30b18fe1d1e21", "lon": -77.0318965, "lat": 38.91206316666667, "fusion_lon": 0.0, "rental_uris": {"ios": "https://dc.lft.to/lastmile_qr_scan", "android": "https://dc.lft.to/lastmile_qr_scan"}, "is_disabled": 0, "is_reserved": 0, "name": "89522c5625b3dbd283e30b18fe1d1e21", "type": "electric_scooter", "fusion_lat": 0.0}, {"bike_id": "76b28a70656496340ad94db0e0c20ad4", "lon": -77.00882466666667, "lat": 38.87943816666667, "fusion_lon": 0.0, "rental_uris": {"ios": "https://dc.lft.to/lastmile_qr_scan", "android": "https://dc.lft.to/lastmile_qr_scan"}, "is_disabled": 0, "is_reserved": 0, "name": "76b28a70656496340ad94db0e0c20ad4", "type": "electric_scooter", "fusion_lat": 0.0}, {"bike_id": "6acbcc433e983ec178501f4b553b32a3", "lon": -76.98718166666667, "lat": 38.86697083333333, "fusion_lon": 0.0, "rental_uris": {"ios": "https://dc.lft.to/lastmile_qr_scan", "android": "https://dc.lft.to/lastmile_qr_scan"}, "is_disabled": 0, "is_reserved": 0, "name": "6acbcc433e983ec178501f4b553b32a3", "type": "electric_scooter", "fusion_lat": 0.0}, {"bike_id": "25a9c8d9b3e747dd8765abbe0cda8379", "lon": -77.02588883333334, "lat": 38.92037666666667, "fusion_lon": 0.0, "rental_uris": {"ios": "https://dc.lft.to/lastmile_qr_scan", "android": "https://dc.lft.to/lastmile_qr_scan"}, "is_disabled": 0, "is_reserved": 0, "name": "25a9c8d9b3e747dd8765abbe0cda8379", "type": "electric_scooter", "fusion_lat": 0.0}, {"bike_id": "b9757ddfb2bae2b965654140fc0c5007", "lon": -77.032939, "lat": 38.898801, "fusion_lon": 0.0, "rental_uris": {"ios": "https://dc.lft.to/lastmile_qr_scan", "android": "https://dc.lft.to/lastmile_qr_scan"}, "is_disabled": 0, "is_reserved": 0, "name": "b9757ddfb2bae2b965654140fc0c5007", "type": "electric_scooter", "fusion_lat": 0.0}, {"bike_id": "a03df2cf00bc4e051775c3dfc6f56f00", "lon": -77.00924883333333, "lat": 38.90838183333334, "fusion_lon": 0.0, "rental_uris": {"ios": "https://dc.lft.to/lastmile_qr_scan", "android": "https://dc.lft.to/lastmile_qr_scan"}, "is_disabled": 0, "is_reserved": 0, "name": "a03df2cf00bc4e051775c3dfc6f56f00", "type": "electric_scooter", "fusion_lat": 0.0}, {"bike_id": "22df126a43d4d7f6e4044b0124e46d91", "lon": -77.03457783333333, "lat": 38.90703583333333, "fusion_lon": 0.0, "rental_uris": {"ios": "https://dc.lft.to/lastmile_qr_scan", "android": "https://dc.lft.to/lastmile_qr_scan"}, "is_disabled": 0, "is_reserved": 0, "name": "22df126a43d4d7f6e4044b0124e46d91", "type": "electric_scooter", "fusion_lat": 0.0}, {"bike_id": "8cfaf69ff5d473123f6224c4f97f870b", "lon": -77.0176095, "lat": 38.87713683333333, "fusion_lon": 0.0, "rental_uris": {"ios": "https://dc.lft.to/lastmile_qr_scan", "android": "https://dc.lft.to/lastmile_qr_scan"}, "is_disabled": 0, "is_reserved": 0, "name": "8cfaf69ff5d473123f6224c4f97f870b", "type": "electric_scooter", "fusion_lat": 0.0}, {"bike_id": "17378abb3404914b90259a98cd78eb22", "lon": -77.014242, "lat": 38.952313833333335, "fusion_lon": 0.0, "rental_uris": {"ios": "https://dc.lft.to/lastmile_qr_scan", "android": "https://dc.lft.to/lastmile_qr_scan"}, "is_disabled": 0, "is_reserved": 0, "name": "17378abb3404914b90259a98cd78eb22", "type": "electric_scooter", "fusion_lat": 0.0}, {"bike_id": "7ac61a228666fcefed54c482a892594c", "lon": -77.05139433333333, "lat": 38.90587133333333, "fusion_lon": 0.0, "rental_uris": {"ios": "https://dc.lft.to/lastmile_qr_scan", "android": "https://dc.lft.to/lastmile_qr_scan"}, "is_disabled": 0, "is_reserved": 0, "name": "7ac61a228666fcefed54c482a892594c", "type": "electric_scooter", "fusion_lat": 0.0}, {"bike_id": "175d5f0034de37b4268e3302ae59e059", "lon": -77.03270266666667, "lat": 38.899164, "fusion_lon": 0.0, "rental_uris": {"ios": "https://dc.lft.to/lastmile_qr_scan", "android": "https://dc.lft.to/lastmile_qr_scan"}, "is_disabled": 0, "is_reserved": 0, "name": "175d5f0034de37b4268e3302ae59e059", "type": "electric_scooter", "fusion_lat": 0.0}, {"bike_id": "0adcbbc55a68b71ac92e8addfa3a6add", "lon": -77.01952716666666, "lat": 38.9192925, "fusion_lon": 0.0, "rental_uris": {"ios": "https://dc.lft.to/lastmile_qr_scan", "android": "https://dc.lft.to/lastmile_qr_scan"}, "is_disabled": 0, "is_reserved": 0, "name": "0adcbbc55a68b71ac92e8addfa3a6add", "type": "electric_scooter", "fusion_lat": 0.0}, {"bike_id": "a6e2dfb073a239ac19fdb4992c745d3e", "lon": -76.99045816666667, "lat": 38.863857833333334, "fusion_lon": 0.0, "rental_uris": {"ios": "https://dc.lft.to/lastmile_qr_scan", "android": "https://dc.lft.to/lastmile_qr_scan"}, "is_disabled": 0, "is_reserved": 0, "name": "a6e2dfb073a239ac19fdb4992c745d3e", "type": "electric_scooter", "fusion_lat": 0.0}, {"bike_id": "df445dfb9a4f17e7b66d0005d722ca56", "lon": -77.0384485, "lat": 38.91069016666667, "fusion_lon": 0.0, "rental_uris": {"ios": "https://dc.lft.to/lastmile_qr_scan", "android": "https://dc.lft.to/lastmile_qr_scan"}, "is_disabled": 0, "is_reserved": 0, "name": "df445dfb9a4f17e7b66d0005d722ca56", "type": "electric_scooter", "fusion_lat": 0.0}, {"bike_id": "96745ec8689f7a450d323098a92cda91", "lon": -77.04172, "lat": 38.919823, "fusion_lon": 0.0, "rental_uris": {"ios": "https://dc.lft.to/lastmile_qr_scan", "android": "https://dc.lft.to/lastmile_qr_scan"}, "is_disabled": 0, "is_reserved": 0, "name": "96745ec8689f7a450d323098a92cda91", "type": "electric_scooter", "fusion_lat": 0.0}, {"bike_id": "f3e41d3bc2fedcc7600c85b7e9943133", "lon": -77.012763, "lat": 38.9566275, "fusion_lon": 0.0, "rental_uris": {"ios": "https://dc.lft.to/lastmile_qr_scan", "android": "https://dc.lft.to/lastmile_qr_scan"}, "is_disabled": 0, "is_reserved": 0, "name": "f3e41d3bc2fedcc7600c85b7e9943133", "type": "electric_scooter", "fusion_lat": 0.0}, {"bike_id": "2367b09550853dbfcf713423b5ea7859", "lon": -77.019427, "lat": 38.92419966666667, "fusion_lon": 0.0, "rental_uris": {"ios": "https://dc.lft.to/lastmile_qr_scan", "android": "https://dc.lft.to/lastmile_qr_scan"}, "is_disabled": 0, "is_reserved": 0, "name": "2367b09550853dbfcf713423b5ea7859", "type": "electric_scooter", "fusion_lat": 0.0}, {"bike_id": "75081dbe055dfd80d6a9353a579b34da", "lon": -76.997821, "lat": 38.8291405, "fusion_lon": 0.0, "rental_uris": {"ios": "https://dc.lft.to/lastmile_qr_scan", "android": "https://dc.lft.to/lastmile_qr_scan"}, "is_disabled": 0, "is_reserved": 0, "name": "75081dbe055dfd80d6a9353a579b34da", "type": "electric_bike", "fusion_lat": 0.0}, {"bike_id": "659acad171df10260625d82f347272f2", "lon": -77.0307765, "lat": 38.93867633333333, "fusion_lon": 0.0, "rental_uris": {"ios": "https://dc.lft.to/lastmile_qr_scan", "android": "https://dc.lft.to/lastmile_qr_scan"}, "is_disabled": 0, "is_reserved": 0, "name": "659acad171df10260625d82f347272f2", "type": "electric_scooter", "fusion_lat": 0.0}, {"bike_id": "10f080ef91b6cb0ec34551ab5a50c888", "lon": -77.0017725, "lat": 38.90649783333333, "fusion_lon": 0.0, "rental_uris": {"ios": "https://dc.lft.to/lastmile_qr_scan", "android": "https://dc.lft.to/lastmile_qr_scan"}, "is_disabled": 0, "is_reserved": 0, "name": "10f080ef91b6cb0ec34551ab5a50c888", "type": "electric_scooter", "fusion_lat": 0.0}, {"bike_id": "6fcbd14b1ff67ffd109ae0d66f42e250", "lon": -77.03076433333334, "lat": 38.93084, "fusion_lon": 0.0, "rental_uris": {"ios": "https://dc.lft.to/lastmile_qr_scan", "android": "https://dc.lft.to/lastmile_qr_scan"}, "is_disabled": 0, "is_reserved": 0, "name": "6fcbd14b1ff67ffd109ae0d66f42e250", "type": "electric_scooter", "fusion_lat": 0.0}, {"bike_id": "1c930dc8327c13ce009bd32cc38ba37c", "lon": -77.00808433333333, "lat": 38.896394666666666, "fusion_lon": 0.0, "rental_uris": {"ios": "https://dc.lft.to/lastmile_qr_scan", "android": "https://dc.lft.to/lastmile_qr_scan"}, "is_disabled": 0, "is_reserved": 0, "name": "1c930dc8327c13ce009bd32cc38ba37c", "type": "electric_scooter", "fusion_lat": 0.0}, {"bike_id": "097bc8a054aaec435810aa0839825e96", "lon": -77.0677225, "lat": 38.90398416666667, "fusion_lon": 0.0, "rental_uris": {"ios": "https://dc.lft.to/lastmile_qr_scan", "android": "https://dc.lft.to/lastmile_qr_scan"}, "is_disabled": 0, "is_reserved": 0, "name": "097bc8a054aaec435810aa0839825e96", "type": "electric_scooter", "fusion_lat": 0.0}, {"bike_id": "89d4585c1cd22c2989ac00c370b46e1f", "lon": -76.94620216666667, "lat": 38.83237966666667, "fusion_lon": 0.0, "rental_uris": {"ios": "https://dc.lft.to/lastmile_qr_scan", "android": "https://dc.lft.to/lastmile_qr_scan"}, "is_disabled": 0, "is_reserved": 0, "name": "89d4585c1cd22c2989ac00c370b46e1f", "type": "electric_bike", "fusion_lat": 0.0}, {"bike_id": "ceec1a6c67aa5ef51acc8c2a18c875f2", "lon": -77.04354433333333, "lat": 38.92185666666666, "fusion_lon": 0.0, "rental_uris": {"ios": "https://dc.lft.to/lastmile_qr_scan", "android": "https://dc.lft.to/lastmile_qr_scan"}, "is_disabled": 0, "is_reserved": 0, "name": "ceec1a6c67aa5ef51acc8c2a18c875f2", "type": "electric_scooter", "fusion_lat": 0.0}, {"bike_id": "01fcef5ab48c5f1657af97c8039fad65", "lon": -77.005629, "lat": 38.885069333333334, "fusion_lon": 0.0, "rental_uris": {"ios": "https://dc.lft.to/lastmile_qr_scan", "android": "https://dc.lft.to/lastmile_qr_scan"}, "is_disabled": 0, "is_reserved": 0, "name": "01fcef5ab48c5f1657af97c8039fad65", "type": "electric_scooter", "fusion_lat": 0.0}, {"bike_id": "069d7d1aa5912abb610fdcffbfcef4f7", "lon": -77.01749316666667, "lat": 38.90239966666667, "fusion_lon": 0.0, "rental_uris": {"ios": "https://dc.lft.to/lastmile_qr_scan", "android": "https://dc.lft.to/lastmile_qr_scan"}, "is_disabled": 0, "is_reserved": 0, "name": "069d7d1aa5912abb610fdcffbfcef4f7", "type": "electric_scooter", "fusion_lat": 0.0}, {"bike_id": "e04a6f8d35e9f5997d70fe39247b671c", "lon": -77.02351216666666, "lat": 38.90879733333333, "fusion_lon": 0.0, "rental_uris": {"ios": "https://dc.lft.to/lastmile_qr_scan", "android": "https://dc.lft.to/lastmile_qr_scan"}, "is_disabled": 0, "is_reserved": 0, "name": "e04a6f8d35e9f5997d70fe39247b671c", "type": "electric_scooter", "fusion_lat": 0.0}, {"bike_id": "eb7947669b00256e6cf3eed37afbda58", "lon": -77.06315016666667, "lat": 38.93022116666667, "fusion_lon": 0.0, "rental_uris": {"ios": "https://dc.lft.to/lastmile_qr_scan", "android": "https://dc.lft.to/lastmile_qr_scan"}, "is_disabled": 0, "is_reserved": 0, "name": "eb7947669b00256e6cf3eed37afbda58", "type": "electric_scooter", "fusion_lat": 0.0}, {"bike_id": "1dd5492de08c6d352fa7dec553ccd50c", "lon": -77.018694, "lat": 38.87429366666667, "fusion_lon": 0.0, "rental_uris": {"ios": "https://dc.lft.to/lastmile_qr_scan", "android": "https://dc.lft.to/lastmile_qr_scan"}, "is_disabled": 0, "is_reserved": 0, "name": "1dd5492de08c6d352fa7dec553ccd50c", "type": "electric_scooter", "fusion_lat": 0.0}, {"bike_id": "45c5fc7c05851bdd63cd070868ff41fe", "lon": -77.04641716666667, "lat": 38.9063535, "fusion_lon": 0.0, "rental_uris": {"ios": "https://dc.lft.to/lastmile_qr_scan", "android": "https://dc.lft.to/lastmile_qr_scan"}, "is_disabled": 0, "is_reserved": 0, "name": "45c5fc7c05851bdd63cd070868ff41fe", "type": "electric_scooter", "fusion_lat": 0.0}, {"bike_id": "f1e4cd499f07e803b67f0595d049a079", "lon": -77.031955, "lat": 38.9117125, "fusion_lon": 0.0, "rental_uris": {"ios": "https://dc.lft.to/lastmile_qr_scan", "android": "https://dc.lft.to/lastmile_qr_scan"}, "is_disabled": 0, "is_reserved": 0, "name": "f1e4cd499f07e803b67f0595d049a079", "type": "electric_scooter", "fusion_lat": 0.0}, {"bike_id": "ee331e1de5334ef21c107b31bc4936a5", "lon": -77.04498066666666, "lat": 38.9121905, "fusion_lon": 0.0, "rental_uris": {"ios": "https://dc.lft.to/lastmile_qr_scan", "android": "https://dc.lft.to/lastmile_qr_scan"}, "is_disabled": 0, "is_reserved": 0, "name": "ee331e1de5334ef21c107b31bc4936a5", "type": "electric_scooter", "fusion_lat": 0.0}, {"bike_id": "fae9a5e07879a2437bfcf0f66b9fbb14", "lon": -77.051455, "lat": 39.050493, "fusion_lon": 0.0, "rental_uris": {"ios": "https://dc.lft.to/lastmile_qr_scan", "android": "https://dc.lft.to/lastmile_qr_scan"}, "is_disabled": 0, "is_reserved": 0, "name": "fae9a5e07879a2437bfcf0f66b9fbb14", "type": "electric_bike", "fusion_lat": 0.0}, {"bike_id": "e4bcbd7197db7acd59a0b107f30b045d", "lon": -77.02835633333333, "lat": 38.893732666666665, "fusion_lon": 0.0, "rental_uris": {"ios": "https://dc.lft.to/lastmile_qr_scan", "android": "https://dc.lft.to/lastmile_qr_scan"}, "is_disabled": 0, "is_reserved": 0, "name": "e4bcbd7197db7acd59a0b107f30b045d", "type": "electric_scooter", "fusion_lat": 0.0}, {"bike_id": "d6904d378392ce61268f9b71dd7fb76f", "lon": -77.034774, "lat": 38.9083595, "fusion_lon": 0.0, "rental_uris": {"ios": "https://dc.lft.to/lastmile_qr_scan", "android": "https://dc.lft.to/lastmile_qr_scan"}, "is_disabled": 0, "is_reserved": 0, "name": "d6904d378392ce61268f9b71dd7fb76f", "type": "electric_scooter", "fusion_lat": 0.0}, {"bike_id": "5112b166fd5dffc68daf853c32b289d9", "lon": -77.03858033333333, "lat": 38.90626966666667, "fusion_lon": 0.0, "rental_uris": {"ios": "https://dc.lft.to/lastmile_qr_scan", "android": "https://dc.lft.to/lastmile_qr_scan"}, "is_disabled": 0, "is_reserved": 0, "name": "5112b166fd5dffc68daf853c32b289d9", "type": "electric_scooter", "fusion_lat": 0.0}, {"bike_id": "853b19e028c53656ca74769a1fcd0d9d", "lon": -77.042541, "lat": 38.92269233333333, "fusion_lon": 0.0, "rental_uris": {"ios": "https://dc.lft.to/lastmile_qr_scan", "android": "https://dc.lft.to/lastmile_qr_scan"}, "is_disabled": 0, "is_reserved": 0, "name": "853b19e028c53656ca74769a1fcd0d9d", "type": "electric_scooter", "fusion_lat": 0.0}, {"bike_id": "c6f2c41c0419ff980de905d8acd49b80", "lon": -77.06482033333333, "lat": 38.934819166666664, "fusion_lon": 0.0, "rental_uris": {"ios": "https://dc.lft.to/lastmile_qr_scan", "android": "https://dc.lft.to/lastmile_qr_scan"}, "is_disabled": 0, "is_reserved": 0, "name": "c6f2c41c0419ff980de905d8acd49b80", "type": "electric_scooter", "fusion_lat": 0.0}, {"bike_id": "856e59edf42f275d8a6beba033ba5d35", "lon": -77.02731116666666, "lat": 38.9520095, "fusion_lon": 0.0, "rental_uris": {"ios": "https://dc.lft.to/lastmile_qr_scan", "android": "https://dc.lft.to/lastmile_qr_scan"}, "is_disabled": 0, "is_reserved": 0, "name": "856e59edf42f275d8a6beba033ba5d35", "type": "electric_scooter", "fusion_lat": 0.0}, {"bike_id": "b18f8f1cce046b9fb94d647944719ef9", "lon": -77.04184566666666, "lat": 38.90526166666667, "fusion_lon": 0.0, "rental_uris": {"ios": "https://dc.lft.to/lastmile_qr_scan", "android": "https://dc.lft.to/lastmile_qr_scan"}, "is_disabled": 0, "is_reserved": 0, "name": "b18f8f1cce046b9fb94d647944719ef9", "type": "electric_scooter", "fusion_lat": 0.0}, {"bike_id": "cf53e169e7624732221c94776e8775f3", "lon": -77.04429716666667, "lat": 38.9107845, "fusion_lon": 0.0, "rental_uris": {"ios": "https://dc.lft.to/lastmile_qr_scan", "android": "https://dc.lft.to/lastmile_qr_scan"}, "is_disabled": 0, "is_reserved": 0, "name": "cf53e169e7624732221c94776e8775f3", "type": "electric_scooter", "fusion_lat": 0.0}, {"bike_id": "1d801781e3cf318b5d79b52b5e39ac98", "lon": -77.00424766666667, "lat": 38.87656583333333, "fusion_lon": 0.0, "rental_uris": {"ios": "https://dc.lft.to/lastmile_qr_scan", "android": "https://dc.lft.to/lastmile_qr_scan"}, "is_disabled": 0, "is_reserved": 0, "name": "1d801781e3cf318b5d79b52b5e39ac98", "type": "electric_scooter", "fusion_lat": 0.0}, {"bike_id": "e07a3f3205393a2f45e7a3e57b30efc1", "lon": -77.02112883333334, "lat": 38.935793, "fusion_lon": 0.0, "rental_uris": {"ios": "https://dc.lft.to/lastmile_qr_scan", "android": "https://dc.lft.to/lastmile_qr_scan"}, "is_disabled": 0, "is_reserved": 0, "name": "e07a3f3205393a2f45e7a3e57b30efc1", "type": "electric_scooter", "fusion_lat": 0.0}, {"bike_id": "b9c9422229224fcbc7b8a069970bf86d", "lon": -77.04213866666667, "lat": 38.907024166666666, "fusion_lon": 0.0, "rental_uris": {"ios": "https://dc.lft.to/lastmile_qr_scan", "android": "https://dc.lft.to/lastmile_qr_scan"}, "is_disabled": 0, "is_reserved": 0, "name": "b9c9422229224fcbc7b8a069970bf86d", "type": "electric_scooter", "fusion_lat": 0.0}, {"bike_id": "8bb920b19164a8931eadb1e71b8dd371", "lon": -76.937272, "lat": 38.89014866666667, "fusion_lon": 0.0, "rental_uris": {"ios": "https://dc.lft.to/lastmile_qr_scan", "android": "https://dc.lft.to/lastmile_qr_scan"}, "is_disabled": 0, "is_reserved": 0, "name": "8bb920b19164a8931eadb1e71b8dd371", "type": "electric_scooter", "fusion_lat": 0.0}, {"bike_id": "5cdfaab9d9fc50ef972e27145394071e", "lon": -77.04034366666667, "lat": 38.897960833333336, "fusion_lon": 0.0, "rental_uris": {"ios": "https://dc.lft.to/lastmile_qr_scan", "android": "https://dc.lft.to/lastmile_qr_scan"}, "is_disabled": 0, "is_reserved": 0, "name": "5cdfaab9d9fc50ef972e27145394071e", "type": "electric_scooter", "fusion_lat": 0.0}, {"bike_id": "d873bc9b398fa3592b06bc98fec9a8f7", "lon": -77.00857016666667, "lat": 38.901378333333334, "fusion_lon": 0.0, "rental_uris": {"ios": "https://dc.lft.to/lastmile_qr_scan", "android": "https://dc.lft.to/lastmile_qr_scan"}, "is_disabled": 0, "is_reserved": 0, "name": "d873bc9b398fa3592b06bc98fec9a8f7", "type": "electric_scooter", "fusion_lat": 0.0}, {"bike_id": "2a7a5b72fc51e31c708429e72a6e497f", "lon": -76.99881666666667, "lat": 38.907514, "fusion_lon": 0.0, "rental_uris": {"ios": "https://dc.lft.to/lastmile_qr_scan", "android": "https://dc.lft.to/lastmile_qr_scan"}, "is_disabled": 0, "is_reserved": 0, "name": "2a7a5b72fc51e31c708429e72a6e497f", "type": "electric_scooter", "fusion_lat": 0.0}, {"bike_id": "fc09f374d1a6d7112a4342b14940c654", "lon": -77.01037083333334, "lat": 38.956579833333336, "fusion_lon": 0.0, "rental_uris": {"ios": "https://dc.lft.to/lastmile_qr_scan", "android": "https://dc.lft.to/lastmile_qr_scan"}, "is_disabled": 0, "is_reserved": 0, "name": "fc09f374d1a6d7112a4342b14940c654", "type": "electric_scooter", "fusion_lat": 0.0}, {"bike_id": "7c355f56c68bd4652e2836993ab1178e", "lon": -77.0194765, "lat": 38.924183166666666, "fusion_lon": 0.0, "rental_uris": {"ios": "https://dc.lft.to/lastmile_qr_scan", "android": "https://dc.lft.to/lastmile_qr_scan"}, "is_disabled": 0, "is_reserved": 0, "name": "7c355f56c68bd4652e2836993ab1178e", "type": "electric_scooter", "fusion_lat": 0.0}, {"bike_id": "b7794760a569af63063fdc2a6caa67ba", "lon": -77.043489, "lat": 38.90790833333333, "fusion_lon": 0.0, "rental_uris": {"ios": "https://dc.lft.to/lastmile_qr_scan", "android": "https://dc.lft.to/lastmile_qr_scan"}, "is_disabled": 0, "is_reserved": 0, "name": "b7794760a569af63063fdc2a6caa67ba", "type": "electric_scooter", "fusion_lat": 0.0}, {"bike_id": "5b3837830524abc7ee4cba8edf6413f5", "lon": -77.1035705, "lat": 38.8342935, "fusion_lon": 0.0, "rental_uris": {"ios": "https://dc.lft.to/lastmile_qr_scan", "android": "https://dc.lft.to/lastmile_qr_scan"}, "is_disabled": 0, "is_reserved": 0, "name": "5b3837830524abc7ee4cba8edf6413f5", "type": "electric_bike", "fusion_lat": 0.0}, {"bike_id": "7e60ba2e92ca98a6d56bb685a54e2981", "lon": -76.99814566666667, "lat": 38.844319, "fusion_lon": 0.0, "rental_uris": {"ios": "https://dc.lft.to/lastmile_qr_scan", "android": "https://dc.lft.to/lastmile_qr_scan"}, "is_disabled": 0, "is_reserved": 0, "name": "7e60ba2e92ca98a6d56bb685a54e2981", "type": "electric_scooter", "fusion_lat": 0.0}, {"bike_id": "3880ffa607fd2895d7d74468ce6936a8", "lon": -77.08927483333333, "lat": 38.91380733333333, "fusion_lon": 0.0, "rental_uris": {"ios": "https://dc.lft.to/lastmile_qr_scan", "android": "https://dc.lft.to/lastmile_qr_scan"}, "is_disabled": 0, "is_reserved": 0, "name": "3880ffa607fd2895d7d74468ce6936a8", "type": "electric_bike", "fusion_lat": 0.0}, {"bike_id": "4842f67f5044fe349b4ca8d7d9e2380b", "lon": -77.02725183333334, "lat": 38.94956966666667, "fusion_lon": 0.0, "rental_uris": {"ios": "https://dc.lft.to/lastmile_qr_scan", "android": "https://dc.lft.to/lastmile_qr_scan"}, "is_disabled": 0, "is_reserved": 0, "name": "4842f67f5044fe349b4ca8d7d9e2380b", "type": "electric_scooter", "fusion_lat": 0.0}, {"bike_id": "2e16c9a831485a920d3923ddc27dd6d7", "lon": -77.04156, "lat": 38.91884683333333, "fusion_lon": 0.0, "rental_uris": {"ios": "https://dc.lft.to/lastmile_qr_scan", "android": "https://dc.lft.to/lastmile_qr_scan"}, "is_disabled": 0, "is_reserved": 0, "name": "2e16c9a831485a920d3923ddc27dd6d7", "type": "electric_bike", "fusion_lat": 0.0}, {"bike_id": "e6aab38d452a135161f3ce35925657a7", "lon": -77.02955716666666, "lat": 38.91254, "fusion_lon": 0.0, "rental_uris": {"ios": "https://dc.lft.to/lastmile_qr_scan", "android": "https://dc.lft.to/lastmile_qr_scan"}, "is_disabled": 0, "is_reserved": 0, "name": "e6aab38d452a135161f3ce35925657a7", "type": "electric_scooter", "fusion_lat": 0.0}, {"bike_id": "4ec0f78305ed594c3ffafb133bd2c88d", "lon": -77.04743683333334, "lat": 38.90099133333333, "fusion_lon": 0.0, "rental_uris": {"ios": "https://dc.lft.to/lastmile_qr_scan", "android": "https://dc.lft.to/lastmile_qr_scan"}, "is_disabled": 0, "is_reserved": 0, "name": "4ec0f78305ed594c3ffafb133bd2c88d", "type": "electric_scooter", "fusion_lat": 0.0}, {"bike_id": "66b31aab990b56536519b11920e3f833", "lon": -77.07171, "lat": 38.908740333333334, "fusion_lon": 0.0, "rental_uris": {"ios": "https://dc.lft.to/lastmile_qr_scan", "android": "https://dc.lft.to/lastmile_qr_scan"}, "is_disabled": 0, "is_reserved": 0, "name": "66b31aab990b56536519b11920e3f833", "type": "electric_scooter", "fusion_lat": 0.0}, {"bike_id": "3431b231e97a89068a844477ea438756", "lon": -77.01425533333334, "lat": 38.928216666666664, "fusion_lon": 0.0, "rental_uris": {"ios": "https://dc.lft.to/lastmile_qr_scan", "android": "https://dc.lft.to/lastmile_qr_scan"}, "is_disabled": 0, "is_reserved": 0, "name": "3431b231e97a89068a844477ea438756", "type": "electric_scooter", "fusion_lat": 0.0}, {"bike_id": "25e7658baebd08e9418cbb5c7942ab7a", "lon": -77.00343316666667, "lat": 38.903636166666665, "fusion_lon": 0.0, "rental_uris": {"ios": "https://dc.lft.to/lastmile_qr_scan", "android": "https://dc.lft.to/lastmile_qr_scan"}, "is_disabled": 0, "is_reserved": 0, "name": "25e7658baebd08e9418cbb5c7942ab7a", "type": "electric_scooter", "fusion_lat": 0.0}, {"bike_id": "4eabea31f70c8d9ca763936c890f692f", "lon": -76.93412233333333, "lat": 38.8991685, "fusion_lon": 0.0, "rental_uris": {"ios": "https://dc.lft.to/lastmile_qr_scan", "android": "https://dc.lft.to/lastmile_qr_scan"}, "is_disabled": 0, "is_reserved": 0, "name": "4eabea31f70c8d9ca763936c890f692f", "type": "electric_scooter", "fusion_lat": 0.0}, {"bike_id": "b226356424cd9859b7027f912e16356a", "lon": -77.00894616666666, "lat": 38.90994033333333, "fusion_lon": 0.0, "rental_uris": {"ios": "https://dc.lft.to/lastmile_qr_scan", "android": "https://dc.lft.to/lastmile_qr_scan"}, "is_disabled": 0, "is_reserved": 0, "name": "b226356424cd9859b7027f912e16356a", "type": "electric_bike", "fusion_lat": 0.0}, {"bike_id": "2dc5acc908e7ebd7da78bea7e0aca97c", "lon": -77.008518, "lat": 38.910796, "fusion_lon": 0.0, "rental_uris": {"ios": "https://dc.lft.to/lastmile_qr_scan", "android": "https://dc.lft.to/lastmile_qr_scan"}, "is_disabled": 0, "is_reserved": 0, "name": "2dc5acc908e7ebd7da78bea7e0aca97c", "type": "electric_scooter", "fusion_lat": 0.0}, {"bike_id": "11a10b95b0e6221a0669befa66ef2bcb", "lon": -77.08818566666666, "lat": 38.8717105, "fusion_lon": 0.0, "rental_uris": {"ios": "https://dc.lft.to/lastmile_qr_scan", "android": "https://dc.lft.to/lastmile_qr_scan"}, "is_disabled": 0, "is_reserved": 0, "name": "11a10b95b0e6221a0669befa66ef2bcb", "type": "electric_bike", "fusion_lat": 0.0}, {"bike_id": "f55c36ab35e8482790dba282887c5a85", "lon": -77.05059733333333, "lat": 38.924194166666666, "fusion_lon": 0.0, "rental_uris": {"ios": "https://dc.lft.to/lastmile_qr_scan", "android": "https://dc.lft.to/lastmile_qr_scan"}, "is_disabled": 0, "is_reserved": 0, "name": "f55c36ab35e8482790dba282887c5a85", "type": "electric_scooter", "fusion_lat": 0.0}, {"bike_id": "02c9cb7bf65e9c020518a409e0efbb7b", "lon": -77.027114, "lat": 38.9240285, "fusion_lon": 0.0, "rental_uris": {"ios": "https://dc.lft.to/lastmile_qr_scan", "android": "https://dc.lft.to/lastmile_qr_scan"}, "is_disabled": 0, "is_reserved": 0, "name": "02c9cb7bf65e9c020518a409e0efbb7b", "type": "electric_scooter", "fusion_lat": 0.0}, {"bike_id": "3d343b298e596b460df2f1effbe665e4", "lon": -77.01820816666667, "lat": 38.922659, "fusion_lon": 0.0, "rental_uris": {"ios": "https://dc.lft.to/lastmile_qr_scan", "android": "https://dc.lft.to/lastmile_qr_scan"}, "is_disabled": 0, "is_reserved": 0, "name": "3d343b298e596b460df2f1effbe665e4", "type": "electric_scooter", "fusion_lat": 0.0}, {"bike_id": "18db771142ac8398f48cd526a9c6a6ae", "lon": -77.0239965, "lat": 38.920016833333335, "fusion_lon": 0.0, "rental_uris": {"ios": "https://dc.lft.to/lastmile_qr_scan", "android": "https://dc.lft.to/lastmile_qr_scan"}, "is_disabled": 0, "is_reserved": 0, "name": "18db771142ac8398f48cd526a9c6a6ae", "type": "electric_scooter", "fusion_lat": 0.0}, {"bike_id": "a93af3763db59d612187dd97d2909452", "lon": -77.03417583333334, "lat": 38.932355666666666, "fusion_lon": 0.0, "rental_uris": {"ios": "https://dc.lft.to/lastmile_qr_scan", "android": "https://dc.lft.to/lastmile_qr_scan"}, "is_disabled": 0, "is_reserved": 0, "name": "a93af3763db59d612187dd97d2909452", "type": "electric_scooter", "fusion_lat": 0.0}, {"bike_id": "c96afcd883972d0290ecc9409f70626f", "lon": -77.0496355, "lat": 38.907423333333334, "fusion_lon": 0.0, "rental_uris": {"ios": "https://dc.lft.to/lastmile_qr_scan", "android": "https://dc.lft.to/lastmile_qr_scan"}, "is_disabled": 0, "is_reserved": 0, "name": "c96afcd883972d0290ecc9409f70626f", "type": "electric_scooter", "fusion_lat": 0.0}, {"bike_id": "d6187cac9ad78cf85c004b27698210d5", "lon": -77.01014366666666, "lat": 38.90715383333333, "fusion_lon": 0.0, "rental_uris": {"ios": "https://dc.lft.to/lastmile_qr_scan", "android": "https://dc.lft.to/lastmile_qr_scan"}, "is_disabled": 0, "is_reserved": 0, "name": "d6187cac9ad78cf85c004b27698210d5", "type": "electric_scooter", "fusion_lat": 0.0}, {"bike_id": "2578063a74fdadf1c5409578119fe171", "lon": -77.03461433333334, "lat": 38.91821083333333, "fusion_lon": 0.0, "rental_uris": {"ios": "https://dc.lft.to/lastmile_qr_scan", "android": "https://dc.lft.to/lastmile_qr_scan"}, "is_disabled": 0, "is_reserved": 0, "name": "2578063a74fdadf1c5409578119fe171", "type": "electric_scooter", "fusion_lat": 0.0}, {"bike_id": "8f28e0224404ab2199d13178d4bb7455", "lon": -77.02217183333333, "lat": 38.9111655, "fusion_lon": 0.0, "rental_uris": {"ios": "https://dc.lft.to/lastmile_qr_scan", "android": "https://dc.lft.to/lastmile_qr_scan"}, "is_disabled": 0, "is_reserved": 0, "name": "8f28e0224404ab2199d13178d4bb7455", "type": "electric_scooter", "fusion_lat": 0.0}, {"bike_id": "cd7c0d698c4e4b6303e761e76afbdd8b", "lon": -77.02908616666667, "lat": 38.900487166666665, "fusion_lon": 0.0, "rental_uris": {"ios": "https://dc.lft.to/lastmile_qr_scan", "android": "https://dc.lft.to/lastmile_qr_scan"}, "is_disabled": 0, "is_reserved": 0, "name": "cd7c0d698c4e4b6303e761e76afbdd8b", "type": "electric_scooter", "fusion_lat": 0.0}, {"bike_id": "76fd6f534a1c816ce82eb78f2de10692", "lon": -77.05567816666667, "lat": 38.89731066666667, "fusion_lon": 0.0, "rental_uris": {"ios": "https://dc.lft.to/lastmile_qr_scan", "android": "https://dc.lft.to/lastmile_qr_scan"}, "is_disabled": 0, "is_reserved": 0, "name": "76fd6f534a1c816ce82eb78f2de10692", "type": "electric_scooter", "fusion_lat": 0.0}, {"bike_id": "ba9f8533923568a820e23bcab4b40a2f", "lon": -77.046796, "lat": 38.89511616666667, "fusion_lon": 0.0, "rental_uris": {"ios": "https://dc.lft.to/lastmile_qr_scan", "android": "https://dc.lft.to/lastmile_qr_scan"}, "is_disabled": 0, "is_reserved": 0, "name": "ba9f8533923568a820e23bcab4b40a2f", "type": "electric_scooter", "fusion_lat": 0.0}, {"bike_id": "386c0d9229ec44aa90a6a08566be08a9", "lon": -77.02801616666666, "lat": 38.907315, "fusion_lon": 0.0, "rental_uris": {"ios": "https://dc.lft.to/lastmile_qr_scan", "android": "https://dc.lft.to/lastmile_qr_scan"}, "is_disabled": 0, "is_reserved": 0, "name": "386c0d9229ec44aa90a6a08566be08a9", "type": "electric_scooter", "fusion_lat": 0.0}, {"bike_id": "c8e57ebb049d70a5537307b2dc1276b4", "lon": -77.01990833333333, "lat": 38.91915983333333, "fusion_lon": 0.0, "rental_uris": {"ios": "https://dc.lft.to/lastmile_qr_scan", "android": "https://dc.lft.to/lastmile_qr_scan"}, "is_disabled": 0, "is_reserved": 0, "name": "c8e57ebb049d70a5537307b2dc1276b4", "type": "electric_scooter", "fusion_lat": 0.0}, {"bike_id": "ac89800913a79d3bd0bd823583f3549d", "lon": -76.982721, "lat": 38.88535866666667, "fusion_lon": 0.0, "rental_uris": {"ios": "https://dc.lft.to/lastmile_qr_scan", "android": "https://dc.lft.to/lastmile_qr_scan"}, "is_disabled": 0, "is_reserved": 0, "name": "ac89800913a79d3bd0bd823583f3549d", "type": "electric_scooter", "fusion_lat": 0.0}, {"bike_id": "45a0e08b75344d639a43c2d989abb7a8", "lon": -76.97482116666667, "lat": 38.90348066666667, "fusion_lon": 0.0, "rental_uris": {"ios": "https://dc.lft.to/lastmile_qr_scan", "android": "https://dc.lft.to/lastmile_qr_scan"}, "is_disabled": 0, "is_reserved": 0, "name": "45a0e08b75344d639a43c2d989abb7a8", "type": "electric_scooter", "fusion_lat": 0.0}, {"bike_id": "5d600527aa0ec74df15fa05a09849a80", "lon": -77.05257833333333, "lat": 38.9251035, "fusion_lon": 0.0, "rental_uris": {"ios": "https://dc.lft.to/lastmile_qr_scan", "android": "https://dc.lft.to/lastmile_qr_scan"}, "is_disabled": 0, "is_reserved": 0, "name": "5d600527aa0ec74df15fa05a09849a80", "type": "electric_scooter", "fusion_lat": 0.0}, {"bike_id": "796da72e6ba42194e5e9cfff2bc713e7", "lon": -76.91194416666667, "lat": 38.89180783333333, "fusion_lon": 0.0, "rental_uris": {"ios": "https://dc.lft.to/lastmile_qr_scan", "android": "https://dc.lft.to/lastmile_qr_scan"}, "is_disabled": 0, "is_reserved": 0, "name": "796da72e6ba42194e5e9cfff2bc713e7", "type": "electric_scooter", "fusion_lat": 0.0}, {"bike_id": "087878b91f23cd55a19e9da828543f5f", "lon": -77.0435955, "lat": 38.9010545, "fusion_lon": 0.0, "rental_uris": {"ios": "https://dc.lft.to/lastmile_qr_scan", "android": "https://dc.lft.to/lastmile_qr_scan"}, "is_disabled": 0, "is_reserved": 0, "name": "087878b91f23cd55a19e9da828543f5f", "type": "electric_scooter", "fusion_lat": 0.0}, {"bike_id": "d5c5238ced8125371d6971f8c8b376f8", "lon": -77.0343585, "lat": 38.90974533333333, "fusion_lon": 0.0, "rental_uris": {"ios": "https://dc.lft.to/lastmile_qr_scan", "android": "https://dc.lft.to/lastmile_qr_scan"}, "is_disabled": 0, "is_reserved": 0, "name": "d5c5238ced8125371d6971f8c8b376f8", "type": "electric_scooter", "fusion_lat": 0.0}, {"bike_id": "768f272b19416b8072836bed6098b3be", "lon": -76.97742966666667, "lat": 38.87167383333333, "fusion_lon": 0.0, "rental_uris": {"ios": "https://dc.lft.to/lastmile_qr_scan", "android": "https://dc.lft.to/lastmile_qr_scan"}, "is_disabled": 0, "is_reserved": 0, "name": "768f272b19416b8072836bed6098b3be", "type": "electric_scooter", "fusion_lat": 0.0}, {"bike_id": "3908e8416533d9598ef6ce9fa023abf2", "lon": -77.00792683333333, "lat": 38.92686, "fusion_lon": 0.0, "rental_uris": {"ios": "https://dc.lft.to/lastmile_qr_scan", "android": "https://dc.lft.to/lastmile_qr_scan"}, "is_disabled": 0, "is_reserved": 0, "name": "3908e8416533d9598ef6ce9fa023abf2", "type": "electric_scooter", "fusion_lat": 0.0}, {"bike_id": "b8b1227e17753ce9a914f10e0e046f61", "lon": -77.0385505, "lat": 38.911426666666664, "fusion_lon": 0.0, "rental_uris": {"ios": "https://dc.lft.to/lastmile_qr_scan", "android": "https://dc.lft.to/lastmile_qr_scan"}, "is_disabled": 0, "is_reserved": 0, "name": "b8b1227e17753ce9a914f10e0e046f61", "type": "electric_scooter", "fusion_lat": 0.0}, {"bike_id": "a9f4068bb035d378b1624266bed5588c", "lon": -77.02972133333333, "lat": 38.9226465, "fusion_lon": 0.0, "rental_uris": {"ios": "https://dc.lft.to/lastmile_qr_scan", "android": "https://dc.lft.to/lastmile_qr_scan"}, "is_disabled": 0, "is_reserved": 0, "name": "a9f4068bb035d378b1624266bed5588c", "type": "electric_scooter", "fusion_lat": 0.0}, {"bike_id": "3928d05342bc2473e1680d5a53006244", "lon": -77.01808833333334, "lat": 38.92097783333333, "fusion_lon": 0.0, "rental_uris": {"ios": "https://dc.lft.to/lastmile_qr_scan", "android": "https://dc.lft.to/lastmile_qr_scan"}, "is_disabled": 0, "is_reserved": 0, "name": "3928d05342bc2473e1680d5a53006244", "type": "electric_scooter", "fusion_lat": 0.0}, {"bike_id": "2433bdba0f2ece736c46c21e0e24f872", "lon": -77.03213133333334, "lat": 38.917932, "fusion_lon": 0.0, "rental_uris": {"ios": "https://dc.lft.to/lastmile_qr_scan", "android": "https://dc.lft.to/lastmile_qr_scan"}, "is_disabled": 0, "is_reserved": 0, "name": "2433bdba0f2ece736c46c21e0e24f872", "type": "electric_scooter", "fusion_lat": 0.0}, {"bike_id": "4428d2c35b059a57f7e189c9d77417df", "lon": -77.00553183333334, "lat": 38.87472983333333, "fusion_lon": 0.0, "rental_uris": {"ios": "https://dc.lft.to/lastmile_qr_scan", "android": "https://dc.lft.to/lastmile_qr_scan"}, "is_disabled": 0, "is_reserved": 0, "name": "4428d2c35b059a57f7e189c9d77417df", "type": "electric_scooter", "fusion_lat": 0.0}, {"bike_id": "7c5dc1610f391baa91649c75e16272b0", "lon": -77.049183, "lat": 38.91416133333333, "fusion_lon": 0.0, "rental_uris": {"ios": "https://dc.lft.to/lastmile_qr_scan", "android": "https://dc.lft.to/lastmile_qr_scan"}, "is_disabled": 0, "is_reserved": 0, "name": "7c5dc1610f391baa91649c75e16272b0", "type": "electric_scooter", "fusion_lat": 0.0}, {"bike_id": "afc1f0a84812446387332546b8defe2a", "lon": -76.9870205, "lat": 38.907074333333334, "fusion_lon": 0.0, "rental_uris": {"ios": "https://dc.lft.to/lastmile_qr_scan", "android": "https://dc.lft.to/lastmile_qr_scan"}, "is_disabled": 0, "is_reserved": 0, "name": "afc1f0a84812446387332546b8defe2a", "type": "electric_scooter", "fusion_lat": 0.0}, {"bike_id": "e2ee4ed540a5a0b915ce771dfa7f19a2", "lon": -77.02121, "lat": 38.922472, "fusion_lon": 0.0, "rental_uris": {"ios": "https://dc.lft.to/lastmile_qr_scan", "android": "https://dc.lft.to/lastmile_qr_scan"}, "is_disabled": 0, "is_reserved": 0, "name": "e2ee4ed540a5a0b915ce771dfa7f19a2", "type": "electric_scooter", "fusion_lat": 0.0}, {"bike_id": "f82b2135ccb68b612ec7c4e41004a95f", "lon": -76.98822883333334, "lat": 38.9007225, "fusion_lon": 0.0, "rental_uris": {"ios": "https://dc.lft.to/lastmile_qr_scan", "android": "https://dc.lft.to/lastmile_qr_scan"}, "is_disabled": 0, "is_reserved": 0, "name": "f82b2135ccb68b612ec7c4e41004a95f", "type": "electric_scooter", "fusion_lat": 0.0}, {"bike_id": "7b3780c32e6125a54abbbec816e10bb2", "lon": -77.023192, "lat": 38.909318999999996, "fusion_lon": 0.0, "rental_uris": {"ios": "https://dc.lft.to/lastmile_qr_scan", "android": "https://dc.lft.to/lastmile_qr_scan"}, "is_disabled": 0, "is_reserved": 0, "name": "7b3780c32e6125a54abbbec816e10bb2", "type": "electric_scooter", "fusion_lat": 0.0}, {"bike_id": "8230b7b9951081241f5a08347896fba4", "lon": -76.96527783333333, "lat": 38.874808, "fusion_lon": 0.0, "rental_uris": {"ios": "https://dc.lft.to/lastmile_qr_scan", "android": "https://dc.lft.to/lastmile_qr_scan"}, "is_disabled": 0, "is_reserved": 0, "name": "8230b7b9951081241f5a08347896fba4", "type": "electric_bike", "fusion_lat": 0.0}, {"bike_id": "92ad6f16b0e499ad78e381f6987f6d02", "lon": -77.03025383333333, "lat": 38.883855, "fusion_lon": 0.0, "rental_uris": {"ios": "https://dc.lft.to/lastmile_qr_scan", "android": "https://dc.lft.to/lastmile_qr_scan"}, "is_disabled": 0, "is_reserved": 0, "name": "92ad6f16b0e499ad78e381f6987f6d02", "type": "electric_scooter", "fusion_lat": 0.0}, {"bike_id": "874dfd953f426ac6191621061a665d05", "lon": -76.93184383333333, "lat": 38.8987665, "fusion_lon": 0.0, "rental_uris": {"ios": "https://dc.lft.to/lastmile_qr_scan", "android": "https://dc.lft.to/lastmile_qr_scan"}, "is_disabled": 0, "is_reserved": 0, "name": "874dfd953f426ac6191621061a665d05", "type": "electric_scooter", "fusion_lat": 0.0}, {"bike_id": "246628d88cbfd2c11eb2d60114f4f7f3", "lon": -77.05056483333334, "lat": 38.924155999999996, "fusion_lon": 0.0, "rental_uris": {"ios": "https://dc.lft.to/lastmile_qr_scan", "android": "https://dc.lft.to/lastmile_qr_scan"}, "is_disabled": 0, "is_reserved": 0, "name": "246628d88cbfd2c11eb2d60114f4f7f3", "type": "electric_scooter", "fusion_lat": 0.0}, {"bike_id": "8ab2bc143e944c160d21bf333ee3fcf8", "lon": -77.018572, "lat": 38.91490916666667, "fusion_lon": 0.0, "rental_uris": {"ios": "https://dc.lft.to/lastmile_qr_scan", "android": "https://dc.lft.to/lastmile_qr_scan"}, "is_disabled": 0, "is_reserved": 0, "name": "8ab2bc143e944c160d21bf333ee3fcf8", "type": "electric_scooter", "fusion_lat": 0.0}, {"bike_id": "4237603a7f50070f285e7fa6b3abe1a7", "lon": -77.13101783333333, "lat": 39.024342833333336, "fusion_lon": 0.0, "rental_uris": {"ios": "https://dc.lft.to/lastmile_qr_scan", "android": "https://dc.lft.to/lastmile_qr_scan"}, "is_disabled": 0, "is_reserved": 0, "name": "4237603a7f50070f285e7fa6b3abe1a7", "type": "electric_bike", "fusion_lat": 0.0}, {"bike_id": "c1d017ba62d25a05755bb164422be1d3", "lon": -76.97459116666667, "lat": 38.864006333333336, "fusion_lon": 0.0, "rental_uris": {"ios": "https://dc.lft.to/lastmile_qr_scan", "android": "https://dc.lft.to/lastmile_qr_scan"}, "is_disabled": 0, "is_reserved": 0, "name": "c1d017ba62d25a05755bb164422be1d3", "type": "electric_scooter", "fusion_lat": 0.0},