{"data": {"bikes": [{"is_disabled": 0, "is_reserved": 0, "fusion_lat": 0.0, "lat": 38.93056883333333, "fusion_lon": 0.0, "rental_uris": {"ios": "https://dc.lft.to/lastmile_qr_scan", "android": "https://dc.lft.to/lastmile_qr_scan"}, "lon": -77.03943483333333, "bike_id": "065107a440a24274439181d68ddaa4e0", "type": "electric_scooter", "name": "065107a440a24274439181d68ddaa4e0"}, {"is_disabled": 0, "is_reserved": 0, "fusion_lat": 0.0, "lat": 38.879052, "fusion_lon": 0.0, "rental_uris": {"ios": "https://dc.lft.to/lastmile_qr_scan", "android": "https://dc.lft.to/lastmile_qr_scan"}, "lon": -77.008348, "bike_id": "8b7f89b83211ca61af75734e85fb9cfb", "type": "electric_bike", "name": "8b7f89b83211ca61af75734e85fb9cfb"}, {"is_disabled": 0, "is_reserved": 0, "fusion_lat": 0.0, "lat": 38.900584333333335, "fusion_lon": 0.0, "rental_uris": {"ios": "https://dc.lft.to/lastmile_qr_scan", "android": "https://dc.lft.to/lastmile_qr_scan"}, "lon": -77.04568733333333, "bike_id": "7337fdcf26f1d9945e979d9f2cc231de", "type": "electric_scooter", "name": "7337fdcf26f1d9945e979d9f2cc231de"}, {"is_disabled": 0, "is_reserved": 0, "fusion_lat": 0.0, "lat": 38.925073, "fusion_lon": 0.0, "rental_uris": {"ios": "https://dc.lft.to/lastmile_qr_scan", "android": "https://dc.lft.to/lastmile_qr_scan"}, "lon": -77.02428783333333, "bike_id": "842757dc1ede7c61b3814f9e75345d96", "type": "electric_scooter", "name": "842757dc1ede7c61b3814f9e75345d96"}, {"is_disabled": 0, "is_reserved": 0, "fusion_lat": 0.0, "lat": 38.9269515, "fusion_lon": 0.0, "rental_uris": {"ios": "https://dc.lft.to/lastmile_qr_scan", "android": "https://dc.lft.to/lastmile_qr_scan"}, "lon": -76.99784333333334, "bike_id": "a8210aeda6a9947400ed7326c281e4fc", "type": "electric_scooter", "name": "a8210aeda6a9947400ed7326c281e4fc"}, {"is_disabled": 0, "is_reserved": 0, "fusion_lat": 0.0, "lat": 38.91582116666667, "fusion_lon": 0.0, "rental_uris": {"ios": "https://dc.lft.to/lastmile_qr_scan", "android": "https://dc.lft.to/lastmile_qr_scan"}, "lon": -77.01882166666667, "bike_id": "0608e8446c283cbc7d03dee5230164dd", "type": "electric_scooter", "name": "0608e8446c283cbc7d03dee5230164dd"}, {"is_disabled": 0, "is_reserved": 0, "fusion_lat": 0.0, "lat": 38.900677, "fusion_lon": 0.0, "rental_uris": {"ios": "https://dc.lft.to/lastmile_qr_scan", "android": "https://dc.lft.to/lastmile_qr_scan"}, "lon": -76.949781, "bike_id": "7b43b5b6cc0d26b8e849bc6b779d78a5", "type": "electric_scooter", "name": "7b43b5b6cc0d26b8e849bc6b779d78a5"}, {"is_disabled": 0, "is_reserved": 0, "fusion_lat": 0.0, "lat": 38.91898483333333, "fusion_lon": 0.0, "rental_uris": {"ios": "https://dc.lft.to/lastmile_qr_scan", "android": "https://dc.lft.to/lastmile_qr_scan"}, "lon": -77.023127, "bike_id": "8caa5fff8c3214a85c4aa27f75f4685b", "type": "electric_scooter", "name": "8caa5fff8c3214a85c4aa27f75f4685b"}, {"is_disabled": 0, "is_reserved": 0, "fusion_lat": 0.0, "lat": 38.93526816666667, "fusion_lon": 0.0, "rental_uris": {"ios": "https://dc.lft.to/lastmile_qr_scan", "android": "https://dc.lft.to/lastmile_qr_scan"}, "lon": -77.02844583333334, "bike_id": "6c6ac3f2a33d8f0f243aa41994a341e7", "type": "electric_scooter", "name": "6c6ac3f2a33d8f0f243aa41994a341e7"}, {"is_disabled": 0, "is_reserved": 0, "fusion_lat": 0.0, "lat": 38.915267166666666, "fusion_lon": 0.0, "rental_uris": {"ios": "https://dc.lft.to/lastmile_qr_scan", "android": "https://dc.lft.to/lastmile_qr_scan"}, "lon": -77.04627183333334, "bike_id": "9858afd2638a679d85e320e20b7b546c", "type": "electric_scooter", "name": "9858afd2638a679d85e320e20b7b546c"}, {"is_disabled": 0, "is_reserved": 0, "fusion_lat": 0.0, "lat": 38.90204466666667, "fusion_lon": 0.0, "rental_uris": {"ios": "https://dc.lft.to/lastmile_qr_scan", "android": "https://dc.lft.to/lastmile_qr_scan"}, "lon": -77.02377416666667, "bike_id": "952108017903ff2487e18787309738b0", "type": "electric_scooter", "name": "952108017903ff2487e18787309738b0"}, {"is_disabled": 0, "is_reserved": 0, "fusion_lat": 0.0, "lat": 38.91402216666667, "fusion_lon": 0.0, "rental_uris": {"ios": "https://dc.lft.to/lastmile_qr_scan", "android": "https://dc.lft.to/lastmile_qr_scan"}, "lon": -77.03219483333334, "bike_id": "39c83daaf40d5735865d4a7eccb6c071", "type": "electric_scooter", "name": "39c83daaf40d5735865d4a7eccb6c071"}, {"is_disabled": 0, "is_reserved": 0, "fusion_lat": 0.0, "lat": 38.86283133333333, "fusion_lon": 0.0, "rental_uris": {"ios": "https://dc.lft.to/lastmile_qr_scan", "android": "https://dc.lft.to/lastmile_qr_scan"}, "lon": -76.945182, "bike_id": "e689071545bb162ce46f51128c989c16", "type": "electric_bike", "name": "e689071545bb162ce46f51128c989c16"}, {"is_disabled": 0, "is_reserved": 0, "fusion_lat": 0.0, "lat": 38.87288366666667, "fusion_lon": 0.0, "rental_uris": {"ios": "https://dc.lft.to/lastmile_qr_scan", "android": "https://dc.lft.to/lastmile_qr_scan"}, "lon": -77.00976766666666, "bike_id": "be9314119d9ef142d8c26a86ae8288da", "type": "electric_scooter", "name": "be9314119d9ef142d8c26a86ae8288da"}, {"is_disabled": 0, "is_reserved": 0, "fusion_lat": 0.0, "lat": 38.920989666666664, "fusion_lon": 0.0, "rental_uris": {"ios": "https://dc.lft.to/lastmile_qr_scan", "android": "https://dc.lft.to/lastmile_qr_scan"}, "lon": -77.01764283333333, "bike_id": "f47e4cfd005a797cfa66f7513910637e", "type": "electric_scooter", "name": "f47e4cfd005a797cfa66f7513910637e"}, {"is_disabled": 0, "is_reserved": 0, "fusion_lat": 0.0, "lat": 38.9160875, "fusion_lon": 0.0, "rental_uris": {"ios": "https://dc.lft.to/lastmile_qr_scan", "android": "https://dc.lft.to/lastmile_qr_scan"}, "lon": -77.02133133333334, "bike_id": "5fb89bd072f1220214d954079a28c335", "type": "electric_scooter", "name": "5fb89bd072f1220214d954079a28c335"}, {"is_disabled": 0, "is_reserved": 0, "fusion_lat": 0.0, "lat": 38.87158516666667, "fusion_lon": 0.0, "rental_uris": {"ios": "https://dc.lft.to/lastmile_qr_scan", "android": "https://dc.lft.to/lastmile_qr_scan"}, "lon": -77.01359716666667, "bike_id": "adac9a5f26980e3a583a8ed8aeda2488", "type": "electric_scooter", "name": "adac9a5f26980e3a583a8ed8aeda2488"}, {"is_disabled": 0, "is_reserved": 0, "fusion_lat": 0.0, "lat": 38.898937833333335, "fusion_lon": 0.0, "rental_uris": {"ios": "https://dc.lft.to/lastmile_qr_scan", "android": "https://dc.lft.to/lastmile_qr_scan"}, "lon": -77.03233433333334, "bike_id": "830fa6490554ef9f12368e493160631e", "type": "electric_scooter", "name": "830fa6490554ef9f12368e493160631e"}, {"is_disabled": 0, "is_reserved": 0, "fusion_lat": 0.0, "lat": 38.90780183333333, "fusion_lon": 0.0, "rental_uris": {"ios": "https://dc.lft.to/lastmile_qr_scan", "android": "https://dc.lft.to/lastmile_qr_scan"}, "lon": -76.99714033333333, "bike_id": "0f2478aff2abe6f18b5721d134d0be0a", "type": "electric_scooter", "name": "0f2478aff2abe6f18b5721d134d0be0a"}, {"is_disabled": 0, "is_reserved": 0, "fusion_lat": 0.0, "lat": 38.88425733333333, "fusion_lon": 0.0, "rental_uris": {"ios": "https://dc.lft.to/lastmile_qr_scan", "android": "https://dc.lft.to/lastmile_qr_scan"}, "lon": -77.0292635, "bike_id": "1ac5d43b6ff6e24497483237856ebb28", "type": "electric_scooter", "name": "1ac5d43b6ff6e24497483237856ebb28"}, {"is_disabled": 0, "is_reserved": 0, "fusion_lat": 0.0, "lat": 38.903500333333334, "fusion_lon": 0.0, "rental_uris": {"ios": "https://dc.lft.to/lastmile_qr_scan", "android": "https://dc.lft.to/lastmile_qr_scan"}, "lon": -77.0250225, "bike_id": "22bc8461a8dd3066da9da7f77ab8e1e2", "type": "electric_scooter", "name": "22bc8461a8dd3066da9da7f77ab8e1e2"}, {"is_disabled": 0, "is_reserved": 0, "fusion_lat": 0.0, "lat": 38.916894666666664, "fusion_lon": 0.0, "rental_uris": {"ios": "https://dc.lft.to/lastmile_qr_scan", "android": "https://dc.lft.to/lastmile_qr_scan"}, "lon": -77.0252825, "bike_id": "315a15fb5617c064bfb549adb60062bd", "type": "electric_scooter", "name": "315a15fb5617c064bfb549adb60062bd"}, {"is_disabled": 0, "is_reserved": 0, "fusion_lat": 0.0, "lat": 38.9183375, "fusion_lon": 0.0, "rental_uris": {"ios": "https://dc.lft.to/lastmile_qr_scan", "android": "https://dc.lft.to/lastmile_qr_scan"}, "lon": -77.02304033333333, "bike_id": "0a20139189bb88d2bb12f4e028090eea", "type": "electric_scooter", "name": "0a20139189bb88d2bb12f4e028090eea"}, {"is_disabled": 0, "is_reserved": 0, "fusion_lat": 0.0, "lat": 38.92033266666667, "fusion_lon": 0.0, "rental_uris": {"ios": "https://dc.lft.to/lastmile_qr_scan", "android": "https://dc.lft.to/lastmile_qr_scan"}, "lon": -77.02605416666667, "bike_id": "005b98ec9687722c682e0cf62877d947", "type": "electric_scooter", "name": "005b98ec9687722c682e0cf62877d947"}, {"is_disabled": 0, "is_reserved": 0, "fusion_lat": 0.0, "lat": 38.936382, "fusion_lon": 0.0, "rental_uris": {"ios": "https://dc.lft.to/lastmile_qr_scan", "android": "https://dc.lft.to/lastmile_qr_scan"}, "lon": -77.03261533333334, "bike_id": "c2d3d6dd7609ed6d48b0900b18e87fbf", "type": "electric_scooter", "name": "c2d3d6dd7609ed6d48b0900b18e87fbf"}, {"is_disabled": 0, "is_reserved": 0, "fusion_lat": 0.0, "lat": 38.878416666666666, "fusion_lon": 0.0, "rental_uris": {"ios": "https://dc.lft.to/lastmile_qr_scan", "android": "https://dc.lft.to/lastmile_qr_scan"}, "lon": -76.93131016666666, "bike_id": "753fb1b6edce15a3da56ef510654c6dd", "type": "electric_scooter", "name": "753fb1b6edce15a3da56ef510654c6dd"}, {"is_disabled": 0, "is_reserved": 0, "fusion_lat": 0.0, "lat": 39.010700166666666, "fusion_lon": 0.0, "rental_uris": {"ios": "https://dc.lft.to/lastmile_qr_scan", "android": "https://dc.lft.to/lastmile_qr_scan"}, "lon": -76.92244766666667, "bike_id": "37713578b1350b69b45f20d510e3a745", "type": "electric_bike", "name": "37713578b1350b69b45f20d510e3a745"}, {"is_disabled": 0, "is_reserved": 0, "fusion_lat": 0.0, "lat": 39.005288166666666, "fusion_lon": 0.0, "rental_uris": {"ios": "https://dc.lft.to/lastmile_qr_scan", "android": "https://dc.lft.to/lastmile_qr_scan"}, "lon": -77.10404933333334, "bike_id": "4505b9082bc085e6cdb8013f9f0af919", "type": "electric_bike", "name": "4505b9082bc085e6cdb8013f9f0af919"}, {"is_disabled": 0, "is_reserved": 0, "fusion_lat": 0.0, "lat": 38.891980333333336, "fusion_lon": 0.0, "rental_uris": {"ios": "https://dc.lft.to/lastmile_qr_scan", "android": "https://dc.lft.to/lastmile_qr_scan"}, "lon": -77.0439545, "bike_id": "8eb2788f0447287deff5ad0611c73d14", "type": "electric_scooter", "name": "8eb2788f0447287deff5ad0611c73d14"}, {"is_disabled": 0, "is_reserved": 0, "fusion_lat": 0.0, "lat": 38.90608483333333, "fusion_lon": 0.0, "rental_uris": {"ios": "https://dc.lft.to/lastmile_qr_scan", "android": "https://dc.lft.to/lastmile_qr_scan"}, "lon": -77.04693833333333, "bike_id": "4fefe14c702427f62048fff99a41bf89", "type": "electric_scooter", "name": "4fefe14c702427f62048fff99a41bf89"}, {"is_disabled": 0, "is_reserved": 0, "fusion_lat": 0.0, "lat": 38.90662233333333, "fusion_lon": 0.0, "rental_uris": {"ios": "https://dc.lft.to/lastmile_qr_scan", "android": "https://dc.lft.to/lastmile_qr_scan"}, "lon": -77.00977016666667, "bike_id": "85b3b3f6969715b02e0bd555e5820b07", "type": "electric_scooter", "name": "85b3b3f6969715b02e0bd555e5820b07"}, {"is_disabled": 0, "is_reserved": 0, "fusion_lat": 0.0, "lat": 38.9737035, "fusion_lon": 0.0, "rental_uris": {"ios": "https://dc.lft.to/lastmile_qr_scan", "android": "https://dc.lft.to/lastmile_qr_scan"}, "lon": -77.018637, "bike_id": "e1e80a1aaca0723b7b53959c8b7f290a", "type": "electric_scooter", "name": "e1e80a1aaca0723b7b53959c8b7f290a"}, {"is_disabled": 0, "is_reserved": 0, "fusion_lat": 0.0, "lat": 38.87737883333333, "fusion_lon": 0.0, "rental_uris": {"ios": "https://dc.lft.to/lastmile_qr_scan", "android": "https://dc.lft.to/lastmile_qr_scan"}, "lon": -77.1487195, "bike_id": "1e6176b08b7f0449384d85cc9f497642", "type": "electric_bike", "name": "1e6176b08b7f0449384d85cc9f497642"}, {"is_disabled": 0, "is_reserved": 0, "fusion_lat": 0.0, "lat": 38.885186, "fusion_lon": 0.0, "rental_uris": {"ios": "https://dc.lft.to/lastmile_qr_scan", "android": "https://dc.lft.to/lastmile_qr_scan"}, "lon": -76.9961465, "bike_id": "e84e31fbdec92fe3db90812a0b1b28ca", "type": "electric_scooter", "name": "e84e31fbdec92fe3db90812a0b1b28ca"}, {"is_disabled": 0, "is_reserved": 0, "fusion_lat": 0.0, "lat": 38.881024333333336, "fusion_lon": 0.0, "rental_uris": {"ios": "https://dc.lft.to/lastmile_qr_scan", "android": "https://dc.lft.to/lastmile_qr_scan"}, "lon": -77.01236183333333, "bike_id": "188fe2129e6369f63c16f30e7ba18937", "type": "electric_scooter", "name": "188fe2129e6369f63c16f30e7ba18937"}, {"is_disabled": 0, "is_reserved": 0, "fusion_lat": 0.0, "lat": 38.89851516666667, "fusion_lon": 0.0, "rental_uris": {"ios": "https://dc.lft.to/lastmile_qr_scan", "android": "https://dc.lft.to/lastmile_qr_scan"}, "lon": -77.04871666666666, "bike_id": "4384e54e6ef7e1bdac4c6797ce3f810d", "type": "electric_scooter", "name": "4384e54e6ef7e1bdac4c6797ce3f810d"}, {"is_disabled": 0, "is_reserved": 0, "fusion_lat": 0.0, "lat": 38.948153833333336, "fusion_lon": 0.0, "rental_uris": {"ios": "https://dc.lft.to/lastmile_qr_scan", "android": "https://dc.lft.to/lastmile_qr_scan"}, "lon": -77.02540166666667, "bike_id": "bbf7797c2a6f8c40466eb272a3215b50", "type": "electric_scooter", "name": "bbf7797c2a6f8c40466eb272a3215b50"}, {"is_disabled": 0, "is_reserved": 0, "fusion_lat": 0.0, "lat": 38.9068445, "fusion_lon": 0.0, "rental_uris": {"ios": "https://dc.lft.to/lastmile_qr_scan", "android": "https://dc.lft.to/lastmile_qr_scan"}, "lon": -77.05325783333333, "bike_id": "e6b5869c2d3b7e5ce90cc49611f9424b", "type": "electric_scooter", "name": "e6b5869c2d3b7e5ce90cc49611f9424b"}, {"is_disabled": 0, "is_reserved": 0, "fusion_lat": 0.0, "lat": 38.87658866666666, "fusion_lon": 0.0, "rental_uris": {"ios": "https://dc.lft.to/lastmile_qr_scan", "android": "https://dc.lft.to/lastmile_qr_scan"}, "lon": -76.99641916666667, "bike_id": "78b77cc1c29e2a025bbf8e9755d02cce", "type": "electric_scooter", "name": "78b77cc1c29e2a025bbf8e9755d02cce"}, {"is_disabled": 0, "is_reserved": 0, "fusion_lat": 0.0, "lat": 38.922346833333336, "fusion_lon": 0.0, "rental_uris": {"ios": "https://dc.lft.to/lastmile_qr_scan", "android": "https://dc.lft.to/lastmile_qr_scan"}, "lon": -77.04485633333333, "bike_id": "15be04ebd52061da73a782323f7d23c5", "type": "electric_scooter", "name": "15be04ebd52061da73a782323f7d23c5"}, {"is_disabled": 0, "is_reserved": 0, "fusion_lat": 0.0, "lat": 38.91262016666667, "fusion_lon": 0.0, "rental_uris": {"ios": "https://dc.lft.to/lastmile_qr_scan", "android": "https://dc.lft.to/lastmile_qr_scan"}, "lon": -77.01534166666667, "bike_id": "da552f05b034302a38e84b3de1231dd6", "type": "electric_scooter", "name": "da552f05b034302a38e84b3de1231dd6"}, {"is_disabled": 0, "is_reserved": 0, "fusion_lat": 0.0, "lat": 38.902634, "fusion_lon": 0.0, "rental_uris": {"ios": "https://dc.lft.to/lastmile_qr_scan", "android": "https://dc.lft.to/lastmile_qr_scan"}, "lon": -77.05895916666667, "bike_id": "9fd8cb3e53b9d3021f2c04945334120a", "type": "electric_scooter", "name": "9fd8cb3e53b9d3021f2c04945334120a"}, {"is_disabled": 0, "is_reserved": 0, "fusion_lat": 0.0, "lat": 38.9246695, "fusion_lon": 0.0, "rental_uris": {"ios": "https://dc.lft.to/lastmile_qr_scan", "android": "https://dc.lft.to/lastmile_qr_scan"}, "lon": -77.03542666666667, "bike_id": "8d5dab0513859ceb685182b6ef30442b", "type": "electric_scooter", "name": "8d5dab0513859ceb685182b6ef30442b"}, {"is_disabled": 0, "is_reserved": 0, "fusion_lat": 0.0, "lat": 38.938592, "fusion_lon": 0.0, "rental_uris": {"ios": "https://dc.lft.to/lastmile_qr_scan", "android": "https://dc.lft.to/lastmile_qr_scan"}, "lon": -77.03045566666667, "bike_id": "f212d7174270e97c914e6690556dac52", "type": "electric_scooter", "name": "f212d7174270e97c914e6690556dac52"}, {"is_disabled": 0, "is_reserved": 0, "fusion_lat": 0.0, "lat": 38.9084705, "fusion_lon": 0.0, "rental_uris": {"ios": "https://dc.lft.to/lastmile_qr_scan", "android": "https://dc.lft.to/lastmile_qr_scan"}, "lon": -77.001733, "bike_id": "7d85c1a40c7c10930da4bd32ad1eeb69", "type": "electric_scooter", "name": "7d85c1a40c7c10930da4bd32ad1eeb69"}, {"is_disabled": 0, "is_reserved": 0, "fusion_lat": 0.0, "lat": 38.88169233333333, "fusion_lon": 0.0, "rental_uris": {"ios": "https://dc.lft.to/lastmile_qr_scan", "android": "https://dc.lft.to/lastmile_qr_scan"}, "lon": -76.92505733333333, "bike_id": "94c42cbc6ccdb4a3f89af33fef00b93d", "type": "electric_scooter", "name": "94c42cbc6ccdb4a3f89af33fef00b93d"}, {"is_disabled": 0, "is_reserved": 0, "fusion_lat": 0.0, "lat": 38.88278433333333, "fusion_lon": 0.0, "rental_uris": {"ios": "https://dc.lft.to/lastmile_qr_scan", "android": "https://dc.lft.to/lastmile_qr_scan"}, "lon": -76.93240333333334, "bike_id": "f18bc9b490a02b9da40d675afd4eea1f", "type": "electric_bike", "name": "f18bc9b490a02b9da40d675afd4eea1f"}, {"is_disabled": 0, "is_reserved": 0, "fusion_lat": 0.0, "lat": 38.9234995, "fusion_lon": 0.0, "rental_uris": {"ios": "https://dc.lft.to/lastmile_qr_scan", "android": "https://dc.lft.to/lastmile_qr_scan"}, "lon": -77.07311366666667, "bike_id": "04e465d556c65507e0e74e55aad6bf97", "type": "electric_scooter", "name": "04e465d556c65507e0e74e55aad6bf97"}, {"is_disabled": 0, "is_reserved": 0, "fusion_lat": 0.0, "lat": 38.900127499999996, "fusion_lon": 0.0, "rental_uris": {"ios": "https://dc.lft.to/lastmile_qr_scan", "android": "https://dc.lft.to/lastmile_qr_scan"}, "lon": -77.02169233333333, "bike_id": "02ffeda9bc5ce9bfb4457612c9cda9fc", "type": "electric_scooter", "name": "02ffeda9bc5ce9bfb4457612c9cda9fc"}, {"is_disabled": 0, "is_reserved": 0, "fusion_lat": 0.0, "lat": 38.93701383333333, "fusion_lon": 0.0, "rental_uris": {"ios": "https://dc.lft.to/lastmile_qr_scan", "android": "https://dc.lft.to/lastmile_qr_scan"}, "lon": -77.05599016666666, "bike_id": "575a572ecaa01fc1d0ed32a5cf2adb1b", "type": "electric_scooter", "name": "575a572ecaa01fc1d0ed32a5cf2adb1b"}, {"is_disabled": 0, "is_reserved": 0, "fusion_lat": 0.0, "lat": 38.89290333333334, "fusion_lon": 0.0, "rental_uris": {"ios": "https://dc.lft.to/lastmile_qr_scan", "android": "https://dc.lft.to/lastmile_qr_scan"}, "lon": -76.97619316666666, "bike_id": "f53d6844c490aaa3f0af654c467fd3ec", "type": "electric_bike", "name": "f53d6844c490aaa3f0af654c467fd3ec"}, {"is_disabled": 0, "is_reserved": 0, "fusion_lat": 0.0, "lat": 38.923926, "fusion_lon": 0.0, "rental_uris": {"ios": "https://dc.lft.to/lastmile_qr_scan", "android": "https://dc.lft.to/lastmile_qr_scan"}, "lon": -76.99393283333333, "bike_id": "c6f439486fb0842c70033f0ccffb81b0", "type": "electric_scooter", "name": "c6f439486fb0842c70033f0ccffb81b0"}, {"is_disabled": 0, "is_reserved": 0, "fusion_lat": 0.0, "lat": 38.9172385, "fusion_lon": 0.0, "rental_uris": {"ios": "https://dc.lft.to/lastmile_qr_scan", "android": "https://dc.lft.to/lastmile_qr_scan"}, "lon": -77.02712516666666, "bike_id": "d8b87e4147e61304c3981f559215938d", "type": "electric_scooter", "name": "d8b87e4147e61304c3981f559215938d"}, {"is_disabled": 0, "is_reserved": 0, "fusion_lat": 0.0, "lat": 38.89206033333333, "fusion_lon": 0.0, "rental_uris": {"ios": "https://dc.lft.to/lastmile_qr_scan", "android": "https://dc.lft.to/lastmile_qr_scan"}, "lon": -76.99845133333334, "bike_id": "41c5a46280602975dad154a47b0f469f", "type": "electric_scooter", "name": "41c5a46280602975dad154a47b0f469f"}, {"is_disabled": 0, "is_reserved": 0, "fusion_lat": 0.0, "lat": 38.926589, "fusion_lon": 0.0, "rental_uris": {"ios": "https://dc.lft.to/lastmile_qr_scan", "android": "https://dc.lft.to/lastmile_qr_scan"}, "lon": -77.02445133333333, "bike_id": "b43185d65956d4899a3596f48eb433ef", "type": "electric_scooter", "name": "b43185d65956d4899a3596f48eb433ef"}, {"is_disabled": 0, "is_reserved": 0, "fusion_lat": 0.0, "lat": 38.9265585, "fusion_lon": 0.0, "rental_uris": {"ios": "https://dc.lft.to/lastmile_qr_scan", "android": "https://dc.lft.to/lastmile_qr_scan"}, "lon": -77.0243065, "bike_id": "1a128ff11c4a867d9f408c924371dbbf", "type": "electric_scooter", "name": "1a128ff11c4a867d9f408c924371dbbf"}, {"is_disabled": 0, "is_reserved": 0, "fusion_lat": 0.0, "lat": 38.9311745, "fusion_lon": 0.0, "rental_uris": {"ios": "https://dc.lft.to/lastmile_qr_scan", "android": "https://dc.lft.to/lastmile_qr_scan"}, "lon": -77.0207075, "bike_id": "22f199d30f536f41127f9433db7b8fa2", "type": "electric_scooter", "name": "22f199d30f536f41127f9433db7b8fa2"}, {"is_disabled": 0, "is_reserved": 0, "fusion_lat": 0.0, "lat": 38.91857133333333, "fusion_lon": 0.0, "rental_uris": {"ios": "https://dc.lft.to/lastmile_qr_scan", "android": "https://dc.lft.to/lastmile_qr_scan"}, "lon": -77.044463, "bike_id": "1f8e4c367f6f0df501762ebddb09f6ba", "type": "electric_scooter", "name": "1f8e4c367f6f0df501762ebddb09f6ba"}, {"is_disabled": 0, "is_reserved": 0, "fusion_lat": 0.0, "lat": 38.90794833333333, "fusion_lon": 0.0, "rental_uris": {"ios": "https://dc.lft.to/lastmile_qr_scan", "android": "https://dc.lft.to/lastmile_qr_scan"}, "lon": -77.0498675, "bike_id": "be31ebf3234d5d779212bc9954d0d381", "type": "electric_scooter", "name": "be31ebf3234d5d779212bc9954d0d381"}, {"is_disabled": 0, "is_reserved": 0, "fusion_lat": 0.0, "lat": 38.921482, "fusion_lon": 0.0, "rental_uris": {"ios": "https://dc.lft.to/lastmile_qr_scan", "android": "https://dc.lft.to/lastmile_qr_scan"}, "lon": -77.03674816666667, "bike_id": "18f93faa96c49d154384de62f455d5d4", "type": "electric_scooter", "name": "18f93faa96c49d154384de62f455d5d4"}, {"is_disabled": 0, "is_reserved": 0, "fusion_lat": 0.0, "lat": 38.8948225, "fusion_lon": 0.0, "rental_uris": {"ios": "https://dc.lft.to/lastmile_qr_scan", "android": "https://dc.lft.to/lastmile_qr_scan"}, "lon": -77.04170066666667, "bike_id": "8085ad259cf722a3a7154ddc672b8a19", "type": "electric_scooter", "name": "8085ad259cf722a3a7154ddc672b8a19"}, {"is_disabled": 0, "is_reserved": 0, "fusion_lat": 0.0, "lat": 38.85555816666667, "fusion_lon": 0.0, "rental_uris": {"ios": "https://dc.lft.to/lastmile_qr_scan", "android": "https://dc.lft.to/lastmile_qr_scan"}, "lon": -77.064063, "bike_id": "9ff6160dae54c63e172b9f766cdb6f83", "type": "electric_bike", "name": "9ff6160dae54c63e172b9f766cdb6f83"}, {"is_disabled": 0, "is_reserved": 0, "fusion_lat": 0.0, "lat": 38.9225275, "fusion_lon": 0.0, "rental_uris": {"ios": "https://dc.lft.to/lastmile_qr_scan", "android": "https://dc.lft.to/lastmile_qr_scan"}, "lon": -77.0365875, "bike_id": "003612b071a758f74f7e466ebeb01fd6", "type": "electric_scooter", "name": "003612b071a758f74f7e466ebeb01fd6"}, {"is_disabled": 0, "is_reserved": 0, "fusion_lat": 0.0, "lat": 38.98365866666666, "fusion_lon": 0.0, "rental_uris": {"ios": "https://dc.lft.to/lastmile_qr_scan", "android": "https://dc.lft.to/lastmile_qr_scan"}, "lon": -76.98850633333333, "bike_id": "a6498cb5a9ade17d3925365e588d2d85", "type": "electric_bike", "name": "a6498cb5a9ade17d3925365e588d2d85"}, {"is_disabled": 0, "is_reserved": 0, "fusion_lat": 0.0, "lat": 38.84220416666667, "fusion_lon": 0.0, "rental_uris": {"ios": "https://dc.lft.to/lastmile_qr_scan", "android": "https://dc.lft.to/lastmile_qr_scan"}, "lon": -76.9489325, "bike_id": "b9c46119403f54e9875f5a06f17523af", "type": "electric_bike", "name": "b9c46119403f54e9875f5a06f17523af"}, {"is_disabled": 0, "is_reserved": 0, "fusion_lat": 0.0, "lat": 38.927017666666664, "fusion_lon": 0.0, "rental_uris": {"ios": "https://dc.lft.to/lastmile_qr_scan", "android": "https://dc.lft.to/lastmile_qr_scan"}, "lon": -77.03823666666666, "bike_id": "e2c11cc46606d656adc26cae2bb1be6d", "type": "electric_scooter", "name": "e2c11cc46606d656adc26cae2bb1be6d"}, {"is_disabled": 0, "is_reserved": 0, "fusion_lat": 0.0, "lat": 38.842322, "fusion_lon": 0.0, "rental_uris": {"ios": "https://dc.lft.to/lastmile_qr_scan", "android": "https://dc.lft.to/lastmile_qr_scan"}, "lon": -77.00169783333334, "bike_id": "5f0c1872f35204470c2284ae0536298d", "type": "electric_scooter", "name": "5f0c1872f35204470c2284ae0536298d"}, {"is_disabled": 0, "is_reserved": 0, "fusion_lat": 0.0, "lat": 38.92330916666667, "fusion_lon": 0.0, "rental_uris": {"ios": "https://dc.lft.to/lastmile_qr_scan", "android": "https://dc.lft.to/lastmile_qr_scan"}, "lon": -77.05679816666667, "bike_id": "cc911d16636f4cf03e051b5a2575e99a", "type": "electric_scooter", "name": "cc911d16636f4cf03e051b5a2575e99a"}, {"is_disabled": 0, "is_reserved": 0, "fusion_lat": 0.0, "lat": 38.89988533333333, "fusion_lon": 0.0, "rental_uris": {"ios": "https://dc.lft.to/lastmile_qr_scan", "android": "https://dc.lft.to/lastmile_qr_scan"}, "lon": -77.02253666666667, "bike_id": "a2e2d379363d77b14a76d5a1ec963056", "type": "electric_scooter", "name": "a2e2d379363d77b14a76d5a1ec963056"}, {"is_disabled": 0, "is_reserved": 0, "fusion_lat": 0.0, "lat": 38.92319583333333, "fusion_lon": 0.0, "rental_uris": {"ios": "https://dc.lft.to/lastmile_qr_scan", "android": "https://dc.lft.to/lastmile_qr_scan"}, "lon": -77.02083333333333, "bike_id": "46c20795b5da643199fb9940aaaf5dc6", "type": "electric_scooter", "name": "46c20795b5da643199fb9940aaaf5dc6"}, {"is_disabled": 0, "is_reserved": 0, "fusion_lat": 0.0, "lat": 38.9309175, "fusion_lon": 0.0, "rental_uris": {"ios": "https://dc.lft.to/lastmile_qr_scan", "android": "https://dc.lft.to/lastmile_qr_scan"}, "lon": -77.02467516666667, "bike_id": "1c5be4835929101d026de6041e979a71", "type": "electric_scooter", "name": "1c5be4835929101d026de6041e979a71"}, {"is_disabled": 0, "is_reserved": 0, "fusion_lat": 0.0, "lat": 38.957411, "fusion_lon": 0.0, "rental_uris": {"ios": "https://dc.lft.to/lastmile_qr_scan", "android": "https://dc.lft.to/lastmile_qr_scan"}, "lon": -77.0206735, "bike_id": "4046a806754d62c3fe9e060ced104e71", "type": "electric_scooter", "name": "4046a806754d62c3fe9e060ced104e71"}, {"is_disabled": 0, "is_reserved": 0, "fusion_lat": 0.0, "lat": 38.907166833333335, "fusion_lon": 0.0, "rental_uris": {"ios": "https://dc.lft.to/lastmile_qr_scan", "android": "https://dc.lft.to/lastmile_qr_scan"}, "lon": -77.053079, "bike_id": "34f8d29b6d8262bb8877966b1a91315a", "type": "electric_scooter", "name": "34f8d29b6d8262bb8877966b1a91315a"}, {"is_disabled": 0, "is_reserved": 0, "fusion_lat": 0.0, "lat": 38.884791666666665, "fusion_lon": 0.0, "rental_uris": {"ios": "https://dc.lft.to/lastmile_qr_scan", "android": "https://dc.lft.to/lastmile_qr_scan"}, "lon": -77.03356266666667, "bike_id": "82fe28682a6bd4c26eb4d4fec2594b35", "type": "electric_scooter", "name": "82fe28682a6bd4c26eb4d4fec2594b35"}, {"is_disabled": 0, "is_reserved": 0, "fusion_lat": 0.0, "lat": 38.93126316666667, "fusion_lon": 0.0, "rental_uris": {"ios": "https://dc.lft.to/lastmile_qr_scan", "android": "https://dc.lft.to/lastmile_qr_scan"}, "lon": -77.02811233333334, "bike_id": "29d7c3e1cf13a082702bf9b97e220a8d", "type": "electric_scooter", "name": "29d7c3e1cf13a082702bf9b97e220a8d"}, {"is_disabled": 0, "is_reserved": 0, "fusion_lat": 0.0, "lat": 38.89728066666667, "fusion_lon": 0.0, "rental_uris": {"ios": "https://dc.lft.to/lastmile_qr_scan", "android": "https://dc.lft.to/lastmile_qr_scan"}, "lon": -77.02139483333333, "bike_id": "7536b5738d5d1d7a2c3e27981e159e13", "type": "electric_scooter", "name": "7536b5738d5d1d7a2c3e27981e159e13"}, {"is_disabled": 0, "is_reserved": 0, "fusion_lat": 0.0, "lat": 38.916916, "fusion_lon": 0.0, "rental_uris": {"ios": "https://dc.lft.to/lastmile_qr_scan", "android": "https://dc.lft.to/lastmile_qr_scan"}, "lon": -77.02515933333333, "bike_id": "a7f63707399b0704260d6513041371c9", "type": "electric_scooter", "name": "a7f63707399b0704260d6513041371c9"}, {"is_disabled": 0, "is_reserved": 0, "fusion_lat": 0.0, "lat": 38.93313966666667, "fusion_lon": 0.0, "rental_uris": {"ios": "https://dc.lft.to/lastmile_qr_scan", "android": "https://dc.lft.to/lastmile_qr_scan"}, "lon": -77.03194266666667, "bike_id": "935e8da20c0b8cff09d3815ed3d78e96", "type": "electric_scooter", "name": "935e8da20c0b8cff09d3815ed3d78e96"}, {"is_disabled": 0, "is_reserved": 0, "fusion_lat": 0.0, "lat": 38.93069233333333, "fusion_lon": 0.0, "rental_uris": {"ios": "https://dc.lft.to/lastmile_qr_scan", "android": "https://dc.lft.to/lastmile_qr_scan"}, "lon": -77.03201983333334, "bike_id": "54e81932a808381b20ab62199e373851", "type": "electric_scooter", "name": "54e81932a808381b20ab62199e373851"}, {"is_disabled": 0, "is_reserved": 0, "fusion_lat": 0.0, "lat": 38.893480833333335, "fusion_lon": 0.0, "rental_uris": {"ios": "https://dc.lft.to/lastmile_qr_scan", "android": "https://dc.lft.to/lastmile_qr_scan"}, "lon": -76.99217416666667, "bike_id": "b4012a63d3156e035c0562e64bda9894", "type": "electric_scooter", "name": "b4012a63d3156e035c0562e64bda9894"}, {"is_disabled": 0, "is_reserved": 0, "fusion_lat": 0.0, "lat": 38.912017666666664, "fusion_lon": 0.0, "rental_uris": {"ios": "https://dc.lft.to/lastmile_qr_scan", "android": "https://dc.lft.to/lastmile_qr_scan"}, "lon": -77.02103066666666, "bike_id": "b07d41d52a88d3d3014da11cff7bd918", "type": "electric_scooter", "name": "b07d41d52a88d3d3014da11cff7bd918"}, {"is_disabled": 0, "is_reserved": 0, "fusion_lat": 0.0, "lat": 38.933551, "fusion_lon": 0.0, "rental_uris": {"ios": "https://dc.lft.to/lastmile_qr_scan", "android": "https://dc.lft.to/lastmile_qr_scan"}, "lon": -77.0728745, "bike_id": "b9e6fb70a56d63bc9c4ffb2a5ca56321", "type": "electric_scooter", "name": "b9e6fb70a56d63bc9c4ffb2a5ca56321"}, {"is_disabled": 0, "is_reserved": 0, "fusion_lat": 0.0, "lat": 38.917537833333334, "fusion_lon": 0.0, "rental_uris": {"ios": "https://dc.lft.to/lastmile_qr_scan", "android": "https://dc.lft.to/lastmile_qr_scan"}, "lon": -77.00447816666667, "bike_id": "d8fcadfe682004e4ce6f8679a1132ab9", "type": "electric_scooter", "name": "d8fcadfe682004e4ce6f8679a1132ab9"}, {"is_disabled": 0, "is_reserved": 0, "fusion_lat": 0.0, "lat": 38.91100516666667, "fusion_lon": 0.0, "rental_uris": {"ios": "https://dc.lft.to/lastmile_qr_scan", "android": "https://dc.lft.to/lastmile_qr_scan"}, "lon": -77.0188175, "bike_id": "3789224ae31240f8a970e8d8c7a073bb", "type": "electric_scooter", "name": "3789224ae31240f8a970e8d8c7a073bb"}, {"is_disabled": 0, "is_reserved": 0, "fusion_lat": 0.0, "lat": 38.8919175, "fusion_lon": 0.0, "rental_uris": {"ios": "https://dc.lft.to/lastmile_qr_scan", "android": "https://dc.lft.to/lastmile_qr_scan"}, "lon": -77.024753, "bike_id": "cb0ee7515d851b992499caccb0fad6b0", "type": "electric_scooter", "name": "cb0ee7515d851b992499caccb0fad6b0"}, {"is_disabled": 0, "is_reserved": 0, "fusion_lat": 0.0, "lat": 38.9216265, "fusion_lon": 0.0, "rental_uris": {"ios": "https://dc.lft.to/lastmile_qr_scan", "android": "https://dc.lft.to/lastmile_qr_scan"}, "lon": -77.03671083333333, "bike_id": "532f30dd8f932d94cbdb14dfe89d3907", "type": "electric_scooter", "name": "532f30dd8f932d94cbdb14dfe89d3907"}, {"is_disabled": 0, "is_reserved": 0, "fusion_lat": 0.0, "lat": 38.892573666666664, "fusion_lon": 0.0, "rental_uris": {"ios": "https://dc.lft.to/lastmile_qr_scan", "android": "https://dc.lft.to/lastmile_qr_scan"}, "lon": -77.0502935, "bike_id": "314e35704e913fcde15bea8dcd81d277", "type": "electric_scooter", "name": "314e35704e913fcde15bea8dcd81d277"}, {"is_disabled": 0, "is_reserved": 0, "fusion_lat": 0.0, "lat": 38.868858333333336, "fusion_lon": 0.0, "rental_uris": {"ios": "https://dc.lft.to/lastmile_qr_scan", "android": "https://dc.lft.to/lastmile_qr_scan"}, "lon": -76.99003833333333, "bike_id": "530e1ee0ed42e8e48adef3df074cdfa5", "type": "electric_scooter", "name": "530e1ee0ed42e8e48adef3df074cdfa5"}, {"is_disabled": 0, "is_reserved": 0, "fusion_lat": 0.0, "lat": 38.89598566666667, "fusion_lon": 0.0, "rental_uris": {"ios": "https://dc.lft.to/lastmile_qr_scan", "android": "https://dc.lft.to/lastmile_qr_scan"}, "lon": -76.98322333333333, "bike_id": "85003105d7e01335be1e0d8b068684b0", "type": "electric_scooter", "name": "85003105d7e01335be1e0d8b068684b0"}, {"is_disabled": 0, "is_reserved": 0, "fusion_lat": 0.0, "lat": 38.9184175, "fusion_lon": 0.0, "rental_uris": {"ios": "https://dc.lft.to/lastmile_qr_scan", "android": "https://dc.lft.to/lastmile_qr_scan"}, "lon": -77.03216466666667, "bike_id": "6066cb058618207e1637dc3e55941b6c", "type": "electric_scooter", "name": "6066cb058618207e1637dc3e55941b6c"}, {"is_disabled": 0, "is_reserved": 0, "fusion_lat": 0.0, "lat": 38.86979383333333, "fusion_lon": 0.0, "rental_uris": {"ios": "https://dc.lft.to/lastmile_qr_scan", "android": "https://dc.lft.to/lastmile_qr_scan"}, "lon": -77.0137585, "bike_id": "fbbcfb3939080cedc150ec420eb9d8d9", "type": "electric_scooter", "name": "fbbcfb3939080cedc150ec420eb9d8d9"}, {"is_disabled": 0, "is_reserved": 0, "fusion_lat": 0.0, "lat": 38.9157135, "fusion_lon": 0.0, "rental_uris": {"ios": "https://dc.lft.to/lastmile_qr_scan", "android": "https://dc.lft.to/lastmile_qr_scan"}, "lon": -77.0503765, "bike_id": "dd40defaf588e4763a06d0ad16cad6f8", "type": "electric_scooter", "name": "dd40defaf588e4763a06d0ad16cad6f8"}, {"is_disabled": 0, "is_reserved": 0, "fusion_lat": 0.0, "lat": 38.912586, "fusion_lon": 0.0, "rental_uris": {"ios": "https://dc.lft.to/lastmile_qr_scan", "android": "https://dc.lft.to/lastmile_qr_scan"}, "lon": -77.033056, "bike_id": "77b92a29b40a2ad27dec7add9cc869e7", "type": "electric_scooter", "name": "77b92a29b40a2ad27dec7add9cc869e7"}, {"is_disabled": 0, "is_reserved": 0, "fusion_lat": 0.0, "lat": 38.89501833333333, "fusion_lon": 0.0, "rental_uris": {"ios": "https://dc.lft.to/lastmile_qr_scan", "android": "https://dc.lft.to/lastmile_qr_scan"}, "lon": -77.0417445, "bike_id": "eb0cebd9f6be27b6dba51ac6d7ee501e", "type": "electric_scooter", "name": "eb0cebd9f6be27b6dba51ac6d7ee501e"}, {"is_disabled": 0, "is_reserved": 0, "fusion_lat": 0.0, "lat": 38.94977733333333, "fusion_lon": 0.0, "rental_uris": {"ios": "https://dc.lft.to/lastmile_qr_scan", "android": "https://dc.lft.to/lastmile_qr_scan"}, "lon": -77.024508, "bike_id": "b54553cfc01adf3461c244e680d4f96e", "type": "electric_scooter", "name": "b54553cfc01adf3461c244e680d4f96e"}, {"is_disabled": 0, "is_reserved": 0, "fusion_lat": 0.0, "lat": 38.941882, "fusion_lon": 0.0, "rental_uris": {"ios": "https://dc.lft.to/lastmile_qr_scan", "android": "https://dc.lft.to/lastmile_qr_scan"}, "lon": -77.0231575, "bike_id": "b2a62aab112bb16f3cf15811d42dfa71", "type": "electric_bike", "name": "b2a62aab112bb16f3cf15811d42dfa71"}, {"is_disabled": 0, "is_reserved": 0, "fusion_lat": 0.0, "lat": 38.89416666666666, "fusion_lon": 0.0, "rental_uris": {"ios": "https://dc.lft.to/lastmile_qr_scan", "android": "https://dc.lft.to/lastmile_qr_scan"}, "lon": -77.0214, "bike_id": "9d23831880dedba4a80f4b394497a666", "type": "electric_scooter", "name": "9d23831880dedba4a80f4b394497a666"}, {"is_disabled": 0, "is_reserved": 0, "fusion_lat": 0.0, "lat": 38.93372133333333, "fusion_lon": 0.0, "rental_uris": {"ios": "https://dc.lft.to/lastmile_qr_scan", "android": "https://dc.lft.to/lastmile_qr_scan"}, "lon": -77.02726533333333, "bike_id": "81bbece63b12954fcdc8d2683932916d", "type": "electric_scooter", "name": "81bbece63b12954fcdc8d2683932916d"}, {"is_disabled": 0, "is_reserved": 0, "fusion_lat": 0.0, "lat": 38.9352205, "fusion_lon": 0.0, "rental_uris": {"ios": "https://dc.lft.to/lastmile_qr_scan", "android": "https://dc.lft.to/lastmile_qr_scan"}, "lon": -77.03819766666666, "bike_id": "4f9bf0514a73376ad3a87ad5acf00ba2", "type": "electric_scooter", "name": "4f9bf0514a73376ad3a87ad5acf00ba2"}, {"is_disabled": 0, "is_reserved": 0, "fusion_lat": 0.0, "lat": 38.927595, "fusion_lon": 0.0, "rental_uris": {"ios": "https://dc.lft.to/lastmile_qr_scan", "android": "https://dc.lft.to/lastmile_qr_scan"}, "lon": -77.0278455, "bike_id": "a8c4a0e27b9d3d5938580b458de012d2", "type": "electric_scooter", "name": "a8c4a0e27b9d3d5938580b458de012d2"}, {"is_disabled": 0, "is_reserved": 0, "fusion_lat": 0.0, "lat": 38.961693333333336, "fusion_lon": 0.0, "rental_uris": {"ios": "https://dc.lft.to/lastmile_qr_scan", "android": "https://dc.lft.to/lastmile_qr_scan"}, "lon": -77.03228666666666, "bike_id": "8a4bc16cae113622d5a36e725336ba11", "type": "electric_scooter", "name": "8a4bc16cae113622d5a36e725336ba11"}, {"is_disabled": 0, "is_reserved": 0, "fusion_lat": 0.0, "lat": 38.971084833333336, "fusion_lon": 0.0, "rental_uris": {"ios": "https://dc.lft.to/lastmile_qr_scan", "android": "https://dc.lft.to/lastmile_qr_scan"}, "lon": -77.03191716666667, "bike_id": "2287063e28f0859d09ee57e6e9e11a7c", "type": "electric_bike", "name": "2287063e28f0859d09ee57e6e9e11a7c"}, {"is_disabled": 0, "is_reserved": 0, "fusion_lat": 0.0, "lat": 38.94363216666667, "fusion_lon": 0.0, "rental_uris": {"ios": "https://dc.lft.to/lastmile_qr_scan", "android": "https://dc.lft.to/lastmile_qr_scan"}, "lon": -77.06131, "bike_id": "726299067aed2e23365c9b37f9f3e6ab", "type": "electric_scooter", "name": "726299067aed2e23365c9b37f9f3e6ab"}, {"is_disabled": 0, "is_reserved": 0, "fusion_lat": 0.0, "lat": 38.93736883333333, "fusion_lon": 0.0, "rental_uris": {"ios": "https://dc.lft.to/lastmile_qr_scan", "android": "https://dc.lft.to/lastmile_qr_scan"}, "lon": -77.03582083333333, "bike_id": "062ac66a05afc77dbc682e48998fee9e", "type": "electric_scooter", "name": "062ac66a05afc77dbc682e48998fee9e"}, {"is_disabled": 0, "is_reserved": 0, "fusion_lat": 0.0, "lat": 38.886562, "fusion_lon": 0.0, "rental_uris": {"ios": "https://dc.lft.to/lastmile_qr_scan", "android": "https://dc.lft.to/lastmile_qr_scan"}, "lon": -77.03386716666667, "bike_id": "ea3c233d77598b101d9d1fd00be86cc2", "type": "electric_scooter", "name": "ea3c233d77598b101d9d1fd00be86cc2"}, {"is_disabled": 0, "is_reserved": 0, "fusion_lat": 0.0, "lat": 38.936981333333335, "fusion_lon": 0.0, "rental_uris": {"ios": "https://dc.lft.to/lastmile_qr_scan", "android": "https://dc.lft.to/lastmile_qr_scan"}, "lon": -77.05684483333333, "bike_id": "1412c363a3804fa40384cd034fa841ee", "type": "electric_scooter", "name": "1412c363a3804fa40384cd034fa841ee"}, {"is_disabled": 0, "is_reserved": 0, "fusion_lat": 0.0, "lat": 38.9061315, "fusion_lon": 0.0, "rental_uris": {"ios": "https://dc.lft.to/lastmile_qr_scan", "android": "https://dc.lft.to/lastmile_qr_scan"}, "lon": -77.041515, "bike_id": "06b7484f23613a8ac71dcc8d93c7151a", "type": "electric_scooter", "name": "06b7484f23613a8ac71dcc8d93c7151a"}, {"is_disabled": 0, "is_reserved": 0, "fusion_lat": 0.0, "lat": 38.890187, "fusion_lon": 0.0, "rental_uris": {"ios": "https://dc.lft.to/lastmile_qr_scan", "android": "https://dc.lft.to/lastmile_qr_scan"}, "lon": -76.93732533333333, "bike_id": "801f0294c8220a8e2a33a44a17d694f4", "type": "electric_scooter", "name": "801f0294c8220a8e2a33a44a17d694f4"}, {"is_disabled": 0, "is_reserved": 0, "fusion_lat": 0.0, "lat": 38.93549266666667, "fusion_lon": 0.0, "rental_uris": {"ios": "https://dc.lft.to/lastmile_qr_scan", "android": "https://dc.lft.to/lastmile_qr_scan"}, "lon": -77.07708033333333, "bike_id": "cdb84fb8b91c72417a39e410a19b33c6", "type": "electric_scooter", "name": "cdb84fb8b91c72417a39e410a19b33c6"}, {"is_disabled": 0, "is_reserved": 0, "fusion_lat": 0.0, "lat": 38.89234366666667, "fusion_lon": 0.0, "rental_uris": {"ios": "https://dc.lft.to/lastmile_qr_scan", "android": "https://dc.lft.to/lastmile_qr_scan"}, "lon": -77.0319115, "bike_id": "97c1940f3e6d36e9370e7b6a0518b595", "type": "electric_scooter", "name": "97c1940f3e6d36e9370e7b6a0518b595"}, {"is_disabled": 0, "is_reserved": 0, "fusion_lat": 0.0, "lat": 38.891795, "fusion_lon": 0.0, "rental_uris": {"ios": "https://dc.lft.to/lastmile_qr_scan", "android": "https://dc.lft.to/lastmile_qr_scan"}, "lon": -77.03178566666666, "bike_id": "6916a442b702c7f447e7d3bff9df1d13", "type": "electric_scooter", "name": "6916a442b702c7f447e7d3bff9df1d13"}, {"is_disabled": 0, "is_reserved": 0, "fusion_lat": 0.0, "lat": 38.870402166666665, "fusion_lon": 0.0, "rental_uris": {"ios": "https://dc.lft.to/lastmile_qr_scan", "android": "https://dc.lft.to/lastmile_qr_scan"}, "lon": -77.0100805, "bike_id": "ab6b2fa678e6b603785a42ea97209503", "type": "electric_scooter", "name": "ab6b2fa678e6b603785a42ea97209503"}, {"is_disabled": 0, "is_reserved": 0, "fusion_lat": 0.0, "lat": 38.92447816666667, "fusion_lon": 0.0, "rental_uris": {"ios": "https://dc.lft.to/lastmile_qr_scan", "android": "https://dc.lft.to/lastmile_qr_scan"}, "lon": -77.04402583333334, "bike_id": "6504f8b04e570a18b527e5d3c98532ae", "type": "electric_scooter", "name": "6504f8b04e570a18b527e5d3c98532ae"}, {"is_disabled": 0, "is_reserved": 0, "fusion_lat": 0.0, "lat": 38.9170335, "fusion_lon": 0.0, "rental_uris": {"ios": "https://dc.lft.to/lastmile_qr_scan", "android": "https://dc.lft.to/lastmile_qr_scan"}, "lon": -77.04173366666667, "bike_id": "92706730523e0bf0f30bedf651aa964e", "type": "electric_scooter", "name": "92706730523e0bf0f30bedf651aa964e"}, {"is_disabled": 0, "is_reserved": 0, "fusion_lat": 0.0, "lat": 38.938522, "fusion_lon": 0.0, "rental_uris": {"ios": "https://dc.lft.to/lastmile_qr_scan", "android": "https://dc.lft.to/lastmile_qr_scan"}, "lon": -76.99433683333334, "bike_id": "6b82989e3e0d4d3ee65d3c7bade9bfac", "type": "electric_scooter", "name": "6b82989e3e0d4d3ee65d3c7bade9bfac"}, {"is_disabled": 0, "is_reserved": 0, "fusion_lat": 0.0, "lat": 38.8986375, "fusion_lon": 0.0, "rental_uris": {"ios": "https://dc.lft.to/lastmile_qr_scan", "android": "https://dc.lft.to/lastmile_qr_scan"}, "lon": -76.946678, "bike_id": "556a29b71bcabf4081d1ec66484a4f40", "type": "electric_scooter", "name": "556a29b71bcabf4081d1ec66484a4f40"}, {"is_disabled": 0, "is_reserved": 0, "fusion_lat": 0.0, "lat": 38.857194, "fusion_lon": 0.0, "rental_uris": {"ios": "https://dc.lft.to/lastmile_qr_scan", "android": "https://dc.lft.to/lastmile_qr_scan"}, "lon": -76.98091066666667, "bike_id": "caaffc058846782111ccf6b278c88dfa", "type": "electric_scooter", "name": "caaffc058846782111ccf6b278c88dfa"}, {"is_disabled": 0, "is_reserved": 0, "fusion_lat": 0.0, "lat": 38.89612066666667, "fusion_lon": 0.0, "rental_uris": {"ios": "https://dc.lft.to/lastmile_qr_scan", "android": "https://dc.lft.to/lastmile_qr_scan"}, "lon": -77.00605366666667, "bike_id": "0029a429bdfb96171580228f6b7d9cf1", "type": "electric_scooter", "name": "0029a429bdfb96171580228f6b7d9cf1"}, {"is_disabled": 0, "is_reserved": 0, "fusion_lat": 0.0, "lat": 38.896747500000004, "fusion_lon": 0.0, "rental_uris": {"ios": "https://dc.lft.to/lastmile_qr_scan", "android": "https://dc.lft.to/lastmile_qr_scan"}, "lon": -77.05464566666667, "bike_id": "aaa47afa70138e20b9fafdc174a89f93", "type": "electric_scooter", "name": "aaa47afa70138e20b9fafdc174a89f93"}, {"is_disabled": 0, "is_reserved": 0, "fusion_lat": 0.0, "lat": 38.949197833333336, "fusion_lon": 0.0, "rental_uris": {"ios": "https://dc.lft.to/lastmile_qr_scan", "android": "https://dc.lft.to/lastmile_qr_scan"}, "lon": -77.02309283333334, "bike_id": "0b606ed2e37a7496846ea575e54d35da", "type": "electric_scooter", "name": "0b606ed2e37a7496846ea575e54d35da"}, {"is_disabled": 0, "is_reserved": 0, "fusion_lat": 0.0, "lat": 38.884787833333334, "fusion_lon": 0.0, "rental_uris": {"ios": "https://dc.lft.to/lastmile_qr_scan", "android": "https://dc.lft.to/lastmile_qr_scan"}, "lon": -77.0265495, "bike_id": "088b50bd081f33436bacad7152f8e98b", "type": "electric_scooter", "name": "088b50bd081f33436bacad7152f8e98b"}, {"is_disabled": 0, "is_reserved": 0, "fusion_lat": 0.0, "lat": 38.930655333333334, "fusion_lon": 0.0, "rental_uris": {"ios": "https://dc.lft.to/lastmile_qr_scan", "android": "https://dc.lft.to/lastmile_qr_scan"}, "lon": -77.02360466666667, "bike_id": "001fbdc1193e9d568886855ad99b5873", "type": "electric_scooter", "name": "001fbdc1193e9d568886855ad99b5873"}, {"is_disabled": 0, "is_reserved": 0, "fusion_lat": 0.0, "lat": 38.900876, "fusion_lon": 0.0, "rental_uris": {"ios": "https://dc.lft.to/lastmile_qr_scan", "android": "https://dc.lft.to/lastmile_qr_scan"}, "lon": -77.02218316666666, "bike_id": "0485a86eebbc1c174c6e77e59598b5ea", "type": "electric_scooter", "name": "0485a86eebbc1c174c6e77e59598b5ea"}, {"is_disabled": 0, "is_reserved": 0, "fusion_lat": 0.0, "lat": 38.834038666666665, "fusion_lon": 0.0, "rental_uris": {"ios": "https://dc.lft.to/lastmile_qr_scan", "android": "https://dc.lft.to/lastmile_qr_scan"}, "lon": -77.050447, "bike_id": "e9b14ce413ec66b745867787f3114540", "type": "electric_bike", "name": "e9b14ce413ec66b745867787f3114540"}, {"is_disabled": 0, "is_reserved": 0, "fusion_lat": 0.0, "lat": 38.91835666666667, "fusion_lon": 0.0, "rental_uris": {"ios": "https://dc.lft.to/lastmile_qr_scan", "android": "https://dc.lft.to/lastmile_qr_scan"}, "lon": -77.04174033333334, "bike_id": "175c533882af9fc2e44950bc5c236ede", "type": "electric_scooter", "name": "175c533882af9fc2e44950bc5c236ede"}, {"is_disabled": 0, "is_reserved": 0, "fusion_lat": 0.0, "lat": 38.924371, "fusion_lon": 0.0, "rental_uris": {"ios": "https://dc.lft.to/lastmile_qr_scan", "android": "https://dc.lft.to/lastmile_qr_scan"}, "lon": -77.03404716666667, "bike_id": "c0349254cc3bf014bd78d04c166f7181", "type": "electric_scooter", "name": "c0349254cc3bf014bd78d04c166f7181"}, {"is_disabled": 0, "is_reserved": 0, "fusion_lat": 0.0, "lat": 38.89606466666667, "fusion_lon": 0.0, "rental_uris": {"ios": "https://dc.lft.to/lastmile_qr_scan", "android": "https://dc.lft.to/lastmile_qr_scan"}, "lon": -77.0454345, "bike_id": "1dd7bc25de892431f36f6664197c3461", "type": "electric_scooter", "name": "1dd7bc25de892431f36f6664197c3461"}, {"is_disabled": 0, "is_reserved": 0, "fusion_lat": 0.0, "lat": 38.897439166666665, "fusion_lon": 0.0, "rental_uris": {"ios": "https://dc.lft.to/lastmile_qr_scan", "android": "https://dc.lft.to/lastmile_qr_scan"}, "lon": -77.0213585, "bike_id": "c9eb98512c6abed7e4e0d5e85ef34cb6", "type": "electric_scooter", "name": "c9eb98512c6abed7e4e0d5e85ef34cb6"}, {"is_disabled": 0, "is_reserved": 0, "fusion_lat": 0.0, "lat": 38.949630166666665, "fusion_lon": 0.0, "rental_uris": {"ios": "https://dc.lft.to/lastmile_qr_scan", "android": "https://dc.lft.to/lastmile_qr_scan"}, "lon": -77.08083816666667, "bike_id": "6f4d52803bf74dcb4c119aeab8675a6a", "type": "electric_scooter", "name": "6f4d52803bf74dcb4c119aeab8675a6a"}, {"is_disabled": 0, "is_reserved": 0, "fusion_lat": 0.0, "lat": 38.88305616666667, "fusion_lon": 0.0, "rental_uris": {"ios": "https://dc.lft.to/lastmile_qr_scan", "android": "https://dc.lft.to/lastmile_qr_scan"}, "lon": -76.995358, "bike_id": "8a4af1e91471f68c0341d804a3d66bd2", "type": "electric_scooter", "name": "8a4af1e91471f68c0341d804a3d66bd2"}, {"is_disabled": 0, "is_reserved": 0, "fusion_lat": 0.0, "lat": 38.939173333333336, "fusion_lon": 0.0, "rental_uris": {"ios": "https://dc.lft.to/lastmile_qr_scan", "android": "https://dc.lft.to/lastmile_qr_scan"}, "lon": -77.0326545, "bike_id": "7227fccc20598e4ed5595e7692aab71a", "type": "electric_scooter", "name": "7227fccc20598e4ed5595e7692aab71a"}, {"is_disabled": 0, "is_reserved": 0, "fusion_lat": 0.0, "lat": 38.917804, "fusion_lon": 0.0, "rental_uris": {"ios": "https://dc.lft.to/lastmile_qr_scan", "android": "https://dc.lft.to/lastmile_qr_scan"}, "lon": -77.02494633333333, "bike_id": "e34385bed9e8c728ab312ecfffbd6e9d", "type": "electric_scooter", "name": "e34385bed9e8c728ab312ecfffbd6e9d"}, {"is_disabled": 0, "is_reserved": 0, "fusion_lat": 0.0, "lat": 38.88712983333333, "fusion_lon": 0.0, "rental_uris": {"ios": "https://dc.lft.to/lastmile_qr_scan", "android": "https://dc.lft.to/lastmile_qr_scan"}, "lon": -76.99625033333334, "bike_id": "a35c72497a8024d2e8d8811e16da7830", "type": "electric_scooter", "name": "a35c72497a8024d2e8d8811e16da7830"}, {"is_disabled": 0, "is_reserved": 0, "fusion_lat": 0.0, "lat": 38.8905155, "fusion_lon": 0.0, "rental_uris": {"ios": "https://dc.lft.to/lastmile_qr_scan", "android": "https://dc.lft.to/lastmile_qr_scan"}, "lon": -77.01973133333334, "bike_id": "c71439318356668958ac8a7d7ca38f99", "type": "electric_scooter", "name": "c71439318356668958ac8a7d7ca38f99"}, {"is_disabled": 0, "is_reserved": 0, "fusion_lat": 0.0, "lat": 38.923822333333334, "fusion_lon": 0.0, "rental_uris": {"ios": "https://dc.lft.to/lastmile_qr_scan", "android": "https://dc.lft.to/lastmile_qr_scan"}, "lon": -77.04318616666667, "bike_id": "8505ae1db9f3ff9b06279bddf8f79194", "type": "electric_scooter", "name": "8505ae1db9f3ff9b06279bddf8f79194"}, {"is_disabled": 0, "is_reserved": 0, "fusion_lat": 0.0, "lat": 38.8928995, "fusion_lon": 0.0, "rental_uris": {"ios": "https://dc.lft.to/lastmile_qr_scan", "android": "https://dc.lft.to/lastmile_qr_scan"}, "lon": -77.05000033333333, "bike_id": "286c1520ba32291d3ed486bbfc4ab679", "type": "electric_scooter", "name": "286c1520ba32291d3ed486bbfc4ab679"}, {"is_disabled": 0, "is_reserved": 0, "fusion_lat": 0.0, "lat": 38.92328416666667, "fusion_lon": 0.0, "rental_uris": {"ios": "https://dc.lft.to/lastmile_qr_scan", "android": "https://dc.lft.to/lastmile_qr_scan"}, "lon": -77.05609916666667, "bike_id": "f7724f8b738b995b5deb1a591e30bbe4", "type": "electric_scooter", "name": "f7724f8b738b995b5deb1a591e30bbe4"}, {"is_disabled": 0, "is_reserved": 0, "fusion_lat": 0.0, "lat": 38.868293666666666, "fusion_lon": 0.0, "rental_uris": {"ios": "https://dc.lft.to/lastmile_qr_scan", "android": "https://dc.lft.to/lastmile_qr_scan"}, "lon": -76.98011516666666, "bike_id": "1ae08aff7d6f3bf26a78bfdbf286d81b", "type": "electric_bike", "name": "1ae08aff7d6f3bf26a78bfdbf286d81b"}, {"is_disabled": 0, "is_reserved": 0, "fusion_lat": 0.0, "lat": 38.87910216666667, "fusion_lon": 0.0, "rental_uris": {"ios": "https://dc.lft.to/lastmile_qr_scan", "android": "https://dc.lft.to/lastmile_qr_scan"}, "lon": -77.00861633333334, "bike_id": "4c3232314b926502301d26f86a6db879", "type": "electric_scooter", "name": "4c3232314b926502301d26f86a6db879"}, {"is_disabled": 0, "is_reserved": 0, "fusion_lat": 0.0, "lat": 38.8706855, "fusion_lon": 0.0, "rental_uris": {"ios": "https://dc.lft.to/lastmile_qr_scan", "android": "https://dc.lft.to/lastmile_qr_scan"}, "lon": -77.11036033333333, "bike_id": "c6eb783d170526c07c883aab3656347b", "type": "electric_bike", "name": "c6eb783d170526c07c883aab3656347b"}, {"is_disabled": 0, "is_reserved": 0, "fusion_lat": 0.0, "lat": 38.8835875, "fusion_lon": 0.0, "rental_uris": {"ios": "https://dc.lft.to/lastmile_qr_scan", "android": "https://dc.lft.to/lastmile_qr_scan"}, "lon": -76.92789316666666, "bike_id": "e0d58a3b44900496bab975e719fb8e9e", "type": "electric_scooter", "name": "e0d58a3b44900496bab975e719fb8e9e"}, {"is_disabled": 0, "is_reserved": 0, "fusion_lat": 0.0, "lat": 38.9131405, "fusion_lon": 0.0, "rental_uris": {"ios": "https://dc.lft.to/lastmile_qr_scan", "android": "https://dc.lft.to/lastmile_qr_scan"}, "lon": -77.0327755, "bike_id": "71c3ed52d1b4845e6ace2d8a30f06656", "type": "electric_scooter", "name": "71c3ed52d1b4845e6ace2d8a30f06656"}, {"is_disabled": 0, "is_reserved": 0, "fusion_lat": 0.0, "lat": 38.90459216666667, "fusion_lon": 0.0, "rental_uris": {"ios": "https://dc.lft.to/lastmile_qr_scan", "android": "https://dc.lft.to/lastmile_qr_scan"}, "lon": -77.04886583333334, "bike_id": "7c25bf263a23e2501fa553b71d7cc107", "type": "electric_scooter", "name": "7c25bf263a23e2501fa553b71d7cc107"}, {"is_disabled": 0, "is_reserved": 0, "fusion_lat": 0.0, "lat": 38.91835316666667, "fusion_lon": 0.0, "rental_uris": {"ios": "https://dc.lft.to/lastmile_qr_scan", "android": "https://dc.lft.to/lastmile_qr_scan"}, "lon": -77.04169683333333, "bike_id": "16717fff072a8a196f4991acafb1da6b", "type": "electric_scooter", "name": "16717fff072a8a196f4991acafb1da6b"}, {"is_disabled": 0, "is_reserved": 0, "fusion_lat": 0.0, "lat": 38.92862933333333, "fusion_lon": 0.0, "rental_uris": {"ios": "https://dc.lft.to/lastmile_qr_scan", "android": "https://dc.lft.to/lastmile_qr_scan"}, "lon": -77.07891083333334, "bike_id": "b19b0f5c754742d766df9bbb0c66d868", "type": "electric_scooter", "name": "b19b0f5c754742d766df9bbb0c66d868"}, {"is_disabled": 0, "is_reserved": 0, "fusion_lat": 0.0, "lat": 38.91820633333333, "fusion_lon": 0.0, "rental_uris": {"ios": "https://dc.lft.to/lastmile_qr_scan", "android": "https://dc.lft.to/lastmile_qr_scan"}, "lon": -77.024219, "bike_id": "d03503cd34a6c95bc4d438c958dd4290", "type": "electric_scooter", "name": "d03503cd34a6c95bc4d438c958dd4290"}, {"is_disabled": 0, "is_reserved": 0, "fusion_lat": 0.0, "lat": 38.923307, "fusion_lon": 0.0, "rental_uris": {"ios": "https://dc.lft.to/lastmile_qr_scan", "android": "https://dc.lft.to/lastmile_qr_scan"}, "lon": -77.05678416666667, "bike_id": "4a034ecf23fece261f6b97fe87dd5998", "type": "electric_scooter", "name": "4a034ecf23fece261f6b97fe87dd5998"}, {"is_disabled": 0, "is_reserved": 0, "fusion_lat": 0.0, "lat": 38.90519416666667, "fusion_lon": 0.0, "rental_uris": {"ios": "https://dc.lft.to/lastmile_qr_scan", "android": "https://dc.lft.to/lastmile_qr_scan"}, "lon": -77.0502695, "bike_id": "81040359e118ba6e101ee636b27a8241", "type": "electric_bike", "name": "81040359e118ba6e101ee636b27a8241"}, {"is_disabled": 0, "is_reserved": 0, "fusion_lat": 0.0, "lat": 38.87656533333333, "fusion_lon": 0.0, "rental_uris": {"ios": "https://dc.lft.to/lastmile_qr_scan", "android": "https://dc.lft.to/lastmile_qr_scan"}, "lon": -77.00881333333334, "bike_id": "dd4863c51c939f7e3c2734f44363b641", "type": "electric_scooter", "name": "dd4863c51c939f7e3c2734f44363b641"}, {"is_disabled": 0, "is_reserved": 0, "fusion_lat": 0.0, "lat": 38.9197715, "fusion_lon": 0.0, "rental_uris": {"ios": "https://dc.lft.to/lastmile_qr_scan", "android": "https://dc.lft.to/lastmile_qr_scan"}, "lon": -77.02518033333334, "bike_id": "7f8abaef3491f320af821e44d312a2b9", "type": "electric_scooter", "name": "7f8abaef3491f320af821e44d312a2b9"}, {"is_disabled": 0, "is_reserved": 0, "fusion_lat": 0.0, "lat": 38.907235166666666, "fusion_lon": 0.0, "rental_uris": {"ios": "https://dc.lft.to/lastmile_qr_scan", "android": "https://dc.lft.to/lastmile_qr_scan"}, "lon": -77.07153066666666, "bike_id": "17a196913c89e7f15c7fb59584d9a1e2", "type": "electric_scooter", "name": "17a196913c89e7f15c7fb59584d9a1e2"}, {"is_disabled": 0, "is_reserved": 0, "fusion_lat": 0.0, "lat": 38.899587, "fusion_lon": 0.0, "rental_uris": {"ios": "https://dc.lft.to/lastmile_qr_scan", "android": "https://dc.lft.to/lastmile_qr_scan"}, "lon": -77.02153433333334, "bike_id": "0d40bd52464d4383d3ae7758f7ba5d2d", "type": "electric_scooter", "name": "0d40bd52464d4383d3ae7758f7ba5d2d"}, {"is_disabled": 0, "is_reserved": 0, "fusion_lat": 0.0, "lat": 38.89610016666666, "fusion_lon": 0.0, "rental_uris": {"ios": "https://dc.lft.to/lastmile_qr_scan", "android": "https://dc.lft.to/lastmile_qr_scan"}, "lon": -76.9980435, "bike_id": "fee04e3431f5a256b40c596d5be80a8c", "type": "electric_scooter", "name": "fee04e3431f5a256b40c596d5be80a8c"}, {"is_disabled": 0, "is_reserved": 0, "fusion_lat": 0.0, "lat": 38.906778, "fusion_lon": 0.0, "rental_uris": {"ios": "https://dc.lft.to/lastmile_qr_scan", "android": "https://dc.lft.to/lastmile_qr_scan"}, "lon": -77.02497416666667, "bike_id": "b54a393aaa6c8b91bb4fc0aa7e6e0d72", "type": "electric_scooter", "name": "b54a393aaa6c8b91bb4fc0aa7e6e0d72"}, {"is_disabled": 0, "is_reserved": 0, "fusion_lat": 0.0, "lat": 38.91100083333333, "fusion_lon": 0.0, "rental_uris": {"ios": "https://dc.lft.to/lastmile_qr_scan", "android": "https://dc.lft.to/lastmile_qr_scan"}, "lon": -77.01158066666666, "bike_id": "5e9e422a412f84933e2ba99c14e0db22", "type": "electric_scooter", "name": "5e9e422a412f84933e2ba99c14e0db22"}, {"is_disabled": 0, "is_reserved": 0, "fusion_lat": 0.0, "lat": 38.91848483333333, "fusion_lon": 0.0, "rental_uris": {"ios": "https://dc.lft.to/lastmile_qr_scan", "android": "https://dc.lft.to/lastmile_qr_scan"}, "lon": -77.0322805, "bike_id": "5baedf1b004eda03946a228621e4388f", "type": "electric_scooter", "name": "5baedf1b004eda03946a228621e4388f"}, {"is_disabled": 0, "is_reserved": 0, "fusion_lat": 0.0, "lat": 38.90581816666667, "fusion_lon": 0.0, "rental_uris": {"ios": "https://dc.lft.to/lastmile_qr_scan", "android": "https://dc.lft.to/lastmile_qr_scan"}, "lon": -77.05161116666666, "bike_id": "1ace65f9d51f205f1bde0c37020e4878", "type": "electric_scooter", "name": "1ace65f9d51f205f1bde0c37020e4878"}, {"is_disabled": 0, "is_reserved": 0, "fusion_lat": 0.0, "lat": 38.92342416666666, "fusion_lon": 0.0, "rental_uris": {"ios": "https://dc.lft.to/lastmile_qr_scan", "android": "https://dc.lft.to/lastmile_qr_scan"}, "lon": -77.019031, "bike_id": "72048f2d27654dfb3b5c4e4802f6427a", "type": "electric_scooter", "name": "72048f2d27654dfb3b5c4e4802f6427a"}, {"is_disabled": 0, "is_reserved": 0, "fusion_lat": 0.0, "lat": 38.883583, "fusion_lon": 0.0, "rental_uris": {"ios": "https://dc.lft.to/lastmile_qr_scan", "android": "https://dc.lft.to/lastmile_qr_scan"}, "lon": -76.95768683333333, "bike_id": "a68e8e42a9709907cdcacb271d79608b", "type": "electric_scooter", "name": "a68e8e42a9709907cdcacb271d79608b"}, {"is_disabled": 0, "is_reserved": 0, "fusion_lat": 0.0, "lat": 38.919922166666666, "fusion_lon": 0.0, "rental_uris": {"ios": "https://dc.lft.to/lastmile_qr_scan", "android": "https://dc.lft.to/lastmile_qr_scan"}, "lon": -77.0474625, "bike_id": "46fc22f824586b14e4b17c1970433560", "type": "electric_scooter", "name": "46fc22f824586b14e4b17c1970433560"}, {"is_disabled": 0, "is_reserved": 0, "fusion_lat": 0.0, "lat": 38.9175045, "fusion_lon": 0.0, "rental_uris": {"ios": "https://dc.lft.to/lastmile_qr_scan", "android": "https://dc.lft.to/lastmile_qr_scan"}, "lon": -77.039069, "bike_id": "237a4bc1ccc33e3b50b7c42feba45ea8", "type": "electric_scooter", "name": "237a4bc1ccc33e3b50b7c42feba45ea8"}, {"is_disabled": 0, "is_reserved": 0, "fusion_lat": 0.0, "lat": 38.89229483333333, "fusion_lon": 0.0, "rental_uris": {"ios": "https://dc.lft.to/lastmile_qr_scan", "android": "https://dc.lft.to/lastmile_qr_scan"}, "lon": -77.05000866666667, "bike_id": "c6d013b103960029df8def939787329b", "type": "electric_scooter", "name": "c6d013b103960029df8def939787329b"}, {"is_disabled": 0, "is_reserved": 0, "fusion_lat": 0.0, "lat": 38.899892, "fusion_lon": 0.0, "rental_uris": {"ios": "https://dc.lft.to/lastmile_qr_scan", "android": "https://dc.lft.to/lastmile_qr_scan"}, "lon": -77.00663483333334, "bike_id": "785626a267ed23b5b619aa8590ba2a5e", "type": "electric_scooter", "name": "785626a267ed23b5b619aa8590ba2a5e"}, {"is_disabled": 0, "is_reserved": 0, "fusion_lat": 0.0, "lat": 38.9483955, "fusion_lon": 0.0, "rental_uris": {"ios": "https://dc.lft.to/lastmile_qr_scan", "android": "https://dc.lft.to/lastmile_qr_scan"}, "lon": -77.07979216666666, "bike_id": "6845cfd5de78e47ec3fccb3059d300b9", "type": "electric_scooter", "name": "6845cfd5de78e47ec3fccb3059d300b9"}, {"is_disabled": 0, "is_reserved": 0, "fusion_lat": 0.0, "lat": 38.942615333333336, "fusion_lon": 0.0, "rental_uris": {"ios": "https://dc.lft.to/lastmile_qr_scan", "android": "https://dc.lft.to/lastmile_qr_scan"}, "lon": -76.984553, "bike_id": "244c54c04247efa89935964e4a5be3c5", "type": "electric_scooter", "name": "244c54c04247efa89935964e4a5be3c5"}, {"is_disabled": 0, "is_reserved": 0, "fusion_lat": 0.0, "lat": 38.919481, "fusion_lon": 0.0, "rental_uris": {"ios": "https://dc.lft.to/lastmile_qr_scan", "android": "https://dc.lft.to/lastmile_qr_scan"}, "lon": -77.01395416666666, "bike_id": "871020be16603f11416d0528b247b2da", "type": "electric_scooter", "name": "871020be16603f11416d0528b247b2da"}, {"is_disabled": 0, "is_reserved": 0, "fusion_lat": 0.0, "lat": 38.9229695, "fusion_lon": 0.0, "rental_uris": {"ios": "https://dc.lft.to/lastmile_qr_scan", "android": "https://dc.lft.to/lastmile_qr_scan"}, "lon": -77.0414725, "bike_id": "a433f648754c1ac03a5ec219a243c672", "type": "electric_scooter", "name": "a433f648754c1ac03a5ec219a243c672"}, {"is_disabled": 0, "is_reserved": 0, "fusion_lat": 0.0, "lat": 38.92905416666667, "fusion_lon": 0.0, "rental_uris": {"ios": "https://dc.lft.to/lastmile_qr_scan", "android": "https://dc.lft.to/lastmile_qr_scan"}, "lon": -77.059855, "bike_id": "081f6a74cfe9cac4e93d7f032cb77350", "type": "electric_scooter", "name": "081f6a74cfe9cac4e93d7f032cb77350"}, {"is_disabled": 0, "is_reserved": 0, "fusion_lat": 0.0, "lat": 38.909229, "fusion_lon": 0.0, "rental_uris": {"ios": "https://dc.lft.to/lastmile_qr_scan", "android": "https://dc.lft.to/lastmile_qr_scan"}, "lon": -77.0230295, "bike_id": "b999a1580a2bf3d2dcea3eaa0340b8d5", "type": "electric_scooter", "name": "b999a1580a2bf3d2dcea3eaa0340b8d5"}, {"is_disabled": 0, "is_reserved": 0, "fusion_lat": 0.0, "lat": 38.919788833333335, "fusion_lon": 0.0, "rental_uris": {"ios": "https://dc.lft.to/lastmile_qr_scan", "android": "https://dc.lft.to/lastmile_qr_scan"}, "lon": -77.03328966666666, "bike_id": "3f5e90a99a24a4d73b0db431608057de", "type": "electric_scooter", "name": "3f5e90a99a24a4d73b0db431608057de"}, {"is_disabled": 0, "is_reserved": 0, "fusion_lat": 0.0, "lat": 38.92669183333334, "fusion_lon": 0.0, "rental_uris": {"ios": "https://dc.lft.to/lastmile_qr_scan", "android": "https://dc.lft.to/lastmile_qr_scan"}, "lon": -77.02277716666667, "bike_id": "0c1a9bb4a30651a05b992211557c7fef", "type": "electric_scooter", "name": "0c1a9bb4a30651a05b992211557c7fef"}, {"is_disabled": 0, "is_reserved": 0, "fusion_lat": 0.0, "lat": 38.91574716666667, "fusion_lon": 0.0, "rental_uris": {"ios": "https://dc.lft.to/lastmile_qr_scan", "android": "https://dc.lft.to/lastmile_qr_scan"}, "lon": -77.0215475, "bike_id": "0559f4cfc0f3db33926fff6ad016778a", "type": "electric_scooter", "name": "0559f4cfc0f3db33926fff6ad016778a"}, {"is_disabled": 0, "is_reserved": 0, "fusion_lat": 0.0, "lat": 38.891901, "fusion_lon": 0.0, "rental_uris": {"ios": "https://dc.lft.to/lastmile_qr_scan", "android": "https://dc.lft.to/lastmile_qr_scan"}, "lon": -77.02232466666666, "bike_id": "a6dffe2d7b65cb5436eb5822177c403a", "type": "electric_scooter", "name": "a6dffe2d7b65cb5436eb5822177c403a"}, {"is_disabled": 0, "is_reserved": 0, "fusion_lat": 0.0, "lat": 38.88396683333333, "fusion_lon": 0.0, "rental_uris": {"ios": "https://dc.lft.to/lastmile_qr_scan", "android": "https://dc.lft.to/lastmile_qr_scan"}, "lon": -77.02965366666666, "bike_id": "8378f7ccc759a387f3e5463a709af06e", "type": "electric_scooter", "name": "8378f7ccc759a387f3e5463a709af06e"}, {"is_disabled": 0, "is_reserved": 0, "fusion_lat": 0.0, "lat": 38.9191205, "fusion_lon": 0.0, "rental_uris": {"ios": "https://dc.lft.to/lastmile_qr_scan", "android": "https://dc.lft.to/lastmile_qr_scan"}, "lon": -77.02544616666667, "bike_id": "4a3980de3be97c86627668725ea07f54", "type": "electric_scooter", "name": "4a3980de3be97c86627668725ea07f54"}, {"is_disabled": 0, "is_reserved": 0, "fusion_lat": 0.0, "lat": 38.9346005, "fusion_lon": 0.0, "rental_uris": {"ios": "https://dc.lft.to/lastmile_qr_scan", "android": "https://dc.lft.to/lastmile_qr_scan"}, "lon": -77.0279575, "bike_id": "0621045af334c47967a0a5b10b7f139c", "type": "electric_scooter", "name": "0621045af334c47967a0a5b10b7f139c"}, {"is_disabled": 0, "is_reserved": 0, "fusion_lat": 0.0, "lat": 38.91202916666667, "fusion_lon": 0.0, "rental_uris": {"ios": "https://dc.lft.to/lastmile_qr_scan", "android": "https://dc.lft.to/lastmile_qr_scan"}, "lon": -76.9876835, "bike_id": "2945a781c70ec2309f607949f8d16796", "type": "electric_scooter", "name": "2945a781c70ec2309f607949f8d16796"}, {"is_disabled": 0, "is_reserved": 0, "fusion_lat": 0.0, "lat": 38.90912216666667, "fusion_lon": 0.0, "rental_uris": {"ios": "https://dc.lft.to/lastmile_qr_scan", "android": "https://dc.lft.to/lastmile_qr_scan"}, "lon": -77.02303316666666, "bike_id": "b825db0e743ed82821c637b6f2e69009", "type": "electric_scooter", "name": "b825db0e743ed82821c637b6f2e69009"}, {"is_disabled": 0, "is_reserved": 0, "fusion_lat": 0.0, "lat": 38.90120533333333, "fusion_lon": 0.0, "rental_uris": {"ios": "https://dc.lft.to/lastmile_qr_scan", "android": "https://dc.lft.to/lastmile_qr_scan"}, "lon": -77.01829383333333, "bike_id": "fa54d22b6a2826e7a66b182ba04f88c2", "type": "electric_scooter", "name": "fa54d22b6a2826e7a66b182ba04f88c2"}, {"is_disabled": 0, "is_reserved": 0, "fusion_lat": 0.0, "lat": 38.916134, "fusion_lon": 0.0, "rental_uris": {"ios": "https://dc.lft.to/lastmile_qr_scan", "android": "https://dc.lft.to/lastmile_qr_scan"}, "lon": -77.00296016666667, "bike_id": "7edc45ff75c433083eec788e6cdc5111", "type": "electric_bike", "name": "7edc45ff75c433083eec788e6cdc5111"}, {"is_disabled": 0, "is_reserved": 0, "fusion_lat": 0.0, "lat": 38.90523133333333, "fusion_lon": 0.0, "rental_uris": {"ios": "https://dc.lft.to/lastmile_qr_scan", "android": "https://dc.lft.to/lastmile_qr_scan"}, "lon": -77.06609233333333, "bike_id": "26177d3433748fdca255e2f2e0569551", "type": "electric_scooter", "name": "26177d3433748fdca255e2f2e0569551"}, {"is_disabled": 0, "is_reserved": 0, "fusion_lat": 0.0, "lat": 38.928851333333334, "fusion_lon": 0.0, "rental_uris": {"ios": "https://dc.lft.to/lastmile_qr_scan", "android": "https://dc.lft.to/lastmile_qr_scan"}, "lon": -77.014103, "bike_id": "a84503900e2bf588b9fa82455fd91425", "type": "electric_scooter", "name": "a84503900e2bf588b9fa82455fd91425"}, {"is_disabled": 0, "is_reserved": 0, "fusion_lat": 0.0, "lat": 38.914617666666665, "fusion_lon": 0.0, "rental_uris": {"ios": "https://dc.lft.to/lastmile_qr_scan", "android": "https://dc.lft.to/lastmile_qr_scan"}, "lon": -77.01427866666667, "bike_id": "53048343dbaa183f22bbb07c8054a5c2", "type": "electric_scooter", "name": "53048343dbaa183f22bbb07c8054a5c2"}, {"is_disabled": 0, "is_reserved": 0, "fusion_lat": 0.0, "lat": 38.8813325, "fusion_lon": 0.0, "rental_uris": {"ios": "https://dc.lft.to/lastmile_qr_scan", "android": "https://dc.lft.to/lastmile_qr_scan"}, "lon": -77.02273016666666, "bike_id": "d5bf727b6048a155a5558a0fb37795e5", "type": "electric_scooter", "name": "d5bf727b6048a155a5558a0fb37795e5"}, {"is_disabled": 0, "is_reserved": 0, "fusion_lat": 0.0, "lat": 38.88298283333334, "fusion_lon": 0.0, "rental_uris": {"ios": "https://dc.lft.to/lastmile_qr_scan", "android": "https://dc.lft.to/lastmile_qr_scan"}, "lon": -76.94854583333333, "bike_id": "703c3de7e71e587cddc9e919d33a3a45", "type": "electric_scooter", "name": "703c3de7e71e587cddc9e919d33a3a45"}, {"is_disabled": 0, "is_reserved": 0, "fusion_lat": 0.0, "lat": 38.91740133333333, "fusion_lon": 0.0, "rental_uris": {"ios": "https://dc.lft.to/lastmile_qr_scan", "android": "https://dc.lft.to/lastmile_qr_scan"}, "lon": -77.0239975, "bike_id": "f7eb03f6cd628ad87256da99a4fc580e", "type": "electric_scooter", "name": "f7eb03f6cd628ad87256da99a4fc580e"}, {"is_disabled": 0, "is_reserved": 0, "fusion_lat": 0.0, "lat": 38.93304783333333, "fusion_lon": 0.0, "rental_uris": {"ios": "https://dc.lft.to/lastmile_qr_scan", "android": "https://dc.lft.to/lastmile_qr_scan"}, "lon": -77.02182, "bike_id": "4ca6f959bbdf4b4b537c1c2c929d6771", "type": "electric_scooter", "name": "4ca6f959bbdf4b4b537c1c2c929d6771"}, {"is_disabled": 0, "is_reserved": 0, "fusion_lat": 0.0, "lat": 38.880590166666664, "fusion_lon": 0.0, "rental_uris": {"ios": "https://dc.lft.to/lastmile_qr_scan", "android": "https://dc.lft.to/lastmile_qr_scan"}, "lon": -77.02556583333333, "bike_id": "1d1947d2f009af92aab80fbd1893048d", "type": "electric_bike", "name": "1d1947d2f009af92aab80fbd1893048d"}, {"is_disabled": 0, "is_reserved": 0, "fusion_lat": 0.0, "lat": 38.93084783333333, "fusion_lon": 0.0, "rental_uris": {"ios": "https://dc.lft.to/lastmile_qr_scan", "android": "https://dc.lft.to/lastmile_qr_scan"}, "lon": -77.02807133333333, "bike_id": "5e22b9d9fe91758d09961d34d5a73429", "type": "electric_scooter", "name": "5e22b9d9fe91758d09961d34d5a73429"}, {"is_disabled": 0, "is_reserved": 0, "fusion_lat": 0.0, "lat": 38.90125066666667, "fusion_lon": 0.0, "rental_uris": {"ios": "https://dc.lft.to/lastmile_qr_scan", "android": "https://dc.lft.to/lastmile_qr_scan"}, "lon": -77.00283033333334, "bike_id": "6ee76ac139108347f79809c0b3a6230f", "type": "electric_scooter", "name": "6ee76ac139108347f79809c0b3a6230f"}, {"is_disabled": 0, "is_reserved": 0, "fusion_lat": 0.0, "lat": 38.85524, "fusion_lon": 0.0, "rental_uris": {"ios": "https://dc.lft.to/lastmile_qr_scan", "android": "https://dc.lft.to/lastmile_qr_scan"}, "lon": -76.99172166666666, "bike_id": "301ab40c5a23cb844c1d606757f9fa58", "type": "electric_scooter", "name": "301ab40c5a23cb844c1d606757f9fa58"}, {"is_disabled": 0, "is_reserved": 0, "fusion_lat": 0.0, "lat": 38.8980505, "fusion_lon": 0.0, "rental_uris": {"ios": "https://dc.lft.to/lastmile_qr_scan", "android": "https://dc.lft.to/lastmile_qr_scan"}, "lon": -77.029321, "bike_id": "a4c5c1408dcea84ff92aeb755c9d560a", "type": "electric_scooter", "name": "a4c5c1408dcea84ff92aeb755c9d560a"}, {"is_disabled": 0, "is_reserved": 0, "fusion_lat": 0.0, "lat": 38.904916666666665, "fusion_lon": 0.0, "rental_uris": {"ios": "https://dc.lft.to/lastmile_qr_scan", "android": "https://dc.lft.to/lastmile_qr_scan"}, "lon": -77.04852133333333, "bike_id": "55185cb092a637e5fb76345afbee2950", "type": "electric_scooter", "name": "55185cb092a637e5fb76345afbee2950"}, {"is_disabled": 0, "is_reserved": 0, "fusion_lat": 0.0, "lat": 38.91691733333333, "fusion_lon": 0.0, "rental_uris": {"ios": "https://dc.lft.to/lastmile_qr_scan", "android": "https://dc.lft.to/lastmile_qr_scan"}, "lon": -77.02711266666667, "bike_id": "1c3b5e191610d3b10aa466e1555567c1", "type": "electric_scooter", "name": "1c3b5e191610d3b10aa466e1555567c1"}, {"is_disabled": 0, "is_reserved": 0, "fusion_lat": 0.0, "lat": 38.910933, "fusion_lon": 0.0, "rental_uris": {"ios": "https://dc.lft.to/lastmile_qr_scan", "android": "https://dc.lft.to/lastmile_qr_scan"}, "lon": -77.03207016666667, "bike_id": "fa354d41d9f8a37d4d6bc0eb9a5a2c0f", "type": "electric_scooter", "name": "fa354d41d9f8a37d4d6bc0eb9a5a2c0f"}, {"is_disabled": 0, "is_reserved": 0, "fusion_lat": 0.0, "lat": 38.90860633333333, "fusion_lon": 0.0, "rental_uris": {"ios": "https://dc.lft.to/lastmile_qr_scan", "android": "https://dc.lft.to/lastmile_qr_scan"}, "lon": -77.04479483333333, "bike_id": "24c619795644ec6e5d235a4dfa5db294", "type": "electric_scooter", "name": "24c619795644ec6e5d235a4dfa5db294"}, {"is_disabled": 0, "is_reserved": 0, "fusion_lat": 0.0, "lat": 38.904668, "fusion_lon": 0.0, "rental_uris": {"ios": "https://dc.lft.to/lastmile_qr_scan", "android": "https://dc.lft.to/lastmile_qr_scan"}, "lon": -76.9507195, "bike_id": "c0576794247805d53e04e7b117f16c22", "type": "electric_scooter", "name": "c0576794247805d53e04e7b117f16c22"}, {"is_disabled": 0, "is_reserved": 0, "fusion_lat": 0.0, "lat": 38.892476, "fusion_lon": 0.0, "rental_uris": {"ios": "https://dc.lft.to/lastmile_qr_scan", "android": "https://dc.lft.to/lastmile_qr_scan"}, "lon": -77.046587, "bike_id": "27de0174859b6dca48df1c7ce8f98eab", "type": "electric_scooter", "name": "27de0174859b6dca48df1c7ce8f98eab"}, {"is_disabled": 0, "is_reserved": 0, "fusion_lat": 0.0, "lat": 38.933744, "fusion_lon": 0.0, "rental_uris": {"ios": "https://dc.lft.to/lastmile_qr_scan", "android": "https://dc.lft.to/lastmile_qr_scan"}, "lon": -77.02408566666666, "bike_id": "b09a30f74a1b52556507fc0492499d24", "type": "electric_scooter", "name": "b09a30f74a1b52556507fc0492499d24"}, {"is_disabled": 0, "is_reserved": 0, "fusion_lat": 0.0, "lat": 38.912654333333336, "fusion_lon": 0.0, "rental_uris": {"ios": "https://dc.lft.to/lastmile_qr_scan", "android": "https://dc.lft.to/lastmile_qr_scan"}, "lon": -77.04485266666667, "bike_id": "22b788dd0bc298f398bcb9ae7a959178", "type": "electric_scooter", "name": "22b788dd0bc298f398bcb9ae7a959178"}, {"is_disabled": 0, "is_reserved": 0, "fusion_lat": 0.0, "lat": 38.929853, "fusion_lon": 0.0, "rental_uris": {"ios": "https://dc.lft.to/lastmile_qr_scan", "android": "https://dc.lft.to/lastmile_qr_scan"}, "lon": -77.03471466666667, "bike_id": "c967abad8f175e639c6ba2f697194ef3", "type": "electric_scooter", "name": "c967abad8f175e639c6ba2f697194ef3"}, {"is_disabled": 0, "is_reserved": 0, "fusion_lat": 0.0, "lat": 38.91301, "fusion_lon": 0.0, "rental_uris": {"ios": "https://dc.lft.to/lastmile_qr_scan", "android": "https://dc.lft.to/lastmile_qr_scan"}, "lon": -77.01450766666666, "bike_id": "4f05584eb66320947f4a3f52dd626499", "type": "electric_scooter", "name": "4f05584eb66320947f4a3f52dd626499"}, {"is_disabled": 0, "is_reserved": 0, "fusion_lat": 0.0, "lat": 38.9179505, "fusion_lon": 0.0, "rental_uris": {"ios": "https://dc.lft.to/lastmile_qr_scan", "android": "https://dc.lft.to/lastmile_qr_scan"}, "lon": -77.027115, "bike_id": "7c968ea5a032c938fae2d1f3e3682873", "type": "electric_scooter", "name": "7c968ea5a032c938fae2d1f3e3682873"}, {"is_disabled": 0, "is_reserved": 0, "fusion_lat": 0.0, "lat": 38.91400516666667, "fusion_lon": 0.0, "rental_uris": {"ios": "https://dc.lft.to/lastmile_qr_scan", "android": "https://dc.lft.to/lastmile_qr_scan"}, "lon": -77.04593866666667, "bike_id": "e2091cfb0800a9d46d46789c35555d16", "type": "electric_scooter", "name": "e2091cfb0800a9d46d46789c35555d16"}, {"is_disabled": 0, "is_reserved": 0, "fusion_lat": 0.0, "lat": 38.91759716666667, "fusion_lon": 0.0, "rental_uris": {"ios": "https://dc.lft.to/lastmile_qr_scan", "android": "https://dc.lft.to/lastmile_qr_scan"}, "lon": -77.024076, "bike_id": "87d9c156270512fe093a613b25967597", "type": "electric_scooter", "name": "87d9c156270512fe093a613b25967597"}, {"is_disabled": 0, "is_reserved": 0, "fusion_lat": 0.0, "lat": 38.91920433333333, "fusion_lon": 0.0, "rental_uris": {"ios": "https://dc.lft.to/lastmile_qr_scan", "android": "https://dc.lft.to/lastmile_qr_scan"}, "lon": -77.0310165, "bike_id": "9b18a3bc755d5ce80f881392754278fe", "type": "electric_scooter", "name": "9b18a3bc755d5ce80f881392754278fe"}, {"is_disabled": 0, "is_reserved": 0, "fusion_lat": 0.0, "lat": 38.92407866666667, "fusion_lon": 0.0, "rental_uris": {"ios": "https://dc.lft.to/lastmile_qr_scan", "android": "https://dc.lft.to/lastmile_qr_scan"}, "lon": -77.027182, "bike_id": "8eaf63822eef8700b1dee951d083832c", "type": "electric_scooter", "name": "8eaf63822eef8700b1dee951d083832c"}, {"is_disabled": 0, "is_reserved": 0, "fusion_lat": 0.0, "lat": 38.921908, "fusion_lon": 0.0, "rental_uris": {"ios": "https://dc.lft.to/lastmile_qr_scan", "android": "https://dc.lft.to/lastmile_qr_scan"}, "lon": -77.03796283333334, "bike_id": "f9199307a23dd281598ac6efed8c5c4a", "type": "electric_scooter", "name": "f9199307a23dd281598ac6efed8c5c4a"}, {"is_disabled": 0, "is_reserved": 0, "fusion_lat": 0.0, "lat": 38.938565, "fusion_lon": 0.0, "rental_uris": {"ios": "https://dc.lft.to/lastmile_qr_scan", "android": "https://dc.lft.to/lastmile_qr_scan"}, "lon": -77.026315, "bike_id": "62ae84e157377b60f09d268586c439e9", "type": "electric_bike", "name": "62ae84e157377b60f09d268586c439e9"}, {"is_disabled": 0, "is_reserved": 0, "fusion_lat": 0.0, "lat": 38.8972615, "fusion_lon": 0.0, "rental_uris": {"ios": "https://dc.lft.to/lastmile_qr_scan", "android": "https://dc.lft.to/lastmile_qr_scan"}, "lon": -77.02710016666667, "bike_id": "4f542475b50ace08b77a8c84b8437f6d", "type": "electric_scooter", "name": "4f542475b50ace08b77a8c84b8437f6d"}, {"is_disabled": 0, "is_reserved": 0, "fusion_lat": 0.0, "lat": 38.923156, "fusion_lon": 0.0, "rental_uris": {"ios": "https://dc.lft.to/lastmile_qr_scan", "android": "https://dc.lft.to/lastmile_qr_scan"}, "lon": -77.02802066666666, "bike_id": "bed43fd66f1a8ea8a2de49ac4786f31b", "type": "electric_scooter", "name": "bed43fd66f1a8ea8a2de49ac4786f31b"}, {"is_disabled": 0, "is_reserved": 0, "fusion_lat": 0.0, "lat": 38.88733116666667, "fusion_lon": 0.0, "rental_uris": {"ios": "https://dc.lft.to/lastmile_qr_scan", "android": "https://dc.lft.to/lastmile_qr_scan"}, "lon": -77.02205216666667, "bike_id": "90ff726a16eab51616e68d51f7d428f3", "type": "electric_scooter", "name": "90ff726a16eab51616e68d51f7d428f3"}, {"is_disabled": 0, "is_reserved": 0, "fusion_lat": 0.0, "lat": 38.9182135, "fusion_lon": 0.0, "rental_uris": {"ios": "https://dc.lft.to/lastmile_qr_scan", "android": "https://dc.lft.to/lastmile_qr_scan"}, "lon": -77.03997883333334, "bike_id": "e21c654694d25328006537ada0ff662a", "type": "electric_scooter", "name": "e21c654694d25328006537ada0ff662a"}, {"is_disabled": 0, "is_reserved": 0, "fusion_lat": 0.0, "lat": 38.8578875, "fusion_lon": 0.0, "rental_uris": {"ios": "https://dc.lft.to/lastmile_qr_scan", "android": "https://dc.lft.to/lastmile_qr_scan"}, "lon": -76.98756933333334, "bike_id": "8f8bedac60665a141b4881270d8ecb27", "type": "electric_bike", "name": "8f8bedac60665a141b4881270d8ecb27"}, {"is_disabled": 0, "is_reserved": 0, "fusion_lat": 0.0, "lat": 38.89255216666667, "fusion_lon": 0.0, "rental_uris": {"ios": "https://dc.lft.to/lastmile_qr_scan", "android": "https://dc.lft.to/lastmile_qr_scan"}, "lon": -77.04656733333333, "bike_id": "928f131ab3de2561bde775c02c7fda2d", "type": "electric_scooter", "name": "928f131ab3de2561bde775c02c7fda2d"}, {"is_disabled": 0, "is_reserved": 0, "fusion_lat": 0.0, "lat": 38.89829916666667, "fusion_lon": 0.0, "rental_uris": {"ios": "https://dc.lft.to/lastmile_qr_scan", "android": "https://dc.lft.to/lastmile_qr_scan"}, "lon": -76.94633983333334, "bike_id": "eea874005a3df46b4e2049af6b136a18", "type": "electric_scooter", "name": "eea874005a3df46b4e2049af6b136a18"}, {"is_disabled": 0, "is_reserved": 0, "fusion_lat": 0.0, "lat": 38.923152, "fusion_lon": 0.0, "rental_uris": {"ios": "https://dc.lft.to/lastmile_qr_scan", "android": "https://dc.lft.to/lastmile_qr_scan"}, "lon": -77.04179233333333, "bike_id": "c076b3044a5b66d7a8ed86c6eafc6b9d", "type": "electric_scooter", "name": "c076b3044a5b66d7a8ed86c6eafc6b9d"}, {"is_disabled": 0, "is_reserved": 0, "fusion_lat": 0.0, "lat": 38.892981, "fusion_lon": 0.0, "rental_uris": {"ios": "https://dc.lft.to/lastmile_qr_scan", "android": "https://dc.lft.to/lastmile_qr_scan"}, "lon": -76.99963633333333, "bike_id": "6792e9aad9ead37bc6b042a16e5b7ba1", "type": "electric_scooter", "name": "6792e9aad9ead37bc6b042a16e5b7ba1"}, {"is_disabled": 0, "is_reserved": 0, "fusion_lat": 0.0, "lat": 38.888962166666666, "fusion_lon": 0.0, "rental_uris": {"ios": "https://dc.lft.to/lastmile_qr_scan", "android": "https://dc.lft.to/lastmile_qr_scan"}, "lon": -76.98370916666667, "bike_id": "ec2e3d8fde9eaa655b7a8fd0aa906f69", "type": "electric_scooter", "name": "ec2e3d8fde9eaa655b7a8fd0aa906f69"}, {"is_disabled": 0, "is_reserved": 0, "fusion_lat": 0.0, "lat": 38.93283133333333, "fusion_lon": 0.0, "rental_uris": {"ios": "https://dc.lft.to/lastmile_qr_scan", "android": "https://dc.lft.to/lastmile_qr_scan"}, "lon": -77.03551266666666, "bike_id": "4b48d585c6c20ee9217d17e7cc3ca2e9", "type": "electric_scooter", "name": "4b48d585c6c20ee9217d17e7cc3ca2e9"}, {"is_disabled": 0, "is_reserved": 0, "fusion_lat": 0.0, "lat": 38.897284, "fusion_lon": 0.0, "rental_uris": {"ios": "https://dc.lft.to/lastmile_qr_scan", "android": "https://dc.lft.to/lastmile_qr_scan"}, "lon": -77.0270405, "bike_id": "c1663b6bf8f1f7241524f86714b06193", "type": "electric_scooter", "name": "c1663b6bf8f1f7241524f86714b06193"}, {"is_disabled": 0, "is_reserved": 0, "fusion_lat": 0.0, "lat": 38.89858566666667, "fusion_lon": 0.0, "rental_uris": {"ios": "https://dc.lft.to/lastmile_qr_scan", "android": "https://dc.lft.to/lastmile_qr_scan"}, "lon": -76.94646333333333, "bike_id": "d962a04a2c1c2f2dcaf0eca5a1b07184", "type": "electric_scooter", "name": "d962a04a2c1c2f2dcaf0eca5a1b07184"}, {"is_disabled": 0, "is_reserved": 0, "fusion_lat": 0.0, "lat": 38.95682133333333, "fusion_lon": 0.0, "rental_uris": {"ios": "https://dc.lft.to/lastmile_qr_scan", "android": "https://dc.lft.to/lastmile_qr_scan"}, "lon": -77.0223715, "bike_id": "7936aa381adf65a1e05b9409015b95df", "type": "electric_bike", "name": "7936aa381adf65a1e05b9409015b95df"}, {"is_disabled": 0, "is_reserved": 0, "fusion_lat": 0.0, "lat": 38.9119225, "fusion_lon": 0.0, "rental_uris": {"ios": "https://dc.lft.to/lastmile_qr_scan", "android": "https://dc.lft.to/lastmile_qr_scan"}, "lon": -77.00213766666667, "bike_id": "4e4ccb5a590bfa1f1c22ec9ef82acf08", "type": "electric_scooter", "name": "4e4ccb5a590bfa1f1c22ec9ef82acf08"}, {"is_disabled": 0, "is_reserved": 0, "fusion_lat": 0.0, "lat": 38.93874566666667, "fusion_lon": 0.0, "rental_uris": {"ios": "https://dc.lft.to/lastmile_qr_scan", "android": "https://dc.lft.to/lastmile_qr_scan"}, "lon": -77.0303985, "bike_id": "527f31c2d676c46c184c0ee7c8075809", "type": "electric_scooter", "name": "527f31c2d676c46c184c0ee7c8075809"}, {"is_disabled": 0, "is_reserved": 0, "fusion_lat": 0.0, "lat": 38.89677483333333, "fusion_lon": 0.0, "rental_uris": {"ios": "https://dc.lft.to/lastmile_qr_scan", "android": "https://dc.lft.to/lastmile_qr_scan"}, "lon": -77.05137616666667, "bike_id": "768a3c39af50e5878bbb1882e2a07506", "type": "electric_scooter", "name": "768a3c39af50e5878bbb1882e2a07506"}, {"is_disabled": 0, "is_reserved": 0, "fusion_lat": 0.0, "lat": 38.87064633333333, "fusion_lon": 0.0, "rental_uris": {"ios": "https://dc.lft.to/lastmile_qr_scan", "android": "https://dc.lft.to/lastmile_qr_scan"}, "lon": -76.979376, "bike_id": "3d8da38e5fbe18636b3dbe57d3657662", "type": "electric_scooter", "name": "3d8da38e5fbe18636b3dbe57d3657662"}, {"is_disabled": 0, "is_reserved": 0, "fusion_lat": 0.0, "lat": 38.919932333333335, "fusion_lon": 0.0, "rental_uris": {"ios": "https://dc.lft.to/lastmile_qr_scan", "android": "https://dc.lft.to/lastmile_qr_scan"}, "lon": -77.03246016666667, "bike_id": "c0c485cba60a31a3f8da88f373c02cbb", "type": "electric_scooter", "name": "c0c485cba60a31a3f8da88f373c02cbb"}, {"is_disabled": 0, "is_reserved": 0, "fusion_lat": 0.0, "lat": 38.90531283333333, "fusion_lon": 0.0, "rental_uris": {"ios": "https://dc.lft.to/lastmile_qr_scan", "android": "https://dc.lft.to/lastmile_qr_scan"}, "lon": -77.01700333333334, "bike_id": "635c9b4e187092de46247ced563f27f4", "type": "electric_scooter", "name": "635c9b4e187092de46247ced563f27f4"}, {"is_disabled": 0, "is_reserved": 0, "fusion_lat": 0.0, "lat": 38.91830566666667, "fusion_lon": 0.0, "rental_uris": {"ios": "https://dc.lft.to/lastmile_qr_scan", "android": "https://dc.lft.to/lastmile_qr_scan"}, "lon": -77.0531425, "bike_id": "849f2cc50ea1bad8bddc255a34ae5fa4", "type": "electric_scooter", "name": "849f2cc50ea1bad8bddc255a34ae5fa4"}, {"is_disabled": 0, "is_reserved": 0, "fusion_lat": 0.0, "lat": 38.91920733333333, "fusion_lon": 0.0, "rental_uris": {"ios": "https://dc.lft.to/lastmile_qr_scan", "android": "https://dc.lft.to/lastmile_qr_scan"}, "lon": -77.03216933333333, "bike_id": "2e47dc7779a538d7725ec6118bbecbf8", "type": "electric_scooter", "name": "2e47dc7779a538d7725ec6118bbecbf8"}, {"is_disabled": 0, "is_reserved": 0, "fusion_lat": 0.0, "lat": 38.956644, "fusion_lon": 0.0, "rental_uris": {"ios": "https://dc.lft.to/lastmile_qr_scan", "android": "https://dc.lft.to/lastmile_qr_scan"}, "lon": -77.03630266666667, "bike_id": "9196c56f5b46928ee5dbd953c2afdd44", "type": "electric_scooter", "name": "9196c56f5b46928ee5dbd953c2afdd44"}, {"is_disabled": 0, "is_reserved": 0, "fusion_lat": 0.0, "lat": 38.892361666666666, "fusion_lon": 0.0, "rental_uris": {"ios": "https://dc.lft.to/lastmile_qr_scan", "android": "https://dc.lft.to/lastmile_qr_scan"}, "lon": -77.03181216666667, "bike_id": "c44876d9ea7a34cbe9313e6640eb9dab", "type": "electric_scooter", "name": "c44876d9ea7a34cbe9313e6640eb9dab"}, {"is_disabled": 0, "is_reserved": 0, "fusion_lat": 0.0, "lat": 38.914146833333334, "fusion_lon": 0.0, "rental_uris": {"ios": "https://dc.lft.to/lastmile_qr_scan", "android": "https://dc.lft.to/lastmile_qr_scan"}, "lon": -77.02210133333334, "bike_id": "905e85c8f146094be9247af5e19ea394", "type": "electric_scooter", "name": "905e85c8f146094be9247af5e19ea394"}, {"is_disabled": 0, "is_reserved": 0, "fusion_lat": 0.0, "lat": 38.85079566666667, "fusion_lon": 0.0, "rental_uris": {"ios": "https://dc.lft.to/lastmile_qr_scan", "android": "https://dc.lft.to/lastmile_qr_scan"}, "lon": -76.98126983333333, "bike_id": "62321efb74d2298789251e97e928901c", "type": "electric_bike", "name": "62321efb74d2298789251e97e928901c"}, {"is_disabled": 0, "is_reserved": 0, "fusion_lat": 0.0, "lat": 38.905318, "fusion_lon": 0.0, "rental_uris": {"ios": "https://dc.lft.to/lastmile_qr_scan", "android": "https://dc.lft.to/lastmile_qr_scan"}, "lon": -77.056896, "bike_id": "861d7627fc69400883e46e62b03b7928", "type": "electric_scooter", "name": "861d7627fc69400883e46e62b03b7928"}, {"is_disabled": 0, "is_reserved": 0, "fusion_lat": 0.0, "lat": 38.921359333333335, "fusion_lon": 0.0, "rental_uris": {"ios": "https://dc.lft.to/lastmile_qr_scan", "android": "https://dc.lft.to/lastmile_qr_scan"}, "lon": -77.03659933333333, "bike_id": "92429a339cd7a871021626106507494d", "type": "electric_scooter", "name": "92429a339cd7a871021626106507494d"}, {"is_disabled": 0, "is_reserved": 0, "fusion_lat": 0.0, "lat": 38.877740833333334, "fusion_lon": 0.0, "rental_uris": {"ios": "https://dc.lft.to/lastmile_qr_scan", "android": "https://dc.lft.to/lastmile_qr_scan"}, "lon": -77.00214016666666, "bike_id": "2501d90c61f59f9b306e1f81eebd000a", "type": "electric_scooter", "name": "2501d90c61f59f9b306e1f81eebd000a"}, {"is_disabled": 0, "is_reserved": 0, "fusion_lat": 0.0, "lat": 38.950832, "fusion_lon": 0.0, "rental_uris": {"ios": "https://dc.lft.to/lastmile_qr_scan", "android": "https://dc.lft.to/lastmile_qr_scan"}, "lon": -77.012578, "bike_id": "b19be3387b7f9c9bbf56bfc9d8504f6b", "type": "electric_bike", "name": "b19be3387b7f9c9bbf56bfc9d8504f6b"}, {"is_disabled": 0, "is_reserved": 0, "fusion_lat": 0.0, "lat": 38.89223233333333, "fusion_lon": 0.0, "rental_uris": {"ios": "https://dc.lft.to/lastmile_qr_scan", "android": "https://dc.lft.to/lastmile_qr_scan"}, "lon": -77.03178583333333, "bike_id": "f9457a1495b1d8d566588816922c4593", "type": "electric_scooter", "name": "f9457a1495b1d8d566588816922c4593"}, {"is_disabled": 0, "is_reserved": 0, "fusion_lat": 0.0, "lat": 38.91058066666667, "fusion_lon": 0.0, "rental_uris": {"ios": "https://dc.lft.to/lastmile_qr_scan", "android": "https://dc.lft.to/lastmile_qr_scan"}, "lon": -77.01997316666667, "bike_id": "f8604ca134f71a186d43946e32fa3090", "type": "electric_scooter", "name": "f8604ca134f71a186d43946e32fa3090"}, {"is_disabled": 0, "is_reserved": 0, "fusion_lat": 0.0, "lat": 38.842889, "fusion_lon": 0.0, "rental_uris": {"ios": "https://dc.lft.to/lastmile_qr_scan", "android": "https://dc.lft.to/lastmile_qr_scan"}, "lon": -77.06380133333333, "bike_id": "9022ccc82e79dcb22f9769274efa7ada", "type": "electric_bike", "name": "9022ccc82e79dcb22f9769274efa7ada"}, {"is_disabled": 0, "is_reserved": 0, "fusion_lat": 0.0, "lat": 38.97593583333333, "fusion_lon": 0.0, "rental_uris": {"ios": "https://dc.lft.to/lastmile_qr_scan", "android": "https://dc.lft.to/lastmile_qr_scan"}, "lon": -77.01875283333334, "bike_id": "151dd352c616f610da01e717e3d1c81a", "type": "electric_scooter", "name": "151dd352c616f610da01e717e3d1c81a"}, {"is_disabled": 0, "is_reserved": 0, "fusion_lat": 0.0, "lat": 38.90849766666667, "fusion_lon": 0.0, "rental_uris": {"ios": "https://dc.lft.to/lastmile_qr_scan", "android": "https://dc.lft.to/lastmile_qr_scan"}, "lon": -77.05479333333334, "bike_id": "fada6bef5710f16669487f6b4a263892", "type": "electric_bike", "name": "fada6bef5710f16669487f6b4a263892"}, {"is_disabled": 0, "is_reserved": 0, "fusion_lat": 0.0, "lat": 38.987186, "fusion_lon": 0.0, "rental_uris": {"ios": "https://dc.lft.to/lastmile_qr_scan", "android": "https://dc.lft.to/lastmile_qr_scan"}, "lon": -77.0375655, "bike_id": "21643d3d77db73684e69a9d305ede9f0", "type": "electric_bike", "name": "21643d3d77db73684e69a9d305ede9f0"}, {"is_disabled": 0, "is_reserved": 0, "fusion_lat": 0.0, "lat": 38.8973575, "fusion_lon": 0.0, "rental_uris": {"ios": "https://dc.lft.to/lastmile_qr_scan", "android": "https://dc.lft.to/lastmile_qr_scan"}, "lon": -77.04539733333333, "bike_id": "8f064a04a514d9021c3bba6b27a4a926", "type": "electric_scooter", "name": "8f064a04a514d9021c3bba6b27a4a926"}, {"is_disabled": 0, "is_reserved": 0, "fusion_lat": 0.0, "lat": 38.945877333333335, "fusion_lon": 0.0, "rental_uris": {"ios": "https://dc.lft.to/lastmile_qr_scan", "android": "https://dc.lft.to/lastmile_qr_scan"}, "lon": -77.02035983333333, "bike_id": "3d10f5c1b731871a245ce9a11c89d49c", "type": "electric_scooter", "name": "3d10f5c1b731871a245ce9a11c89d49c"}, {"is_disabled": 0, "is_reserved": 0, "fusion_lat": 0.0, "lat": 38.906765166666666, "fusion_lon": 0.0, "rental_uris": {"ios": "https://dc.lft.to/lastmile_qr_scan", "android": "https://dc.lft.to/lastmile_qr_scan"}, "lon": -77.06250933333334, "bike_id": "090554088b37631020c6045cfd3b8c6c", "type": "electric_scooter", "name": "090554088b37631020c6045cfd3b8c6c"}, {"is_disabled": 0, "is_reserved": 0, "fusion_lat": 0.0, "lat": 38.946299333333336, "fusion_lon": 0.0, "rental_uris": {"ios": "https://dc.lft.to/lastmile_qr_scan", "android": "https://dc.lft.to/lastmile_qr_scan"}, "lon": -77.01843216666667, "bike_id": "f1d20730557563b98e275719f2f84159", "type": "electric_scooter", "name": "f1d20730557563b98e275719f2f84159"}, {"is_disabled": 0, "is_reserved": 0, "fusion_lat": 0.0, "lat": 38.892617, "fusion_lon": 0.0, "rental_uris": {"ios": "https://dc.lft.to/lastmile_qr_scan", "android": "https://dc.lft.to/lastmile_qr_scan"}, "lon": -77.042034, "bike_id": "6d7decc349f63753323f5f312e0ed880", "type": "electric_scooter", "name": "6d7decc349f63753323f5f312e0ed880"}, {"is_disabled": 0, "is_reserved": 0, "fusion_lat": 0.0, "lat": 38.93420316666667, "fusion_lon": 0.0, "rental_uris": {"ios": "https://dc.lft.to/lastmile_qr_scan", "android": "https://dc.lft.to/lastmile_qr_scan"}, "lon": -77.043087, "bike_id": "b4282df4f86b666b879e03c501ba2bd6", "type": "electric_scooter", "name": "b4282df4f86b666b879e03c501ba2bd6"}, {"is_disabled": 0, "is_reserved": 0, "fusion_lat": 0.0, "lat": 38.91048816666667, "fusion_lon": 0.0, "rental_uris": {"ios": "https://dc.lft.to/lastmile_qr_scan", "android": "https://dc.lft.to/lastmile_qr_scan"}, "lon": -77.01512, "bike_id": "5e993228dd47c7f24541ed02daf66495", "type": "electric_scooter", "name": "5e993228dd47c7f24541ed02daf66495"}, {"is_disabled": 0, "is_reserved": 0, "fusion_lat": 0.0, "lat": 38.951037, "fusion_lon": 0.0, "rental_uris": {"ios": "https://dc.lft.to/lastmile_qr_scan", "android": "https://dc.lft.to/lastmile_qr_scan"}, "lon": -77.01580333333334, "bike_id": "407286444f9120a78c626d9eb0919421", "type": "electric_scooter", "name": "407286444f9120a78c626d9eb0919421"}, {"is_disabled": 0, "is_reserved": 0, "fusion_lat": 0.0, "lat": 38.806728166666666, "fusion_lon": 0.0, "rental_uris": {"ios": "https://dc.lft.to/lastmile_qr_scan", "android": "https://dc.lft.to/lastmile_qr_scan"}, "lon": -77.06913783333333, "bike_id": "ec28840dc183fba3b17ad4b5c2c64c6f", "type": "electric_bike", "name": "ec28840dc183fba3b17ad4b5c2c64c6f"}, {"is_disabled": 0, "is_reserved": 0, "fusion_lat": 0.0, "lat": 38.9237855, "fusion_lon": 0.0, "rental_uris": {"ios": "https://dc.lft.to/lastmile_qr_scan", "android": "https://dc.lft.to/lastmile_qr_scan"}, "lon": -77.040351, "bike_id": "838f18cd1d3a2c95e6063d503f267dfb", "type": "electric_scooter", "name": "838f18cd1d3a2c95e6063d503f267dfb"}, {"is_disabled": 0, "is_reserved": 0, "fusion_lat": 0.0, "lat": 38.842605666666664, "fusion_lon": 0.0, "rental_uris": {"ios": "https://dc.lft.to/lastmile_qr_scan", "android": "https://dc.lft.to/lastmile_qr_scan"}, "lon": -76.98842066666667, "bike_id": "eb6e5815130ef5c2c1f7d6f2c74c5c86", "type": "electric_scooter", "name": "eb6e5815130ef5c2c1f7d6f2c74c5c86"}, {"is_disabled": 0, "is_reserved": 0, "fusion_lat": 0.0, "lat": 38.903577166666665, "fusion_lon": 0.0, "rental_uris": {"ios": "https://dc.lft.to/lastmile_qr_scan", "android": "https://dc.lft.to/lastmile_qr_scan"}, "lon": -77.060048, "bike_id": "e73286c2cd4ca6a13a0802892801567c", "type": "electric_scooter", "name": "e73286c2cd4ca6a13a0802892801567c"}, {"is_disabled": 0, "is_reserved": 0, "fusion_lat": 0.0, "lat": 38.904385166666664, "fusion_lon": 0.0, "rental_uris": {"ios": "https://dc.lft.to/lastmile_qr_scan", "android": "https://dc.lft.to/lastmile_qr_scan"}, "lon": -76.97314333333334, "bike_id": "98cb7057470317633068970561016bec", "type": "electric_scooter", "name": "98cb7057470317633068970561016bec"}, {"is_disabled": 0, "is_reserved": 0, "fusion_lat": 0.0, "lat": 38.963494833333336, "fusion_lon": 0.0, "rental_uris": {"ios": "https://dc.lft.to/lastmile_qr_scan", "android": "https://dc.lft.to/lastmile_qr_scan"}, "lon": -77.03445483333333, "bike_id": "73f88702eb3b4daf77511087f61dacdf", "type": "electric_scooter", "name": "73f88702eb3b4daf77511087f61dacdf"}, {"is_disabled": 0, "is_reserved": 0, "fusion_lat": 0.0, "lat": 38.90529383333333, "fusion_lon": 0.0, "rental_uris": {"ios": "https://dc.lft.to/lastmile_qr_scan", "android": "https://dc.lft.to/lastmile_qr_scan"}, "lon": -77.05934716666667, "bike_id": "7823e7703e495522c0807bc8090e6b73", "type": "electric_scooter", "name": "7823e7703e495522c0807bc8090e6b73"}, {"is_disabled": 0, "is_reserved": 0, "fusion_lat": 0.0, "lat": 38.89008166666667, "fusion_lon": 0.0, "rental_uris": {"ios": "https://dc.lft.to/lastmile_qr_scan", "android": "https://dc.lft.to/lastmile_qr_scan"}, "lon": -76.93744166666667, "bike_id": "d5e10ed882e7fcc2b1ad7bf279d0d2dd", "type": "electric_scooter", "name": "d5e10ed882e7fcc2b1ad7bf279d0d2dd"}, {"is_disabled": 0, "is_reserved": 0, "fusion_lat": 0.0, "lat": 38.918519, "fusion_lon": 0.0, "rental_uris": {"ios": "https://dc.lft.to/lastmile_qr_scan", "android": "https://dc.lft.to/lastmile_qr_scan"}, "lon": -76.96088716666667, "bike_id": "31003df4d66c23f0ea331ae785f2388c", "type": "electric_scooter", "name": "31003df4d66c23f0ea331ae785f2388c"}, {"is_disabled": 0, "is_reserved": 0, "fusion_lat": 0.0, "lat": 38.894075, "fusion_lon": 0.0, "rental_uris": {"ios": "https://dc.lft.to/lastmile_qr_scan", "android": "https://dc.lft.to/lastmile_qr_scan"}, "lon": -77.033824, "bike_id": "baafe8eb8cbdc4ab675324c0c859dcbb", "type": "electric_scooter", "name": "baafe8eb8cbdc4ab675324c0c859dcbb"}, {"is_disabled": 0, "is_reserved": 0, "fusion_lat": 0.0, "lat": 38.91927333333334, "fusion_lon": 0.0, "rental_uris": {"ios": "https://dc.lft.to/lastmile_qr_scan", "android": "https://dc.lft.to/lastmile_qr_scan"}, "lon": -77.032109, "bike_id": "5f5fa8b8270d37e25e4795066989a214", "type": "electric_scooter", "name": "5f5fa8b8270d37e25e4795066989a214"}, {"is_disabled": 0, "is_reserved": 0, "fusion_lat": 0.0, "lat": 38.89988833333334, "fusion_lon": 0.0, "rental_uris": {"ios": "https://dc.lft.to/lastmile_qr_scan", "android": "https://dc.lft.to/lastmile_qr_scan"}, "lon": -77.02710983333333, "bike_id": "42a778ea41a2d2267c6fe7d0412df5d9", "type": "electric_scooter", "name": "42a778ea41a2d2267c6fe7d0412df5d9"}, {"is_disabled": 0, "is_reserved": 0, "fusion_lat": 0.0, "lat": 38.90960333333334, "fusion_lon": 0.0, "rental_uris": {"ios": "https://dc.lft.to/lastmile_qr_scan", "android": "https://dc.lft.to/lastmile_qr_scan"}, "lon": -77.04837416666666, "bike_id": "c2e4cafbb20a48cbc31a6a60073e3123", "type": "electric_scooter", "name": "c2e4cafbb20a48cbc31a6a60073e3123"}, {"is_disabled": 0, "is_reserved": 0, "fusion_lat": 0.0, "lat": 38.90250433333333, "fusion_lon": 0.0, "rental_uris": {"ios": "https://dc.lft.to/lastmile_qr_scan", "android": "https://dc.lft.to/lastmile_qr_scan"}, "lon": -76.97709516666667, "bike_id": "5663cdee3a3a4bac9387ae63d525123b", "type": "electric_scooter", "name": "5663cdee3a3a4bac9387ae63d525123b"}, {"is_disabled": 0, "is_reserved": 0, "fusion_lat": 0.0, "lat": 38.920114833333336, "fusion_lon": 0.0, "rental_uris": {"ios": "https://dc.lft.to/lastmile_qr_scan", "android": "https://dc.lft.to/lastmile_qr_scan"}, "lon": -77.021963, "bike_id": "e5a9c9f12eb01929082e26fb7ad3b473", "type": "electric_scooter", "name": "e5a9c9f12eb01929082e26fb7ad3b473"}, {"is_disabled": 0, "is_reserved": 0, "fusion_lat": 0.0, "lat": 39.08473583333333, "fusion_lon": 0.0, "rental_uris": {"ios": "https://dc.lft.to/lastmile_qr_scan", "android": "https://dc.lft.to/lastmile_qr_scan"}, "lon": -76.95072083333334, "bike_id": "866385378a6e48924d1a14c302f31032", "type": "electric_bike", "name": "866385378a6e48924d1a14c302f31032"}, {"is_disabled": 0, "is_reserved": 0, "fusion_lat": 0.0, "lat": 38.891974, "fusion_lon": 0.0, "rental_uris": {"ios": "https://dc.lft.to/lastmile_qr_scan", "android": "https://dc.lft.to/lastmile_qr_scan"}, "lon": -77.02476566666667, "bike_id": "499ec808bbfcfc5a7ef27539a779492e", "type": "electric_scooter", "name": "499ec808bbfcfc5a7ef27539a779492e"}, {"is_disabled": 0, "is_reserved": 0, "fusion_lat": 0.0, "lat": 38.95348216666667, "fusion_lon": 0.0, "rental_uris": {"ios": "https://dc.lft.to/lastmile_qr_scan", "android": "https://dc.lft.to/lastmile_qr_scan"}, "lon": -77.0814435, "bike_id": "6830d10403e21370238401c505f4b190", "type": "electric_scooter", "name": "6830d10403e21370238401c505f4b190"}, {"is_disabled": 0, "is_reserved": 0, "fusion_lat": 0.0, "lat": 38.9055955, "fusion_lon": 0.0, "rental_uris": {"ios": "https://dc.lft.to/lastmile_qr_scan", "android": "https://dc.lft.to/lastmile_qr_scan"}, "lon": -77.03275566666667, "bike_id": "30141536625181450a8b8cde03fe0e7e", "type": "electric_scooter", "name": "30141536625181450a8b8cde03fe0e7e"}, {"is_disabled": 0, "is_reserved": 0, "fusion_lat": 0.0, "lat": 38.9235045, "fusion_lon": 0.0, "rental_uris": {"ios": "https://dc.lft.to/lastmile_qr_scan", "android": "https://dc.lft.to/lastmile_qr_scan"}, "lon": -76.97207683333333, "bike_id": "4c1b2fb1c5e549ba6cc953892d75533e", "type": "electric_scooter", "name": "4c1b2fb1c5e549ba6cc953892d75533e"}, {"is_disabled": 0, "is_reserved": 0, "fusion_lat": 0.0, "lat": 38.920394333333334, "fusion_lon": 0.0, "rental_uris": {"ios": "https://dc.lft.to/lastmile_qr_scan", "android": "https://dc.lft.to/lastmile_qr_scan"}, "lon": -77.0244815, "bike_id": "ac14b76352af79d373419f2f7521b457", "type": "electric_scooter", "name": "ac14b76352af79d373419f2f7521b457"}, {"is_disabled": 0, "is_reserved": 0, "fusion_lat": 0.0, "lat": 38.91414183333333, "fusion_lon": 0.0, "rental_uris": {"ios": "https://dc.lft.to/lastmile_qr_scan", "android": "https://dc.lft.to/lastmile_qr_scan"}, "lon": -77.02233283333334, "bike_id": "d21d19e8a93ec8f6b8cb4772664788ba", "type": "electric_scooter", "name": "d21d19e8a93ec8f6b8cb4772664788ba"}, {"is_disabled": 0, "is_reserved": 0, "fusion_lat": 0.0, "lat": 38.903018333333335, "fusion_lon": 0.0, "rental_uris": {"ios": "https://dc.lft.to/lastmile_qr_scan", "android": "https://dc.lft.to/lastmile_qr_scan"}, "lon": -77.03204916666667, "bike_id": "f716ce5f2988847c000d02e21bd4354f", "type": "electric_scooter", "name": "f716ce5f2988847c000d02e21bd4354f"}, {"is_disabled": 0, "is_reserved": 0, "fusion_lat": 0.0, "lat": 38.899696666666664, "fusion_lon": 0.0, "rental_uris": {"ios": "https://dc.lft.to/lastmile_qr_scan", "android": "https://dc.lft.to/lastmile_qr_scan"}, "lon": -76.92630716666666, "bike_id": "f3010a3b4bf74f2348990aab6c7bebb1", "type": "electric_scooter", "name": "f3010a3b4bf74f2348990aab6c7bebb1"}, {"is_disabled": 0, "is_reserved": 0, "fusion_lat": 0.0, "lat": 39.034728333333334, "fusion_lon": 0.0, "rental_uris": {"ios": "https://dc.lft.to/lastmile_qr_scan", "android": "https://dc.lft.to/lastmile_qr_scan"}, "lon": -77.016592, "bike_id": "0ee5a3a425fb48f671cfae18c70b287a", "type": "electric_bike", "name": "0ee5a3a425fb48f671cfae18c70b287a"}, {"is_disabled": 0, "is_reserved": 0, "fusion_lat": 0.0, "lat": 38.90028483333333, "fusion_lon": 0.0, "rental_uris": {"ios": "https://dc.lft.to/lastmile_qr_scan", "android": "https://dc.lft.to/lastmile_qr_scan"}, "lon": -76.99863483333333, "bike_id": "e6b30bf31db6a0eebe8e45d854987b38", "type": "electric_scooter", "name": "e6b30bf31db6a0eebe8e45d854987b38"}, {"is_disabled": 0, "is_reserved": 0, "fusion_lat": 0.0, "lat": 38.86486466666667, "fusion_lon": 0.0, "rental_uris": {"ios": "https://dc.lft.to/lastmile_qr_scan", "android": "https://dc.lft.to/lastmile_qr_scan"}, "lon": -76.9698525, "bike_id": "9dc71a806bb75228693fe8f71eac8509", "type": "electric_bike", "name": "9dc71a806bb75228693fe8f71eac8509"}, {"is_disabled": 0, "is_reserved": 0, "fusion_lat": 0.0, "lat": 38.919646666666665, "fusion_lon": 0.0, "rental_uris": {"ios": "https://dc.lft.to/lastmile_qr_scan", "android": "https://dc.lft.to/lastmile_qr_scan"}, "lon": -77.01903, "bike_id": "b7ea4405c0cf50853b29e7596aef0f5d", "type": "electric_scooter", "name": "b7ea4405c0cf50853b29e7596aef0f5d"}, {"is_disabled": 0, "is_reserved": 0, "fusion_lat": 0.0, "lat": 38.926709833333334, "fusion_lon": 0.0, "rental_uris": {"ios": "https://dc.lft.to/lastmile_qr_scan", "android": "https://dc.lft.to/lastmile_qr_scan"}, "lon": -77.02271016666667, "bike_id": "05b8895dcd0588464bd6f4b7fdf53fb1", "type": "electric_scooter", "name": "05b8895dcd0588464bd6f4b7fdf53fb1"}, {"is_disabled": 0, "is_reserved": 0, "fusion_lat": 0.0, "lat": 38.92216116666667, "fusion_lon": 0.0, "rental_uris": {"ios": "https://dc.lft.to/lastmile_qr_scan", "android": "https://dc.lft.to/lastmile_qr_scan"},