{"data": {"bikes": [{"lat": 38.89727516666667, "is_disabled": 0, "type": "electric_scooter", "lon": -77.02241916666667, "bike_id": "f048f81f252b939552e3527444d77353", "fusion_lat": 0.0, "name": "f048f81f252b939552e3527444d77353", "is_reserved": 0, "rental_uris": {"android": "https://dc.lft.to/lastmile_qr_scan", "ios": "https://dc.lft.to/lastmile_qr_scan"}, "fusion_lon": 0.0}, {"lat": 38.927954666666665, "is_disabled": 0, "type": "electric_scooter", "lon": -77.02598216666667, "bike_id": "36146b832336012df1fe47ce6d34f2e6", "fusion_lat": 0.0, "name": "36146b832336012df1fe47ce6d34f2e6", "is_reserved": 0, "rental_uris": {"android": "https://dc.lft.to/lastmile_qr_scan", "ios": "https://dc.lft.to/lastmile_qr_scan"}, "fusion_lon": 0.0}, {"lat": 38.80228016666667, "is_disabled": 0, "type": "electric_bike", "lon": -77.07914283333334, "bike_id": "1d31398d14580104fd539ad0839bd1f6", "fusion_lat": 0.0, "name": "1d31398d14580104fd539ad0839bd1f6", "is_reserved": 0, "rental_uris": {"android": "https://dc.lft.to/lastmile_qr_scan", "ios": "https://dc.lft.to/lastmile_qr_scan"}, "fusion_lon": 0.0}, {"lat": 38.932827833333334, "is_disabled": 0, "type": "electric_scooter", "lon": -77.026721, "bike_id": "440937ccfd96213818564a672870a420", "fusion_lat": 0.0, "name": "440937ccfd96213818564a672870a420", "is_reserved": 0, "rental_uris": {"android": "https://dc.lft.to/lastmile_qr_scan", "ios": "https://dc.lft.to/lastmile_qr_scan"}, "fusion_lon": 0.0}, {"lat": 38.899565833333334, "is_disabled": 0, "type": "electric_scooter", "lon": -77.051971, "bike_id": "cab826701264fdcf6cd4e3d8affdc94d", "fusion_lat": 0.0, "name": "cab826701264fdcf6cd4e3d8affdc94d", "is_reserved": 0, "rental_uris": {"android": "https://dc.lft.to/lastmile_qr_scan", "ios": "https://dc.lft.to/lastmile_qr_scan"}, "fusion_lon": 0.0}, {"lat": 38.921064333333334, "is_disabled": 0, "type": "electric_scooter", "lon": -77.04697433333334, "bike_id": "b63ea07e7e531f2185e8afc04bd902be", "fusion_lat": 0.0, "name": "b63ea07e7e531f2185e8afc04bd902be", "is_reserved": 0, "rental_uris": {"android": "https://dc.lft.to/lastmile_qr_scan", "ios": "https://dc.lft.to/lastmile_qr_scan"}, "fusion_lon": 0.0}, {"lat": 38.91973083333333, "is_disabled": 0, "type": "electric_scooter", "lon": -77.033342, "bike_id": "a802c1a404da813518b501948812472f", "fusion_lat": 0.0, "name": "a802c1a404da813518b501948812472f", "is_reserved": 0, "rental_uris": {"android": "https://dc.lft.to/lastmile_qr_scan", "ios": "https://dc.lft.to/lastmile_qr_scan"}, "fusion_lon": 0.0}, {"lat": 38.8637005, "is_disabled": 0, "type": "electric_scooter", "lon": -76.99037566666667, "bike_id": "b9719abed2357a3da461c0f9359365f2", "fusion_lat": 0.0, "name": "b9719abed2357a3da461c0f9359365f2", "is_reserved": 0, "rental_uris": {"android": "https://dc.lft.to/lastmile_qr_scan", "ios": "https://dc.lft.to/lastmile_qr_scan"}, "fusion_lon": 0.0}, {"lat": 38.933819, "is_disabled": 0, "type": "electric_scooter", "lon": -76.995131, "bike_id": "8306f63aba90c90c37972ebd1fd35153", "fusion_lat": 0.0, "name": "8306f63aba90c90c37972ebd1fd35153", "is_reserved": 0, "rental_uris": {"android": "https://dc.lft.to/lastmile_qr_scan", "ios": "https://dc.lft.to/lastmile_qr_scan"}, "fusion_lon": 0.0}, {"lat": 38.885312666666664, "is_disabled": 0, "type": "electric_scooter", "lon": -76.98268416666667, "bike_id": "39628a6124b27001c5a527a71bec873d", "fusion_lat": 0.0, "name": "39628a6124b27001c5a527a71bec873d", "is_reserved": 0, "rental_uris": {"android": "https://dc.lft.to/lastmile_qr_scan", "ios": "https://dc.lft.to/lastmile_qr_scan"}, "fusion_lon": 0.0}, {"lat": 38.919119, "is_disabled": 0, "type": "electric_scooter", "lon": -77.04468616666666, "bike_id": "1ec1a58d0b1473d5a9ae18ba8f24798c", "fusion_lat": 0.0, "name": "1ec1a58d0b1473d5a9ae18ba8f24798c", "is_reserved": 0, "rental_uris": {"android": "https://dc.lft.to/lastmile_qr_scan", "ios": "https://dc.lft.to/lastmile_qr_scan"}, "fusion_lon": 0.0}, {"lat": 38.92006083333333, "is_disabled": 0, "type": "electric_scooter", "lon": -77.0239555, "bike_id": "83ae091ffb6ad2e4dd6cdb9153c4a587", "fusion_lat": 0.0, "name": "83ae091ffb6ad2e4dd6cdb9153c4a587", "is_reserved": 0, "rental_uris": {"android": "https://dc.lft.to/lastmile_qr_scan", "ios": "https://dc.lft.to/lastmile_qr_scan"}, "fusion_lon": 0.0}, {"lat": 38.944412, "is_disabled": 0, "type": "electric_scooter", "lon": -77.02340316666667, "bike_id": "cce8331b37388eed11be66a32258792e", "fusion_lat": 0.0, "name": "cce8331b37388eed11be66a32258792e", "is_reserved": 0, "rental_uris": {"android": "https://dc.lft.to/lastmile_qr_scan", "ios": "https://dc.lft.to/lastmile_qr_scan"}, "fusion_lon": 0.0}, {"lat": 38.857346, "is_disabled": 0, "type": "electric_scooter", "lon": -76.99437966666666, "bike_id": "9246fcbbc64d2dd44ff80e4f15eafc0c", "fusion_lat": 0.0, "name": "9246fcbbc64d2dd44ff80e4f15eafc0c", "is_reserved": 0, "rental_uris": {"android": "https://dc.lft.to/lastmile_qr_scan", "ios": "https://dc.lft.to/lastmile_qr_scan"}, "fusion_lon": 0.0}, {"lat": 38.909606, "is_disabled": 0, "type": "electric_scooter", "lon": -77.0342465, "bike_id": "66117ff5e7cf9b7e70968518470ec802", "fusion_lat": 0.0, "name": "66117ff5e7cf9b7e70968518470ec802", "is_reserved": 0, "rental_uris": {"android": "https://dc.lft.to/lastmile_qr_scan", "ios": "https://dc.lft.to/lastmile_qr_scan"}, "fusion_lon": 0.0}, {"lat": 38.908824, "is_disabled": 0, "type": "electric_bike", "lon": -77.00173566666666, "bike_id": "b89ca15f213c1e831e73bd64b1dbff40", "fusion_lat": 0.0, "name": "b89ca15f213c1e831e73bd64b1dbff40", "is_reserved": 0, "rental_uris": {"android": "https://dc.lft.to/lastmile_qr_scan", "ios": "https://dc.lft.to/lastmile_qr_scan"}, "fusion_lon": 0.0}, {"lat": 38.9016945, "is_disabled": 0, "type": "electric_scooter", "lon": -77.02492333333333, "bike_id": "1f9e5df30b83bfdfafa97864c7b633c4", "fusion_lat": 0.0, "name": "1f9e5df30b83bfdfafa97864c7b633c4", "is_reserved": 0, "rental_uris": {"android": "https://dc.lft.to/lastmile_qr_scan", "ios": "https://dc.lft.to/lastmile_qr_scan"}, "fusion_lon": 0.0}, {"lat": 38.920645, "is_disabled": 0, "type": "electric_scooter", "lon": -77.04238883333333, "bike_id": "0ad651f9ad50cf2ca276225e953301f3", "fusion_lat": 0.0, "name": "0ad651f9ad50cf2ca276225e953301f3", "is_reserved": 0, "rental_uris": {"android": "https://dc.lft.to/lastmile_qr_scan", "ios": "https://dc.lft.to/lastmile_qr_scan"}, "fusion_lon": 0.0}, {"lat": 38.91688533333333, "is_disabled": 0, "type": "electric_scooter", "lon": -77.030594, "bike_id": "f704a292b31394a167f3cbd1c992df45", "fusion_lat": 0.0, "name": "f704a292b31394a167f3cbd1c992df45", "is_reserved": 0, "rental_uris": {"android": "https://dc.lft.to/lastmile_qr_scan", "ios": "https://dc.lft.to/lastmile_qr_scan"}, "fusion_lon": 0.0}, {"lat": 38.93250033333333, "is_disabled": 0, "type": "electric_scooter", "lon": -77.0665665, "bike_id": "e6c86f053b1c2f98cff22fe75af5b3d8", "fusion_lat": 0.0, "name": "e6c86f053b1c2f98cff22fe75af5b3d8", "is_reserved": 0, "rental_uris": {"android": "https://dc.lft.to/lastmile_qr_scan", "ios": "https://dc.lft.to/lastmile_qr_scan"}, "fusion_lon": 0.0}, {"lat": 38.87988033333333, "is_disabled": 0, "type": "electric_scooter", "lon": -76.9867895, "bike_id": "66cc6a3ae15af2c3a622e7e51b5c5183", "fusion_lat": 0.0, "name": "66cc6a3ae15af2c3a622e7e51b5c5183", "is_reserved": 0, "rental_uris": {"android": "https://dc.lft.to/lastmile_qr_scan", "ios": "https://dc.lft.to/lastmile_qr_scan"}, "fusion_lon": 0.0}, {"lat": 38.936204833333335, "is_disabled": 0, "type": "electric_scooter", "lon": -77.05746966666666, "bike_id": "e7a7440558002562606c7a914e1225f7", "fusion_lat": 0.0, "name": "e7a7440558002562606c7a914e1225f7", "is_reserved": 0, "rental_uris": {"android": "https://dc.lft.to/lastmile_qr_scan", "ios": "https://dc.lft.to/lastmile_qr_scan"}, "fusion_lon": 0.0}, {"lat": 38.867026833333334, "is_disabled": 0, "type": "electric_scooter", "lon": -76.987112, "bike_id": "01efb4fb0507dd743e0fef8e3f7b4108", "fusion_lat": 0.0, "name": "01efb4fb0507dd743e0fef8e3f7b4108", "is_reserved": 0, "rental_uris": {"android": "https://dc.lft.to/lastmile_qr_scan", "ios": "https://dc.lft.to/lastmile_qr_scan"}, "fusion_lon": 0.0}, {"lat": 38.902439666666666, "is_disabled": 0, "type": "electric_scooter", "lon": -77.017522, "bike_id": "15dc4a048c4e1b00780e8bb281ed488b", "fusion_lat": 0.0, "name": "15dc4a048c4e1b00780e8bb281ed488b", "is_reserved": 0, "rental_uris": {"android": "https://dc.lft.to/lastmile_qr_scan", "ios": "https://dc.lft.to/lastmile_qr_scan"}, "fusion_lon": 0.0}, {"lat": 38.85931566666667, "is_disabled": 0, "type": "electric_scooter", "lon": -76.99717883333334, "bike_id": "b6b72a0780127f34cf4a820c3d00cbb2", "fusion_lat": 0.0, "name": "b6b72a0780127f34cf4a820c3d00cbb2", "is_reserved": 0, "rental_uris": {"android": "https://dc.lft.to/lastmile_qr_scan", "ios": "https://dc.lft.to/lastmile_qr_scan"}, "fusion_lon": 0.0}, {"lat": 38.86521833333333, "is_disabled": 0, "type": "electric_scooter", "lon": -76.9903075, "bike_id": "fce8791160e4e3b4431c67674b0b7bca", "fusion_lat": 0.0, "name": "fce8791160e4e3b4431c67674b0b7bca", "is_reserved": 0, "rental_uris": {"android": "https://dc.lft.to/lastmile_qr_scan", "ios": "https://dc.lft.to/lastmile_qr_scan"}, "fusion_lon": 0.0}, {"lat": 38.83420383333333, "is_disabled": 0, "type": "electric_bike", "lon": -77.10374366666667, "bike_id": "ceb84a6d8ec81e251135ca6c23bf84da", "fusion_lat": 0.0, "name": "ceb84a6d8ec81e251135ca6c23bf84da", "is_reserved": 0, "rental_uris": {"android": "https://dc.lft.to/lastmile_qr_scan", "ios": "https://dc.lft.to/lastmile_qr_scan"}, "fusion_lon": 0.0}, {"lat": 38.92409216666667, "is_disabled": 0, "type": "electric_scooter", "lon": -77.02744666666666, "bike_id": "c9169fda892e2ca2c251d0f9561ab400", "fusion_lat": 0.0, "name": "c9169fda892e2ca2c251d0f9561ab400", "is_reserved": 0, "rental_uris": {"android": "https://dc.lft.to/lastmile_qr_scan", "ios": "https://dc.lft.to/lastmile_qr_scan"}, "fusion_lon": 0.0}, {"lat": 38.844685166666665, "is_disabled": 0, "type": "electric_bike", "lon": -76.98751583333333, "bike_id": "ec98f33ecd587e244f63fec423345c79", "fusion_lat": 0.0, "name": "ec98f33ecd587e244f63fec423345c79", "is_reserved": 0, "rental_uris": {"android": "https://dc.lft.to/lastmile_qr_scan", "ios": "https://dc.lft.to/lastmile_qr_scan"}, "fusion_lon": 0.0}, {"lat": 38.904871166666666, "is_disabled": 0, "type": "electric_scooter", "lon": -77.02960466666667, "bike_id": "6fa4de50f712b7380953f96df4cea70b", "fusion_lat": 0.0, "name": "6fa4de50f712b7380953f96df4cea70b", "is_reserved": 0, "rental_uris": {"android": "https://dc.lft.to/lastmile_qr_scan", "ios": "https://dc.lft.to/lastmile_qr_scan"}, "fusion_lon": 0.0}, {"lat": 38.876270833333336, "is_disabled": 0, "type": "electric_scooter", "lon": -76.965246, "bike_id": "70c4147a62b87c8ec2ab3250d9cb1ff3", "fusion_lat": 0.0, "name": "70c4147a62b87c8ec2ab3250d9cb1ff3", "is_reserved": 0, "rental_uris": {"android": "https://dc.lft.to/lastmile_qr_scan", "ios": "https://dc.lft.to/lastmile_qr_scan"}, "fusion_lon": 0.0}, {"lat": 38.906070666666665, "is_disabled": 0, "type": "electric_scooter", "lon": -76.98975816666666, "bike_id": "0640a16ef7337c01589dd0b575a6b34b", "fusion_lat": 0.0, "name": "0640a16ef7337c01589dd0b575a6b34b", "is_reserved": 0, "rental_uris": {"android": "https://dc.lft.to/lastmile_qr_scan", "ios": "https://dc.lft.to/lastmile_qr_scan"}, "fusion_lon": 0.0}, {"lat": 38.869961833333335, "is_disabled": 0, "type": "electric_bike", "lon": -77.06568966666667, "bike_id": "37d54f657ed847a476535e9ae421958e", "fusion_lat": 0.0, "name": "37d54f657ed847a476535e9ae421958e", "is_reserved": 0, "rental_uris": {"android": "https://dc.lft.to/lastmile_qr_scan", "ios": "https://dc.lft.to/lastmile_qr_scan"}, "fusion_lon": 0.0}, {"lat": 38.93451133333333, "is_disabled": 0, "type": "electric_scooter", "lon": -77.030929, "bike_id": "8a743ba5ac69ee8c244e25fdd66105c8", "fusion_lat": 0.0, "name": "8a743ba5ac69ee8c244e25fdd66105c8", "is_reserved": 0, "rental_uris": {"android": "https://dc.lft.to/lastmile_qr_scan", "ios": "https://dc.lft.to/lastmile_qr_scan"}, "fusion_lon": 0.0}, {"lat": 38.9035605, "is_disabled": 0, "type": "electric_scooter", "lon": -77.042279, "bike_id": "44ee12a3ae48a287ababe0cffbf1bb44", "fusion_lat": 0.0, "name": "44ee12a3ae48a287ababe0cffbf1bb44", "is_reserved": 0, "rental_uris": {"android": "https://dc.lft.to/lastmile_qr_scan", "ios": "https://dc.lft.to/lastmile_qr_scan"}, "fusion_lon": 0.0}, {"lat": 38.900324833333336, "is_disabled": 0, "type": "electric_scooter", "lon": -76.98372333333333, "bike_id": "3167b3f049047ae81ffac59156454c3b", "fusion_lat": 0.0, "name": "3167b3f049047ae81ffac59156454c3b", "is_reserved": 0, "rental_uris": {"android": "https://dc.lft.to/lastmile_qr_scan", "ios": "https://dc.lft.to/lastmile_qr_scan"}, "fusion_lon": 0.0}, {"lat": 38.900089666666666, "is_disabled": 0, "type": "electric_scooter", "lon": -77.02158583333333, "bike_id": "e6e9058ec960363fc45af23202bd2e18", "fusion_lat": 0.0, "name": "e6e9058ec960363fc45af23202bd2e18", "is_reserved": 0, "rental_uris": {"android": "https://dc.lft.to/lastmile_qr_scan", "ios": "https://dc.lft.to/lastmile_qr_scan"}, "fusion_lon": 0.0}, {"lat": 38.89502366666667, "is_disabled": 0, "type": "electric_scooter", "lon": -77.00325683333334, "bike_id": "1067bd1cc841bdfc6040337849cea0f1", "fusion_lat": 0.0, "name": "1067bd1cc841bdfc6040337849cea0f1", "is_reserved": 0, "rental_uris": {"android": "https://dc.lft.to/lastmile_qr_scan", "ios": "https://dc.lft.to/lastmile_qr_scan"}, "fusion_lon": 0.0}, {"lat": 38.920329333333335, "is_disabled": 0, "type": "electric_scooter", "lon": -77.041819, "bike_id": "34eea280b26182cb9a3b6d68f99229ac", "fusion_lat": 0.0, "name": "34eea280b26182cb9a3b6d68f99229ac", "is_reserved": 0, "rental_uris": {"android": "https://dc.lft.to/lastmile_qr_scan", "ios": "https://dc.lft.to/lastmile_qr_scan"}, "fusion_lon": 0.0}, {"lat": 38.87919483333334, "is_disabled": 0, "type": "electric_scooter", "lon": -77.00885866666667, "bike_id": "096d11cb67cd97d82339ddcc9eb878f0", "fusion_lat": 0.0, "name": "096d11cb67cd97d82339ddcc9eb878f0", "is_reserved": 0, "rental_uris": {"android": "https://dc.lft.to/lastmile_qr_scan", "ios": "https://dc.lft.to/lastmile_qr_scan"}, "fusion_lon": 0.0}, {"lat": 38.91823433333333, "is_disabled": 0, "type": "electric_scooter", "lon": -77.0121665, "bike_id": "8e28197e0fcda479198ec5d882f1a67d", "fusion_lat": 0.0, "name": "8e28197e0fcda479198ec5d882f1a67d", "is_reserved": 0, "rental_uris": {"android": "https://dc.lft.to/lastmile_qr_scan", "ios": "https://dc.lft.to/lastmile_qr_scan"}, "fusion_lon": 0.0}, {"lat": 38.884427333333335, "is_disabled": 0, "type": "electric_scooter", "lon": -77.01754933333333, "bike_id": "5d0d3b84b9c2e83b2ad23270b27e9719", "fusion_lat": 0.0, "name": "5d0d3b84b9c2e83b2ad23270b27e9719", "is_reserved": 0, "rental_uris": {"android": "https://dc.lft.to/lastmile_qr_scan", "ios": "https://dc.lft.to/lastmile_qr_scan"}, "fusion_lon": 0.0}, {"lat": 38.87068433333334, "is_disabled": 0, "type": "electric_scooter", "lon": -77.00842583333333, "bike_id": "3f77ff3dfa49f26b2e4524025c361a2d", "fusion_lat": 0.0, "name": "3f77ff3dfa49f26b2e4524025c361a2d", "is_reserved": 0, "rental_uris": {"android": "https://dc.lft.to/lastmile_qr_scan", "ios": "https://dc.lft.to/lastmile_qr_scan"}, "fusion_lon": 0.0}, {"lat": 38.9206445, "is_disabled": 0, "type": "electric_scooter", "lon": -77.02440283333334, "bike_id": "d64190f313136d0d1786ac53e8ea2393", "fusion_lat": 0.0, "name": "d64190f313136d0d1786ac53e8ea2393", "is_reserved": 0, "rental_uris": {"android": "https://dc.lft.to/lastmile_qr_scan", "ios": "https://dc.lft.to/lastmile_qr_scan"}, "fusion_lon": 0.0}, {"lat": 38.90257666666667, "is_disabled": 0, "type": "electric_scooter", "lon": -77.00332583333334, "bike_id": "a2aa6119808e1d505608b80352e9766c", "fusion_lat": 0.0, "name": "a2aa6119808e1d505608b80352e9766c", "is_reserved": 0, "rental_uris": {"android": "https://dc.lft.to/lastmile_qr_scan", "ios": "https://dc.lft.to/lastmile_qr_scan"}, "fusion_lon": 0.0}, {"lat": 38.905265166666666, "is_disabled": 0, "type": "electric_scooter", "lon": -77.02708933333334, "bike_id": "85c9fb7ccccaa2d1605a76d6f4e9cab7", "fusion_lat": 0.0, "name": "85c9fb7ccccaa2d1605a76d6f4e9cab7", "is_reserved": 0, "rental_uris": {"android": "https://dc.lft.to/lastmile_qr_scan", "ios": "https://dc.lft.to/lastmile_qr_scan"}, "fusion_lon": 0.0}, {"lat": 38.9221045, "is_disabled": 0, "type": "electric_scooter", "lon": -77.03289783333334, "bike_id": "f173875a9c131ea45bf1700f74c90e46", "fusion_lat": 0.0, "name": "f173875a9c131ea45bf1700f74c90e46", "is_reserved": 0, "rental_uris": {"android": "https://dc.lft.to/lastmile_qr_scan", "ios": "https://dc.lft.to/lastmile_qr_scan"}, "fusion_lon": 0.0}, {"lat": 38.90250966666667, "is_disabled": 0, "type": "electric_scooter", "lon": -77.01917716666667, "bike_id": "cf607618ce401f10b9d4bcc6256cd196", "fusion_lat": 0.0, "name": "cf607618ce401f10b9d4bcc6256cd196", "is_reserved": 0, "rental_uris": {"android": "https://dc.lft.to/lastmile_qr_scan", "ios": "https://dc.lft.to/lastmile_qr_scan"}, "fusion_lon": 0.0}, {"lat": 38.9609675, "is_disabled": 0, "type": "electric_scooter", "lon": -77.0828675, "bike_id": "c3caa654cdfe114f598d131821124e03", "fusion_lat": 0.0, "name": "c3caa654cdfe114f598d131821124e03", "is_reserved": 0, "rental_uris": {"android": "https://dc.lft.to/lastmile_qr_scan", "ios": "https://dc.lft.to/lastmile_qr_scan"}, "fusion_lon": 0.0}, {"lat": 39.01594983333333, "is_disabled": 0, "type": "electric_bike", "lon": -77.04425566666667, "bike_id": "f9602d6761026aa9cd538487338f6099", "fusion_lat": 0.0, "name": "f9602d6761026aa9cd538487338f6099", "is_reserved": 0, "rental_uris": {"android": "https://dc.lft.to/lastmile_qr_scan", "ios": "https://dc.lft.to/lastmile_qr_scan"}, "fusion_lon": 0.0}, {"lat": 38.91964983333333, "is_disabled": 0, "type": "electric_scooter", "lon": -77.04316216666666, "bike_id": "1c0dc283b41cee9708de8685ad761fd0", "fusion_lat": 0.0, "name": "1c0dc283b41cee9708de8685ad761fd0", "is_reserved": 0, "rental_uris": {"android": "https://dc.lft.to/lastmile_qr_scan", "ios": "https://dc.lft.to/lastmile_qr_scan"}, "fusion_lon": 0.0}, {"lat": 38.891238333333334, "is_disabled": 0, "type": "electric_scooter", "lon": -76.94092133333334, "bike_id": "850f733c212967fa15851669947dc31d", "fusion_lat": 0.0, "name": "850f733c212967fa15851669947dc31d", "is_reserved": 0, "rental_uris": {"android": "https://dc.lft.to/lastmile_qr_scan", "ios": "https://dc.lft.to/lastmile_qr_scan"}, "fusion_lon": 0.0}, {"lat": 38.93654083333333, "is_disabled": 0, "type": "electric_bike", "lon": -77.05592683333333, "bike_id": "8c915678fdfc93899f8b68f4bfefb297", "fusion_lat": 0.0, "name": "8c915678fdfc93899f8b68f4bfefb297", "is_reserved": 0, "rental_uris": {"android": "https://dc.lft.to/lastmile_qr_scan", "ios": "https://dc.lft.to/lastmile_qr_scan"}, "fusion_lon": 0.0}, {"lat": 38.924488833333335, "is_disabled": 0, "type": "electric_scooter", "lon": -77.04198833333334, "bike_id": "cf6c19f1d98a84d6b547795e6930e811", "fusion_lat": 0.0, "name": "cf6c19f1d98a84d6b547795e6930e811", "is_reserved": 0, "rental_uris": {"android": "https://dc.lft.to/lastmile_qr_scan", "ios": "https://dc.lft.to/lastmile_qr_scan"}, "fusion_lon": 0.0}, {"lat": 38.90138233333333, "is_disabled": 0, "type": "electric_scooter", "lon": -77.00072266666666, "bike_id": "8d175287acbaca5f971ca4dcf7c24dd0", "fusion_lat": 0.0, "name": "8d175287acbaca5f971ca4dcf7c24dd0", "is_reserved": 0, "rental_uris": {"android": "https://dc.lft.to/lastmile_qr_scan", "ios": "https://dc.lft.to/lastmile_qr_scan"}, "fusion_lon": 0.0}, {"lat": 39.088557, "is_disabled": 0, "type": "electric_bike", "lon": -77.1784125, "bike_id": "5dad90f9b488a3722cf719e5487c224f", "fusion_lat": 0.0, "name": "5dad90f9b488a3722cf719e5487c224f", "is_reserved": 0, "rental_uris": {"android": "https://dc.lft.to/lastmile_qr_scan", "ios": "https://dc.lft.to/lastmile_qr_scan"}, "fusion_lon": 0.0}, {"lat": 38.917726333333334, "is_disabled": 0, "type": "electric_scooter", "lon": -77.02890866666667, "bike_id": "2b492c0f2acd7f381e4fc2ff9590ea67", "fusion_lat": 0.0, "name": "2b492c0f2acd7f381e4fc2ff9590ea67", "is_reserved": 0, "rental_uris": {"android": "https://dc.lft.to/lastmile_qr_scan", "ios": "https://dc.lft.to/lastmile_qr_scan"}, "fusion_lon": 0.0}, {"lat": 38.901770666666664, "is_disabled": 0, "type": "electric_scooter", "lon": -77.049781, "bike_id": "23ff0d346bb2d42cd4d2dde384267c8b", "fusion_lat": 0.0, "name": "23ff0d346bb2d42cd4d2dde384267c8b", "is_reserved": 0, "rental_uris": {"android": "https://dc.lft.to/lastmile_qr_scan", "ios": "https://dc.lft.to/lastmile_qr_scan"}, "fusion_lon": 0.0}, {"lat": 38.931380833333336, "is_disabled": 0, "type": "electric_scooter", "lon": -77.03257116666667, "bike_id": "c3dd2efc5e43eccc9b96d48058a3b81c", "fusion_lat": 0.0, "name": "c3dd2efc5e43eccc9b96d48058a3b81c", "is_reserved": 0, "rental_uris": {"android": "https://dc.lft.to/lastmile_qr_scan", "ios": "https://dc.lft.to/lastmile_qr_scan"}, "fusion_lon": 0.0}, {"lat": 38.92205166666667, "is_disabled": 0, "type": "electric_scooter", "lon": -76.95660533333333, "bike_id": "e6ab94e6cfaac7698a0481d61ccdcef4", "fusion_lat": 0.0, "name": "e6ab94e6cfaac7698a0481d61ccdcef4", "is_reserved": 0, "rental_uris": {"android": "https://dc.lft.to/lastmile_qr_scan", "ios": "https://dc.lft.to/lastmile_qr_scan"}, "fusion_lon": 0.0}, {"lat": 38.9031565, "is_disabled": 0, "type": "electric_scooter", "lon": -77.02879033333333, "bike_id": "ad9df3f27eeda2d397960de670c8c3d9", "fusion_lat": 0.0, "name": "ad9df3f27eeda2d397960de670c8c3d9", "is_reserved": 0, "rental_uris": {"android": "https://dc.lft.to/lastmile_qr_scan", "ios": "https://dc.lft.to/lastmile_qr_scan"}, "fusion_lon": 0.0}, {"lat": 38.9022805, "is_disabled": 0, "type": "electric_scooter", "lon": -77.04334033333333, "bike_id": "ad602b20c62e0822594fd8f77bffd4b7", "fusion_lat": 0.0, "name": "ad602b20c62e0822594fd8f77bffd4b7", "is_reserved": 0, "rental_uris": {"android": "https://dc.lft.to/lastmile_qr_scan", "ios": "https://dc.lft.to/lastmile_qr_scan"}, "fusion_lon": 0.0}, {"lat": 38.899737333333334, "is_disabled": 0, "type": "electric_scooter", "lon": -77.0230185, "bike_id": "cc419533bb12915b6c188ff2bfbfc34b", "fusion_lat": 0.0, "name": "cc419533bb12915b6c188ff2bfbfc34b", "is_reserved": 0, "rental_uris": {"android": "https://dc.lft.to/lastmile_qr_scan", "ios": "https://dc.lft.to/lastmile_qr_scan"}, "fusion_lon": 0.0}, {"lat": 38.872152, "is_disabled": 0, "type": "electric_bike", "lon": -77.01525333333333, "bike_id": "516cf61459504643770c5ae02fc892e1", "fusion_lat": 0.0, "name": "516cf61459504643770c5ae02fc892e1", "is_reserved": 0, "rental_uris": {"android": "https://dc.lft.to/lastmile_qr_scan", "ios": "https://dc.lft.to/lastmile_qr_scan"}, "fusion_lon": 0.0}, {"lat": 38.928566833333335, "is_disabled": 0, "type": "electric_bike", "lon": -77.22198783333333, "bike_id": "2b44fc83653f025382dc04ced565bd73", "fusion_lat": 0.0, "name": "2b44fc83653f025382dc04ced565bd73", "is_reserved": 0, "rental_uris": {"android": "https://dc.lft.to/lastmile_qr_scan", "ios": "https://dc.lft.to/lastmile_qr_scan"}, "fusion_lon": 0.0}, {"lat": 38.965547666666666, "is_disabled": 0, "type": "electric_bike", "lon": -77.020419, "bike_id": "174bee21f32d2062119c9cc01c29a48e", "fusion_lat": 0.0, "name": "174bee21f32d2062119c9cc01c29a48e", "is_reserved": 0, "rental_uris": {"android": "https://dc.lft.to/lastmile_qr_scan", "ios": "https://dc.lft.to/lastmile_qr_scan"}, "fusion_lon": 0.0}, {"lat": 38.922572833333334, "is_disabled": 0, "type": "electric_scooter", "lon": -77.04279883333334, "bike_id": "fb9117b755754304c8862bd61fa426bf", "fusion_lat": 0.0, "name": "fb9117b755754304c8862bd61fa426bf", "is_reserved": 0, "rental_uris": {"android": "https://dc.lft.to/lastmile_qr_scan", "ios": "https://dc.lft.to/lastmile_qr_scan"}, "fusion_lon": 0.0}, {"lat": 38.90531083333333, "is_disabled": 0, "type": "electric_scooter", "lon": -77.04873166666667, "bike_id": "8ab2f6cf3c82ea7fa2bdf2d4f0a53e0b", "fusion_lat": 0.0, "name": "8ab2f6cf3c82ea7fa2bdf2d4f0a53e0b", "is_reserved": 0, "rental_uris": {"android": "https://dc.lft.to/lastmile_qr_scan", "ios": "https://dc.lft.to/lastmile_qr_scan"}, "fusion_lon": 0.0}, {"lat": 38.900134666666666, "is_disabled": 0, "type": "electric_scooter", "lon": -77.0120045, "bike_id": "5003760699a70500a7d8f122481ccaa5", "fusion_lat": 0.0, "name": "5003760699a70500a7d8f122481ccaa5", "is_reserved": 0, "rental_uris": {"android": "https://dc.lft.to/lastmile_qr_scan", "ios": "https://dc.lft.to/lastmile_qr_scan"}, "fusion_lon": 0.0}, {"lat": 38.90085216666667, "is_disabled": 0, "type": "electric_scooter", "lon": -77.05074633333334, "bike_id": "fa9d1c17b17107ec04df672ae4ae444a", "fusion_lat": 0.0, "name": "fa9d1c17b17107ec04df672ae4ae444a", "is_reserved": 0, "rental_uris": {"android": "https://dc.lft.to/lastmile_qr_scan", "ios": "https://dc.lft.to/lastmile_qr_scan"}, "fusion_lon": 0.0}, {"lat": 38.884725833333334, "is_disabled": 0, "type": "electric_scooter", "lon": -77.0240655, "bike_id": "0b318dc116557cb3d3e9b131664bdf5a", "fusion_lat": 0.0, "name": "0b318dc116557cb3d3e9b131664bdf5a", "is_reserved": 0, "rental_uris": {"android": "https://dc.lft.to/lastmile_qr_scan", "ios": "https://dc.lft.to/lastmile_qr_scan"}, "fusion_lon": 0.0}, {"lat": 38.86508533333333, "is_disabled": 0, "type": "electric_scooter", "lon": -76.99009816666667, "bike_id": "f00c284970f04ab92c9395cf1a1fa96e", "fusion_lat": 0.0, "name": "f00c284970f04ab92c9395cf1a1fa96e", "is_reserved": 0, "rental_uris": {"android": "https://dc.lft.to/lastmile_qr_scan", "ios": "https://dc.lft.to/lastmile_qr_scan"}, "fusion_lon": 0.0}, {"lat": 38.94920316666666, "is_disabled": 0, "type": "electric_bike", "lon": -77.007964, "bike_id": "f4924746773b59779a06f44197c6dc2b", "fusion_lat": 0.0, "name": "f4924746773b59779a06f44197c6dc2b", "is_reserved": 0, "rental_uris": {"android": "https://dc.lft.to/lastmile_qr_scan", "ios": "https://dc.lft.to/lastmile_qr_scan"}, "fusion_lon": 0.0}, {"lat": 38.925074333333335, "is_disabled": 0, "type": "electric_scooter", "lon": -76.98231433333333, "bike_id": "8943b423f296bdf642bae1809e5173e4", "fusion_lat": 0.0, "name": "8943b423f296bdf642bae1809e5173e4", "is_reserved": 0, "rental_uris": {"android": "https://dc.lft.to/lastmile_qr_scan", "ios": "https://dc.lft.to/lastmile_qr_scan"}, "fusion_lon": 0.0}, {"lat": 38.881161666666664, "is_disabled": 0, "type": "electric_scooter", "lon": -77.01651933333333, "bike_id": "ec7cdc0d80af99a2a9b7cec15bcf2cbf", "fusion_lat": 0.0, "name": "ec7cdc0d80af99a2a9b7cec15bcf2cbf", "is_reserved": 0, "rental_uris": {"android": "https://dc.lft.to/lastmile_qr_scan", "ios": "https://dc.lft.to/lastmile_qr_scan"}, "fusion_lon": 0.0}, {"lat": 38.867152, "is_disabled": 0, "type": "electric_scooter", "lon": -76.98725933333333, "bike_id": "d3f90e455c0168be44fb41352d127cd9", "fusion_lat": 0.0, "name": "d3f90e455c0168be44fb41352d127cd9", "is_reserved": 0, "rental_uris": {"android": "https://dc.lft.to/lastmile_qr_scan", "ios": "https://dc.lft.to/lastmile_qr_scan"}, "fusion_lon": 0.0}, {"lat": 38.913976, "is_disabled": 0, "type": "electric_scooter", "lon": -77.02603766666667, "bike_id": "bb330c757dd93c3e387757dfc21f243f", "fusion_lat": 0.0, "name": "bb330c757dd93c3e387757dfc21f243f", "is_reserved": 0, "rental_uris": {"android": "https://dc.lft.to/lastmile_qr_scan", "ios": "https://dc.lft.to/lastmile_qr_scan"}, "fusion_lon": 0.0}, {"lat": 38.89849916666667, "is_disabled": 0, "type": "electric_scooter", "lon": -76.98181516666666, "bike_id": "19a43dd1e5fc956a3466fb7c151e08b1", "fusion_lat": 0.0, "name": "19a43dd1e5fc956a3466fb7c151e08b1", "is_reserved": 0, "rental_uris": {"android": "https://dc.lft.to/lastmile_qr_scan", "ios": "https://dc.lft.to/lastmile_qr_scan"}, "fusion_lon": 0.0}, {"lat": 38.92606716666667, "is_disabled": 0, "type": "electric_scooter", "lon": -77.056905, "bike_id": "494d2b1e093f3c412664e2445d12023a", "fusion_lat": 0.0, "name": "494d2b1e093f3c412664e2445d12023a", "is_reserved": 0, "rental_uris": {"android": "https://dc.lft.to/lastmile_qr_scan", "ios": "https://dc.lft.to/lastmile_qr_scan"}, "fusion_lon": 0.0}, {"lat": 38.9373935, "is_disabled": 0, "type": "electric_scooter", "lon": -77.03472716666667, "bike_id": "86e38e3029941de35cb354845ce2ec3b", "fusion_lat": 0.0, "name": "86e38e3029941de35cb354845ce2ec3b", "is_reserved": 0, "rental_uris": {"android": "https://dc.lft.to/lastmile_qr_scan", "ios": "https://dc.lft.to/lastmile_qr_scan"}, "fusion_lon": 0.0}, {"lat": 38.954045666666666, "is_disabled": 0, "type": "electric_scooter", "lon": -77.027455, "bike_id": "b71d9acbb4f3469be1f25833ae5f6263", "fusion_lat": 0.0, "name": "b71d9acbb4f3469be1f25833ae5f6263", "is_reserved": 0, "rental_uris": {"android": "https://dc.lft.to/lastmile_qr_scan", "ios": "https://dc.lft.to/lastmile_qr_scan"}, "fusion_lon": 0.0}, {"lat": 38.921827, "is_disabled": 0, "type": "electric_scooter", "lon": -77.04709416666667, "bike_id": "713105bd6ba9d9667419939891501897", "fusion_lat": 0.0, "name": "713105bd6ba9d9667419939891501897", "is_reserved": 0, "rental_uris": {"android": "https://dc.lft.to/lastmile_qr_scan", "ios": "https://dc.lft.to/lastmile_qr_scan"}, "fusion_lon": 0.0}, {"lat": 38.8857605, "is_disabled": 0, "type": "electric_scooter", "lon": -76.91909866666667, "bike_id": "6a1a9bc49fd480c978331c8f5f45d20b", "fusion_lat": 0.0, "name": "6a1a9bc49fd480c978331c8f5f45d20b", "is_reserved": 0, "rental_uris": {"android": "https://dc.lft.to/lastmile_qr_scan", "ios": "https://dc.lft.to/lastmile_qr_scan"}, "fusion_lon": 0.0}, {"lat": 38.922481166666664, "is_disabled": 0, "type": "electric_scooter", "lon": -77.030861, "bike_id": "4b669b673c2e61d7e90de93914f8bf02", "fusion_lat": 0.0, "name": "4b669b673c2e61d7e90de93914f8bf02", "is_reserved": 0, "rental_uris": {"android": "https://dc.lft.to/lastmile_qr_scan", "ios": "https://dc.lft.to/lastmile_qr_scan"}, "fusion_lon": 0.0}, {"lat": 38.927366666666664, "is_disabled": 0, "type": "electric_scooter", "lon": -77.025899, "bike_id": "ea2580efcb818e72015f570a4a0020cd", "fusion_lat": 0.0, "name": "ea2580efcb818e72015f570a4a0020cd", "is_reserved": 0, "rental_uris": {"android": "https://dc.lft.to/lastmile_qr_scan", "ios": "https://dc.lft.to/lastmile_qr_scan"}, "fusion_lon": 0.0}, {"lat": 38.92086583333333, "is_disabled": 0, "type": "electric_scooter", "lon": -77.041974, "bike_id": "6c782e13427d1b22da0d6574390d740f", "fusion_lat": 0.0, "name": "6c782e13427d1b22da0d6574390d740f", "is_reserved": 0, "rental_uris": {"android": "https://dc.lft.to/lastmile_qr_scan", "ios": "https://dc.lft.to/lastmile_qr_scan"}, "fusion_lon": 0.0}, {"lat": 38.933203666666664, "is_disabled": 0, "type": "electric_scooter", "lon": -77.04375566666667, "bike_id": "ccb0914cf108afd22679506e7dfb3766", "fusion_lat": 0.0, "name": "ccb0914cf108afd22679506e7dfb3766", "is_reserved": 0, "rental_uris": {"android": "https://dc.lft.to/lastmile_qr_scan", "ios": "https://dc.lft.to/lastmile_qr_scan"}, "fusion_lon": 0.0}, {"lat": 38.89853566666667, "is_disabled": 0, "type": "electric_scooter", "lon": -77.03029216666667, "bike_id": "875d3ab9dfe9a88457d6989e8526ad4c", "fusion_lat": 0.0, "name": "875d3ab9dfe9a88457d6989e8526ad4c", "is_reserved": 0, "rental_uris": {"android": "https://dc.lft.to/lastmile_qr_scan", "ios": "https://dc.lft.to/lastmile_qr_scan"}, "fusion_lon": 0.0}, {"lat": 38.9172295, "is_disabled": 0, "type": "electric_scooter", "lon": -77.04583783333334, "bike_id": "028c41df45d8e1c4bd3ae1a4f5f95ebe", "fusion_lat": 0.0, "name": "028c41df45d8e1c4bd3ae1a4f5f95ebe", "is_reserved": 0, "rental_uris": {"android": "https://dc.lft.to/lastmile_qr_scan", "ios": "https://dc.lft.to/lastmile_qr_scan"}, "fusion_lon": 0.0}, {"lat": 38.85571216666666, "is_disabled": 0, "type": "electric_bike", "lon": -77.11142766666667, "bike_id": "8914b07ec72ce98e0c96b2397bc35c81", "fusion_lat": 0.0, "name": "8914b07ec72ce98e0c96b2397bc35c81", "is_reserved": 0, "rental_uris": {"android": "https://dc.lft.to/lastmile_qr_scan", "ios": "https://dc.lft.to/lastmile_qr_scan"}, "fusion_lon": 0.0}, {"lat": 38.91958316666667, "is_disabled": 0, "type": "electric_scooter", "lon": -76.98082833333333, "bike_id": "683ab8e895cf0d461ea5e2aba4babb07", "fusion_lat": 0.0, "name": "683ab8e895cf0d461ea5e2aba4babb07", "is_reserved": 0, "rental_uris": {"android": "https://dc.lft.to/lastmile_qr_scan", "ios": "https://dc.lft.to/lastmile_qr_scan"}, "fusion_lon": 0.0}, {"lat": 38.90259733333333, "is_disabled": 0, "type": "electric_scooter", "lon": -77.02822816666666, "bike_id": "d260e4d3dc4af611fdf9bf4f6ca77a3e", "fusion_lat": 0.0, "name": "d260e4d3dc4af611fdf9bf4f6ca77a3e", "is_reserved": 0, "rental_uris": {"android": "https://dc.lft.to/lastmile_qr_scan", "ios": "https://dc.lft.to/lastmile_qr_scan"}, "fusion_lon": 0.0}, {"lat": 38.902986, "is_disabled": 0, "type": "electric_scooter", "lon": -77.03316583333333, "bike_id": "d6bdc0fbcf7a22a6c6c3da99f265ffc3", "fusion_lat": 0.0, "name": "d6bdc0fbcf7a22a6c6c3da99f265ffc3", "is_reserved": 0, "rental_uris": {"android": "https://dc.lft.to/lastmile_qr_scan", "ios": "https://dc.lft.to/lastmile_qr_scan"}, "fusion_lon": 0.0}, {"lat": 38.9533625, "is_disabled": 0, "type": "electric_bike", "lon": -76.9736525, "bike_id": "fb8ee3af34edbdd77b66ba6bae2d913c", "fusion_lat": 0.0, "name": "fb8ee3af34edbdd77b66ba6bae2d913c", "is_reserved": 0, "rental_uris": {"android": "https://dc.lft.to/lastmile_qr_scan", "ios": "https://dc.lft.to/lastmile_qr_scan"}, "fusion_lon": 0.0}, {"lat": 38.933666833333334, "is_disabled": 0, "type": "electric_scooter", "lon": -77.02385533333333, "bike_id": "dcd99ecdaca9c99c596d7a5b64d4c414", "fusion_lat": 0.0, "name": "dcd99ecdaca9c99c596d7a5b64d4c414", "is_reserved": 0, "rental_uris": {"android": "https://dc.lft.to/lastmile_qr_scan", "ios": "https://dc.lft.to/lastmile_qr_scan"}, "fusion_lon": 0.0}, {"lat": 38.925883, "is_disabled": 0, "type": "electric_scooter", "lon": -77.02835566666667, "bike_id": "76b49af45f1b5a335816c5289548ad6a", "fusion_lat": 0.0, "name": "76b49af45f1b5a335816c5289548ad6a", "is_reserved": 0, "rental_uris": {"android": "https://dc.lft.to/lastmile_qr_scan", "ios": "https://dc.lft.to/lastmile_qr_scan"}, "fusion_lon": 0.0}, {"lat": 39.000175166666665, "is_disabled": 0, "type": "electric_bike", "lon": -76.91081766666667, "bike_id": "551be523a89c541309cf449a974975ee", "fusion_lat": 0.0, "name": "551be523a89c541309cf449a974975ee", "is_reserved": 0, "rental_uris": {"android": "https://dc.lft.to/lastmile_qr_scan", "ios": "https://dc.lft.to/lastmile_qr_scan"}, "fusion_lon": 0.0}, {"lat": 38.8655235, "is_disabled": 0, "type": "electric_scooter", "lon": -76.97421816666667, "bike_id": "82b4a56b12cc90b6d431921031e2acbe", "fusion_lat": 0.0, "name": "82b4a56b12cc90b6d431921031e2acbe", "is_reserved": 0, "rental_uris": {"android": "https://dc.lft.to/lastmile_qr_scan", "ios": "https://dc.lft.to/lastmile_qr_scan"}, "fusion_lon": 0.0}, {"lat": 38.932969666666665, "is_disabled": 0, "type": "electric_scooter", "lon": -77.028432, "bike_id": "c3d4db7d79b93326454196d9d9f5f240", "fusion_lat": 0.0, "name": "c3d4db7d79b93326454196d9d9f5f240", "is_reserved": 0, "rental_uris": {"android": "https://dc.lft.to/lastmile_qr_scan", "ios": "https://dc.lft.to/lastmile_qr_scan"}, "fusion_lon": 0.0}, {"lat": 38.9009315, "is_disabled": 0, "type": "electric_scooter", "lon": -77.04909416666666, "bike_id": "ce8688b837cfcdf5f71f838c059a4fcb", "fusion_lat": 0.0, "name": "ce8688b837cfcdf5f71f838c059a4fcb", "is_reserved": 0, "rental_uris": {"android": "https://dc.lft.to/lastmile_qr_scan", "ios": "https://dc.lft.to/lastmile_qr_scan"}, "fusion_lon": 0.0}, {"lat": 38.863891833333334, "is_disabled": 0, "type": "electric_bike", "lon": -76.98990733333333, "bike_id": "f1bd2a91e74a087dcbc1c41f3c601f94", "fusion_lat": 0.0, "name": "f1bd2a91e74a087dcbc1c41f3c601f94", "is_reserved": 0, "rental_uris": {"android": "https://dc.lft.to/lastmile_qr_scan", "ios": "https://dc.lft.to/lastmile_qr_scan"}, "fusion_lon": 0.0}, {"lat": 38.92795, "is_disabled": 0, "type": "electric_scooter", "lon": -77.055203, "bike_id": "cf13f11276405918728d7deb394326f0", "fusion_lat": 0.0, "name": "cf13f11276405918728d7deb394326f0", "is_reserved": 0, "rental_uris": {"android": "https://dc.lft.to/lastmile_qr_scan", "ios": "https://dc.lft.to/lastmile_qr_scan"}, "fusion_lon": 0.0}, {"lat": 38.93876616666667, "is_disabled": 0, "type": "electric_scooter", "lon": -77.02008616666667, "bike_id": "61dc92a05d32910d8052caeaf707d723", "fusion_lat": 0.0, "name": "61dc92a05d32910d8052caeaf707d723", "is_reserved": 0, "rental_uris": {"android": "https://dc.lft.to/lastmile_qr_scan", "ios": "https://dc.lft.to/lastmile_qr_scan"}, "fusion_lon": 0.0}, {"lat": 38.936317833333334, "is_disabled": 0, "type": "electric_scooter", "lon": -77.0249975, "bike_id": "1ece1f6a4c6331d1895045860c360077", "fusion_lat": 0.0, "name": "1ece1f6a4c6331d1895045860c360077", "is_reserved": 0, "rental_uris": {"android": "https://dc.lft.to/lastmile_qr_scan", "ios": "https://dc.lft.to/lastmile_qr_scan"}, "fusion_lon": 0.0}, {"lat": 38.9080375, "is_disabled": 0, "type": "electric_scooter", "lon": -77.0636535, "bike_id": "498884fb224db98c218e378217a391b5", "fusion_lat": 0.0, "name": "498884fb224db98c218e378217a391b5", "is_reserved": 0, "rental_uris": {"android": "https://dc.lft.to/lastmile_qr_scan", "ios": "https://dc.lft.to/lastmile_qr_scan"}, "fusion_lon": 0.0}, {"lat": 38.884895, "is_disabled": 0, "type": "electric_scooter", "lon": -77.03474733333333, "bike_id": "147cc8d921a7edff08069bcd704c05ba", "fusion_lat": 0.0, "name": "147cc8d921a7edff08069bcd704c05ba", "is_reserved": 0, "rental_uris": {"android": "https://dc.lft.to/lastmile_qr_scan", "ios": "https://dc.lft.to/lastmile_qr_scan"}, "fusion_lon": 0.0}, {"lat": 38.92528883333333, "is_disabled": 0, "type": "electric_scooter", "lon": -77.04423183333333, "bike_id": "b461a829afe6a800fc0978b6bd2c443e", "fusion_lat": 0.0, "name": "b461a829afe6a800fc0978b6bd2c443e", "is_reserved": 0, "rental_uris": {"android": "https://dc.lft.to/lastmile_qr_scan", "ios": "https://dc.lft.to/lastmile_qr_scan"}, "fusion_lon": 0.0}, {"lat": 38.9003565, "is_disabled": 0, "type": "electric_scooter", "lon": -76.99379683333333, "bike_id": "75d3adac6a118e13129ae11455eeaa83", "fusion_lat": 0.0, "name": "75d3adac6a118e13129ae11455eeaa83", "is_reserved": 0, "rental_uris": {"android": "https://dc.lft.to/lastmile_qr_scan", "ios": "https://dc.lft.to/lastmile_qr_scan"}, "fusion_lon": 0.0}, {"lat": 38.914884, "is_disabled": 0, "type": "electric_scooter", "lon": -77.03264266666666, "bike_id": "0c3d686cfdbdedef4bfb5778b6697ffd", "fusion_lat": 0.0, "name": "0c3d686cfdbdedef4bfb5778b6697ffd", "is_reserved": 0, "rental_uris": {"android": "https://dc.lft.to/lastmile_qr_scan", "ios": "https://dc.lft.to/lastmile_qr_scan"}, "fusion_lon": 0.0}, {"lat": 38.92851133333333, "is_disabled": 0, "type": "electric_bike", "lon": -77.1067835, "bike_id": "84421d8044d25e199c6fdfc8973dc175", "fusion_lat": 0.0, "name": "84421d8044d25e199c6fdfc8973dc175", "is_reserved": 0, "rental_uris": {"android": "https://dc.lft.to/lastmile_qr_scan", "ios": "https://dc.lft.to/lastmile_qr_scan"}, "fusion_lon": 0.0}, {"lat": 38.935429166666665, "is_disabled": 0, "type": "electric_scooter", "lon": -77.03417633333333, "bike_id": "02ff606cdbe9cad244d97396bd9adc91", "fusion_lat": 0.0, "name": "02ff606cdbe9cad244d97396bd9adc91", "is_reserved": 0, "rental_uris": {"android": "https://dc.lft.to/lastmile_qr_scan", "ios": "https://dc.lft.to/lastmile_qr_scan"}, "fusion_lon": 0.0}, {"lat": 38.947024666666664, "is_disabled": 0, "type": "electric_scooter", "lon": -77.01938033333333, "bike_id": "b12823e43775c5c9fecae6ec2340e45e", "fusion_lat": 0.0, "name": "b12823e43775c5c9fecae6ec2340e45e", "is_reserved": 0, "rental_uris": {"android": "https://dc.lft.to/lastmile_qr_scan", "ios": "https://dc.lft.to/lastmile_qr_scan"}, "fusion_lon": 0.0}, {"lat": 38.92190333333333, "is_disabled": 0, "type": "electric_scooter", "lon": -77.04133533333334, "bike_id": "a9d2a19b3973dc10459c423488d93d97", "fusion_lat": 0.0, "name": "a9d2a19b3973dc10459c423488d93d97", "is_reserved": 0, "rental_uris": {"android": "https://dc.lft.to/lastmile_qr_scan", "ios": "https://dc.lft.to/lastmile_qr_scan"}, "fusion_lon": 0.0}, {"lat": 38.80744933333333, "is_disabled": 0, "type": "electric_bike", "lon": -77.09432133333334, "bike_id": "8e79982baadf7c2fcc473138430402e1", "fusion_lat": 0.0, "name": "8e79982baadf7c2fcc473138430402e1", "is_reserved": 0, "rental_uris": {"android": "https://dc.lft.to/lastmile_qr_scan", "ios": "https://dc.lft.to/lastmile_qr_scan"}, "fusion_lon": 0.0}, {"lat": 38.873385, "is_disabled": 0, "type": "electric_bike", "lon": -77.01854533333334, "bike_id": "8c987aeb488ad0b50e0825b0b1564408", "fusion_lat": 0.0, "name": "8c987aeb488ad0b50e0825b0b1564408", "is_reserved": 0, "rental_uris": {"android": "https://dc.lft.to/lastmile_qr_scan", "ios": "https://dc.lft.to/lastmile_qr_scan"}, "fusion_lon": 0.0}, {"lat": 38.88779433333333, "is_disabled": 0, "type": "electric_scooter", "lon": -77.04361983333334, "bike_id": "8fd7e49c422f1dde161d438dc5ed0681", "fusion_lat": 0.0, "name": "8fd7e49c422f1dde161d438dc5ed0681", "is_reserved": 0, "rental_uris": {"android": "https://dc.lft.to/lastmile_qr_scan", "ios": "https://dc.lft.to/lastmile_qr_scan"}, "fusion_lon": 0.0}, {"lat": 38.899904666666664, "is_disabled": 0, "type": "electric_scooter", "lon": -77.021181, "bike_id": "11bdc6222d5485ea27bee271efadcef9", "fusion_lat": 0.0, "name": "11bdc6222d5485ea27bee271efadcef9", "is_reserved": 0, "rental_uris": {"android": "https://dc.lft.to/lastmile_qr_scan", "ios": "https://dc.lft.to/lastmile_qr_scan"}, "fusion_lon": 0.0}, {"lat": 38.9025905, "is_disabled": 0, "type": "electric_scooter", "lon": -76.98695683333334, "bike_id": "c6bccb4347309a34eb740a77823fab91", "fusion_lat": 0.0, "name": "c6bccb4347309a34eb740a77823fab91", "is_reserved": 0, "rental_uris": {"android": "https://dc.lft.to/lastmile_qr_scan", "ios": "https://dc.lft.to/lastmile_qr_scan"}, "fusion_lon": 0.0}, {"lat": 38.90973866666667, "is_disabled": 0, "type": "electric_scooter", "lon": -77.0270515, "bike_id": "be89ab0b336484ade4ec9df4099da9d1", "fusion_lat": 0.0, "name": "be89ab0b336484ade4ec9df4099da9d1", "is_reserved": 0, "rental_uris": {"android": "https://dc.lft.to/lastmile_qr_scan", "ios": "https://dc.lft.to/lastmile_qr_scan"}, "fusion_lon": 0.0}, {"lat": 38.89993366666667, "is_disabled": 0, "type": "electric_scooter", "lon": -77.05259083333333, "bike_id": "94373648f9ddd051b586120ec1c50808", "fusion_lat": 0.0, "name": "94373648f9ddd051b586120ec1c50808", "is_reserved": 0, "rental_uris": {"android": "https://dc.lft.to/lastmile_qr_scan", "ios": "https://dc.lft.to/lastmile_qr_scan"}, "fusion_lon": 0.0}, {"lat": 38.9041555, "is_disabled": 0, "type": "electric_scooter", "lon": -76.99283133333333, "bike_id": "08a0da399009cecd6b98d2e059c418a4", "fusion_lat": 0.0, "name": "08a0da399009cecd6b98d2e059c418a4", "is_reserved": 0, "rental_uris": {"android": "https://dc.lft.to/lastmile_qr_scan", "ios": "https://dc.lft.to/lastmile_qr_scan"}, "fusion_lon": 0.0}, {"lat": 38.99329433333333, "is_disabled": 0, "type": "electric_bike", "lon": -77.03294, "bike_id": "172fea2196674a6ea652d0eed6d4cd7a", "fusion_lat": 0.0, "name": "172fea2196674a6ea652d0eed6d4cd7a", "is_reserved": 0, "rental_uris": {"android": "https://dc.lft.to/lastmile_qr_scan", "ios": "https://dc.lft.to/lastmile_qr_scan"}, "fusion_lon": 0.0}, {"lat": 38.83213833333333, "is_disabled": 0, "type": "electric_bike", "lon": -76.94618233333334, "bike_id": "28f52beed2c3ae8dd0a65d96411535b6", "fusion_lat": 0.0, "name": "28f52beed2c3ae8dd0a65d96411535b6", "is_reserved": 0, "rental_uris": {"android": "https://dc.lft.to/lastmile_qr_scan", "ios": "https://dc.lft.to/lastmile_qr_scan"}, "fusion_lon": 0.0}, {"lat": 38.934399, "is_disabled": 0, "type": "electric_scooter", "lon": -77.0345455, "bike_id": "f60a9aea80ecb7deb5d03129ec62af63", "fusion_lat": 0.0, "name": "f60a9aea80ecb7deb5d03129ec62af63", "is_reserved": 0, "rental_uris": {"android": "https://dc.lft.to/lastmile_qr_scan", "ios": "https://dc.lft.to/lastmile_qr_scan"}, "fusion_lon": 0.0}, {"lat": 38.8667595, "is_disabled": 0, "type": "electric_scooter", "lon": -76.9853965, "bike_id": "5b93c7bbb23064f466744ebf290162b1", "fusion_lat": 0.0, "name": "5b93c7bbb23064f466744ebf290162b1", "is_reserved": 0, "rental_uris": {"android": "https://dc.lft.to/lastmile_qr_scan", "ios": "https://dc.lft.to/lastmile_qr_scan"}, "fusion_lon": 0.0}, {"lat": 38.86211566666667, "is_disabled": 0, "type": "electric_bike", "lon": -76.9977755, "bike_id": "117678a98d55a330f0499ce932a4f1e4", "fusion_lat": 0.0, "name": "117678a98d55a330f0499ce932a4f1e4", "is_reserved": 0, "rental_uris": {"android": "https://dc.lft.to/lastmile_qr_scan", "ios": "https://dc.lft.to/lastmile_qr_scan"}, "fusion_lon": 0.0}, {"lat": 38.917682666666664, "is_disabled": 0, "type": "electric_scooter", "lon": -77.0231005, "bike_id": "32c1e3f6f7188a076704f788a34ccb35", "fusion_lat": 0.0, "name": "32c1e3f6f7188a076704f788a34ccb35", "is_reserved": 0, "rental_uris": {"android": "https://dc.lft.to/lastmile_qr_scan", "ios": "https://dc.lft.to/lastmile_qr_scan"}, "fusion_lon": 0.0}, {"lat": 38.870650833333336, "is_disabled": 0, "type": "electric_scooter", "lon": -77.00838683333333, "bike_id": "d0099c013cc3c34407dbb200bde71239", "fusion_lat": 0.0, "name": "d0099c013cc3c34407dbb200bde71239", "is_reserved": 0, "rental_uris": {"android": "https://dc.lft.to/lastmile_qr_scan", "ios": "https://dc.lft.to/lastmile_qr_scan"}, "fusion_lon": 0.0}, {"lat": 38.92046766666667, "is_disabled": 0, "type": "electric_bike", "lon": -77.03478266666667, "bike_id": "9a6df942d7f003c65cfe81347a63e30e", "fusion_lat": 0.0, "name": "9a6df942d7f003c65cfe81347a63e30e", "is_reserved": 0, "rental_uris": {"android": "https://dc.lft.to/lastmile_qr_scan", "ios": "https://dc.lft.to/lastmile_qr_scan"}, "fusion_lon": 0.0}, {"lat": 38.911873166666666, "is_disabled": 0, "type": "electric_scooter", "lon": -77.0430545, "bike_id": "d2fa354eda2dfcd179f50f66f6781cd0", "fusion_lat": 0.0, "name": "d2fa354eda2dfcd179f50f66f6781cd0", "is_reserved": 0, "rental_uris": {"android": "https://dc.lft.to/lastmile_qr_scan", "ios": "https://dc.lft.to/lastmile_qr_scan"}, "fusion_lon": 0.0}, {"lat": 38.890452333333336, "is_disabled": 0, "type": "electric_scooter", "lon": -76.95249783333334, "bike_id": "20b7ff2b52f2a09cdc68fdf63c56179d", "fusion_lat": 0.0, "name": "20b7ff2b52f2a09cdc68fdf63c56179d", "is_reserved": 0, "rental_uris": {"android": "https://dc.lft.to/lastmile_qr_scan", "ios": "https://dc.lft.to/lastmile_qr_scan"}, "fusion_lon": 0.0}, {"lat": 38.932097666666664, "is_disabled": 0, "type": "electric_scooter", "lon": -77.02249233333333, "bike_id": "4e5a342da5a735007e6aa2ccefec21b1", "fusion_lat": 0.0, "name": "4e5a342da5a735007e6aa2ccefec21b1", "is_reserved": 0, "rental_uris": {"android": "https://dc.lft.to/lastmile_qr_scan", "ios": "https://dc.lft.to/lastmile_qr_scan"}, "fusion_lon": 0.0}, {"lat": 38.925492, "is_disabled": 0, "type": "electric_scooter", "lon": -77.03342816666667, "bike_id": "80059c208a19c0cd45659f80adb2d572", "fusion_lat": 0.0, "name": "80059c208a19c0cd45659f80adb2d572", "is_reserved": 0, "rental_uris": {"android": "https://dc.lft.to/lastmile_qr_scan", "ios": "https://dc.lft.to/lastmile_qr_scan"}, "fusion_lon": 0.0}, {"lat": 38.919604166666666, "is_disabled": 0, "type": "electric_scooter", "lon": -77.01214333333333, "bike_id": "ba0b6641a97a1e272b2d14daa75ceeda", "fusion_lat": 0.0, "name": "ba0b6641a97a1e272b2d14daa75ceeda", "is_reserved": 0, "rental_uris": {"android": "https://dc.lft.to/lastmile_qr_scan", "ios": "https://dc.lft.to/lastmile_qr_scan"}, "fusion_lon": 0.0}, {"lat": 39.05636616666666, "is_disabled": 0, "type": "electric_bike", "lon": -77.12526283333334, "bike_id": "da5c0b7d4d99e92aa461f3861de2afa9", "fusion_lat": 0.0, "name": "da5c0b7d4d99e92aa461f3861de2afa9", "is_reserved": 0, "rental_uris": {"android": "https://dc.lft.to/lastmile_qr_scan", "ios": "https://dc.lft.to/lastmile_qr_scan"}, "fusion_lon": 0.0}, {"lat": 38.898159, "is_disabled": 0, "type": "electric_scooter", "lon": -76.99692733333333, "bike_id": "51f5baa2e60cc80d28ad7747aeab99b2", "fusion_lat": 0.0, "name": "51f5baa2e60cc80d28ad7747aeab99b2", "is_reserved": 0, "rental_uris": {"android": "https://dc.lft.to/lastmile_qr_scan", "ios": "https://dc.lft.to/lastmile_qr_scan"}, "fusion_lon": 0.0}, {"lat": 38.9247555, "is_disabled": 0, "type": "electric_scooter", "lon": -77.02838216666666, "bike_id": "6fa0e167bec6f2a8af23b4fb38d7651a", "fusion_lat": 0.0, "name": "6fa0e167bec6f2a8af23b4fb38d7651a", "is_reserved": 0, "rental_uris": {"android": "https://dc.lft.to/lastmile_qr_scan", "ios": "https://dc.lft.to/lastmile_qr_scan"}, "fusion_lon": 0.0}, {"lat": 38.90831566666667, "is_disabled": 0, "type": "electric_scooter", "lon": -77.00210366666667, "bike_id": "a0f12fdcc3e8cdc64c15171bd473776a", "fusion_lat": 0.0, "name": "a0f12fdcc3e8cdc64c15171bd473776a", "is_reserved": 0, "rental_uris": {"android": "https://dc.lft.to/lastmile_qr_scan", "ios": "https://dc.lft.to/lastmile_qr_scan"}, "fusion_lon": 0.0}, {"lat": 38.884075, "is_disabled": 0, "type": "electric_bike", "lon": -76.95422783333333, "bike_id": "136e6f973bf63f5fe0122dc58592d791", "fusion_lat": 0.0, "name": "136e6f973bf63f5fe0122dc58592d791", "is_reserved": 0, "rental_uris": {"android": "https://dc.lft.to/lastmile_qr_scan", "ios": "https://dc.lft.to/lastmile_qr_scan"}, "fusion_lon": 0.0}, {"lat": 38.93175816666667, "is_disabled": 0, "type": "electric_scooter", "lon": -77.02816483333334, "bike_id": "febbd96333e1924a7bd38fe253c44d53", "fusion_lat": 0.0, "name": "febbd96333e1924a7bd38fe253c44d53", "is_reserved": 0, "rental_uris": {"android": "https://dc.lft.to/lastmile_qr_scan", "ios": "https://dc.lft.to/lastmile_qr_scan"}, "fusion_lon": 0.0}, {"lat": 38.8873965, "is_disabled": 0, "type": "electric_scooter", "lon": -77.01536466666667, "bike_id": "8a800431699aef1257a870aabcbff0b6", "fusion_lat": 0.0, "name": "8a800431699aef1257a870aabcbff0b6", "is_reserved": 0, "rental_uris": {"android": "https://dc.lft.to/lastmile_qr_scan", "ios": "https://dc.lft.to/lastmile_qr_scan"}, "fusion_lon": 0.0}, {"lat": 38.8888875, "is_disabled": 0, "type": "electric_scooter", "lon": -76.9315465, "bike_id": "5ec4c58588e0fa03af7f6697baa695c4", "fusion_lat": 0.0, "name": "5ec4c58588e0fa03af7f6697baa695c4", "is_reserved": 0, "rental_uris": {"android": "https://dc.lft.to/lastmile_qr_scan", "ios": "https://dc.lft.to/lastmile_qr_scan"}, "fusion_lon": 0.0}, {"lat": 38.90722983333333, "is_disabled": 0, "type": "electric_scooter", "lon": -77.04642666666666, "bike_id": "61de3531f5d91314301394f534486ac9", "fusion_lat": 0.0, "name": "61de3531f5d91314301394f534486ac9", "is_reserved": 0, "rental_uris": {"android": "https://dc.lft.to/lastmile_qr_scan", "ios": "https://dc.lft.to/lastmile_qr_scan"}, "fusion_lon": 0.0}, {"lat": 38.96142533333333, "is_disabled": 0, "type": "electric_scooter", "lon": -77.02801616666666, "bike_id": "199b4bae4d25d9597ac823a821c2dc3f", "fusion_lat": 0.0, "name": "199b4bae4d25d9597ac823a821c2dc3f", "is_reserved": 0, "rental_uris": {"android": "https://dc.lft.to/lastmile_qr_scan", "ios": "https://dc.lft.to/lastmile_qr_scan"}, "fusion_lon": 0.0}, {"lat": 38.900362, "is_disabled": 0, "type": "electric_scooter", "lon": -76.9972775, "bike_id": "f402714132661d31b44cbea662c71c59", "fusion_lat": 0.0, "name": "f402714132661d31b44cbea662c71c59", "is_reserved": 0, "rental_uris": {"android": "https://dc.lft.to/lastmile_qr_scan", "ios": "https://dc.lft.to/lastmile_qr_scan"}, "fusion_lon": 0.0}, {"lat": 38.898895333333336, "is_disabled": 0, "type": "electric_scooter", "lon": -76.9337005, "bike_id": "3f7658bede051ad99c4caafe00c8b534", "fusion_lat": 0.0, "name": "3f7658bede051ad99c4caafe00c8b534", "is_reserved": 0, "rental_uris": {"android": "https://dc.lft.to/lastmile_qr_scan", "ios": "https://dc.lft.to/lastmile_qr_scan"}, "fusion_lon": 0.0}, {"lat": 38.9012255, "is_disabled": 0, "type": "electric_scooter", "lon": -77.04984566666667, "bike_id": "799fd62952f145e0ede4e160bafd4c14", "fusion_lat": 0.0, "name": "799fd62952f145e0ede4e160bafd4c14", "is_reserved": 0, "rental_uris": {"android": "https://dc.lft.to/lastmile_qr_scan", "ios": "https://dc.lft.to/lastmile_qr_scan"}, "fusion_lon": 0.0}, {"lat": 38.96185783333333, "is_disabled": 0, "type": "electric_bike", "lon": -77.07396216666666, "bike_id": "8aea4c96ebd3e41360a19d94f44cad0e", "fusion_lat": 0.0, "name": "8aea4c96ebd3e41360a19d94f44cad0e", "is_reserved": 0, "rental_uris": {"android": "https://dc.lft.to/lastmile_qr_scan", "ios": "https://dc.lft.to/lastmile_qr_scan"}, "fusion_lon": 0.0}, {"lat": 38.930649333333335, "is_disabled": 0, "type": "electric_scooter", "lon": -77.0418095, "bike_id": "648ff1b5d2529a8c5cfcd72e74eb72cf", "fusion_lat": 0.0, "name": "648ff1b5d2529a8c5cfcd72e74eb72cf", "is_reserved": 0, "rental_uris": {"android": "https://dc.lft.to/lastmile_qr_scan", "ios": "https://dc.lft.to/lastmile_qr_scan"}, "fusion_lon": 0.0}, {"lat": 38.9086195, "is_disabled": 0, "type": "electric_scooter", "lon": -76.99167366666667, "bike_id": "810de50898c051562ffcc3510b5afa3f", "fusion_lat": 0.0, "name": "810de50898c051562ffcc3510b5afa3f", "is_reserved": 0, "rental_uris": {"android": "https://dc.lft.to/lastmile_qr_scan", "ios": "https://dc.lft.to/lastmile_qr_scan"}, "fusion_lon": 0.0}, {"lat": 38.90037816666667, "is_disabled": 0, "type": "electric_scooter", "lon": -76.9937505, "bike_id": "71fb98b364f7bca50d117d57e4913fbe", "fusion_lat": 0.0, "name": "71fb98b364f7bca50d117d57e4913fbe", "is_reserved": 0, "rental_uris": {"android": "https://dc.lft.to/lastmile_qr_scan", "ios": "https://dc.lft.to/lastmile_qr_scan"}, "fusion_lon": 0.0}, {"lat": 38.906159833333334, "is_disabled": 0, "type": "electric_scooter", "lon": -76.989881, "bike_id": "746b6a11943f503fa2bd1ee9cfd024e4", "fusion_lat": 0.0, "name": "746b6a11943f503fa2bd1ee9cfd024e4", "is_reserved": 0, "rental_uris": {"android": "https://dc.lft.to/lastmile_qr_scan", "ios": "https://dc.lft.to/lastmile_qr_scan"}, "fusion_lon": 0.0}, {"lat": 38.927511333333335, "is_disabled": 0, "type": "electric_scooter", "lon": -77.02537083333333, "bike_id": "0a37cd5d5ca04c007a037d79cc21551d", "fusion_lat": 0.0, "name": "0a37cd5d5ca04c007a037d79cc21551d", "is_reserved": 0, "rental_uris": {"android": "https://dc.lft.to/lastmile_qr_scan", "ios": "https://dc.lft.to/lastmile_qr_scan"}, "fusion_lon": 0.0}, {"lat": 38.891117, "is_disabled": 0, "type": "electric_scooter", "lon": -76.943875, "bike_id": "c842532505b78df7de27f0e650cd13bf", "fusion_lat": 0.0, "name": "c842532505b78df7de27f0e650cd13bf", "is_reserved": 0, "rental_uris": {"android": "https://dc.lft.to/lastmile_qr_scan", "ios": "https://dc.lft.to/lastmile_qr_scan"}, "fusion_lon": 0.0}, {"lat": 38.859082, "is_disabled": 0, "type": "electric_scooter", "lon": -76.99151866666666, "bike_id": "35bcbee1a2585f6778db3b914b4f5a0d", "fusion_lat": 0.0, "name": "35bcbee1a2585f6778db3b914b4f5a0d", "is_reserved": 0, "rental_uris": {"android": "https://dc.lft.to/lastmile_qr_scan", "ios": "https://dc.lft.to/lastmile_qr_scan"}, "fusion_lon": 0.0}, {"lat": 38.89536116666667, "is_disabled": 0, "type": "electric_scooter", "lon": -77.02820316666667, "bike_id": "dcc0f9a7e6a3a34c375c495329a58e2a", "fusion_lat": 0.0, "name": "dcc0f9a7e6a3a34c375c495329a58e2a", "is_reserved": 0, "rental_uris": {"android": "https://dc.lft.to/lastmile_qr_scan", "ios": "https://dc.lft.to/lastmile_qr_scan"}, "fusion_lon": 0.0}, {"lat": 38.9110225, "is_disabled": 0, "type": "electric_scooter", "lon": -77.04225583333333, "bike_id": "ad1e40fb34a9c4c3fd01c6bb83c373f3", "fusion_lat": 0.0, "name": "ad1e40fb34a9c4c3fd01c6bb83c373f3", "is_reserved": 0, "rental_uris": {"android": "https://dc.lft.to/lastmile_qr_scan", "ios": "https://dc.lft.to/lastmile_qr_scan"}, "fusion_lon": 0.0}, {"lat": 38.94737816666667, "is_disabled": 0, "type": "electric_scooter", "lon": -77.06529216666667, "bike_id": "5cafd86722274c0148192c4aa6170a19", "fusion_lat": 0.0, "name": "5cafd86722274c0148192c4aa6170a19", "is_reserved": 0, "rental_uris": {"android": "https://dc.lft.to/lastmile_qr_scan", "ios": "https://dc.lft.to/lastmile_qr_scan"}, "fusion_lon": 0.0}, {"lat": 38.86654683333333, "is_disabled": 0, "type": "electric_scooter", "lon": -76.988803, "bike_id": "b9515d3fa9f1406d0b39878c98e201f8", "fusion_lat": 0.0, "name": "b9515d3fa9f1406d0b39878c98e201f8", "is_reserved": 0, "rental_uris": {"android": "https://dc.lft.to/lastmile_qr_scan", "ios": "https://dc.lft.to/lastmile_qr_scan"}, "fusion_lon": 0.0}, {"lat": 38.91342, "is_disabled": 0, "type": "electric_scooter", "lon": -77.00222816666667, "bike_id": "083a6aba7a87a0a1f2d6db641db3976c", "fusion_lat": 0.0, "name": "083a6aba7a87a0a1f2d6db641db3976c", "is_reserved": 0, "rental_uris": {"android": "https://dc.lft.to/lastmile_qr_scan", "ios": "https://dc.lft.to/lastmile_qr_scan"}, "fusion_lon": 0.0}, {"lat": 38.923377333333335, "is_disabled": 0, "type": "electric_scooter", "lon": -77.01904016666667, "bike_id": "e4aee85be75dae292c88f18eee4032fd", "fusion_lat": 0.0, "name": "e4aee85be75dae292c88f18eee4032fd", "is_reserved": 0, "rental_uris": {"android": "https://dc.lft.to/lastmile_qr_scan", "ios": "https://dc.lft.to/lastmile_qr_scan"}, "fusion_lon": 0.0}, {"lat": 38.9171115, "is_disabled": 0, "type": "electric_scooter", "lon": -77.03225316666666, "bike_id": "6252722ec852335094a80f33db0e3aa1", "fusion_lat": 0.0, "name": "6252722ec852335094a80f33db0e3aa1", "is_reserved": 0, "rental_uris": {"android": "https://dc.lft.to/lastmile_qr_scan", "ios": "https://dc.lft.to/lastmile_qr_scan"}, "fusion_lon": 0.0}, {"lat": 38.917378, "is_disabled": 0, "type": "electric_scooter", "lon": -77.068983, "bike_id": "fc11d0f44ccebec8d58a23d786e5c449", "fusion_lat": 0.0, "name": "fc11d0f44ccebec8d58a23d786e5c449", "is_reserved": 0, "rental_uris": {"android": "https://dc.lft.to/lastmile_qr_scan", "ios": "https://dc.lft.to/lastmile_qr_scan"}, "fusion_lon": 0.0}, {"lat": 38.87912933333333, "is_disabled": 0, "type": "electric_scooter", "lon": -77.007106, "bike_id": "9ff1637e77d1feeb4fa4b011b371602b", "fusion_lat": 0.0, "name": "9ff1637e77d1feeb4fa4b011b371602b", "is_reserved": 0, "rental_uris": {"android": "https://dc.lft.to/lastmile_qr_scan", "ios": "https://dc.lft.to/lastmile_qr_scan"}, "fusion_lon": 0.0}, {"lat": 38.912289, "is_disabled": 0, "type": "electric_scooter", "lon": -77.04479483333333, "bike_id": "7f1225bcc74304a91cab8f42b2cdb62b", "fusion_lat": 0.0, "name": "7f1225bcc74304a91cab8f42b2cdb62b", "is_reserved": 0, "rental_uris": {"android": "https://dc.lft.to/lastmile_qr_scan", "ios": "https://dc.lft.to/lastmile_qr_scan"}, "fusion_lon": 0.0}, {"lat": 38.92252666666667, "is_disabled": 0, "type": "electric_scooter", "lon": -77.04252783333334, "bike_id": "2914df03ebaba7b8438b9e8383c57a41", "fusion_lat": 0.0, "name": "2914df03ebaba7b8438b9e8383c57a41", "is_reserved": 0, "rental_uris": {"android": "https://dc.lft.to/lastmile_qr_scan", "ios": "https://dc.lft.to/lastmile_qr_scan"}, "fusion_lon": 0.0}, {"lat": 38.91802916666666, "is_disabled": 0, "type": "electric_scooter", "lon": -77.03436083333334, "bike_id": "e103c12add690edec8a75ae3546777c2", "fusion_lat": 0.0, "name": "e103c12add690edec8a75ae3546777c2", "is_reserved": 0, "rental_uris": {"android": "https://dc.lft.to/lastmile_qr_scan", "ios": "https://dc.lft.to/lastmile_qr_scan"}, "fusion_lon": 0.0}, {"lat": 38.8580915, "is_disabled": 0, "type": "electric_scooter", "lon": -76.9871045, "bike_id": "58da4151b713e6bc76f545babfa46f90", "fusion_lat": 0.0, "name": "58da4151b713e6bc76f545babfa46f90", "is_reserved": 0, "rental_uris": {"android": "https://dc.lft.to/lastmile_qr_scan", "ios": "https://dc.lft.to/lastmile_qr_scan"}, "fusion_lon": 0.0}, {"lat": 38.88339916666666, "is_disabled": 0, "type": "electric_scooter", "lon": -77.03149466666666, "bike_id": "4840492b4511b8e92befd9d1c0eded36", "fusion_lat": 0.0, "name": "4840492b4511b8e92befd9d1c0eded36", "is_reserved": 0, "rental_uris": {"android": "https://dc.lft.to/lastmile_qr_scan", "ios": "https://dc.lft.to/lastmile_qr_scan"}, "fusion_lon": 0.0}, {"lat": 38.86110383333333, "is_disabled": 0, "type": "electric_scooter", "lon": -76.96778216666667, "bike_id": "7e7d1a251b39c3484e0423af893d7edb", "fusion_lat": 0.0, "name": "7e7d1a251b39c3484e0423af893d7edb", "is_reserved": 0, "rental_uris": {"android": "https://dc.lft.to/lastmile_qr_scan", "ios": "https://dc.lft.to/lastmile_qr_scan"}, "fusion_lon": 0.0}, {"lat": 38.923883000000004, "is_disabled": 0, "type": "electric_scooter", "lon": -77.00064333333333, "bike_id": "547088cba503d07f88995616189afa5a", "fusion_lat": 0.0, "name": "547088cba503d07f88995616189afa5a", "is_reserved": 0, "rental_uris": {"android": "https://dc.lft.to/lastmile_qr_scan", "ios": "https://dc.lft.to/lastmile_qr_scan"}, "fusion_lon": 0.0}, {"lat": 38.89878433333333, "is_disabled": 0, "type": "electric_scooter", "lon": -77.0223015, "bike_id": "fa8a5426bb39e980551e6044558519cd", "fusion_lat": 0.0, "name": "fa8a5426bb39e980551e6044558519cd", "is_reserved": 0, "rental_uris": {"android": "https://dc.lft.to/lastmile_qr_scan", "ios": "https://dc.lft.to/lastmile_qr_scan"}, "fusion_lon": 0.0}, {"lat": 38.92416266666667, "is_disabled": 0, "type": "electric_scooter", "lon": -77.035459, "bike_id": "f437baf77d943dd95a1fc87de40e63ce", "fusion_lat": 0.0, "name": "f437baf77d943dd95a1fc87de40e63ce", "is_reserved": 0, "rental_uris": {"android": "https://dc.lft.to/lastmile_qr_scan", "ios": "https://dc.lft.to/lastmile_qr_scan"}, "fusion_lon": 0.0}, {"lat": 38.932530166666666, "is_disabled": 0, "type": "electric_scooter", "lon": -77.03277483333333, "bike_id": "457fdb0875647a1ecf4c3298d868dcbf", "fusion_lat": 0.0, "name": "457fdb0875647a1ecf4c3298d868dcbf", "is_reserved": 0, "rental_uris": {"android": "https://dc.lft.to/lastmile_qr_scan", "ios": "https://dc.lft.to/lastmile_qr_scan"}, "fusion_lon": 0.0}, {"lat": 38.94075, "is_disabled": 0, "type": "electric_scooter", "lon": -77.06138316666667, "bike_id": "8021c7a6c1fd79d887461397e558e239", "fusion_lat": 0.0, "name": "8021c7a6c1fd79d887461397e558e239", "is_reserved": 0, "rental_uris": {"android": "https://dc.lft.to/lastmile_qr_scan", "ios": "https://dc.lft.to/lastmile_qr_scan"}, "fusion_lon": 0.0}, {"lat": 38.93296216666667, "is_disabled": 0, "type": "electric_scooter", "lon": -77.0282645, "bike_id": "ccfa88b33a22f6a31a86ae19383f60cb", "fusion_lat": 0.0, "name": "ccfa88b33a22f6a31a86ae19383f60cb", "is_reserved": 0, "rental_uris": {"android": "https://dc.lft.to/lastmile_qr_scan", "ios": "https://dc.lft.to/lastmile_qr_scan"}, "fusion_lon": 0.0}, {"lat": 38.931078, "is_disabled": 0, "type": "electric_scooter", "lon": -77.03507866666666, "bike_id": "9c8e1fa7020d37af2e46d49fbc180a93", "fusion_lat": 0.0, "name": "9c8e1fa7020d37af2e46d49fbc180a93", "is_reserved": 0, "rental_uris": {"android": "https://dc.lft.to/lastmile_qr_scan", "ios": "https://dc.lft.to/lastmile_qr_scan"}, "fusion_lon": 0.0}, {"lat": 38.9365905, "is_disabled": 0, "type": "electric_scooter", "lon": -77.03655316666666, "bike_id": "8489cbe25df704ddce9718931795414b", "fusion_lat": 0.0, "name": "8489cbe25df704ddce9718931795414b", "is_reserved": 0, "rental_uris": {"android": "https://dc.lft.to/lastmile_qr_scan", "ios": "https://dc.lft.to/lastmile_qr_scan"}, "fusion_lon": 0.0}, {"lat": 38.91480416666667, "is_disabled": 0, "type": "electric_scooter", "lon": -76.98360516666666, "bike_id": "7e752c21a81d9f8d25c94f3a7ad84f9b", "fusion_lat": 0.0, "name": "7e752c21a81d9f8d25c94f3a7ad84f9b", "is_reserved": 0, "rental_uris": {"android": "https://dc.lft.to/lastmile_qr_scan", "ios": "https://dc.lft.to/lastmile_qr_scan"}, "fusion_lon": 0.0}, {"lat": 38.9320055, "is_disabled": 0, "type": "electric_scooter", "lon": -77.04420633333334, "bike_id": "ac8e789074bc01651a041ea7696b79ef", "fusion_lat": 0.0, "name": "ac8e789074bc01651a041ea7696b79ef", "is_reserved": 0, "rental_uris": {"android": "https://dc.lft.to/lastmile_qr_scan", "ios": "https://dc.lft.to/lastmile_qr_scan"}, "fusion_lon": 0.0}, {"lat": 38.90214566666667, "is_disabled": 0, "type": "electric_scooter", "lon": -77.05308, "bike_id": "9ab9099d3f889f4055e8241ffcb9767f", "fusion_lat": 0.0, "name": "9ab9099d3f889f4055e8241ffcb9767f", "is_reserved": 0, "rental_uris": {"android": "https://dc.lft.to/lastmile_qr_scan", "ios": "https://dc.lft.to/lastmile_qr_scan"}, "fusion_lon": 0.0}, {"lat": 38.87629416666667, "is_disabled": 0, "type": "electric_scooter", "lon": -76.9652725, "bike_id": "1c852b680d0fd140910522fbafb33726", "fusion_lat": 0.0, "name": "1c852b680d0fd140910522fbafb33726", "is_reserved": 0, "rental_uris": {"android": "https://dc.lft.to/lastmile_qr_scan", "ios": "https://dc.lft.to/lastmile_qr_scan"}, "fusion_lon": 0.0}, {"lat": 38.90544, "is_disabled": 0, "type": "electric_scooter", "lon": -77.00552766666667, "bike_id": "973109fcf9764c2aeb2afeed15e89f85", "fusion_lat": 0.0, "name": "973109fcf9764c2aeb2afeed15e89f85", "is_reserved": 0, "rental_uris": {"android": "https://dc.lft.to/lastmile_qr_scan", "ios": "https://dc.lft.to/lastmile_qr_scan"}, "fusion_lon": 0.0}, {"lat": 38.903952, "is_disabled": 0, "type": "electric_scooter", "lon": -77.04984083333333, "bike_id": "ec33d80c08faad424f5a61c9257e0ed3", "fusion_lat": 0.0, "name": "ec33d80c08faad424f5a61c9257e0ed3", "is_reserved": 0, "rental_uris": {"android": "https://dc.lft.to/lastmile_qr_scan", "ios": "https://dc.lft.to/lastmile_qr_scan"}, "fusion_lon": 0.0}, {"lat": 38.9170705, "is_disabled": 0, "type": "electric_scooter", "lon": -77.0321865, "bike_id": "8aefa1f0038a6038b9c95b1b2aabeda0", "fusion_lat": 0.0, "name": "8aefa1f0038a6038b9c95b1b2aabeda0", "is_reserved": 0, "rental_uris": {"android": "https://dc.lft.to/lastmile_qr_scan", "ios": "https://dc.lft.to/lastmile_qr_scan"}, "fusion_lon": 0.0}, {"lat": 38.94514266666667, "is_disabled": 0, "type": "electric_scooter", "lon": -77.0217395, "bike_id": "4bf815cd0ae36465e2a6d33169df08a2", "fusion_lat": 0.0, "name": "4bf815cd0ae36465e2a6d33169df08a2", "is_reserved": 0, "rental_uris": {"android": "https://dc.lft.to/lastmile_qr_scan", "ios": "https://dc.lft.to/lastmile_qr_scan"}, "fusion_lon": 0.0}, {"lat": 38.892224166666665, "is_disabled": 0, "type": "electric_scooter", "lon": -76.93300016666667, "bike_id": "52a78c1d56683073b9857dc66e95e01e", "fusion_lat": 0.0, "name": "52a78c1d56683073b9857dc66e95e01e", "is_reserved": 0, "rental_uris": {"android": "https://dc.lft.to/lastmile_qr_scan", "ios": "https://dc.lft.to/lastmile_qr_scan"}, "fusion_lon": 0.0}, {"lat": 38.90395083333333, "is_disabled": 0, "type": "electric_scooter", "lon": -77.0249065, "bike_id": "5f3c653ec81e74eb14687588482b7d85", "fusion_lat": 0.0, "name": "5f3c653ec81e74eb14687588482b7d85", "is_reserved": 0, "rental_uris": {"android": "https://dc.lft.to/lastmile_qr_scan", "ios": "https://dc.lft.to/lastmile_qr_scan"}, "fusion_lon": 0.0}, {"lat": 38.927631166666664, "is_disabled": 0, "type": "electric_bike", "lon": -77.0688145, "bike_id": "cd58b1f2b2533a266c4d76f1893d5402", "fusion_lat": 0.0, "name": "cd58b1f2b2533a266c4d76f1893d5402", "is_reserved": 0, "rental_uris": {"android": "https://dc.lft.to/lastmile_qr_scan", "ios": "https://dc.lft.to/lastmile_qr_scan"}, "fusion_lon": 0.0}, {"lat": 38.93223916666667, "is_disabled": 0, "type": "electric_scooter", "lon": -77.02732383333333, "bike_id": "43c0f6e6edbba51b85b284764ecc3831", "fusion_lat": 0.0, "name": "43c0f6e6edbba51b85b284764ecc3831", "is_reserved": 0, "rental_uris": {"android": "https://dc.lft.to/lastmile_qr_scan", "ios": "https://dc.lft.to/lastmile_qr_scan"}, "fusion_lon": 0.0}, {"lat": 38.896319166666665, "is_disabled": 0, "type": "electric_scooter", "lon": -77.04499566666667, "bike_id": "1d9b6c4d5c31f4a3e969ec70d4768ca3", "fusion_lat": 0.0, "name": "1d9b6c4d5c31f4a3e969ec70d4768ca3", "is_reserved": 0, "rental_uris": {"android": "https://dc.lft.to/lastmile_qr_scan", "ios": "https://dc.lft.to/lastmile_qr_scan"}, "fusion_lon": 0.0}, {"lat": 38.9286935, "is_disabled": 0, "type": "electric_scooter", "lon": -77.034128, "bike_id": "d7da225b87b95afa5bbdaf9395581936", "fusion_lat": 0.0, "name": "d7da225b87b95afa5bbdaf9395581936", "is_reserved": 0, "rental_uris": {"android": "https://dc.lft.to/lastmile_qr_scan", "ios": "https://dc.lft.to/lastmile_qr_scan"}, "fusion_lon": 0.0}, {"lat": 38.90864066666666, "is_disabled": 0, "type": "electric_scooter", "lon": -77.02933833333333, "bike_id": "2c27055139ce6c09ac62df9a725944d4", "fusion_lat": 0.0, "name": "2c27055139ce6c09ac62df9a725944d4", "is_reserved": 0, "rental_uris": {"android": "https://dc.lft.to/lastmile_qr_scan", "ios": "https://dc.lft.to/lastmile_qr_scan"}, "fusion_lon": 0.0}, {"lat": 38.86505833333333, "is_disabled": 0, "type": "electric_scooter", "lon": -76.99006133333333, "bike_id": "59ba21d9e9e3a98ec1a810127992d695", "fusion_lat": 0.0, "name": "59ba21d9e9e3a98ec1a810127992d695", "is_reserved": 0, "rental_uris": {"android": "https://dc.lft.to/lastmile_qr_scan", "ios": "https://dc.lft.to/lastmile_qr_scan"}, "fusion_lon": 0.0}, {"lat": 38.914277166666665, "is_disabled": 0, "type": "electric_scooter", "lon": -77.03208016666666, "bike_id": "572b6a69738e2ebe1adc4dcbd358b7c1", "fusion_lat": 0.0, "name": "572b6a69738e2ebe1adc4dcbd358b7c1", "is_reserved": 0, "rental_uris": {"android": "https://dc.lft.to/lastmile_qr_scan", "ios": "https://dc.lft.to/lastmile_qr_scan"}, "fusion_lon": 0.0}, {"lat": 38.90090983333333, "is_disabled": 0, "type": "electric_scooter", "lon": -77.05598083333334, "bike_id": "f706867496baa5b64dc812bc341d6c83", "fusion_lat": 0.0, "name": "f706867496baa5b64dc812bc341d6c83", "is_reserved": 0, "rental_uris": {"android": "https://dc.lft.to/lastmile_qr_scan", "ios": "https://dc.lft.to/lastmile_qr_scan"}, "fusion_lon": 0.0}, {"lat": 38.90048266666667, "is_disabled": 0, "type": "electric_scooter", "lon": -77.0332065, "bike_id": "3a5629b1e9c7b067b9764a79ad34a8ef", "fusion_lat": 0.0, "name": "3a5629b1e9c7b067b9764a79ad34a8ef", "is_reserved": 0, "rental_uris": {"android": "https://dc.lft.to/lastmile_qr_scan", "ios": "https://dc.lft.to/lastmile_qr_scan"}, "fusion_lon": 0.0}, {"lat": 38.88973816666667, "is_disabled": 0, "type": "electric_scooter", "lon": -76.9374085, "bike_id": "c796b9012326fd846a0f7217fe7a45a7", "fusion_lat": 0.0, "name": "c796b9012326fd846a0f7217fe7a45a7", "is_reserved": 0, "rental_uris": {"android": "https://dc.lft.to/lastmile_qr_scan", "ios": "https://dc.lft.to/lastmile_qr_scan"}, "fusion_lon": 0.0}, {"lat": 38.89972433333333, "is_disabled": 0, "type": "electric_scooter", "lon": -77.01905783333333, "bike_id": "e24a3c621bc03d1a784c347e0da99314", "fusion_lat": 0.0, "name": "e24a3c621bc03d1a784c347e0da99314", "is_reserved": 0, "rental_uris": {"android": "https://dc.lft.to/lastmile_qr_scan", "ios": "https://dc.lft.to/lastmile_qr_scan"}, "fusion_lon": 0.0}, {"lat": 38.87861766666666, "is_disabled": 0, "type": "electric_bike", "lon": -77.0176795, "bike_id": "42a0361504d80064698c8e190f8c2110", "fusion_lat": 0.0, "name": "42a0361504d80064698c8e190f8c2110", "is_reserved": 0, "rental_uris": {"android": "https://dc.lft.to/lastmile_qr_scan", "ios": "https://dc.lft.to/lastmile_qr_scan"}, "fusion_lon": 0.0}, {"lat": 38.9165575, "is_disabled": 0, "type": "electric_scooter", "lon": -77.03216983333333, "bike_id": "f0bf661e0f17941f2f913560d7b8a0b9", "fusion_lat": 0.0, "name": "f0bf661e0f17941f2f913560d7b8a0b9", "is_reserved": 0, "rental_uris": {"android": "https://dc.lft.to/lastmile_qr_scan", "ios": "https://dc.lft.to/lastmile_qr_scan"}, "fusion_lon": 0.0}, {"lat": 38.896752166666666, "is_disabled": 0, "type": "electric_scooter", "lon": -77.00516366666666, "bike_id": "bc5ad3e4233378dc7a7204b94c9d7fa0", "fusion_lat": 0.0, "name": "bc5ad3e4233378dc7a7204b94c9d7fa0", "is_reserved": 0, "rental_uris": {"android": "https://dc.lft.to/lastmile_qr_scan", "ios": "https://dc.lft.to/lastmile_qr_scan"}, "fusion_lon": 0.0}, {"lat": 38.87638916666667, "is_disabled": 0, "type": "electric_scooter", "lon": -77.00562133333334, "bike_id": "093fa00dea2ba2aacb9a3646f8725955", "fusion_lat": 0.0, "name": "093fa00dea2ba2aacb9a3646f8725955", "is_reserved": 0, "rental_uris": {"android": "https://dc.lft.to/lastmile_qr_scan", "ios": "https://dc.lft.to/lastmile_qr_scan"}, "fusion_lon": 0.0}, {"lat": 38.91623, "is_disabled": 0, "type": "electric_scooter", "lon": -77.0374275, "bike_id": "dc82298dd3962aab3af9beb45b87a9e9", "fusion_lat": 0.0, "name": "dc82298dd3962aab3af9beb45b87a9e9", "is_reserved": 0, "rental_uris": {"android": "https://dc.lft.to/lastmile_qr_scan", "ios": "https://dc.lft.to/lastmile_qr_scan"}, "fusion_lon": 0.0}, {"lat": 38.920819333333334, "is_disabled": 0, "type": "electric_scooter", "lon": -77.0254165, "bike_id": "965dae2b10be56fb3c5a4ba70c3d6d4b", "fusion_lat": 0.0, "name": "965dae2b10be56fb3c5a4ba70c3d6d4b", "is_reserved": 0, "rental_uris": {"android": "https://dc.lft.to/lastmile_qr_scan", "ios": "https://dc.lft.to/lastmile_qr_scan"}, "fusion_lon": 0.0}, {"lat": 38.870710833333334, "is_disabled": 0, "type": "electric_scooter", "lon": -77.0112255, "bike_id": "448c3cc6175fb924555b112ffa03a4ff", "fusion_lat": 0.0, "name": "448c3cc6175fb924555b112ffa03a4ff", "is_reserved": 0, "rental_uris": {"android": "https://dc.lft.to/lastmile_qr_scan", "ios": "https://dc.lft.to/lastmile_qr_scan"}, "fusion_lon": 0.0}, {"lat": 38.962112, "is_disabled": 0, "type": "electric_bike", "lon": -77.02624033333333, "bike_id": "4344efab6f377651f2f24d4de67cb660", "fusion_lat": 0.0, "name": "4344efab6f377651f2f24d4de67cb660", "is_reserved": 0, "rental_uris": {"android": "https://dc.lft.to/lastmile_qr_scan", "ios": "https://dc.lft.to/lastmile_qr_scan"}, "fusion_lon": 0.0}, {"lat": 38.87915366666667, "is_disabled": 0, "type": "electric_scooter", "lon": -76.9950915, "bike_id": "64391568755713c53c6b1e36d8bd664d", "fusion_lat": 0.0, "name": "64391568755713c53c6b1e36d8bd664d", "is_reserved": 0, "rental_uris": {"android": "https://dc.lft.to/lastmile_qr_scan", "ios": "https://dc.lft.to/lastmile_qr_scan"}, "fusion_lon": 0.0}, {"lat": 38.94822116666667, "is_disabled": 0, "type": "electric_scooter", "lon": -76.99902766666666, "bike_id": "2fae5d3ec69fae16a82cb9d8ee74ee4d", "fusion_lat": 0.0, "name": "2fae5d3ec69fae16a82cb9d8ee74ee4d", "is_reserved": 0, "rental_uris": {"android": "https://dc.lft.to/lastmile_qr_scan", "ios": "https://dc.lft.to/lastmile_qr_scan"}, "fusion_lon": 0.0}, {"lat": 38.9323665, "is_disabled": 0, "type": "electric_bike", "lon": -76.97424783333334, "bike_id": "22abe27705f59db316c3f52e1771f63e", "fusion_lat": 0.0, "name": "22abe27705f59db316c3f52e1771f63e", "is_reserved": 0, "rental_uris": {"android": "https://dc.lft.to/lastmile_qr_scan", "ios": "https://dc.lft.to/lastmile_qr_scan"}, "fusion_lon": 0.0}, {"lat": 38.91195366666667, "is_disabled": 0, "type": "electric_scooter", "lon": -77.0044935, "bike_id": "30ecb2444c3e5a64950c4c039a2d166f", "fusion_lat": 0.0, "name": "30ecb2444c3e5a64950c4c039a2d166f", "is_reserved": 0, "rental_uris": {"android": "https://dc.lft.to/lastmile_qr_scan", "ios": "https://dc.lft.to/lastmile_qr_scan"}, "fusion_lon": 0.0}, {"lat": 38.865633333333335, "is_disabled": 0, "type": "electric_scooter", "lon": -76.9895155, "bike_id": "a528e49e769c64b8599cff0e547644b7", "fusion_lat": 0.0, "name": "a528e49e769c64b8599cff0e547644b7", "is_reserved": 0, "rental_uris": {"android": "https://dc.lft.to/lastmile_qr_scan", "ios": "https://dc.lft.to/lastmile_qr_scan"}, "fusion_lon": 0.0}, {"lat": 38.955655, "is_disabled": 0, "type": "electric_scooter", "lon": -77.02231816666666, "bike_id": "181a65d29e10082409f4d35902013542", "fusion_lat": 0.0, "name": "181a65d29e10082409f4d35902013542", "is_reserved": 0, "rental_uris": {"android": "https://dc.lft.to/lastmile_qr_scan", "ios": "https://dc.lft.to/lastmile_qr_scan"}, "fusion_lon": 0.0}, {"lat": 38.90910566666667, "is_disabled": 0, "type": "electric_scooter", "lon": -77.0364935, "bike_id": "6bd05ef849aa64b3c13ee7dc7c1bd653", "fusion_lat": 0.0, "name": "6bd05ef849aa64b3c13ee7dc7c1bd653", "is_reserved": 0, "rental_uris": {"android": "https://dc.lft.to/lastmile_qr_scan", "ios": "https://dc.lft.to/lastmile_qr_scan"}, "fusion_lon": 0.0}, {"lat": 38.901732833333334, "is_disabled": 0, "type": "electric_scooter", "lon": -77.02491516666667, "bike_id": "689355b1e1095402cf914d227cb7f6cc", "fusion_lat": 0.0, "name": "689355b1e1095402cf914d227cb7f6cc", "is_reserved": 0, "rental_uris": {"android": "https://dc.lft.to/lastmile_qr_scan", "ios": "https://dc.lft.to/lastmile_qr_scan"}, "fusion_lon": 0.0}, {"lat": 38.908050833333334, "is_disabled": 0, "type": "electric_scooter", "lon": -76.98275366666667, "bike_id": "fce8e7c451e8af099303c1c65b642442", "fusion_lat": 0.0, "name": "fce8e7c451e8af099303c1c65b642442", "is_reserved": 0, "rental_uris": {"android": "https://dc.lft.to/lastmile_qr_scan", "ios": "https://dc.lft.to/lastmile_qr_scan"}, "fusion_lon": 0.0}, {"lat": 38.915545, "is_disabled": 0, "type": "electric_scooter", "lon": -77.02429583333333, "bike_id": "ef5132514425e9824cae750188e744c7", "fusion_lat": 0.0, "name": "ef5132514425e9824cae750188e744c7", "is_reserved": 0, "rental_uris": {"android": "https://dc.lft.to/lastmile_qr_scan", "ios": "https://dc.lft.to/lastmile_qr_scan"}, "fusion_lon": 0.0}, {"lat": 38.9144665, "is_disabled": 0, "type": "electric_scooter", "lon": -77.02970666666667, "bike_id": "ef04ff4510c1828a1aa664fda71c5391", "fusion_lat": 0.0, "name": "ef04ff4510c1828a1aa664fda71c5391", "is_reserved": 0, "rental_uris": {"android": "https://dc.lft.to/lastmile_qr_scan", "ios": "https://dc.lft.to/lastmile_qr_scan"}, "fusion_lon": 0.0}, {"lat": 38.88494, "is_disabled": 0, "type": "electric_scooter", "lon": -77.0072675, "bike_id": "453043b0b62b701f8805dd9653961e92", "fusion_lat": 0.0, "name": "453043b0b62b701f8805dd9653961e92", "is_reserved": 0, "rental_uris": {"android": "https://dc.lft.to/lastmile_qr_scan", "ios": "https://dc.lft.to/lastmile_qr_scan"}, "fusion_lon": 0.0}, {"lat": 38.93961916666667, "is_disabled": 0, "type": "electric_scooter", "lon": -77.02752583333333, "bike_id": "e41788797cd2c48d591534b171c2ae29", "fusion_lat": 0.0, "name": "e41788797cd2c48d591534b171c2ae29", "is_reserved": 0, "rental_uris": {"android": "https://dc.lft.to/lastmile_qr_scan", "ios": "https://dc.lft.to/lastmile_qr_scan"}, "fusion_lon": 0.0}, {"lat": 38.90119333333333, "is_disabled": 0, "type": "electric_scooter", "lon": -76.986267, "bike_id": "4d3f26dc0029b6ebd66ae31b8f899ea7", "fusion_lat": 0.0, "name": "4d3f26dc0029b6ebd66ae31b8f899ea7", "is_reserved": 0, "rental_uris": {"android": "https://dc.lft.to/lastmile_qr_scan", "ios": "https://dc.lft.to/lastmile_qr_scan"}, "fusion_lon": 0.0}, {"lat": 38.93342666666667, "is_disabled": 0, "type": "electric_scooter", "lon": -76.9931065, "bike_id": "313959172ce4e1a9e69d9840a66786cb", "fusion_lat": 0.0, "name": "313959172ce4e1a9e69d9840a66786cb", "is_reserved": 0, "rental_uris": {"android": "https://dc.lft.to/lastmile_qr_scan", "ios": "https://dc.lft.to/lastmile_qr_scan"}, "fusion_lon": 0.0}, {"lat": 38.93147966666667, "is_disabled": 0, "type": "electric_scooter", "lon": -77.02140866666667, "bike_id": "22954b794333a4b7ba173909dd27f666", "fusion_lat": 0.0, "name": "22954b794333a4b7ba173909dd27f666", "is_reserved": 0, "rental_uris": {"android": "https://dc.lft.to/lastmile_qr_scan", "ios": "https://dc.lft.to/lastmile_qr_scan"}, "fusion_lon": 0.0}, {"lat": 38.90014166666667, "is_disabled": 0, "type": "electric_scooter", "lon": -76.92226166666667, "bike_id": "4b310b141a6ba2a49718d518c77df73c", "fusion_lat": 0.0, "name": "4b310b141a6ba2a49718d518c77df73c", "is_reserved": 0, "rental_uris": {"android": "https://dc.lft.to/lastmile_qr_scan", "ios": "https://dc.lft.to/lastmile_qr_scan"}, "fusion_lon": 0.0}, {"lat": 38.90075433333333, "is_disabled": 0, "type": "electric_scooter", "lon": -77.0257985, "bike_id": "08b391850d6b03c656338b9356397ff0", "fusion_lat": 0.0, "name": "08b391850d6b03c656338b9356397ff0", "is_reserved": 0, "rental_uris": {"android": "https://dc.lft.to/lastmile_qr_scan", "ios": "https://dc.lft.to/lastmile_qr_scan"}, "fusion_lon": 0.0}, {"lat": 38.927530833333336, "is_disabled": 0, "type": "electric_scooter", "lon": -77.02961516666667, "bike_id": "f74756401aaff682a5d3d489d91866dd", "fusion_lat": 0.0, "name": "f74756401aaff682a5d3d489d91866dd", "is_reserved": 0, "rental_uris": {"android": "https://dc.lft.to/lastmile_qr_scan", "ios": "https://dc.lft.to/lastmile_qr_scan"}, "fusion_lon": 0.0}, {"lat": 38.88466283333333, "is_disabled": 0, "type": "electric_scooter", "lon": -76.99261966666667, "bike_id": "ed8d25dd5e107f69d281c7ffac230a23", "fusion_lat": 0.0, "name": "ed8d25dd5e107f69d281c7ffac230a23", "is_reserved": 0, "rental_uris": {"android": "https://dc.lft.to/lastmile_qr_scan", "ios": "https://dc.lft.to/lastmile_qr_scan"}, "fusion_lon": 0.0}, {"lat": 38.903142833333334, "is_disabled": 0, "type": "electric_scooter", "lon": -76.99363066666666, "bike_id": "c519c4371c63964c47105a6323405b18", "fusion_lat": 0.0, "name": "c519c4371c63964c47105a6323405b18", "is_reserved": 0, "rental_uris": {"android": "https://dc.lft.to/lastmile_qr_scan", "ios": "https://dc.lft.to/lastmile_qr_scan"}, "fusion_lon": 0.0}, {"lat": 38.88490683333333, "is_disabled": 0, "type": "electric_scooter", "lon": -77.00716333333334, "bike_id": "2100cdc18347b1a717b07aee0985f4b7", "fusion_lat": 0.0, "name": "2100cdc18347b1a717b07aee0985f4b7", "is_reserved": 0, "rental_uris": {"android": "https://dc.lft.to/lastmile_qr_scan", "ios": "https://dc.lft.to/lastmile_qr_scan"}, "fusion_lon": 0.0}, {"lat": 39.0293765, "is_disabled": 0, "type": "electric_bike", "lon": -77.04925783333333, "bike_id": "6a0a7d6c1002383e8042f94ae013016c", "fusion_lat": 0.0, "name": "6a0a7d6c1002383e8042f94ae013016c", "is_reserved": 0, "rental_uris": {"android": "https://dc.lft.to/lastmile_qr_scan", "ios": "https://dc.lft.to/lastmile_qr_scan"}, "fusion_lon": 0.0}, {"lat": 38.921515666666664, "is_disabled": 0, "type": "electric_scooter", "lon": -77.03512316666666, "bike_id": "26a7eab6bbb6b88b3839b2e830f3aea8", "fusion_lat": 0.0, "name": "26a7eab6bbb6b88b3839b2e830f3aea8", "is_reserved": 0, "rental_uris": {"android": "https://dc.lft.to/lastmile_qr_scan", "ios": "https://dc.lft.to/lastmile_qr_scan"}, "fusion_lon": 0.0}, {"lat": 38.953306833333336, "is_disabled": 0, "type": "electric_scooter", "lon": -77.02762666666666, "bike_id": "94a3d4bf32b47908c4e9369de813d287", "fusion_lat": 0.0, "name": "94a3d4bf32b47908c4e9369de813d287", "is_reserved": 0, "rental_uris": {"android": "https://dc.lft.to/lastmile_qr_scan", "ios": "https://dc.lft.to/lastmile_qr_scan"}, "fusion_lon": 0.0}, {"lat": 38.872947833333335, "is_disabled": 0, "type": "electric_scooter", "lon": -77.00928183333333, "bike_id": "b50d4c270a1d6f94037f8e7ff5f8f581", "fusion_lat": 0.0, "name": "b50d4c270a1d6f94037f8e7ff5f8f581", "is_reserved": 0, "rental_uris": {"android": "https://dc.lft.to/lastmile_qr_scan", "ios": "https://dc.lft.to/lastmile_qr_scan"}, "fusion_lon": 0.0}, {"lat": 38.9352925, "is_disabled": 0, "type": "electric_bike", "lon": -77.05690433333334, "bike_id": "375dac526025b491854d081d26f5878d", "fusion_lat": 0.0, "name": "375dac526025b491854d081d26f5878d", "is_reserved": 0, "rental_uris": {"android": "https://dc.lft.to/lastmile_qr_scan", "ios": "https://dc.lft.to/lastmile_qr_scan"}, "fusion_lon": 0.0}, {"lat": 38.905654166666665, "is_disabled": 0, "type": "electric_scooter", "lon": -77.02990433333333, "bike_id": "4efb188f482b3372d74aa62c8c58b7c0", "fusion_lat": 0.0, "name": "4efb188f482b3372d74aa62c8c58b7c0", "is_reserved": 0, "rental_uris": {"android": "https://dc.lft.to/lastmile_qr_scan", "ios": "https://dc.lft.to/lastmile_qr_scan"}, "fusion_lon": 0.0}, {"lat": 38.93434166666667, "is_disabled": 0, "type": "electric_scooter", "lon": -77.0344545, "bike_id": "ffa236feba9472d7cb2798a29daeeee8", "fusion_lat": 0.0, "name": "ffa236feba9472d7cb2798a29daeeee8", "is_reserved": 0, "rental_uris": {"android": "https://dc.lft.to/lastmile_qr_scan", "ios": "https://dc.lft.to/lastmile_qr_scan"}, "fusion_lon": 0.0}, {"lat": 38.812294, "is_disabled": 0, "type": "electric_bike", "lon": -77.1042115, "bike_id": "09d7a82d2e9a89e2c0cb161daf8e5b92", "fusion_lat": 0.0, "name": "09d7a82d2e9a89e2c0cb161daf8e5b92", "is_reserved": 0, "rental_uris": {"android": "https://dc.lft.to/lastmile_qr_scan", "ios": "https://dc.lft.to/lastmile_qr_scan"}, "fusion_lon": 0.0}, {"lat": 38.960183, "is_disabled": 0, "type": "electric_bike", "lon": -77.01723016666666, "bike_id": "70d98ac5b1c4a7ff020a0c15ca56429d", "fusion_lat": 0.0, "name": "70d98ac5b1c4a7ff020a0c15ca56429d", "is_reserved": 0, "rental_uris": {"android": "https://dc.lft.to/lastmile_qr_scan", "ios": "https://dc.lft.to/lastmile_qr_scan"}, "fusion_lon": 0.0}, {"lat": 38.923409, "is_disabled": 0, "type": "electric_scooter", "lon": -77.05429983333333, "bike_id": "a3866504a043e88394a14b4822cf0737", "fusion_lat": 0.0, "name": "a3866504a043e88394a14b4822cf0737", "is_reserved": 0, "rental_uris": {"android": "https://dc.lft.to/lastmile_qr_scan", "ios": "https://dc.lft.to/lastmile_qr_scan"}, "fusion_lon": 0.0}, {"lat": 38.91562016666666, "is_disabled": 0, "type": "electric_scooter", "lon": -77.01041033333334, "bike_id": "bac781d3f577e81cdb27068162706deb", "fusion_lat": 0.0, "name": "bac781d3f577e81cdb27068162706deb", "is_reserved": 0, "rental_uris": {"android": "https://dc.lft.to/lastmile_qr_scan", "ios": "https://dc.lft.to/lastmile_qr_scan"}, "fusion_lon": 0.0}, {"lat": 38.827844166666665, "is_disabled": 0, "type": "electric_bike", "lon": -77.00924716666667, "bike_id": "eb5e4e2fd24d132ccad4e6a903f3a27d", "fusion_lat": 0.0, "name": "eb5e4e2fd24d132ccad4e6a903f3a27d", "is_reserved": 0, "rental_uris": {"android": "https://dc.lft.to/lastmile_qr_scan", "ios": "https://dc.lft.to/lastmile_qr_scan"}, "fusion_lon": 0.0}, {"lat": 38.93295583333333, "is_disabled": 0, "type": "electric_scooter", "lon": -77.04535783333333, "bike_id": "59763e98260f3472aee9190b40172d35", "fusion_lat": 0.0, "name": "59763e98260f3472aee9190b40172d35", "is_reserved": 0, "rental_uris": {"android": "https://dc.lft.to/lastmile_qr_scan", "ios": "https://dc.lft.to/lastmile_qr_scan"}, "fusion_lon": 0.0}, {"lat": 38.9096935, "is_disabled": 0, "type": "electric_bike", "lon": -77.08823416666667, "bike_id": "1e2182a70faa0016f28a4626a3c5b8cc", "fusion_lat": 0.0, "name": "1e2182a70faa0016f28a4626a3c5b8cc", "is_reserved": 0, "rental_uris": {"android": "https://dc.lft.to/lastmile_qr_scan", "ios": "https://dc.lft.to/lastmile_qr_scan"}, "fusion_lon": 0.0}, {"lat": 38.914662666666665, "is_disabled": 0, "type": "electric_scooter", "lon": -77.0143795, "bike_id": "4acaa716d356ed1e270923c14d083e61", "fusion_lat": 0.0, "name": "4acaa716d356ed1e270923c14d083e61", "is_reserved": 0, "rental_uris": {"android": "https://dc.lft.to/lastmile_qr_scan", "ios": "https://dc.lft.to/lastmile_qr_scan"}, "fusion_lon": 0.0}, {"lat": 38.877318333333335, "is_disabled": 0, "type": "electric_scooter", "lon": -77.00291716666666, "bike_id": "525d64854a4bdb1dfd8f0924ab19f358", "fusion_lat": 0.0, "name": "525d64854a4bdb1dfd8f0924ab19f358", "is_reserved": 0, "rental_uris": {"android": "https://dc.lft.to/lastmile_qr_scan", "ios": "https://dc.lft.to/lastmile_qr_scan"}, "fusion_lon": 0.0}, {"lat": 38.8880075, "is_disabled": 0, "type": "electric_scooter", "lon": -76.93363883333333, "bike_id": "a02aa60d2c4060512511ff6bac088ea7", "fusion_lat": 0.0, "name": "a02aa60d2c4060512511ff6bac088ea7", "is_reserved": 0, "rental_uris": {"android": "https://dc.lft.to/lastmile_qr_scan", "ios": "https://dc.lft.to/lastmile_qr_scan"}, "fusion_lon": 0.0}, {"lat": 38.87071383333333, "is_disabled": 0, "type": "electric_bike", "lon": -76.97842866666667, "bike_id": "c402bdb4c28652196b4040e06e1e5a9d", "fusion_lat": 0.0, "name": "c402bdb4c28652196b4040e06e1e5a9d", "is_reserved": 0, "rental_uris": {"android": "https://dc.lft.to/lastmile_qr_scan", "ios": "https://dc.lft.to/lastmile_qr_scan"}, "fusion_lon": 0.0}, {"lat": 38.92381783333333, "is_disabled": 0, "type": "electric_scooter", "lon": -77.03658566666667, "bike_id": "f60eb02f98afff8fcf4ec1052ef469e0", "fusion_lat": 0.0, "name": "f60eb02f98afff8fcf4ec1052ef469e0", "is_reserved": 0, "rental_uris": {"android": "https://dc.lft.to/lastmile_qr_scan", "ios": "https://dc.lft.to/lastmile_qr_scan"}, "fusion_lon": 0.0}, {"lat": 38.918683333333334, "is_disabled": 0, "type": "electric_scooter", "lon": -77.040295, "bike_id": "d0faed4cd16e7f7da8ea7d48c9595661", "fusion_lat": 0.0, "name": "d0faed4cd16e7f7da8ea7d48c9595661", "is_reserved": 0, "rental_uris": {"android": "https://dc.lft.to/lastmile_qr_scan", "ios": "https://dc.lft.to/lastmile_qr_scan"}, "fusion_lon": 0.0}, {"lat": 38.91749633333333, "is_disabled": 0, "type": "electric_scooter", "lon": -77.03659533333334, "bike_id": "67afbfab93310f6e0ddc8b31a5a67a16", "fusion_lat": 0.0, "name": "67afbfab93310f6e0ddc8b31a5a67a16", "is_reserved": 0, "rental_uris": {"android": "https://dc.lft.to/lastmile_qr_scan", "ios": "https://dc.lft.to/lastmile_qr_scan"}, "fusion_lon": 0.0}, {"lat": 38.915350833333335, "is_disabled": 0, "type": "electric_scooter", "lon": -77.0383445, "bike_id": "c8e1aecdf2a4538334ce3cde53cac034", "fusion_lat": 0.0, "name": "c8e1aecdf2a4538334ce3cde53cac034", "is_reserved": 0, "rental_uris": {"android": "https://dc.lft.to/lastmile_qr_scan", "ios": "https://dc.lft.to/lastmile_qr_scan"}, "fusion_lon": 0.0}, {"lat": 38.90797666666667, "is_disabled": 0, "type": "electric_scooter", "lon": -76.99698866666667, "bike_id": "dd85b8551ef0221bde7ab2b83fb5ec88", "fusion_lat": 0.0, "name": "dd85b8551ef0221bde7ab2b83fb5ec88", "is_reserved": 0, "rental_uris": {"android": "https://dc.lft.to/lastmile_qr_scan", "ios": "https://dc.lft.to/lastmile_qr_scan"}, "fusion_lon": 0.0}, {"lat": 38.9199405, "is_disabled": 0, "type": "electric_scooter", "lon": -77.03977383333333, "bike_id": "02e458ba65886bcfe5f310b0acfe541c", "fusion_lat": 0.0, "name": "02e458ba65886bcfe5f310b0acfe541c", "is_reserved": 0, "rental_uris": {"android": "https://dc.lft.to/lastmile_qr_scan", "ios": "https://dc.lft.to/lastmile_qr_scan"}, "fusion_lon": 0.0}, {"lat": 38.93697816666667, "is_disabled": 0, "type": "electric_bike", "lon": -77.02978433333334, "bike_id": "0c4814203860765f3046e40ad38608f1", "fusion_lat": 0.0, "name": "0c4814203860765f3046e40ad38608f1", "is_reserved": 0, "rental_uris": {"android": "https://dc.lft.to/lastmile_qr_scan", "ios": "https://dc.lft.to/lastmile_qr_scan"}, "fusion_lon": 0.0}, {"lat": 38.916865, "is_disabled": 0, "type": "electric_scooter", "lon": -77.0295045, "bike_id": "b67505421c7a5d7531b417d98b872d7d", "fusion_lat": 0.0, "name": "b67505421c7a5d7531b417d98b872d7d", "is_reserved": 0, "rental_uris": {"android": "https://dc.lft.to/lastmile_qr_scan", "ios": "https://dc.lft.to/lastmile_qr_scan"}, "fusion_lon": 0.0}, {"lat": 38.89486816666667, "is_disabled": 0, "type": "electric_scooter", "lon": -77.01110483333333, "bike_id": "f60fff24addcd97f51eb7f9f12b2990d", "fusion_lat": 0.0, "name": "f60fff24addcd97f51eb7f9f12b2990d", "is_reserved": 0, "rental_uris": {"android": "https://dc.lft.to/lastmile_qr_scan", "ios": "https://dc.lft.to/lastmile_qr_scan"}, "fusion_lon": 0.0}, {"lat": 38.914145166666664, "is_disabled": 0, "type": "electric_scooter", "lon": -77.039955, "bike_id": "80d14147137c78dd402fdd75c01467a4", "fusion_lat": 0.0, "name": "80d14147137c78dd402fdd75c01467a4", "is_reserved": 0, "rental_uris": {"android": "https://dc.lft.to/lastmile_qr_scan", "ios": "https://dc.lft.to/lastmile_qr_scan"}, "fusion_lon": 0.0}, {"lat": 38.911933166666664, "is_disabled": 0, "type": "electric_scooter", "lon": -77.00213216666667, "bike_id": "7cf4e8d8bfb2f1f8c679e0676abc4862", "fusion_lat": 0.0, "name": "7cf4e8d8bfb2f1f8c679e0676abc4862", "is_reserved": 0, "rental_uris": {"android": "https://dc.lft.to/lastmile_qr_scan", "ios": "https://dc.lft.to/lastmile_qr_scan"}, "fusion_lon": 0.0}, {"lat": 38.88766316666667, "is_disabled": 0, "type": "electric_scooter", "lon": -76.95596033333334, "bike_id": "39b805c2fa1c3ce1767aec0bbee751a5", "fusion_lat": 0.0, "name": "39b805c2fa1c3ce1767aec0bbee751a5", "is_reserved": 0, "rental_uris": {"android": "https://dc.lft.to/lastmile_qr_scan", "ios": "https://dc.lft.to/lastmile_qr_scan"}, "fusion_lon": 0.0}, {"lat": 38.866247, "is_disabled": 0, "type": "electric_scooter", "lon": -76.98699083333334, "bike_id": "bba446eeae18d325e7db8189bc73cc53", "fusion_lat": 0.0, "name": "bba446eeae18d325e7db8189bc73cc53", "is_reserved": 0, "rental_uris": {"android": "https://dc.lft.to/lastmile_qr_scan", "ios": "https://dc.lft.to/lastmile_qr_scan"}, "fusion_lon": 0.0}, {"lat": 38.884882166666664, "is_disabled": 0, "type": "electric_scooter", "lon": -77.007144, "bike_id": "79bb3c424f86c8709c189c138d651c0c", "fusion_lat": 0.0, "name": "79bb3c424f86c8709c189c138d651c0c", "is_reserved": 0, "rental_uris": {"android": "https://dc.lft.to/lastmile_qr_scan", "ios": "https://dc.lft.to/lastmile_qr_scan"}, "fusion_lon": 0.0}, {"lat": 38.934779166666665, "is_disabled": 0, "type": "electric_scooter", "lon": -77.03579216666667, "bike_id": "c56c78b5d34aba68fc2d946d17ba5e0c", "fusion_lat": 0.0, "name": "c56c78b5d34aba68fc2d946d17ba5e0c", "is_reserved": 0, "rental_uris": {"android": "https://dc.lft.to/lastmile_qr_scan", "ios": "https://dc.lft.to/lastmile_qr_scan"}, "fusion_lon": 0.0}, {"lat": 38.843028333333336, "is_disabled": 0, "type": "electric_scooter", "lon": -76.99942966666667, "bike_id": "b050e1ac2a1d875afb0958d8fa565493", "fusion_lat": 0.0, "name": "b050e1ac2a1d875afb0958d8fa565493", "is_reserved": 0, "rental_uris": {"android": "https://dc.lft.to/lastmile_qr_scan", "ios": "https://dc.lft.to/lastmile_qr_scan"}, "fusion_lon": 0.0}, {"lat": 38.84269116666667, "is_disabled": 0, "type": "electric_bike", "lon": -76.98841916666666, "bike_id": "c49d3178b5a83261f5fbfa57d01c5320", "fusion_lat": 0.0, "name": "c49d3178b5a83261f5fbfa57d01c5320", "is_reserved": 0, "rental_uris": {"android": "https://dc.lft.to/lastmile_qr_scan", "ios": "https://dc.lft.to/lastmile_qr_scan"}, "fusion_lon": 0.0}, {"lat": 38.932337, "is_disabled": 0, "type": "electric_scooter", "lon": -76.99601216666667, "bike_id": "2673e0d3db006c9e3817aa73c5428717", "fusion_lat": 0.0, "name": "2673e0d3db006c9e3817aa73c5428717", "is_reserved": 0, "rental_uris": {"android": "https://dc.lft.to/lastmile_qr_scan", "ios": "https://dc.lft.to/lastmile_qr_scan"}, "fusion_lon": 0.0}, {"lat": 38.94291833333333, "is_disabled": 0, "type": "electric_scooter", "lon": -77.02177, "bike_id": "549294c4e60d0d1842dab7539214386b", "fusion_lat": 0.0, "name": "549294c4e60d0d1842dab7539214386b", "is_reserved": 0, "rental_uris": {"android": "https://dc.lft.to/lastmile_qr_scan", "ios": "https://dc.lft.to/lastmile_qr_scan"}, "fusion_lon": 0.0}, {"lat": 38.87578216666667, "is_disabled": 0, "type": "electric_bike", "lon": -77.10561616666666, "bike_id": "796513753472602edb7aaf55d3bb2352", "fusion_lat": 0.0, "name": "796513753472602edb7aaf55d3bb2352", "is_reserved": 0, "rental_uris": {"android": "https://dc.lft.to/lastmile_qr_scan", "ios": "https://dc.lft.to/lastmile_qr_scan"}, "fusion_lon": 0.0}, {"lat": 38.909769833333335, "is_disabled": 0, "type": "electric_bike", "lon": -76.98519866666666, "bike_id": "b30ab8a35282f2fde9fc2dbd69e5d133", "fusion_lat": 0.0, "name": "b30ab8a35282f2fde9fc2dbd69e5d133", "is_reserved": 0, "rental_uris": {"android": "https://dc.lft.to/lastmile_qr_scan", "ios": "https://dc.lft.to/lastmile_qr_scan"}, "fusion_lon": 0.0}, {"lat": 38.907928, "is_disabled": 0, "type": "electric_scooter", "lon": -77.043553, "bike_id": "f5befa3f6543d9303e2c02d5f2206b13", "fusion_lat": 0.0, "name": "f5befa3f6543d9303e2c02d5f2206b13", "is_reserved": 0, "rental_uris": {"android": "https://dc.lft.to/lastmile_qr_scan", "ios": "https://dc.lft.to/lastmile_qr_scan"}, "fusion_lon": 0.0}, {"lat": 38.903644, "is_disabled": 0, "type": "electric_scooter", "lon": -77.042693, "bike_id": "783f25a612a010e39a748e5a55f25acc", "fusion_lat": 0.0, "name": "783f25a612a010e39a748e5a55f25acc", "is_reserved": 0, "rental_uris": {"android": "https://dc.lft.to/lastmile_qr_scan", "ios": "https://dc.lft.to/lastmile_qr_scan"}, "fusion_lon": 0.0}, {"lat": 38.92568, "is_disabled": 0, "type": "electric_scooter", "lon": -77.03536783333334, "bike_id": "6e873fe4bbbc4a330942493edb4f963c", "fusion_lat": 0.0, "name": "6e873fe4bbbc4a330942493edb4f963c", "is_reserved": 0, "rental_uris": {"android": "https://dc.lft.to/lastmile_qr_scan", "ios": "https://dc.lft.to/lastmile_qr_scan"}, "fusion_lon": 0.0}, {"lat": 38.908107666666666, "is_disabled": 0, "type": "electric_scooter", "lon": -76.982757, "bike_id": "ecb4f7dda1d37270c64c652682173d9a", "fusion_lat": 0.0, "name": "ecb4f7dda1d37270c64c652682173d9a", "is_reserved": 0, "rental_uris": {"android": "https://dc.lft.to/lastmile_qr_scan", "ios": "https://dc.lft.to/lastmile_qr_scan"}, "fusion_lon": 0.0}, {"lat": 38.902676, "is_disabled": 0, "type": "electric_scooter", "lon": -77.033747, "bike_id": "569fee921a960691aef3ecf1dff4369d", "fusion_lat": 0.0, "name": "569fee921a960691aef3ecf1dff4369d", "is_reserved": 0, "rental_uris": {"android": "https://dc.lft.to/lastmile_qr_scan", "ios": "https://dc.lft.to/lastmile_qr_scan"}, "fusion_lon": 0.0}, {"lat": 38.88054316666667, "is_disabled": 0, "type": "electric_bike", "lon": -77.10950066666666, "bike_id": "d5a24bf2e70cbcd3de3122d211d760b7", "fusion_lat": 0.0, "name": "d5a24bf2e70cbcd3de3122d211d760b7", "is_reserved": 0, "rental_uris": {"android": "https://dc.lft.to/lastmile_qr_scan", "ios": "https://dc.lft.to/lastmile_qr_scan"}, "fusion_lon": 0.0}, {"lat": 38.90562966666667, "is_disabled": 0, "type": "electric_scooter", "lon": -77.03416816666666, "bike_id": "2b4de6d646345fe19d3bc04e40f95a1f", "fusion_lat": 0.0, "name": "2b4de6d646345fe19d3bc04e40f95a1f", "is_reserved": 0, "rental_uris": {"android": "https://dc.lft.to/lastmile_qr_scan", "ios": "https://dc.lft.to/lastmile_qr_scan"}, "fusion_lon": 0.0}, {"lat": 38.9141865, "is_disabled": 0, "type": "electric_scooter", "lon": -77.0220405, "bike_id": "52d6d181d725a296f28e4ca68c3cfa7b", "fusion_lat": 0.0, "name": "52d6d181d725a296f28e4ca68c3cfa7b", "is_reserved": 0, "rental_uris": {"android": "https://dc.lft.to/lastmile_qr_scan", "ios": "https://dc.lft.to/lastmile_qr_scan"}, "fusion_lon": 0.0}, {"lat": 38.89348183333333, "is_disabled": 0, "type": "electric_scooter", "lon": -76.949336, "bike_id": "c028f1c09d7bfb57f5520b25a7095eba", "fusion_lat": 0.0, "name": "c028f1c09d7bfb57f5520b25a7095eba", "is_reserved": 0, "rental_uris": {"android": "https://dc.lft.to/lastmile_qr_scan", "ios": "https://dc.lft.to/lastmile_qr_scan"}, "fusion_lon": 0.0}, {"lat": 38.97274733333333, "is_disabled": 0, "type": "electric_bike", "lon": -77.03626216666666, "bike_id": "8528986a5e528f3db5d02f292c3690c3", "fusion_lat": 0.0, "name": "8528986a5e528f3db5d02f292c3690c3", "is_reserved": 0, "rental_uris": {"android": "https://dc.lft.to/lastmile_qr_scan", "ios": "https://dc.lft.to/lastmile_qr_scan"}, "fusion_lon": 0.0}, {"lat": 38.9181995, "is_disabled": 0, "type": "electric_scooter", "lon": -77.03917133333333, "bike_id": "3d3c319d53b2d16a72e0c0aa109c24a1", "fusion_lat": 0.0, "name": "3d3c319d53b2d16a72e0c0aa109c24a1", "is_reserved": 0, "rental_uris": {"android": "https://dc.lft.to/lastmile_qr_scan", "ios": "https://dc.lft.to/lastmile_qr_scan"}, "fusion_lon": 0.0}, {"lat": 38.8946715, "is_disabled": 0, "type": "electric_scooter", "lon": -77.02113783333333, "bike_id": "89411b4cd6a6633212e98c1a3e785026", "fusion_lat": 0.0, "name": "89411b4cd6a6633212e98c1a3e785026", "is_reserved": 0, "rental_uris": {"android": "https://dc.lft.to/lastmile_qr_scan", "ios": "https://dc.lft.to/lastmile_qr_scan"}, "fusion_lon": 0.0}, {"lat": 38.934174166666665, "is_disabled": 0, "type": "electric_scooter", "lon": -77.02844116666667, "bike_id": "975996716721aee2112d0a0f7056b604", "fusion_lat": 0.0, "name": "975996716721aee2112d0a0f7056b604", "is_reserved": 0, "rental_uris": {"android": "https://dc.lft.to/lastmile_qr_scan", "ios": "https://dc.lft.to/lastmile_qr_scan"}, "fusion_lon": 0.0}, {"lat": 38.84430366666667, "is_disabled": 0, "type": "electric_scooter", "lon": -76.99811066666666, "bike_id": "82a98c4c62ae6e42525b701c88ecffe3", "fusion_lat": 0.0, "name": "82a98c4c62ae6e42525b701c88ecffe3", "is_reserved": 0, "rental_uris": {"android": "https://dc.lft.to/lastmile_qr_scan", "ios": "https://dc.lft.to/lastmile_qr_scan"}, "fusion_lon": 0.0},