{"data": {"bikes": [{"name": "ae68c9cfa1c19041bb7f4678d537980d", "fusion_lat": 0.0, "type": "electric_scooter", "lat": 38.9162175, "is_reserved": 0, "is_disabled": 0, "fusion_lon": 0.0, "bike_id": "ae68c9cfa1c19041bb7f4678d537980d", "lon": -77.0317615, "rental_uris": {"ios": "https://dc.lft.to/lastmile_qr_scan", "android": "https://dc.lft.to/lastmile_qr_scan"}}, {"name": "0937d957b22abce59519827bdc8094e0", "fusion_lat": 0.0, "type": "electric_scooter", "lat": 38.923876, "is_reserved": 0, "is_disabled": 0, "fusion_lon": 0.0, "bike_id": "0937d957b22abce59519827bdc8094e0", "lon": -77.02976133333334, "rental_uris": {"ios": "https://dc.lft.to/lastmile_qr_scan", "android": "https://dc.lft.to/lastmile_qr_scan"}}, {"name": "bc543e06e940dabb10c162ceda5b621c", "fusion_lat": 0.0, "type": "electric_scooter", "lat": 38.8624845, "is_reserved": 0, "is_disabled": 0, "fusion_lon": 0.0, "bike_id": "bc543e06e940dabb10c162ceda5b621c", "lon": -76.99530966666667, "rental_uris": {"ios": "https://dc.lft.to/lastmile_qr_scan", "android": "https://dc.lft.to/lastmile_qr_scan"}}, {"name": "31e6607b0630f1e7fb7302b87a98389d", "fusion_lat": 0.0, "type": "electric_scooter", "lat": 38.9235875, "is_reserved": 0, "is_disabled": 0, "fusion_lon": 0.0, "bike_id": "31e6607b0630f1e7fb7302b87a98389d", "lon": -77.033747, "rental_uris": {"ios": "https://dc.lft.to/lastmile_qr_scan", "android": "https://dc.lft.to/lastmile_qr_scan"}}, {"name": "d3efb7e7f66a72a593f141e7d45dc831", "fusion_lat": 0.0, "type": "electric_scooter", "lat": 38.885077833333334, "is_reserved": 0, "is_disabled": 0, "fusion_lon": 0.0, "bike_id": "d3efb7e7f66a72a593f141e7d45dc831", "lon": -77.0034435, "rental_uris": {"ios": "https://dc.lft.to/lastmile_qr_scan", "android": "https://dc.lft.to/lastmile_qr_scan"}}, {"name": "237b406f5e0705dc9c413098e6ed778d", "fusion_lat": 0.0, "type": "electric_scooter", "lat": 38.8681635, "is_reserved": 0, "is_disabled": 0, "fusion_lon": 0.0, "bike_id": "237b406f5e0705dc9c413098e6ed778d", "lon": -76.98615483333333, "rental_uris": {"ios": "https://dc.lft.to/lastmile_qr_scan", "android": "https://dc.lft.to/lastmile_qr_scan"}}, {"name": "f7248a3407fa73f713e2ed4a90c57a95", "fusion_lat": 0.0, "type": "electric_bike", "lat": 38.885794833333335, "is_reserved": 0, "is_disabled": 0, "fusion_lon": 0.0, "bike_id": "f7248a3407fa73f713e2ed4a90c57a95", "lon": -77.10345933333333, "rental_uris": {"ios": "https://dc.lft.to/lastmile_qr_scan", "android": "https://dc.lft.to/lastmile_qr_scan"}}, {"name": "8e1977cc37279f3d7bcebccab56947a3", "fusion_lat": 0.0, "type": "electric_scooter", "lat": 38.89400533333333, "is_reserved": 0, "is_disabled": 0, "fusion_lon": 0.0, "bike_id": "8e1977cc37279f3d7bcebccab56947a3", "lon": -76.948064, "rental_uris": {"ios": "https://dc.lft.to/lastmile_qr_scan", "android": "https://dc.lft.to/lastmile_qr_scan"}}, {"name": "19987f74f8d9b2fef20c9291990f125e", "fusion_lat": 0.0, "type": "electric_scooter", "lat": 38.93004066666666, "is_reserved": 0, "is_disabled": 0, "fusion_lon": 0.0, "bike_id": "19987f74f8d9b2fef20c9291990f125e", "lon": -77.02302183333333, "rental_uris": {"ios": "https://dc.lft.to/lastmile_qr_scan", "android": "https://dc.lft.to/lastmile_qr_scan"}}, {"name": "f5fb88ad26d4392470f4594d345a2e1a", "fusion_lat": 0.0, "type": "electric_scooter", "lat": 38.902612166666664, "is_reserved": 0, "is_disabled": 0, "fusion_lon": 0.0, "bike_id": "f5fb88ad26d4392470f4594d345a2e1a", "lon": -77.0345215, "rental_uris": {"ios": "https://dc.lft.to/lastmile_qr_scan", "android": "https://dc.lft.to/lastmile_qr_scan"}}, {"name": "d56b3d1aaa9f7cf2658e11d87455bd39", "fusion_lat": 0.0, "type": "electric_scooter", "lat": 38.864157166666665, "is_reserved": 0, "is_disabled": 0, "fusion_lon": 0.0, "bike_id": "d56b3d1aaa9f7cf2658e11d87455bd39", "lon": -76.98044316666666, "rental_uris": {"ios": "https://dc.lft.to/lastmile_qr_scan", "android": "https://dc.lft.to/lastmile_qr_scan"}}, {"name": "d7b88450c0116eb563badd1c94b48857", "fusion_lat": 0.0, "type": "electric_bike", "lat": 38.89637166666667, "is_reserved": 0, "is_disabled": 0, "fusion_lon": 0.0, "bike_id": "d7b88450c0116eb563badd1c94b48857", "lon": -77.104559, "rental_uris": {"ios": "https://dc.lft.to/lastmile_qr_scan", "android": "https://dc.lft.to/lastmile_qr_scan"}}, {"name": "4647d49c411521d657baf71767284bde", "fusion_lat": 0.0, "type": "electric_scooter", "lat": 38.8996485, "is_reserved": 0, "is_disabled": 0, "fusion_lon": 0.0, "bike_id": "4647d49c411521d657baf71767284bde", "lon": -77.03125366666667, "rental_uris": {"ios": "https://dc.lft.to/lastmile_qr_scan", "android": "https://dc.lft.to/lastmile_qr_scan"}}, {"name": "5169b02c5309bb4f7820d67c99f29efa", "fusion_lat": 0.0, "type": "electric_scooter", "lat": 38.9187345, "is_reserved": 0, "is_disabled": 0, "fusion_lon": 0.0, "bike_id": "5169b02c5309bb4f7820d67c99f29efa", "lon": -77.04351066666666, "rental_uris": {"ios": "https://dc.lft.to/lastmile_qr_scan", "android": "https://dc.lft.to/lastmile_qr_scan"}}, {"name": "06a0a958580990db8b8fa3a21e197108", "fusion_lat": 0.0, "type": "electric_scooter", "lat": 38.89722966666667, "is_reserved": 0, "is_disabled": 0, "fusion_lon": 0.0, "bike_id": "06a0a958580990db8b8fa3a21e197108", "lon": -77.02795533333334, "rental_uris": {"ios": "https://dc.lft.to/lastmile_qr_scan", "android": "https://dc.lft.to/lastmile_qr_scan"}}, {"name": "ec26d5b9f4004117ae87b8c4a69ef9d9", "fusion_lat": 0.0, "type": "electric_scooter", "lat": 38.896041, "is_reserved": 0, "is_disabled": 0, "fusion_lon": 0.0, "bike_id": "ec26d5b9f4004117ae87b8c4a69ef9d9", "lon": -77.04680216666667, "rental_uris": {"ios": "https://dc.lft.to/lastmile_qr_scan", "android": "https://dc.lft.to/lastmile_qr_scan"}}, {"name": "7689fd6cb8dc314ade6d56c62a78ece5", "fusion_lat": 0.0, "type": "electric_scooter", "lat": 38.9320615, "is_reserved": 0, "is_disabled": 0, "fusion_lon": 0.0, "bike_id": "7689fd6cb8dc314ade6d56c62a78ece5", "lon": -77.02730716666667, "rental_uris": {"ios": "https://dc.lft.to/lastmile_qr_scan", "android": "https://dc.lft.to/lastmile_qr_scan"}}, {"name": "b537e1662e16a86598869a58ba8c9169", "fusion_lat": 0.0, "type": "electric_bike", "lat": 38.96863833333333, "is_reserved": 0, "is_disabled": 0, "fusion_lon": 0.0, "bike_id": "b537e1662e16a86598869a58ba8c9169", "lon": -77.03326866666667, "rental_uris": {"ios": "https://dc.lft.to/lastmile_qr_scan", "android": "https://dc.lft.to/lastmile_qr_scan"}}, {"name": "3799f7172d1ad3c945845fcd0538b898", "fusion_lat": 0.0, "type": "electric_scooter", "lat": 38.874919, "is_reserved": 0, "is_disabled": 0, "fusion_lon": 0.0, "bike_id": "3799f7172d1ad3c945845fcd0538b898", "lon": -77.0017595, "rental_uris": {"ios": "https://dc.lft.to/lastmile_qr_scan", "android": "https://dc.lft.to/lastmile_qr_scan"}}, {"name": "ea20b1ed5a641c246000c7529736dd63", "fusion_lat": 0.0, "type": "electric_scooter", "lat": 38.91491766666667, "is_reserved": 0, "is_disabled": 0, "fusion_lon": 0.0, "bike_id": "ea20b1ed5a641c246000c7529736dd63", "lon": -77.0324165, "rental_uris": {"ios": "https://dc.lft.to/lastmile_qr_scan", "android": "https://dc.lft.to/lastmile_qr_scan"}}, {"name": "b55459e3f79eab839f9e3d04089ce503", "fusion_lat": 0.0, "type": "electric_scooter", "lat": 38.91920183333333, "is_reserved": 0, "is_disabled": 0, "fusion_lon": 0.0, "bike_id": "b55459e3f79eab839f9e3d04089ce503", "lon": -77.03090533333334, "rental_uris": {"ios": "https://dc.lft.to/lastmile_qr_scan", "android": "https://dc.lft.to/lastmile_qr_scan"}}, {"name": "c5b86eb359063ceb2c28c0d626ea7502", "fusion_lat": 0.0, "type": "electric_scooter", "lat": 38.905607833333335, "is_reserved": 0, "is_disabled": 0, "fusion_lon": 0.0, "bike_id": "c5b86eb359063ceb2c28c0d626ea7502", "lon": -77.04075766666666, "rental_uris": {"ios": "https://dc.lft.to/lastmile_qr_scan", "android": "https://dc.lft.to/lastmile_qr_scan"}}, {"name": "456150b2119c6a6326745dd0523593ad", "fusion_lat": 0.0, "type": "electric_scooter", "lat": 38.913335333333336, "is_reserved": 0, "is_disabled": 0, "fusion_lon": 0.0, "bike_id": "456150b2119c6a6326745dd0523593ad", "lon": -77.03129, "rental_uris": {"ios": "https://dc.lft.to/lastmile_qr_scan", "android": "https://dc.lft.to/lastmile_qr_scan"}}, {"name": "c48812274fe1e1ba3ad7ad887e1cd039", "fusion_lat": 0.0, "type": "electric_scooter", "lat": 38.903286333333334, "is_reserved": 0, "is_disabled": 0, "fusion_lon": 0.0, "bike_id": "c48812274fe1e1ba3ad7ad887e1cd039", "lon": -77.0416535, "rental_uris": {"ios": "https://dc.lft.to/lastmile_qr_scan", "android": "https://dc.lft.to/lastmile_qr_scan"}}, {"name": "283a2528698c628d507fae7cfbfacb84", "fusion_lat": 0.0, "type": "electric_scooter", "lat": 38.9306295, "is_reserved": 0, "is_disabled": 0, "fusion_lon": 0.0, "bike_id": "283a2528698c628d507fae7cfbfacb84", "lon": -77.03956716666667, "rental_uris": {"ios": "https://dc.lft.to/lastmile_qr_scan", "android": "https://dc.lft.to/lastmile_qr_scan"}}, {"name": "e23d2607d84a3d5aaf8818fa02fc95ab", "fusion_lat": 0.0, "type": "electric_scooter", "lat": 38.89731033333333, "is_reserved": 0, "is_disabled": 0, "fusion_lon": 0.0, "bike_id": "e23d2607d84a3d5aaf8818fa02fc95ab", "lon": -77.04647216666666, "rental_uris": {"ios": "https://dc.lft.to/lastmile_qr_scan", "android": "https://dc.lft.to/lastmile_qr_scan"}}, {"name": "19883c4f3d77b593d86525b5cbbdffa9", "fusion_lat": 0.0, "type": "electric_scooter", "lat": 38.911858333333335, "is_reserved": 0, "is_disabled": 0, "fusion_lon": 0.0, "bike_id": "19883c4f3d77b593d86525b5cbbdffa9", "lon": -77.0449905, "rental_uris": {"ios": "https://dc.lft.to/lastmile_qr_scan", "android": "https://dc.lft.to/lastmile_qr_scan"}}, {"name": "44ba016f884e829919459250a05ae9ed", "fusion_lat": 0.0, "type": "electric_bike", "lat": 38.955437833333335, "is_reserved": 0, "is_disabled": 0, "fusion_lon": 0.0, "bike_id": "44ba016f884e829919459250a05ae9ed", "lon": -77.01615483333333, "rental_uris": {"ios": "https://dc.lft.to/lastmile_qr_scan", "android": "https://dc.lft.to/lastmile_qr_scan"}}, {"name": "e5b85e4089c84110809b218a248f2572", "fusion_lat": 0.0, "type": "electric_scooter", "lat": 38.87647033333333, "is_reserved": 0, "is_disabled": 0, "fusion_lon": 0.0, "bike_id": "e5b85e4089c84110809b218a248f2572", "lon": -76.96506883333333, "rental_uris": {"ios": "https://dc.lft.to/lastmile_qr_scan", "android": "https://dc.lft.to/lastmile_qr_scan"}}, {"name": "e27371a51ee789558230e65f26add58d", "fusion_lat": 0.0, "type": "electric_scooter", "lat": 38.8960235, "is_reserved": 0, "is_disabled": 0, "fusion_lon": 0.0, "bike_id": "e27371a51ee789558230e65f26add58d", "lon": -77.04123283333334, "rental_uris": {"ios": "https://dc.lft.to/lastmile_qr_scan", "android": "https://dc.lft.to/lastmile_qr_scan"}}, {"name": "d31b3d5f2ec76cb06205eb6e119954f8", "fusion_lat": 0.0, "type": "electric_bike", "lat": 39.1056355, "is_reserved": 0, "is_disabled": 0, "fusion_lon": 0.0, "bike_id": "d31b3d5f2ec76cb06205eb6e119954f8", "lon": -77.15268416666666, "rental_uris": {"ios": "https://dc.lft.to/lastmile_qr_scan", "android": "https://dc.lft.to/lastmile_qr_scan"}}, {"name": "fcf52ad58b071e0727a77ebd562b2cf5", "fusion_lat": 0.0, "type": "electric_scooter", "lat": 38.905776, "is_reserved": 0, "is_disabled": 0, "fusion_lon": 0.0, "bike_id": "fcf52ad58b071e0727a77ebd562b2cf5", "lon": -77.01424816666666, "rental_uris": {"ios": "https://dc.lft.to/lastmile_qr_scan", "android": "https://dc.lft.to/lastmile_qr_scan"}}, {"name": "6b5226e0beb48038501b1cb6cbe41b23", "fusion_lat": 0.0, "type": "electric_scooter", "lat": 38.91932883333333, "is_reserved": 0, "is_disabled": 0, "fusion_lon": 0.0, "bike_id": "6b5226e0beb48038501b1cb6cbe41b23", "lon": -77.04491683333333, "rental_uris": {"ios": "https://dc.lft.to/lastmile_qr_scan", "android": "https://dc.lft.to/lastmile_qr_scan"}}, {"name": "a1337a1aca620840ee85ae7c3b465bc0", "fusion_lat": 0.0, "type": "electric_bike", "lat": 38.886669, "is_reserved": 0, "is_disabled": 0, "fusion_lon": 0.0, "bike_id": "a1337a1aca620840ee85ae7c3b465bc0", "lon": -77.16237183333334, "rental_uris": {"ios": "https://dc.lft.to/lastmile_qr_scan", "android": "https://dc.lft.to/lastmile_qr_scan"}}, {"name": "14b2c50f286aebc0655ff53eaed9028a", "fusion_lat": 0.0, "type": "electric_scooter", "lat": 38.895268, "is_reserved": 0, "is_disabled": 0, "fusion_lon": 0.0, "bike_id": "14b2c50f286aebc0655ff53eaed9028a", "lon": -76.94921033333334, "rental_uris": {"ios": "https://dc.lft.to/lastmile_qr_scan", "android": "https://dc.lft.to/lastmile_qr_scan"}}, {"name": "b423a2e61d9d5b7b3dd641ceaebfb970", "fusion_lat": 0.0, "type": "electric_scooter", "lat": 38.89614983333333, "is_reserved": 0, "is_disabled": 0, "fusion_lon": 0.0, "bike_id": "b423a2e61d9d5b7b3dd641ceaebfb970", "lon": -77.02392883333333, "rental_uris": {"ios": "https://dc.lft.to/lastmile_qr_scan", "android": "https://dc.lft.to/lastmile_qr_scan"}}, {"name": "191625243e33d36581df85425009475e", "fusion_lat": 0.0, "type": "electric_scooter", "lat": 38.874751833333335, "is_reserved": 0, "is_disabled": 0, "fusion_lon": 0.0, "bike_id": "191625243e33d36581df85425009475e", "lon": -77.0106785, "rental_uris": {"ios": "https://dc.lft.to/lastmile_qr_scan", "android": "https://dc.lft.to/lastmile_qr_scan"}}, {"name": "f2409d086aae8885894ae82b8ba48a25", "fusion_lat": 0.0, "type": "electric_scooter", "lat": 38.903888333333335, "is_reserved": 0, "is_disabled": 0, "fusion_lon": 0.0, "bike_id": "f2409d086aae8885894ae82b8ba48a25", "lon": -76.989392, "rental_uris": {"ios": "https://dc.lft.to/lastmile_qr_scan", "android": "https://dc.lft.to/lastmile_qr_scan"}}, {"name": "c07f4492c513d2e4f5be49f07d65c7e2", "fusion_lat": 0.0, "type": "electric_bike", "lat": 38.896458333333335, "is_reserved": 0, "is_disabled": 0, "fusion_lon": 0.0, "bike_id": "c07f4492c513d2e4f5be49f07d65c7e2", "lon": -77.10450316666666, "rental_uris": {"ios": "https://dc.lft.to/lastmile_qr_scan", "android": "https://dc.lft.to/lastmile_qr_scan"}}, {"name": "be097b1bd28d2237a80e76758161c562", "fusion_lat": 0.0, "type": "electric_scooter", "lat": 38.89669, "is_reserved": 0, "is_disabled": 0, "fusion_lon": 0.0, "bike_id": "be097b1bd28d2237a80e76758161c562", "lon": -76.94726816666666, "rental_uris": {"ios": "https://dc.lft.to/lastmile_qr_scan", "android": "https://dc.lft.to/lastmile_qr_scan"}}, {"name": "0d7677d77a90952c4a33d25d79699145", "fusion_lat": 0.0, "type": "electric_scooter", "lat": 38.914094, "is_reserved": 0, "is_disabled": 0, "fusion_lon": 0.0, "bike_id": "0d7677d77a90952c4a33d25d79699145", "lon": -77.00971683333333, "rental_uris": {"ios": "https://dc.lft.to/lastmile_qr_scan", "android": "https://dc.lft.to/lastmile_qr_scan"}}, {"name": "964847dc8bf956cba6da7e138de7c0df", "fusion_lat": 0.0, "type": "electric_scooter", "lat": 38.913499, "is_reserved": 0, "is_disabled": 0, "fusion_lon": 0.0, "bike_id": "964847dc8bf956cba6da7e138de7c0df", "lon": -77.039617, "rental_uris": {"ios": "https://dc.lft.to/lastmile_qr_scan", "android": "https://dc.lft.to/lastmile_qr_scan"}}, {"name": "f307015cd2c8fda76e42e93c05fa4244", "fusion_lat": 0.0, "type": "electric_scooter", "lat": 38.923564666666664, "is_reserved": 0, "is_disabled": 0, "fusion_lon": 0.0, "bike_id": "f307015cd2c8fda76e42e93c05fa4244", "lon": -77.0505795, "rental_uris": {"ios": "https://dc.lft.to/lastmile_qr_scan", "android": "https://dc.lft.to/lastmile_qr_scan"}}, {"name": "dd97e472eeaaf7b433a0c2e6438f29b3", "fusion_lat": 0.0, "type": "electric_bike", "lat": 38.86868283333333, "is_reserved": 0, "is_disabled": 0, "fusion_lon": 0.0, "bike_id": "dd97e472eeaaf7b433a0c2e6438f29b3", "lon": -76.91663, "rental_uris": {"ios": "https://dc.lft.to/lastmile_qr_scan", "android": "https://dc.lft.to/lastmile_qr_scan"}}, {"name": "1767bca9c97f8c56e405a321963f5a5b", "fusion_lat": 0.0, "type": "electric_scooter", "lat": 38.900257, "is_reserved": 0, "is_disabled": 0, "fusion_lon": 0.0, "bike_id": "1767bca9c97f8c56e405a321963f5a5b", "lon": -76.998562, "rental_uris": {"ios": "https://dc.lft.to/lastmile_qr_scan", "android": "https://dc.lft.to/lastmile_qr_scan"}}, {"name": "3a901881fa249fed45b329d98b22d681", "fusion_lat": 0.0, "type": "electric_scooter", "lat": 38.898481, "is_reserved": 0, "is_disabled": 0, "fusion_lon": 0.0, "bike_id": "3a901881fa249fed45b329d98b22d681", "lon": -77.01610383333333, "rental_uris": {"ios": "https://dc.lft.to/lastmile_qr_scan", "android": "https://dc.lft.to/lastmile_qr_scan"}}, {"name": "653fe34fc11c67aab8a39ff8014fdc70", "fusion_lat": 0.0, "type": "electric_scooter", "lat": 38.871469833333336, "is_reserved": 0, "is_disabled": 0, "fusion_lon": 0.0, "bike_id": "653fe34fc11c67aab8a39ff8014fdc70", "lon": -77.0062525, "rental_uris": {"ios": "https://dc.lft.to/lastmile_qr_scan", "android": "https://dc.lft.to/lastmile_qr_scan"}}, {"name": "8e3dde6239dd6b09d325faf78fd3bb75", "fusion_lat": 0.0, "type": "electric_scooter", "lat": 38.937071, "is_reserved": 0, "is_disabled": 0, "fusion_lon": 0.0, "bike_id": "8e3dde6239dd6b09d325faf78fd3bb75", "lon": -77.06100966666666, "rental_uris": {"ios": "https://dc.lft.to/lastmile_qr_scan", "android": "https://dc.lft.to/lastmile_qr_scan"}}, {"name": "6e219fd617b75edbcbfcb94e55f2ca76", "fusion_lat": 0.0, "type": "electric_bike", "lat": 38.91869766666667, "is_reserved": 0, "is_disabled": 0, "fusion_lon": 0.0, "bike_id": "6e219fd617b75edbcbfcb94e55f2ca76", "lon": -77.035089, "rental_uris": {"ios": "https://dc.lft.to/lastmile_qr_scan", "android": "https://dc.lft.to/lastmile_qr_scan"}}, {"name": "83ad37ea16fe1faa76281755bf1ba875", "fusion_lat": 0.0, "type": "electric_scooter", "lat": 38.92739233333333, "is_reserved": 0, "is_disabled": 0, "fusion_lon": 0.0, "bike_id": "83ad37ea16fe1faa76281755bf1ba875", "lon": -77.0249435, "rental_uris": {"ios": "https://dc.lft.to/lastmile_qr_scan", "android": "https://dc.lft.to/lastmile_qr_scan"}}, {"name": "30588b8c79929e79fca5a8125a536162", "fusion_lat": 0.0, "type": "electric_scooter", "lat": 38.93612783333333, "is_reserved": 0, "is_disabled": 0, "fusion_lon": 0.0, "bike_id": "30588b8c79929e79fca5a8125a536162", "lon": -77.032112, "rental_uris": {"ios": "https://dc.lft.to/lastmile_qr_scan", "android": "https://dc.lft.to/lastmile_qr_scan"}}, {"name": "4e11a12b8e5a841e477dad04c18c7336", "fusion_lat": 0.0, "type": "electric_scooter", "lat": 38.910106666666664, "is_reserved": 0, "is_disabled": 0, "fusion_lon": 0.0, "bike_id": "4e11a12b8e5a841e477dad04c18c7336", "lon": -76.99672916666667, "rental_uris": {"ios": "https://dc.lft.to/lastmile_qr_scan", "android": "https://dc.lft.to/lastmile_qr_scan"}}, {"name": "96584ea769b48e737a31566efe91a4f8", "fusion_lat": 0.0, "type": "electric_scooter", "lat": 38.9440255, "is_reserved": 0, "is_disabled": 0, "fusion_lon": 0.0, "bike_id": "96584ea769b48e737a31566efe91a4f8", "lon": -77.063333, "rental_uris": {"ios": "https://dc.lft.to/lastmile_qr_scan", "android": "https://dc.lft.to/lastmile_qr_scan"}}, {"name": "a61a3cb25ddd2d43c4f9ee9f87aa5fba", "fusion_lat": 0.0, "type": "electric_scooter", "lat": 38.93123083333333, "is_reserved": 0, "is_disabled": 0, "fusion_lon": 0.0, "bike_id": "a61a3cb25ddd2d43c4f9ee9f87aa5fba", "lon": -77.036052, "rental_uris": {"ios": "https://dc.lft.to/lastmile_qr_scan", "android": "https://dc.lft.to/lastmile_qr_scan"}}, {"name": "9837eb1d91415611aa4c29e6f2ee8f91", "fusion_lat": 0.0, "type": "electric_bike", "lat": 38.84477433333333, "is_reserved": 0, "is_disabled": 0, "fusion_lon": 0.0, "bike_id": "9837eb1d91415611aa4c29e6f2ee8f91", "lon": -76.97212383333333, "rental_uris": {"ios": "https://dc.lft.to/lastmile_qr_scan", "android": "https://dc.lft.to/lastmile_qr_scan"}}, {"name": "e99d1d2f85f211afbc09f31a4e2e2e78", "fusion_lat": 0.0, "type": "electric_scooter", "lat": 38.917237166666666, "is_reserved": 0, "is_disabled": 0, "fusion_lon": 0.0, "bike_id": "e99d1d2f85f211afbc09f31a4e2e2e78", "lon": -77.01864316666666, "rental_uris": {"ios": "https://dc.lft.to/lastmile_qr_scan", "android": "https://dc.lft.to/lastmile_qr_scan"}}, {"name": "d7435ae9b9ed0886c9f44cbf8f4381b4", "fusion_lat": 0.0, "type": "electric_scooter", "lat": 38.9175865, "is_reserved": 0, "is_disabled": 0, "fusion_lon": 0.0, "bike_id": "d7435ae9b9ed0886c9f44cbf8f4381b4", "lon": -77.02512083333333, "rental_uris": {"ios": "https://dc.lft.to/lastmile_qr_scan", "android": "https://dc.lft.to/lastmile_qr_scan"}}, {"name": "5299120abec47d781554a1860acc7484", "fusion_lat": 0.0, "type": "electric_scooter", "lat": 38.903587333333334, "is_reserved": 0, "is_disabled": 0, "fusion_lon": 0.0, "bike_id": "5299120abec47d781554a1860acc7484", "lon": -77.04251483333333, "rental_uris": {"ios": "https://dc.lft.to/lastmile_qr_scan", "android": "https://dc.lft.to/lastmile_qr_scan"}}, {"name": "45bae9c41e06203f708f89947dc05649", "fusion_lat": 0.0, "type": "electric_scooter", "lat": 38.89241083333334, "is_reserved": 0, "is_disabled": 0, "fusion_lon": 0.0, "bike_id": "45bae9c41e06203f708f89947dc05649", "lon": -77.03954766666666, "rental_uris": {"ios": "https://dc.lft.to/lastmile_qr_scan", "android": "https://dc.lft.to/lastmile_qr_scan"}}, {"name": "22db2f9de442635db82c787bbac11f0a", "fusion_lat": 0.0, "type": "electric_scooter", "lat": 38.89728216666666, "is_reserved": 0, "is_disabled": 0, "fusion_lon": 0.0, "bike_id": "22db2f9de442635db82c787bbac11f0a", "lon": -77.0464645, "rental_uris": {"ios": "https://dc.lft.to/lastmile_qr_scan", "android": "https://dc.lft.to/lastmile_qr_scan"}}, {"name": "d9e2dc8e180158a58a8812d7036d7529", "fusion_lat": 0.0, "type": "electric_bike", "lat": 38.946285, "is_reserved": 0, "is_disabled": 0, "fusion_lon": 0.0, "bike_id": "d9e2dc8e180158a58a8812d7036d7529", "lon": -77.08039316666667, "rental_uris": {"ios": "https://dc.lft.to/lastmile_qr_scan", "android": "https://dc.lft.to/lastmile_qr_scan"}}, {"name": "b637232237fa8ebf35322b8fa4e0c42b", "fusion_lat": 0.0, "type": "electric_bike", "lat": 38.94262883333333, "is_reserved": 0, "is_disabled": 0, "fusion_lon": 0.0, "bike_id": "b637232237fa8ebf35322b8fa4e0c42b", "lon": -77.028404, "rental_uris": {"ios": "https://dc.lft.to/lastmile_qr_scan", "android": "https://dc.lft.to/lastmile_qr_scan"}}, {"name": "53bd47210e572381b37bb851e7a2f8b6", "fusion_lat": 0.0, "type": "electric_scooter", "lat": 38.91250216666667, "is_reserved": 0, "is_disabled": 0, "fusion_lon": 0.0, "bike_id": "53bd47210e572381b37bb851e7a2f8b6", "lon": -77.0383405, "rental_uris": {"ios": "https://dc.lft.to/lastmile_qr_scan", "android": "https://dc.lft.to/lastmile_qr_scan"}}, {"name": "3962a84d3024fb5a13050e7bc13b1a96", "fusion_lat": 0.0, "type": "electric_scooter", "lat": 38.9027355, "is_reserved": 0, "is_disabled": 0, "fusion_lon": 0.0, "bike_id": "3962a84d3024fb5a13050e7bc13b1a96", "lon": -77.0626685, "rental_uris": {"ios": "https://dc.lft.to/lastmile_qr_scan", "android": "https://dc.lft.to/lastmile_qr_scan"}}, {"name": "e9096e7471db7222d3eee0e1e9dd3ed3", "fusion_lat": 0.0, "type": "electric_bike", "lat": 38.910137166666665, "is_reserved": 0, "is_disabled": 0, "fusion_lon": 0.0, "bike_id": "e9096e7471db7222d3eee0e1e9dd3ed3", "lon": -77.03881383333334, "rental_uris": {"ios": "https://dc.lft.to/lastmile_qr_scan", "android": "https://dc.lft.to/lastmile_qr_scan"}}, {"name": "1fb5847ce947d38f1acb1c379839957a", "fusion_lat": 0.0, "type": "electric_scooter", "lat": 38.918290166666665, "is_reserved": 0, "is_disabled": 0, "fusion_lon": 0.0, "bike_id": "1fb5847ce947d38f1acb1c379839957a", "lon": -77.04561333333334, "rental_uris": {"ios": "https://dc.lft.to/lastmile_qr_scan", "android": "https://dc.lft.to/lastmile_qr_scan"}}, {"name": "9bb387bc3d98f2b91e67f2cd4d956a6d", "fusion_lat": 0.0, "type": "electric_scooter", "lat": 38.902595166666664, "is_reserved": 0, "is_disabled": 0, "fusion_lon": 0.0, "bike_id": "9bb387bc3d98f2b91e67f2cd4d956a6d", "lon": -77.009323, "rental_uris": {"ios": "https://dc.lft.to/lastmile_qr_scan", "android": "https://dc.lft.to/lastmile_qr_scan"}}, {"name": "e42e5c481403aca780a2702764a27ed3", "fusion_lat": 0.0, "type": "electric_scooter", "lat": 38.869563666666664, "is_reserved": 0, "is_disabled": 0, "fusion_lon": 0.0, "bike_id": "e42e5c481403aca780a2702764a27ed3", "lon": -77.01377683333334, "rental_uris": {"ios": "https://dc.lft.to/lastmile_qr_scan", "android": "https://dc.lft.to/lastmile_qr_scan"}}, {"name": "272eb3905e0c794defca6da02a929ec3", "fusion_lat": 0.0, "type": "electric_scooter", "lat": 38.911261333333336, "is_reserved": 0, "is_disabled": 0, "fusion_lon": 0.0, "bike_id": "272eb3905e0c794defca6da02a929ec3", "lon": -77.0219975, "rental_uris": {"ios": "https://dc.lft.to/lastmile_qr_scan", "android": "https://dc.lft.to/lastmile_qr_scan"}}, {"name": "3ece93ca00e23f978cf2bbc1915d4acd", "fusion_lat": 0.0, "type": "electric_scooter", "lat": 38.92933083333333, "is_reserved": 0, "is_disabled": 0, "fusion_lon": 0.0, "bike_id": "3ece93ca00e23f978cf2bbc1915d4acd", "lon": -77.032728, "rental_uris": {"ios": "https://dc.lft.to/lastmile_qr_scan", "android": "https://dc.lft.to/lastmile_qr_scan"}}, {"name": "5b60ec2cfe8dfe2c0c0a60ea5cec39a9", "fusion_lat": 0.0, "type": "electric_scooter", "lat": 38.8974325, "is_reserved": 0, "is_disabled": 0, "fusion_lon": 0.0, "bike_id": "5b60ec2cfe8dfe2c0c0a60ea5cec39a9", "lon": -77.01973266666667, "rental_uris": {"ios": "https://dc.lft.to/lastmile_qr_scan", "android": "https://dc.lft.to/lastmile_qr_scan"}}, {"name": "fc89efa989d9cee79de588af6fe5edb0", "fusion_lat": 0.0, "type": "electric_scooter", "lat": 38.89469966666667, "is_reserved": 0, "is_disabled": 0, "fusion_lon": 0.0, "bike_id": "fc89efa989d9cee79de588af6fe5edb0", "lon": -77.03054016666667, "rental_uris": {"ios": "https://dc.lft.to/lastmile_qr_scan", "android": "https://dc.lft.to/lastmile_qr_scan"}}, {"name": "f385ee89a8f8de29496909515090e0b8", "fusion_lat": 0.0, "type": "electric_scooter", "lat": 38.92340383333333, "is_reserved": 0, "is_disabled": 0, "fusion_lon": 0.0, "bike_id": "f385ee89a8f8de29496909515090e0b8", "lon": -77.05013616666666, "rental_uris": {"ios": "https://dc.lft.to/lastmile_qr_scan", "android": "https://dc.lft.to/lastmile_qr_scan"}}, {"name": "c0eff97dd6f6bda4a5c99c84ccebb61e", "fusion_lat": 0.0, "type": "electric_scooter", "lat": 38.87632083333333, "is_reserved": 0, "is_disabled": 0, "fusion_lon": 0.0, "bike_id": "c0eff97dd6f6bda4a5c99c84ccebb61e", "lon": -77.01573116666667, "rental_uris": {"ios": "https://dc.lft.to/lastmile_qr_scan", "android": "https://dc.lft.to/lastmile_qr_scan"}}, {"name": "f0178a92aef442748d9844548a40c117", "fusion_lat": 0.0, "type": "electric_scooter", "lat": 38.8650225, "is_reserved": 0, "is_disabled": 0, "fusion_lon": 0.0, "bike_id": "f0178a92aef442748d9844548a40c117", "lon": -76.99004466666666, "rental_uris": {"ios": "https://dc.lft.to/lastmile_qr_scan", "android": "https://dc.lft.to/lastmile_qr_scan"}}, {"name": "26797f590f0e0a170d5cf59671fcbc44", "fusion_lat": 0.0, "type": "electric_scooter", "lat": 38.936882833333335, "is_reserved": 0, "is_disabled": 0, "fusion_lon": 0.0, "bike_id": "26797f590f0e0a170d5cf59671fcbc44", "lon": -77.023971, "rental_uris": {"ios": "https://dc.lft.to/lastmile_qr_scan", "android": "https://dc.lft.to/lastmile_qr_scan"}}, {"name": "ec48eccbf46b0240065bb2ff4e65bc6d", "fusion_lat": 0.0, "type": "electric_scooter", "lat": 38.9149325, "is_reserved": 0, "is_disabled": 0, "fusion_lon": 0.0, "bike_id": "ec48eccbf46b0240065bb2ff4e65bc6d", "lon": -77.01860216666667, "rental_uris": {"ios": "https://dc.lft.to/lastmile_qr_scan", "android": "https://dc.lft.to/lastmile_qr_scan"}}, {"name": "22b4a68117cea5b8d4d572768eb4f4c0", "fusion_lat": 0.0, "type": "electric_scooter", "lat": 38.894784, "is_reserved": 0, "is_disabled": 0, "fusion_lon": 0.0, "bike_id": "22b4a68117cea5b8d4d572768eb4f4c0", "lon": -76.94870866666666, "rental_uris": {"ios": "https://dc.lft.to/lastmile_qr_scan", "android": "https://dc.lft.to/lastmile_qr_scan"}}, {"name": "3fe45cc4b33f13e418ac41fa0062c236", "fusion_lat": 0.0, "type": "electric_scooter", "lat": 38.896448166666666, "is_reserved": 0, "is_disabled": 0, "fusion_lon": 0.0, "bike_id": "3fe45cc4b33f13e418ac41fa0062c236", "lon": -77.02585916666666, "rental_uris": {"ios": "https://dc.lft.to/lastmile_qr_scan", "android": "https://dc.lft.to/lastmile_qr_scan"}}, {"name": "2d41f78e01461d757b3edac8803fb1dd", "fusion_lat": 0.0, "type": "electric_scooter", "lat": 38.910895333333336, "is_reserved": 0, "is_disabled": 0, "fusion_lon": 0.0, "bike_id": "2d41f78e01461d757b3edac8803fb1dd", "lon": -77.03841366666667, "rental_uris": {"ios": "https://dc.lft.to/lastmile_qr_scan", "android": "https://dc.lft.to/lastmile_qr_scan"}}, {"name": "992d5f4301123dc017af173ed0160804", "fusion_lat": 0.0, "type": "electric_scooter", "lat": 38.8899155, "is_reserved": 0, "is_disabled": 0, "fusion_lon": 0.0, "bike_id": "992d5f4301123dc017af173ed0160804", "lon": -76.95411016666667, "rental_uris": {"ios": "https://dc.lft.to/lastmile_qr_scan", "android": "https://dc.lft.to/lastmile_qr_scan"}}, {"name": "2b71977518f0e53af299edc18c2bc757", "fusion_lat": 0.0, "type": "electric_scooter", "lat": 38.90136833333333, "is_reserved": 0, "is_disabled": 0, "fusion_lon": 0.0, "bike_id": "2b71977518f0e53af299edc18c2bc757", "lon": -77.03974816666667, "rental_uris": {"ios": "https://dc.lft.to/lastmile_qr_scan", "android": "https://dc.lft.to/lastmile_qr_scan"}}, {"name": "d97532359dc26082e6eb570ffa096757", "fusion_lat": 0.0, "type": "electric_scooter", "lat": 38.92338083333333, "is_reserved": 0, "is_disabled": 0, "fusion_lon": 0.0, "bike_id": "d97532359dc26082e6eb570ffa096757", "lon": -77.0501195, "rental_uris": {"ios": "https://dc.lft.to/lastmile_qr_scan", "android": "https://dc.lft.to/lastmile_qr_scan"}}, {"name": "a65a29dac1e572d6d349e50b83da7100", "fusion_lat": 0.0, "type": "electric_scooter", "lat": 38.91213066666667, "is_reserved": 0, "is_disabled": 0, "fusion_lon": 0.0, "bike_id": "a65a29dac1e572d6d349e50b83da7100", "lon": -77.07592233333334, "rental_uris": {"ios": "https://dc.lft.to/lastmile_qr_scan", "android": "https://dc.lft.to/lastmile_qr_scan"}}, {"name": "74dd716dacb531ea6da92c722983e35e", "fusion_lat": 0.0, "type": "electric_scooter", "lat": 38.9303315, "is_reserved": 0, "is_disabled": 0, "fusion_lon": 0.0, "bike_id": "74dd716dacb531ea6da92c722983e35e", "lon": -77.08365066666667, "rental_uris": {"ios": "https://dc.lft.to/lastmile_qr_scan", "android": "https://dc.lft.to/lastmile_qr_scan"}}, {"name": "bc416c4d225f4d407fab6a6ccc0e4acc", "fusion_lat": 0.0, "type": "electric_bike", "lat": 38.878817, "is_reserved": 0, "is_disabled": 0, "fusion_lon": 0.0, "bike_id": "bc416c4d225f4d407fab6a6ccc0e4acc", "lon": -77.10898716666667, "rental_uris": {"ios": "https://dc.lft.to/lastmile_qr_scan", "android": "https://dc.lft.to/lastmile_qr_scan"}}, {"name": "b5f45f6fbf4b68595738a5c171ff7790", "fusion_lat": 0.0, "type": "electric_scooter", "lat": 38.89832083333334, "is_reserved": 0, "is_disabled": 0, "fusion_lon": 0.0, "bike_id": "b5f45f6fbf4b68595738a5c171ff7790", "lon": -76.94641283333333, "rental_uris": {"ios": "https://dc.lft.to/lastmile_qr_scan", "android": "https://dc.lft.to/lastmile_qr_scan"}}, {"name": "598f69c40b39e456d55a1dc68534e20b", "fusion_lat": 0.0, "type": "electric_scooter", "lat": 38.91820583333333, "is_reserved": 0, "is_disabled": 0, "fusion_lon": 0.0, "bike_id": "598f69c40b39e456d55a1dc68534e20b", "lon": -77.03202616666667, "rental_uris": {"ios": "https://dc.lft.to/lastmile_qr_scan", "android": "https://dc.lft.to/lastmile_qr_scan"}}, {"name": "e3d8413177eaeea471448a33a98c213c", "fusion_lat": 0.0, "type": "electric_scooter", "lat": 38.899859166666666, "is_reserved": 0, "is_disabled": 0, "fusion_lon": 0.0, "bike_id": "e3d8413177eaeea471448a33a98c213c", "lon": -77.0393255, "rental_uris": {"ios": "https://dc.lft.to/lastmile_qr_scan", "android": "https://dc.lft.to/lastmile_qr_scan"}}, {"name": "3f55bdb0411aa07d465a4a0806255dd1", "fusion_lat": 0.0, "type": "electric_scooter", "lat": 38.926616, "is_reserved": 0, "is_disabled": 0, "fusion_lon": 0.0, "bike_id": "3f55bdb0411aa07d465a4a0806255dd1", "lon": -76.99542666666666, "rental_uris": {"ios": "https://dc.lft.to/lastmile_qr_scan", "android": "https://dc.lft.to/lastmile_qr_scan"}}, {"name": "0a0f686c5b4ea2339f27508b42f9ebe0", "fusion_lat": 0.0, "type": "electric_scooter", "lat": 38.9037275, "is_reserved": 0, "is_disabled": 0, "fusion_lon": 0.0, "bike_id": "0a0f686c5b4ea2339f27508b42f9ebe0", "lon": -77.04518383333334, "rental_uris": {"ios": "https://dc.lft.to/lastmile_qr_scan", "android": "https://dc.lft.to/lastmile_qr_scan"}}, {"name": "d8057f3e348c6038a2e194adf83849b3", "fusion_lat": 0.0, "type": "electric_scooter", "lat": 38.92483683333333, "is_reserved": 0, "is_disabled": 0, "fusion_lon": 0.0, "bike_id": "d8057f3e348c6038a2e194adf83849b3", "lon": -77.0299875, "rental_uris": {"ios": "https://dc.lft.to/lastmile_qr_scan", "android": "https://dc.lft.to/lastmile_qr_scan"}}, {"name": "1bab8591d6c5bcb3bd7702f6a077f18b", "fusion_lat": 0.0, "type": "electric_scooter", "lat": 38.9389525, "is_reserved": 0, "is_disabled": 0, "fusion_lon": 0.0, "bike_id": "1bab8591d6c5bcb3bd7702f6a077f18b", "lon": -77.017553, "rental_uris": {"ios": "https://dc.lft.to/lastmile_qr_scan", "android": "https://dc.lft.to/lastmile_qr_scan"}}, {"name": "7fcf99aa898079785635bad9c6cceb26", "fusion_lat": 0.0, "type": "electric_scooter", "lat": 38.9259025, "is_reserved": 0, "is_disabled": 0, "fusion_lon": 0.0, "bike_id": "7fcf99aa898079785635bad9c6cceb26", "lon": -77.00849616666666, "rental_uris": {"ios": "https://dc.lft.to/lastmile_qr_scan", "android": "https://dc.lft.to/lastmile_qr_scan"}}, {"name": "68da6f2f7a18f6f0ac75ca63045e1b82", "fusion_lat": 0.0, "type": "electric_scooter", "lat": 38.914128166666664, "is_reserved": 0, "is_disabled": 0, "fusion_lon": 0.0, "bike_id": "68da6f2f7a18f6f0ac75ca63045e1b82", "lon": -77.04499333333334, "rental_uris": {"ios": "https://dc.lft.to/lastmile_qr_scan", "android": "https://dc.lft.to/lastmile_qr_scan"}}, {"name": "d9c0e40824f055a1ae5921c772f21505", "fusion_lat": 0.0, "type": "electric_scooter", "lat": 38.9155285, "is_reserved": 0, "is_disabled": 0, "fusion_lon": 0.0, "bike_id": "d9c0e40824f055a1ae5921c772f21505", "lon": -77.03236766666667, "rental_uris": {"ios": "https://dc.lft.to/lastmile_qr_scan", "android": "https://dc.lft.to/lastmile_qr_scan"}}, {"name": "effc577683854d5f4f754dd3d2ceac3c", "fusion_lat": 0.0, "type": "electric_scooter", "lat": 38.89956733333333, "is_reserved": 0, "is_disabled": 0, "fusion_lon": 0.0, "bike_id": "effc577683854d5f4f754dd3d2ceac3c", "lon": -77.03352583333333, "rental_uris": {"ios": "https://dc.lft.to/lastmile_qr_scan", "android": "https://dc.lft.to/lastmile_qr_scan"}}, {"name": "a07bc2787a1da415db07a1b9efdc8cd8", "fusion_lat": 0.0, "type": "electric_scooter", "lat": 38.88702516666667, "is_reserved": 0, "is_disabled": 0, "fusion_lon": 0.0, "bike_id": "a07bc2787a1da415db07a1b9efdc8cd8", "lon": -77.0283845, "rental_uris": {"ios": "https://dc.lft.to/lastmile_qr_scan", "android": "https://dc.lft.to/lastmile_qr_scan"}}, {"name": "7c92d5f5a313522142f5342edc2e89ad", "fusion_lat": 0.0, "type": "electric_scooter", "lat": 38.912813666666665, "is_reserved": 0, "is_disabled": 0, "fusion_lon": 0.0, "bike_id": "7c92d5f5a313522142f5342edc2e89ad", "lon": -76.93788366666666, "rental_uris": {"ios": "https://dc.lft.to/lastmile_qr_scan", "android": "https://dc.lft.to/lastmile_qr_scan"}}, {"name": "e84b8b4ede702a2a4ad22b52b8493cd7", "fusion_lat": 0.0, "type": "electric_scooter", "lat": 38.90571166666667, "is_reserved": 0, "is_disabled": 0, "fusion_lon": 0.0, "bike_id": "e84b8b4ede702a2a4ad22b52b8493cd7", "lon": -77.03445633333334, "rental_uris": {"ios": "https://dc.lft.to/lastmile_qr_scan", "android": "https://dc.lft.to/lastmile_qr_scan"}}, {"name": "5c08067a0c43d863d69cf18b04e13345", "fusion_lat": 0.0, "type": "electric_scooter", "lat": 38.9027025, "is_reserved": 0, "is_disabled": 0, "fusion_lon": 0.0, "bike_id": "5c08067a0c43d863d69cf18b04e13345", "lon": -77.04640833333333, "rental_uris": {"ios": "https://dc.lft.to/lastmile_qr_scan", "android": "https://dc.lft.to/lastmile_qr_scan"}}, {"name": "fdc1de0b595b351d4a1900822c6b67f7", "fusion_lat": 0.0, "type": "electric_bike", "lat": 38.900486666666666, "is_reserved": 0, "is_disabled": 0, "fusion_lon": 0.0, "bike_id": "fdc1de0b595b351d4a1900822c6b67f7", "lon": -77.04841233333333, "rental_uris": {"ios": "https://dc.lft.to/lastmile_qr_scan", "android": "https://dc.lft.to/lastmile_qr_scan"}}, {"name": "355cc0ae1c638476340896a64542bd6b", "fusion_lat": 0.0, "type": "electric_scooter", "lat": 38.87628266666667, "is_reserved": 0, "is_disabled": 0, "fusion_lon": 0.0, "bike_id": "355cc0ae1c638476340896a64542bd6b", "lon": -76.9653045, "rental_uris": {"ios": "https://dc.lft.to/lastmile_qr_scan", "android": "https://dc.lft.to/lastmile_qr_scan"}}, {"name": "ff0c8b598311689a2710cdaf7c72dbff", "fusion_lat": 0.0, "type": "electric_bike", "lat": 38.92735016666666, "is_reserved": 0, "is_disabled": 0, "fusion_lon": 0.0, "bike_id": "ff0c8b598311689a2710cdaf7c72dbff", "lon": -77.02590583333334, "rental_uris": {"ios": "https://dc.lft.to/lastmile_qr_scan", "android": "https://dc.lft.to/lastmile_qr_scan"}}, {"name": "6eecb5b2776ebfc58ba6df8c0ffaaa48", "fusion_lat": 0.0, "type": "electric_scooter", "lat": 38.90603333333333, "is_reserved": 0, "is_disabled": 0, "fusion_lon": 0.0, "bike_id": "6eecb5b2776ebfc58ba6df8c0ffaaa48", "lon": -77.0060775, "rental_uris": {"ios": "https://dc.lft.to/lastmile_qr_scan", "android": "https://dc.lft.to/lastmile_qr_scan"}}, {"name": "a016f184cee4e4451acd4bd2a130d7f3", "fusion_lat": 0.0, "type": "electric_scooter", "lat": 38.9228545, "is_reserved": 0, "is_disabled": 0, "fusion_lon": 0.0, "bike_id": "a016f184cee4e4451acd4bd2a130d7f3", "lon": -77.02977516666667, "rental_uris": {"ios": "https://dc.lft.to/lastmile_qr_scan", "android": "https://dc.lft.to/lastmile_qr_scan"}}, {"name": "3a907d5ab464c97030460b94e1d870fb", "fusion_lat": 0.0, "type": "electric_scooter", "lat": 38.87494683333333, "is_reserved": 0, "is_disabled": 0, "fusion_lon": 0.0, "bike_id": "3a907d5ab464c97030460b94e1d870fb", "lon": -76.99793033333333, "rental_uris": {"ios": "https://dc.lft.to/lastmile_qr_scan", "android": "https://dc.lft.to/lastmile_qr_scan"}}, {"name": "3fcc4483cfa8c938649985f2af7e5ce4", "fusion_lat": 0.0, "type": "electric_scooter", "lat": 38.90261916666667, "is_reserved": 0, "is_disabled": 0, "fusion_lon": 0.0, "bike_id": "3fcc4483cfa8c938649985f2af7e5ce4", "lon": -77.00329383333333, "rental_uris": {"ios": "https://dc.lft.to/lastmile_qr_scan", "android": "https://dc.lft.to/lastmile_qr_scan"}}, {"name": "9e00c06b261eec86700027135a1e0ce5", "fusion_lat": 0.0, "type": "electric_scooter", "lat": 38.9125405, "is_reserved": 0, "is_disabled": 0, "fusion_lon": 0.0, "bike_id": "9e00c06b261eec86700027135a1e0ce5", "lon": -77.007654, "rental_uris": {"ios": "https://dc.lft.to/lastmile_qr_scan", "android": "https://dc.lft.to/lastmile_qr_scan"}}, {"name": "da880b3284224123085d379491a09fbb", "fusion_lat": 0.0, "type": "electric_scooter", "lat": 38.863678166666666, "is_reserved": 0, "is_disabled": 0, "fusion_lon": 0.0, "bike_id": "da880b3284224123085d379491a09fbb", "lon": -77.01365533333333, "rental_uris": {"ios": "https://dc.lft.to/lastmile_qr_scan", "android": "https://dc.lft.to/lastmile_qr_scan"}}, {"name": "7ada312a5cad8bc96b7883f28879f111", "fusion_lat": 0.0, "type": "electric_scooter", "lat": 38.9270375, "is_reserved": 0, "is_disabled": 0, "fusion_lon": 0.0, "bike_id": "7ada312a5cad8bc96b7883f28879f111", "lon": -77.03727533333333, "rental_uris": {"ios": "https://dc.lft.to/lastmile_qr_scan", "android": "https://dc.lft.to/lastmile_qr_scan"}}, {"name": "a5714c00795a6f63b16212aad51efd7a", "fusion_lat": 0.0, "type": "electric_bike", "lat": 38.928511666666665, "is_reserved": 0, "is_disabled": 0, "fusion_lon": 0.0, "bike_id": "a5714c00795a6f63b16212aad51efd7a", "lon": -77.1067615, "rental_uris": {"ios": "https://dc.lft.to/lastmile_qr_scan", "android": "https://dc.lft.to/lastmile_qr_scan"}}, {"name": "1f15d2adad5bcb88b1a6f3f2abce6527", "fusion_lat": 0.0, "type": "electric_scooter", "lat": 38.897261666666665, "is_reserved": 0, "is_disabled": 0, "fusion_lon": 0.0, "bike_id": "1f15d2adad5bcb88b1a6f3f2abce6527", "lon": -77.04342833333334, "rental_uris": {"ios": "https://dc.lft.to/lastmile_qr_scan", "android": "https://dc.lft.to/lastmile_qr_scan"}}, {"name": "225d85025bfbebbca4c3cd4ad06c8b76", "fusion_lat": 0.0, "type": "electric_scooter", "lat": 38.916924333333334, "is_reserved": 0, "is_disabled": 0, "fusion_lon": 0.0, "bike_id": "225d85025bfbebbca4c3cd4ad06c8b76", "lon": -77.01209733333333, "rental_uris": {"ios": "https://dc.lft.to/lastmile_qr_scan", "android": "https://dc.lft.to/lastmile_qr_scan"}}, {"name": "7698cca5e2a376b34cb3c852d49aa7b4", "fusion_lat": 0.0, "type": "electric_scooter", "lat": 38.90284466666667, "is_reserved": 0, "is_disabled": 0, "fusion_lon": 0.0, "bike_id": "7698cca5e2a376b34cb3c852d49aa7b4", "lon": -77.04269283333333, "rental_uris": {"ios": "https://dc.lft.to/lastmile_qr_scan", "android": "https://dc.lft.to/lastmile_qr_scan"}}, {"name": "b84752eff8d6ef85619cef84d0e4a981", "fusion_lat": 0.0, "type": "electric_scooter", "lat": 38.930559, "is_reserved": 0, "is_disabled": 0, "fusion_lon": 0.0, "bike_id": "b84752eff8d6ef85619cef84d0e4a981", "lon": -77.02321666666667, "rental_uris": {"ios": "https://dc.lft.to/lastmile_qr_scan", "android": "https://dc.lft.to/lastmile_qr_scan"}}, {"name": "01dfaa885d413018e2fbb1cd2ef493b2", "fusion_lat": 0.0, "type": "electric_scooter", "lat": 38.890152666666665, "is_reserved": 0, "is_disabled": 0, "fusion_lon": 0.0, "bike_id": "01dfaa885d413018e2fbb1cd2ef493b2", "lon": -76.93732533333333, "rental_uris": {"ios": "https://dc.lft.to/lastmile_qr_scan", "android": "https://dc.lft.to/lastmile_qr_scan"}}, {"name": "193340f72c01a3c8b7f8a6ed5242e2de", "fusion_lat": 0.0, "type": "electric_scooter", "lat": 38.901181333333334, "is_reserved": 0, "is_disabled": 0, "fusion_lon": 0.0, "bike_id": "193340f72c01a3c8b7f8a6ed5242e2de", "lon": -77.02544566666667, "rental_uris": {"ios": "https://dc.lft.to/lastmile_qr_scan", "android": "https://dc.lft.to/lastmile_qr_scan"}}, {"name": "5c1f0f9ebef20df20dd8d254f7081603", "fusion_lat": 0.0, "type": "electric_scooter", "lat": 38.8972635, "is_reserved": 0, "is_disabled": 0, "fusion_lon": 0.0, "bike_id": "5c1f0f9ebef20df20dd8d254f7081603", "lon": -77.047606, "rental_uris": {"ios": "https://dc.lft.to/lastmile_qr_scan", "android": "https://dc.lft.to/lastmile_qr_scan"}}, {"name": "7eb9f304dca88c9be4af66fe235caf38", "fusion_lat": 0.0, "type": "electric_scooter", "lat": 38.915602666666665, "is_reserved": 0, "is_disabled": 0, "fusion_lon": 0.0, "bike_id": "7eb9f304dca88c9be4af66fe235caf38", "lon": -77.0141435, "rental_uris": {"ios": "https://dc.lft.to/lastmile_qr_scan", "android": "https://dc.lft.to/lastmile_qr_scan"}}, {"name": "45cff16eeb51c50e0eba1da0b6881a87", "fusion_lat": 0.0, "type": "electric_scooter", "lat": 38.90053616666667, "is_reserved": 0, "is_disabled": 0, "fusion_lon": 0.0, "bike_id": "45cff16eeb51c50e0eba1da0b6881a87", "lon": -77.00763466666666, "rental_uris": {"ios": "https://dc.lft.to/lastmile_qr_scan", "android": "https://dc.lft.to/lastmile_qr_scan"}}, {"name": "4399a888748d7e9671fe0465f4fd143f", "fusion_lat": 0.0, "type": "electric_scooter", "lat": 38.92149766666667, "is_reserved": 0, "is_disabled": 0, "fusion_lon": 0.0, "bike_id": "4399a888748d7e9671fe0465f4fd143f", "lon": -77.03867616666666, "rental_uris": {"ios": "https://dc.lft.to/lastmile_qr_scan", "android": "https://dc.lft.to/lastmile_qr_scan"}}, {"name": "bc6f6f2b7528e8cd55e7a1ecf048127a", "fusion_lat": 0.0, "type": "electric_scooter", "lat": 38.916437333333334, "is_reserved": 0, "is_disabled": 0, "fusion_lon": 0.0, "bike_id": "bc6f6f2b7528e8cd55e7a1ecf048127a", "lon": -77.01586366666666, "rental_uris": {"ios": "https://dc.lft.to/lastmile_qr_scan", "android": "https://dc.lft.to/lastmile_qr_scan"}}, {"name": "3a2e2e11474b62763be9f7dece8d236a", "fusion_lat": 0.0, "type": "electric_scooter", "lat": 38.909563166666665, "is_reserved": 0, "is_disabled": 0, "fusion_lon": 0.0, "bike_id": "3a2e2e11474b62763be9f7dece8d236a", "lon": -77.01137033333333, "rental_uris": {"ios": "https://dc.lft.to/lastmile_qr_scan", "android": "https://dc.lft.to/lastmile_qr_scan"}}, {"name": "e6dc380fb29a2cfe075619f3f52cd170", "fusion_lat": 0.0, "type": "electric_bike", "lat": 38.86281133333333, "is_reserved": 0, "is_disabled": 0, "fusion_lon": 0.0, "bike_id": "e6dc380fb29a2cfe075619f3f52cd170", "lon": -76.98002483333333, "rental_uris": {"ios": "https://dc.lft.to/lastmile_qr_scan", "android": "https://dc.lft.to/lastmile_qr_scan"}}, {"name": "b8c2e4089f19f29035daf90a83ad0a55", "fusion_lat": 0.0, "type": "electric_scooter", "lat": 38.907191, "is_reserved": 0, "is_disabled": 0, "fusion_lon": 0.0, "bike_id": "b8c2e4089f19f29035daf90a83ad0a55", "lon": -77.0448945, "rental_uris": {"ios": "https://dc.lft.to/lastmile_qr_scan", "android": "https://dc.lft.to/lastmile_qr_scan"}}, {"name": "0ac1f070320fd8d70afd66d8481b5a18", "fusion_lat": 0.0, "type": "electric_scooter", "lat": 38.936959333333334, "is_reserved": 0, "is_disabled": 0, "fusion_lon": 0.0, "bike_id": "0ac1f070320fd8d70afd66d8481b5a18", "lon": -77.02395616666666, "rental_uris": {"ios": "https://dc.lft.to/lastmile_qr_scan", "android": "https://dc.lft.to/lastmile_qr_scan"}}, {"name": "93da40e4eb931897b9107a706abd3421", "fusion_lat": 0.0, "type": "electric_scooter", "lat": 38.89601433333333, "is_reserved": 0, "is_disabled": 0, "fusion_lon": 0.0, "bike_id": "93da40e4eb931897b9107a706abd3421", "lon": -77.05438233333334, "rental_uris": {"ios": "https://dc.lft.to/lastmile_qr_scan", "android": "https://dc.lft.to/lastmile_qr_scan"}}, {"name": "0db59b71b34b30eacca1582aea78d777", "fusion_lat": 0.0, "type": "electric_scooter", "lat": 38.8765985, "is_reserved": 0, "is_disabled": 0, "fusion_lon": 0.0, "bike_id": "0db59b71b34b30eacca1582aea78d777", "lon": -77.0043285, "rental_uris": {"ios": "https://dc.lft.to/lastmile_qr_scan", "android": "https://dc.lft.to/lastmile_qr_scan"}}, {"name": "c8e6ac16c23bf654e41fff9826d78a97", "fusion_lat": 0.0, "type": "electric_bike", "lat": 38.93061733333333, "is_reserved": 0, "is_disabled": 0, "fusion_lon": 0.0, "bike_id": "c8e6ac16c23bf654e41fff9826d78a97", "lon": -77.03181033333334, "rental_uris": {"ios": "https://dc.lft.to/lastmile_qr_scan", "android": "https://dc.lft.to/lastmile_qr_scan"}}, {"name": "f6a73b71ac86579692af093d57b49036", "fusion_lat": 0.0, "type": "electric_scooter", "lat": 38.897725333333334, "is_reserved": 0, "is_disabled": 0, "fusion_lon": 0.0, "bike_id": "f6a73b71ac86579692af093d57b49036", "lon": -77.05153083333333, "rental_uris": {"ios": "https://dc.lft.to/lastmile_qr_scan", "android": "https://dc.lft.to/lastmile_qr_scan"}}, {"name": "3c9b5e7b2e5a8a86fe463dd23945e198", "fusion_lat": 0.0, "type": "electric_scooter", "lat": 38.9012545, "is_reserved": 0, "is_disabled": 0, "fusion_lon": 0.0, "bike_id": "3c9b5e7b2e5a8a86fe463dd23945e198", "lon": -77.0320685, "rental_uris": {"ios": "https://dc.lft.to/lastmile_qr_scan", "android": "https://dc.lft.to/lastmile_qr_scan"}}, {"name": "68d1b5acede9d3a0b918632bd0274357", "fusion_lat": 0.0, "type": "electric_scooter", "lat": 38.9050235, "is_reserved": 0, "is_disabled": 0, "fusion_lon": 0.0, "bike_id": "68d1b5acede9d3a0b918632bd0274357", "lon": -77.06522783333334, "rental_uris": {"ios": "https://dc.lft.to/lastmile_qr_scan", "android": "https://dc.lft.to/lastmile_qr_scan"}}, {"name": "e7083dc83bdef765cfa73b251a55222c", "fusion_lat": 0.0, "type": "electric_scooter", "lat": 38.90550133333333, "is_reserved": 0, "is_disabled": 0, "fusion_lon": 0.0, "bike_id": "e7083dc83bdef765cfa73b251a55222c", "lon": -77.03980683333333, "rental_uris": {"ios": "https://dc.lft.to/lastmile_qr_scan", "android": "https://dc.lft.to/lastmile_qr_scan"}}, {"name": "86b78c056749267003af9e9f3dd5e3ba", "fusion_lat": 0.0, "type": "electric_scooter", "lat": 38.923327, "is_reserved": 0, "is_disabled": 0, "fusion_lon": 0.0, "bike_id": "86b78c056749267003af9e9f3dd5e3ba", "lon": -77.01957466666667, "rental_uris": {"ios": "https://dc.lft.to/lastmile_qr_scan", "android": "https://dc.lft.to/lastmile_qr_scan"}}, {"name": "f3e7dd7916629bc1e66ba905f2fe40ab", "fusion_lat": 0.0, "type": "electric_scooter", "lat": 38.904754, "is_reserved": 0, "is_disabled": 0, "fusion_lon": 0.0, "bike_id": "f3e7dd7916629bc1e66ba905f2fe40ab", "lon": -77.03559966666667, "rental_uris": {"ios": "https://dc.lft.to/lastmile_qr_scan", "android": "https://dc.lft.to/lastmile_qr_scan"}}, {"name": "b76118c46e843ff9299a49d85161e003", "fusion_lat": 0.0, "type": "electric_scooter", "lat": 38.92343733333333, "is_reserved": 0, "is_disabled": 0, "fusion_lon": 0.0, "bike_id": "b76118c46e843ff9299a49d85161e003", "lon": -77.0418745, "rental_uris": {"ios": "https://dc.lft.to/lastmile_qr_scan", "android": "https://dc.lft.to/lastmile_qr_scan"}}, {"name": "e073bea5394c3b87dbdae6f28fa6cd8f", "fusion_lat": 0.0, "type": "electric_scooter", "lat": 38.9293335, "is_reserved": 0, "is_disabled": 0, "fusion_lon": 0.0, "bike_id": "e073bea5394c3b87dbdae6f28fa6cd8f", "lon": -77.03662016666667, "rental_uris": {"ios": "https://dc.lft.to/lastmile_qr_scan", "android": "https://dc.lft.to/lastmile_qr_scan"}}, {"name": "75758bc47742dd3b79084bbdda215336", "fusion_lat": 0.0, "type": "electric_scooter", "lat": 38.884889666666666, "is_reserved": 0, "is_disabled": 0, "fusion_lon": 0.0, "bike_id": "75758bc47742dd3b79084bbdda215336", "lon": -77.00712183333333, "rental_uris": {"ios": "https://dc.lft.to/lastmile_qr_scan", "android": "https://dc.lft.to/lastmile_qr_scan"}}, {"name": "8f7bb201b180020a38943679589ca9e0", "fusion_lat": 0.0, "type": "electric_scooter", "lat": 38.90048983333333, "is_reserved": 0, "is_disabled": 0, "fusion_lon": 0.0, "bike_id": "8f7bb201b180020a38943679589ca9e0", "lon": -77.00071433333333, "rental_uris": {"ios": "https://dc.lft.to/lastmile_qr_scan", "android": "https://dc.lft.to/lastmile_qr_scan"}}, {"name": "42ae819b6b61dde84ec7e73bc7ecaacd", "fusion_lat": 0.0, "type": "electric_scooter", "lat": 38.9091165, "is_reserved": 0, "is_disabled": 0, "fusion_lon": 0.0, "bike_id": "42ae819b6b61dde84ec7e73bc7ecaacd", "lon": -77.06426183333333, "rental_uris": {"ios": "https://dc.lft.to/lastmile_qr_scan", "android": "https://dc.lft.to/lastmile_qr_scan"}}, {"name": "6b819f94c5814d9bcf73f0f5700b714c", "fusion_lat": 0.0, "type": "electric_scooter", "lat": 38.917047833333335, "is_reserved": 0, "is_disabled": 0, "fusion_lon": 0.0, "bike_id": "6b819f94c5814d9bcf73f0f5700b714c", "lon": -77.02896583333333, "rental_uris": {"ios": "https://dc.lft.to/lastmile_qr_scan", "android": "https://dc.lft.to/lastmile_qr_scan"}}, {"name": "3ceef43fe8a5108c9aa2c1f821642865", "fusion_lat": 0.0, "type": "electric_scooter", "lat": 38.887161666666664, "is_reserved": 0, "is_disabled": 0, "fusion_lon": 0.0, "bike_id": "3ceef43fe8a5108c9aa2c1f821642865", "lon": -77.017742, "rental_uris": {"ios": "https://dc.lft.to/lastmile_qr_scan", "android": "https://dc.lft.to/lastmile_qr_scan"}}, {"name": "f99c6feab5ba15d4d548ca410667bce3", "fusion_lat": 0.0, "type": "electric_scooter", "lat": 38.88912766666667, "is_reserved": 0, "is_disabled": 0, "fusion_lon": 0.0, "bike_id": "f99c6feab5ba15d4d548ca410667bce3", "lon": -76.9537395, "rental_uris": {"ios": "https://dc.lft.to/lastmile_qr_scan", "android": "https://dc.lft.to/lastmile_qr_scan"}}, {"name": "3457a93e4f128a7ea672721319560a97", "fusion_lat": 0.0, "type": "electric_scooter", "lat": 38.9119115, "is_reserved": 0, "is_disabled": 0, "fusion_lon": 0.0, "bike_id": "3457a93e4f128a7ea672721319560a97", "lon": -77.017837, "rental_uris": {"ios": "https://dc.lft.to/lastmile_qr_scan", "android": "https://dc.lft.to/lastmile_qr_scan"}}, {"name": "25b5d5428085062f1086ae41b49cb279", "fusion_lat": 0.0, "type": "electric_scooter", "lat": 38.905922833333335, "is_reserved": 0, "is_disabled": 0, "fusion_lon": 0.0, "bike_id": "25b5d5428085062f1086ae41b49cb279", "lon": -77.0403045, "rental_uris": {"ios": "https://dc.lft.to/lastmile_qr_scan", "android": "https://dc.lft.to/lastmile_qr_scan"}}, {"name": "cdb813e2991f5a0605e651a1933951f2", "fusion_lat": 0.0, "type": "electric_scooter", "lat": 38.93498366666667, "is_reserved": 0, "is_disabled": 0, "fusion_lon": 0.0, "bike_id": "cdb813e2991f5a0605e651a1933951f2", "lon": -77.02542766666667, "rental_uris": {"ios": "https://dc.lft.to/lastmile_qr_scan", "android": "https://dc.lft.to/lastmile_qr_scan"}}, {"name": "9e324109bef766d5ccc036834deefc8d", "fusion_lat": 0.0, "type": "electric_scooter", "lat": 38.93469983333333, "is_reserved": 0, "is_disabled": 0, "fusion_lon": 0.0, "bike_id": "9e324109bef766d5ccc036834deefc8d", "lon": -77.02843316666667, "rental_uris": {"ios": "https://dc.lft.to/lastmile_qr_scan", "android": "https://dc.lft.to/lastmile_qr_scan"}}, {"name": "32022f4d5a5cc7d5e4806b51a7ad17db", "fusion_lat": 0.0, "type": "electric_scooter", "lat": 38.909485333333336, "is_reserved": 0, "is_disabled": 0, "fusion_lon": 0.0, "bike_id": "32022f4d5a5cc7d5e4806b51a7ad17db", "lon": -77.03178483333333, "rental_uris": {"ios": "https://dc.lft.to/lastmile_qr_scan", "android": "https://dc.lft.to/lastmile_qr_scan"}}, {"name": "93b8168acc938d886c6eb54e7b359375", "fusion_lat": 0.0, "type": "electric_scooter", "lat": 38.92887866666667, "is_reserved": 0, "is_disabled": 0, "fusion_lon": 0.0, "bike_id": "93b8168acc938d886c6eb54e7b359375", "lon": -77.02310933333334, "rental_uris": {"ios": "https://dc.lft.to/lastmile_qr_scan", "android": "https://dc.lft.to/lastmile_qr_scan"}}, {"name": "99966e30edd2a7d298d912274f083643", "fusion_lat": 0.0, "type": "electric_scooter", "lat": 38.9011215, "is_reserved": 0, "is_disabled": 0, "fusion_lon": 0.0, "bike_id": "99966e30edd2a7d298d912274f083643", "lon": -77.02186316666666, "rental_uris": {"ios": "https://dc.lft.to/lastmile_qr_scan", "android": "https://dc.lft.to/lastmile_qr_scan"}}, {"name": "310e061f5e3fd7842a8f839a712b5d81", "fusion_lat": 0.0, "type": "electric_scooter", "lat": 38.920801833333336, "is_reserved": 0, "is_disabled": 0, "fusion_lon": 0.0, "bike_id": "310e061f5e3fd7842a8f839a712b5d81", "lon": -77.03169916666667, "rental_uris": {"ios": "https://dc.lft.to/lastmile_qr_scan", "android": "https://dc.lft.to/lastmile_qr_scan"}}, {"name": "203904fb4026a33ddcc546298f60566c", "fusion_lat": 0.0, "type": "electric_scooter", "lat": 38.90568533333333, "is_reserved": 0, "is_disabled": 0, "fusion_lon": 0.0, "bike_id": "203904fb4026a33ddcc546298f60566c", "lon": -77.0220995, "rental_uris": {"ios": "https://dc.lft.to/lastmile_qr_scan", "android": "https://dc.lft.to/lastmile_qr_scan"}}, {"name": "3d65e833d5157cd4229a195da1d979ee", "fusion_lat": 0.0, "type": "electric_scooter", "lat": 38.9264415, "is_reserved": 0, "is_disabled": 0, "fusion_lon": 0.0, "bike_id": "3d65e833d5157cd4229a195da1d979ee", "lon": -77.0369845, "rental_uris": {"ios": "https://dc.lft.to/lastmile_qr_scan", "android": "https://dc.lft.to/lastmile_qr_scan"}}, {"name": "78159802941c42f2a06c60699e25a152", "fusion_lat": 0.0, "type": "electric_scooter", "lat": 38.90001683333333, "is_reserved": 0, "is_disabled": 0, "fusion_lon": 0.0, "bike_id": "78159802941c42f2a06c60699e25a152", "lon": -76.9854045, "rental_uris": {"ios": "https://dc.lft.to/lastmile_qr_scan", "android": "https://dc.lft.to/lastmile_qr_scan"}}, {"name": "efc05d107f594c81a82f3ae76dd3d7bb", "fusion_lat": 0.0, "type": "electric_scooter", "lat": 38.863684166666665, "is_reserved": 0, "is_disabled": 0, "fusion_lon": 0.0, "bike_id": "efc05d107f594c81a82f3ae76dd3d7bb", "lon": -77.0136235, "rental_uris": {"ios": "https://dc.lft.to/lastmile_qr_scan", "android": "https://dc.lft.to/lastmile_qr_scan"}}, {"name": "65ddd2144a08c091d3dba53f03c3c202", "fusion_lat": 0.0, "type": "electric_scooter", "lat": 38.91694566666666, "is_reserved": 0, "is_disabled": 0, "fusion_lon": 0.0, "bike_id": "65ddd2144a08c091d3dba53f03c3c202", "lon": -77.03587016666667, "rental_uris": {"ios": "https://dc.lft.to/lastmile_qr_scan", "android": "https://dc.lft.to/lastmile_qr_scan"}}, {"name": "7fe9799b5565fe8dc1a707c1037f14c6", "fusion_lat": 0.0, "type": "electric_scooter", "lat": 38.8853275, "is_reserved": 0, "is_disabled": 0, "fusion_lon": 0.0, "bike_id": "7fe9799b5565fe8dc1a707c1037f14c6", "lon": -77.03336316666666, "rental_uris": {"ios": "https://dc.lft.to/lastmile_qr_scan", "android": "https://dc.lft.to/lastmile_qr_scan"}}, {"name": "cd4beb7d96f0a26f7fa68238e99a00ba", "fusion_lat": 0.0, "type": "electric_bike", "lat": 38.930583, "is_reserved": 0, "is_disabled": 0, "fusion_lon": 0.0, "bike_id": "cd4beb7d96f0a26f7fa68238e99a00ba", "lon": -76.9732565, "rental_uris": {"ios": "https://dc.lft.to/lastmile_qr_scan", "android": "https://dc.lft.to/lastmile_qr_scan"}}, {"name": "2ef7ebed5233057f1c88163a9786c347", "fusion_lat": 0.0, "type": "electric_scooter", "lat": 38.8919875, "is_reserved": 0, "is_disabled": 0, "fusion_lon": 0.0, "bike_id": "2ef7ebed5233057f1c88163a9786c347", "lon": -77.00290066666666, "rental_uris": {"ios": "https://dc.lft.to/lastmile_qr_scan", "android": "https://dc.lft.to/lastmile_qr_scan"}}, {"name": "70bdbda6941dcdc314f0a69393fa5285", "fusion_lat": 0.0, "type": "electric_scooter", "lat": 38.9326265, "is_reserved": 0, "is_disabled": 0, "fusion_lon": 0.0, "bike_id": "70bdbda6941dcdc314f0a69393fa5285", "lon": -77.03260816666666, "rental_uris": {"ios": "https://dc.lft.to/lastmile_qr_scan", "android": "https://dc.lft.to/lastmile_qr_scan"}}, {"name": "5f4bd7b95852907f63f6fe5fef8196e2", "fusion_lat": 0.0, "type": "electric_scooter", "lat": 38.874317, "is_reserved": 0, "is_disabled": 0, "fusion_lon": 0.0, "bike_id": "5f4bd7b95852907f63f6fe5fef8196e2", "lon": -77.020673, "rental_uris": {"ios": "https://dc.lft.to/lastmile_qr_scan", "android": "https://dc.lft.to/lastmile_qr_scan"}}, {"name": "39e7cab292718a6dbf8cd77e63b826f7", "fusion_lat": 0.0, "type": "electric_scooter", "lat": 38.921607, "is_reserved": 0, "is_disabled": 0, "fusion_lon": 0.0, "bike_id": "39e7cab292718a6dbf8cd77e63b826f7", "lon": -77.02041366666667, "rental_uris": {"ios": "https://dc.lft.to/lastmile_qr_scan", "android": "https://dc.lft.to/lastmile_qr_scan"}}, {"name": "c49ce11e8cd5b481712f744e8b6f6d9f", "fusion_lat": 0.0, "type": "electric_scooter", "lat": 38.90173633333333, "is_reserved": 0, "is_disabled": 0, "fusion_lon": 0.0, "bike_id": "c49ce11e8cd5b481712f744e8b6f6d9f", "lon": -77.03378516666666, "rental_uris": {"ios": "https://dc.lft.to/lastmile_qr_scan", "android": "https://dc.lft.to/lastmile_qr_scan"}}, {"name": "852a251ee3004d32fa5adcfd65888157", "fusion_lat": 0.0, "type": "electric_scooter", "lat": 38.893314833333335, "is_reserved": 0, "is_disabled": 0, "fusion_lon": 0.0, "bike_id": "852a251ee3004d32fa5adcfd65888157", "lon": -76.92892616666667, "rental_uris": {"ios": "https://dc.lft.to/lastmile_qr_scan", "android": "https://dc.lft.to/lastmile_qr_scan"}}, {"name": "17236aba0d8c529f655398444c28f088", "fusion_lat": 0.0, "type": "electric_scooter", "lat": 38.918653, "is_reserved": 0, "is_disabled": 0, "fusion_lon": 0.0, "bike_id": "17236aba0d8c529f655398444c28f088", "lon": -77.04586816666666, "rental_uris": {"ios": "https://dc.lft.to/lastmile_qr_scan", "android": "https://dc.lft.to/lastmile_qr_scan"}}, {"name": "557b2066c8d87096c7ac0c3d2fd572c4", "fusion_lat": 0.0, "type": "electric_scooter", "lat": 38.92332733333333, "is_reserved": 0, "is_disabled": 0, "fusion_lon": 0.0, "bike_id": "557b2066c8d87096c7ac0c3d2fd572c4", "lon": -77.02048183333333, "rental_uris": {"ios": "https://dc.lft.to/lastmile_qr_scan", "android": "https://dc.lft.to/lastmile_qr_scan"}}, {"name": "7a3e0552f7d9790a56f092558c3e8f0b", "fusion_lat": 0.0, "type": "electric_scooter", "lat": 38.89886966666667, "is_reserved": 0, "is_disabled": 0, "fusion_lon": 0.0, "bike_id": "7a3e0552f7d9790a56f092558c3e8f0b", "lon": -77.032819, "rental_uris": {"ios": "https://dc.lft.to/lastmile_qr_scan", "android": "https://dc.lft.to/lastmile_qr_scan"}}, {"name": "e9f486b4d2866b6bc2dbfd7aa658a0cd", "fusion_lat": 0.0, "type": "electric_scooter", "lat": 38.909181, "is_reserved": 0, "is_disabled": 0, "fusion_lon": 0.0, "bike_id": "e9f486b4d2866b6bc2dbfd7aa658a0cd", "lon": -77.01878683333334, "rental_uris": {"ios": "https://dc.lft.to/lastmile_qr_scan", "android": "https://dc.lft.to/lastmile_qr_scan"}}, {"name": "b979b3dfafd12075bbae8c5ac8edb99d", "fusion_lat": 0.0, "type": "electric_scooter", "lat": 38.898322, "is_reserved": 0, "is_disabled": 0, "fusion_lon": 0.0, "bike_id": "b979b3dfafd12075bbae8c5ac8edb99d", "lon": -76.94641766666666, "rental_uris": {"ios": "https://dc.lft.to/lastmile_qr_scan", "android": "https://dc.lft.to/lastmile_qr_scan"}}, {"name": "02b42fd43fc1ab3b40f521d3165260ef", "fusion_lat": 0.0, "type": "electric_scooter", "lat": 38.895106166666665, "is_reserved": 0, "is_disabled": 0, "fusion_lon": 0.0, "bike_id": "02b42fd43fc1ab3b40f521d3165260ef", "lon": -76.94888233333333, "rental_uris": {"ios": "https://dc.lft.to/lastmile_qr_scan", "android": "https://dc.lft.to/lastmile_qr_scan"}}, {"name": "e3cd4d4ee321067158d1fd8b40bdfec5", "fusion_lat": 0.0, "type": "electric_scooter", "lat": 38.8837905, "is_reserved": 0, "is_disabled": 0, "fusion_lon": 0.0, "bike_id": "e3cd4d4ee321067158d1fd8b40bdfec5", "lon": -76.99520783333334, "rental_uris": {"ios": "https://dc.lft.to/lastmile_qr_scan", "android": "https://dc.lft.to/lastmile_qr_scan"}}, {"name": "86c96bb0e272db0e866e7b9a1891fa06", "fusion_lat": 0.0, "type": "electric_scooter", "lat": 38.925786333333335, "is_reserved": 0, "is_disabled": 0, "fusion_lon": 0.0, "bike_id": "86c96bb0e272db0e866e7b9a1891fa06", "lon": -77.05288283333333, "rental_uris": {"ios": "https://dc.lft.to/lastmile_qr_scan", "android": "https://dc.lft.to/lastmile_qr_scan"}}, {"name": "2ab5fe3ce0e4d329850043e75911abbf", "fusion_lat": 0.0, "type": "electric_scooter", "lat": 38.8948025, "is_reserved": 0, "is_disabled": 0, "fusion_lon": 0.0, "bike_id": "2ab5fe3ce0e4d329850043e75911abbf", "lon": -76.94870183333333, "rental_uris": {"ios": "https://dc.lft.to/lastmile_qr_scan", "android": "https://dc.lft.to/lastmile_qr_scan"}}, {"name": "2ae34aa364c451b95960081a49c09ca0", "fusion_lat": 0.0, "type": "electric_scooter", "lat": 38.896523, "is_reserved": 0, "is_disabled": 0, "fusion_lon": 0.0, "bike_id": "2ae34aa364c451b95960081a49c09ca0", "lon": -77.05023466666667, "rental_uris": {"ios": "https://dc.lft.to/lastmile_qr_scan", "android": "https://dc.lft.to/lastmile_qr_scan"}}, {"name": "89bdac23b286a2eb8f085c2ba1decfb8", "fusion_lat": 0.0, "type": "electric_bike", "lat": 38.879297, "is_reserved": 0, "is_disabled": 0, "fusion_lon": 0.0, "bike_id": "89bdac23b286a2eb8f085c2ba1decfb8", "lon": -77.02366916666666, "rental_uris": {"ios": "https://dc.lft.to/lastmile_qr_scan", "android": "https://dc.lft.to/lastmile_qr_scan"}}, {"name": "1722b5aae1e0e446b90e23403f2bd195", "fusion_lat": 0.0, "type": "electric_scooter", "lat": 38.91054533333333, "is_reserved": 0, "is_disabled": 0, "fusion_lon": 0.0, "bike_id": "1722b5aae1e0e446b90e23403f2bd195", "lon": -77.045807, "rental_uris": {"ios": "https://dc.lft.to/lastmile_qr_scan", "android": "https://dc.lft.to/lastmile_qr_scan"}}, {"name": "991e9719bfef66739e47c2b3e44ef33d", "fusion_lat": 0.0, "type": "electric_scooter", "lat": 38.952169833333336, "is_reserved": 0, "is_disabled": 0, "fusion_lon": 0.0, "bike_id": "991e9719bfef66739e47c2b3e44ef33d", "lon": -77.07069083333333, "rental_uris": {"ios": "https://dc.lft.to/lastmile_qr_scan", "android": "https://dc.lft.to/lastmile_qr_scan"}}, {"name": "a2ab4a811ebc8f13e3ecb28dc3cdb730", "fusion_lat": 0.0, "type": "electric_scooter", "lat": 38.8949665, "is_reserved": 0, "is_disabled": 0, "fusion_lon": 0.0, "bike_id": "a2ab4a811ebc8f13e3ecb28dc3cdb730", "lon": -77.023886, "rental_uris": {"ios": "https://dc.lft.to/lastmile_qr_scan", "android": "https://dc.lft.to/lastmile_qr_scan"}}, {"name": "30009aeed59166f0f5e062e3f6f84e11", "fusion_lat": 0.0, "type": "electric_scooter", "lat": 38.932340333333336, "is_reserved": 0, "is_disabled": 0, "fusion_lon": 0.0, "bike_id": "30009aeed59166f0f5e062e3f6f84e11", "lon": -77.03093383333334, "rental_uris": {"ios": "https://dc.lft.to/lastmile_qr_scan", "android": "https://dc.lft.to/lastmile_qr_scan"}}, {"name": "0728b44763928b98c7fc0b2476be1661", "fusion_lat": 0.0, "type": "electric_scooter", "lat": 38.865059, "is_reserved": 0, "is_disabled": 0, "fusion_lon": 0.0, "bike_id": "0728b44763928b98c7fc0b2476be1661", "lon": -76.99008216666667, "rental_uris": {"ios": "https://dc.lft.to/lastmile_qr_scan", "android": "https://dc.lft.to/lastmile_qr_scan"}}, {"name": "b544df0090fb127f8d610065dd1b609b", "fusion_lat": 0.0, "type": "electric_scooter", "lat": 38.9189415, "is_reserved": 0, "is_disabled": 0, "fusion_lon": 0.0, "bike_id": "b544df0090fb127f8d610065dd1b609b", "lon": -77.05287016666666, "rental_uris": {"ios": "https://dc.lft.to/lastmile_qr_scan", "android": "https://dc.lft.to/lastmile_qr_scan"}}, {"name": "cdaa2930638ff21e7920bdc695eb1c6c", "fusion_lat": 0.0, "type": "electric_bike", "lat": 38.845708333333334, "is_reserved": 0, "is_disabled": 0, "fusion_lon": 0.0, "bike_id": "cdaa2930638ff21e7920bdc695eb1c6c", "lon": -77.09624516666666, "rental_uris": {"ios": "https://dc.lft.to/lastmile_qr_scan", "android": "https://dc.lft.to/lastmile_qr_scan"}}, {"name": "4bcd6fcc1929b15b7c24397b4f3eb05e", "fusion_lat": 0.0, "type": "electric_scooter", "lat": 38.88485983333333, "is_reserved": 0, "is_disabled": 0, "fusion_lon": 0.0, "bike_id": "4bcd6fcc1929b15b7c24397b4f3eb05e", "lon": -77.00709516666667, "rental_uris": {"ios": "https://dc.lft.to/lastmile_qr_scan", "android": "https://dc.lft.to/lastmile_qr_scan"}}, {"name": "d0f40d75a2321bfa233238f2ded4a97e", "fusion_lat": 0.0, "type": "electric_scooter", "lat": 38.907338333333335, "is_reserved": 0, "is_disabled": 0, "fusion_lon": 0.0, "bike_id": "d0f40d75a2321bfa233238f2ded4a97e", "lon": -77.0348685, "rental_uris": {"ios": "https://dc.lft.to/lastmile_qr_scan", "android": "https://dc.lft.to/lastmile_qr_scan"}}, {"name": "0d7b5bb9f140a317d34fee6164997edc", "fusion_lat": 0.0, "type": "electric_scooter", "lat": 38.88315866666667, "is_reserved": 0, "is_disabled": 0, "fusion_lon": 0.0, "bike_id": "0d7b5bb9f140a317d34fee6164997edc", "lon": -77.00599033333333, "rental_uris": {"ios": "https://dc.lft.to/lastmile_qr_scan", "android": "https://dc.lft.to/lastmile_qr_scan"}}, {"name": "051c2f5e8a8b01b4e99dfabf98e7183c", "fusion_lat": 0.0, "type": "electric_bike", "lat": 38.97379933333333, "is_reserved": 0, "is_disabled": 0, "fusion_lon": 0.0, "bike_id": "051c2f5e8a8b01b4e99dfabf98e7183c", "lon": -77.06472233333334, "rental_uris": {"ios": "https://dc.lft.to/lastmile_qr_scan", "android": "https://dc.lft.to/lastmile_qr_scan"}}, {"name": "b45d796caaa7abd70ddc8e2ea105d392", "fusion_lat": 0.0, "type": "electric_scooter", "lat": 38.922289, "is_reserved": 0, "is_disabled": 0, "fusion_lon": 0.0, "bike_id": "b45d796caaa7abd70ddc8e2ea105d392", "lon": -77.04710266666666, "rental_uris": {"ios": "https://dc.lft.to/lastmile_qr_scan", "android": "https://dc.lft.to/lastmile_qr_scan"}}, {"name": "b75eb5019f1c01b76b1568c1facb265e", "fusion_lat": 0.0, "type": "electric_bike", "lat": 38.999080666666664, "is_reserved": 0, "is_disabled": 0, "fusion_lon": 0.0, "bike_id": "b75eb5019f1c01b76b1568c1facb265e", "lon": -77.04618883333333, "rental_uris": {"ios": "https://dc.lft.to/lastmile_qr_scan", "android": "https://dc.lft.to/lastmile_qr_scan"}}, {"name": "bf231afe562e3009bd042d13763d17c2", "fusion_lat": 0.0, "type": "electric_scooter", "lat": 38.878988666666665, "is_reserved": 0, "is_disabled": 0, "fusion_lon": 0.0, "bike_id": "bf231afe562e3009bd042d13763d17c2", "lon": -77.00129983333333, "rental_uris": {"ios": "https://dc.lft.to/lastmile_qr_scan", "android": "https://dc.lft.to/lastmile_qr_scan"}}, {"name": "193dec16aad1ab2b569dc371420efd1d", "fusion_lat": 0.0, "type": "electric_scooter", "lat": 38.912613, "is_reserved": 0, "is_disabled": 0, "fusion_lon": 0.0, "bike_id": "193dec16aad1ab2b569dc371420efd1d", "lon": -77.03143716666666, "rental_uris": {"ios": "https://dc.lft.to/lastmile_qr_scan", "android": "https://dc.lft.to/lastmile_qr_scan"}}, {"name": "b0e787a75cef3a3a21f99451dc2aa694", "fusion_lat": 0.0, "type": "electric_scooter", "lat": 38.9210385, "is_reserved": 0, "is_disabled": 0, "fusion_lon": 0.0, "bike_id": "b0e787a75cef3a3a21f99451dc2aa694", "lon": -77.022137, "rental_uris": {"ios": "https://dc.lft.to/lastmile_qr_scan", "android": "https://dc.lft.to/lastmile_qr_scan"}}, {"name": "fc48d527794965181959f9460b8bff0e", "fusion_lat": 0.0, "type": "electric_scooter", "lat": 38.86657366666667, "is_reserved": 0, "is_disabled": 0, "fusion_lon": 0.0, "bike_id": "fc48d527794965181959f9460b8bff0e", "lon": -77.010292, "rental_uris": {"ios": "https://dc.lft.to/lastmile_qr_scan", "android": "https://dc.lft.to/lastmile_qr_scan"}}, {"name": "2fdef1afc15d3ba905e5547f8bed2aba", "fusion_lat": 0.0, "type": "electric_scooter", "lat": 38.937051333333336, "is_reserved": 0, "is_disabled": 0, "fusion_lon": 0.0, "bike_id": "2fdef1afc15d3ba905e5547f8bed2aba", "lon": -77.06094966666667, "rental_uris": {"ios": "https://dc.lft.to/lastmile_qr_scan", "android": "https://dc.lft.to/lastmile_qr_scan"}}, {"name": "c5122808a8a5cf60127a7d610bc1c3f0", "fusion_lat": 0.0, "type": "electric_bike", "lat": 38.935617666666666, "is_reserved": 0, "is_disabled": 0, "fusion_lon": 0.0, "bike_id": "c5122808a8a5cf60127a7d610bc1c3f0", "lon": -77.03261133333334, "rental_uris": {"ios": "https://dc.lft.to/lastmile_qr_scan", "android": "https://dc.lft.to/lastmile_qr_scan"}}, {"name": "79c1f54c4ab3f6df6a31691ddc0f9a9b", "fusion_lat": 0.0, "type": "electric_scooter", "lat": 38.9412375, "is_reserved": 0, "is_disabled": 0, "fusion_lon": 0.0, "bike_id": "79c1f54c4ab3f6df6a31691ddc0f9a9b", "lon": -77.020527, "rental_uris": {"ios": "https://dc.lft.to/lastmile_qr_scan", "android": "https://dc.lft.to/lastmile_qr_scan"}}, {"name": "f1d4ddba1b60693c743af6582563a30c", "fusion_lat": 0.0, "type": "electric_scooter", "lat": 38.90213283333333, "is_reserved": 0, "is_disabled": 0, "fusion_lon": 0.0, "bike_id": "f1d4ddba1b60693c743af6582563a30c", "lon": -77.023284, "rental_uris": {"ios": "https://dc.lft.to/lastmile_qr_scan", "android": "https://dc.lft.to/lastmile_qr_scan"}}, {"name": "af81d78a91c15639ac1ec6c0cc551617", "fusion_lat": 0.0, "type": "electric_scooter", "lat": 38.863512666666665, "is_reserved": 0, "is_disabled": 0, "fusion_lon": 0.0, "bike_id": "af81d78a91c15639ac1ec6c0cc551617", "lon": -76.99062683333334, "rental_uris": {"ios": "https://dc.lft.to/lastmile_qr_scan", "android": "https://dc.lft.to/lastmile_qr_scan"}}, {"name": "29f5df18c84b7d28ff2ccc01a854438b", "fusion_lat": 0.0, "type": "electric_scooter", "lat": 38.912294333333335, "is_reserved": 0, "is_disabled": 0, "fusion_lon": 0.0, "bike_id": "29f5df18c84b7d28ff2ccc01a854438b", "lon": -77.0383965, "rental_uris": {"ios": "https://dc.lft.to/lastmile_qr_scan", "android": "https://dc.lft.to/lastmile_qr_scan"}}, {"name": "54fd5f7e8506e4e7b917f10b88251657", "fusion_lat": 0.0, "type": "electric_scooter", "lat": 38.90294016666667, "is_reserved": 0, "is_disabled": 0, "fusion_lon": 0.0, "bike_id": "54fd5f7e8506e4e7b917f10b88251657", "lon": -77.04615866666667, "rental_uris": {"ios": "https://dc.lft.to/lastmile_qr_scan", "android": "https://dc.lft.to/lastmile_qr_scan"}}, {"name": "e4f8552a2221f42f44f37eac25adab99", "fusion_lat": 0.0, "type": "electric_scooter", "lat": 38.909591666666664, "is_reserved": 0, "is_disabled": 0, "fusion_lon": 0.0, "bike_id": "e4f8552a2221f42f44f37eac25adab99", "lon": -77.0475865, "rental_uris": {"ios": "https://dc.lft.to/lastmile_qr_scan", "android": "https://dc.lft.to/lastmile_qr_scan"}}, {"name": "f52d77a17a7574b4794a9e15ba98e7ca", "fusion_lat": 0.0, "type": "electric_bike", "lat": 38.92879216666667, "is_reserved": 0, "is_disabled": 0, "fusion_lon": 0.0, "bike_id": "f52d77a17a7574b4794a9e15ba98e7ca", "lon": -77.03369383333333, "rental_uris": {"ios": "https://dc.lft.to/lastmile_qr_scan", "android": "https://dc.lft.to/lastmile_qr_scan"}}, {"name": "2dc07b225a8bd9618a63c30438bc1451", "fusion_lat": 0.0, "type": "electric_scooter", "lat": 38.9214985, "is_reserved": 0, "is_disabled": 0, "fusion_lon": 0.0, "bike_id": "2dc07b225a8bd9618a63c30438bc1451", "lon": -77.03506316666666, "rental_uris": {"ios": "https://dc.lft.to/lastmile_qr_scan", "android": "https://dc.lft.to/lastmile_qr_scan"}}, {"name": "0cc4c5a1807938e2f95398268056e1e8", "fusion_lat": 0.0, "type": "electric_scooter", "lat": 38.8922475, "is_reserved": 0, "is_disabled": 0, "fusion_lon": 0.0, "bike_id": "0cc4c5a1807938e2f95398268056e1e8", "lon": -77.04647283333334, "rental_uris": {"ios": "https://dc.lft.to/lastmile_qr_scan", "android": "https://dc.lft.to/lastmile_qr_scan"}}, {"name": "3e9bbc155de57605eee4c696832b2be1", "fusion_lat": 0.0, "type": "electric_bike", "lat": 38.94893916666667, "is_reserved": 0, "is_disabled": 0, "fusion_lon": 0.0, "bike_id": "3e9bbc155de57605eee4c696832b2be1", "lon": -76.96375766666667, "rental_uris": {"ios": "https://dc.lft.to/lastmile_qr_scan", "android": "https://dc.lft.to/lastmile_qr_scan"}}, {"name": "f5e6aeec461f06b29d5cd466347d9f05", "fusion_lat": 0.0, "type": "electric_scooter", "lat": 38.90368516666667, "is_reserved": 0, "is_disabled": 0, "fusion_lon": 0.0, "bike_id": "f5e6aeec461f06b29d5cd466347d9f05", "lon": -77.0108835, "rental_uris": {"ios": "https://dc.lft.to/lastmile_qr_scan", "android": "https://dc.lft.to/lastmile_qr_scan"}}, {"name": "ba6e586222cc3b7aa1f774ebdaf96ef0", "fusion_lat": 0.0, "type": "electric_scooter", "lat": 38.919815666666665, "is_reserved": 0, "is_disabled": 0, "fusion_lon": 0.0, "bike_id": "ba6e586222cc3b7aa1f774ebdaf96ef0", "lon": -77.03329166666667, "rental_uris": {"ios": "https://dc.lft.to/lastmile_qr_scan", "android": "https://dc.lft.to/lastmile_qr_scan"}}, {"name": "9dde85645a239678f7b83de93c798c64", "fusion_lat": 0.0, "type": "electric_scooter", "lat": 38.908500833333335, "is_reserved": 0, "is_disabled": 0, "fusion_lon": 0.0, "bike_id": "9dde85645a239678f7b83de93c798c64", "lon": -77.0434405, "rental_uris": {"ios": "https://dc.lft.to/lastmile_qr_scan", "android": "https://dc.lft.to/lastmile_qr_scan"}}, {"name": "c05a11a3946b6f913dd3363cb8108199", "fusion_lat": 0.0, "type": "electric_scooter", "lat": 38.88466716666667, "is_reserved": 0, "is_disabled": 0, "fusion_lon": 0.0, "bike_id": "c05a11a3946b6f913dd3363cb8108199", "lon": -77.01509183333333, "rental_uris": {"ios": "https://dc.lft.to/lastmile_qr_scan", "android": "https://dc.lft.to/lastmile_qr_scan"}}, {"name": "5a20f25dc6197915ecc0049ce9e76f93", "fusion_lat": 0.0, "type": "electric_scooter", "lat": 38.8987575, "is_reserved": 0, "is_disabled": 0, "fusion_lon": 0.0, "bike_id": "5a20f25dc6197915ecc0049ce9e76f93", "lon": -76.93159283333334, "rental_uris": {"ios": "https://dc.lft.to/lastmile_qr_scan", "android": "https://dc.lft.to/lastmile_qr_scan"}}, {"name": "afda9c83a882743d1ce7800d06c03e16", "fusion_lat": 0.0, "type": "electric_scooter", "lat": 38.94168716666667, "is_reserved": 0, "is_disabled": 0, "fusion_lon": 0.0, "bike_id": "afda9c83a882743d1ce7800d06c03e16", "lon": -77.04133466666667, "rental_uris": {"ios": "https://dc.lft.to/lastmile_qr_scan", "android": "https://dc.lft.to/lastmile_qr_scan"}}, {"name": "e2cd7cb4cdc50f479953ba30728d8e67", "fusion_lat": 0.0, "type": "electric_scooter", "lat": 38.87416966666667, "is_reserved": 0, "is_disabled": 0, "fusion_lon": 0.0, "bike_id": "e2cd7cb4cdc50f479953ba30728d8e67", "lon": -76.97179566666667, "rental_uris": {"ios": "https://dc.lft.to/lastmile_qr_scan", "android": "https://dc.lft.to/lastmile_qr_scan"}}, {"name": "fd6ded494d3976f98d8eb2852895e887", "fusion_lat": 0.0, "type": "electric_bike", "lat": 38.863853, "is_reserved": 0, "is_disabled": 0, "fusion_lon": 0.0, "bike_id": "fd6ded494d3976f98d8eb2852895e887", "lon": -76.9898715, "rental_uris": {"ios": "https://dc.lft.to/lastmile_qr_scan", "android": "https://dc.lft.to/lastmile_qr_scan"}}, {"name": "c38ac6d1eff952068adadffc9d4a0b4b", "fusion_lat": 0.0, "type": "electric_scooter", "lat": 38.911872333333335, "is_reserved": 0, "is_disabled": 0, "fusion_lon": 0.0, "bike_id": "c38ac6d1eff952068adadffc9d4a0b4b", "lon": -77.03969583333334, "rental_uris": {"ios": "https://dc.lft.to/lastmile_qr_scan", "android": "https://dc.lft.to/lastmile_qr_scan"}}, {"name": "4b4d5d822f38977a91278ba7fc4c6f40", "fusion_lat": 0.0, "type": "electric_scooter", "lat": 38.91840633333333, "is_reserved": 0, "is_disabled": 0, "fusion_lon": 0.0, "bike_id": "4b4d5d822f38977a91278ba7fc4c6f40", "lon": -77.02601266666667, "rental_uris": {"ios": "https://dc.lft.to/lastmile_qr_scan", "android": "https://dc.lft.to/lastmile_qr_scan"}}, {"name": "3f1dd90661b7c8151c2118eb6b0201f4", "fusion_lat": 0.0, "type": "electric_scooter", "lat": 38.900623, "is_reserved": 0, "is_disabled": 0, "fusion_lon": 0.0, "bike_id": "3f1dd90661b7c8151c2118eb6b0201f4", "lon": -77.045353, "rental_uris": {"ios": "https://dc.lft.to/lastmile_qr_scan", "android": "https://dc.lft.to/lastmile_qr_scan"}}, {"name": "964d35a6e972b951d5d24e11700546cf", "fusion_lat": 0.0, "type": "electric_bike", "lat": 38.994715166666666, "is_reserved": 0, "is_disabled": 0, "fusion_lon": 0.0, "bike_id": "964d35a6e972b951d5d24e11700546cf", "lon": -77.02900583333333, "rental_uris": {"ios": "https://dc.lft.to/lastmile_qr_scan", "android": "https://dc.lft.to/lastmile_qr_scan"}}, {"name": "f9256f35a84c763ed9d6e07267286012", "fusion_lat": 0.0, "type": "electric_scooter", "lat": 38.91487466666667, "is_reserved": 0, "is_disabled": 0, "fusion_lon": 0.0, "bike_id": "f9256f35a84c763ed9d6e07267286012", "lon": -77.03250116666666, "rental_uris": {"ios": "https://dc.lft.to/lastmile_qr_scan", "android": "https://dc.lft.to/lastmile_qr_scan"}}, {"name": "5e29ae1d21a4166fc622ea4faa45befe", "fusion_lat": 0.0, "type": "electric_scooter", "lat": 38.931076166666664, "is_reserved": 0, "is_disabled": 0, "fusion_lon": 0.0, "bike_id": "5e29ae1d21a4166fc622ea4faa45befe", "lon": -77.03841, "rental_uris": {"ios": "https://dc.lft.to/lastmile_qr_scan", "android": "https://dc.lft.to/lastmile_qr_scan"}}, {"name": "4c460cd42855f911a0d10cfb921263e3", "fusion_lat": 0.0, "type": "electric_scooter", "lat": 38.911924666666664, "is_reserved": 0, "is_disabled": 0, "fusion_lon": 0.0, "bike_id": "4c460cd42855f911a0d10cfb921263e3", "lon": -77.00726216666666, "rental_uris": {"ios": "https://dc.lft.to/lastmile_qr_scan", "android": "https://dc.lft.to/lastmile_qr_scan"}}, {"name": "e03fec895e9b2863e9d7da1e7438e2aa", "fusion_lat": 0.0, "type": "electric_scooter", "lat": 38.90316416666667, "is_reserved": 0, "is_disabled": 0, "fusion_lon": 0.0, "bike_id": "e03fec895e9b2863e9d7da1e7438e2aa", "lon": -76.98253783333334, "rental_uris": {"ios": "https://dc.lft.to/lastmile_qr_scan", "android": "https://dc.lft.to/lastmile_qr_scan"}}, {"name": "1a9a45f7f821cdca4d16d405d4809834", "fusion_lat": 0.0, "type": "electric_scooter", "lat": 38.93937, "is_reserved": 0, "is_disabled": 0, "fusion_lon": 0.0, "bike_id": "1a9a45f7f821cdca4d16d405d4809834", "lon": -77.03622916666667, "rental_uris": {"ios": "https://dc.lft.to/lastmile_qr_scan", "android": "https://dc.lft.to/lastmile_qr_scan"}}, {"name": "67bb4a81df1e10de3bf856d9b62d97e3", "fusion_lat": 0.0, "type": "electric_scooter", "lat": 38.9177765, "is_reserved": 0, "is_disabled": 0, "fusion_lon": 0.0, "bike_id": "67bb4a81df1e10de3bf856d9b62d97e3", "lon": -77.02347066666667, "rental_uris": {"ios": "https://dc.lft.to/lastmile_qr_scan", "android": "https://dc.lft.to/lastmile_qr_scan"}}, {"name": "b8599a0e731b3149431ad574a281d261", "fusion_lat": 0.0, "type": "electric_bike", "lat": 38.85533516666667, "is_reserved": 0, "is_disabled": 0, "fusion_lon": 0.0, "bike_id": "b8599a0e731b3149431ad574a281d261", "lon": -77.10721516666666, "rental_uris": {"ios": "https://dc.lft.to/lastmile_qr_scan", "android": "https://dc.lft.to/lastmile_qr_scan"}}, {"name": "a1b95859e383fc0380d389571dc83059", "fusion_lat": 0.0, "type": "electric_scooter", "lat": 38.90734533333333, "is_reserved": 0, "is_disabled": 0, "fusion_lon": 0.0, "bike_id": "a1b95859e383fc0380d389571dc83059", "lon": -77.0466675, "rental_uris": {"ios": "https://dc.lft.to/lastmile_qr_scan", "android": "https://dc.lft.to/lastmile_qr_scan"}}, {"name": "ef0edf4cc0d6f32464857e9f71290393", "fusion_lat": 0.0, "type": "electric_scooter", "lat": 38.90511166666667, "is_reserved": 0, "is_disabled": 0, "fusion_lon": 0.0, "bike_id": "ef0edf4cc0d6f32464857e9f71290393", "lon": -77.06938616666666, "rental_uris": {"ios": "https://dc.lft.to/lastmile_qr_scan", "android": "https://dc.lft.to/lastmile_qr_scan"}}, {"name": "d512212528405dedabb6676d735e7fad", "fusion_lat": 0.0, "type": "electric_scooter", "lat": 38.911062333333334, "is_reserved": 0, "is_disabled": 0, "fusion_lon": 0.0, "bike_id": "d512212528405dedabb6676d735e7fad", "lon": -77.01059816666667, "rental_uris": {"ios": "https://dc.lft.to/lastmile_qr_scan", "android": "https://dc.lft.to/lastmile_qr_scan"}}, {"name": "83e1fd3f1d26dbefac25b62ae2bd839d", "fusion_lat": 0.0, "type": "electric_scooter", "lat": 38.930932, "is_reserved": 0, "is_disabled": 0, "fusion_lon": 0.0, "bike_id": "83e1fd3f1d26dbefac25b62ae2bd839d", "lon": -77.02485933333334, "rental_uris": {"ios": "https://dc.lft.to/lastmile_qr_scan", "android": "https://dc.lft.to/lastmile_qr_scan"}}, {"name": "db873eb3ad9a29b655a3935bb9b01b5a", "fusion_lat": 0.0, "type": "electric_scooter", "lat": 38.89995116666667, "is_reserved": 0, "is_disabled": 0, "fusion_lon": 0.0, "bike_id": "db873eb3ad9a29b655a3935bb9b01b5a", "lon": -77.04039783333333, "rental_uris": {"ios": "https://dc.lft.to/lastmile_qr_scan", "android": "https://dc.lft.to/lastmile_qr_scan"}}, {"name": "bf5592560485f24dc3b973558afe00ad", "fusion_lat": 0.0, "type": "electric_scooter", "lat": 38.90113766666666, "is_reserved": 0, "is_disabled": 0, "fusion_lon": 0.0, "bike_id": "bf5592560485f24dc3b973558afe00ad", "lon": -77.04233633333334, "rental_uris": {"ios": "https://dc.lft.to/lastmile_qr_scan", "android": "https://dc.lft.to/lastmile_qr_scan"}}, {"name": "cc11e9873892c2409ea874ca7db8da80", "fusion_lat": 0.0, "type": "electric_scooter", "lat": 38.877102666666666, "is_reserved": 0, "is_disabled": 0, "fusion_lon": 0.0, "bike_id": "cc11e9873892c2409ea874ca7db8da80", "lon": -77.01657116666667, "rental_uris": {"ios": "https://dc.lft.to/lastmile_qr_scan", "android": "https://dc.lft.to/lastmile_qr_scan"}}, {"name": "282469098c3a7803730baf88dca173ce", "fusion_lat": 0.0, "type": "electric_scooter", "lat": 38.900464666666664, "is_reserved": 0, "is_disabled": 0, "fusion_lon": 0.0, "bike_id": "282469098c3a7803730baf88dca173ce", "lon": -77.008851, "rental_uris": {"ios": "https://dc.lft.to/lastmile_qr_scan", "android": "https://dc.lft.to/lastmile_qr_scan"}}, {"name": "d9762a50139b6e8ef214ef56c8dfb1d4", "fusion_lat": 0.0, "type": "electric_scooter", "lat": 38.902749, "is_reserved": 0, "is_disabled": 0, "fusion_lon": 0.0, "bike_id": "d9762a50139b6e8ef214ef56c8dfb1d4", "lon": -77.0036325, "rental_uris": {"ios": "https://dc.lft.to/lastmile_qr_scan", "android": "https://dc.lft.to/lastmile_qr_scan"}}, {"name": "5e1e85ed93ced7f80b42120c804068db", "fusion_lat": 0.0, "type": "electric_scooter", "lat": 38.90727483333333, "is_reserved": 0, "is_disabled": 0, "fusion_lon": 0.0, "bike_id": "5e1e85ed93ced7f80b42120c804068db", "lon": -76.99769466666666, "rental_uris": {"ios": "https://dc.lft.to/lastmile_qr_scan", "android": "https://dc.lft.to/lastmile_qr_scan"}}, {"name": "f62d4fae1414a6cd4b46eec1f42fc034", "fusion_lat": 0.0, "type": "electric_scooter", "lat": 38.92150933333333, "is_reserved": 0, "is_disabled": 0, "fusion_lon": 0.0, "bike_id": "f62d4fae1414a6cd4b46eec1f42fc034", "lon": -77.03390233333333, "rental_uris": {"ios": "https://dc.lft.to/lastmile_qr_scan", "android": "https://dc.lft.to/lastmile_qr_scan"}}, {"name": "372d485c892b7f77c86b9d89d662271c", "fusion_lat": 0.0, "type": "electric_scooter", "lat": 38.921554, "is_reserved": 0, "is_disabled": 0, "fusion_lon": 0.0, "bike_id": "372d485c892b7f77c86b9d89d662271c", "lon": -77.03382616666667, "rental_uris": {"ios": "https://dc.lft.to/lastmile_qr_scan", "android": "https://dc.lft.to/lastmile_qr_scan"}}, {"name": "95cdefe6e12b8327d9a5804c8481330b", "fusion_lat": 0.0, "type": "electric_scooter", "lat": 38.899114, "is_reserved": 0, "is_disabled": 0, "fusion_lon": 0.0, "bike_id": "95cdefe6e12b8327d9a5804c8481330b", "lon": -76.933631, "rental_uris": {"ios": "https://dc.lft.to/lastmile_qr_scan", "android": "https://dc.lft.to/lastmile_qr_scan"}}, {"name": "be1263ed7fe09e94cf7c7e2e0061c3ce", "fusion_lat": 0.0, "type": "electric_bike", "lat": 38.87081333333333, "is_reserved": 0, "is_disabled": 0, "fusion_lon": 0.0, "bike_id": "be1263ed7fe09e94cf7c7e2e0061c3ce", "lon": -77.01210016666667, "rental_uris": {"ios": "https://dc.lft.to/lastmile_qr_scan", "android": "https://dc.lft.to/lastmile_qr_scan"}}, {"name": "790923dbb00eb2e203b1b9dee78d9812", "fusion_lat": 0.0, "type": "electric_scooter", "lat": 38.92720083333333, "is_reserved": 0, "is_disabled": 0, "fusion_lon": 0.0, "bike_id": "790923dbb00eb2e203b1b9dee78d9812", "lon": -77.00562333333333, "rental_uris": {"ios": "https://dc.lft.to/lastmile_qr_scan", "android": "https://dc.lft.to/lastmile_qr_scan"}}, {"name": "0149ad8a2698fd481934e1c40c3ea049", "fusion_lat": 0.0, "type": "electric_bike", "lat": 38.8752515, "is_reserved": 0, "is_disabled": 0, "fusion_lon": 0.0, "bike_id": "0149ad8a2698fd481934e1c40c3ea049", "lon": -77.1990795, "rental_uris": {"ios": "https://dc.lft.to/lastmile_qr_scan", "android": "https://dc.lft.to/lastmile_qr_scan"}}, {"name": "ed84fa678a381d231a10e774ddb564d9", "fusion_lat": 0.0, "type": "electric_scooter", "lat": 38.901477666666665, "is_reserved": 0, "is_disabled": 0, "fusion_lon": 0.0, "bike_id": "ed84fa678a381d231a10e774ddb564d9", "lon": -77.04355733333334, "rental_uris": {"ios": "https://dc.lft.to/lastmile_qr_scan", "android": "https://dc.lft.to/lastmile_qr_scan"}}, {"name": "376639acd680d6ffac1b7669027688a4", "fusion_lat": 0.0, "type": "electric_scooter", "lat": 38.92376016666667, "is_reserved": 0, "is_disabled": 0, "fusion_lon": 0.0, "bike_id": "376639acd680d6ffac1b7669027688a4", "lon": -77.02985083333333, "rental_uris": {"ios": "https://dc.lft.to/lastmile_qr_scan", "android": "https://dc.lft.to/lastmile_qr_scan"}}, {"name": "84eece5c1edea84e921f901b5245fe2a", "fusion_lat": 0.0, "type": "electric_bike", "lat": 39.094582333333335, "is_reserved": 0, "is_disabled": 0, "fusion_lon": 0.0, "bike_id": "84eece5c1edea84e921f901b5245fe2a", "lon": -77.14995316666666, "rental_uris": {"ios": "https://dc.lft.to/lastmile_qr_scan", "android": "https://dc.lft.to/lastmile_qr_scan"}}, {"name": "daa19fdc356608010b9ab0b19a8dab4a", "fusion_lat": 0.0, "type": "electric_scooter", "lat": 38.918152666666664, "is_reserved": 0, "is_disabled": 0, "fusion_lon": 0.0, "bike_id": "daa19fdc356608010b9ab0b19a8dab4a", "lon": -77.02799033333334, "rental_uris": {"ios": "https://dc.lft.to/lastmile_qr_scan", "android": "https://dc.lft.to/lastmile_qr_scan"}}, {"name": "7df1022ae672d8c340ca9190ffaa754b", "fusion_lat": 0.0, "type": "electric_scooter", "lat": 38.912477333333335, "is_reserved": 0, "is_disabled": 0, "fusion_lon": 0.0, "bike_id": "7df1022ae672d8c340ca9190ffaa754b", "lon": -77.03802516666667, "rental_uris": {"ios": "https://dc.lft.to/lastmile_qr_scan", "android": "https://dc.lft.to/lastmile_qr_scan"}}, {"name": "55752da2e641184dd05cfa96629181af", "fusion_lat": 0.0, "type": "electric_scooter", "lat": 38.92071983333334, "is_reserved": 0, "is_disabled": 0, "fusion_lon": 0.0, "bike_id": "55752da2e641184dd05cfa96629181af", "lon": -77.03159533333333, "rental_uris": {"ios": "https://dc.lft.to/lastmile_qr_scan", "android": "https://dc.lft.to/lastmile_qr_scan"}}, {"name": "6824cd92bd76a2a3d006f0cf03d154c7", "fusion_lat": 0.0, "type": "electric_scooter", "lat": 38.9026215, "is_reserved": 0, "is_disabled": 0, "fusion_lon": 0.0, "bike_id": "6824cd92bd76a2a3d006f0cf03d154c7", "lon": -77.029496, "rental_uris": {"ios": "https://dc.lft.to/lastmile_qr_scan", "android": "https://dc.lft.to/lastmile_qr_scan"}}, {"name": "65334d06812a52f5ce6d2e833a661fff", "fusion_lat": 0.0, "type": "electric_scooter", "lat": 38.905668, "is_reserved": 0, "is_disabled": 0, "fusion_lon": 0.0, "bike_id": "65334d06812a52f5ce6d2e833a661fff", "lon": -77.00880816666667, "rental_uris": {"ios": "https://dc.lft.to/lastmile_qr_scan", "android": "https://dc.lft.to/lastmile_qr_scan"}}, {"name": "92a90b78022bb560d52c61fc9652c9df", "fusion_lat": 0.0, "type": "electric_scooter", "lat": 38.89894133333333, "is_reserved": 0, "is_disabled": 0, "fusion_lon": 0.0, "bike_id": "92a90b78022bb560d52c61fc9652c9df", "lon": -76.93297216666667, "rental_uris": {"ios": "https://dc.lft.to/lastmile_qr_scan", "android": "https://dc.lft.to/lastmile_qr_scan"}}, {"name": "e44d6029b867083d4222ebe1a8e1dbf7", "fusion_lat": 0.0, "type": "electric_scooter", "lat": 38.915230333333334, "is_reserved": 0, "is_disabled": 0, "fusion_lon": 0.0, "bike_id": "e44d6029b867083d4222ebe1a8e1dbf7", "lon": -77.0141975, "rental_uris": {"ios": "https://dc.lft.to/lastmile_qr_scan", "android": "https://dc.lft.to/lastmile_qr_scan"}}, {"name": "67855470c265e1baa30affabc9c01448", "fusion_lat": 0.0, "type": "electric_scooter", "lat": 38.92235566666667, "is_reserved": 0, "is_disabled": 0, "fusion_lon": 0.0, "bike_id": "67855470c265e1baa30affabc9c01448", "lon": -77.02239316666666, "rental_uris": {"ios": "https://dc.lft.to/lastmile_qr_scan", "android": "https://dc.lft.to/lastmile_qr_scan"}}, {"name": "96245b208a4c6e53decf3e4171214f8f", "fusion_lat": 0.0, "type": "electric_scooter", "lat": 38.91361366666667, "is_reserved": 0, "is_disabled": 0, "fusion_lon": 0.0, "bike_id": "96245b208a4c6e53decf3e4171214f8f", "lon": -77.03968383333333, "rental_uris": {"ios": "https://dc.lft.to/lastmile_qr_scan", "android": "https://dc.lft.to/lastmile_qr_scan"}}, {"name": "7b0b740f8a9bb2d3c605daf41b599537", "fusion_lat": 0.0, "type": "electric_scooter", "lat": 38.936049, "is_reserved": 0, "is_disabled": 0, "fusion_lon": 0.0, "bike_id": "7b0b740f8a9bb2d3c605daf41b599537", "lon": -77.0586045, "rental_uris": {"ios": "https://dc.lft.to/lastmile_qr_scan", "android": "https://dc.lft.to/lastmile_qr_scan"}}, {"name": "e20b61076d1690f3dea6d3d601348ef8", "fusion_lat": 0.0, "type": "electric_scooter", "lat": 38.898861333333336, "is_reserved": 0, "is_disabled": 0, "fusion_lon": 0.0, "bike_id": "e20b61076d1690f3dea6d3d601348ef8", "lon": -76.98571366666667, "rental_uris": {"ios": "https://dc.lft.to/lastmile_qr_scan", "android": "https://dc.lft.to/lastmile_qr_scan"}}, {"name": "781603ba11d6502e2bb924c44f772032", "fusion_lat": 0.0, "type": "electric_bike", "lat": 38.89607933333333, "is_reserved": 0, "is_disabled": 0, "fusion_lon": 0.0, "bike_id": "781603ba11d6502e2bb924c44f772032", "lon": -77.02205266666667, "rental_uris": {"ios": "https://dc.lft.to/lastmile_qr_scan", "android": "https://dc.lft.to/lastmile_qr_scan"}}, {"name": "04bc047a86eaa14713027c924e44ced4", "fusion_lat": 0.0, "type": "electric_scooter", "lat": 38.90651066666667, "is_reserved": 0, "is_disabled": 0, "fusion_lon": 0.0, "bike_id": "04bc047a86eaa14713027c924e44ced4", "lon": -76.98601783333334, "rental_uris": {"ios": "https://dc.lft.to/lastmile_qr_scan", "android": "https://dc.lft.to/lastmile_qr_scan"}}, {"name": "c796ef24db39a86937f6f46cf35b3362", "fusion_lat": 0.0, "type": "electric_scooter", "lat": 38.92968616666667, "is_reserved": 0, "is_disabled": 0, "fusion_lon": 0.0, "bike_id": "c796ef24db39a86937f6f46cf35b3362", "lon": -77.00532566666666, "rental_uris": {"ios": "https://dc.lft.to/lastmile_qr_scan", "android": "https://dc.lft.to/lastmile_qr_scan"}}, {"name": "3586d9f375eedfa5a691be72e86494f5", "fusion_lat": 0.0, "type": "electric_scooter", "lat": 38.9029875, "is_reserved": 0, "is_disabled": 0, "fusion_lon": 0.0, "bike_id": "3586d9f375eedfa5a691be72e86494f5", "lon": -77.03651533333333, "rental_uris": {"ios": "https://dc.lft.to/lastmile_qr_scan", "android": "https://dc.lft.to/lastmile_qr_scan"}}, {"name": "e327827b6220d90f827f30e548927b8c", "fusion_lat": 0.0, "type": "electric_scooter", "lat": 38.89874566666667, "is_reserved": 0, "is_disabled": 0, "fusion_lon": 0.0, "bike_id": "e327827b6220d90f827f30e548927b8c", "lon": -76.93158366666667, "rental_uris": {"ios": "https://dc.lft.to/lastmile_qr_scan", "android": "https://dc.lft.to/lastmile_qr_scan"}}, {"name": "e757fd5260018445912d9cb96989daa1", "fusion_lat": 0.0, "type": "electric_scooter", "lat": 38.9206155, "is_reserved": 0, "is_disabled": 0, "fusion_lon": 0.0, "bike_id": "e757fd5260018445912d9cb96989daa1", "lon": -77.0270985, "rental_uris": {"ios": "https://dc.lft.to/lastmile_qr_scan", "android": "https://dc.lft.to/lastmile_qr_scan"}}, {"name": "6bdb1f584d097808074a91277be03420", "fusion_lat": 0.0, "type": "electric_scooter", "lat": 38.9333055, "is_reserved": 0, "is_disabled": 0, "fusion_lon": 0.0, "bike_id": "6bdb1f584d097808074a91277be03420", "lon": -77.02743033333333, "rental_uris": {"ios": "https://dc.lft.to/lastmile_qr_scan", "android": "https://dc.lft.to/lastmile_qr_scan"}}, {"name": "d820f5fc3188d2366b4d2233ae1aa4b1", "fusion_lat": 0.0, "type": "electric_scooter", "lat": 38.88380816666667, "is_reserved": 0, "is_disabled": 0, "fusion_lon": 0.0, "bike_id": "d820f5fc3188d2366b4d2233ae1aa4b1", "lon": -77.01942183333334, "rental_uris": {"ios": "https://dc.lft.to/lastmile_qr_scan", "android": "https://dc.lft.to/lastmile_qr_scan"}}, {"name": "fbacd77995c0291118436086fb2ab747", "fusion_lat": 0.0, "type": "electric_scooter", "lat": 38.8615725, "is_reserved": 0, "is_disabled": 0, "fusion_lon": 0.0, "bike_id": "fbacd77995c0291118436086fb2ab747", "lon": -76.98901516666666, "rental_uris": {"ios": "https://dc.lft.to/lastmile_qr_scan", "android": "https://dc.lft.to/lastmile_qr_scan"}}, {"name": "4ae86d0896d0b9ed8e71af5a55ec7f2c", "fusion_lat": 0.0, "type": "electric_scooter", "lat": 38.90403966666667, "is_reserved": 0, "is_disabled": 0, "fusion_lon": 0.0, "bike_id": "4ae86d0896d0b9ed8e71af5a55ec7f2c", "lon": -77.0639865, "rental_uris": {"ios": "https://dc.lft.to/lastmile_qr_scan", "android": "https://dc.lft.to/lastmile_qr_scan"}}, {"name": "334780ea3dcd89a9ee2fcf37e47b2997", "fusion_lat": 0.0, "type": "electric_scooter", "lat": 38.9088215, "is_reserved": 0, "is_disabled": 0, "fusion_lon": 0.0, "bike_id": "334780ea3dcd89a9ee2fcf37e47b2997", "lon": -77.00578883333333, "rental_uris": {"ios": "https://dc.lft.to/lastmile_qr_scan", "android": "https://dc.lft.to/lastmile_qr_scan"}}, {"name": "4d5b2e79df1e52afbea816631d4ee311", "fusion_lat": 0.0, "type": "electric_scooter", "lat": 38.88316483333333, "is_reserved": 0, "is_disabled": 0, "fusion_lon": 0.0, "bike_id": "4d5b2e79df1e52afbea816631d4ee311", "lon": -77.02386133333333, "rental_uris": {"ios": "https://dc.lft.to/lastmile_qr_scan", "android": "https://dc.lft.to/lastmile_qr_scan"}}, {"name": "5419a7a0bf9b6381eb173c6b9eaa061c", "fusion_lat": 0.0, "type": "electric_scooter", "lat": 38.936963666666664, "is_reserved": 0, "is_disabled": 0, "fusion_lon": 0.0, "bike_id": "5419a7a0bf9b6381eb173c6b9eaa061c", "lon": -77.05601566666667, "rental_uris": {"ios": "https://dc.lft.to/lastmile_qr_scan", "android": "https://dc.lft.to/lastmile_qr_scan"}}, {"name": "5cd5f6644e133ccb8b979c02e84a9418", "fusion_lat": 0.0, "type": "electric_scooter", "lat": 38.92388966666667, "is_reserved": 0, "is_disabled": 0, "fusion_lon": 0.0, "bike_id": "5cd5f6644e133ccb8b979c02e84a9418", "lon": -77.02975016666667, "rental_uris": {"ios": "https://dc.lft.to/lastmile_qr_scan", "android": "https://dc.lft.to/lastmile_qr_scan"}}, {"name": "e36c36f0a0160748e635068a4489faaa", "fusion_lat": 0.0, "type": "electric_scooter", "lat": 38.930990333333334, "is_reserved": 0, "is_disabled": 0, "fusion_lon": 0.0, "bike_id": "e36c36f0a0160748e635068a4489faaa", "lon": -77.02393566666667, "rental_uris": {"ios": "https://dc.lft.to/lastmile_qr_scan", "android": "https://dc.lft.to/lastmile_qr_scan"}}, {"name": "96222f3a6415cc9c8090e61445d6539f", "fusion_lat": 0.0, "type": "electric_scooter", "lat": 38.91813466666667, "is_reserved": 0, "is_disabled": 0, "fusion_lon": 0.0, "bike_id": "96222f3a6415cc9c8090e61445d6539f", "lon": -77.03999533333334, "rental_uris": {"ios": "https://dc.lft.to/lastmile_qr_scan", "android": "https://dc.lft.to/lastmile_qr_scan"}}, {"name": "4129670b73d4794a9a902775cf67a61a", "fusion_lat": 0.0, "type": "electric_scooter", "lat": 38.905629833333336, "is_reserved": 0, "is_disabled": 0, "fusion_lon": 0.0, "bike_id": "4129670b73d4794a9a902775cf67a61a", "lon": -76.98142133333333, "rental_uris": {"ios": "https://dc.lft.to/lastmile_qr_scan", "android": "https://dc.lft.to/lastmile_qr_scan"}}, {"name": "763a9a566e306787ea16dbbe3c864de3", "fusion_lat": 0.0, "type": "electric_scooter", "lat": 38.91745683333333, "is_reserved": 0, "is_disabled": 0, "fusion_lon": 0.0, "bike_id": "763a9a566e306787ea16dbbe3c864de3", "lon": -77.01887616666667, "rental_uris": {"ios": "https://dc.lft.to/lastmile_qr_scan", "android": "https://dc.lft.to/lastmile_qr_scan"}}, {"name": "db210070d1372fa950d32caa1b7cc54b", "fusion_lat": 0.0, "type": "electric_scooter", "lat": 38.9104015, "is_reserved": 0, "is_disabled": 0, "fusion_lon": 0.0, "bike_id": "db210070d1372fa950d32caa1b7cc54b", "lon": -77.0437705, "rental_uris": {"ios": "https://dc.lft.to/lastmile_qr_scan", "android": "https://dc.lft.to/lastmile_qr_scan"}}, {"name": "cfb0488db567e6106dd27714aa447198", "fusion_lat": 0.0, "type": "electric_scooter", "lat": 38.904142, "is_reserved": 0, "is_disabled": 0, "fusion_lon": 0.0, "bike_id": "cfb0488db567e6106dd27714aa447198", "lon": -76.97888, "rental_uris": {"ios": "https://dc.lft.to/lastmile_qr_scan", "android": "https://dc.lft.to/lastmile_qr_scan"}}, {"name": "bcd4ffcbd7143776133b1fc30bde282a", "fusion_lat": 0.0, "type": "electric_bike", "lat": 38.959577833333334, "is_reserved": 0, "is_disabled": 0, "fusion_lon": 0.0, "bike_id": "bcd4ffcbd7143776133b1fc30bde282a", "lon": -77.10092316666666, "rental_uris": {"ios": "https://dc.lft.to/lastmile_qr_scan", "android": "https://dc.lft.to/lastmile_qr_scan"}}, {"name": "f31b36aed27384f18b7114e808ef770d", "fusion_lat": 0.0, "type": "electric_scooter", "lat": 38.918429333333336, "is_reserved": 0, "is_disabled": 0, "fusion_lon": 0.0, "bike_id": "f31b36aed27384f18b7114e808ef770d", "lon": -77.02595333333333, "rental_uris": {"ios": "https://dc.lft.to/lastmile_qr_scan", "android": "https://dc.lft.to/lastmile_qr_scan"}}, {"name": "fc405628c5da6dec9080c512b3c33280", "fusion_lat": 0.0, "type": "electric_scooter", "lat": 38.921236, "is_reserved": 0, "is_disabled": 0, "fusion_lon": 0.0, "bike_id": "fc405628c5da6dec9080c512b3c33280", "lon": -77.04217516666667, "rental_uris": {"ios": "https://dc.lft.to/lastmile_qr_scan", "android": "https://dc.lft.to/lastmile_qr_scan"}}, {"name": "8fa3030ff05021b01e5d325b958eb33a", "fusion_lat": 0.0, "type": "electric_scooter", "lat": 38.895081, "is_reserved": 0, "is_disabled": 0, "fusion_lon": 0.0, "bike_id": "8fa3030ff05021b01e5d325b958eb33a", "lon": -76.99160566666667, "rental_uris": {"ios": "https://dc.lft.to/lastmile_qr_scan", "android": "https://dc.lft.to/lastmile_qr_scan"}}, {"name": "2d02bbb15c2dcfe893efe741933dea10", "fusion_lat": 0.0, "type": "electric_scooter", "lat": 38.90741966666667, "is_reserved": 0, "is_disabled": 0, "fusion_lon": 0.0, "bike_id": "2d02bbb15c2dcfe893efe741933dea10", "lon": -77.005413, "rental_uris": {"ios": "https://dc.lft.to/lastmile_qr_scan", "android": "https://dc.lft.to/lastmile_qr_scan"}}, {"name": "5579988bbd5624e298ca731c2e2e7553", "fusion_lat": 0.0, "type": "electric_scooter", "lat": 38.918306, "is_reserved": 0, "is_disabled": 0, "fusion_lon": 0.0, "bike_id": "5579988bbd5624e298ca731c2e2e7553", "lon": -77.02723366666666, "rental_uris": {"ios": "https://dc.lft.to/lastmile_qr_scan", "android": "https://dc.lft.to/lastmile_qr_scan"}}, {"name": "1b8fafac9d472e4f837e3fc32cd264e9", "fusion_lat": 0.0, "type": "electric_scooter", "lat": 38.88508983333333, "is_reserved": 0, "is_disabled": 0, "fusion_lon": 0.0, "bike_id": "1b8fafac9d472e4f837e3fc32cd264e9", "lon": -77.0173395, "rental_uris": {"ios": "https://dc.lft.to/lastmile_qr_scan", "android": "https://dc.lft.to/lastmile_qr_scan"}}, {"name": "b4f39083b17e983b053450c4b0ce03d7", "fusion_lat": 0.0, "type": "electric_scooter", "lat": 38.916304333333336, "is_reserved": 0, "is_disabled": 0, "fusion_lon": 0.0, "bike_id": "b4f39083b17e983b053450c4b0ce03d7", "lon": -77.00101, "rental_uris": {"ios": "https://dc.lft.to/lastmile_qr_scan", "android": "https://dc.lft.to/lastmile_qr_scan"}},