{"data": {"bikes": [{"fusion_lat": 0.0, "bike_id": "1c89b59f906a80ed4178659a3c84c105", "fusion_lon": 0.0, "lon": -77.049838, "lat": 39.06293316666667, "is_reserved": 0, "is_disabled": 0, "rental_uris": {"android": "https://dc.lft.to/lastmile_qr_scan", "ios": "https://dc.lft.to/lastmile_qr_scan"}, "name": "1c89b59f906a80ed4178659a3c84c105", "type": "electric_bike"}, {"fusion_lat": 0.0, "bike_id": "7de3a64d2683c7603bc41d0b260e9ebf", "fusion_lon": 0.0, "lon": -76.98590166666666, "lat": 38.883920833333335, "is_reserved": 0, "is_disabled": 0, "rental_uris": {"android": "https://dc.lft.to/lastmile_qr_scan", "ios": "https://dc.lft.to/lastmile_qr_scan"}, "name": "7de3a64d2683c7603bc41d0b260e9ebf", "type": "electric_scooter"}, {"fusion_lat": 0.0, "bike_id": "f2676e56c8b7e26b55999c8f413ae32a", "fusion_lon": 0.0, "lon": -77.01363333333333, "lat": 38.92876066666667, "is_reserved": 0, "is_disabled": 0, "rental_uris": {"android": "https://dc.lft.to/lastmile_qr_scan", "ios": "https://dc.lft.to/lastmile_qr_scan"}, "name": "f2676e56c8b7e26b55999c8f413ae32a", "type": "electric_scooter"}, {"fusion_lat": 0.0, "bike_id": "a7cec2eb1793ec68e6df59cd38c855b1", "fusion_lon": 0.0, "lon": -77.03816666666667, "lat": 38.909733833333334, "is_reserved": 0, "is_disabled": 0, "rental_uris": {"android": "https://dc.lft.to/lastmile_qr_scan", "ios": "https://dc.lft.to/lastmile_qr_scan"}, "name": "a7cec2eb1793ec68e6df59cd38c855b1", "type": "electric_scooter"}, {"fusion_lat": 0.0, "bike_id": "28d67067bd51df3e94111105287ff65b", "fusion_lon": 0.0, "lon": -76.97872866666667, "lat": 38.883038166666665, "is_reserved": 0, "is_disabled": 0, "rental_uris": {"android": "https://dc.lft.to/lastmile_qr_scan", "ios": "https://dc.lft.to/lastmile_qr_scan"}, "name": "28d67067bd51df3e94111105287ff65b", "type": "electric_scooter"}, {"fusion_lat": 0.0, "bike_id": "72db8c03893f2695ebc46e6583fb9c38", "fusion_lon": 0.0, "lon": -77.01767816666667, "lat": 38.887286833333334, "is_reserved": 0, "is_disabled": 0, "rental_uris": {"android": "https://dc.lft.to/lastmile_qr_scan", "ios": "https://dc.lft.to/lastmile_qr_scan"}, "name": "72db8c03893f2695ebc46e6583fb9c38", "type": "electric_scooter"}, {"fusion_lat": 0.0, "bike_id": "e42d8903fb6de7892a7d362bda98b1c4", "fusion_lon": 0.0, "lon": -77.029629, "lat": 38.9127485, "is_reserved": 0, "is_disabled": 0, "rental_uris": {"android": "https://dc.lft.to/lastmile_qr_scan", "ios": "https://dc.lft.to/lastmile_qr_scan"}, "name": "e42d8903fb6de7892a7d362bda98b1c4", "type": "electric_scooter"}, {"fusion_lat": 0.0, "bike_id": "58663a8b3cc2b89681499d985099a1b9", "fusion_lon": 0.0, "lon": -77.02558083333334, "lat": 38.941711, "is_reserved": 0, "is_disabled": 0, "rental_uris": {"android": "https://dc.lft.to/lastmile_qr_scan", "ios": "https://dc.lft.to/lastmile_qr_scan"}, "name": "58663a8b3cc2b89681499d985099a1b9", "type": "electric_scooter"}, {"fusion_lat": 0.0, "bike_id": "33336deb7bd643fb9f6556e0985ca8af", "fusion_lon": 0.0, "lon": -77.06286733333333, "lat": 38.8653645, "is_reserved": 0, "is_disabled": 0, "rental_uris": {"android": "https://dc.lft.to/lastmile_qr_scan", "ios": "https://dc.lft.to/lastmile_qr_scan"}, "name": "33336deb7bd643fb9f6556e0985ca8af", "type": "electric_bike"}, {"fusion_lat": 0.0, "bike_id": "45fdfb0ec2610bbdbc7f52b0d18794d3", "fusion_lon": 0.0, "lon": -77.03870633333334, "lat": 38.92012966666667, "is_reserved": 0, "is_disabled": 0, "rental_uris": {"android": "https://dc.lft.to/lastmile_qr_scan", "ios": "https://dc.lft.to/lastmile_qr_scan"}, "name": "45fdfb0ec2610bbdbc7f52b0d18794d3", "type": "electric_scooter"}, {"fusion_lat": 0.0, "bike_id": "823411bca39fcea5ce83cb023260aef9", "fusion_lon": 0.0, "lon": -77.07009533333333, "lat": 38.905924666666664, "is_reserved": 0, "is_disabled": 0, "rental_uris": {"android": "https://dc.lft.to/lastmile_qr_scan", "ios": "https://dc.lft.to/lastmile_qr_scan"}, "name": "823411bca39fcea5ce83cb023260aef9", "type": "electric_scooter"}, {"fusion_lat": 0.0, "bike_id": "1a3abe67e67949cb29916ac4e8c0a2fd", "fusion_lon": 0.0, "lon": -76.97243516666667, "lat": 38.9033895, "is_reserved": 0, "is_disabled": 0, "rental_uris": {"android": "https://dc.lft.to/lastmile_qr_scan", "ios": "https://dc.lft.to/lastmile_qr_scan"}, "name": "1a3abe67e67949cb29916ac4e8c0a2fd", "type": "electric_scooter"}, {"fusion_lat": 0.0, "bike_id": "e2a022c360d1edf5ac4d0eae47cd79a7", "fusion_lon": 0.0, "lon": -76.985309, "lat": 38.866841, "is_reserved": 0, "is_disabled": 0, "rental_uris": {"android": "https://dc.lft.to/lastmile_qr_scan", "ios": "https://dc.lft.to/lastmile_qr_scan"}, "name": "e2a022c360d1edf5ac4d0eae47cd79a7", "type": "electric_scooter"}, {"fusion_lat": 0.0, "bike_id": "b170fa1b79c7d521ab9ae8b959b80faa", "fusion_lon": 0.0, "lon": -77.03334566666666, "lat": 38.902643166666664, "is_reserved": 0, "is_disabled": 0, "rental_uris": {"android": "https://dc.lft.to/lastmile_qr_scan", "ios": "https://dc.lft.to/lastmile_qr_scan"}, "name": "b170fa1b79c7d521ab9ae8b959b80faa", "type": "electric_scooter"}, {"fusion_lat": 0.0, "bike_id": "b11293e9dd0d1feda3b617d3fcad6b2b", "fusion_lon": 0.0, "lon": -77.032873, "lat": 38.93760266666666, "is_reserved": 0, "is_disabled": 0, "rental_uris": {"android": "https://dc.lft.to/lastmile_qr_scan", "ios": "https://dc.lft.to/lastmile_qr_scan"}, "name": "b11293e9dd0d1feda3b617d3fcad6b2b", "type": "electric_scooter"}, {"fusion_lat": 0.0, "bike_id": "8ca26bb373ed1fea1d09c79ad0b566e8", "fusion_lon": 0.0, "lon": -76.99460383333333, "lat": 38.903663333333334, "is_reserved": 0, "is_disabled": 0, "rental_uris": {"android": "https://dc.lft.to/lastmile_qr_scan", "ios": "https://dc.lft.to/lastmile_qr_scan"}, "name": "8ca26bb373ed1fea1d09c79ad0b566e8", "type": "electric_scooter"}, {"fusion_lat": 0.0, "bike_id": "d0a1b7aff0ce74a40a719f8583f8fb65", "fusion_lon": 0.0, "lon": -77.02187333333333, "lat": 38.919710333333335, "is_reserved": 0, "is_disabled": 0, "rental_uris": {"android": "https://dc.lft.to/lastmile_qr_scan", "ios": "https://dc.lft.to/lastmile_qr_scan"}, "name": "d0a1b7aff0ce74a40a719f8583f8fb65", "type": "electric_scooter"}, {"fusion_lat": 0.0, "bike_id": "380922d36a03d5fb17ebdd77e5affce4", "fusion_lon": 0.0, "lon": -77.02805566666666, "lat": 38.914251666666665, "is_reserved": 0, "is_disabled": 0, "rental_uris": {"android": "https://dc.lft.to/lastmile_qr_scan", "ios": "https://dc.lft.to/lastmile_qr_scan"}, "name": "380922d36a03d5fb17ebdd77e5affce4", "type": "electric_scooter"}, {"fusion_lat": 0.0, "bike_id": "59a7872b02898f9417dadb34dbbc09be", "fusion_lon": 0.0, "lon": -77.01998683333333, "lat": 38.96625266666667, "is_reserved": 0, "is_disabled": 0, "rental_uris": {"android": "https://dc.lft.to/lastmile_qr_scan", "ios": "https://dc.lft.to/lastmile_qr_scan"}, "name": "59a7872b02898f9417dadb34dbbc09be", "type": "electric_scooter"}, {"fusion_lat": 0.0, "bike_id": "76520c6a3deccd8cc121cb194e54dbed", "fusion_lon": 0.0, "lon": -77.07239183333333, "lat": 38.89884983333334, "is_reserved": 0, "is_disabled": 0, "rental_uris": {"android": "https://dc.lft.to/lastmile_qr_scan", "ios": "https://dc.lft.to/lastmile_qr_scan"}, "name": "76520c6a3deccd8cc121cb194e54dbed", "type": "electric_scooter"}, {"fusion_lat": 0.0, "bike_id": "a8583791b4bf7bfb19e9318322ca7354", "fusion_lon": 0.0, "lon": -77.07595516666666, "lat": 38.9121645, "is_reserved": 0, "is_disabled": 0, "rental_uris": {"android": "https://dc.lft.to/lastmile_qr_scan", "ios": "https://dc.lft.to/lastmile_qr_scan"}, "name": "a8583791b4bf7bfb19e9318322ca7354", "type": "electric_scooter"}, {"fusion_lat": 0.0, "bike_id": "340b963dccc11b70b83478be73ef99f1", "fusion_lon": 0.0, "lon": -76.99382366666667, "lat": 38.8989725, "is_reserved": 0, "is_disabled": 0, "rental_uris": {"android": "https://dc.lft.to/lastmile_qr_scan", "ios": "https://dc.lft.to/lastmile_qr_scan"}, "name": "340b963dccc11b70b83478be73ef99f1", "type": "electric_scooter"}, {"fusion_lat": 0.0, "bike_id": "02cf41918cd309f453f003b14b7a375f", "fusion_lon": 0.0, "lon": -76.99679516666667, "lat": 38.83830233333333, "is_reserved": 0, "is_disabled": 0, "rental_uris": {"android": "https://dc.lft.to/lastmile_qr_scan", "ios": "https://dc.lft.to/lastmile_qr_scan"}, "name": "02cf41918cd309f453f003b14b7a375f", "type": "electric_bike"}, {"fusion_lat": 0.0, "bike_id": "c6b17ddd96001fe33e72c28e0fdf8573", "fusion_lon": 0.0, "lon": -77.03948666666666, "lat": 38.90477933333333, "is_reserved": 0, "is_disabled": 0, "rental_uris": {"android": "https://dc.lft.to/lastmile_qr_scan", "ios": "https://dc.lft.to/lastmile_qr_scan"}, "name": "c6b17ddd96001fe33e72c28e0fdf8573", "type": "electric_scooter"}, {"fusion_lat": 0.0, "bike_id": "28bdc5adedec56e77d0ede1a9ebed78f", "fusion_lon": 0.0, "lon": -77.05469483333333, "lat": 38.9043385, "is_reserved": 0, "is_disabled": 0, "rental_uris": {"android": "https://dc.lft.to/lastmile_qr_scan", "ios": "https://dc.lft.to/lastmile_qr_scan"}, "name": "28bdc5adedec56e77d0ede1a9ebed78f", "type": "electric_scooter"}, {"fusion_lat": 0.0, "bike_id": "186333b586ec886e488f97262efa5436", "fusion_lon": 0.0, "lon": -77.0432875, "lat": 38.90878133333333, "is_reserved": 0, "is_disabled": 0, "rental_uris": {"android": "https://dc.lft.to/lastmile_qr_scan", "ios": "https://dc.lft.to/lastmile_qr_scan"}, "name": "186333b586ec886e488f97262efa5436", "type": "electric_scooter"}, {"fusion_lat": 0.0, "bike_id": "e5c92f3638c01e6ff54250dc203c1f05", "fusion_lon": 0.0, "lon": -77.0192605, "lat": 38.92213616666667, "is_reserved": 0, "is_disabled": 0, "rental_uris": {"android": "https://dc.lft.to/lastmile_qr_scan", "ios": "https://dc.lft.to/lastmile_qr_scan"}, "name": "e5c92f3638c01e6ff54250dc203c1f05", "type": "electric_scooter"}, {"fusion_lat": 0.0, "bike_id": "02fc3e541a13c4216d002ff836add277", "fusion_lon": 0.0, "lon": -77.00779583333333, "lat": 38.89733483333333, "is_reserved": 0, "is_disabled": 0, "rental_uris": {"android": "https://dc.lft.to/lastmile_qr_scan", "ios": "https://dc.lft.to/lastmile_qr_scan"}, "name": "02fc3e541a13c4216d002ff836add277", "type": "electric_scooter"}, {"fusion_lat": 0.0, "bike_id": "7663f94434e889ca3e2e5c2922aa8365", "fusion_lon": 0.0, "lon": -77.03208533333333, "lat": 38.897453166666665, "is_reserved": 0, "is_disabled": 0, "rental_uris": {"android": "https://dc.lft.to/lastmile_qr_scan", "ios": "https://dc.lft.to/lastmile_qr_scan"}, "name": "7663f94434e889ca3e2e5c2922aa8365", "type": "electric_scooter"}, {"fusion_lat": 0.0, "bike_id": "ab827d342e7c6e517460391c1f90e1a3", "fusion_lon": 0.0, "lon": -77.039399, "lat": 38.908148833333335, "is_reserved": 0, "is_disabled": 0, "rental_uris": {"android": "https://dc.lft.to/lastmile_qr_scan", "ios": "https://dc.lft.to/lastmile_qr_scan"}, "name": "ab827d342e7c6e517460391c1f90e1a3", "type": "electric_scooter"}, {"fusion_lat": 0.0, "bike_id": "33d96c7e1c030c188a7d51ac6df651ff", "fusion_lon": 0.0, "lon": -77.032953, "lat": 38.903801333333334, "is_reserved": 0, "is_disabled": 0, "rental_uris": {"android": "https://dc.lft.to/lastmile_qr_scan", "ios": "https://dc.lft.to/lastmile_qr_scan"}, "name": "33d96c7e1c030c188a7d51ac6df651ff", "type": "electric_scooter"}, {"fusion_lat": 0.0, "bike_id": "c71b1fdb03f68f2725b97f9fb7402fa1", "fusion_lon": 0.0, "lon": -77.02220733333333, "lat": 38.9246205, "is_reserved": 0, "is_disabled": 0, "rental_uris": {"android": "https://dc.lft.to/lastmile_qr_scan", "ios": "https://dc.lft.to/lastmile_qr_scan"}, "name": "c71b1fdb03f68f2725b97f9fb7402fa1", "type": "electric_scooter"}, {"fusion_lat": 0.0, "bike_id": "80453c32976232a15ccfe732127a01a2", "fusion_lon": 0.0, "lon": -77.0907155, "lat": 38.97852566666667, "is_reserved": 0, "is_disabled": 0, "rental_uris": {"android": "https://dc.lft.to/lastmile_qr_scan", "ios": "https://dc.lft.to/lastmile_qr_scan"}, "name": "80453c32976232a15ccfe732127a01a2", "type": "electric_bike"}, {"fusion_lat": 0.0, "bike_id": "cc7c56e259179a92752e81a5f5671b32", "fusion_lon": 0.0, "lon": -77.06781916666667, "lat": 38.904569, "is_reserved": 0, "is_disabled": 0, "rental_uris": {"android": "https://dc.lft.to/lastmile_qr_scan", "ios": "https://dc.lft.to/lastmile_qr_scan"}, "name": "cc7c56e259179a92752e81a5f5671b32", "type": "electric_scooter"}, {"fusion_lat": 0.0, "bike_id": "8d928997a43171cf5d0600ed6a94f9c7", "fusion_lon": 0.0, "lon": -77.03177783333334, "lat": 38.887338, "is_reserved": 0, "is_disabled": 0, "rental_uris": {"android": "https://dc.lft.to/lastmile_qr_scan", "ios": "https://dc.lft.to/lastmile_qr_scan"}, "name": "8d928997a43171cf5d0600ed6a94f9c7", "type": "electric_scooter"}, {"fusion_lat": 0.0, "bike_id": "ae05b7d50dad71509937afebeb668222", "fusion_lon": 0.0, "lon": -77.022896, "lat": 38.916556666666665, "is_reserved": 0, "is_disabled": 0, "rental_uris": {"android": "https://dc.lft.to/lastmile_qr_scan", "ios": "https://dc.lft.to/lastmile_qr_scan"}, "name": "ae05b7d50dad71509937afebeb668222", "type": "electric_scooter"}, {"fusion_lat": 0.0, "bike_id": "ae993774bd8d3b0ae269641c532ad303", "fusion_lon": 0.0, "lon": -77.13103033333333, "lat": 39.02431683333333, "is_reserved": 0, "is_disabled": 0, "rental_uris": {"android": "https://dc.lft.to/lastmile_qr_scan", "ios": "https://dc.lft.to/lastmile_qr_scan"}, "name": "ae993774bd8d3b0ae269641c532ad303", "type": "electric_bike"}, {"fusion_lat": 0.0, "bike_id": "72a9d2aaad077fefc98e0fe6eea43682", "fusion_lon": 0.0, "lon": -76.99596416666667, "lat": 38.8842495, "is_reserved": 0, "is_disabled": 0, "rental_uris": {"android": "https://dc.lft.to/lastmile_qr_scan", "ios": "https://dc.lft.to/lastmile_qr_scan"}, "name": "72a9d2aaad077fefc98e0fe6eea43682", "type": "electric_scooter"}, {"fusion_lat": 0.0, "bike_id": "535aec7a5041efb95acab06ebb7336b3", "fusion_lon": 0.0, "lon": -77.00211416666667, "lat": 38.900313833333335, "is_reserved": 0, "is_disabled": 0, "rental_uris": {"android": "https://dc.lft.to/lastmile_qr_scan", "ios": "https://dc.lft.to/lastmile_qr_scan"}, "name": "535aec7a5041efb95acab06ebb7336b3", "type": "electric_scooter"}, {"fusion_lat": 0.0, "bike_id": "184081d7e0644881439226ed77a5af59", "fusion_lon": 0.0, "lon": -76.979142, "lat": 38.86356383333333, "is_reserved": 0, "is_disabled": 0, "rental_uris": {"android": "https://dc.lft.to/lastmile_qr_scan", "ios": "https://dc.lft.to/lastmile_qr_scan"}, "name": "184081d7e0644881439226ed77a5af59", "type": "electric_scooter"}, {"fusion_lat": 0.0, "bike_id": "0441a30ba9d3bfc6b82026e0db9a3b3d", "fusion_lon": 0.0, "lon": -77.03828516666667, "lat": 38.91549766666667, "is_reserved": 0, "is_disabled": 0, "rental_uris": {"android": "https://dc.lft.to/lastmile_qr_scan", "ios": "https://dc.lft.to/lastmile_qr_scan"}, "name": "0441a30ba9d3bfc6b82026e0db9a3b3d", "type": "electric_bike"}, {"fusion_lat": 0.0, "bike_id": "20fd5056e32d97ee00baea0d1adf64f7", "fusion_lon": 0.0, "lon": -77.03522383333333, "lat": 38.92728116666667, "is_reserved": 0, "is_disabled": 0, "rental_uris": {"android": "https://dc.lft.to/lastmile_qr_scan", "ios": "https://dc.lft.to/lastmile_qr_scan"}, "name": "20fd5056e32d97ee00baea0d1adf64f7", "type": "electric_scooter"}, {"fusion_lat": 0.0, "bike_id": "91e2dd37a7224de31dbc31695c1e1f3d", "fusion_lon": 0.0, "lon": -76.987137, "lat": 38.8669785, "is_reserved": 0, "is_disabled": 0, "rental_uris": {"android": "https://dc.lft.to/lastmile_qr_scan", "ios": "https://dc.lft.to/lastmile_qr_scan"}, "name": "91e2dd37a7224de31dbc31695c1e1f3d", "type": "electric_scooter"}, {"fusion_lat": 0.0, "bike_id": "8dd16587c08256b3319f9e9b7cd398ba", "fusion_lon": 0.0, "lon": -77.0305095, "lat": 38.887369, "is_reserved": 0, "is_disabled": 0, "rental_uris": {"android": "https://dc.lft.to/lastmile_qr_scan", "ios": "https://dc.lft.to/lastmile_qr_scan"}, "name": "8dd16587c08256b3319f9e9b7cd398ba", "type": "electric_scooter"}, {"fusion_lat": 0.0, "bike_id": "f539bca7f4cdfb632c94af7a0780fe3c", "fusion_lon": 0.0, "lon": -77.03024416666666, "lat": 38.90383583333333, "is_reserved": 0, "is_disabled": 0, "rental_uris": {"android": "https://dc.lft.to/lastmile_qr_scan", "ios": "https://dc.lft.to/lastmile_qr_scan"}, "name": "f539bca7f4cdfb632c94af7a0780fe3c", "type": "electric_scooter"}, {"fusion_lat": 0.0, "bike_id": "11b25ae862d4e5cf7832f23049635019", "fusion_lon": 0.0, "lon": -77.04606533333333, "lat": 38.9151065, "is_reserved": 0, "is_disabled": 0, "rental_uris": {"android": "https://dc.lft.to/lastmile_qr_scan", "ios": "https://dc.lft.to/lastmile_qr_scan"}, "name": "11b25ae862d4e5cf7832f23049635019", "type": "electric_scooter"}, {"fusion_lat": 0.0, "bike_id": "6c6b1ccc49045a744e4d856610fd257a", "fusion_lon": 0.0, "lon": -77.02489683333333, "lat": 38.9169355, "is_reserved": 0, "is_disabled": 0, "rental_uris": {"android": "https://dc.lft.to/lastmile_qr_scan", "ios": "https://dc.lft.to/lastmile_qr_scan"}, "name": "6c6b1ccc49045a744e4d856610fd257a", "type": "electric_scooter"}, {"fusion_lat": 0.0, "bike_id": "b070fd44e5798651f169ef414bf54dee", "fusion_lon": 0.0, "lon": -76.92769883333334, "lat": 38.90090133333333, "is_reserved": 0, "is_disabled": 0, "rental_uris": {"android": "https://dc.lft.to/lastmile_qr_scan", "ios": "https://dc.lft.to/lastmile_qr_scan"}, "name": "b070fd44e5798651f169ef414bf54dee", "type": "electric_scooter"}, {"fusion_lat": 0.0, "bike_id": "09ad1bb81b008cfcacfa13060a2371da", "fusion_lon": 0.0, "lon": -76.98883866666667, "lat": 38.86658833333333, "is_reserved": 0, "is_disabled": 0, "rental_uris": {"android": "https://dc.lft.to/lastmile_qr_scan", "ios": "https://dc.lft.to/lastmile_qr_scan"}, "name": "09ad1bb81b008cfcacfa13060a2371da", "type": "electric_scooter"}, {"fusion_lat": 0.0, "bike_id": "80667fc482aa3e25e38602e226ccd3b5", "fusion_lon": 0.0, "lon": -77.01457216666667, "lat": 38.926712333333334, "is_reserved": 0, "is_disabled": 0, "rental_uris": {"android": "https://dc.lft.to/lastmile_qr_scan", "ios": "https://dc.lft.to/lastmile_qr_scan"}, "name": "80667fc482aa3e25e38602e226ccd3b5", "type": "electric_scooter"}, {"fusion_lat": 0.0, "bike_id": "279eb5f52f75f3727b6d8064a4fc51e0", "fusion_lon": 0.0, "lon": -77.03198916666666, "lat": 38.90122816666667, "is_reserved": 0, "is_disabled": 0, "rental_uris": {"android": "https://dc.lft.to/lastmile_qr_scan", "ios": "https://dc.lft.to/lastmile_qr_scan"}, "name": "279eb5f52f75f3727b6d8064a4fc51e0", "type": "electric_scooter"}, {"fusion_lat": 0.0, "bike_id": "9145aee86795149fc34a4b945eb679dd", "fusion_lon": 0.0, "lon": -77.00618716666666, "lat": 38.89470983333333, "is_reserved": 0, "is_disabled": 0, "rental_uris": {"android": "https://dc.lft.to/lastmile_qr_scan", "ios": "https://dc.lft.to/lastmile_qr_scan"}, "name": "9145aee86795149fc34a4b945eb679dd", "type": "electric_scooter"}, {"fusion_lat": 0.0, "bike_id": "a616cfcc37cb39fbb71540e8917fd2a9", "fusion_lon": 0.0, "lon": -77.03212883333333, "lat": 38.929676666666666, "is_reserved": 0, "is_disabled": 0, "rental_uris": {"android": "https://dc.lft.to/lastmile_qr_scan", "ios": "https://dc.lft.to/lastmile_qr_scan"}, "name": "a616cfcc37cb39fbb71540e8917fd2a9", "type": "electric_scooter"}, {"fusion_lat": 0.0, "bike_id": "19edabe41492ef678df15868ee7d59d1", "fusion_lon": 0.0, "lon": -77.03211183333333, "lat": 38.91734316666667, "is_reserved": 0, "is_disabled": 0, "rental_uris": {"android": "https://dc.lft.to/lastmile_qr_scan", "ios": "https://dc.lft.to/lastmile_qr_scan"}, "name": "19edabe41492ef678df15868ee7d59d1", "type": "electric_scooter"}, {"fusion_lat": 0.0, "bike_id": "bf613447eb81f8e108c417f1183629c8", "fusion_lon": 0.0, "lon": -77.03809533333333, "lat": 38.91254766666667, "is_reserved": 0, "is_disabled": 0, "rental_uris": {"android": "https://dc.lft.to/lastmile_qr_scan", "ios": "https://dc.lft.to/lastmile_qr_scan"}, "name": "bf613447eb81f8e108c417f1183629c8", "type": "electric_scooter"}, {"fusion_lat": 0.0, "bike_id": "24cec44251d784e812e8a5f7d6f895b4", "fusion_lon": 0.0, "lon": -77.0322265, "lat": 38.918367333333336, "is_reserved": 0, "is_disabled": 0, "rental_uris": {"android": "https://dc.lft.to/lastmile_qr_scan", "ios": "https://dc.lft.to/lastmile_qr_scan"}, "name": "24cec44251d784e812e8a5f7d6f895b4", "type": "electric_scooter"}, {"fusion_lat": 0.0, "bike_id": "fe94f1c0c4687cbb22fce24a10a304b7", "fusion_lon": 0.0, "lon": -77.01115666666666, "lat": 38.89476366666667, "is_reserved": 0, "is_disabled": 0, "rental_uris": {"android": "https://dc.lft.to/lastmile_qr_scan", "ios": "https://dc.lft.to/lastmile_qr_scan"}, "name": "fe94f1c0c4687cbb22fce24a10a304b7", "type": "electric_scooter"}, {"fusion_lat": 0.0, "bike_id": "4696eea5983a4b92866907e5eb782e71", "fusion_lon": 0.0, "lon": -77.0384875, "lat": 38.903773666666666, "is_reserved": 0, "is_disabled": 0, "rental_uris": {"android": "https://dc.lft.to/lastmile_qr_scan", "ios": "https://dc.lft.to/lastmile_qr_scan"}, "name": "4696eea5983a4b92866907e5eb782e71", "type": "electric_scooter"}, {"fusion_lat": 0.0, "bike_id": "f7e9e0cade05828337806f00b8f660d8", "fusion_lon": 0.0, "lon": -76.97827916666667, "lat": 38.843658, "is_reserved": 0, "is_disabled": 0, "rental_uris": {"android": "https://dc.lft.to/lastmile_qr_scan", "ios": "https://dc.lft.to/lastmile_qr_scan"}, "name": "f7e9e0cade05828337806f00b8f660d8", "type": "electric_bike"}, {"fusion_lat": 0.0, "bike_id": "2211a115b6e475c3e2b1ff935b49f821", "fusion_lon": 0.0, "lon": -77.08339816666667, "lat": 38.85437566666667, "is_reserved": 0, "is_disabled": 0, "rental_uris": {"android": "https://dc.lft.to/lastmile_qr_scan", "ios": "https://dc.lft.to/lastmile_qr_scan"}, "name": "2211a115b6e475c3e2b1ff935b49f821", "type": "electric_bike"}, {"fusion_lat": 0.0, "bike_id": "78ffec0c6346e91aadac5129ce1e2d10", "fusion_lon": 0.0, "lon": -77.0455595, "lat": 38.896074166666665, "is_reserved": 0, "is_disabled": 0, "rental_uris": {"android": "https://dc.lft.to/lastmile_qr_scan", "ios": "https://dc.lft.to/lastmile_qr_scan"}, "name": "78ffec0c6346e91aadac5129ce1e2d10", "type": "electric_scooter"}, {"fusion_lat": 0.0, "bike_id": "7f4773261422b181598f691ad4745339", "fusion_lon": 0.0, "lon": -77.03586583333333, "lat": 38.992255, "is_reserved": 0, "is_disabled": 0, "rental_uris": {"android": "https://dc.lft.to/lastmile_qr_scan", "ios": "https://dc.lft.to/lastmile_qr_scan"}, "name": "7f4773261422b181598f691ad4745339", "type": "electric_scooter"}, {"fusion_lat": 0.0, "bike_id": "951cb5e17fc25f78b8960a1667c30423", "fusion_lon": 0.0, "lon": -77.01207683333334, "lat": 38.9155545, "is_reserved": 0, "is_disabled": 0, "rental_uris": {"android": "https://dc.lft.to/lastmile_qr_scan", "ios": "https://dc.lft.to/lastmile_qr_scan"}, "name": "951cb5e17fc25f78b8960a1667c30423", "type": "electric_scooter"}, {"fusion_lat": 0.0, "bike_id": "d5b3f66ebfece62df742aa66d79e4bc9", "fusion_lon": 0.0, "lon": -77.02307416666666, "lat": 38.90153766666667, "is_reserved": 0, "is_disabled": 0, "rental_uris": {"android": "https://dc.lft.to/lastmile_qr_scan", "ios": "https://dc.lft.to/lastmile_qr_scan"}, "name": "d5b3f66ebfece62df742aa66d79e4bc9", "type": "electric_scooter"}, {"fusion_lat": 0.0, "bike_id": "5d73c2f107162255ba29191af6721ec3", "fusion_lon": 0.0, "lon": -77.05407316666667, "lat": 38.92751583333333, "is_reserved": 0, "is_disabled": 0, "rental_uris": {"android": "https://dc.lft.to/lastmile_qr_scan", "ios": "https://dc.lft.to/lastmile_qr_scan"}, "name": "5d73c2f107162255ba29191af6721ec3", "type": "electric_scooter"}, {"fusion_lat": 0.0, "bike_id": "db0940d830b42171b74708020ee449ec", "fusion_lon": 0.0, "lon": -77.03295966666667, "lat": 38.910331666666664, "is_reserved": 0, "is_disabled": 0, "rental_uris": {"android": "https://dc.lft.to/lastmile_qr_scan", "ios": "https://dc.lft.to/lastmile_qr_scan"}, "name": "db0940d830b42171b74708020ee449ec", "type": "electric_scooter"}, {"fusion_lat": 0.0, "bike_id": "6283b5669b8147bb63953c94e9c369d8", "fusion_lon": 0.0, "lon": -77.05042783333333, "lat": 38.923608333333334, "is_reserved": 0, "is_disabled": 0, "rental_uris": {"android": "https://dc.lft.to/lastmile_qr_scan", "ios": "https://dc.lft.to/lastmile_qr_scan"}, "name": "6283b5669b8147bb63953c94e9c369d8", "type": "electric_scooter"}, {"fusion_lat": 0.0, "bike_id": "fdaaa2ccbe0d4c8119e068cc543ba25c", "fusion_lon": 0.0, "lon": -77.01783433333334, "lat": 38.88587316666667, "is_reserved": 0, "is_disabled": 0, "rental_uris": {"android": "https://dc.lft.to/lastmile_qr_scan", "ios": "https://dc.lft.to/lastmile_qr_scan"}, "name": "fdaaa2ccbe0d4c8119e068cc543ba25c", "type": "electric_scooter"}, {"fusion_lat": 0.0, "bike_id": "e9697b62b9eb13f519c704831790bcea", "fusion_lon": 0.0, "lon": -77.0500215, "lat": 38.891956, "is_reserved": 0, "is_disabled": 0, "rental_uris": {"android": "https://dc.lft.to/lastmile_qr_scan", "ios": "https://dc.lft.to/lastmile_qr_scan"}, "name": "e9697b62b9eb13f519c704831790bcea", "type": "electric_scooter"}, {"fusion_lat": 0.0, "bike_id": "ef52820c99ab6de44adb06df135afe60", "fusion_lon": 0.0, "lon": -76.985347, "lat": 38.89978283333333, "is_reserved": 0, "is_disabled": 0, "rental_uris": {"android": "https://dc.lft.to/lastmile_qr_scan", "ios": "https://dc.lft.to/lastmile_qr_scan"}, "name": "ef52820c99ab6de44adb06df135afe60", "type": "electric_scooter"}, {"fusion_lat": 0.0, "bike_id": "252733a5cc65a30a266b1710a3347089", "fusion_lon": 0.0, "lon": -77.044727, "lat": 38.90531983333333, "is_reserved": 0, "is_disabled": 0, "rental_uris": {"android": "https://dc.lft.to/lastmile_qr_scan", "ios": "https://dc.lft.to/lastmile_qr_scan"}, "name": "252733a5cc65a30a266b1710a3347089", "type": "electric_scooter"}, {"fusion_lat": 0.0, "bike_id": "561cf8558c9f5dc91628584d250de5c6", "fusion_lon": 0.0, "lon": -77.03559, "lat": 38.93378516666667, "is_reserved": 0, "is_disabled": 0, "rental_uris": {"android": "https://dc.lft.to/lastmile_qr_scan", "ios": "https://dc.lft.to/lastmile_qr_scan"}, "name": "561cf8558c9f5dc91628584d250de5c6", "type": "electric_scooter"}, {"fusion_lat": 0.0, "bike_id": "5ce197de91688f93119e87dcfaa7261a", "fusion_lon": 0.0, "lon": -76.97855383333334, "lat": 38.9072525, "is_reserved": 0, "is_disabled": 0, "rental_uris": {"android": "https://dc.lft.to/lastmile_qr_scan", "ios": "https://dc.lft.to/lastmile_qr_scan"}, "name": "5ce197de91688f93119e87dcfaa7261a", "type": "electric_scooter"}, {"fusion_lat": 0.0, "bike_id": "febfebd53ae1bbf76944df34672ab594", "fusion_lon": 0.0, "lon": -77.03938733333334, "lat": 38.898931166666664, "is_reserved": 0, "is_disabled": 0, "rental_uris": {"android": "https://dc.lft.to/lastmile_qr_scan", "ios": "https://dc.lft.to/lastmile_qr_scan"}, "name": "febfebd53ae1bbf76944df34672ab594", "type": "electric_scooter"}, {"fusion_lat": 0.0, "bike_id": "7fadf9438a9bea9aadd0eabf6e3001b7", "fusion_lon": 0.0, "lon": -77.02085616666666, "lat": 38.92916, "is_reserved": 0, "is_disabled": 0, "rental_uris": {"android": "https://dc.lft.to/lastmile_qr_scan", "ios": "https://dc.lft.to/lastmile_qr_scan"}, "name": "7fadf9438a9bea9aadd0eabf6e3001b7", "type": "electric_scooter"}, {"fusion_lat": 0.0, "bike_id": "fab8bbe1ce3b02fb99ac4231e44c4640", "fusion_lon": 0.0, "lon": -77.0344465, "lat": 38.909755833333335, "is_reserved": 0, "is_disabled": 0, "rental_uris": {"android": "https://dc.lft.to/lastmile_qr_scan", "ios": "https://dc.lft.to/lastmile_qr_scan"}, "name": "fab8bbe1ce3b02fb99ac4231e44c4640", "type": "electric_scooter"}, {"fusion_lat": 0.0, "bike_id": "1aee1233e20f47ecc642b0953cf071f8", "fusion_lon": 0.0, "lon": -77.04675916666666, "lat": 38.892323833333336, "is_reserved": 0, "is_disabled": 0, "rental_uris": {"android": "https://dc.lft.to/lastmile_qr_scan", "ios": "https://dc.lft.to/lastmile_qr_scan"}, "name": "1aee1233e20f47ecc642b0953cf071f8", "type": "electric_scooter"}, {"fusion_lat": 0.0, "bike_id": "b35cd95c417774ada70b565fe44c007c", "fusion_lon": 0.0, "lon": -77.041275, "lat": 38.927228166666666, "is_reserved": 0, "is_disabled": 0, "rental_uris": {"android": "https://dc.lft.to/lastmile_qr_scan", "ios": "https://dc.lft.to/lastmile_qr_scan"}, "name": "b35cd95c417774ada70b565fe44c007c", "type": "electric_scooter"}, {"fusion_lat": 0.0, "bike_id": "45193c9063ec0fce73a880140c9caee1", "fusion_lon": 0.0, "lon": -77.02198, "lat": 38.911235, "is_reserved": 0, "is_disabled": 0, "rental_uris": {"android": "https://dc.lft.to/lastmile_qr_scan", "ios": "https://dc.lft.to/lastmile_qr_scan"}, "name": "45193c9063ec0fce73a880140c9caee1", "type": "electric_scooter"}, {"fusion_lat": 0.0, "bike_id": "544f06b7ef737d6be6f4451132ec2b7f", "fusion_lon": 0.0, "lon": -76.9774125, "lat": 38.86485866666666, "is_reserved": 0, "is_disabled": 0, "rental_uris": {"android": "https://dc.lft.to/lastmile_qr_scan", "ios": "https://dc.lft.to/lastmile_qr_scan"}, "name": "544f06b7ef737d6be6f4451132ec2b7f", "type": "electric_bike"}, {"fusion_lat": 0.0, "bike_id": "348827eeef9abe8675ef374da7aa8e49", "fusion_lon": 0.0, "lon": -76.9993155, "lat": 38.843117166666666, "is_reserved": 0, "is_disabled": 0, "rental_uris": {"android": "https://dc.lft.to/lastmile_qr_scan", "ios": "https://dc.lft.to/lastmile_qr_scan"}, "name": "348827eeef9abe8675ef374da7aa8e49", "type": "electric_scooter"}, {"fusion_lat": 0.0, "bike_id": "a44413eec8236534aff6f5f71d5fa512", "fusion_lon": 0.0, "lon": -77.03545266666667, "lat": 38.92582016666667, "is_reserved": 0, "is_disabled": 0, "rental_uris": {"android": "https://dc.lft.to/lastmile_qr_scan", "ios": "https://dc.lft.to/lastmile_qr_scan"}, "name": "a44413eec8236534aff6f5f71d5fa512", "type": "electric_scooter"}, {"fusion_lat": 0.0, "bike_id": "7337b6107fedc77d1194335523821fb2", "fusion_lon": 0.0, "lon": -77.1856615, "lat": 39.099708166666666, "is_reserved": 0, "is_disabled": 0, "rental_uris": {"android": "https://dc.lft.to/lastmile_qr_scan", "ios": "https://dc.lft.to/lastmile_qr_scan"}, "name": "7337b6107fedc77d1194335523821fb2", "type": "electric_bike"}, {"fusion_lat": 0.0, "bike_id": "1ed6683f41d949ff302db15f53f107a0", "fusion_lon": 0.0, "lon": -77.02091483333334, "lat": 38.921523, "is_reserved": 0, "is_disabled": 0, "rental_uris": {"android": "https://dc.lft.to/lastmile_qr_scan", "ios": "https://dc.lft.to/lastmile_qr_scan"}, "name": "1ed6683f41d949ff302db15f53f107a0", "type": "electric_scooter"}, {"fusion_lat": 0.0, "bike_id": "100227d105e6637fd619e07241e40824", "fusion_lon": 0.0, "lon": -77.1091985, "lat": 39.052033, "is_reserved": 0, "is_disabled": 0, "rental_uris": {"android": "https://dc.lft.to/lastmile_qr_scan", "ios": "https://dc.lft.to/lastmile_qr_scan"}, "name": "100227d105e6637fd619e07241e40824", "type": "electric_bike"}, {"fusion_lat": 0.0, "bike_id": "517ef1df47df4a3eb2d53e64aa5f56ac", "fusion_lon": 0.0, "lon": -77.04377533333333, "lat": 38.900328333333334, "is_reserved": 0, "is_disabled": 0, "rental_uris": {"android": "https://dc.lft.to/lastmile_qr_scan", "ios": "https://dc.lft.to/lastmile_qr_scan"}, "name": "517ef1df47df4a3eb2d53e64aa5f56ac", "type": "electric_scooter"}, {"fusion_lat": 0.0, "bike_id": "3bc4b059f3b80ca6ddbee1d4542ae861", "fusion_lon": 0.0, "lon": -77.03226483333333, "lat": 38.925851, "is_reserved": 0, "is_disabled": 0, "rental_uris": {"android": "https://dc.lft.to/lastmile_qr_scan", "ios": "https://dc.lft.to/lastmile_qr_scan"}, "name": "3bc4b059f3b80ca6ddbee1d4542ae861", "type": "electric_scooter"}, {"fusion_lat": 0.0, "bike_id": "bf46ac39e1d4a1480581bf53d6f34055", "fusion_lon": 0.0, "lon": -77.02063416666667, "lat": 38.923639666666666, "is_reserved": 0, "is_disabled": 0, "rental_uris": {"android": "https://dc.lft.to/lastmile_qr_scan", "ios": "https://dc.lft.to/lastmile_qr_scan"}, "name": "bf46ac39e1d4a1480581bf53d6f34055", "type": "electric_scooter"}, {"fusion_lat": 0.0, "bike_id": "0074e701f25b364e4e75c77b5976d273", "fusion_lon": 0.0, "lon": -77.00625266666667, "lat": 38.905831166666665, "is_reserved": 0, "is_disabled": 0, "rental_uris": {"android": "https://dc.lft.to/lastmile_qr_scan", "ios": "https://dc.lft.to/lastmile_qr_scan"}, "name": "0074e701f25b364e4e75c77b5976d273", "type": "electric_scooter"}, {"fusion_lat": 0.0, "bike_id": "bc5d129800bb08e692b0358cfa52f9dc", "fusion_lon": 0.0, "lon": -77.02842916666667, "lat": 38.925808833333335, "is_reserved": 0, "is_disabled": 0, "rental_uris": {"android": "https://dc.lft.to/lastmile_qr_scan", "ios": "https://dc.lft.to/lastmile_qr_scan"}, "name": "bc5d129800bb08e692b0358cfa52f9dc", "type": "electric_scooter"}, {"fusion_lat": 0.0, "bike_id": "3ea085692cb5a06609ff1c10bb6aa5cf", "fusion_lon": 0.0, "lon": -77.03224433333334, "lat": 38.9046325, "is_reserved": 0, "is_disabled": 0, "rental_uris": {"android": "https://dc.lft.to/lastmile_qr_scan", "ios": "https://dc.lft.to/lastmile_qr_scan"}, "name": "3ea085692cb5a06609ff1c10bb6aa5cf", "type": "electric_scooter"}, {"fusion_lat": 0.0, "bike_id": "e9de8bf0bf1ef260c71f390ccc73b115", "fusion_lon": 0.0, "lon": -77.03235516666666, "lat": 38.89643266666667, "is_reserved": 0, "is_disabled": 0, "rental_uris": {"android": "https://dc.lft.to/lastmile_qr_scan", "ios": "https://dc.lft.to/lastmile_qr_scan"}, "name": "e9de8bf0bf1ef260c71f390ccc73b115", "type": "electric_scooter"}, {"fusion_lat": 0.0, "bike_id": "7de9ae5a7c8fe552eb4570a824ab1587", "fusion_lon": 0.0, "lon": -77.05108166666666, "lat": 38.901860166666665, "is_reserved": 0, "is_disabled": 0, "rental_uris": {"android": "https://dc.lft.to/lastmile_qr_scan", "ios": "https://dc.lft.to/lastmile_qr_scan"}, "name": "7de9ae5a7c8fe552eb4570a824ab1587", "type": "electric_scooter"}, {"fusion_lat": 0.0, "bike_id": "3369c0b674f1883ad7da6f85fcc936b9", "fusion_lon": 0.0, "lon": -77.02490183333333, "lat": 38.9168985, "is_reserved": 0, "is_disabled": 0, "rental_uris": {"android": "https://dc.lft.to/lastmile_qr_scan", "ios": "https://dc.lft.to/lastmile_qr_scan"}, "name": "3369c0b674f1883ad7da6f85fcc936b9", "type": "electric_scooter"}, {"fusion_lat": 0.0, "bike_id": "15f160a62594aa0852220c67e784185f", "fusion_lon": 0.0, "lon": -77.06719566666666, "lat": 38.91434783333333, "is_reserved": 0, "is_disabled": 0, "rental_uris": {"android": "https://dc.lft.to/lastmile_qr_scan", "ios": "https://dc.lft.to/lastmile_qr_scan"}, "name": "15f160a62594aa0852220c67e784185f", "type": "electric_scooter"}, {"fusion_lat": 0.0, "bike_id": "2449ea039c6936e4971a8a4dfa46eb98", "fusion_lon": 0.0, "lon": -77.02704616666666, "lat": 38.92776716666667, "is_reserved": 0, "is_disabled": 0, "rental_uris": {"android": "https://dc.lft.to/lastmile_qr_scan", "ios": "https://dc.lft.to/lastmile_qr_scan"}, "name": "2449ea039c6936e4971a8a4dfa46eb98", "type": "electric_scooter"}, {"fusion_lat": 0.0, "bike_id": "fc07fa3860743a5bf021f88c382dec55", "fusion_lon": 0.0, "lon": -76.93003383333334, "lat": 38.90182716666666, "is_reserved": 0, "is_disabled": 0, "rental_uris": {"android": "https://dc.lft.to/lastmile_qr_scan", "ios": "https://dc.lft.to/lastmile_qr_scan"}, "name": "fc07fa3860743a5bf021f88c382dec55", "type": "electric_scooter"}, {"fusion_lat": 0.0, "bike_id": "58dd37db2aeb8c1037f6129665b44ff1", "fusion_lon": 0.0, "lon": -77.032781, "lat": 38.92003283333333, "is_reserved": 0, "is_disabled": 0, "rental_uris": {"android": "https://dc.lft.to/lastmile_qr_scan", "ios": "https://dc.lft.to/lastmile_qr_scan"}, "name": "58dd37db2aeb8c1037f6129665b44ff1", "type": "electric_scooter"}, {"fusion_lat": 0.0, "bike_id": "0e89b2b3e1e7f4d76152f8947771958d", "fusion_lon": 0.0, "lon": -77.05510666666666, "lat": 38.929783666666665, "is_reserved": 0, "is_disabled": 0, "rental_uris": {"android": "https://dc.lft.to/lastmile_qr_scan", "ios": "https://dc.lft.to/lastmile_qr_scan"}, "name": "0e89b2b3e1e7f4d76152f8947771958d", "type": "electric_scooter"}, {"fusion_lat": 0.0, "bike_id": "e87e080f82966486651d665e0966d092", "fusion_lon": 0.0, "lon": -77.02388733333333, "lat": 38.91680066666667, "is_reserved": 0, "is_disabled": 0, "rental_uris": {"android": "https://dc.lft.to/lastmile_qr_scan", "ios": "https://dc.lft.to/lastmile_qr_scan"}, "name": "e87e080f82966486651d665e0966d092", "type": "electric_scooter"}, {"fusion_lat": 0.0, "bike_id": "0fe46bad24d25e284598ab4df1429f6c", "fusion_lon": 0.0, "lon": -76.93355766666667, "lat": 38.899027833333335, "is_reserved": 0, "is_disabled": 0, "rental_uris": {"android": "https://dc.lft.to/lastmile_qr_scan", "ios": "https://dc.lft.to/lastmile_qr_scan"}, "name": "0fe46bad24d25e284598ab4df1429f6c", "type": "electric_scooter"}, {"fusion_lat": 0.0, "bike_id": "2389c19990fcaf53eca5f68591e25ae1", "fusion_lon": 0.0, "lon": -76.99110066666667, "lat": 38.903183, "is_reserved": 0, "is_disabled": 0, "rental_uris": {"android": "https://dc.lft.to/lastmile_qr_scan", "ios": "https://dc.lft.to/lastmile_qr_scan"}, "name": "2389c19990fcaf53eca5f68591e25ae1", "type": "electric_scooter"}, {"fusion_lat": 0.0, "bike_id": "c7878d6348eedb4db0bb9dc24f8e83a9", "fusion_lon": 0.0, "lon": -77.00458566666667, "lat": 38.876606333333335, "is_reserved": 0, "is_disabled": 0, "rental_uris": {"android": "https://dc.lft.to/lastmile_qr_scan", "ios": "https://dc.lft.to/lastmile_qr_scan"}, "name": "c7878d6348eedb4db0bb9dc24f8e83a9", "type": "electric_scooter"}, {"fusion_lat": 0.0, "bike_id": "0b59e88d6ae0cd284f4dfcc2cf439dea", "fusion_lon": 0.0, "lon": -77.0272, "lat": 38.91675383333333, "is_reserved": 0, "is_disabled": 0, "rental_uris": {"android": "https://dc.lft.to/lastmile_qr_scan", "ios": "https://dc.lft.to/lastmile_qr_scan"}, "name": "0b59e88d6ae0cd284f4dfcc2cf439dea", "type": "electric_scooter"}, {"fusion_lat": 0.0, "bike_id": "dad48e5acc4e0c02fe749acb5f29b1be", "fusion_lon": 0.0, "lon": -77.04188816666667, "lat": 38.905455833333335, "is_reserved": 0, "is_disabled": 0, "rental_uris": {"android": "https://dc.lft.to/lastmile_qr_scan", "ios": "https://dc.lft.to/lastmile_qr_scan"}, "name": "dad48e5acc4e0c02fe749acb5f29b1be", "type": "electric_scooter"}, {"fusion_lat": 0.0, "bike_id": "c08b24a99f2870c8d4113c7fc646b0e5", "fusion_lon": 0.0, "lon": -77.02323183333333, "lat": 38.927853166666665, "is_reserved": 0, "is_disabled": 0, "rental_uris": {"android": "https://dc.lft.to/lastmile_qr_scan", "ios": "https://dc.lft.to/lastmile_qr_scan"}, "name": "c08b24a99f2870c8d4113c7fc646b0e5", "type": "electric_scooter"}, {"fusion_lat": 0.0, "bike_id": "323fd0165f5d8ea3005e82a707fa4ce3", "fusion_lon": 0.0, "lon": -77.12675783333333, "lat": 38.81516116666667, "is_reserved": 0, "is_disabled": 0, "rental_uris": {"android": "https://dc.lft.to/lastmile_qr_scan", "ios": "https://dc.lft.to/lastmile_qr_scan"}, "name": "323fd0165f5d8ea3005e82a707fa4ce3", "type": "electric_bike"}, {"fusion_lat": 0.0, "bike_id": "fb1c98942f0df2f97fb6f7eef2ee6939", "fusion_lon": 0.0, "lon": -76.93377666666666, "lat": 38.910316, "is_reserved": 0, "is_disabled": 0, "rental_uris": {"android": "https://dc.lft.to/lastmile_qr_scan", "ios": "https://dc.lft.to/lastmile_qr_scan"}, "name": "fb1c98942f0df2f97fb6f7eef2ee6939", "type": "electric_scooter"}, {"fusion_lat": 0.0, "bike_id": "b93432ebfc7761580a943927028b5152", "fusion_lon": 0.0, "lon": -77.03186466666666, "lat": 38.89228516666667, "is_reserved": 0, "is_disabled": 0, "rental_uris": {"android": "https://dc.lft.to/lastmile_qr_scan", "ios": "https://dc.lft.to/lastmile_qr_scan"}, "name": "b93432ebfc7761580a943927028b5152", "type": "electric_scooter"}, {"fusion_lat": 0.0, "bike_id": "75b9f10c5a78082329b5a042c276036c", "fusion_lon": 0.0, "lon": -77.02680616666666, "lat": 38.943261666666665, "is_reserved": 0, "is_disabled": 0, "rental_uris": {"android": "https://dc.lft.to/lastmile_qr_scan", "ios": "https://dc.lft.to/lastmile_qr_scan"}, "name": "75b9f10c5a78082329b5a042c276036c", "type": "electric_scooter"}, {"fusion_lat": 0.0, "bike_id": "f8165b1972458f1bb9cf79f340efcd0c", "fusion_lon": 0.0, "lon": -77.02024233333333, "lat": 38.89479516666667, "is_reserved": 0, "is_disabled": 0, "rental_uris": {"android": "https://dc.lft.to/lastmile_qr_scan", "ios": "https://dc.lft.to/lastmile_qr_scan"}, "name": "f8165b1972458f1bb9cf79f340efcd0c", "type": "electric_scooter"}, {"fusion_lat": 0.0, "bike_id": "e679c196db867df290822287cbe0bec9", "fusion_lon": 0.0, "lon": -76.9850395, "lat": 38.866695, "is_reserved": 0, "is_disabled": 0, "rental_uris": {"android": "https://dc.lft.to/lastmile_qr_scan", "ios": "https://dc.lft.to/lastmile_qr_scan"}, "name": "e679c196db867df290822287cbe0bec9", "type": "electric_scooter"}, {"fusion_lat": 0.0, "bike_id": "bd807774314d2a4f0700770a21fe8b3f", "fusion_lon": 0.0, "lon": -76.9856415, "lat": 38.89952783333333, "is_reserved": 0, "is_disabled": 0, "rental_uris": {"android": "https://dc.lft.to/lastmile_qr_scan", "ios": "https://dc.lft.to/lastmile_qr_scan"}, "name": "bd807774314d2a4f0700770a21fe8b3f", "type": "electric_scooter"}, {"fusion_lat": 0.0, "bike_id": "d473468be9818b1e39d879bc21b736d6", "fusion_lon": 0.0, "lon": -77.04486433333334, "lat": 38.91029616666667, "is_reserved": 0, "is_disabled": 0, "rental_uris": {"android": "https://dc.lft.to/lastmile_qr_scan", "ios": "https://dc.lft.to/lastmile_qr_scan"}, "name": "d473468be9818b1e39d879bc21b736d6", "type": "electric_scooter"}, {"fusion_lat": 0.0, "bike_id": "d1f2c84239f4fbf431d8ed4e416f552f", "fusion_lon": 0.0, "lon": -77.03215933333334, "lat": 38.8978645, "is_reserved": 0, "is_disabled": 0, "rental_uris": {"android": "https://dc.lft.to/lastmile_qr_scan", "ios": "https://dc.lft.to/lastmile_qr_scan"}, "name": "d1f2c84239f4fbf431d8ed4e416f552f", "type": "electric_scooter"}, {"fusion_lat": 0.0, "bike_id": "dd673677f3706de0361809c75c952438", "fusion_lon": 0.0, "lon": -77.03438916666667, "lat": 38.909750833333334, "is_reserved": 0, "is_disabled": 0, "rental_uris": {"android": "https://dc.lft.to/lastmile_qr_scan", "ios": "https://dc.lft.to/lastmile_qr_scan"}, "name": "dd673677f3706de0361809c75c952438", "type": "electric_scooter"}, {"fusion_lat": 0.0, "bike_id": "42b5f9ba90d818089cb46505e56d07ae", "fusion_lon": 0.0, "lon": -77.0271155, "lat": 38.949852, "is_reserved": 0, "is_disabled": 0, "rental_uris": {"android": "https://dc.lft.to/lastmile_qr_scan", "ios": "https://dc.lft.to/lastmile_qr_scan"}, "name": "42b5f9ba90d818089cb46505e56d07ae", "type": "electric_scooter"}, {"fusion_lat": 0.0, "bike_id": "8afcd58f1d07f9a707e45c30d9cd8da7", "fusion_lon": 0.0, "lon": -77.03667766666666, "lat": 38.921205, "is_reserved": 0, "is_disabled": 0, "rental_uris": {"android": "https://dc.lft.to/lastmile_qr_scan", "ios": "https://dc.lft.to/lastmile_qr_scan"}, "name": "8afcd58f1d07f9a707e45c30d9cd8da7", "type": "electric_scooter"}, {"fusion_lat": 0.0, "bike_id": "3eeb4400850b9589235f2df0d4e90ba8", "fusion_lon": 0.0, "lon": -77.02502316666667, "lat": 38.91947316666667, "is_reserved": 0, "is_disabled": 0, "rental_uris": {"android": "https://dc.lft.to/lastmile_qr_scan", "ios": "https://dc.lft.to/lastmile_qr_scan"}, "name": "3eeb4400850b9589235f2df0d4e90ba8", "type": "electric_scooter"}, {"fusion_lat": 0.0, "bike_id": "7c525cc7f77f1af475487becd0ef6008", "fusion_lon": 0.0, "lon": -76.972103, "lat": 38.892812, "is_reserved": 0, "is_disabled": 0, "rental_uris": {"android": "https://dc.lft.to/lastmile_qr_scan", "ios": "https://dc.lft.to/lastmile_qr_scan"}, "name": "7c525cc7f77f1af475487becd0ef6008", "type": "electric_bike"}, {"fusion_lat": 0.0, "bike_id": "8b8ec54d23452be571a309a0b5c4cc04", "fusion_lon": 0.0, "lon": -77.1393145, "lat": 38.87291783333333, "is_reserved": 0, "is_disabled": 0, "rental_uris": {"android": "https://dc.lft.to/lastmile_qr_scan", "ios": "https://dc.lft.to/lastmile_qr_scan"}, "name": "8b8ec54d23452be571a309a0b5c4cc04", "type": "electric_bike"}, {"fusion_lat": 0.0, "bike_id": "32e0d0dc9ea8188827f6da6d660d0944", "fusion_lon": 0.0, "lon": -77.05019633333333, "lat": 38.90509866666667, "is_reserved": 0, "is_disabled": 0, "rental_uris": {"android": "https://dc.lft.to/lastmile_qr_scan", "ios": "https://dc.lft.to/lastmile_qr_scan"}, "name": "32e0d0dc9ea8188827f6da6d660d0944", "type": "electric_scooter"}, {"fusion_lat": 0.0, "bike_id": "6c7f8e434c67d219897c0d0d28e8b2e8", "fusion_lon": 0.0, "lon": -76.9927625, "lat": 38.86032733333333, "is_reserved": 0, "is_disabled": 0, "rental_uris": {"android": "https://dc.lft.to/lastmile_qr_scan", "ios": "https://dc.lft.to/lastmile_qr_scan"}, "name": "6c7f8e434c67d219897c0d0d28e8b2e8", "type": "electric_scooter"}, {"fusion_lat": 0.0, "bike_id": "7f6e1a6ae039bbf7376a2d9c9dfd282c", "fusion_lon": 0.0, "lon": -77.04180583333333, "lat": 38.91552566666667, "is_reserved": 0, "is_disabled": 0, "rental_uris": {"android": "https://dc.lft.to/lastmile_qr_scan", "ios": "https://dc.lft.to/lastmile_qr_scan"}, "name": "7f6e1a6ae039bbf7376a2d9c9dfd282c", "type": "electric_scooter"}, {"fusion_lat": 0.0, "bike_id": "50ba0a3e42678b7abdd42aa900e780e1", "fusion_lon": 0.0, "lon": -77.055798, "lat": 38.93053733333333, "is_reserved": 0, "is_disabled": 0, "rental_uris": {"android": "https://dc.lft.to/lastmile_qr_scan", "ios": "https://dc.lft.to/lastmile_qr_scan"}, "name": "50ba0a3e42678b7abdd42aa900e780e1", "type": "electric_scooter"}, {"fusion_lat": 0.0, "bike_id": "213c22e917d94261fb2d0c2ead4c85a5", "fusion_lon": 0.0, "lon": -77.02375016666667, "lat": 38.91785616666667, "is_reserved": 0, "is_disabled": 0, "rental_uris": {"android": "https://dc.lft.to/lastmile_qr_scan", "ios": "https://dc.lft.to/lastmile_qr_scan"}, "name": "213c22e917d94261fb2d0c2ead4c85a5", "type": "electric_scooter"}, {"fusion_lat": 0.0, "bike_id": "ffe5499b5bdcf4daabbbb08effef9ade", "fusion_lon": 0.0, "lon": -76.97705466666666, "lat": 38.8851985, "is_reserved": 0, "is_disabled": 0, "rental_uris": {"android": "https://dc.lft.to/lastmile_qr_scan", "ios": "https://dc.lft.to/lastmile_qr_scan"}, "name": "ffe5499b5bdcf4daabbbb08effef9ade", "type": "electric_scooter"}, {"fusion_lat": 0.0, "bike_id": "711d3e311c8c4b317d5f8c13b0b34a3c", "fusion_lon": 0.0, "lon": -77.12466816666667, "lat": 38.853697333333336, "is_reserved": 0, "is_disabled": 0, "rental_uris": {"android": "https://dc.lft.to/lastmile_qr_scan", "ios": "https://dc.lft.to/lastmile_qr_scan"}, "name": "711d3e311c8c4b317d5f8c13b0b34a3c", "type": "electric_bike"}, {"fusion_lat": 0.0, "bike_id": "961a462702ad7dccb2965991b757b436", "fusion_lon": 0.0, "lon": -77.04501733333333, "lat": 38.91324766666666, "is_reserved": 0, "is_disabled": 0, "rental_uris": {"android": "https://dc.lft.to/lastmile_qr_scan", "ios": "https://dc.lft.to/lastmile_qr_scan"}, "name": "961a462702ad7dccb2965991b757b436", "type": "electric_scooter"}, {"fusion_lat": 0.0, "bike_id": "f06613cb3b2b6d05f67c45acfe9cee91", "fusion_lon": 0.0, "lon": -77.00605433333334, "lat": 38.87304, "is_reserved": 0, "is_disabled": 0, "rental_uris": {"android": "https://dc.lft.to/lastmile_qr_scan", "ios": "https://dc.lft.to/lastmile_qr_scan"}, "name": "f06613cb3b2b6d05f67c45acfe9cee91", "type": "electric_scooter"}, {"fusion_lat": 0.0, "bike_id": "daa452e8f3888a4a5b003b418262eeb4", "fusion_lon": 0.0, "lon": -77.03209816666667, "lat": 38.899716166666664, "is_reserved": 0, "is_disabled": 0, "rental_uris": {"android": "https://dc.lft.to/lastmile_qr_scan", "ios": "https://dc.lft.to/lastmile_qr_scan"}, "name": "daa452e8f3888a4a5b003b418262eeb4", "type": "electric_scooter"}, {"fusion_lat": 0.0, "bike_id": "fc894079ba0561be68dbb7a31072346c", "fusion_lon": 0.0, "lon": -77.04896733333334, "lat": 38.90598116666666, "is_reserved": 0, "is_disabled": 0, "rental_uris": {"android": "https://dc.lft.to/lastmile_qr_scan", "ios": "https://dc.lft.to/lastmile_qr_scan"}, "name": "fc894079ba0561be68dbb7a31072346c", "type": "electric_scooter"}, {"fusion_lat": 0.0, "bike_id": "ae05872fcb42e87f69bfd53f3e196ecf", "fusion_lon": 0.0, "lon": -76.98836683333333, "lat": 38.90120966666667, "is_reserved": 0, "is_disabled": 0, "rental_uris": {"android": "https://dc.lft.to/lastmile_qr_scan", "ios": "https://dc.lft.to/lastmile_qr_scan"}, "name": "ae05872fcb42e87f69bfd53f3e196ecf", "type": "electric_scooter"}, {"fusion_lat": 0.0, "bike_id": "c1ecdedd1ec907cfb1e211b8ae867dea", "fusion_lon": 0.0, "lon": -77.03873216666666, "lat": 38.90638533333333, "is_reserved": 0, "is_disabled": 0, "rental_uris": {"android": "https://dc.lft.to/lastmile_qr_scan", "ios": "https://dc.lft.to/lastmile_qr_scan"}, "name": "c1ecdedd1ec907cfb1e211b8ae867dea", "type": "electric_scooter"}, {"fusion_lat": 0.0, "bike_id": "be0bd3df299fb5a2542bf09e52ad1de2", "fusion_lon": 0.0, "lon": -77.02079866666666, "lat": 38.9270535, "is_reserved": 0, "is_disabled": 0, "rental_uris": {"android": "https://dc.lft.to/lastmile_qr_scan", "ios": "https://dc.lft.to/lastmile_qr_scan"}, "name": "be0bd3df299fb5a2542bf09e52ad1de2", "type": "electric_scooter"}, {"fusion_lat": 0.0, "bike_id": "bc3e5ea35277b5471b4d1c9bd960cd99", "fusion_lon": 0.0, "lon": -77.01639216666666, "lat": 38.928987, "is_reserved": 0, "is_disabled": 0, "rental_uris": {"android": "https://dc.lft.to/lastmile_qr_scan", "ios": "https://dc.lft.to/lastmile_qr_scan"}, "name": "bc3e5ea35277b5471b4d1c9bd960cd99", "type": "electric_scooter"}, {"fusion_lat": 0.0, "bike_id": "3069392e5f9afbb1b4602e2fe9ccd2dc", "fusion_lon": 0.0, "lon": -77.046759, "lat": 38.89555683333333, "is_reserved": 0, "is_disabled": 0, "rental_uris": {"android": "https://dc.lft.to/lastmile_qr_scan", "ios": "https://dc.lft.to/lastmile_qr_scan"}, "name": "3069392e5f9afbb1b4602e2fe9ccd2dc", "type": "electric_scooter"}, {"fusion_lat": 0.0, "bike_id": "edbdbe60a0409b6a41b9975b25babc37", "fusion_lon": 0.0, "lon": -77.036548, "lat": 38.9245755, "is_reserved": 0, "is_disabled": 0, "rental_uris": {"android": "https://dc.lft.to/lastmile_qr_scan", "ios": "https://dc.lft.to/lastmile_qr_scan"}, "name": "edbdbe60a0409b6a41b9975b25babc37", "type": "electric_scooter"}, {"fusion_lat": 0.0, "bike_id": "0564718bde23509a3a2f99a74acc3e47", "fusion_lon": 0.0, "lon": -77.09495233333334, "lat": 38.807626166666665, "is_reserved": 0, "is_disabled": 0, "rental_uris": {"android": "https://dc.lft.to/lastmile_qr_scan", "ios": "https://dc.lft.to/lastmile_qr_scan"}, "name": "0564718bde23509a3a2f99a74acc3e47", "type": "electric_bike"}, {"fusion_lat": 0.0, "bike_id": "d7e675e4906cd68eef1fee7a09faa989", "fusion_lon": 0.0, "lon": -77.0324745, "lat": 38.90851716666667, "is_reserved": 0, "is_disabled": 0, "rental_uris": {"android": "https://dc.lft.to/lastmile_qr_scan", "ios": "https://dc.lft.to/lastmile_qr_scan"}, "name": "d7e675e4906cd68eef1fee7a09faa989", "type": "electric_scooter"}, {"fusion_lat": 0.0, "bike_id": "ec00aefa1e6a8732bb1f02b4a9e1633f", "fusion_lon": 0.0, "lon": -77.03852766666667, "lat": 38.904057333333334, "is_reserved": 0, "is_disabled": 0, "rental_uris": {"android": "https://dc.lft.to/lastmile_qr_scan", "ios": "https://dc.lft.to/lastmile_qr_scan"}, "name": "ec00aefa1e6a8732bb1f02b4a9e1633f", "type": "electric_scooter"}, {"fusion_lat": 0.0, "bike_id": "1e6a46e02043cf935bce2315805446da", "fusion_lon": 0.0, "lon": -77.02403516666666, "lat": 38.9069515, "is_reserved": 0, "is_disabled": 0, "rental_uris": {"android": "https://dc.lft.to/lastmile_qr_scan", "ios": "https://dc.lft.to/lastmile_qr_scan"}, "name": "1e6a46e02043cf935bce2315805446da", "type": "electric_scooter"}, {"fusion_lat": 0.0, "bike_id": "e1ecbcbf1b3f873ce130efa5adc6b71a", "fusion_lon": 0.0, "lon": -77.0518445, "lat": 38.923796, "is_reserved": 0, "is_disabled": 0, "rental_uris": {"android": "https://dc.lft.to/lastmile_qr_scan", "ios": "https://dc.lft.to/lastmile_qr_scan"}, "name": "e1ecbcbf1b3f873ce130efa5adc6b71a", "type": "electric_scooter"}, {"fusion_lat": 0.0, "bike_id": "ef48051a3401b0dbf4457202d09af600", "fusion_lon": 0.0, "lon": -77.03209233333334, "lat": 38.91300016666667, "is_reserved": 0, "is_disabled": 0, "rental_uris": {"android": "https://dc.lft.to/lastmile_qr_scan", "ios": "https://dc.lft.to/lastmile_qr_scan"}, "name": "ef48051a3401b0dbf4457202d09af600", "type": "electric_scooter"}, {"fusion_lat": 0.0, "bike_id": "46aee55cdd81f971d037152fc11cef43", "fusion_lon": 0.0, "lon": -77.042166, "lat": 38.9212355, "is_reserved": 0, "is_disabled": 0, "rental_uris": {"android": "https://dc.lft.to/lastmile_qr_scan", "ios": "https://dc.lft.to/lastmile_qr_scan"}, "name": "46aee55cdd81f971d037152fc11cef43", "type": "electric_scooter"}, {"fusion_lat": 0.0, "bike_id": "f82e2dd4114989b8e5c9e77c23a038fa", "fusion_lon": 0.0, "lon": -77.07793383333333, "lat": 38.99605666666667, "is_reserved": 0, "is_disabled": 0, "rental_uris": {"android": "https://dc.lft.to/lastmile_qr_scan", "ios": "https://dc.lft.to/lastmile_qr_scan"}, "name": "f82e2dd4114989b8e5c9e77c23a038fa", "type": "electric_bike"}, {"fusion_lat": 0.0, "bike_id": "5fe2e8e56a0bfa699285bad970f63ef0", "fusion_lon": 0.0, "lon": -76.9765795, "lat": 38.898770166666665, "is_reserved": 0, "is_disabled": 0, "rental_uris": {"android": "https://dc.lft.to/lastmile_qr_scan", "ios": "https://dc.lft.to/lastmile_qr_scan"}, "name": "5fe2e8e56a0bfa699285bad970f63ef0", "type": "electric_bike"}, {"fusion_lat": 0.0, "bike_id": "9eb3c3ae64bc82ff1a3ea57ad24f230b", "fusion_lon": 0.0, "lon": -77.0359285, "lat": 38.909659833333336, "is_reserved": 0, "is_disabled": 0, "rental_uris": {"android": "https://dc.lft.to/lastmile_qr_scan", "ios": "https://dc.lft.to/lastmile_qr_scan"}, "name": "9eb3c3ae64bc82ff1a3ea57ad24f230b", "type": "electric_scooter"}, {"fusion_lat": 0.0, "bike_id": "db129140625d22972318a72f9ab6ccc5", "fusion_lon": 0.0, "lon": -77.01377533333333, "lat": 38.8982225, "is_reserved": 0, "is_disabled": 0, "rental_uris": {"android": "https://dc.lft.to/lastmile_qr_scan", "ios": "https://dc.lft.to/lastmile_qr_scan"}, "name": "db129140625d22972318a72f9ab6ccc5", "type": "electric_scooter"}, {"fusion_lat": 0.0, "bike_id": "30979b30036e6a6f40de06defc3330dd", "fusion_lon": 0.0, "lon": -77.026942, "lat": 38.91866533333334, "is_reserved": 0, "is_disabled": 0, "rental_uris": {"android": "https://dc.lft.to/lastmile_qr_scan", "ios": "https://dc.lft.to/lastmile_qr_scan"}, "name": "30979b30036e6a6f40de06defc3330dd", "type": "electric_scooter"}, {"fusion_lat": 0.0, "bike_id": "afda45eb0e6c6c9462cce20708cf1d94", "fusion_lon": 0.0, "lon": -77.03001283333333, "lat": 39.0419555, "is_reserved": 0, "is_disabled": 0, "rental_uris": {"android": "https://dc.lft.to/lastmile_qr_scan", "ios": "https://dc.lft.to/lastmile_qr_scan"}, "name": "afda45eb0e6c6c9462cce20708cf1d94", "type": "electric_bike"}, {"fusion_lat": 0.0, "bike_id": "8a7fd010aa05edfbf6a82b558dfc8e75", "fusion_lon": 0.0, "lon": -77.04331366666666, "lat": 38.90672683333333, "is_reserved": 0, "is_disabled": 0, "rental_uris": {"android": "https://dc.lft.to/lastmile_qr_scan", "ios": "https://dc.lft.to/lastmile_qr_scan"}, "name": "8a7fd010aa05edfbf6a82b558dfc8e75", "type": "electric_scooter"}, {"fusion_lat": 0.0, "bike_id": "0a6da316bdba44f01038d9f6387aaa65", "fusion_lon": 0.0, "lon": -77.001965, "lat": 38.89099366666667, "is_reserved": 0, "is_disabled": 0, "rental_uris": {"android": "https://dc.lft.to/lastmile_qr_scan", "ios": "https://dc.lft.to/lastmile_qr_scan"}, "name": "0a6da316bdba44f01038d9f6387aaa65", "type": "electric_scooter"}, {"fusion_lat": 0.0, "bike_id": "33acd7af9f454a2fe676c1ad8c5e7ce9", "fusion_lon": 0.0, "lon": -77.0199265, "lat": 38.8859935, "is_reserved": 0, "is_disabled": 0, "rental_uris": {"android": "https://dc.lft.to/lastmile_qr_scan", "ios": "https://dc.lft.to/lastmile_qr_scan"}, "name": "33acd7af9f454a2fe676c1ad8c5e7ce9", "type": "electric_scooter"}, {"fusion_lat": 0.0, "bike_id": "9da66dc2d3b1d2ca5ddeeb76f5aeeaf4", "fusion_lon": 0.0, "lon": -77.0318275, "lat": 38.92499933333333, "is_reserved": 0, "is_disabled": 0, "rental_uris": {"android": "https://dc.lft.to/lastmile_qr_scan", "ios": "https://dc.lft.to/lastmile_qr_scan"}, "name": "9da66dc2d3b1d2ca5ddeeb76f5aeeaf4", "type": "electric_scooter"}, {"fusion_lat": 0.0, "bike_id": "355a8194e118626b09c105b2a68cf8f0", "fusion_lon": 0.0, "lon": -77.08032783333333, "lat": 38.95056966666667, "is_reserved": 0, "is_disabled": 0, "rental_uris": {"android": "https://dc.lft.to/lastmile_qr_scan", "ios": "https://dc.lft.to/lastmile_qr_scan"}, "name": "355a8194e118626b09c105b2a68cf8f0", "type": "electric_scooter"}, {"fusion_lat": 0.0, "bike_id": "a25d2df2bc84b09ccd5261c01a851fa0", "fusion_lon": 0.0, "lon": -77.010747, "lat": 38.8962765, "is_reserved": 0, "is_disabled": 0, "rental_uris": {"android": "https://dc.lft.to/lastmile_qr_scan", "ios": "https://dc.lft.to/lastmile_qr_scan"}, "name": "a25d2df2bc84b09ccd5261c01a851fa0", "type": "electric_scooter"}, {"fusion_lat": 0.0, "bike_id": "b85168b02b231b86be7f3d057f594fab", "fusion_lon": 0.0, "lon": -77.01858083333333, "lat": 38.91494633333333, "is_reserved": 0, "is_disabled": 0, "rental_uris": {"android": "https://dc.lft.to/lastmile_qr_scan", "ios": "https://dc.lft.to/lastmile_qr_scan"}, "name": "b85168b02b231b86be7f3d057f594fab", "type": "electric_scooter"}, {"fusion_lat": 0.0, "bike_id": "6e22c1a302d5e82ffcff22216341e4aa", "fusion_lon": 0.0, "lon": -77.01740933333333, "lat": 38.88741066666667, "is_reserved": 0, "is_disabled": 0, "rental_uris": {"android": "https://dc.lft.to/lastmile_qr_scan", "ios": "https://dc.lft.to/lastmile_qr_scan"}, "name": "6e22c1a302d5e82ffcff22216341e4aa", "type": "electric_scooter"}, {"fusion_lat": 0.0, "bike_id": "3d0c1c8ea3ee392261a63b67104b4e06", "fusion_lon": 0.0, "lon": -77.03231033333333, "lat": 38.9298745, "is_reserved": 0, "is_disabled": 0, "rental_uris": {"android": "https://dc.lft.to/lastmile_qr_scan", "ios": "https://dc.lft.to/lastmile_qr_scan"}, "name": "3d0c1c8ea3ee392261a63b67104b4e06", "type": "electric_scooter"}, {"fusion_lat": 0.0, "bike_id": "e66396339767ddec19d9c26aabc8ecbd", "fusion_lon": 0.0, "lon": -77.03225033333334, "lat": 38.91298533333333, "is_reserved": 0, "is_disabled": 0, "rental_uris": {"android": "https://dc.lft.to/lastmile_qr_scan", "ios": "https://dc.lft.to/lastmile_qr_scan"}, "name": "e66396339767ddec19d9c26aabc8ecbd", "type": "electric_scooter"}, {"fusion_lat": 0.0, "bike_id": "d9beab769df2a370430e6b1fbae023c0", "fusion_lon": 0.0, "lon": -77.094714, "lat": 38.86934333333333, "is_reserved": 0, "is_disabled": 0, "rental_uris": {"android": "https://dc.lft.to/lastmile_qr_scan", "ios": "https://dc.lft.to/lastmile_qr_scan"}, "name": "d9beab769df2a370430e6b1fbae023c0", "type": "electric_bike"}, {"fusion_lat": 0.0, "bike_id": "aba6a79eda09f161a69e7d70da29af3d", "fusion_lon": 0.0, "lon": -76.988006, "lat": 38.892388, "is_reserved": 0, "is_disabled": 0, "rental_uris": {"android": "https://dc.lft.to/lastmile_qr_scan", "ios": "https://dc.lft.to/lastmile_qr_scan"}, "name": "aba6a79eda09f161a69e7d70da29af3d", "type": "electric_scooter"}, {"fusion_lat": 0.0, "bike_id": "86ee62829fce3f1016f41657c86d45d7", "fusion_lon": 0.0, "lon": -77.03179633333333, "lat": 38.89626583333333, "is_reserved": 0, "is_disabled": 0, "rental_uris": {"android": "https://dc.lft.to/lastmile_qr_scan", "ios": "https://dc.lft.to/lastmile_qr_scan"}, "name": "86ee62829fce3f1016f41657c86d45d7", "type": "electric_scooter"}, {"fusion_lat": 0.0, "bike_id": "f83baca5b674257cd89bfd52904eb425", "fusion_lon": 0.0, "lon": -77.03279433333333, "lat": 38.898985, "is_reserved": 0, "is_disabled": 0, "rental_uris": {"android": "https://dc.lft.to/lastmile_qr_scan", "ios": "https://dc.lft.to/lastmile_qr_scan"}, "name": "f83baca5b674257cd89bfd52904eb425", "type": "electric_scooter"}, {"fusion_lat": 0.0, "bike_id": "cfa841b538fea3ba250dd738163bc013", "fusion_lon": 0.0, "lon": -77.0411235, "lat": 38.915518166666665, "is_reserved": 0, "is_disabled": 0, "rental_uris": {"android": "https://dc.lft.to/lastmile_qr_scan", "ios": "https://dc.lft.to/lastmile_qr_scan"}, "name": "cfa841b538fea3ba250dd738163bc013", "type": "electric_scooter"}, {"fusion_lat": 0.0, "bike_id": "845f2fcafc2cba42319432aab39009bf", "fusion_lon": 0.0, "lon": -77.04871633333333, "lat": 38.90717016666667, "is_reserved": 0, "is_disabled": 0, "rental_uris": {"android": "https://dc.lft.to/lastmile_qr_scan", "ios": "https://dc.lft.to/lastmile_qr_scan"}, "name": "845f2fcafc2cba42319432aab39009bf", "type": "electric_scooter"}, {"fusion_lat": 0.0, "bike_id": "0f243492c979bf05942c33d4a580096b", "fusion_lon": 0.0, "lon": -77.03568466666667, "lat": 38.90822816666667, "is_reserved": 0, "is_disabled": 0, "rental_uris": {"android": "https://dc.lft.to/lastmile_qr_scan", "ios": "https://dc.lft.to/lastmile_qr_scan"}, "name": "0f243492c979bf05942c33d4a580096b", "type": "electric_scooter"}, {"fusion_lat": 0.0, "bike_id": "8b0da9e8c7869daa5bc4be38f7384a76", "fusion_lon": 0.0, "lon": -77.03603966666667, "lat": 38.907549333333336, "is_reserved": 0, "is_disabled": 0, "rental_uris": {"android": "https://dc.lft.to/lastmile_qr_scan", "ios": "https://dc.lft.to/lastmile_qr_scan"}, "name": "8b0da9e8c7869daa5bc4be38f7384a76", "type": "electric_scooter"}, {"fusion_lat": 0.0, "bike_id": "ddef0ba6770dfd10f422d67b66c189c1", "fusion_lon": 0.0, "lon": -77.03971116666666, "lat": 38.898822833333334, "is_reserved": 0, "is_disabled": 0, "rental_uris": {"android": "https://dc.lft.to/lastmile_qr_scan", "ios": "https://dc.lft.to/lastmile_qr_scan"}, "name": "ddef0ba6770dfd10f422d67b66c189c1", "type": "electric_scooter"}, {"fusion_lat": 0.0, "bike_id": "90eafc733cac494b2140c996b22bf0a6", "fusion_lon": 0.0, "lon": -76.9814835, "lat": 38.9056055, "is_reserved": 0, "is_disabled": 0, "rental_uris": {"android": "https://dc.lft.to/lastmile_qr_scan", "ios": "https://dc.lft.to/lastmile_qr_scan"}, "name": "90eafc733cac494b2140c996b22bf0a6", "type": "electric_scooter"}, {"fusion_lat": 0.0, "bike_id": "3181d587acd8e7478a50d71d54b5238a", "fusion_lon": 0.0, "lon": -77.04869216666667, "lat": 38.91329433333333, "is_reserved": 0, "is_disabled": 0, "rental_uris": {"android": "https://dc.lft.to/lastmile_qr_scan", "ios": "https://dc.lft.to/lastmile_qr_scan"}, "name": "3181d587acd8e7478a50d71d54b5238a", "type": "electric_scooter"}, {"fusion_lat": 0.0, "bike_id": "a3ab34f496ba786309f207a69d1feca0", "fusion_lon": 0.0, "lon": -77.04255533333334, "lat": 38.899999, "is_reserved": 0, "is_disabled": 0, "rental_uris": {"android": "https://dc.lft.to/lastmile_qr_scan", "ios": "https://dc.lft.to/lastmile_qr_scan"}, "name": "a3ab34f496ba786309f207a69d1feca0", "type": "electric_scooter"}, {"fusion_lat": 0.0, "bike_id": "cd0b3fff4f85d49138cc07f036bd52d6", "fusion_lon": 0.0, "lon": -77.04287, "lat": 38.91114016666667, "is_reserved": 0, "is_disabled": 0, "rental_uris": {"android": "https://dc.lft.to/lastmile_qr_scan", "ios": "https://dc.lft.to/lastmile_qr_scan"}, "name": "cd0b3fff4f85d49138cc07f036bd52d6", "type": "electric_scooter"}, {"fusion_lat": 0.0, "bike_id": "36f1fb77df38a21fc946f164570da5d3", "fusion_lon": 0.0, "lon": -77.03447433333334, "lat": 38.90947766666667, "is_reserved": 0, "is_disabled": 0, "rental_uris": {"android": "https://dc.lft.to/lastmile_qr_scan", "ios": "https://dc.lft.to/lastmile_qr_scan"}, "name": "36f1fb77df38a21fc946f164570da5d3", "type": "electric_scooter"}, {"fusion_lat": 0.0, "bike_id": "60013db7b5f8ca33d092d0c7602f38ca", "fusion_lon": 0.0, "lon": -77.01853583333333, "lat": 38.914887666666665, "is_reserved": 0, "is_disabled": 0, "rental_uris": {"android": "https://dc.lft.to/lastmile_qr_scan", "ios": "https://dc.lft.to/lastmile_qr_scan"}, "name": "60013db7b5f8ca33d092d0c7602f38ca", "type": "electric_scooter"}, {"fusion_lat": 0.0, "bike_id": "1be22a60cc0f41742b60444a05b16a00", "fusion_lon": 0.0, "lon": -77.03325783333334, "lat": 38.94714183333333, "is_reserved": 0, "is_disabled": 0, "rental_uris": {"android": "https://dc.lft.to/lastmile_qr_scan", "ios": "https://dc.lft.to/lastmile_qr_scan"}, "name": "1be22a60cc0f41742b60444a05b16a00", "type": "electric_scooter"}, {"fusion_lat": 0.0, "bike_id": "63dd8e3c49b13ebd504aedaa3b35a36e", "fusion_lon": 0.0, "lon": -76.99586333333333, "lat": 38.85177733333333, "is_reserved": 0, "is_disabled": 0, "rental_uris": {"android": "https://dc.lft.to/lastmile_qr_scan", "ios": "https://dc.lft.to/lastmile_qr_scan"}, "name": "63dd8e3c49b13ebd504aedaa3b35a36e", "type": "electric_scooter"}, {"fusion_lat": 0.0, "bike_id": "0bb67e2ed5dc1d3275a08d9e6bff536e", "fusion_lon": 0.0, "lon": -77.0396405, "lat": 38.90268583333334, "is_reserved": 0, "is_disabled": 0, "rental_uris": {"android": "https://dc.lft.to/lastmile_qr_scan", "ios": "https://dc.lft.to/lastmile_qr_scan"}, "name": "0bb67e2ed5dc1d3275a08d9e6bff536e", "type": "electric_scooter"}, {"fusion_lat": 0.0, "bike_id": "0cdc715353f792e4efa1f9f14e7b9453", "fusion_lon": 0.0, "lon": -76.99871066666667, "lat": 38.900163666666664, "is_reserved": 0, "is_disabled": 0, "rental_uris": {"android": "https://dc.lft.to/lastmile_qr_scan", "ios": "https://dc.lft.to/lastmile_qr_scan"}, "name": "0cdc715353f792e4efa1f9f14e7b9453", "type": "electric_scooter"}, {"fusion_lat": 0.0, "bike_id": "95e0ddc86623131056c0d573a8d49654", "fusion_lon": 0.0, "lon": -77.0265115, "lat": 38.938630833333335, "is_reserved": 0, "is_disabled": 0, "rental_uris": {"android": "https://dc.lft.to/lastmile_qr_scan", "ios": "https://dc.lft.to/lastmile_qr_scan"}, "name": "95e0ddc86623131056c0d573a8d49654", "type": "electric_scooter"}, {"fusion_lat": 0.0, "bike_id": "3eb38b261812c3807e198f500cca9aba", "fusion_lon": 0.0, "lon": -77.0065385, "lat": 38.90095916666667, "is_reserved": 0, "is_disabled": 0, "rental_uris": {"android": "https://dc.lft.to/lastmile_qr_scan", "ios": "https://dc.lft.to/lastmile_qr_scan"}, "name": "3eb38b261812c3807e198f500cca9aba", "type": "electric_scooter"}, {"fusion_lat": 0.0, "bike_id": "15c8b0e7ec1d7c761e2ea2359d3ee2b7", "fusion_lon": 0.0, "lon": -76.97839133333333, "lat": 38.89913383333333, "is_reserved": 0, "is_disabled": 0, "rental_uris": {"android": "https://dc.lft.to/lastmile_qr_scan", "ios": "https://dc.lft.to/lastmile_qr_scan"}, "name": "15c8b0e7ec1d7c761e2ea2359d3ee2b7", "type": "electric_scooter"}, {"fusion_lat": 0.0, "bike_id": "583388d9a8c7ab75958dc4df1bd26f90", "fusion_lon": 0.0, "lon": -77.04803033333333, "lat": 38.904859333333334, "is_reserved": 0, "is_disabled": 0, "rental_uris": {"android": "https://dc.lft.to/lastmile_qr_scan", "ios": "https://dc.lft.to/lastmile_qr_scan"}, "name": "583388d9a8c7ab75958dc4df1bd26f90", "type": "electric_scooter"}, {"fusion_lat": 0.0, "bike_id": "d1f1812301ec4c180f5b4a1eac58c1f0", "fusion_lon": 0.0, "lon": -77.0448505, "lat": 38.892266666666664, "is_reserved": 0, "is_disabled": 0, "rental_uris": {"android": "https://dc.lft.to/lastmile_qr_scan", "ios": "https://dc.lft.to/lastmile_qr_scan"}, "name": "d1f1812301ec4c180f5b4a1eac58c1f0", "type": "electric_scooter"}, {"fusion_lat": 0.0, "bike_id": "873507fda3ad492287a6c9131486e8aa", "fusion_lon": 0.0, "lon": -77.0331975, "lat": 38.90956166666667, "is_reserved": 0, "is_disabled": 0, "rental_uris": {"android": "https://dc.lft.to/lastmile_qr_scan", "ios": "https://dc.lft.to/lastmile_qr_scan"}, "name": "873507fda3ad492287a6c9131486e8aa", "type": "electric_scooter"}, {"fusion_lat": 0.0, "bike_id": "9f2b7b8ae4ef02ff244f2ae41a46166e", "fusion_lon": 0.0, "lon": -76.97867783333334, "lat": 38.871932666666666, "is_reserved": 0, "is_disabled": 0, "rental_uris": {"android": "https://dc.lft.to/lastmile_qr_scan", "ios": "https://dc.lft.to/lastmile_qr_scan"}, "name": "9f2b7b8ae4ef02ff244f2ae41a46166e", "type": "electric_scooter"}, {"fusion_lat": 0.0, "bike_id": "2fae9089ff7efe22c7b91ea9f9754601", "fusion_lon": 0.0, "lon": -77.04188533333334, "lat": 38.90635783333333, "is_reserved": 0, "is_disabled": 0, "rental_uris": {"android": "https://dc.lft.to/lastmile_qr_scan", "ios": "https://dc.lft.to/lastmile_qr_scan"}, "name": "2fae9089ff7efe22c7b91ea9f9754601", "type": "electric_scooter"}, {"fusion_lat": 0.0, "bike_id": "0350aca998df4feaab6393d52d2affaa", "fusion_lon": 0.0, "lon": -77.05159433333333, "lat": 38.90511433333333, "is_reserved": 0, "is_disabled": 0, "rental_uris": {"android": "https://dc.lft.to/lastmile_qr_scan", "ios": "https://dc.lft.to/lastmile_qr_scan"}, "name": "0350aca998df4feaab6393d52d2affaa", "type": "electric_scooter"}, {"fusion_lat": 0.0, "bike_id": "77246e9a8ecf5c7535b1c10046797bf9", "fusion_lon": 0.0, "lon": -77.044366, "lat": 38.92163383333333, "is_reserved": 0, "is_disabled": 0, "rental_uris": {"android": "https://dc.lft.to/lastmile_qr_scan", "ios": "https://dc.lft.to/lastmile_qr_scan"}, "name": "77246e9a8ecf5c7535b1c10046797bf9", "type": "electric_scooter"}, {"fusion_lat": 0.0, "bike_id": "72a936424a00fa808d870c46063f2b65", "fusion_lon": 0.0, "lon": -77.015381, "lat": 38.8873565, "is_reserved": 0, "is_disabled": 0, "rental_uris": {"android": "https://dc.lft.to/lastmile_qr_scan", "ios": "https://dc.lft.to/lastmile_qr_scan"}, "name": "72a936424a00fa808d870c46063f2b65", "type": "electric_scooter"}, {"fusion_lat": 0.0, "bike_id": "4b1fc6e04cf5566333d2a1d6460464fa", "fusion_lon": 0.0, "lon": -77.02102816666667, "lat": 38.922252, "is_reserved": 0, "is_disabled": 0, "rental_uris": {"android": "https://dc.lft.to/lastmile_qr_scan", "ios": "https://dc.lft.to/lastmile_qr_scan"}, "name": "4b1fc6e04cf5566333d2a1d6460464fa", "type": "electric_scooter"}, {"fusion_lat": 0.0, "bike_id": "9d50634143322626d73e690266911cb3", "fusion_lon": 0.0, "lon": -77.08028816666666, "lat": 38.95056533333333, "is_reserved": 0, "is_disabled": 0, "rental_uris": {"android": "https://dc.lft.to/lastmile_qr_scan", "ios": "https://dc.lft.to/lastmile_qr_scan"}, "name": "9d50634143322626d73e690266911cb3", "type": "electric_scooter"}, {"fusion_lat": 0.0, "bike_id": "bad20fb77eaa51221a54b5b778adc385", "fusion_lon": 0.0, "lon": -76.98372233333333, "lat": 38.88963066666667, "is_reserved": 0, "is_disabled": 0, "rental_uris": {"android": "https://dc.lft.to/lastmile_qr_scan", "ios": "https://dc.lft.to/lastmile_qr_scan"}, "name": "bad20fb77eaa51221a54b5b778adc385", "type": "electric_scooter"}, {"fusion_lat": 0.0, "bike_id": "5cf31f13546a6a0ca148f2b4e97f5e0a", "fusion_lon": 0.0, "lon": -77.0518265, "lat": 38.92427833333333, "is_reserved": 0, "is_disabled": 0, "rental_uris": {"android": "https://dc.lft.to/lastmile_qr_scan", "ios": "https://dc.lft.to/lastmile_qr_scan"}, "name": "5cf31f13546a6a0ca148f2b4e97f5e0a", "type": "electric_scooter"}, {"fusion_lat": 0.0, "bike_id": "350dc91f943dfcbaab6b22d79e62038d", "fusion_lon": 0.0, "lon": -77.06115916666667, "lat": 38.943616666666664, "is_reserved": 0, "is_disabled": 0, "rental_uris": {"android": "https://dc.lft.to/lastmile_qr_scan", "ios": "https://dc.lft.to/lastmile_qr_scan"}, "name": "350dc91f943dfcbaab6b22d79e62038d", "type": "electric_scooter"}, {"fusion_lat": 0.0, "bike_id": "8310027b189c91a0eb4f9c7d89cbe3d1", "fusion_lon": 0.0, "lon": -77.02216816666666, "lat": 38.901938333333334, "is_reserved": 0, "is_disabled": 0, "rental_uris": {"android": "https://dc.lft.to/lastmile_qr_scan", "ios": "https://dc.lft.to/lastmile_qr_scan"}, "name": "8310027b189c91a0eb4f9c7d89cbe3d1", "type": "electric_scooter"}, {"fusion_lat": 0.0, "bike_id": "91ff7e79506ff6121579dbe07bfd5317", "fusion_lon": 0.0, "lon": -77.056089, "lat": 38.931606333333335, "is_reserved": 0, "is_disabled": 0, "rental_uris": {"android": "https://dc.lft.to/lastmile_qr_scan", "ios": "https://dc.lft.to/lastmile_qr_scan"}, "name": "91ff7e79506ff6121579dbe07bfd5317", "type": "electric_scooter"}, {"fusion_lat": 0.0, "bike_id": "581c3bb7a8b987c3a2be52331e676c94", "fusion_lon": 0.0, "lon": -77.03377416666666, "lat": 38.92152933333333, "is_reserved": 0, "is_disabled": 0, "rental_uris": {"android": "https://dc.lft.to/lastmile_qr_scan", "ios": "https://dc.lft.to/lastmile_qr_scan"}, "name": "581c3bb7a8b987c3a2be52331e676c94", "type": "electric_scooter"}, {"fusion_lat": 0.0, "bike_id": "9915912f38a4475325ed471cd89d1e3e", "fusion_lon": 0.0, "lon": -77.02606566666667, "lat": 38.8926095, "is_reserved": 0, "is_disabled": 0, "rental_uris": {"android": "https://dc.lft.to/lastmile_qr_scan", "ios": "https://dc.lft.to/lastmile_qr_scan"}, "name": "9915912f38a4475325ed471cd89d1e3e", "type": "electric_scooter"}, {"fusion_lat": 0.0, "bike_id": "e6eca2526d72cebd89ac006457c10707", "fusion_lon": 0.0, "lon": -77.04248466666667, "lat": 38.91627283333333, "is_reserved": 0, "is_disabled": 0, "rental_uris": {"android": "https://dc.lft.to/lastmile_qr_scan", "ios": "https://dc.lft.to/lastmile_qr_scan"}, "name": "e6eca2526d72cebd89ac006457c10707", "type": "electric_scooter"}, {"fusion_lat": 0.0, "bike_id": "465c0a74b02cd9a3a7c48576f0123057", "fusion_lon": 0.0, "lon": -77.03156466666667, "lat": 38.903623333333336, "is_reserved": 0, "is_disabled": 0, "rental_uris": {"android": "https://dc.lft.to/lastmile_qr_scan", "ios": "https://dc.lft.to/lastmile_qr_scan"}, "name": "465c0a74b02cd9a3a7c48576f0123057", "type": "electric_scooter"}, {"fusion_lat": 0.0, "bike_id": "d9e2a8968dea9ad8e4b1943b061029a0", "fusion_lon": 0.0, "lon": -77.02979316666666, "lat": 38.91724266666667, "is_reserved": 0, "is_disabled": 0, "rental_uris": {"android": "https://dc.lft.to/lastmile_qr_scan", "ios": "https://dc.lft.to/lastmile_qr_scan"}, "name": "d9e2a8968dea9ad8e4b1943b061029a0", "type": "electric_scooter"}, {"fusion_lat": 0.0, "bike_id": "ae9ea565c61727325d041024ea193c5e", "fusion_lon": 0.0, "lon": -76.988396, "lat": 38.90071433333333, "is_reserved": 0, "is_disabled": 0, "rental_uris": {"android": "https://dc.lft.to/lastmile_qr_scan", "ios": "https://dc.lft.to/lastmile_qr_scan"}, "name": "ae9ea565c61727325d041024ea193c5e", "type": "electric_scooter"}, {"fusion_lat": 0.0, "bike_id": "da2d59fafce6a8c41d2b5e0ee24919ad", "fusion_lon": 0.0, "lon": -76.99475233333334, "lat": 38.862123833333335, "is_reserved": 0, "is_disabled": 0, "rental_uris": {"android": "https://dc.lft.to/lastmile_qr_scan", "ios": "https://dc.lft.to/lastmile_qr_scan"}, "name": "da2d59fafce6a8c41d2b5e0ee24919ad", "type": "electric_scooter"}, {"fusion_lat": 0.0, "bike_id": "4e0e01272c5a7cf77c5780531dc2e66b", "fusion_lon": 0.0, "lon": -77.04724683333333, "lat": 38.897204, "is_reserved": 0, "is_disabled": 0, "rental_uris": {"android": "https://dc.lft.to/lastmile_qr_scan", "ios": "https://dc.lft.to/lastmile_qr_scan"}, "name": "4e0e01272c5a7cf77c5780531dc2e66b", "type": "electric_scooter"}, {"fusion_lat": 0.0, "bike_id": "07b049350cc6e636cc24b7321f7937cc", "fusion_lon": 0.0, "lon": -76.99626116666667, "lat": 38.89999433333333, "is_reserved": 0, "is_disabled": 0, "rental_uris": {"android": "https://dc.lft.to/lastmile_qr_scan", "ios": "https://dc.lft.to/lastmile_qr_scan"}, "name": "07b049350cc6e636cc24b7321f7937cc", "type": "electric_bike"}, {"fusion_lat": 0.0, "bike_id": "c9fd5d43fb0977de331ad026156200e4", "fusion_lon": 0.0, "lon": -77.0272065, "lat": 38.920306333333336, "is_reserved": 0, "is_disabled": 0, "rental_uris": {"android": "https://dc.lft.to/lastmile_qr_scan", "ios": "https://dc.lft.to/lastmile_qr_scan"}, "name": "c9fd5d43fb0977de331ad026156200e4", "type": "electric_scooter"}, {"fusion_lat": 0.0, "bike_id": "657030c7063231db298b33cb0a73eb78", "fusion_lon": 0.0, "lon": -77.02599316666667, "lat": 38.903357166666666, "is_reserved": 0, "is_disabled": 0, "rental_uris": {"android": "https://dc.lft.to/lastmile_qr_scan", "ios": "https://dc.lft.to/lastmile_qr_scan"}, "name": "657030c7063231db298b33cb0a73eb78", "type": "electric_scooter"}, {"fusion_lat": 0.0, "bike_id": "b217c03bd0ae41c220261ce901dc1d3a", "fusion_lon": 0.0, "lon": -77.032196, "lat": 38.89231016666667, "is_reserved": 0, "is_disabled": 0, "rental_uris": {"android": "https://dc.lft.to/lastmile_qr_scan", "ios": "https://dc.lft.to/lastmile_qr_scan"}, "name": "b217c03bd0ae41c220261ce901dc1d3a", "type": "electric_scooter"}, {"fusion_lat": 0.0, "bike_id": "6b4cc6bcb779924f4a01283b5321b552", "fusion_lon": 0.0, "lon": -77.0419385, "lat": 38.9053105, "is_reserved": 0, "is_disabled": 0, "rental_uris": {"android": "https://dc.lft.to/lastmile_qr_scan", "ios": "https://dc.lft.to/lastmile_qr_scan"}, "name": "6b4cc6bcb779924f4a01283b5321b552", "type": "electric_scooter"}, {"fusion_lat": 0.0, "bike_id": "7e202a1f92893ea78d84a752e924f5a1", "fusion_lon": 0.0, "lon": -76.96914416666667, "lat": 38.84605616666666, "is_reserved": 0, "is_disabled": 0, "rental_uris": {"android": "https://dc.lft.to/lastmile_qr_scan", "ios": "https://dc.lft.to/lastmile_qr_scan"}, "name": "7e202a1f92893ea78d84a752e924f5a1", "type": "electric_bike"}, {"fusion_lat": 0.0, "bike_id": "18addfd7da6129debc115645ac606e69", "fusion_lon": 0.0, "lon": -77.03124633333333, "lat": 38.91263983333333, "is_reserved": 0, "is_disabled": 0, "rental_uris": {"android": "https://dc.lft.to/lastmile_qr_scan", "ios": "https://dc.lft.to/lastmile_qr_scan"}, "name": "18addfd7da6129debc115645ac606e69", "type": "electric_scooter"}, {"fusion_lat": 0.0, "bike_id": "aeb8e0c997e4985a9977b7fb82cf483d", "fusion_lon": 0.0, "lon": -76.99030883333333, "lat": 38.86400483333333, "is_reserved": 0, "is_disabled": 0, "rental_uris": {"android": "https://dc.lft.to/lastmile_qr_scan", "ios": "https://dc.lft.to/lastmile_qr_scan"}, "name": "aeb8e0c997e4985a9977b7fb82cf483d", "type": "electric_scooter"}, {"fusion_lat": 0.0, "bike_id": "dd13c43ba346c9e87086f7ba0540a85c", "fusion_lon": 0.0, "lon": -77.0176735, "lat": 38.87668033333333, "is_reserved": 0, "is_disabled": 0, "rental_uris": {"android": "https://dc.lft.to/lastmile_qr_scan", "ios": "https://dc.lft.to/lastmile_qr_scan"}, "name": "dd13c43ba346c9e87086f7ba0540a85c", "type": "electric_scooter"}, {"fusion_lat": 0.0, "bike_id": "1a4918c2fd91bdf26462e8c697a2cda5", "fusion_lon": 0.0, "lon": -77.11592883333333, "lat": 39.07494366666667, "is_reserved": 0, "is_disabled": 0, "rental_uris": {"android": "https://dc.lft.to/lastmile_qr_scan", "ios": "https://dc.lft.to/lastmile_qr_scan"}, "name": "1a4918c2fd91bdf26462e8c697a2cda5", "type": "electric_bike"}, {"fusion_lat": 0.0, "bike_id": "0249134cd95c2ca14c9ff866befa041b", "fusion_lon": 0.0, "lon": -77.00062833333334, "lat": 38.90142983333333, "is_reserved": 0, "is_disabled": 0, "rental_uris": {"android": "https://dc.lft.to/lastmile_qr_scan", "ios": "https://dc.lft.to/lastmile_qr_scan"}, "name": "0249134cd95c2ca14c9ff866befa041b", "type": "electric_bike"}, {"fusion_lat": 0.0, "bike_id": "a6c95a763c826532196673501be88f54", "fusion_lon": 0.0, "lon": -76.995377, "lat": 38.926681333333335, "is_reserved": 0, "is_disabled": 0, "rental_uris": {"android": "https://dc.lft.to/lastmile_qr_scan", "ios": "https://dc.lft.to/lastmile_qr_scan"}, "name": "a6c95a763c826532196673501be88f54", "type": "electric_scooter"}, {"fusion_lat": 0.0, "bike_id": "177726b23f5852596607c96f4dc6b588", "fusion_lon": 0.0, "lon": -77.04688716666666, "lat": 38.8922185, "is_reserved": 0, "is_disabled": 0, "rental_uris": {"android": "https://dc.lft.to/lastmile_qr_scan", "ios": "https://dc.lft.to/lastmile_qr_scan"}, "name": "177726b23f5852596607c96f4dc6b588", "type": "electric_scooter"}, {"fusion_lat": 0.0, "bike_id": "f974ef27a1980ca56e8d05bebfe6a00f", "fusion_lon": 0.0, "lon": -77.03447266666667, "lat": 38.90736366666667, "is_reserved": 0, "is_disabled": 0, "rental_uris": {"android": "https://dc.lft.to/lastmile_qr_scan", "ios": "https://dc.lft.to/lastmile_qr_scan"}, "name": "f974ef27a1980ca56e8d05bebfe6a00f", "type": "electric_scooter"}, {"fusion_lat": 0.0, "bike_id": "417b5d2cb85445f2cdc982ce7cb592d6", "fusion_lon": 0.0, "lon": -77.03629633333334, "lat": 38.91554083333333, "is_reserved": 0, "is_disabled": 0, "rental_uris": {"android": "https://dc.lft.to/lastmile_qr_scan", "ios": "https://dc.lft.to/lastmile_qr_scan"}, "name": "417b5d2cb85445f2cdc982ce7cb592d6", "type": "electric_scooter"}, {"fusion_lat": 0.0, "bike_id": "f9346cd6d43d6362a1fdc5ef625bebc6", "fusion_lon": 0.0, "lon": -77.0296665, "lat": 38.896664666666666, "is_reserved": 0, "is_disabled": 0, "rental_uris": {"android": "https://dc.lft.to/lastmile_qr_scan", "ios": "https://dc.lft.to/lastmile_qr_scan"}, "name": "f9346cd6d43d6362a1fdc5ef625bebc6", "type": "electric_scooter"}, {"fusion_lat": 0.0, "bike_id": "ee32d8dc1275315dd875659d69e580ab", "fusion_lon": 0.0, "lon": -76.93280716666666, "lat": 38.954165833333334, "is_reserved": 0, "is_disabled": 0, "rental_uris": {"android": "https://dc.lft.to/lastmile_qr_scan", "ios": "https://dc.lft.to/lastmile_qr_scan"}, "name": "ee32d8dc1275315dd875659d69e580ab", "type": "electric_bike"}, {"fusion_lat": 0.0, "bike_id": "a4cfe954da476eb669445ba51de850cd", "fusion_lon": 0.0, "lon": -77.06104766666667, "lat": 38.905121333333334, "is_reserved": 0, "is_disabled": 0, "rental_uris": {"android": "https://dc.lft.to/lastmile_qr_scan", "ios": "https://dc.lft.to/lastmile_qr_scan"}, "name": "a4cfe954da476eb669445ba51de850cd", "type": "electric_scooter"}, {"fusion_lat": 0.0, "bike_id": "82d9f9272cc37ad114c4a20c1582f6d1", "fusion_lon": 0.0, "lon": -77.03507083333334, "lat": 38.91186316666667, "is_reserved": 0, "is_disabled": 0, "rental_uris": {"android": "https://dc.lft.to/lastmile_qr_scan", "ios": "https://dc.lft.to/lastmile_qr_scan"}, "name": "82d9f9272cc37ad114c4a20c1582f6d1", "type": "electric_scooter"}, {"fusion_lat": 0.0, "bike_id": "a262f60998acb9636c1105e40f9576a9", "fusion_lon": 0.0, "lon": -77.06197666666667, "lat": 38.944351166666664, "is_reserved": 0, "is_disabled": 0, "rental_uris": {"android": "https://dc.lft.to/lastmile_qr_scan", "ios": "https://dc.lft.to/lastmile_qr_scan"}, "name": "a262f60998acb9636c1105e40f9576a9", "type": "electric_scooter"}, {"fusion_lat": 0.0, "bike_id": "a478ac6e4e2dd404d01285825cc4c90d", "fusion_lon": 0.0, "lon": -77.02833133333333, "lat": 38.9223105, "is_reserved": 0, "is_disabled": 0, "rental_uris": {"android": "https://dc.lft.to/lastmile_qr_scan", "ios": "https://dc.lft.to/lastmile_qr_scan"}, "name": "a478ac6e4e2dd404d01285825cc4c90d", "type": "electric_scooter"}, {"fusion_lat": 0.0, "bike_id": "4edc35a0f97af02f4032ca368f15eaba", "fusion_lon": 0.0, "lon": -77.02006966666667, "lat": 38.91156316666667, "is_reserved": 0, "is_disabled": 0, "rental_uris": {"android": "https://dc.lft.to/lastmile_qr_scan", "ios": "https://dc.lft.to/lastmile_qr_scan"}, "name": "4edc35a0f97af02f4032ca368f15eaba", "type": "electric_scooter"}, {"fusion_lat": 0.0, "bike_id": "fe080f8a697d1c05cf0e7c8c9679010f", "fusion_lon": 0.0, "lon": -77.00134433333334, "lat": 38.878176833333335, "is_reserved": 0, "is_disabled": 0, "rental_uris": {"android": "https://dc.lft.to/lastmile_qr_scan", "ios": "https://dc.lft.to/lastmile_qr_scan"}, "name": "fe080f8a697d1c05cf0e7c8c9679010f", "type": "electric_scooter"}, {"fusion_lat": 0.0, "bike_id": "dc3abe22e2b9b6f7c2cfd3995a72a6c4", "fusion_lon": 0.0, "lon": -77.01677633333334, "lat": 38.87711616666667, "is_reserved": 0, "is_disabled": 0, "rental_uris": {"android": "https://dc.lft.to/lastmile_qr_scan", "ios": "https://dc.lft.to/lastmile_qr_scan"}, "name": "dc3abe22e2b9b6f7c2cfd3995a72a6c4", "type": "electric_scooter"}, {"fusion_lat": 0.0, "bike_id": "5bab3e53009d10804b1c19e1b7b04e07", "fusion_lon": 0.0, "lon": -76.94624783333333, "lat": 38.832271166666665, "is_reserved": 0, "is_disabled": 0, "rental_uris": {"android": "https://dc.lft.to/lastmile_qr_scan", "ios": "https://dc.lft.to/lastmile_qr_scan"}, "name": "5bab3e53009d10804b1c19e1b7b04e07", "type": "electric_bike"}, {"fusion_lat": 0.0, "bike_id": "d3b7c806a7140e161feaada4d66ffc0b", "fusion_lon": 0.0, "lon": -77.0038755, "lat": 38.907081166666664, "is_reserved": 0, "is_disabled": 0, "rental_uris": {"android": "https://dc.lft.to/lastmile_qr_scan", "ios": "https://dc.lft.to/lastmile_qr_scan"}, "name": "d3b7c806a7140e161feaada4d66ffc0b", "type": "electric_scooter"}, {"fusion_lat": 0.0, "bike_id": "43a8a956d3ba3f98bdc2b6d303267850", "fusion_lon": 0.0, "lon": -77.025923, "lat": 38.941949, "is_reserved": 0, "is_disabled": 0, "rental_uris": {"android": "https://dc.lft.to/lastmile_qr_scan", "ios": "https://dc.lft.to/lastmile_qr_scan"}, "name": "43a8a956d3ba3f98bdc2b6d303267850", "type": "electric_scooter"}, {"fusion_lat": 0.0, "bike_id": "814413abfca209545e34c05c06dbbb7a", "fusion_lon": 0.0, "lon": -77.04388233333333, "lat": 38.920912333333334, "is_reserved": 0, "is_disabled": 0, "rental_uris": {"android": "https://dc.lft.to/lastmile_qr_scan", "ios": "https://dc.lft.to/lastmile_qr_scan"}, "name": "814413abfca209545e34c05c06dbbb7a", "type": "electric_scooter"}, {"fusion_lat": 0.0, "bike_id": "af2928c60077c7cf13ca2e37c8691226", "fusion_lon": 0.0, "lon": -77.007294, "lat": 38.88496133333334, "is_reserved": 0, "is_disabled": 0, "rental_uris": {"android": "https://dc.lft.to/lastmile_qr_scan", "ios": "https://dc.lft.to/lastmile_qr_scan"}, "name": "af2928c60077c7cf13ca2e37c8691226", "type": "electric_scooter"}, {"fusion_lat": 0.0, "bike_id": "94fc14c9dbd0af35fde94217b8bcb731", "fusion_lon": 0.0, "lon": -76.9776715, "lat": 38.951544166666665, "is_reserved": 0, "is_disabled": 0, "rental_uris": {"android": "https://dc.lft.to/lastmile_qr_scan", "ios": "https://dc.lft.to/lastmile_qr_scan"}, "name": "94fc14c9dbd0af35fde94217b8bcb731", "type": "electric_bike"}, {"fusion_lat": 0.0, "bike_id": "cae7334b20c64ca721cf7f65ddc2f5ef", "fusion_lon": 0.0, "lon": -77.032181, "lat": 38.898718833333334, "is_reserved": 0, "is_disabled": 0, "rental_uris": {"android": "https://dc.lft.to/lastmile_qr_scan", "ios": "https://dc.lft.to/lastmile_qr_scan"}, "name": "cae7334b20c64ca721cf7f65ddc2f5ef", "type": "electric_scooter"}, {"fusion_lat": 0.0, "bike_id": "636cd20fa8c96342bdaa4f481975d6b8", "fusion_lon": 0.0, "lon": -77.03330083333333, "lat": 38.90958283333333, "is_reserved": 0, "is_disabled": 0, "rental_uris": {"android": "https://dc.lft.to/lastmile_qr_scan", "ios": "https://dc.lft.to/lastmile_qr_scan"}, "name": "636cd20fa8c96342bdaa4f481975d6b8", "type": "electric_scooter"}, {"fusion_lat": 0.0, "bike_id": "2be15df1f64231535e5dbe91045c92d8", "fusion_lon": 0.0, "lon": -77.03808966666666, "lat": 38.906579, "is_reserved": 0, "is_disabled": 0, "rental_uris": {"android": "https://dc.lft.to/lastmile_qr_scan", "ios": "https://dc.lft.to/lastmile_qr_scan"}, "name": "2be15df1f64231535e5dbe91045c92d8", "type": "electric_bike"}, {"fusion_lat": 0.0, "bike_id": "0ba2ca65ecf423edb063472649ec892d", "fusion_lon": 0.0, "lon": -77.01211116666667, "lat": 38.91558283333333, "is_reserved": 0, "is_disabled": 0, "rental_uris": {"android": "https://dc.lft.to/lastmile_qr_scan", "ios": "https://dc.lft.to/lastmile_qr_scan"}, "name": "0ba2ca65ecf423edb063472649ec892d", "type": "electric_scooter"}, {"fusion_lat": 0.0, "bike_id": "894cc7aa38a16954c0c17cf442ccc399", "fusion_lon": 0.0, "lon": -77.06896533333334, "lat": 38.90514433333333, "is_reserved": 0, "is_disabled": 0, "rental_uris": {"android": "https://dc.lft.to/lastmile_qr_scan", "ios": "https://dc.lft.to/lastmile_qr_scan"}, "name": "894cc7aa38a16954c0c17cf442ccc399", "type": "electric_scooter"}, {"fusion_lat": 0.0, "bike_id": "874c31a4066a82376eb2b58b339617de", "fusion_lon": 0.0, "lon": -77.00061433333333, "lat": 38.90691666666667, "is_reserved": 0, "is_disabled": 0, "rental_uris": {"android": "https://dc.lft.to/lastmile_qr_scan", "ios": "https://dc.lft.to/lastmile_qr_scan"}, "name": "874c31a4066a82376eb2b58b339617de", "type": "electric_scooter"}, {"fusion_lat": 0.0, "bike_id": "c6e2bd047b265f3c72fcb56931f3e385", "fusion_lon": 0.0, "lon": -77.03757433333334, "lat": 38.91247666666667, "is_reserved": 0, "is_disabled": 0, "rental_uris": {"android": "https://dc.lft.to/lastmile_qr_scan", "ios": "https://dc.lft.to/lastmile_qr_scan"}, "name": "c6e2bd047b265f3c72fcb56931f3e385", "type": "electric_scooter"}, {"fusion_lat": 0.0, "bike_id": "0ecf9791c9ebd277d9bc63ffddc85c3a", "fusion_lon": 0.0, "lon": -76.99855966666667, "lat": 38.896162833333335, "is_reserved": 0, "is_disabled": 0, "rental_uris": {"android": "https://dc.lft.to/lastmile_qr_scan", "ios": "https://dc.lft.to/lastmile_qr_scan"}, "name": "0ecf9791c9ebd277d9bc63ffddc85c3a", "type": "electric_scooter"}, {"fusion_lat": 0.0, "bike_id": "f325fa429e7adebc5f4ae820642d778a", "fusion_lon": 0.0, "lon": -77.00307166666667, "lat": 38.923456333333334, "is_reserved": 0, "is_disabled": 0, "rental_uris": {"android": "https://dc.lft.to/lastmile_qr_scan", "ios": "https://dc.lft.to/lastmile_qr_scan"}, "name": "f325fa429e7adebc5f4ae820642d778a", "type": "electric_scooter"}, {"fusion_lat": 0.0, "bike_id": "eb328750ff3b83e63d1b66feda612d3e", "fusion_lon": 0.0, "lon": -77.0250865, "lat": 38.89222433333333, "is_reserved": 0, "is_disabled": 0, "rental_uris": {"android": "https://dc.lft.to/lastmile_qr_scan", "ios": "https://dc.lft.to/lastmile_qr_scan"}, "name": "eb328750ff3b83e63d1b66feda612d3e", "type": "electric_scooter"}, {"fusion_lat": 0.0, "bike_id": "b48081770448fc2c91fd10aa890f4ca9", "fusion_lon": 0.0, "lon": -77.01658233333333, "lat": 38.88114083333333, "is_reserved": 0, "is_disabled": 0, "rental_uris": {"android": "https://dc.lft.to/lastmile_qr_scan", "ios": "https://dc.lft.to/lastmile_qr_scan"}, "name": "b48081770448fc2c91fd10aa890f4ca9", "type": "electric_scooter"}, {"fusion_lat": 0.0, "bike_id": "93260b5fb0126359fd01058ddeb92100", "fusion_lon": 0.0, "lon": -76.9463755, "lat": 38.89829966666667, "is_reserved": 0, "is_disabled": 0, "rental_uris": {"android": "https://dc.lft.to/lastmile_qr_scan", "ios": "https://dc.lft.to/lastmile_qr_scan"}, "name": "93260b5fb0126359fd01058ddeb92100", "type": "electric_scooter"}, {"fusion_lat": 0.0, "bike_id": "bc6356d7763a5caf75f2190cadfc0545", "fusion_lon": 0.0, "lon": -77.03968266666666, "lat": 38.89222566666667, "is_reserved": 0, "is_disabled": 0, "rental_uris": {"android": "https://dc.lft.to/lastmile_qr_scan", "ios": "https://dc.lft.to/lastmile_qr_scan"}, "name": "bc6356d7763a5caf75f2190cadfc0545", "type": "electric_scooter"}, {"fusion_lat": 0.0, "bike_id": "19b0a50ea79ce4df288c929fd2b04229", "fusion_lon": 0.0, "lon": -77.029492, "lat": 38.9052115, "is_reserved": 0, "is_disabled": 0, "rental_uris": {"android": "https://dc.lft.to/lastmile_qr_scan", "ios": "https://dc.lft.to/lastmile_qr_scan"}, "name": "19b0a50ea79ce4df288c929fd2b04229", "type": "electric_scooter"}, {"fusion_lat": 0.0, "bike_id": "f54b43559eb50d3b0736e179ffaf06bb", "fusion_lon": 0.0, "lon": -77.039258, "lat": 38.92189166666667, "is_reserved": 0, "is_disabled": 0, "rental_uris": {"android": "https://dc.lft.to/lastmile_qr_scan", "ios": "https://dc.lft.to/lastmile_qr_scan"}, "name": "f54b43559eb50d3b0736e179ffaf06bb", "type": "electric_scooter"}, {"fusion_lat": 0.0, "bike_id": "2698e0a67639675b3e0ca915f66d3bb8", "fusion_lon": 0.0, "lon": -77.03989033333333, "lat": 38.93338583333333, "is_reserved": 0, "is_disabled": 0, "rental_uris": {"android": "https://dc.lft.to/lastmile_qr_scan", "ios": "https://dc.lft.to/lastmile_qr_scan"}, "name": "2698e0a67639675b3e0ca915f66d3bb8", "type": "electric_scooter"}, {"fusion_lat": 0.0, "bike_id": "ab675daa9e95138c041b16df38588299", "fusion_lon": 0.0, "lon": -77.04879716666667, "lat": 38.904504, "is_reserved": 0, "is_disabled": 0, "rental_uris": {"android": "https://dc.lft.to/lastmile_qr_scan", "ios": "https://dc.lft.to/lastmile_qr_scan"}, "name": "ab675daa9e95138c041b16df38588299", "type": "electric_scooter"}, {"fusion_lat": 0.0, "bike_id": "8ad15e94937798758e398ebadb9f864f", "fusion_lon": 0.0, "lon": -77.029654, "lat": 38.8999095, "is_reserved": 0, "is_disabled": 0, "rental_uris": {"android": "https://dc.lft.to/lastmile_qr_scan", "ios": "https://dc.lft.to/lastmile_qr_scan"}, "name": "8ad15e94937798758e398ebadb9f864f", "type": "electric_scooter"}, {"fusion_lat": 0.0, "bike_id": "0b908e1a2c7f50b540ccacc234a0feab", "fusion_lon": 0.0, "lon": -77.02399266666667, "lat": 38.881324666666664, "is_reserved": 0, "is_disabled": 0, "rental_uris": {"android": "https://dc.lft.to/lastmile_qr_scan", "ios": "https://dc.lft.to/lastmile_qr_scan"}, "name": "0b908e1a2c7f50b540ccacc234a0feab", "type": "electric_scooter"}, {"fusion_lat": 0.0, "bike_id": "3f66e1bbad9954995834fce99f7c4463", "fusion_lon": 0.0, "lon": -77.041542, "lat": 38.91913383333333, "is_reserved": 0, "is_disabled": 0, "rental_uris": {"android": "https://dc.lft.to/lastmile_qr_scan", "ios": "https://dc.lft.to/lastmile_qr_scan"}, "name": "3f66e1bbad9954995834fce99f7c4463", "type": "electric_scooter"}, {"fusion_lat": 0.0, "bike_id": "61ae5ea2262cb8d77e414742b73cf3b6", "fusion_lon": 0.0, "lon": -76.97336283333334, "lat": 38.90479416666667, "is_reserved": 0, "is_disabled": 0, "rental_uris": {"android": "https://dc.lft.to/lastmile_qr_scan", "ios": "https://dc.lft.to/lastmile_qr_scan"}, "name": "61ae5ea2262cb8d77e414742b73cf3b6", "type": "electric_bike"}, {"fusion_lat": 0.0, "bike_id": "7cba83e431f3c2967d94424bc13b8720", "fusion_lon": 0.0, "lon": -77.04356383333334, "lat": 38.9004395, "is_reserved": 0, "is_disabled": 0, "rental_uris": {"android": "https://dc.lft.to/lastmile_qr_scan", "ios": "https://dc.lft.to/lastmile_qr_scan"}, "name": "7cba83e431f3c2967d94424bc13b8720", "type": "electric_scooter"}, {"fusion_lat": 0.0, "bike_id": "35ef143d8e348204b84272959599889a", "fusion_lon": 0.0, "lon": -77.02318566666666, "lat": 38.927853, "is_reserved": 0, "is_disabled": 0, "rental_uris": {"android": "https://dc.lft.to/lastmile_qr_scan", "ios": "https://dc.lft.to/lastmile_qr_scan"}, "name": "35ef143d8e348204b84272959599889a", "type": "electric_scooter"}, {"fusion_lat": 0.0, "bike_id": "5a37d698476adc5b490bd65de9215bd6", "fusion_lon": 0.0, "lon": -77.06336583333334, "lat": 38.9210505, "is_reserved": 0, "is_disabled": 0, "rental_uris": {"android": "https://dc.lft.to/lastmile_qr_scan", "ios": "https://dc.lft.to/lastmile_qr_scan"}, "name": "5a37d698476adc5b490bd65de9215bd6", "type": "electric_scooter"}, {"fusion_lat": 0.0, "bike_id": "d035f1a71b379defe7b57c30d10006a5", "fusion_lon": 0.0, "lon": -77.02574166666666, "lat": 38.88290683333334, "is_reserved": 0, "is_disabled": 0, "rental_uris": {"android": "https://dc.lft.to/lastmile_qr_scan", "ios": "https://dc.lft.to/lastmile_qr_scan"}, "name": "d035f1a71b379defe7b57c30d10006a5", "type": "electric_scooter"}, {"fusion_lat": 0.0, "bike_id": "7e5fe361f92554095a0b5a94633c1747", "fusion_lon": 0.0, "lon": -77.0501695, "lat": 38.9051145, "is_reserved": 0, "is_disabled": 0, "rental_uris": {"android": "https://dc.lft.to/lastmile_qr_scan", "ios": "https://dc.lft.to/lastmile_qr_scan"}, "name": "7e5fe361f92554095a0b5a94633c1747", "type": "electric_scooter"}, {"fusion_lat": 0.0, "bike_id": "5aed6a21d7409b1212219872019bd110", "fusion_lon": 0.0, "lon": -76.99797716666667, "lat": 38.956384166666666, "is_reserved": 0, "is_disabled": 0, "rental_uris": {"android": "https://dc.lft.to/lastmile_qr_scan", "ios": "https://dc.lft.to/lastmile_qr_scan"}, "name": "5aed6a21d7409b1212219872019bd110", "type": "electric_bike"}, {"fusion_lat": 0.0, "bike_id": "86bfb678d886dd54bb756178c6ddb58a", "fusion_lon": 0.0, "lon": -77.04503016666666, "lat": 38.90372333333333, "is_reserved": 0, "is_disabled": 0, "rental_uris": {"android": "https://dc.lft.to/lastmile_qr_scan", "ios": "https://dc.lft.to/lastmile_qr_scan"}, "name": "86bfb678d886dd54bb756178c6ddb58a", "type": "electric_scooter"}, {"fusion_lat": 0.0, "bike_id": "08ce3af1a313376f67946f0636fcae72", "fusion_lon": 0.0, "lon": -77.032594, "lat": 38.901379166666665, "is_reserved": 0, "is_disabled": 0, "rental_uris": {"android": "https://dc.lft.to/lastmile_qr_scan", "ios": "https://dc.lft.to/lastmile_qr_scan"}, "name": "08ce3af1a313376f67946f0636fcae72", "type": "electric_scooter"}, {"fusion_lat": 0.0, "bike_id": "6e31be03ac6855381fea073c4f504a4e", "fusion_lon": 0.0, "lon": -77.04676233333333, "lat": 38.89232366666667, "is_reserved": 0, "is_disabled": 0, "rental_uris": {"android": "https://dc.lft.to/lastmile_qr_scan", "ios": "https://dc.lft.to/lastmile_qr_scan"}, "name": "6e31be03ac6855381fea073c4f504a4e", "type": "electric_scooter"}, {"fusion_lat": 0.0, "bike_id": "ce1726f642133aceb2293a9c10fd9cf2", "fusion_lon": 0.0, "lon": -77.02560783333334, "lat": 38.94170033333333, "is_reserved": 0, "is_disabled": 0, "rental_uris": {"android": "https://dc.lft.to/lastmile_qr_scan", "ios": "https://dc.lft.to/lastmile_qr_scan"}, "name": "ce1726f642133aceb2293a9c10fd9cf2", "type": "electric_scooter"}, {"fusion_lat": 0.0, "bike_id": "e6ce18cda09154c7acb61401754e39fc", "fusion_lon": 0.0, "lon": -77.00681683333333, "lat": 38.944941666666665, "is_reserved": 0, "is_disabled": 0, "rental_uris": {"android": "https://dc.lft.to/lastmile_qr_scan", "ios": "https://dc.lft.to/lastmile_qr_scan"}, "name": "e6ce18cda09154c7acb61401754e39fc", "type": "electric_bike"}, {"fusion_lat": 0.0, "bike_id": "12def460688badd748e86826fb79a9f4", "fusion_lon": 0.0, "lon": -77.04392516666667, "lat": 38.9211015, "is_reserved": 0, "is_disabled": 0, "rental_uris": {"android": "https://dc.lft.to/lastmile_qr_scan", "ios": "https://dc.lft.to/lastmile_qr_scan"}, "name": "12def460688badd748e86826fb79a9f4", "type": "electric_scooter"}, {"fusion_lat": 0.0, "bike_id": "e50a83d4d81225b40fac2a223d331900", "fusion_lon": 0.0, "lon": -77.00110833333333, "lat": 38.88681116666667, "is_reserved": 0, "is_disabled": 0, "rental_uris": {"android": "https://dc.lft.to/lastmile_qr_scan", "ios": "https://dc.lft.to/lastmile_qr_scan"}, "name": "e50a83d4d81225b40fac2a223d331900", "type": "electric_bike"}, {"fusion_lat": 0.0, "bike_id": "24a7c3329ecb5bff57a90a7445da02e0", "fusion_lon": 0.0, "lon": -77.052404, "lat": 38.925466166666666, "is_reserved": 0, "is_disabled": 0, "rental_uris": {"android": "https://dc.lft.to/lastmile_qr_scan", "ios": "https://dc.lft.to/lastmile_qr_scan"}, "name": "24a7c3329ecb5bff57a90a7445da02e0", "type": "electric_scooter"}, {"fusion_lat": 0.0, "bike_id": "0a5cf84be8f6db748d3b21a88876c82e", "fusion_lon": 0.0, "lon": -77.02512283333333, "lat": 38.926378, "is_reserved": 0, "is_disabled": 0, "rental_uris": {"android": "https://dc.lft.to/lastmile_qr_scan", "ios": "https://dc.lft.to/lastmile_qr_scan"}, "name": "0a5cf84be8f6db748d3b21a88876c82e", "type": "electric_scooter"}, {"fusion_lat": 0.0, "bike_id": "546745dacbe095b7c2aff499582eb376", "fusion_lon": 0.0, "lon": -76.99157983333333, "lat": 38.9003915, "is_reserved": 0, "is_disabled": 0, "rental_uris": {"android": "https://dc.lft.to/lastmile_qr_scan", "ios": "https://dc.lft.to/lastmile_qr_scan"}, "name": "546745dacbe095b7c2aff499582eb376", "type": "electric_scooter"}, {"fusion_lat": 0.0, "bike_id": "5a616fdbb414aa69fc52d7598296315a", "fusion_lon": 0.0, "lon": -76.99898733333333, "lat": 38.907222166666664, "is_reserved": 0, "is_disabled": 0, "rental_uris": {"android": "https://dc.lft.to/lastmile_qr_scan", "ios": "https://dc.lft.to/lastmile_qr_scan"}, "name": "5a616fdbb414aa69fc52d7598296315a", "type": "electric_scooter"}, {"fusion_lat": 0.0, "bike_id": "44a8cfa623bdd5a7a6fddbdb45a14bf7", "fusion_lon": 0.0, "lon": -77.04876783333333, "lat": 38.90087483333333, "is_reserved": 0, "is_disabled": 0, "rental_uris": {"android": "https://dc.lft.to/lastmile_qr_scan", "ios": "https://dc.lft.to/lastmile_qr_scan"}, "name": "44a8cfa623bdd5a7a6fddbdb45a14bf7", "type": "electric_scooter"}, {"fusion_lat": 0.0, "bike_id": "af5a5a75311602f1a83f2600a06cbd6b", "fusion_lon": 0.0, "lon": -77.02720816666667, "lat": 38.906621333333334, "is_reserved": 0, "is_disabled": 0, "rental_uris": {"android": "https://dc.lft.to/lastmile_qr_scan", "ios": "https://dc.lft.to/lastmile_qr_scan"}, "name": "af5a5a75311602f1a83f2600a06cbd6b", "type": "electric_scooter"}, {"fusion_lat": 0.0, "bike_id": "9292c76a9395e01b5fe786c18db33a98", "fusion_lon": 0.0, "lon": -77.005979, "lat": 38.8718625, "is_reserved": 0, "is_disabled": 0, "rental_uris": {"android": "https://dc.lft.to/lastmile_qr_scan", "ios": "https://dc.lft.to/lastmile_qr_scan"}, "name": "9292c76a9395e01b5fe786c18db33a98", "type": "electric_scooter"}, {"fusion_lat": 0.0, "bike_id": "25852214128399f76796d280dc13fbd0", "fusion_lon": 0.0, "lon": -76.89543933333333, "lat": 38.945510166666665, "is_reserved": 0, "is_disabled": 0, "rental_uris": {"android": "https://dc.lft.to/lastmile_qr_scan", "ios": "https://dc.lft.to/lastmile_qr_scan"}, "name": "25852214128399f76796d280dc13fbd0", "type": "electric_bike"}, {"fusion_lat": 0.0, "bike_id": "ed6c56d3c9f1accfdc1459cf81a9cc5d", "fusion_lon": 0.0, "lon": -77.03272116666666, "lat": 38.90120133333333, "is_reserved": 0, "is_disabled": 0, "rental_uris": {"android": "https://dc.lft.to/lastmile_qr_scan", "ios": "https://dc.lft.to/lastmile_qr_scan"}, "name": "ed6c56d3c9f1accfdc1459cf81a9cc5d", "type": "electric_scooter"}, {"fusion_lat": 0.0, "bike_id": "abc2d4c9570967c6ffa14482b77b8da7", "fusion_lon": 0.0, "lon": -77.01927166666667, "lat": 38.902548, "is_reserved": 0, "is_disabled": 0, "rental_uris": {"android": "https://dc.lft.to/lastmile_qr_scan", "ios": "https://dc.lft.to/lastmile_qr_scan"}, "name": "abc2d4c9570967c6ffa14482b77b8da7", "type": "electric_scooter"}, {"fusion_lat": 0.0, "bike_id": "73b147529c13ac18d270fd51491dbafe", "fusion_lon": 0.0, "lon": -77.03658916666667, "lat": 38.92969166666666, "is_reserved": 0, "is_disabled": 0, "rental_uris": {"android": "https://dc.lft.to/lastmile_qr_scan", "ios": "https://dc.lft.to/lastmile_qr_scan"}, "name": "73b147529c13ac18d270fd51491dbafe", "type": "electric_scooter"}, {"fusion_lat": 0.0, "bike_id": "d42ebbf654c00e32db09ce300db2c183", "fusion_lon": 0.0, "lon": -77.02569366666667, "lat": 38.91481683333333, "is_reserved": 0, "is_disabled": 0, "rental_uris": {"android": "https://dc.lft.to/lastmile_qr_scan", "ios": "https://dc.lft.to/lastmile_qr_scan"},