{"data": {"bikes": [{"rental_uris": {"android": "https://dc.lft.to/lastmile_qr_scan", "ios": "https://dc.lft.to/lastmile_qr_scan"}, "lat": 38.92119366666667, "fusion_lon": 0.0, "fusion_lat": 0.0, "type": "electric_scooter", "bike_id": "c90f78fa82987000deb7d304dacd6340", "lon": -77.02024366666667, "is_reserved": 0, "is_disabled": 0, "name": "c90f78fa82987000deb7d304dacd6340"}, {"rental_uris": {"android": "https://dc.lft.to/lastmile_qr_scan", "ios": "https://dc.lft.to/lastmile_qr_scan"}, "lat": 38.90159366666666, "fusion_lon": 0.0, "fusion_lat": 0.0, "type": "electric_scooter", "bike_id": "9aad273f91bd7b2d6b17635ac2eba47c", "lon": -77.05333733333333, "is_reserved": 0, "is_disabled": 0, "name": "9aad273f91bd7b2d6b17635ac2eba47c"}, {"rental_uris": {"android": "https://dc.lft.to/lastmile_qr_scan", "ios": "https://dc.lft.to/lastmile_qr_scan"}, "lat": 38.884914333333334, "fusion_lon": 0.0, "fusion_lat": 0.0, "type": "electric_scooter", "bike_id": "146b77173f204d18842e397cc8bf8a7f", "lon": -77.01954433333333, "is_reserved": 0, "is_disabled": 0, "name": "146b77173f204d18842e397cc8bf8a7f"}, {"rental_uris": {"android": "https://dc.lft.to/lastmile_qr_scan", "ios": "https://dc.lft.to/lastmile_qr_scan"}, "lat": 38.8988815, "fusion_lon": 0.0, "fusion_lat": 0.0, "type": "electric_scooter", "bike_id": "5d6f31244c0a531c8a8e468f8f50dd20", "lon": -77.040614, "is_reserved": 0, "is_disabled": 0, "name": "5d6f31244c0a531c8a8e468f8f50dd20"}, {"rental_uris": {"android": "https://dc.lft.to/lastmile_qr_scan", "ios": "https://dc.lft.to/lastmile_qr_scan"}, "lat": 38.897362666666666, "fusion_lon": 0.0, "fusion_lat": 0.0, "type": "electric_scooter", "bike_id": "8c4ba81e422e5fadba7711f017c2532c", "lon": -77.04332733333334, "is_reserved": 0, "is_disabled": 0, "name": "8c4ba81e422e5fadba7711f017c2532c"}, {"rental_uris": {"android": "https://dc.lft.to/lastmile_qr_scan", "ios": "https://dc.lft.to/lastmile_qr_scan"}, "lat": 38.876530833333334, "fusion_lon": 0.0, "fusion_lat": 0.0, "type": "electric_scooter", "bike_id": "2483ec928188b41ffcce3a7aeab23b33", "lon": -77.0029655, "is_reserved": 0, "is_disabled": 0, "name": "2483ec928188b41ffcce3a7aeab23b33"}, {"rental_uris": {"android": "https://dc.lft.to/lastmile_qr_scan", "ios": "https://dc.lft.to/lastmile_qr_scan"}, "lat": 38.90542516666667, "fusion_lon": 0.0, "fusion_lat": 0.0, "type": "electric_scooter", "bike_id": "6f53cdc9b98c22f1f971c37185fe8b7e", "lon": -77.03985133333333, "is_reserved": 0, "is_disabled": 0, "name": "6f53cdc9b98c22f1f971c37185fe8b7e"}, {"rental_uris": {"android": "https://dc.lft.to/lastmile_qr_scan", "ios": "https://dc.lft.to/lastmile_qr_scan"}, "lat": 38.91707383333333, "fusion_lon": 0.0, "fusion_lat": 0.0, "type": "electric_scooter", "bike_id": "9e8204085a19442782d4ed959b9d91fc", "lon": -77.023866, "is_reserved": 0, "is_disabled": 0, "name": "9e8204085a19442782d4ed959b9d91fc"}, {"rental_uris": {"android": "https://dc.lft.to/lastmile_qr_scan", "ios": "https://dc.lft.to/lastmile_qr_scan"}, "lat": 38.91736316666667, "fusion_lon": 0.0, "fusion_lat": 0.0, "type": "electric_scooter", "bike_id": "7f7c0e0cc168ffc2a9d2c5a1c86a5ed8", "lon": -77.02115466666666, "is_reserved": 0, "is_disabled": 0, "name": "7f7c0e0cc168ffc2a9d2c5a1c86a5ed8"}, {"rental_uris": {"android": "https://dc.lft.to/lastmile_qr_scan", "ios": "https://dc.lft.to/lastmile_qr_scan"}, "lat": 38.898256333333336, "fusion_lon": 0.0, "fusion_lat": 0.0, "type": "electric_scooter", "bike_id": "1d63f64ae9f5bab02501c49acc26acb5", "lon": -77.031763, "is_reserved": 0, "is_disabled": 0, "name": "1d63f64ae9f5bab02501c49acc26acb5"}, {"rental_uris": {"android": "https://dc.lft.to/lastmile_qr_scan", "ios": "https://dc.lft.to/lastmile_qr_scan"}, "lat": 38.926039833333334, "fusion_lon": 0.0, "fusion_lat": 0.0, "type": "electric_scooter", "bike_id": "ebcf2c968006bcc4f316da75e2863d30", "lon": -77.02151116666667, "is_reserved": 0, "is_disabled": 0, "name": "ebcf2c968006bcc4f316da75e2863d30"}, {"rental_uris": {"android": "https://dc.lft.to/lastmile_qr_scan", "ios": "https://dc.lft.to/lastmile_qr_scan"}, "lat": 38.921674833333334, "fusion_lon": 0.0, "fusion_lat": 0.0, "type": "electric_scooter", "bike_id": "6ea87a1c84600dac2fec4da5ec39fbe6", "lon": -77.0401765, "is_reserved": 0, "is_disabled": 0, "name": "6ea87a1c84600dac2fec4da5ec39fbe6"}, {"rental_uris": {"android": "https://dc.lft.to/lastmile_qr_scan", "ios": "https://dc.lft.to/lastmile_qr_scan"}, "lat": 38.885091833333334, "fusion_lon": 0.0, "fusion_lat": 0.0, "type": "electric_scooter", "bike_id": "8a271ee24b8fe68a81b60432f571223c", "lon": -76.92442283333334, "is_reserved": 0, "is_disabled": 0, "name": "8a271ee24b8fe68a81b60432f571223c"}, {"rental_uris": {"android": "https://dc.lft.to/lastmile_qr_scan", "ios": "https://dc.lft.to/lastmile_qr_scan"}, "lat": 38.89726266666667, "fusion_lon": 0.0, "fusion_lat": 0.0, "type": "electric_scooter", "bike_id": "645a89c3e4a0d1051fc0c25ed0950213", "lon": -77.01283116666667, "is_reserved": 0, "is_disabled": 0, "name": "645a89c3e4a0d1051fc0c25ed0950213"}, {"rental_uris": {"android": "https://dc.lft.to/lastmile_qr_scan", "ios": "https://dc.lft.to/lastmile_qr_scan"}, "lat": 38.879120666666665, "fusion_lon": 0.0, "fusion_lat": 0.0, "type": "electric_scooter", "bike_id": "e118695d12e871a96e0bbf899e40b5d7", "lon": -77.00880833333333, "is_reserved": 0, "is_disabled": 0, "name": "e118695d12e871a96e0bbf899e40b5d7"}, {"rental_uris": {"android": "https://dc.lft.to/lastmile_qr_scan", "ios": "https://dc.lft.to/lastmile_qr_scan"}, "lat": 38.926737, "fusion_lon": 0.0, "fusion_lat": 0.0, "type": "electric_scooter", "bike_id": "b8c2bac4e82eb568483d8208f91cf070", "lon": -77.0783405, "is_reserved": 0, "is_disabled": 0, "name": "b8c2bac4e82eb568483d8208f91cf070"}, {"rental_uris": {"android": "https://dc.lft.to/lastmile_qr_scan", "ios": "https://dc.lft.to/lastmile_qr_scan"}, "lat": 38.915584833333334, "fusion_lon": 0.0, "fusion_lat": 0.0, "type": "electric_scooter", "bike_id": "4894ca41e66d0ff6b8dd995e8f4cefe3", "lon": -77.0319265, "is_reserved": 0, "is_disabled": 0, "name": "4894ca41e66d0ff6b8dd995e8f4cefe3"}, {"rental_uris": {"android": "https://dc.lft.to/lastmile_qr_scan", "ios": "https://dc.lft.to/lastmile_qr_scan"}, "lat": 38.900464166666666, "fusion_lon": 0.0, "fusion_lat": 0.0, "type": "electric_bike", "bike_id": "9255a0d27a4ff976eaf7ab686ca7fe53", "lon": -76.97219616666666, "is_reserved": 0, "is_disabled": 0, "name": "9255a0d27a4ff976eaf7ab686ca7fe53"}, {"rental_uris": {"android": "https://dc.lft.to/lastmile_qr_scan", "ios": "https://dc.lft.to/lastmile_qr_scan"}, "lat": 38.89622083333333, "fusion_lon": 0.0, "fusion_lat": 0.0, "type": "electric_bike", "bike_id": "bffdf902a7294d3ccdca7356d7423546", "lon": -76.90743333333333, "is_reserved": 0, "is_disabled": 0, "name": "bffdf902a7294d3ccdca7356d7423546"}, {"rental_uris": {"android": "https://dc.lft.to/lastmile_qr_scan", "ios": "https://dc.lft.to/lastmile_qr_scan"}, "lat": 38.9312395, "fusion_lon": 0.0, "fusion_lat": 0.0, "type": "electric_scooter", "bike_id": "fb80877a4575cdf43335db588b5b7352", "lon": -77.05602216666666, "is_reserved": 0, "is_disabled": 0, "name": "fb80877a4575cdf43335db588b5b7352"}, {"rental_uris": {"android": "https://dc.lft.to/lastmile_qr_scan", "ios": "https://dc.lft.to/lastmile_qr_scan"}, "lat": 38.9073615, "fusion_lon": 0.0, "fusion_lat": 0.0, "type": "electric_scooter", "bike_id": "33e3926ee9846cc00d20c94dfc9ad818", "lon": -77.02799883333333, "is_reserved": 0, "is_disabled": 0, "name": "33e3926ee9846cc00d20c94dfc9ad818"}, {"rental_uris": {"android": "https://dc.lft.to/lastmile_qr_scan", "ios": "https://dc.lft.to/lastmile_qr_scan"}, "lat": 38.955446333333335, "fusion_lon": 0.0, "fusion_lat": 0.0, "type": "electric_scooter", "bike_id": "806087c05f36a2309060596f37b6ab09", "lon": -77.02780766666666, "is_reserved": 0, "is_disabled": 0, "name": "806087c05f36a2309060596f37b6ab09"}, {"rental_uris": {"android": "https://dc.lft.to/lastmile_qr_scan", "ios": "https://dc.lft.to/lastmile_qr_scan"}, "lat": 38.9237285, "fusion_lon": 0.0, "fusion_lat": 0.0, "type": "electric_scooter", "bike_id": "c82f604d752c54cd6159e490f4caf3c3", "lon": -77.02061866666666, "is_reserved": 0, "is_disabled": 0, "name": "c82f604d752c54cd6159e490f4caf3c3"}, {"rental_uris": {"android": "https://dc.lft.to/lastmile_qr_scan", "ios": "https://dc.lft.to/lastmile_qr_scan"}, "lat": 38.8802845, "fusion_lon": 0.0, "fusion_lat": 0.0, "type": "electric_bike", "bike_id": "0ae4abdb6c1bbf3fb80125e4cd952fe7", "lon": -76.91717783333333, "is_reserved": 0, "is_disabled": 0, "name": "0ae4abdb6c1bbf3fb80125e4cd952fe7"}, {"rental_uris": {"android": "https://dc.lft.to/lastmile_qr_scan", "ios": "https://dc.lft.to/lastmile_qr_scan"}, "lat": 38.905458, "fusion_lon": 0.0, "fusion_lat": 0.0, "type": "electric_scooter", "bike_id": "94898ac436888431aa02a7582b7d4f54", "lon": -77.047562, "is_reserved": 0, "is_disabled": 0, "name": "94898ac436888431aa02a7582b7d4f54"}, {"rental_uris": {"android": "https://dc.lft.to/lastmile_qr_scan", "ios": "https://dc.lft.to/lastmile_qr_scan"}, "lat": 38.9166895, "fusion_lon": 0.0, "fusion_lat": 0.0, "type": "electric_scooter", "bike_id": "d07efee0c9a99515521061470613cc93", "lon": -77.00438833333334, "is_reserved": 0, "is_disabled": 0, "name": "d07efee0c9a99515521061470613cc93"}, {"rental_uris": {"android": "https://dc.lft.to/lastmile_qr_scan", "ios": "https://dc.lft.to/lastmile_qr_scan"}, "lat": 38.92868766666667, "fusion_lon": 0.0, "fusion_lat": 0.0, "type": "electric_scooter", "bike_id": "99eac8c54397ff21be34d5b042b41819", "lon": -77.0347755, "is_reserved": 0, "is_disabled": 0, "name": "99eac8c54397ff21be34d5b042b41819"}, {"rental_uris": {"android": "https://dc.lft.to/lastmile_qr_scan", "ios": "https://dc.lft.to/lastmile_qr_scan"}, "lat": 38.89959733333333, "fusion_lon": 0.0, "fusion_lat": 0.0, "type": "electric_scooter", "bike_id": "672423da28019a6c95fa2cebb891517b", "lon": -77.01413466666666, "is_reserved": 0, "is_disabled": 0, "name": "672423da28019a6c95fa2cebb891517b"}, {"rental_uris": {"android": "https://dc.lft.to/lastmile_qr_scan", "ios": "https://dc.lft.to/lastmile_qr_scan"}, "lat": 38.90171183333333, "fusion_lon": 0.0, "fusion_lat": 0.0, "type": "electric_scooter", "bike_id": "20b7a67dd55fc3aca5d5a694ff63c81e", "lon": -77.05312916666666, "is_reserved": 0, "is_disabled": 0, "name": "20b7a67dd55fc3aca5d5a694ff63c81e"}, {"rental_uris": {"android": "https://dc.lft.to/lastmile_qr_scan", "ios": "https://dc.lft.to/lastmile_qr_scan"}, "lat": 38.90978466666667, "fusion_lon": 0.0, "fusion_lat": 0.0, "type": "electric_scooter", "bike_id": "78e16525a9f21c28b573d5f9d585f11f", "lon": -77.04456616666667, "is_reserved": 0, "is_disabled": 0, "name": "78e16525a9f21c28b573d5f9d585f11f"}, {"rental_uris": {"android": "https://dc.lft.to/lastmile_qr_scan", "ios": "https://dc.lft.to/lastmile_qr_scan"}, "lat": 38.8961855, "fusion_lon": 0.0, "fusion_lat": 0.0, "type": "electric_bike", "bike_id": "a9b869ff0ec144c820e719d031f3eb5e", "lon": -76.90747366666666, "is_reserved": 0, "is_disabled": 0, "name": "a9b869ff0ec144c820e719d031f3eb5e"}, {"rental_uris": {"android": "https://dc.lft.to/lastmile_qr_scan", "ios": "https://dc.lft.to/lastmile_qr_scan"}, "lat": 38.92654683333333, "fusion_lon": 0.0, "fusion_lat": 0.0, "type": "electric_scooter", "bike_id": "150a7c3510fc8de1a62bcc672bbd796b", "lon": -77.03711283333334, "is_reserved": 0, "is_disabled": 0, "name": "150a7c3510fc8de1a62bcc672bbd796b"}, {"rental_uris": {"android": "https://dc.lft.to/lastmile_qr_scan", "ios": "https://dc.lft.to/lastmile_qr_scan"}, "lat": 38.89748083333333, "fusion_lon": 0.0, "fusion_lat": 0.0, "type": "electric_scooter", "bike_id": "728a0743c6caf5f0450c0a138757e93a", "lon": -77.02680616666666, "is_reserved": 0, "is_disabled": 0, "name": "728a0743c6caf5f0450c0a138757e93a"}, {"rental_uris": {"android": "https://dc.lft.to/lastmile_qr_scan", "ios": "https://dc.lft.to/lastmile_qr_scan"}, "lat": 38.92256833333333, "fusion_lon": 0.0, "fusion_lat": 0.0, "type": "electric_scooter", "bike_id": "82643cffc23cf9711b507f8a471206e4", "lon": -77.019289, "is_reserved": 0, "is_disabled": 0, "name": "82643cffc23cf9711b507f8a471206e4"}, {"rental_uris": {"android": "https://dc.lft.to/lastmile_qr_scan", "ios": "https://dc.lft.to/lastmile_qr_scan"}, "lat": 38.95415416666667, "fusion_lon": 0.0, "fusion_lat": 0.0, "type": "electric_scooter", "bike_id": "a31af7a2b397cd91506209b218dcccdf", "lon": -77.0275355, "is_reserved": 0, "is_disabled": 0, "name": "a31af7a2b397cd91506209b218dcccdf"}, {"rental_uris": {"android": "https://dc.lft.to/lastmile_qr_scan", "ios": "https://dc.lft.to/lastmile_qr_scan"}, "lat": 38.9307065, "fusion_lon": 0.0, "fusion_lat": 0.0, "type": "electric_scooter", "bike_id": "b747a390c2cb0fd75c8279922f7037f4", "lon": -77.03799833333333, "is_reserved": 0, "is_disabled": 0, "name": "b747a390c2cb0fd75c8279922f7037f4"}, {"rental_uris": {"android": "https://dc.lft.to/lastmile_qr_scan", "ios": "https://dc.lft.to/lastmile_qr_scan"}, "lat": 38.875465166666665, "fusion_lon": 0.0, "fusion_lat": 0.0, "type": "electric_scooter", "bike_id": "077ac83a38bfb5e12571a38d4d13764f", "lon": -77.00534416666666, "is_reserved": 0, "is_disabled": 0, "name": "077ac83a38bfb5e12571a38d4d13764f"}, {"rental_uris": {"android": "https://dc.lft.to/lastmile_qr_scan", "ios": "https://dc.lft.to/lastmile_qr_scan"}, "lat": 38.89840783333333, "fusion_lon": 0.0, "fusion_lat": 0.0, "type": "electric_scooter", "bike_id": "8f56f6b571f8fadca272f796cc347560", "lon": -77.04340466666666, "is_reserved": 0, "is_disabled": 0, "name": "8f56f6b571f8fadca272f796cc347560"}, {"rental_uris": {"android": "https://dc.lft.to/lastmile_qr_scan", "ios": "https://dc.lft.to/lastmile_qr_scan"}, "lat": 38.913512833333336, "fusion_lon": 0.0, "fusion_lat": 0.0, "type": "electric_scooter", "bike_id": "f721738ec7231fd87704cd81ff665a28", "lon": -76.9713665, "is_reserved": 0, "is_disabled": 0, "name": "f721738ec7231fd87704cd81ff665a28"}, {"rental_uris": {"android": "https://dc.lft.to/lastmile_qr_scan", "ios": "https://dc.lft.to/lastmile_qr_scan"}, "lat": 38.99228683333333, "fusion_lon": 0.0, "fusion_lat": 0.0, "type": "electric_bike", "bike_id": "474e64b5d79d12589fdac3b4682f4525", "lon": -77.06527366666667, "is_reserved": 0, "is_disabled": 0, "name": "474e64b5d79d12589fdac3b4682f4525"}, {"rental_uris": {"android": "https://dc.lft.to/lastmile_qr_scan", "ios": "https://dc.lft.to/lastmile_qr_scan"}, "lat": 38.925987, "fusion_lon": 0.0, "fusion_lat": 0.0, "type": "electric_scooter", "bike_id": "565d63018d37774f77d6e926c1defa58", "lon": -77.0246955, "is_reserved": 0, "is_disabled": 0, "name": "565d63018d37774f77d6e926c1defa58"}, {"rental_uris": {"android": "https://dc.lft.to/lastmile_qr_scan", "ios": "https://dc.lft.to/lastmile_qr_scan"}, "lat": 38.897367, "fusion_lon": 0.0, "fusion_lat": 0.0, "type": "electric_scooter", "bike_id": "7c276c207ea0e906b75f92776c37f44e", "lon": -77.02685983333333, "is_reserved": 0, "is_disabled": 0, "name": "7c276c207ea0e906b75f92776c37f44e"}, {"rental_uris": {"android": "https://dc.lft.to/lastmile_qr_scan", "ios": "https://dc.lft.to/lastmile_qr_scan"}, "lat": 38.8842725, "fusion_lon": 0.0, "fusion_lat": 0.0, "type": "electric_scooter", "bike_id": "59ea59c2739b01f90c4d03628addecfe", "lon": -76.99680733333334, "is_reserved": 0, "is_disabled": 0, "name": "59ea59c2739b01f90c4d03628addecfe"}, {"rental_uris": {"android": "https://dc.lft.to/lastmile_qr_scan", "ios": "https://dc.lft.to/lastmile_qr_scan"}, "lat": 38.981997666666665, "fusion_lon": 0.0, "fusion_lat": 0.0, "type": "electric_bike", "bike_id": "21e577e0dbce186b5259c4e97c5fa17f", "lon": -77.09666, "is_reserved": 0, "is_disabled": 0, "name": "21e577e0dbce186b5259c4e97c5fa17f"}, {"rental_uris": {"android": "https://dc.lft.to/lastmile_qr_scan", "ios": "https://dc.lft.to/lastmile_qr_scan"}, "lat": 38.9291435, "fusion_lon": 0.0, "fusion_lat": 0.0, "type": "electric_scooter", "bike_id": "3c56500a2e113b8ab23de2ab9dd64b32", "lon": -77.02192033333333, "is_reserved": 0, "is_disabled": 0, "name": "3c56500a2e113b8ab23de2ab9dd64b32"}, {"rental_uris": {"android": "https://dc.lft.to/lastmile_qr_scan", "ios": "https://dc.lft.to/lastmile_qr_scan"}, "lat": 38.888931166666666, "fusion_lon": 0.0, "fusion_lat": 0.0, "type": "electric_scooter", "bike_id": "c841dcda42fe8baec859f6484847ed04", "lon": -77.01506033333334, "is_reserved": 0, "is_disabled": 0, "name": "c841dcda42fe8baec859f6484847ed04"}, {"rental_uris": {"android": "https://dc.lft.to/lastmile_qr_scan", "ios": "https://dc.lft.to/lastmile_qr_scan"}, "lat": 38.88595216666667, "fusion_lon": 0.0, "fusion_lat": 0.0, "type": "electric_scooter", "bike_id": "2b5bb31b4715dbffaf506f2d37b44c11", "lon": -77.01177683333333, "is_reserved": 0, "is_disabled": 0, "name": "2b5bb31b4715dbffaf506f2d37b44c11"}, {"rental_uris": {"android": "https://dc.lft.to/lastmile_qr_scan", "ios": "https://dc.lft.to/lastmile_qr_scan"}, "lat": 38.894043833333335, "fusion_lon": 0.0, "fusion_lat": 0.0, "type": "electric_scooter", "bike_id": "673e4759c314509799565be9b40e2dd9", "lon": -77.02167, "is_reserved": 0, "is_disabled": 0, "name": "673e4759c314509799565be9b40e2dd9"}, {"rental_uris": {"android": "https://dc.lft.to/lastmile_qr_scan", "ios": "https://dc.lft.to/lastmile_qr_scan"}, "lat": 38.8655925, "fusion_lon": 0.0, "fusion_lat": 0.0, "type": "electric_bike", "bike_id": "cda7a43f9b4d696f28dadc1b8507cdad", "lon": -76.97342966666666, "is_reserved": 0, "is_disabled": 0, "name": "cda7a43f9b4d696f28dadc1b8507cdad"}, {"rental_uris": {"android": "https://dc.lft.to/lastmile_qr_scan", "ios": "https://dc.lft.to/lastmile_qr_scan"}, "lat": 38.92887016666667, "fusion_lon": 0.0, "fusion_lat": 0.0, "type": "electric_scooter", "bike_id": "a540164b9fd8827fd7feea00619b58e2", "lon": -77.03241366666667, "is_reserved": 0, "is_disabled": 0, "name": "a540164b9fd8827fd7feea00619b58e2"}, {"rental_uris": {"android": "https://dc.lft.to/lastmile_qr_scan", "ios": "https://dc.lft.to/lastmile_qr_scan"}, "lat": 38.9287345, "fusion_lon": 0.0, "fusion_lat": 0.0, "type": "electric_scooter", "bike_id": "6ac81723f0064b6b91be629929bd1bd7", "lon": -77.01361, "is_reserved": 0, "is_disabled": 0, "name": "6ac81723f0064b6b91be629929bd1bd7"}, {"rental_uris": {"android": "https://dc.lft.to/lastmile_qr_scan", "ios": "https://dc.lft.to/lastmile_qr_scan"}, "lat": 38.904653, "fusion_lon": 0.0, "fusion_lat": 0.0, "type": "electric_scooter", "bike_id": "d428e09b40dbefbafe1d2c4f93902317", "lon": -77.04477616666667, "is_reserved": 0, "is_disabled": 0, "name": "d428e09b40dbefbafe1d2c4f93902317"}, {"rental_uris": {"android": "https://dc.lft.to/lastmile_qr_scan", "ios": "https://dc.lft.to/lastmile_qr_scan"}, "lat": 38.90982366666667, "fusion_lon": 0.0, "fusion_lat": 0.0, "type": "electric_bike", "bike_id": "3d7237c5c54ff6182bf37460c47fb8a0", "lon": -77.06484983333333, "is_reserved": 0, "is_disabled": 0, "name": "3d7237c5c54ff6182bf37460c47fb8a0"}, {"rental_uris": {"android": "https://dc.lft.to/lastmile_qr_scan", "ios": "https://dc.lft.to/lastmile_qr_scan"}, "lat": 38.83786933333333, "fusion_lon": 0.0, "fusion_lat": 0.0, "type": "electric_bike", "bike_id": "8ee56f8d68017db935cff8cf34e49276", "lon": -77.09349133333333, "is_reserved": 0, "is_disabled": 0, "name": "8ee56f8d68017db935cff8cf34e49276"}, {"rental_uris": {"android": "https://dc.lft.to/lastmile_qr_scan", "ios": "https://dc.lft.to/lastmile_qr_scan"}, "lat": 38.924507, "fusion_lon": 0.0, "fusion_lat": 0.0, "type": "electric_scooter", "bike_id": "c2127f89462b7d4c6cf97670233f1b34", "lon": -77.0203485, "is_reserved": 0, "is_disabled": 0, "name": "c2127f89462b7d4c6cf97670233f1b34"}, {"rental_uris": {"android": "https://dc.lft.to/lastmile_qr_scan", "ios": "https://dc.lft.to/lastmile_qr_scan"}, "lat": 38.88999733333333, "fusion_lon": 0.0, "fusion_lat": 0.0, "type": "electric_scooter", "bike_id": "d7938ec5408404ec05d380b6ff614e01", "lon": -77.04892466666666, "is_reserved": 0, "is_disabled": 0, "name": "d7938ec5408404ec05d380b6ff614e01"}, {"rental_uris": {"android": "https://dc.lft.to/lastmile_qr_scan", "ios": "https://dc.lft.to/lastmile_qr_scan"}, "lat": 38.90029116666667, "fusion_lon": 0.0, "fusion_lat": 0.0, "type": "electric_scooter", "bike_id": "d28e435332310575b0b00089393f82b2", "lon": -76.9885945, "is_reserved": 0, "is_disabled": 0, "name": "d28e435332310575b0b00089393f82b2"}, {"rental_uris": {"android": "https://dc.lft.to/lastmile_qr_scan", "ios": "https://dc.lft.to/lastmile_qr_scan"}, "lat": 38.915365, "fusion_lon": 0.0, "fusion_lat": 0.0, "type": "electric_scooter", "bike_id": "5d28a85906dde358fa2ad2a832de9aef", "lon": -77.04464833333333, "is_reserved": 0, "is_disabled": 0, "name": "5d28a85906dde358fa2ad2a832de9aef"}, {"rental_uris": {"android": "https://dc.lft.to/lastmile_qr_scan", "ios": "https://dc.lft.to/lastmile_qr_scan"}, "lat": 38.90406733333333, "fusion_lon": 0.0, "fusion_lat": 0.0, "type": "electric_scooter", "bike_id": "abe4a948717af9f6176d4eebcacda26c", "lon": -77.04007166666666, "is_reserved": 0, "is_disabled": 0, "name": "abe4a948717af9f6176d4eebcacda26c"}, {"rental_uris": {"android": "https://dc.lft.to/lastmile_qr_scan", "ios": "https://dc.lft.to/lastmile_qr_scan"}, "lat": 38.9110335, "fusion_lon": 0.0, "fusion_lat": 0.0, "type": "electric_scooter", "bike_id": "398d0ea46e7e567757356eeb28600c69", "lon": -77.00288433333333, "is_reserved": 0, "is_disabled": 0, "name": "398d0ea46e7e567757356eeb28600c69"}, {"rental_uris": {"android": "https://dc.lft.to/lastmile_qr_scan", "ios": "https://dc.lft.to/lastmile_qr_scan"}, "lat": 38.9028775, "fusion_lon": 0.0, "fusion_lat": 0.0, "type": "electric_scooter", "bike_id": "69b6200c31beb804fcd4ac9fc1e62cca", "lon": -77.00192716666666, "is_reserved": 0, "is_disabled": 0, "name": "69b6200c31beb804fcd4ac9fc1e62cca"}, {"rental_uris": {"android": "https://dc.lft.to/lastmile_qr_scan", "ios": "https://dc.lft.to/lastmile_qr_scan"}, "lat": 38.9041285, "fusion_lon": 0.0, "fusion_lat": 0.0, "type": "electric_scooter", "bike_id": "cff086093d304153f8d863a6cec28c3a", "lon": -76.97328916666666, "is_reserved": 0, "is_disabled": 0, "name": "cff086093d304153f8d863a6cec28c3a"}, {"rental_uris": {"android": "https://dc.lft.to/lastmile_qr_scan", "ios": "https://dc.lft.to/lastmile_qr_scan"}, "lat": 38.89136283333333, "fusion_lon": 0.0, "fusion_lat": 0.0, "type": "electric_scooter", "bike_id": "68f538bbdf188c7aeb42ad870fad2003", "lon": -76.99024716666666, "is_reserved": 0, "is_disabled": 0, "name": "68f538bbdf188c7aeb42ad870fad2003"}, {"rental_uris": {"android": "https://dc.lft.to/lastmile_qr_scan", "ios": "https://dc.lft.to/lastmile_qr_scan"}, "lat": 38.94460266666667, "fusion_lon": 0.0, "fusion_lat": 0.0, "type": "electric_scooter", "bike_id": "40ebc28950c6b5cb1c01cd0ebb062b7d", "lon": -77.0633445, "is_reserved": 0, "is_disabled": 0, "name": "40ebc28950c6b5cb1c01cd0ebb062b7d"}, {"rental_uris": {"android": "https://dc.lft.to/lastmile_qr_scan", "ios": "https://dc.lft.to/lastmile_qr_scan"}, "lat": 38.89746683333333, "fusion_lon": 0.0, "fusion_lat": 0.0, "type": "electric_scooter", "bike_id": "eb726bd844fe1f136ac79fe58599fc02", "lon": -77.0188245, "is_reserved": 0, "is_disabled": 0, "name": "eb726bd844fe1f136ac79fe58599fc02"}, {"rental_uris": {"android": "https://dc.lft.to/lastmile_qr_scan", "ios": "https://dc.lft.to/lastmile_qr_scan"}, "lat": 38.93688216666666, "fusion_lon": 0.0, "fusion_lat": 0.0, "type": "electric_scooter", "bike_id": "cc4d70e10859f5830898afc2c0dee532", "lon": -77.036299, "is_reserved": 0, "is_disabled": 0, "name": "cc4d70e10859f5830898afc2c0dee532"}, {"rental_uris": {"android": "https://dc.lft.to/lastmile_qr_scan", "ios": "https://dc.lft.to/lastmile_qr_scan"}, "lat": 38.93223866666666, "fusion_lon": 0.0, "fusion_lat": 0.0, "type": "electric_scooter", "bike_id": "6bfb324b628e827a6ba13e731b87ad85", "lon": -77.072851, "is_reserved": 0, "is_disabled": 0, "name": "6bfb324b628e827a6ba13e731b87ad85"}, {"rental_uris": {"android": "https://dc.lft.to/lastmile_qr_scan", "ios": "https://dc.lft.to/lastmile_qr_scan"}, "lat": 38.92069733333334, "fusion_lon": 0.0, "fusion_lat": 0.0, "type": "electric_scooter", "bike_id": "671678f8ba99651ba38c29a6fffae675", "lon": -77.01537133333333, "is_reserved": 0, "is_disabled": 0, "name": "671678f8ba99651ba38c29a6fffae675"}, {"rental_uris": {"android": "https://dc.lft.to/lastmile_qr_scan", "ios": "https://dc.lft.to/lastmile_qr_scan"}, "lat": 38.915988166666665, "fusion_lon": 0.0, "fusion_lat": 0.0, "type": "electric_scooter", "bike_id": "9069deea747dc729689b7b4f66ffad75", "lon": -77.049025, "is_reserved": 0, "is_disabled": 0, "name": "9069deea747dc729689b7b4f66ffad75"}, {"rental_uris": {"android": "https://dc.lft.to/lastmile_qr_scan", "ios": "https://dc.lft.to/lastmile_qr_scan"}, "lat": 38.87399116666667, "fusion_lon": 0.0, "fusion_lat": 0.0, "type": "electric_scooter", "bike_id": "a21cd5d2810c3478dc15dd069149f2e1", "lon": -77.00186133333334, "is_reserved": 0, "is_disabled": 0, "name": "a21cd5d2810c3478dc15dd069149f2e1"}, {"rental_uris": {"android": "https://dc.lft.to/lastmile_qr_scan", "ios": "https://dc.lft.to/lastmile_qr_scan"}, "lat": 38.924947333333336, "fusion_lon": 0.0, "fusion_lat": 0.0, "type": "electric_scooter", "bike_id": "3bc7c2b5c0278d79a6ba175cce67c5b7", "lon": -77.02175616666666, "is_reserved": 0, "is_disabled": 0, "name": "3bc7c2b5c0278d79a6ba175cce67c5b7"}, {"rental_uris": {"android": "https://dc.lft.to/lastmile_qr_scan", "ios": "https://dc.lft.to/lastmile_qr_scan"}, "lat": 38.89368566666667, "fusion_lon": 0.0, "fusion_lat": 0.0, "type": "electric_scooter", "bike_id": "b18cd56bba04762e93dad2e0c19472c8", "lon": -77.0032565, "is_reserved": 0, "is_disabled": 0, "name": "b18cd56bba04762e93dad2e0c19472c8"}, {"rental_uris": {"android": "https://dc.lft.to/lastmile_qr_scan", "ios": "https://dc.lft.to/lastmile_qr_scan"}, "lat": 38.898183333333336, "fusion_lon": 0.0, "fusion_lat": 0.0, "type": "electric_scooter", "bike_id": "71b40f8e66e8e983978257aa23b595d4", "lon": -77.01208283333334, "is_reserved": 0, "is_disabled": 0, "name": "71b40f8e66e8e983978257aa23b595d4"}, {"rental_uris": {"android": "https://dc.lft.to/lastmile_qr_scan", "ios": "https://dc.lft.to/lastmile_qr_scan"}, "lat": 38.907773166666665, "fusion_lon": 0.0, "fusion_lat": 0.0, "type": "electric_bike", "bike_id": "786e7abb11623abe1f3cf4a973c21377", "lon": -77.05700916666666, "is_reserved": 0, "is_disabled": 0, "name": "786e7abb11623abe1f3cf4a973c21377"}, {"rental_uris": {"android": "https://dc.lft.to/lastmile_qr_scan", "ios": "https://dc.lft.to/lastmile_qr_scan"}, "lat": 38.901380833333334, "fusion_lon": 0.0, "fusion_lat": 0.0, "type": "electric_scooter", "bike_id": "24bdfd6e1d025787efb4f5ccbe3d89e3", "lon": -77.01501366666666, "is_reserved": 0, "is_disabled": 0, "name": "24bdfd6e1d025787efb4f5ccbe3d89e3"}, {"rental_uris": {"android": "https://dc.lft.to/lastmile_qr_scan", "ios": "https://dc.lft.to/lastmile_qr_scan"}, "lat": 38.89475266666667, "fusion_lon": 0.0, "fusion_lat": 0.0, "type": "electric_scooter", "bike_id": "bf8eaa2a1f6290deb843a71d5bf48cbf", "lon": -77.01102966666667, "is_reserved": 0, "is_disabled": 0, "name": "bf8eaa2a1f6290deb843a71d5bf48cbf"}, {"rental_uris": {"android": "https://dc.lft.to/lastmile_qr_scan", "ios": "https://dc.lft.to/lastmile_qr_scan"}, "lat": 38.90803316666667, "fusion_lon": 0.0, "fusion_lat": 0.0, "type": "electric_scooter", "bike_id": "0d0a9c268eb7adc907192c9f3775220f", "lon": -77.039121, "is_reserved": 0, "is_disabled": 0, "name": "0d0a9c268eb7adc907192c9f3775220f"}, {"rental_uris": {"android": "https://dc.lft.to/lastmile_qr_scan", "ios": "https://dc.lft.to/lastmile_qr_scan"}, "lat": 38.892237333333334, "fusion_lon": 0.0, "fusion_lat": 0.0, "type": "electric_scooter", "bike_id": "99be4660fc95eef76f3bd80e59061c1a", "lon": -77.04686166666667, "is_reserved": 0, "is_disabled": 0, "name": "99be4660fc95eef76f3bd80e59061c1a"}, {"rental_uris": {"android": "https://dc.lft.to/lastmile_qr_scan", "ios": "https://dc.lft.to/lastmile_qr_scan"}, "lat": 38.92635966666667, "fusion_lon": 0.0, "fusion_lat": 0.0, "type": "electric_scooter", "bike_id": "2e772fbcbd24e610e2d1d1833ca5d1b2", "lon": -77.01340633333334, "is_reserved": 0, "is_disabled": 0, "name": "2e772fbcbd24e610e2d1d1833ca5d1b2"}, {"rental_uris": {"android": "https://dc.lft.to/lastmile_qr_scan", "ios": "https://dc.lft.to/lastmile_qr_scan"}, "lat": 38.924672666666666, "fusion_lon": 0.0, "fusion_lat": 0.0, "type": "electric_scooter", "bike_id": "5c192f59f851535f902e7627ddf86151", "lon": -77.05235583333334, "is_reserved": 0, "is_disabled": 0, "name": "5c192f59f851535f902e7627ddf86151"}, {"rental_uris": {"android": "https://dc.lft.to/lastmile_qr_scan", "ios": "https://dc.lft.to/lastmile_qr_scan"}, "lat": 38.876529166666664, "fusion_lon": 0.0, "fusion_lat": 0.0, "type": "electric_scooter", "bike_id": "5935cf4d8e58bb3ff9e061e2edb88d0b", "lon": -77.00449766666667, "is_reserved": 0, "is_disabled": 0, "name": "5935cf4d8e58bb3ff9e061e2edb88d0b"}, {"rental_uris": {"android": "https://dc.lft.to/lastmile_qr_scan", "ios": "https://dc.lft.to/lastmile_qr_scan"}, "lat": 38.8737865, "fusion_lon": 0.0, "fusion_lat": 0.0, "type": "electric_scooter", "bike_id": "da2039954d6ae2bfedff9d47dcc6c44b", "lon": -77.00130166666666, "is_reserved": 0, "is_disabled": 0, "name": "da2039954d6ae2bfedff9d47dcc6c44b"}, {"rental_uris": {"android": "https://dc.lft.to/lastmile_qr_scan", "ios": "https://dc.lft.to/lastmile_qr_scan"}, "lat": 38.983794, "fusion_lon": 0.0, "fusion_lat": 0.0, "type": "electric_bike", "bike_id": "bcb12ff30f1e337decaea74d5aba3650", "lon": -76.947174, "is_reserved": 0, "is_disabled": 0, "name": "bcb12ff30f1e337decaea74d5aba3650"}, {"rental_uris": {"android": "https://dc.lft.to/lastmile_qr_scan", "ios": "https://dc.lft.to/lastmile_qr_scan"}, "lat": 38.90960066666667, "fusion_lon": 0.0, "fusion_lat": 0.0, "type": "electric_scooter", "bike_id": "689bde34bd0a6d734e87e978801a6263", "lon": -77.007443, "is_reserved": 0, "is_disabled": 0, "name": "689bde34bd0a6d734e87e978801a6263"}, {"rental_uris": {"android": "https://dc.lft.to/lastmile_qr_scan", "ios": "https://dc.lft.to/lastmile_qr_scan"}, "lat": 38.924282833333336, "fusion_lon": 0.0, "fusion_lat": 0.0, "type": "electric_scooter", "bike_id": "92393b9dd0de9799eb44cf40ad48a508", "lon": -77.05167433333334, "is_reserved": 0, "is_disabled": 0, "name": "92393b9dd0de9799eb44cf40ad48a508"}, {"rental_uris": {"android": "https://dc.lft.to/lastmile_qr_scan", "ios": "https://dc.lft.to/lastmile_qr_scan"}, "lat": 38.86262166666667, "fusion_lon": 0.0, "fusion_lat": 0.0, "type": "electric_bike", "bike_id": "279953fe31d66cbf5ff898a1eb08ff44", "lon": -76.9834915, "is_reserved": 0, "is_disabled": 0, "name": "279953fe31d66cbf5ff898a1eb08ff44"}, {"rental_uris": {"android": "https://dc.lft.to/lastmile_qr_scan", "ios": "https://dc.lft.to/lastmile_qr_scan"}, "lat": 38.89219883333333, "fusion_lon": 0.0, "fusion_lat": 0.0, "type": "electric_scooter", "bike_id": "7c7d3af690b2e27ae0052055738c81a7", "lon": -77.02414916666666, "is_reserved": 0, "is_disabled": 0, "name": "7c7d3af690b2e27ae0052055738c81a7"}, {"rental_uris": {"android": "https://dc.lft.to/lastmile_qr_scan", "ios": "https://dc.lft.to/lastmile_qr_scan"}, "lat": 38.89968966666667, "fusion_lon": 0.0, "fusion_lat": 0.0, "type": "electric_scooter", "bike_id": "165ac4d65c3ff823d5c08fa6e604aefb", "lon": -76.9397245, "is_reserved": 0, "is_disabled": 0, "name": "165ac4d65c3ff823d5c08fa6e604aefb"}, {"rental_uris": {"android": "https://dc.lft.to/lastmile_qr_scan", "ios": "https://dc.lft.to/lastmile_qr_scan"}, "lat": 38.918049333333336, "fusion_lon": 0.0, "fusion_lat": 0.0, "type": "electric_scooter", "bike_id": "fd9cc85224273e17c4eb03176b37d018", "lon": -77.024305, "is_reserved": 0, "is_disabled": 0, "name": "fd9cc85224273e17c4eb03176b37d018"}, {"rental_uris": {"android": "https://dc.lft.to/lastmile_qr_scan", "ios": "https://dc.lft.to/lastmile_qr_scan"}, "lat": 38.92472183333334, "fusion_lon": 0.0, "fusion_lat": 0.0, "type": "electric_scooter", "bike_id": "fee0e9cb3cbd293e162a4f586bc740f2", "lon": -77.02212566666667, "is_reserved": 0, "is_disabled": 0, "name": "fee0e9cb3cbd293e162a4f586bc740f2"}, {"rental_uris": {"android": "https://dc.lft.to/lastmile_qr_scan", "ios": "https://dc.lft.to/lastmile_qr_scan"}, "lat": 38.892303166666665, "fusion_lon": 0.0, "fusion_lat": 0.0, "type": "electric_scooter", "bike_id": "7893511619269d6b9355b0aa588cab27", "lon": -77.049987, "is_reserved": 0, "is_disabled": 0, "name": "7893511619269d6b9355b0aa588cab27"}, {"rental_uris": {"android": "https://dc.lft.to/lastmile_qr_scan", "ios": "https://dc.lft.to/lastmile_qr_scan"}, "lat": 38.926918666666666, "fusion_lon": 0.0, "fusion_lat": 0.0, "type": "electric_scooter", "bike_id": "c29b6694b1c51f7f50713d31e23f9a8b", "lon": -77.014588, "is_reserved": 0, "is_disabled": 0, "name": "c29b6694b1c51f7f50713d31e23f9a8b"}, {"rental_uris": {"android": "https://dc.lft.to/lastmile_qr_scan", "ios": "https://dc.lft.to/lastmile_qr_scan"}, "lat": 38.86579966666667, "fusion_lon": 0.0, "fusion_lat": 0.0, "type": "electric_bike", "bike_id": "585eab4dee379c5f49a79289bc341921", "lon": -77.12931016666667, "is_reserved": 0, "is_disabled": 0, "name": "585eab4dee379c5f49a79289bc341921"}, {"rental_uris": {"android": "https://dc.lft.to/lastmile_qr_scan", "ios": "https://dc.lft.to/lastmile_qr_scan"}, "lat": 38.903537, "fusion_lon": 0.0, "fusion_lat": 0.0, "type": "electric_scooter", "bike_id": "dd710764dfbbb991dd4f7908d92bec3c", "lon": -76.98611316666667, "is_reserved": 0, "is_disabled": 0, "name": "dd710764dfbbb991dd4f7908d92bec3c"}, {"rental_uris": {"android": "https://dc.lft.to/lastmile_qr_scan", "ios": "https://dc.lft.to/lastmile_qr_scan"}, "lat": 38.888230166666666, "fusion_lon": 0.0, "fusion_lat": 0.0, "type": "electric_scooter", "bike_id": "7ad08e11a01330f511ad6907d74c095e", "lon": -76.97720483333333, "is_reserved": 0, "is_disabled": 0, "name": "7ad08e11a01330f511ad6907d74c095e"}, {"rental_uris": {"android": "https://dc.lft.to/lastmile_qr_scan", "ios": "https://dc.lft.to/lastmile_qr_scan"}, "lat": 38.9228985, "fusion_lon": 0.0, "fusion_lat": 0.0, "type": "electric_scooter", "bike_id": "fe6d7fdd5fc398e4e88ff9047aadada7", "lon": -77.02069, "is_reserved": 0, "is_disabled": 0, "name": "fe6d7fdd5fc398e4e88ff9047aadada7"}, {"rental_uris": {"android": "https://dc.lft.to/lastmile_qr_scan", "ios": "https://dc.lft.to/lastmile_qr_scan"}, "lat": 38.919854666666666, "fusion_lon": 0.0, "fusion_lat": 0.0, "type": "electric_scooter", "bike_id": "b24549c45336bf1185255ee55e3ed18b", "lon": -77.03798633333334, "is_reserved": 0, "is_disabled": 0, "name": "b24549c45336bf1185255ee55e3ed18b"}, {"rental_uris": {"android": "https://dc.lft.to/lastmile_qr_scan", "ios": "https://dc.lft.to/lastmile_qr_scan"}, "lat": 38.898582, "fusion_lon": 0.0, "fusion_lat": 0.0, "type": "electric_scooter", "bike_id": "481e7fc45cbb95264bba9be459301645", "lon": -77.0200285, "is_reserved": 0, "is_disabled": 0, "name": "481e7fc45cbb95264bba9be459301645"}, {"rental_uris": {"android": "https://dc.lft.to/lastmile_qr_scan", "ios": "https://dc.lft.to/lastmile_qr_scan"}, "lat": 38.89978833333333, "fusion_lon": 0.0, "fusion_lat": 0.0, "type": "electric_scooter", "bike_id": "d436df5e5ac85005929956bcba9a0b27", "lon": -76.99141733333333, "is_reserved": 0, "is_disabled": 0, "name": "d436df5e5ac85005929956bcba9a0b27"}, {"rental_uris": {"android": "https://dc.lft.to/lastmile_qr_scan", "ios": "https://dc.lft.to/lastmile_qr_scan"}, "lat": 38.90585766666667, "fusion_lon": 0.0, "fusion_lat": 0.0, "type": "electric_scooter", "bike_id": "6d5ce83d6a834f0e8415d8d467cf6ea9", "lon": -76.98540216666666, "is_reserved": 0, "is_disabled": 0, "name": "6d5ce83d6a834f0e8415d8d467cf6ea9"}, {"rental_uris": {"android": "https://dc.lft.to/lastmile_qr_scan", "ios": "https://dc.lft.to/lastmile_qr_scan"}, "lat": 38.89715366666667, "fusion_lon": 0.0, "fusion_lat": 0.0, "type": "electric_scooter", "bike_id": "1d9b85903367681ff8462f67840a3da8", "lon": -77.03294533333333, "is_reserved": 0, "is_disabled": 0, "name": "1d9b85903367681ff8462f67840a3da8"}, {"rental_uris": {"android": "https://dc.lft.to/lastmile_qr_scan", "ios": "https://dc.lft.to/lastmile_qr_scan"}, "lat": 38.90710983333334, "fusion_lon": 0.0, "fusion_lat": 0.0, "type": "electric_scooter", "bike_id": "d7c03e5f55ef1006d4cc0ad839398644", "lon": -77.0032025, "is_reserved": 0, "is_disabled": 0, "name": "d7c03e5f55ef1006d4cc0ad839398644"}, {"rental_uris": {"android": "https://dc.lft.to/lastmile_qr_scan", "ios": "https://dc.lft.to/lastmile_qr_scan"}, "lat": 38.878969166666664, "fusion_lon": 0.0, "fusion_lat": 0.0, "type": "electric_scooter", "bike_id": "51bc7d534d5c4bef3b2cc8ef8bcf29f5", "lon": -76.935242, "is_reserved": 0, "is_disabled": 0, "name": "51bc7d534d5c4bef3b2cc8ef8bcf29f5"}, {"rental_uris": {"android": "https://dc.lft.to/lastmile_qr_scan", "ios": "https://dc.lft.to/lastmile_qr_scan"}, "lat": 38.939891, "fusion_lon": 0.0, "fusion_lat": 0.0, "type": "electric_scooter", "bike_id": "ec77736262ee479b75f680f7440ac53d", "lon": -77.0231415, "is_reserved": 0, "is_disabled": 0, "name": "ec77736262ee479b75f680f7440ac53d"}, {"rental_uris": {"android": "https://dc.lft.to/lastmile_qr_scan", "ios": "https://dc.lft.to/lastmile_qr_scan"}, "lat": 38.884916, "fusion_lon": 0.0, "fusion_lat": 0.0, "type": "electric_scooter", "bike_id": "c6b929d9263a73f14631c9336e640f5f", "lon": -77.007109, "is_reserved": 0, "is_disabled": 0, "name": "c6b929d9263a73f14631c9336e640f5f"}, {"rental_uris": {"android": "https://dc.lft.to/lastmile_qr_scan", "ios": "https://dc.lft.to/lastmile_qr_scan"}, "lat": 38.92364, "fusion_lon": 0.0, "fusion_lat": 0.0, "type": "electric_scooter", "bike_id": "a4d210e6a75df958237f8e03f045d5c6", "lon": -77.07229, "is_reserved": 0, "is_disabled": 0, "name": "a4d210e6a75df958237f8e03f045d5c6"}, {"rental_uris": {"android": "https://dc.lft.to/lastmile_qr_scan", "ios": "https://dc.lft.to/lastmile_qr_scan"}, "lat": 38.90465233333333, "fusion_lon": 0.0, "fusion_lat": 0.0, "type": "electric_scooter", "bike_id": "ad77aaa44a3536f5c7af53b551ac25fb", "lon": -77.04856733333334, "is_reserved": 0, "is_disabled": 0, "name": "ad77aaa44a3536f5c7af53b551ac25fb"}, {"rental_uris": {"android": "https://dc.lft.to/lastmile_qr_scan", "ios": "https://dc.lft.to/lastmile_qr_scan"}, "lat": 38.96733583333334, "fusion_lon": 0.0, "fusion_lat": 0.0, "type": "electric_scooter", "bike_id": "fed3aab1f113c8d0488ef1f9ab8d54e6", "lon": -77.02528516666666, "is_reserved": 0, "is_disabled": 0, "name": "fed3aab1f113c8d0488ef1f9ab8d54e6"}, {"rental_uris": {"android": "https://dc.lft.to/lastmile_qr_scan", "ios": "https://dc.lft.to/lastmile_qr_scan"}, "lat": 38.905976833333334, "fusion_lon": 0.0, "fusion_lat": 0.0, "type": "electric_scooter", "bike_id": "0677af9a62eec50485b7644fc4120a8a", "lon": -77.00588016666667, "is_reserved": 0, "is_disabled": 0, "name": "0677af9a62eec50485b7644fc4120a8a"}, {"rental_uris": {"android": "https://dc.lft.to/lastmile_qr_scan", "ios": "https://dc.lft.to/lastmile_qr_scan"}, "lat": 38.92909983333333, "fusion_lon": 0.0, "fusion_lat": 0.0, "type": "electric_scooter", "bike_id": "869356e0089172c67b84cdb08dfa8cad", "lon": -77.03480216666667, "is_reserved": 0, "is_disabled": 0, "name": "869356e0089172c67b84cdb08dfa8cad"}, {"rental_uris": {"android": "https://dc.lft.to/lastmile_qr_scan", "ios": "https://dc.lft.to/lastmile_qr_scan"}, "lat": 38.932664333333335, "fusion_lon": 0.0, "fusion_lat": 0.0, "type": "electric_bike", "bike_id": "b7cb66f4227412ae6975634c8ec2c6d6", "lon": -77.06563133333333, "is_reserved": 0, "is_disabled": 0, "name": "b7cb66f4227412ae6975634c8ec2c6d6"}, {"rental_uris": {"android": "https://dc.lft.to/lastmile_qr_scan", "ios": "https://dc.lft.to/lastmile_qr_scan"}, "lat": 38.939882, "fusion_lon": 0.0, "fusion_lat": 0.0, "type": "electric_scooter", "bike_id": "d5952fc806d41dad66eca991d9c950ea", "lon": -77.02314016666666, "is_reserved": 0, "is_disabled": 0, "name": "d5952fc806d41dad66eca991d9c950ea"}, {"rental_uris": {"android": "https://dc.lft.to/lastmile_qr_scan", "ios": "https://dc.lft.to/lastmile_qr_scan"}, "lat": 38.89604116666667, "fusion_lon": 0.0, "fusion_lat": 0.0, "type": "electric_scooter", "bike_id": "1af43598166d6f54c9945a8b0e16fc47", "lon": -77.02715366666666, "is_reserved": 0, "is_disabled": 0, "name": "1af43598166d6f54c9945a8b0e16fc47"}, {"rental_uris": {"android": "https://dc.lft.to/lastmile_qr_scan", "ios": "https://dc.lft.to/lastmile_qr_scan"}, "lat": 38.8984885, "fusion_lon": 0.0, "fusion_lat": 0.0, "type": "electric_scooter", "bike_id": "f79069d892f060a473f7aafa3e665314", "lon": -77.0436935, "is_reserved": 0, "is_disabled": 0, "name": "f79069d892f060a473f7aafa3e665314"}, {"rental_uris": {"android": "https://dc.lft.to/lastmile_qr_scan", "ios": "https://dc.lft.to/lastmile_qr_scan"}, "lat": 38.910501333333336, "fusion_lon": 0.0, "fusion_lat": 0.0, "type": "electric_scooter", "bike_id": "f451336931e594acbad937b45cf38994", "lon": -77.06457316666666, "is_reserved": 0, "is_disabled": 0, "name": "f451336931e594acbad937b45cf38994"}, {"rental_uris": {"android": "https://dc.lft.to/lastmile_qr_scan", "ios": "https://dc.lft.to/lastmile_qr_scan"}, "lat": 38.9234815, "fusion_lon": 0.0, "fusion_lat": 0.0, "type": "electric_scooter", "bike_id": "24bbc8b8cd99a7d0656de3502d9db887", "lon": -77.04148016666667, "is_reserved": 0, "is_disabled": 0, "name": "24bbc8b8cd99a7d0656de3502d9db887"}, {"rental_uris": {"android": "https://dc.lft.to/lastmile_qr_scan", "ios": "https://dc.lft.to/lastmile_qr_scan"}, "lat": 38.904449666666665, "fusion_lon": 0.0, "fusion_lat": 0.0, "type": "electric_scooter", "bike_id": "6c361d08dc8ce11de9ed359a16f55188", "lon": -77.04347166666666, "is_reserved": 0, "is_disabled": 0, "name": "6c361d08dc8ce11de9ed359a16f55188"}, {"rental_uris": {"android": "https://dc.lft.to/lastmile_qr_scan", "ios": "https://dc.lft.to/lastmile_qr_scan"}, "lat": 38.922484833333336, "fusion_lon": 0.0, "fusion_lat": 0.0, "type": "electric_scooter", "bike_id": "84b77dc512b677933c41b08e97d37388", "lon": -77.03905983333334, "is_reserved": 0, "is_disabled": 0, "name": "84b77dc512b677933c41b08e97d37388"}, {"rental_uris": {"android": "https://dc.lft.to/lastmile_qr_scan", "ios": "https://dc.lft.to/lastmile_qr_scan"}, "lat": 38.908556833333336, "fusion_lon": 0.0, "fusion_lat": 0.0, "type": "electric_scooter", "bike_id": "5bcd7ee947cb09aa7fb4e07d1bb04b75", "lon": -77.0452365, "is_reserved": 0, "is_disabled": 0, "name": "5bcd7ee947cb09aa7fb4e07d1bb04b75"}, {"rental_uris": {"android": "https://dc.lft.to/lastmile_qr_scan", "ios": "https://dc.lft.to/lastmile_qr_scan"}, "lat": 38.89113033333334, "fusion_lon": 0.0, "fusion_lat": 0.0, "type": "electric_bike", "bike_id": "eba20af2436904309144d3e1228b6a94", "lon": -76.95197683333333, "is_reserved": 0, "is_disabled": 0, "name": "eba20af2436904309144d3e1228b6a94"}, {"rental_uris": {"android": "https://dc.lft.to/lastmile_qr_scan", "ios": "https://dc.lft.to/lastmile_qr_scan"}, "lat": 38.914999333333334, "fusion_lon": 0.0, "fusion_lat": 0.0, "type": "electric_scooter", "bike_id": "dc796d4a90f7cf8fd563ba60f79b8f00", "lon": -77.04554666666667, "is_reserved": 0, "is_disabled": 0, "name": "dc796d4a90f7cf8fd563ba60f79b8f00"}, {"rental_uris": {"android": "https://dc.lft.to/lastmile_qr_scan", "ios": "https://dc.lft.to/lastmile_qr_scan"}, "lat": 38.89191566666667, "fusion_lon": 0.0, "fusion_lat": 0.0, "type": "electric_scooter", "bike_id": "6a9c085d7abd4fc43c68d7dc82980175", "lon": -77.00221283333333, "is_reserved": 0, "is_disabled": 0, "name": "6a9c085d7abd4fc43c68d7dc82980175"}, {"rental_uris": {"android": "https://dc.lft.to/lastmile_qr_scan", "ios": "https://dc.lft.to/lastmile_qr_scan"}, "lat": 38.926370166666665, "fusion_lon": 0.0, "fusion_lat": 0.0, "type": "electric_scooter", "bike_id": "94dee5ab7ce387bb73deebc068d49b30", "lon": -77.02167166666666, "is_reserved": 0, "is_disabled": 0, "name": "94dee5ab7ce387bb73deebc068d49b30"}, {"rental_uris": {"android": "https://dc.lft.to/lastmile_qr_scan", "ios": "https://dc.lft.to/lastmile_qr_scan"}, "lat": 38.901243666666666, "fusion_lon": 0.0, "fusion_lat": 0.0, "type": "electric_scooter", "bike_id": "f096c4ef800188007806edb134acd6d9", "lon": -77.03943466666666, "is_reserved": 0, "is_disabled": 0, "name": "f096c4ef800188007806edb134acd6d9"}, {"rental_uris": {"android": "https://dc.lft.to/lastmile_qr_scan", "ios": "https://dc.lft.to/lastmile_qr_scan"}, "lat": 38.90500883333333, "fusion_lon": 0.0, "fusion_lat": 0.0, "type": "electric_scooter", "bike_id": "084e81deac11564c2a191b6702c60604", "lon": -77.0295145, "is_reserved": 0, "is_disabled": 0, "name": "084e81deac11564c2a191b6702c60604"}, {"rental_uris": {"android": "https://dc.lft.to/lastmile_qr_scan", "ios": "https://dc.lft.to/lastmile_qr_scan"}, "lat": 38.89603283333334, "fusion_lon": 0.0, "fusion_lat": 0.0, "type": "electric_scooter", "bike_id": "d9344a3b6b11d548938984389106463d", "lon": -77.04468583333333, "is_reserved": 0, "is_disabled": 0, "name": "d9344a3b6b11d548938984389106463d"}, {"rental_uris": {"android": "https://dc.lft.to/lastmile_qr_scan", "ios": "https://dc.lft.to/lastmile_qr_scan"}, "lat": 38.88858466666667, "fusion_lon": 0.0, "fusion_lat": 0.0, "type": "electric_scooter", "bike_id": "9266269e25aebbb91d8f862df27929ee", "lon": -76.937114, "is_reserved": 0, "is_disabled": 0, "name": "9266269e25aebbb91d8f862df27929ee"}, {"rental_uris": {"android": "https://dc.lft.to/lastmile_qr_scan", "ios": "https://dc.lft.to/lastmile_qr_scan"}, "lat": 38.90405483333333, "fusion_lon": 0.0, "fusion_lat": 0.0, "type": "electric_scooter", "bike_id": "145f443756b132dc49d2a5007eef0e87", "lon": -77.06788883333333, "is_reserved": 0, "is_disabled": 0, "name": "145f443756b132dc49d2a5007eef0e87"}, {"rental_uris": {"android": "https://dc.lft.to/lastmile_qr_scan", "ios": "https://dc.lft.to/lastmile_qr_scan"}, "lat": 38.897475, "fusion_lon": 0.0, "fusion_lat": 0.0, "type": "electric_scooter", "bike_id": "7eb300bde06a9004ce2e3abfc88e0f02", "lon": -77.02677716666666, "is_reserved": 0, "is_disabled": 0, "name": "7eb300bde06a9004ce2e3abfc88e0f02"}, {"rental_uris": {"android": "https://dc.lft.to/lastmile_qr_scan", "ios": "https://dc.lft.to/lastmile_qr_scan"}, "lat": 38.920758166666666, "fusion_lon": 0.0, "fusion_lat": 0.0, "type": "electric_scooter", "bike_id": "784326e10091f2f28329611253a8a9d1", "lon": -77.0236645, "is_reserved": 0, "is_disabled": 0, "name": "784326e10091f2f28329611253a8a9d1"}, {"rental_uris": {"android": "https://dc.lft.to/lastmile_qr_scan", "ios": "https://dc.lft.to/lastmile_qr_scan"}, "lat": 38.891593666666665, "fusion_lon": 0.0, "fusion_lat": 0.0, "type": "electric_scooter", "bike_id": "8d1fa33a2020839c71adcd1ad61d2dc9", "lon": -77.01501483333334, "is_reserved": 0, "is_disabled": 0, "name": "8d1fa33a2020839c71adcd1ad61d2dc9"}, {"rental_uris": {"android": "https://dc.lft.to/lastmile_qr_scan", "ios": "https://dc.lft.to/lastmile_qr_scan"}, "lat": 38.876424666666665, "fusion_lon": 0.0, "fusion_lat": 0.0, "type": "electric_scooter", "bike_id": "f2b82ea0ae4bff0275b44d30fa7cff60", "lon": -77.00385766666666, "is_reserved": 0, "is_disabled": 0, "name": "f2b82ea0ae4bff0275b44d30fa7cff60"}, {"rental_uris": {"android": "https://dc.lft.to/lastmile_qr_scan", "ios": "https://dc.lft.to/lastmile_qr_scan"}, "lat": 38.99529066666667, "fusion_lon": 0.0, "fusion_lat": 0.0, "type": "electric_bike", "bike_id": "a8afbce302f2ac5b64faf23f9cabcffa", "lon": -77.02867466666666, "is_reserved": 0, "is_disabled": 0, "name": "a8afbce302f2ac5b64faf23f9cabcffa"}, {"rental_uris": {"android": "https://dc.lft.to/lastmile_qr_scan", "ios": "https://dc.lft.to/lastmile_qr_scan"}, "lat": 38.8812685, "fusion_lon": 0.0, "fusion_lat": 0.0, "type": "electric_scooter", "bike_id": "b6b703ec5aca97b2f4f071a14e35d757", "lon": -76.99344333333333, "is_reserved": 0, "is_disabled": 0, "name": "b6b703ec5aca97b2f4f071a14e35d757"}, {"rental_uris": {"android": "https://dc.lft.to/lastmile_qr_scan", "ios": "https://dc.lft.to/lastmile_qr_scan"}, "lat": 39.002977333333334, "fusion_lon": 0.0, "fusion_lat": 0.0, "type": "electric_bike", "bike_id": "202eaaabd692253e60f1919ee31ff1fa", "lon": -76.90295683333333, "is_reserved": 0, "is_disabled": 0, "name": "202eaaabd692253e60f1919ee31ff1fa"}, {"rental_uris": {"android": "https://dc.lft.to/lastmile_qr_scan", "ios": "https://dc.lft.to/lastmile_qr_scan"}, "lat": 38.90803666666667, "fusion_lon": 0.0, "fusion_lat": 0.0, "type": "electric_scooter", "bike_id": "81dda1120e6756a783ace18498f4f4c2", "lon": -77.03188383333334, "is_reserved": 0, "is_disabled": 0, "name": "81dda1120e6756a783ace18498f4f4c2"}, {"rental_uris": {"android": "https://dc.lft.to/lastmile_qr_scan", "ios": "https://dc.lft.to/lastmile_qr_scan"}, "lat": 38.9102155, "fusion_lon": 0.0, "fusion_lat": 0.0, "type": "electric_scooter", "bike_id": "2534362fd0551a68a0c429b9be846af8", "lon": -77.03180666666667, "is_reserved": 0, "is_disabled": 0, "name": "2534362fd0551a68a0c429b9be846af8"}, {"rental_uris": {"android": "https://dc.lft.to/lastmile_qr_scan", "ios": "https://dc.lft.to/lastmile_qr_scan"}, "lat": 38.891732833333336, "fusion_lon": 0.0, "fusion_lat": 0.0, "type": "electric_scooter", "bike_id": "7d39084cc94183f7fcb4a19417ca3776", "lon": -77.0155085, "is_reserved": 0, "is_disabled": 0, "name": "7d39084cc94183f7fcb4a19417ca3776"}, {"rental_uris": {"android": "https://dc.lft.to/lastmile_qr_scan", "ios": "https://dc.lft.to/lastmile_qr_scan"}, "lat": 38.926171333333336, "fusion_lon": 0.0, "fusion_lat": 0.0, "type": "electric_scooter", "bike_id": "d98ffca6b7414ed8a808ea36ba3b5e49", "lon": -77.0419575, "is_reserved": 0, "is_disabled": 0, "name": "d98ffca6b7414ed8a808ea36ba3b5e49"}, {"rental_uris": {"android": "https://dc.lft.to/lastmile_qr_scan", "ios": "https://dc.lft.to/lastmile_qr_scan"}, "lat": 38.918735, "fusion_lon": 0.0, "fusion_lat": 0.0, "type": "electric_bike", "bike_id": "707bb2d8e713c7c138a274c792477453", "lon": -76.9643385, "is_reserved": 0, "is_disabled": 0, "name": "707bb2d8e713c7c138a274c792477453"}, {"rental_uris": {"android": "https://dc.lft.to/lastmile_qr_scan", "ios": "https://dc.lft.to/lastmile_qr_scan"}, "lat": 38.904653333333336, "fusion_lon": 0.0, "fusion_lat": 0.0, "type": "electric_scooter", "bike_id": "d8c29f3c36a9f8a72e78067f55f898b1", "lon": -77.04846983333333, "is_reserved": 0, "is_disabled": 0, "name": "d8c29f3c36a9f8a72e78067f55f898b1"}, {"rental_uris": {"android": "https://dc.lft.to/lastmile_qr_scan", "ios": "https://dc.lft.to/lastmile_qr_scan"}, "lat": 38.901428833333334, "fusion_lon": 0.0, "fusion_lat": 0.0, "type": "electric_scooter", "bike_id": "4922a7d35a07ac37e3508b5da5e30c38", "lon": -77.0228765, "is_reserved": 0, "is_disabled": 0, "name": "4922a7d35a07ac37e3508b5da5e30c38"}, {"rental_uris": {"android": "https://dc.lft.to/lastmile_qr_scan", "ios": "https://dc.lft.to/lastmile_qr_scan"}, "lat": 38.90534383333333, "fusion_lon": 0.0, "fusion_lat": 0.0, "type": "electric_scooter", "bike_id": "42c39a48052b3541a206963090265577", "lon": -77.05873166666667, "is_reserved": 0, "is_disabled": 0, "name": "42c39a48052b3541a206963090265577"}, {"rental_uris": {"android": "https://dc.lft.to/lastmile_qr_scan", "ios": "https://dc.lft.to/lastmile_qr_scan"}, "lat": 38.835917, "fusion_lon": 0.0, "fusion_lat": 0.0, "type": "electric_bike", "bike_id": "34b7738e3959af8df81931c4f6cb6e8a", "lon": -76.99019083333333, "is_reserved": 0, "is_disabled": 0, "name": "34b7738e3959af8df81931c4f6cb6e8a"}, {"rental_uris": {"android": "https://dc.lft.to/lastmile_qr_scan", "ios": "https://dc.lft.to/lastmile_qr_scan"}, "lat": 38.88653166666667, "fusion_lon": 0.0, "fusion_lat": 0.0, "type": "electric_scooter", "bike_id": "517500af2eb36ba3ab748ad5438fd96f", "lon": -77.02825816666666, "is_reserved": 0, "is_disabled": 0, "name": "517500af2eb36ba3ab748ad5438fd96f"}, {"rental_uris": {"android": "https://dc.lft.to/lastmile_qr_scan", "ios": "https://dc.lft.to/lastmile_qr_scan"}, "lat": 38.9673205, "fusion_lon": 0.0, "fusion_lat": 0.0, "type": "electric_bike", "bike_id": "d73515a121bd95fcb7e5b2eb5b6670b3", "lon": -77.089069, "is_reserved": 0, "is_disabled": 0, "name": "d73515a121bd95fcb7e5b2eb5b6670b3"}, {"rental_uris": {"android": "https://dc.lft.to/lastmile_qr_scan", "ios": "https://dc.lft.to/lastmile_qr_scan"}, "lat": 38.92788083333333, "fusion_lon": 0.0, "fusion_lat": 0.0, "type": "electric_scooter", "bike_id": "ff1f3f0ac790542bafaf63186ca1e75c", "lon": -77.015533, "is_reserved": 0, "is_disabled": 0, "name": "ff1f3f0ac790542bafaf63186ca1e75c"}, {"rental_uris": {"android": "https://dc.lft.to/lastmile_qr_scan", "ios": "https://dc.lft.to/lastmile_qr_scan"}, "lat": 38.92261883333333, "fusion_lon": 0.0, "fusion_lat": 0.0, "type": "electric_scooter", "bike_id": "af8a8766cef8db4f12d8546e74a2a2de", "lon": -77.01950133333334, "is_reserved": 0, "is_disabled": 0, "name": "af8a8766cef8db4f12d8546e74a2a2de"}, {"rental_uris": {"android": "https://dc.lft.to/lastmile_qr_scan", "ios": "https://dc.lft.to/lastmile_qr_scan"}, "lat": 38.9239455, "fusion_lon": 0.0, "fusion_lat": 0.0, "type": "electric_bike", "bike_id": "9fcc1de8edcec764834c1f18bbb070d9", "lon": -77.00000016666667, "is_reserved": 0, "is_disabled": 0, "name": "9fcc1de8edcec764834c1f18bbb070d9"}, {"rental_uris": {"android": "https://dc.lft.to/lastmile_qr_scan", "ios": "https://dc.lft.to/lastmile_qr_scan"}, "lat": 38.9004675, "fusion_lon": 0.0, "fusion_lat": 0.0, "type": "electric_scooter", "bike_id": "a1456474e2ea91ac665b965c7f7cbc4c", "lon": -77.03645666666667, "is_reserved": 0, "is_disabled": 0, "name": "a1456474e2ea91ac665b965c7f7cbc4c"}, {"rental_uris": {"android": "https://dc.lft.to/lastmile_qr_scan", "ios": "https://dc.lft.to/lastmile_qr_scan"}, "lat": 38.903941333333336, "fusion_lon": 0.0, "fusion_lat": 0.0, "type": "electric_scooter", "bike_id": "7ba2ea6058bae37f7191caef3eafeeb8", "lon": -77.063547, "is_reserved": 0, "is_disabled": 0, "name": "7ba2ea6058bae37f7191caef3eafeeb8"}, {"rental_uris": {"android": "https://dc.lft.to/lastmile_qr_scan", "ios": "https://dc.lft.to/lastmile_qr_scan"}, "lat": 38.905973, "fusion_lon": 0.0, "fusion_lat": 0.0, "type": "electric_scooter", "bike_id": "9ab30c4c5134876495fd7860484e8740", "lon": -77.05707016666666, "is_reserved": 0, "is_disabled": 0, "name": "9ab30c4c5134876495fd7860484e8740"}, {"rental_uris": {"android": "https://dc.lft.to/lastmile_qr_scan", "ios": "https://dc.lft.to/lastmile_qr_scan"}, "lat": 38.9086485, "fusion_lon": 0.0, "fusion_lat": 0.0, "type": "electric_scooter", "bike_id": "eae1c7b3860c9496fc20d881ff390369", "lon": -77.0183425, "is_reserved": 0, "is_disabled": 0, "name": "eae1c7b3860c9496fc20d881ff390369"}, {"rental_uris": {"android": "https://dc.lft.to/lastmile_qr_scan", "ios": "https://dc.lft.to/lastmile_qr_scan"}, "lat": 38.87892983333333, "fusion_lon": 0.0, "fusion_lat": 0.0, "type": "electric_scooter", "bike_id": "6692f474833f5a3301de9bb88e7e2294", "lon": -77.01386933333333, "is_reserved": 0, "is_disabled": 0, "name": "6692f474833f5a3301de9bb88e7e2294"}, {"rental_uris": {"android": "https://dc.lft.to/lastmile_qr_scan", "ios": "https://dc.lft.to/lastmile_qr_scan"}, "lat": 38.90254933333333, "fusion_lon": 0.0, "fusion_lat": 0.0, "type": "electric_scooter", "bike_id": "70f2a9848d647147985c0da3e2319fa2", "lon": -77.0260335, "is_reserved": 0, "is_disabled": 0, "name": "70f2a9848d647147985c0da3e2319fa2"}, {"rental_uris": {"android": "https://dc.lft.to/lastmile_qr_scan", "ios": "https://dc.lft.to/lastmile_qr_scan"}, "lat": 38.8924125, "fusion_lon": 0.0, "fusion_lat": 0.0, "type": "electric_scooter", "bike_id": "3ae9415e1ff19ff2bc12b7b515d865e5", "lon": -77.03182816666667, "is_reserved": 0, "is_disabled": 0, "name": "3ae9415e1ff19ff2bc12b7b515d865e5"}, {"rental_uris": {"android": "https://dc.lft.to/lastmile_qr_scan", "ios": "https://dc.lft.to/lastmile_qr_scan"}, "lat": 38.864906833333336, "fusion_lon": 0.0, "fusion_lat": 0.0, "type": "electric_bike", "bike_id": "aa35d297d1abf0f31beaa149be1d62f9", "lon": -76.97738316666667, "is_reserved": 0, "is_disabled": 0, "name": "aa35d297d1abf0f31beaa149be1d62f9"}, {"rental_uris": {"android": "https://dc.lft.to/lastmile_qr_scan", "ios": "https://dc.lft.to/lastmile_qr_scan"}, "lat": 38.91004183333333, "fusion_lon": 0.0, "fusion_lat": 0.0, "type": "electric_scooter", "bike_id": "90416f0d33cc66d14b07baceb6d86381", "lon": -77.04005033333334, "is_reserved": 0, "is_disabled": 0, "name": "90416f0d33cc66d14b07baceb6d86381"}, {"rental_uris": {"android": "https://dc.lft.to/lastmile_qr_scan", "ios": "https://dc.lft.to/lastmile_qr_scan"}, "lat": 38.92966033333333, "fusion_lon": 0.0, "fusion_lat": 0.0, "type": "electric_scooter", "bike_id": "663634ad154892a694cfe2864e83f663", "lon": -77.05521866666666, "is_reserved": 0, "is_disabled": 0, "name": "663634ad154892a694cfe2864e83f663"}, {"rental_uris": {"android": "https://dc.lft.to/lastmile_qr_scan", "ios": "https://dc.lft.to/lastmile_qr_scan"}, "lat": 38.9042035, "fusion_lon": 0.0, "fusion_lat": 0.0, "type": "electric_scooter", "bike_id": "5876af732a40d1cec4c549f47b1fe48c", "lon": -77.0533545, "is_reserved": 0, "is_disabled": 0, "name": "5876af732a40d1cec4c549f47b1fe48c"}, {"rental_uris": {"android": "https://dc.lft.to/lastmile_qr_scan", "ios": "https://dc.lft.to/lastmile_qr_scan"}, "lat": 38.917403, "fusion_lon": 0.0, "fusion_lat": 0.0, "type": "electric_scooter", "bike_id": "45ac18188378c9037998004f0f1be407", "lon": -77.0211675, "is_reserved": 0, "is_disabled": 0, "name": "45ac18188378c9037998004f0f1be407"}, {"rental_uris": {"android": "https://dc.lft.to/lastmile_qr_scan", "ios": "https://dc.lft.to/lastmile_qr_scan"}, "lat": 38.9098615, "fusion_lon": 0.0, "fusion_lat": 0.0, "type": "electric_scooter", "bike_id": "c252ecaa0b1a386cb53a8c552fff8f8e", "lon": -77.04658283333333, "is_reserved": 0, "is_disabled": 0, "name": "c252ecaa0b1a386cb53a8c552fff8f8e"}, {"rental_uris": {"android": "https://dc.lft.to/lastmile_qr_scan", "ios": "https://dc.lft.to/lastmile_qr_scan"}, "lat": 38.884340333333334, "fusion_lon": 0.0, "fusion_lat": 0.0, "type": "electric_scooter", "bike_id": "2d9066ad11fab0a7b6b07863efe27ef5", "lon": -77.00139866666666, "is_reserved": 0, "is_disabled": 0, "name": "2d9066ad11fab0a7b6b07863efe27ef5"}, {"rental_uris": {"android": "https://dc.lft.to/lastmile_qr_scan", "ios": "https://dc.lft.to/lastmile_qr_scan"}, "lat": 38.885056, "fusion_lon": 0.0, "fusion_lat": 0.0, "type": "electric_scooter", "bike_id": "998c6e022158f5d840a1280ca1aa4649", "lon": -77.01588516666666, "is_reserved": 0, "is_disabled": 0, "name": "998c6e022158f5d840a1280ca1aa4649"}, {"rental_uris": {"android": "https://dc.lft.to/lastmile_qr_scan", "ios": "https://dc.lft.to/lastmile_qr_scan"}, "lat": 38.89165833333333, "fusion_lon": 0.0, "fusion_lat": 0.0, "type": "electric_scooter", "bike_id": "6188bffa8c0594639f08715c72ac6270", "lon": -76.99146066666667, "is_reserved": 0, "is_disabled": 0, "name": "6188bffa8c0594639f08715c72ac6270"}, {"rental_uris": {"android": "https://dc.lft.to/lastmile_qr_scan", "ios": "https://dc.lft.to/lastmile_qr_scan"}, "lat": 38.916703166666665, "fusion_lon": 0.0, "fusion_lat": 0.0, "type": "electric_scooter", "bike_id": "f6bc2a468218ba1c1451b3ad1725449c", "lon": -77.05697866666667, "is_reserved": 0, "is_disabled": 0, "name": "f6bc2a468218ba1c1451b3ad1725449c"}, {"rental_uris": {"android": "https://dc.lft.to/lastmile_qr_scan", "ios": "https://dc.lft.to/lastmile_qr_scan"}, "lat": 38.956181, "fusion_lon": 0.0, "fusion_lat": 0.0, "type": "electric_scooter", "bike_id": "f3c0bc1ee8f906dcb0cb4e23a168e12e", "lon": -77.02761516666666, "is_reserved": 0, "is_disabled": 0, "name": "f3c0bc1ee8f906dcb0cb4e23a168e12e"}, {"rental_uris": {"android": "https://dc.lft.to/lastmile_qr_scan", "ios": "https://dc.lft.to/lastmile_qr_scan"}, "lat": 38.880868, "fusion_lon": 0.0, "fusion_lat": 0.0, "type": "electric_scooter", "bike_id": "6e0607100a4b24bcd29515c6a25f687e", "lon": -76.9950575, "is_reserved": 0, "is_disabled": 0, "name": "6e0607100a4b24bcd29515c6a25f687e"}, {"rental_uris": {"android": "https://dc.lft.to/lastmile_qr_scan", "ios": "https://dc.lft.to/lastmile_qr_scan"}, "lat": 38.897084, "fusion_lon": 0.0, "fusion_lat": 0.0, "type": "electric_scooter", "bike_id": "7ae92f47b8902b8a40b5839596c18883", "lon": -77.0036365, "is_reserved": 0, "is_disabled": 0, "name": "7ae92f47b8902b8a40b5839596c18883"}, {"rental_uris": {"android": "https://dc.lft.to/lastmile_qr_scan", "ios": "https://dc.lft.to/lastmile_qr_scan"}, "lat": 38.877014333333335, "fusion_lon": 0.0, "fusion_lat": 0.0, "type": "electric_scooter", "bike_id": "01e341a843699c1fc9a3561e40215929", "lon": -77.018393, "is_reserved": 0, "is_disabled": 0, "name": "01e341a843699c1fc9a3561e40215929"}, {"rental_uris": {"android": "https://dc.lft.to/lastmile_qr_scan", "ios": "https://dc.lft.to/lastmile_qr_scan"}, "lat": 38.89847866666667, "fusion_lon": 0.0, "fusion_lat": 0.0, "type": "electric_scooter", "bike_id": "5144329db0e21598f42a14168c4706ae", "lon": -77.043687, "is_reserved": 0, "is_disabled": 0, "name": "5144329db0e21598f42a14168c4706ae"}, {"rental_uris": {"android": "https://dc.lft.to/lastmile_qr_scan", "ios": "https://dc.lft.to/lastmile_qr_scan"}, "lat": 38.876831, "fusion_lon": 0.0, "fusion_lat": 0.0, "type": "electric_scooter", "bike_id": "81e840c9ea63c2ce06e38116cb063ee8", "lon": -77.0005535, "is_reserved": 0, "is_disabled": 0, "name": "81e840c9ea63c2ce06e38116cb063ee8"}, {"rental_uris": {"android": "https://dc.lft.to/lastmile_qr_scan", "ios": "https://dc.lft.to/lastmile_qr_scan"}, "lat": 38.886031, "fusion_lon": 0.0, "fusion_lat": 0.0, "type": "electric_scooter", "bike_id": "8c744f4db53ffbca315b1b8a59e33795", "lon": -76.92505433333334, "is_reserved": 0, "is_disabled": 0, "name": "8c744f4db53ffbca315b1b8a59e33795"}, {"rental_uris": {"android": "https://dc.lft.to/lastmile_qr_scan", "ios": "https://dc.lft.to/lastmile_qr_scan"}, "lat": 38.90343416666666, "fusion_lon": 0.0, "fusion_lat": 0.0, "type": "electric_scooter", "bike_id": "ab7b51b41c58908310ddfaa8e3a2fa64", "lon": -76.98115916666667, "is_reserved": 0, "is_disabled": 0, "name": "ab7b51b41c58908310ddfaa8e3a2fa64"}, {"rental_uris": {"android": "https://dc.lft.to/lastmile_qr_scan", "ios": "https://dc.lft.to/lastmile_qr_scan"}, "lat": 38.90262583333333, "fusion_lon": 0.0, "fusion_lat": 0.0, "type": "electric_scooter", "bike_id": "c9a1f6445c657341fa4174aaf304e9ac", "lon": -77.003282, "is_reserved": 0, "is_disabled": 0, "name": "c9a1f6445c657341fa4174aaf304e9ac"}, {"rental_uris": {"android": "https://dc.lft.to/lastmile_qr_scan", "ios": "https://dc.lft.to/lastmile_qr_scan"}, "lat": 38.926792666666664, "fusion_lon": 0.0, "fusion_lat": 0.0, "type": "electric_scooter", "bike_id": "6093a5a5536661110dc57c1bfcdd045a", "lon": -77.02790883333333, "is_reserved": 0, "is_disabled": 0, "name": "6093a5a5536661110dc57c1bfcdd045a"}, {"rental_uris": {"android": "https://dc.lft.to/lastmile_qr_scan", "ios": "https://dc.lft.to/lastmile_qr_scan"}, "lat": 38.90686433333333, "fusion_lon": 0.0, "fusion_lat": 0.0, "type": "electric_scooter", "bike_id": "9335a9e1fa4ef7aa138f51a953bf9332", "lon": -77.02686116666666, "is_reserved": 0, "is_disabled": 0, "name": "9335a9e1fa4ef7aa138f51a953bf9332"}, {"rental_uris": {"android": "https://dc.lft.to/lastmile_qr_scan", "ios": "https://dc.lft.to/lastmile_qr_scan"}, "lat": 38.917000333333334, "fusion_lon": 0.0, "fusion_lat": 0.0, "type": "electric_scooter", "bike_id": "4a02cdecdb7f8c19191b0efce1888867", "lon": -77.0377495, "is_reserved": 0, "is_disabled": 0, "name": "4a02cdecdb7f8c19191b0efce1888867"}, {"rental_uris": {"android": "https://dc.lft.to/lastmile_qr_scan", "ios": "https://dc.lft.to/lastmile_qr_scan"}, "lat": 38.89914533333334, "fusion_lon": 0.0, "fusion_lat": 0.0, "type": "electric_scooter", "bike_id": "04a108d03c387a735611a94b0fd3c9bf", "lon": -77.0414845, "is_reserved": 0, "is_disabled": 0, "name": "04a108d03c387a735611a94b0fd3c9bf"}, {"rental_uris": {"android": "https://dc.lft.to/lastmile_qr_scan", "ios": "https://dc.lft.to/lastmile_qr_scan"}, "lat": 38.901697, "fusion_lon": 0.0, "fusion_lat": 0.0, "type": "electric_scooter", "bike_id": "30ca1a1c6d3ea83375f7c36136a97608", "lon": -77.04738283333333, "is_reserved": 0, "is_disabled": 0, "name": "30ca1a1c6d3ea83375f7c36136a97608"}, {"rental_uris": {"android": "https://dc.lft.to/lastmile_qr_scan", "ios": "https://dc.lft.to/lastmile_qr_scan"}, "lat": 38.809808, "fusion_lon": 0.0, "fusion_lat": 0.0, "type": "electric_bike", "bike_id": "3f6fcc6bcdfcfad7f688126d483e96d5", "lon": -77.0765775, "is_reserved": 0, "is_disabled": 0, "name": "3f6fcc6bcdfcfad7f688126d483e96d5"}, {"rental_uris": {"android": "https://dc.lft.to/lastmile_qr_scan", "ios": "https://dc.lft.to/lastmile_qr_scan"}, "lat": 38.89398283333333, "fusion_lon": 0.0, "fusion_lat": 0.0, "type": "electric_scooter", "bike_id": "5d2882d3bff42affafbf7dc8016112f3", "lon": -76.97812383333333, "is_reserved": 0, "is_disabled": 0, "name": "5d2882d3bff42affafbf7dc8016112f3"}, {"rental_uris": {"android": "https://dc.lft.to/lastmile_qr_scan", "ios": "https://dc.lft.to/lastmile_qr_scan"}, "lat": 38.924113, "fusion_lon": 0.0, "fusion_lat": 0.0, "type": "electric_scooter", "bike_id": "37195887df9cdb2bc17fbcedde87cfd0", "lon": -77.02140466666667, "is_reserved": 0, "is_disabled": 0, "name": "37195887df9cdb2bc17fbcedde87cfd0"}, {"rental_uris": {"android": "https://dc.lft.to/lastmile_qr_scan", "ios": "https://dc.lft.to/lastmile_qr_scan"}, "lat": 38.89827283333333, "fusion_lon": 0.0, "fusion_lat": 0.0, "type": "electric_scooter", "bike_id": "2d0651eed11de39330e836d14582beb1", "lon": -77.041837, "is_reserved": 0, "is_disabled": 0, "name": "2d0651eed11de39330e836d14582beb1"}, {"rental_uris": {"android": "https://dc.lft.to/lastmile_qr_scan", "ios": "https://dc.lft.to/lastmile_qr_scan"}, "lat": 38.882848, "fusion_lon": 0.0, "fusion_lat": 0.0, "type": "electric_scooter", "bike_id": "a2ce0ba59a4a4bdab2cd0d7bbc1dc80b", "lon": -76.986144, "is_reserved": 0, "is_disabled": 0, "name": "a2ce0ba59a4a4bdab2cd0d7bbc1dc80b"}, {"rental_uris": {"android": "https://dc.lft.to/lastmile_qr_scan", "ios": "https://dc.lft.to/lastmile_qr_scan"}, "lat": 38.9191625, "fusion_lon": 0.0, "fusion_lat": 0.0, "type": "electric_scooter", "bike_id": "cdb6d17da991af373de24a632892d94f", "lon": -77.02502616666666, "is_reserved": 0, "is_disabled": 0, "name": "cdb6d17da991af373de24a632892d94f"}, {"rental_uris": {"android": "https://dc.lft.to/lastmile_qr_scan", "ios": "https://dc.lft.to/lastmile_qr_scan"}, "lat": 38.924141, "fusion_lon": 0.0, "fusion_lat": 0.0, "type": "electric_scooter", "bike_id": "8d882c3f15b9684e971ed34da8e8fbd3", "lon": -77.02009633333333, "is_reserved": 0, "is_disabled": 0, "name": "8d882c3f15b9684e971ed34da8e8fbd3"}, {"rental_uris": {"android": "https://dc.lft.to/lastmile_qr_scan", "ios": "https://dc.lft.to/lastmile_qr_scan"}, "lat": 38.9243195, "fusion_lon": 0.0, "fusion_lat": 0.0, "type": "electric_scooter", "bike_id": "21b9b3eeed56c4c94979cb2d896c9e72", "lon": -77.02235716666667, "is_reserved": 0, "is_disabled": 0, "name": "21b9b3eeed56c4c94979cb2d896c9e72"}, {"rental_uris": {"android": "https://dc.lft.to/lastmile_qr_scan", "ios": "https://dc.lft.to/lastmile_qr_scan"}, "lat": 38.83865383333333, "fusion_lon": 0.0, "fusion_lat": 0.0, "type": "electric_bike", "bike_id": "114b9f2de62156a0c221c495c787735f", "lon": -76.9970315, "is_reserved": 0, "is_disabled": 0, "name": "114b9f2de62156a0c221c495c787735f"}, {"rental_uris": {"android": "https://dc.lft.to/lastmile_qr_scan", "ios": "https://dc.lft.to/lastmile_qr_scan"}, "lat": 38.901515, "fusion_lon": 0.0, "fusion_lat": 0.0, "type": "electric_scooter", "bike_id": "01f5f415bb297ace4cf1e7e1832a0983", "lon": -77.05038216666667, "is_reserved": 0, "is_disabled": 0, "name": "01f5f415bb297ace4cf1e7e1832a0983"}, {"rental_uris": {"android": "https://dc.lft.to/lastmile_qr_scan", "ios": "https://dc.lft.to/lastmile_qr_scan"}, "lat": 38.934033, "fusion_lon": 0.0, "fusion_lat": 0.0, "type": "electric_scooter", "bike_id": "d020d63698754630710cdb5bb1a7cc0a", "lon": -77.04137816666666, "is_reserved": 0, "is_disabled": 0, "name": "d020d63698754630710cdb5bb1a7cc0a"}, {"rental_uris": {"android": "https://dc.lft.to/lastmile_qr_scan", "ios": "https://dc.lft.to/lastmile_qr_scan"}, "lat": 38.924925, "fusion_lon": 0.0, "fusion_lat": 0.0, "type": "electric_scooter", "bike_id": "31fb1da4003475e6be26c6d47b4a4483", "lon": -77.0216995, "is_reserved": 0, "is_disabled": 0, "name": "31fb1da4003475e6be26c6d47b4a4483"}, {"rental_uris": {"android": "https://dc.lft.to/lastmile_qr_scan", "ios": "https://dc.lft.to/lastmile_qr_scan"}, "lat": 38.9224745, "fusion_lon": 0.0, "fusion_lat": 0.0, "type": "electric_scooter", "bike_id": "5aa0fd8946e69983e05fbf4fd71907c0", "lon": -77.039, "is_reserved": 0, "is_disabled": 0, "name": "5aa0fd8946e69983e05fbf4fd71907c0"}, {"rental_uris": {"android": "https://dc.lft.to/lastmile_qr_scan", "ios": "https://dc.lft.to/lastmile_qr_scan"}, "lat": 38.92152883333333, "fusion_lon": 0.0, "fusion_lat": 0.0, "type": "electric_scooter", "bike_id": "fb75f99c090e51a3cb8727dac80d5638", "lon": -77.042365, "is_reserved": 0, "is_disabled": 0, "name": "fb75f99c090e51a3cb8727dac80d5638"}, {"rental_uris": {"android": "https://dc.lft.to/lastmile_qr_scan", "ios": "https://dc.lft.to/lastmile_qr_scan"}, "lat": 38.902622, "fusion_lon": 0.0, "fusion_lat": 0.0, "type": "electric_scooter", "bike_id": "c7f753a9f85c186e11785b133458c56b", "lon": -77.03438833333334, "is_reserved": 0, "is_disabled": 0, "name": "c7f753a9f85c186e11785b133458c56b"}, {"rental_uris": {"android": "https://dc.lft.to/lastmile_qr_scan", "ios": "https://dc.lft.to/lastmile_qr_scan"}, "lat": 38.95541816666667, "fusion_lon": 0.0, "fusion_lat": 0.0, "type": "electric_bike", "bike_id": "23c9b7ff562cb68a9fb24292bdef6dfc", "lon": -76.96855133333334, "is_reserved": 0, "is_disabled": 0, "name": "23c9b7ff562cb68a9fb24292bdef6dfc"}, {"rental_uris": {"android": "https://dc.lft.to/lastmile_qr_scan", "ios": "https://dc.lft.to/lastmile_qr_scan"}, "lat": 38.90467616666667, "fusion_lon": 0.0, "fusion_lat": 0.0, "type": "electric_scooter", "bike_id": "2bce6cd1084351fe048407e8dbe798a3", "lon": -77.02945316666667, "is_reserved": 0, "is_disabled": 0, "name": "2bce6cd1084351fe048407e8dbe798a3"}, {"rental_uris": {"android": "https://dc.lft.to/lastmile_qr_scan", "ios": "https://dc.lft.to/lastmile_qr_scan"}, "lat": 38.87561866666667, "fusion_lon": 0.0, "fusion_lat": 0.0, "type": "electric_scooter", "bike_id": "83dc16b32f3318a02b269813fbb97371", "lon": -77.006019, "is_reserved": 0, "is_disabled": 0, "name": "83dc16b32f3318a02b269813fbb97371"}, {"rental_uris": {"android": "https://dc.lft.to/lastmile_qr_scan", "ios": "https://dc.lft.to/lastmile_qr_scan"}, "lat": 38.8928965, "fusion_lon": 0.0, "fusion_lat": 0.0, "type": "electric_bike", "bike_id": "6cfc90e859a9f14f74da87776a6d3df4", "lon": -76.97618683333333, "is_reserved": 0, "is_disabled": 0, "name": "6cfc90e859a9f14f74da87776a6d3df4"}, {"rental_uris": {"android": "https://dc.lft.to/lastmile_qr_scan", "ios": "https://dc.lft.to/lastmile_qr_scan"}, "lat": 38.881369666666664, "fusion_lon": 0.0, "fusion_lat": 0.0, "type": "electric_scooter", "bike_id": "fa2f3f85bd2d73e12a5e6e6f66c06119", "lon": -76.99621283333333, "is_reserved": 0, "is_disabled": 0, "name": "fa2f3f85bd2d73e12a5e6e6f66c06119"}, {"rental_uris": {"android": "https://dc.lft.to/lastmile_qr_scan", "ios": "https://dc.lft.to/lastmile_qr_scan"}, "lat": 38.922324333333336, "fusion_lon": 0.0, "fusion_lat": 0.0, "type": "electric_scooter", "bike_id": "d19aced97ee5dcce89ee989f2e54d554", "lon": -77.0430785, "is_reserved": 0, "is_disabled": 0, "name": "d19aced97ee5dcce89ee989f2e54d554"}, {"rental_uris": {"android": "https://dc.lft.to/lastmile_qr_scan", "ios": "https://dc.lft.to/lastmile_qr_scan"}, "lat": 38.9105955, "fusion_lon": 0.0, "fusion_lat": 0.0, "type": "electric_scooter", "bike_id": "ed877f24570b7c6b9b1c27f47961a939", "lon": -77.03092016666666, "is_reserved": 0, "is_disabled": 0, "name": "ed877f24570b7c6b9b1c27f47961a939"}, {"rental_uris": {"android": "https://dc.lft.to/lastmile_qr_scan", "ios": "https://dc.lft.to/lastmile_qr_scan"}, "lat": 38.916027666666665, "fusion_lon": 0.0, "fusion_lat": 0.0, "type": "electric_scooter", "bike_id": "ab79b4f1224a30c02610ec41e77c553f", "lon": -77.01219733333333, "is_reserved": 0, "is_disabled": 0, "name": "ab79b4f1224a30c02610ec41e77c553f"}, {"rental_uris": {"android": "https://dc.lft.to/lastmile_qr_scan", "ios": "https://dc.lft.to/lastmile_qr_scan"}, "lat": 38.934257, "fusion_lon": 0.0, "fusion_lat": 0.0, "type": "electric_scooter", "bike_id": "c37e32d9a62dfad8a3013b4566829bd8", "lon": -77.039997, "is_reserved": 0, "is_disabled": 0, "name": "c37e32d9a62dfad8a3013b4566829bd8"}, {"rental_uris": {"android": "https://dc.lft.to/lastmile_qr_scan", "ios": "https://dc.lft.to/lastmile_qr_scan"}, "lat": 38.927930833333335, "fusion_lon": 0.0, "fusion_lat": 0.0, "type": "electric_scooter", "bike_id": "d0695fbf6bd811d82aa358e3312890d1", "lon": -77.021275, "is_reserved": 0, "is_disabled": 0, "name": "d0695fbf6bd811d82aa358e3312890d1"}, {"rental_uris": {"android": "https://dc.lft.to/lastmile_qr_scan", "ios": "https://dc.lft.to/lastmile_qr_scan"}, "lat": 38.936109333333334, "fusion_lon": 0.0, "fusion_lat": 0.0, "type": "electric_scooter", "bike_id": "177c06d6a0061f9d89f3e07a08af4c88", "lon": -77.0831955, "is_reserved": 0, "is_disabled": 0, "name": "177c06d6a0061f9d89f3e07a08af4c88"}, {"rental_uris": {"android": "https://dc.lft.to/lastmile_qr_scan", "ios": "https://dc.lft.to/lastmile_qr_scan"}, "lat": 38.914695, "fusion_lon": 0.0, "fusion_lat": 0.0, "type": "electric_scooter", "bike_id": "e4af0faeb81c4fb2eb0bd647c74386ee", "lon": -76.98112366666666, "is_reserved": 0, "is_disabled": 0, "name": "e4af0faeb81c4fb2eb0bd647c74386ee"}, {"rental_uris": {"android": "https://dc.lft.to/lastmile_qr_scan", "ios": "https://dc.lft.to/lastmile_qr_scan"}, "lat": 38.8989505, "fusion_lon": 0.0, "fusion_lat": 0.0, "type": "electric_scooter", "bike_id": "50ace5c7f3ff2b425669348227bd4ebc", "lon": -77.039198, "is_reserved": 0, "is_disabled": 0, "name": "50ace5c7f3ff2b425669348227bd4ebc"}, {"rental_uris": {"android": "https://dc.lft.to/lastmile_qr_scan", "ios": "https://dc.lft.to/lastmile_qr_scan"}, "lat": 38.872103833333334, "fusion_lon": 0.0, "fusion_lat": 0.0, "type": "electric_scooter", "bike_id": "8a7f8fdddc826636013df7abdad5e646", "lon": -77.00575816666667, "is_reserved": 0, "is_disabled": 0, "name": "8a7f8fdddc826636013df7abdad5e646"}, {"rental_uris": {"android": "https://dc.lft.to/lastmile_qr_scan", "ios": "https://dc.lft.to/lastmile_qr_scan"}, "lat": 38.88503466666667, "fusion_lon": 0.0, "fusion_lat": 0.0, "type": "electric_scooter", "bike_id": "5964a72cb0165510f53981568c84396b", "lon": -77.00563433333333, "is_reserved": 0, "is_disabled": 0, "name": "5964a72cb0165510f53981568c84396b"}, {"rental_uris": {"android": "https://dc.lft.to/lastmile_qr_scan", "ios": "https://dc.lft.to/lastmile_qr_scan"}, "lat": 38.83809866666667, "fusion_lon": 0.0, "fusion_lat": 0.0, "type": "electric_bike", "bike_id": "f55f7f722aa06a771984e6ed7a216c6d", "lon": -77.09523566666667, "is_reserved": 0, "is_disabled": 0, "name": "f55f7f722aa06a771984e6ed7a216c6d"}, {"rental_uris": {"android": "https://dc.lft.to/lastmile_qr_scan", "ios": "https://dc.lft.to/lastmile_qr_scan"}, "lat": 38.948822666666665, "fusion_lon": 0.0, "fusion_lat": 0.0, "type": "electric_scooter", "bike_id": "417d4611d63b62868c0590ef57214133", "lon": -77.08058366666667, "is_reserved": 0, "is_disabled": 0, "name": "417d4611d63b62868c0590ef57214133"}, {"rental_uris": {"android": "https://dc.lft.to/lastmile_qr_scan", "ios": "https://dc.lft.to/lastmile_qr_scan"}, "lat": 38.92894033333334, "fusion_lon": 0.0, "fusion_lat": 0.0, "type": "electric_bike", "bike_id": "56349631807d00f13d36bf46a368f985", "lon": -77.23174283333333, "is_reserved": 0, "is_disabled": 0, "name": "56349631807d00f13d36bf46a368f985"}, {"rental_uris": {"android": "https://dc.lft.to/lastmile_qr_scan", "ios": "https://dc.lft.to/lastmile_qr_scan"}, "lat": 38.89215516666667, "fusion_lon": 0.0, "fusion_lat": 0.0, "type": "electric_scooter", "bike_id": "581c55ea4ec945a81d1d50d95dc12019", "lon": -77.03172183333334, "is_reserved": 0, "is_disabled": 0, "name": "581c55ea4ec945a81d1d50d95dc12019"}, {"rental_uris": {"android": "https://dc.lft.to/lastmile_qr_scan", "ios": "https://dc.lft.to/lastmile_qr_scan"}, "lat": 38.8864245, "fusion_lon": 0.0, "fusion_lat": 0.0, "type": "electric_scooter", "bike_id": "7347a032f424f9d9556527f5f80e5ab5", "lon": -77.00092133333334, "is_reserved": 0, "is_disabled": 0, "name": "7347a032f424f9d9556527f5f80e5ab5"}, {"rental_uris": {"android": "https://dc.lft.to/lastmile_qr_scan", "ios": "https://dc.lft.to/lastmile_qr_scan"}, "lat": 38.92780483333333, "fusion_lon": 0.0, "fusion_lat": 0.0, "type": "electric_scooter", "bike_id": "ca2fce34bcb1479dbd5efa7f45446ba3", "lon": -77.02765416666666, "is_reserved": 0, "is_disabled": 0, "name": "ca2fce34bcb1479dbd5efa7f45446ba3"}, {"rental_uris": {"android": "https://dc.lft.to/lastmile_qr_scan", "ios": "https://dc.lft.to/lastmile_qr_scan"}, "lat": 38.958143666666665, "fusion_lon": 0.0, "fusion_lat": 0.0, "type": "electric_scooter", "bike_id": "6635674c05cb481aae6227447477f772", "lon": -77.01451783333333, "is_reserved": 0, "is_disabled": 0, "name": "6635674c05cb481aae6227447477f772"}, {"rental_uris": {"android": "https://dc.lft.to/lastmile_qr_scan", "ios": "https://dc.lft.to/lastmile_qr_scan"}, "lat": 38.9078505, "fusion_lon": 0.0, "fusion_lat": 0.0, "type": "electric_scooter", "bike_id": "831a8e13f3522e0092195705650d59b1", "lon": -77.04491216666666, "is_reserved": 0, "is_disabled": 0, "name": "831a8e13f3522e0092195705650d59b1"}, {"rental_uris": {"android": "https://dc.lft.to/lastmile_qr_scan", "ios": "https://dc.lft.to/lastmile_qr_scan"}, "lat": 38.916189833333334, "fusion_lon": 0.0, "fusion_lat": 0.0, "type": "electric_scooter", "bike_id": "f09e25dbb69673b1eaa51d3f1a6466d5", "lon": -77.045046, "is_reserved": 0, "is_disabled": 0, "name": "f09e25dbb69673b1eaa51d3f1a6466d5"}, {"rental_uris": {"android": "https://dc.lft.to/lastmile_qr_scan", "ios": "https://dc.lft.to/lastmile_qr_scan"}, "lat": 38.90136116666667, "fusion_lon": 0.0, "fusion_lat": 0.0, "type": "electric_scooter", "bike_id": "7cd40dbcee4e280ccbbd00878ccfebf4", "lon": -77.04335533333334, "is_reserved": 0, "is_disabled": 0, "name": "7cd40dbcee4e280ccbbd00878ccfebf4"}, {"rental_uris": {"android": "https://dc.lft.to/lastmile_qr_scan", "ios": "https://dc.lft.to/lastmile_qr_scan"}, "lat": 38.93265983333333, "fusion_lon": 0.0, "fusion_lat": 0.0, "type": "electric_scooter", "bike_id": "c4daab14ca6fecb44229c477d906a1bb", "lon": -77.02092933333333, "is_reserved": 0, "is_disabled": 0, "name": "c4daab14ca6fecb44229c477d906a1bb"}, {"rental_uris": {"android": "https://dc.lft.to/lastmile_qr_scan", "ios": "https://dc.lft.to/lastmile_qr_scan"}, "lat": 38.91104416666667, "fusion_lon": 0.0, "fusion_lat": 0.0, "type": "electric_scooter", "bike_id": "5e988fbb30e374c366ad129374764a8e", "lon": -77.003669, "is_reserved": 0, "is_disabled": 0, "name": "5e988fbb30e374c366ad129374764a8e"}, {"rental_uris": {"android": "https://dc.lft.to/lastmile_qr_scan", "ios": "https://dc.lft.to/lastmile_qr_scan"}, "lat": 38.9110635, "fusion_lon": 0.0, "fusion_lat": 0.0, "type": "electric_scooter", "bike_id": "5b2bdd01ab60493f28d6a95cd43090e2", "lon": -77.04396483333333, "is_reserved": 0, "is_disabled": 0, "name": "5b2bdd01ab60493f28d6a95cd43090e2"}, {"rental_uris": {"android": "https://dc.lft.to/lastmile_qr_scan", "ios": "https://dc.lft.to/lastmile_qr_scan"}, "lat": 38.8382945, "fusion_lon": 0.0, "fusion_lat": 0.0, "type": "electric_bike", "bike_id": "5560c0d8e4e630f457c51db5c95ace0e", "lon": -77.0791405, "is_reserved": 0, "is_disabled": 0, "name": "5560c0d8e4e630f457c51db5c95ace0e"}, {"rental_uris": {"android": "https://dc.lft.to/lastmile_qr_scan", "ios": "https://dc.lft.to/lastmile_qr_scan"}, "lat": 38.89889983333333, "fusion_lon": 0.0, "fusion_lat": 0.0, "type": "electric_scooter", "bike_id": "2cb287be7a6b3707a836aeb73e3d7581", "lon": -77.039348, "is_reserved": 0, "is_disabled": 0, "name": "2cb287be7a6b3707a836aeb73e3d7581"}, {"rental_uris": {"android": "https://dc.lft.to/lastmile_qr_scan", "ios": "https://dc.lft.to/lastmile_qr_scan"}, "lat": 38.9119315, "fusion_lon": 0.0, "fusion_lat": 0.0, "type": "electric_scooter", "bike_id": "4a364d68c37d9cec434aac9d92a62329", "lon": -77.045742, "is_reserved": 0, "is_disabled": 0, "name": "4a364d68c37d9cec434aac9d92a62329"}, {"rental_uris": {"android": "https://dc.lft.to/lastmile_qr_scan", "ios": "https://dc.lft.to/lastmile_qr_scan"}, "lat": 38.903400833333336, "fusion_lon": 0.0, "fusion_lat": 0.0, "type": "electric_scooter", "bike_id": "5d19107f52fde3a50edb487bffc1e077", "lon": -77.05916666666667, "is_reserved": 0, "is_disabled": 0, "name": "5d19107f52fde3a50edb487bffc1e077"}, {"rental_uris": {"android": "https://dc.lft.to/lastmile_qr_scan", "ios": "https://dc.lft.to/lastmile_qr_scan"}, "lat": 38.90967883333333, "fusion_lon": 0.0, "fusion_lat": 0.0, "type": "electric_scooter", "bike_id": "4a67240632d52e1d7a00cbc2f449e596", "lon": -77.01436066666666, "is_reserved": 0, "is_disabled": 0, "name": "4a67240632d52e1d7a00cbc2f449e596"}, {"rental_uris": {"android": "https://dc.lft.to/lastmile_qr_scan", "ios": "https://dc.lft.to/lastmile_qr_scan"}, "lat": 38.92066666666667, "fusion_lon": 0.0, "fusion_lat": 0.0, "type": "electric_scooter", "bike_id": "d18c199e1cbc76f179fd6c0bb79af4c4", "lon": -77.02364883333334, "is_reserved": 0, "is_disabled": 0, "name": "d18c199e1cbc76f179fd6c0bb79af4c4"}, {"rental_uris": {"android": "https://dc.lft.to/lastmile_qr_scan", "ios": "https://dc.lft.to/lastmile_qr_scan"}, "lat": 38.924181, "fusion_lon": 0.0, "fusion_lat": 0.0, "type": "electric_scooter", "bike_id": "fbece5c609617565e1743ec90b85b9ca", "lon": -77.0194765, "is_reserved": 0, "is_disabled": 0, "name": "fbece5c609617565e1743ec90b85b9ca"}, {"rental_uris": {"android": "https://dc.lft.to/lastmile_qr_scan", "ios": "https://dc.lft.to/lastmile_qr_scan"}, "lat": 38.831331166666665, "fusion_lon": 0.0, "fusion_lat": 0.0, "type": "electric_bike", "bike_id": "08cc8c6e9272963983bfe9318a702024", "lon": -77.11318766666666, "is_reserved": 0, "is_disabled": 0, "name": "08cc8c6e9272963983bfe9318a702024"}, {"rental_uris": {"android": "https://dc.lft.to/lastmile_qr_scan", "ios": "https://dc.lft.to/lastmile_qr_scan"}, "lat": 38.8886245, "fusion_lon": 0.0, "fusion_lat": 0.0, "type": "electric_scooter", "bike_id": "465cb4147be705eb29a387775278d97b", "lon": -76.97905166666666, "is_reserved": 0, "is_disabled": 0, "name": "465cb4147be705eb29a387775278d97b"}, {"rental_uris": {"android": "https://dc.lft.to/lastmile_qr_scan", "ios": "https://dc.lft.to/lastmile_qr_scan"}, "lat": 38.8757375, "fusion_lon": 0.0, "fusion_lat": 0.0, "type": "electric_bike", "bike_id": "bff246024b9b6e5b307dd7de2e8c64b3", "lon": -77.23407883333333, "is_reserved": 0, "is_disabled": 0, "name": "bff246024b9b6e5b307dd7de2e8c64b3"}, {"rental_uris": {"android": "https://dc.lft.to/lastmile_qr_scan", "ios": "https://dc.lft.to/lastmile_qr_scan"}, "lat": 38.9035905, "fusion_lon": 0.0, "fusion_lat": 0.0, "type": "electric_scooter", "bike_id": "8256f4659b9045109f900200338f26a0", "lon": -77.04069283333334, "is_reserved": 0, "is_disabled": 0, "name": "8256f4659b9045109f900200338f26a0"}, {"rental_uris": {"android": "https://dc.lft.to/lastmile_qr_scan", "ios": "https://dc.lft.to/lastmile_qr_scan"}, "lat": 38.847185333333336, "fusion_lon": 0.0, "fusion_lat": 0.0, "type": "electric_scooter", "bike_id": "36b1c05f215dd1940ddbfe95fe422240", "lon": -76.968217, "is_reserved": 0, "is_disabled": 0, "name": "36b1c05f215dd1940ddbfe95fe422240"}, {"rental_uris": {"android": "https://dc.lft.to/lastmile_qr_scan", "ios": "https://dc.lft.to/lastmile_qr_scan"}, "lat": 38.89535, "fusion_lon": 0.0, "fusion_lat": 0.0, "type": "electric_scooter", "bike_id": "bc3a26cea8cdd8db4311a8878ca04753", "lon": -76.9489085, "is_reserved": 0, "is_disabled": 0, "name": "bc3a26cea8cdd8db4311a8878ca04753"}, {"rental_uris": {"android": "https://dc.lft.to/lastmile_qr_scan", "ios": "https://dc.lft.to/lastmile_qr_scan"}, "lat": 38.90591966666667, "fusion_lon": 0.0, "fusion_lat": 0.0, "type": "electric_scooter", "bike_id": "57d3d794f008e4099d9ea68ea1bfd9b6", "lon": -77.002667, "is_reserved": 0, "is_disabled": 0, "name": "57d3d794f008e4099d9ea68ea1bfd9b6"}, {"rental_uris": {"android": "https://dc.lft.to/lastmile_qr_scan", "ios": "https://dc.lft.to/lastmile_qr_scan"}, "lat": 38.88493183333333, "fusion_lon": 0.0, "fusion_lat": 0.0, "type": "electric_scooter", "bike_id": "8b2dabc647fe3281438694e61aa51292", "lon": -77.0071115, "is_reserved": 0, "is_disabled": 0, "name": "8b2dabc647fe3281438694e61aa51292"}, {"rental_uris": {"android": "https://dc.lft.to/lastmile_qr_scan", "ios": "https://dc.lft.to/lastmile_qr_scan"}, "lat": 38.8789145, "fusion_lon": 0.0, "fusion_lat": 0.0, "type": "electric_scooter", "bike_id": "4a7f6140d50918340d99570408a67b2b", "lon": -77.00051033333334, "is_reserved": 0, "is_disabled": 0, "name": "4a7f6140d50918340d99570408a67b2b"}, {"rental_uris": {"android": "https://dc.lft.to/lastmile_qr_scan", "ios": "https://dc.lft.to/lastmile_qr_scan"}, "lat": 38.890503833333334, "fusion_lon": 0.0, "fusion_lat": 0.0, "type": "electric_scooter", "bike_id": "eeec801f05e47085a6efe99eb06886b5", "lon": -76.98977833333333, "is_reserved": 0, "is_disabled": 0, "name": "eeec801f05e47085a6efe99eb06886b5"}, {"rental_uris": {"android": "https://dc.lft.to/lastmile_qr_scan", "ios": "https://dc.lft.to/lastmile_qr_scan"}, "lat": 38.90977316666667, "fusion_lon": 0.0, "fusion_lat": 0.0, "type": "electric_scooter", "bike_id": "387859a66c14f1f658ed2db7912c35a7", "lon": -77.00888066666667, "is_reserved": 0, "is_disabled": 0, "name": "387859a66c14f1f658ed2db7912c35a7"}, {"rental_uris": {"android": "https://dc.lft.to/lastmile_qr_scan", "ios": "https://dc.lft.to/lastmile_qr_scan"}, "lat": 38.922497666666665, "fusion_lon": 0.0, "fusion_lat": 0.0, "type": "electric_scooter", "bike_id": "beeeaf6b2ebfd1a71eacc11705793d3b", "lon": -77.076983, "is_reserved": 0, "is_disabled": 0, "name": "beeeaf6b2ebfd1a71eacc11705793d3b"}, {"rental_uris": {"android": "https://dc.lft.to/lastmile_qr_scan", "ios": "https://dc.lft.to/lastmile_qr_scan"}, "lat": 38.90011583333333, "fusion_lon": 0.0, "fusion_lat": 0.0, "type": "electric_scooter", "bike_id": "c73cd95c24a6311bc16e7afe80ffe33e", "lon": -76.98870233333334, "is_reserved": 0, "is_disabled": 0, "name": "c73cd95c24a6311bc16e7afe80ffe33e"}, {"rental_uris": {"android": "https://dc.lft.to/lastmile_qr_scan", "ios": "https://dc.lft.to/lastmile_qr_scan"}, "lat": 38.90123033333333, "fusion_lon": 0.0, "fusion_lat": 0.0, "type": "electric_scooter", "bike_id": "4e63a6e8e1e0e43b29e57e984cff4862", "lon": -77.041034, "is_reserved": 0, "is_disabled": 0, "name": "4e63a6e8e1e0e43b29e57e984cff4862"}, {"rental_uris": {"android": "https://dc.lft.to/lastmile_qr_scan", "ios": "https://dc.lft.to/lastmile_qr_scan"}, "lat": 38.893598833333336, "fusion_lon": 0.0, "fusion_lat": 0.0, "type": "electric_scooter", "bike_id": "c27664014262eb1e3fa57fd7d691ddbc", "lon": -77.00332416666667, "is_reserved": 0, "is_disabled": 0, "name": "c27664014262eb1e3fa57fd7d691ddbc"}, {"rental_uris": {"android": "https://dc.lft.to/lastmile_qr_scan", "ios": "https://dc.lft.to/lastmile_qr_scan"}, "lat": 38.92394316666667, "fusion_lon": 0.0, "fusion_lat": 0.0, "type": "electric_scooter", "bike_id": "db34b25ec4e62545ab2bc5558c227b20", "lon": -77.04292633333333, "is_reserved": 0, "is_disabled": 0, "name": "db34b25ec4e62545ab2bc5558c227b20"}, {"rental_uris": {"android": "https://dc.lft.to/lastmile_qr_scan", "ios": "https://dc.lft.to/lastmile_qr_scan"}, "lat": 38.9524675, "fusion_lon": 0.0, "fusion_lat": 0.0, "type": "electric_bike", "bike_id": "9a32f8042821ec067958cb63a2aad5bc", "lon": -77.09623283333333, "is_reserved": 0, "is_disabled": 0, "name": "9a32f8042821ec067958cb63a2aad5bc"}, {"rental_uris": {"android": "https://dc.lft.to/lastmile_qr_scan", "ios": "https://dc.lft.to/lastmile_qr_scan"}, "lat": 38.8796765, "fusion_lon": 0.0, "fusion_lat": 0.0, "type": "electric_bike", "bike_id": "d86f4f54c46428ef00373ffa835d3e59", "lon": -77.0100885, "is_reserved": 0, "is_disabled": 0, "name": "d86f4f54c46428ef00373ffa835d3e59"}, {"rental_uris": {"android": "https://dc.lft.to/lastmile_qr_scan", "ios": "https://dc.lft.to/lastmile_qr_scan"}, "lat": 38.93605933333333, "fusion_lon": 0.0, "fusion_lat": 0.0, "type": "electric_bike", "bike_id": "54146050473bb629c0133fa882a50e03", "lon": -77.00217433333333, "is_reserved": 0, "is_disabled": 0, "name": "54146050473bb629c0133fa882a50e03"}, {"rental_uris": {"android": "https://dc.lft.to/lastmile_qr_scan", "ios": "https://dc.lft.to/lastmile_qr_scan"}, "lat": 38.90970383333333, "fusion_lon": 0.0, "fusion_lat": 0.0, "type": "electric_scooter", "bike_id": "f1b5dcc8f04923d02002980884282575", "lon": -77.01880366666667, "is_reserved": 0, "is_disabled": 0, "name": "f1b5dcc8f04923d02002980884282575"}, {"rental_uris": {"android": "https://dc.lft.to/lastmile_qr_scan", "ios": "https://dc.lft.to/lastmile_qr_scan"}, "lat": 38.89355533333333, "fusion_lon": 0.0, "fusion_lat": 0.0, "type": "electric_scooter", "bike_id": "9032664275fc2d82c0fce8eefe830994", "lon": -77.00332733333333, "is_reserved": 0, "is_disabled": 0, "name": "9032664275fc2d82c0fce8eefe830994"}, {"rental_uris": {"android": "https://dc.lft.to/lastmile_qr_scan", "ios": "https://dc.lft.to/lastmile_qr_scan"}, "lat": 38.92089383333333, "fusion_lon": 0.0, "fusion_lat": 0.0, "type": "electric_scooter", "bike_id": "83149d8535681aab7896e14ace165f00", "lon": -77.02503716666666, "is_reserved": 0, "is_disabled": 0, "name": "83149d8535681aab7896e14ace165f00"}, {"rental_uris": {"android": "https://dc.lft.to/lastmile_qr_scan", "ios": "https://dc.lft.to/lastmile_qr_scan"}, "lat": 38.96461466666667, "fusion_lon": 0.0, "fusion_lat": 0.0, "type": "electric_bike", "bike_id": "54152f470174cbeea451338159f1fe01", "lon": -77.03566966666666, "is_reserved": 0, "is_disabled": 0, "name": "54152f470174cbeea451338159f1fe01"}, {"rental_uris": {"android": "https://dc.lft.to/lastmile_qr_scan", "ios": "https://dc.lft.to/lastmile_qr_scan"}, "lat": 38.9247105, "fusion_lon": 0.0, "fusion_lat": 0.0, "type": "electric_scooter", "bike_id": "271418fa28f677a01dbcf5ab8b385a1a", "lon": -77.02249, "is_reserved": 0, "is_disabled": 0, "name": "271418fa28f677a01dbcf5ab8b385a1a"}, {"rental_uris": {"android": "https://dc.lft.to/lastmile_qr_scan", "ios": "https://dc.lft.to/lastmile_qr_scan"}, "lat": 38.99786666666667, "fusion_lon": 0.0, "fusion_lat": 0.0, "type": "electric_bike", "bike_id": "ddccd5043b3c1d10aa26c14620d4c5b3", "lon": -77.007559, "is_reserved": 0, "is_disabled": 0, "name": "ddccd5043b3c1d10aa26c14620d4c5b3"}, {"rental_uris": {"android": "https://dc.lft.to/lastmile_qr_scan", "ios": "https://dc.lft.to/lastmile_qr_scan"}, "lat": 38.912866666666666, "fusion_lon": 0.0, "fusion_lat": 0.0, "type": "electric_scooter", "bike_id": "564951ac37d797cd277b54ba62c44d46", "lon": -77.01369466666667, "is_reserved": 0, "is_disabled": 0, "name": "564951ac37d797cd277b54ba62c44d46"}, {"rental_uris": {"android": "https://dc.lft.to/lastmile_qr_scan", "ios": "https://dc.lft.to/lastmile_qr_scan"}, "lat": 38.92978866666667, "fusion_lon": 0.0, "fusion_lat": 0.0, "type": "electric_scooter", "bike_id": "5e8820a85161837c90d2a1278ebe03fb", "lon": -77.03467983333333, "is_reserved": 0, "is_disabled": 0, "name": "5e8820a85161837c90d2a1278ebe03fb"}, {"rental_uris": {"android": "https://dc.lft.to/lastmile_qr_scan", "ios": "https://dc.lft.to/lastmile_qr_scan"}, "lat": 38.906112, "fusion_lon": 0.0, "fusion_lat": 0.0, "type": "electric_bike", "bike_id": "fbd05fe16a2e49cb72b187f705fb0b37", "lon": -77.12882716666667, "is_reserved": 0, "is_disabled": 0, "name": "fbd05fe16a2e49cb72b187f705fb0b37"}, {"rental_uris": {"android": "https://dc.lft.to/lastmile_qr_scan", "ios": "https://dc.lft.to/lastmile_qr_scan"}, "lat": 38.885736, "fusion_lon": 0.0, "fusion_lat": 0.0, "type": "electric_scooter", "bike_id": "fd89ed3f8f7f7601589b211c14a28a53", "lon": -77.01543033333333, "is_reserved": 0, "is_disabled": 0, "name": "fd89ed3f8f7f7601589b211c14a28a53"}, {"rental_uris": {"android": "https://dc.lft.to/lastmile_qr_scan", "ios": "https://dc.lft.to/lastmile_qr_scan"}, "lat": 38.900939666666666, "fusion_lon": 0.0, "fusion_lat": 0.0, "type": "electric_scooter", "bike_id": "b240244106d591e80504806e79f1da7a", "lon": -76.97677366666667, "is_reserved": 0, "is_disabled": 0, "name": "b240244106d591e80504806e79f1da7a"}, {"rental_uris": {"android": "https://dc.lft.to/lastmile_qr_scan", "ios": "https://dc.lft.to/lastmile_qr_scan"}, "lat": 38.90380866666667, "fusion_lon": 0.0, "fusion_lat": 0.0, "type": "electric_scooter", "bike_id": "454d58d7e41c75bb97fbe2d45074d086", "lon": -77.03309566666667, "is_reserved": 0, "is_disabled": 0, "name": "454d58d7e41c75bb97fbe2d45074d086"}, {"rental_uris": {"android": "https://dc.lft.to/lastmile_qr_scan", "ios": "https://dc.lft.to/lastmile_qr_scan"}, "lat": 38.895287333333336, "fusion_lon": 0.0, "fusion_lat": 0.0, "type": "electric_scooter", "bike_id": "97601c48f37bc18e0f375e59569dbaab", "lon": -77.00338816666667, "is_reserved": 0, "is_disabled": 0, "name": "97601c48f37bc18e0f375e59569dbaab"}, {"rental_uris": {"android": "https://dc.lft.to/lastmile_qr_scan", "ios": "https://dc.lft.to/lastmile_qr_scan"}, "lat": 38.92416683333333, "fusion_lon": 0.0, "fusion_lat": 0.0, "type": "electric_scooter", "bike_id": "10e4d1f9a7973023b70f236e8fe7aa87", "lon": -77.02130783333334, "is_reserved": 0, "is_disabled": 0, "name": "10e4d1f9a7973023b70f236e8fe7aa87"}, {"rental_uris": {"android": "https://dc.lft.to/lastmile_qr_scan", "ios": "https://dc.lft.to/lastmile_qr_scan"}, "lat": 38.90803983333333, "fusion_lon": 0.0, "fusion_lat": 0.0, "type": "electric_scooter", "bike_id": "7a0138fac76b44256ddb4caf349ed0e4", "lon": -76.99697666666667, "is_reserved": 0, "is_disabled": 0, "name": "7a0138fac76b44256ddb4caf349ed0e4"}, {"rental_uris": {"android": "https://dc.lft.to/lastmile_qr_scan", "ios": "https://dc.lft.to/lastmile_qr_scan"}, "lat": 38.90977066666667, "fusion_lon": 0.0, "fusion_lat": 0.0, "type": "electric_scooter", "bike_id": "27eff0d334de0a463e8a9a0112976339", "lon": -76.98464216666666, "is_reserved": 0, "is_disabled": 0, "name": "27eff0d334de0a463e8a9a0112976339"}, {"rental_uris": {"android": "https://dc.lft.to/lastmile_qr_scan", "ios": "https://dc.lft.to/lastmile_qr_scan"}, "lat": 38.933602666666665, "fusion_lon": 0.0, "fusion_lat": 0.0, "type": "electric_scooter", "bike_id": "5405aad610a6247c4d85311e06517f44", "lon": -77.02438783333334, "is_reserved": 0, "is_disabled": 0, "name": "5405aad610a6247c4d85311e06517f44"}, {"rental_uris": {"android": "https://dc.lft.to/lastmile_qr_scan", "ios": "https://dc.lft.to/lastmile_qr_scan"}, "lat": 38.86214733333333, "fusion_lon": 0.0, "fusion_lat": 0.0, "type": "electric_scooter", "bike_id": "38e6a134127e59b0023edc219c95f6ef", "lon": -76.994748, "is_reserved": 0, "is_disabled": 0, "name": "38e6a134127e59b0023edc219c95f6ef"}, {"rental_uris": {"android": "https://dc.lft.to/lastmile_qr_scan", "ios": "https://dc.lft.to/lastmile_qr_scan"}, "lat": 38.910340833333336, "fusion_lon": 0.0, "fusion_lat": 0.0, "type": "electric_scooter", "bike_id": "1839d2db24379a20d52a8b7405238dd9", "lon": -77.03445666666667, "is_reserved": 0, "is_disabled": 0, "name": "1839d2db24379a20d52a8b7405238dd9"}, {"rental_uris": {"android": "https://dc.lft.to/lastmile_qr_scan", "ios": "https://dc.lft.to/lastmile_qr_scan"}, "lat": 38.966504666666665, "fusion_lon": 0.0, "fusion_lat": 0.0, "type": "electric_scooter", "bike_id": "c6582267d94b2ae19edc3f27507b4d79", "lon": -77.027467, "is_reserved": 0, "is_disabled": 0, "name": "c6582267d94b2ae19edc3f27507b4d79"}, {"rental_uris": {"android": "https://dc.lft.to/lastmile_qr_scan", "ios": "https://dc.lft.to/lastmile_qr_scan"}, "lat": 38.9095235, "fusion_lon": 0.0, "fusion_lat": 0.0, "type": "electric_scooter", "bike_id": "a9b60bfe9a5e001d5d4336a0c6099467", "lon": -77.00890533333333, "is_reserved": 0, "is_disabled": 0, "name": "a9b60bfe9a5e001d5d4336a0c6099467"}, {"rental_uris": {"android": "https://dc.lft.to/lastmile_qr_scan", "ios": "https://dc.lft.to/lastmile_qr_scan"}, "lat": 38.90364266666667, "fusion_lon": 0.0, "fusion_lat": 0.0, "type": "electric_scooter", "bike_id": "e95e2478e47a967a93220195d2c7b268", "lon": -77.03170016666667, "is_reserved": 0, "is_disabled": 0, "name": "e95e2478e47a967a93220195d2c7b268"}, {"rental_uris": {"android": "https://dc.lft.to/lastmile_qr_scan", "ios": "https://dc.lft.to/lastmile_qr_scan"}, "lat": 38.900462833333336, "fusion_lon": 0.0, "fusion_lat": 0.0, "type": "electric_scooter", "bike_id": "692a949b382f98779e84c82ef083dde3", "lon": -77.04163383333334, "is_reserved": 0, "is_disabled": 0, "name": "692a949b382f98779e84c82ef083dde3"}, {"rental_uris": {"android": "https://dc.lft.to/lastmile_qr_scan", "ios": "https://dc.lft.to/lastmile_qr_scan"}, "lat": 38.99224383333333, "fusion_lon": 0.0, "fusion_lat": 0.0, "type": "electric_bike", "bike_id": "794fe70fcff27885fcbc2eb49e956db1", "lon": -77.03582633333333, "is_reserved": 0, "is_disabled": 0, "name": "794fe70fcff27885fcbc2eb49e956db1"}, {"rental_uris": {"android": "https://dc.lft.to/lastmile_qr_scan", "ios": "https://dc.lft.to/lastmile_qr_scan"}, "lat": 38.836080333333335, "fusion_lon": 0.0, "fusion_lat": 0.0, "type": "electric_bike", "bike_id": "785d945a92711db44843521edec208a9", "lon": -77.00373716666667, "is_reserved": 0, "is_disabled": 0, "name": "785d945a92711db44843521edec208a9"}, {"rental_uris": {"android": "https://dc.lft.to/lastmile_qr_scan", "ios": "https://dc.lft.to/lastmile_qr_scan"}, "lat": 38.897324, "fusion_lon": 0.0, "fusion_lat": 0.0, "type": "electric_scooter", "bike_id": "b05b9714f7a2e1ef5123e5247e164024", "lon": -77.02687083333333, "is_reserved": 0, "is_disabled": 0, "name": "b05b9714f7a2e1ef5123e5247e164024"}, {"rental_uris": {"android": "https://dc.lft.to/lastmile_qr_scan", "ios": "https://dc.lft.to/lastmile_qr_scan"}, "lat": 38.9473865, "fusion_lon": 0.0, "fusion_lat": 0.0, "type": "electric_scooter", "bike_id": "bc1b6d13a0587695feca8a9634826bd1", "lon": -77.02362016666666, "is_reserved": 0, "is_disabled": 0, "name": "bc1b6d13a0587695feca8a9634826bd1"}, {"rental_uris": {"android": "https://dc.lft.to/lastmile_qr_scan", "ios": "https://dc.lft.to/lastmile_qr_scan"}, "lat": 38.838067, "fusion_lon": 0.0, "fusion_lat": 0.0, "type": "electric_bike", "bike_id": "fe070d701020fa4a4111c207c696e87e", "lon": -77.00276716666667, "is_reserved": 0, "is_disabled": 0, "name": "fe070d701020fa4a4111c207c696e87e"}, {"rental_uris": {"android": "https://dc.lft.to/lastmile_qr_scan", "ios": "https://dc.lft.to/lastmile_qr_scan"}, "lat": 38.91039833333333, "fusion_lon": 0.0, "fusion_lat": 0.0, "type": "electric_scooter", "bike_id": "eaebcf3fba124bf94f8e32964e961549", "lon": -77.01377233333334, "is_reserved": 0, "is_disabled": 0, "name": "eaebcf3fba124bf94f8e32964e961549"}, {"rental_uris": {"android": "https://dc.lft.to/lastmile_qr_scan", "ios": "https://dc.lft.to/lastmile_qr_scan"}, "lat": 38.8651365, "fusion_lon": 0.0, "fusion_lat": 0.0, "type": "electric_scooter", "bike_id": "2de7a9ef13e12fd595e9d22babc1591a", "lon": -76.990183, "is_reserved": 0, "is_disabled": 0, "name": "2de7a9ef13e12fd595e9d22babc1591a"}, {"rental_uris": {"android": "https://dc.lft.to/lastmile_qr_scan", "ios": "https://dc.lft.to/lastmile_qr_scan"}, "lat": 38.904839, "fusion_lon": 0.0, "fusion_lat": 0.0, "type": "electric_scooter", "bike_id": "324c6a3f850932df43ef6406aa07ee8e", "lon": -77.02943266666666, "is_reserved": 0, "is_disabled": 0, "name": "324c6a3f850932df43ef6406aa07ee8e"}, {"rental_uris": {"android": "https://dc.lft.to/lastmile_qr_scan", "ios": "https://dc.lft.to/lastmile_qr_scan"}, "lat": 38.911985333333334, "fusion_lon": 0.0, "fusion_lat": 0.0, "type": "electric_scooter", "bike_id": "3988e9a3926f269137a0fe83085d499d", "lon": -77.07307966666667, "is_reserved": 0, "is_disabled": 0, "name": "3988e9a3926f269137a0fe83085d499d"}, {"rental_uris": {"android": "https://dc.lft.to/lastmile_qr_scan", "ios": "https://dc.lft.to/lastmile_qr_scan"}, "lat": 38.921906, "fusion_lon": 0.0, "fusion_lat": 0.0, "type": "electric_scooter", "bike_id": "b68a1dfaa49823695ba7905cf9fa1c6b", "lon": -77.040166, "is_reserved": 0, "is_disabled": 0, "name": "b68a1dfaa49823695ba7905cf9fa1c6b"}, {"rental_uris": {"android": "https://dc.lft.to/lastmile_qr_scan", "ios": "https://dc.lft.to/lastmile_qr_scan"},