{"data": {"bikes": [{"lat": 38.86658883333333, "is_disabled": 0, "type": "electric_scooter", "lon": -76.98904383333333, "bike_id": "b4311b0af17caf3204af99376a761912", "fusion_lat": 0.0, "name": "b4311b0af17caf3204af99376a761912", "is_reserved": 0, "rental_uris": {"android": "https://dc.lft.to/lastmile_qr_scan", "ios": "https://dc.lft.to/lastmile_qr_scan"}, "fusion_lon": 0.0}, {"lat": 38.892180833333335, "is_disabled": 0, "type": "electric_scooter", "lon": -76.93303166666666, "bike_id": "e24ec7dc1df86f2c363ac082466f9a81", "fusion_lat": 0.0, "name": "e24ec7dc1df86f2c363ac082466f9a81", "is_reserved": 0, "rental_uris": {"android": "https://dc.lft.to/lastmile_qr_scan", "ios": "https://dc.lft.to/lastmile_qr_scan"}, "fusion_lon": 0.0}, {"lat": 38.90433516666667, "is_disabled": 0, "type": "electric_scooter", "lon": -77.040398, "bike_id": "e28c78a4deaec9c518bd2eb264347a2e", "fusion_lat": 0.0, "name": "e28c78a4deaec9c518bd2eb264347a2e", "is_reserved": 0, "rental_uris": {"android": "https://dc.lft.to/lastmile_qr_scan", "ios": "https://dc.lft.to/lastmile_qr_scan"}, "fusion_lon": 0.0}, {"lat": 38.9317055, "is_disabled": 0, "type": "electric_scooter", "lon": -77.02817816666666, "bike_id": "cc51804709a6e7fcf665ca2649e77fd0", "fusion_lat": 0.0, "name": "cc51804709a6e7fcf665ca2649e77fd0", "is_reserved": 0, "rental_uris": {"android": "https://dc.lft.to/lastmile_qr_scan", "ios": "https://dc.lft.to/lastmile_qr_scan"}, "fusion_lon": 0.0}, {"lat": 38.905351, "is_disabled": 0, "type": "electric_scooter", "lon": -77.04996216666666, "bike_id": "cb7ef95e0df5df0e6c65b4463b63d259", "fusion_lat": 0.0, "name": "cb7ef95e0df5df0e6c65b4463b63d259", "is_reserved": 0, "rental_uris": {"android": "https://dc.lft.to/lastmile_qr_scan", "ios": "https://dc.lft.to/lastmile_qr_scan"}, "fusion_lon": 0.0}, {"lat": 38.889707666666666, "is_disabled": 0, "type": "electric_scooter", "lon": -76.93739466666666, "bike_id": "bec0f31e6c76cb79cdb020a3ae97b635", "fusion_lat": 0.0, "name": "bec0f31e6c76cb79cdb020a3ae97b635", "is_reserved": 0, "rental_uris": {"android": "https://dc.lft.to/lastmile_qr_scan", "ios": "https://dc.lft.to/lastmile_qr_scan"}, "fusion_lon": 0.0}, {"lat": 38.92422716666667, "is_disabled": 0, "type": "electric_scooter", "lon": -77.05060633333333, "bike_id": "a5a63cc72f793b7fdc601d4a0d5d52b7", "fusion_lat": 0.0, "name": "a5a63cc72f793b7fdc601d4a0d5d52b7", "is_reserved": 0, "rental_uris": {"android": "https://dc.lft.to/lastmile_qr_scan", "ios": "https://dc.lft.to/lastmile_qr_scan"}, "fusion_lon": 0.0}, {"lat": 38.884305499999996, "is_disabled": 0, "type": "electric_scooter", "lon": -76.957602, "bike_id": "51c31307257d6afdccefb7d331aab80b", "fusion_lat": 0.0, "name": "51c31307257d6afdccefb7d331aab80b", "is_reserved": 0, "rental_uris": {"android": "https://dc.lft.to/lastmile_qr_scan", "ios": "https://dc.lft.to/lastmile_qr_scan"}, "fusion_lon": 0.0}, {"lat": 38.90750216666667, "is_disabled": 0, "type": "electric_scooter", "lon": -76.99881683333334, "bike_id": "fba854992855e4428b34f26bcd2ed53a", "fusion_lat": 0.0, "name": "fba854992855e4428b34f26bcd2ed53a", "is_reserved": 0, "rental_uris": {"android": "https://dc.lft.to/lastmile_qr_scan", "ios": "https://dc.lft.to/lastmile_qr_scan"}, "fusion_lon": 0.0}, {"lat": 38.874614, "is_disabled": 0, "type": "electric_scooter", "lon": -77.00494266666666, "bike_id": "75802388d5b1e8e4011d12cf3141a22e", "fusion_lat": 0.0, "name": "75802388d5b1e8e4011d12cf3141a22e", "is_reserved": 0, "rental_uris": {"android": "https://dc.lft.to/lastmile_qr_scan", "ios": "https://dc.lft.to/lastmile_qr_scan"}, "fusion_lon": 0.0}, {"lat": 38.9094245, "is_disabled": 0, "type": "electric_scooter", "lon": -77.0465945, "bike_id": "1a9c11d6048cc8eb7899c1dc29c821dc", "fusion_lat": 0.0, "name": "1a9c11d6048cc8eb7899c1dc29c821dc", "is_reserved": 0, "rental_uris": {"android": "https://dc.lft.to/lastmile_qr_scan", "ios": "https://dc.lft.to/lastmile_qr_scan"}, "fusion_lon": 0.0}, {"lat": 38.912713833333335, "is_disabled": 0, "type": "electric_scooter", "lon": -77.02252533333333, "bike_id": "f3eb6dc0fc6732d85de9986febc8234c", "fusion_lat": 0.0, "name": "f3eb6dc0fc6732d85de9986febc8234c", "is_reserved": 0, "rental_uris": {"android": "https://dc.lft.to/lastmile_qr_scan", "ios": "https://dc.lft.to/lastmile_qr_scan"}, "fusion_lon": 0.0}, {"lat": 38.916851, "is_disabled": 0, "type": "electric_scooter", "lon": -77.0296675, "bike_id": "6436a1641ce7ce9ca2d389cdbe0193de", "fusion_lat": 0.0, "name": "6436a1641ce7ce9ca2d389cdbe0193de", "is_reserved": 0, "rental_uris": {"android": "https://dc.lft.to/lastmile_qr_scan", "ios": "https://dc.lft.to/lastmile_qr_scan"}, "fusion_lon": 0.0}, {"lat": 38.90385066666666, "is_disabled": 0, "type": "electric_scooter", "lon": -77.04389033333334, "bike_id": "29653f720727745b366a9efe3eb999ad", "fusion_lat": 0.0, "name": "29653f720727745b366a9efe3eb999ad", "is_reserved": 0, "rental_uris": {"android": "https://dc.lft.to/lastmile_qr_scan", "ios": "https://dc.lft.to/lastmile_qr_scan"}, "fusion_lon": 0.0}, {"lat": 38.964993, "is_disabled": 0, "type": "electric_bike", "lon": -77.06491833333334, "bike_id": "f4e28ecac11c22b9d267d712b637e3a0", "fusion_lat": 0.0, "name": "f4e28ecac11c22b9d267d712b637e3a0", "is_reserved": 0, "rental_uris": {"android": "https://dc.lft.to/lastmile_qr_scan", "ios": "https://dc.lft.to/lastmile_qr_scan"}, "fusion_lon": 0.0}, {"lat": 38.98649066666667, "is_disabled": 0, "type": "electric_bike", "lon": -77.05642666666667, "bike_id": "633e6c1459c6a5a02ff02e873e5aa214", "fusion_lat": 0.0, "name": "633e6c1459c6a5a02ff02e873e5aa214", "is_reserved": 0, "rental_uris": {"android": "https://dc.lft.to/lastmile_qr_scan", "ios": "https://dc.lft.to/lastmile_qr_scan"}, "fusion_lon": 0.0}, {"lat": 38.885989333333335, "is_disabled": 0, "type": "electric_scooter", "lon": -77.002163, "bike_id": "db39f53743fd127f9f72902112ac0ab0", "fusion_lat": 0.0, "name": "db39f53743fd127f9f72902112ac0ab0", "is_reserved": 0, "rental_uris": {"android": "https://dc.lft.to/lastmile_qr_scan", "ios": "https://dc.lft.to/lastmile_qr_scan"}, "fusion_lon": 0.0}, {"lat": 38.87946783333334, "is_disabled": 0, "type": "electric_scooter", "lon": -77.00495533333333, "bike_id": "4ff85a8a187a5cca887aeab1cc32e057", "fusion_lat": 0.0, "name": "4ff85a8a187a5cca887aeab1cc32e057", "is_reserved": 0, "rental_uris": {"android": "https://dc.lft.to/lastmile_qr_scan", "ios": "https://dc.lft.to/lastmile_qr_scan"}, "fusion_lon": 0.0}, {"lat": 38.921868, "is_disabled": 0, "type": "electric_scooter", "lon": -77.03189033333334, "bike_id": "a30b8f43956388273c940e987bd6fd33", "fusion_lat": 0.0, "name": "a30b8f43956388273c940e987bd6fd33", "is_reserved": 0, "rental_uris": {"android": "https://dc.lft.to/lastmile_qr_scan", "ios": "https://dc.lft.to/lastmile_qr_scan"}, "fusion_lon": 0.0}, {"lat": 38.869241833333334, "is_disabled": 0, "type": "electric_scooter", "lon": -76.98300166666667, "bike_id": "e84ccf7be238682b9a4799f0bbb8a413", "fusion_lat": 0.0, "name": "e84ccf7be238682b9a4799f0bbb8a413", "is_reserved": 0, "rental_uris": {"android": "https://dc.lft.to/lastmile_qr_scan", "ios": "https://dc.lft.to/lastmile_qr_scan"}, "fusion_lon": 0.0}, {"lat": 38.844232833333336, "is_disabled": 0, "type": "electric_scooter", "lon": -76.99781933333334, "bike_id": "e57c126f2db5bc8ea26cb05d1d31adaf", "fusion_lat": 0.0, "name": "e57c126f2db5bc8ea26cb05d1d31adaf", "is_reserved": 0, "rental_uris": {"android": "https://dc.lft.to/lastmile_qr_scan", "ios": "https://dc.lft.to/lastmile_qr_scan"}, "fusion_lon": 0.0}, {"lat": 38.87454666666667, "is_disabled": 0, "type": "electric_scooter", "lon": -77.00545866666667, "bike_id": "48526dcadd6850ba46a4b9d9e40cde83", "fusion_lat": 0.0, "name": "48526dcadd6850ba46a4b9d9e40cde83", "is_reserved": 0, "rental_uris": {"android": "https://dc.lft.to/lastmile_qr_scan", "ios": "https://dc.lft.to/lastmile_qr_scan"}, "fusion_lon": 0.0}, {"lat": 38.91861216666667, "is_disabled": 0, "type": "electric_scooter", "lon": -76.9656185, "bike_id": "c98d892bee5573c421008fbe5145f2ab", "fusion_lat": 0.0, "name": "c98d892bee5573c421008fbe5145f2ab", "is_reserved": 0, "rental_uris": {"android": "https://dc.lft.to/lastmile_qr_scan", "ios": "https://dc.lft.to/lastmile_qr_scan"}, "fusion_lon": 0.0}, {"lat": 38.90257833333333, "is_disabled": 0, "type": "electric_scooter", "lon": -77.06283, "bike_id": "62533e627e6cc4bba2367f5f1cac7394", "fusion_lat": 0.0, "name": "62533e627e6cc4bba2367f5f1cac7394", "is_reserved": 0, "rental_uris": {"android": "https://dc.lft.to/lastmile_qr_scan", "ios": "https://dc.lft.to/lastmile_qr_scan"}, "fusion_lon": 0.0}, {"lat": 38.9168435, "is_disabled": 0, "type": "electric_scooter", "lon": -77.02954466666667, "bike_id": "25873d0a44fcfea1bec7a006edd343a1", "fusion_lat": 0.0, "name": "25873d0a44fcfea1bec7a006edd343a1", "is_reserved": 0, "rental_uris": {"android": "https://dc.lft.to/lastmile_qr_scan", "ios": "https://dc.lft.to/lastmile_qr_scan"}, "fusion_lon": 0.0}, {"lat": 38.89494583333333, "is_disabled": 0, "type": "electric_scooter", "lon": -77.027605, "bike_id": "03577d5b84e4a243deefe7e818b1cfa4", "fusion_lat": 0.0, "name": "03577d5b84e4a243deefe7e818b1cfa4", "is_reserved": 0, "rental_uris": {"android": "https://dc.lft.to/lastmile_qr_scan", "ios": "https://dc.lft.to/lastmile_qr_scan"}, "fusion_lon": 0.0}, {"lat": 38.918346, "is_disabled": 0, "type": "electric_scooter", "lon": -76.96542483333333, "bike_id": "061dac1569128fc8cde669dbbcc34cb7", "fusion_lat": 0.0, "name": "061dac1569128fc8cde669dbbcc34cb7", "is_reserved": 0, "rental_uris": {"android": "https://dc.lft.to/lastmile_qr_scan", "ios": "https://dc.lft.to/lastmile_qr_scan"}, "fusion_lon": 0.0}, {"lat": 38.92153033333334, "is_disabled": 0, "type": "electric_scooter", "lon": -77.04236266666666, "bike_id": "21e85c909480239151e5a59fb86dd998", "fusion_lat": 0.0, "name": "21e85c909480239151e5a59fb86dd998", "is_reserved": 0, "rental_uris": {"android": "https://dc.lft.to/lastmile_qr_scan", "ios": "https://dc.lft.to/lastmile_qr_scan"}, "fusion_lon": 0.0}, {"lat": 38.914736166666664, "is_disabled": 0, "type": "electric_scooter", "lon": -77.03243233333333, "bike_id": "95ca0addaacad0147bc17554db134a0e", "fusion_lat": 0.0, "name": "95ca0addaacad0147bc17554db134a0e", "is_reserved": 0, "rental_uris": {"android": "https://dc.lft.to/lastmile_qr_scan", "ios": "https://dc.lft.to/lastmile_qr_scan"}, "fusion_lon": 0.0}, {"lat": 38.89278383333333, "is_disabled": 0, "type": "electric_scooter", "lon": -77.05036766666667, "bike_id": "c509611b99989356185731083c8fcd42", "fusion_lat": 0.0, "name": "c509611b99989356185731083c8fcd42", "is_reserved": 0, "rental_uris": {"android": "https://dc.lft.to/lastmile_qr_scan", "ios": "https://dc.lft.to/lastmile_qr_scan"}, "fusion_lon": 0.0}, {"lat": 38.84626033333333, "is_disabled": 0, "type": "electric_bike", "lon": -77.0694325, "bike_id": "776b43d2db008c3cb02353262558293c", "fusion_lat": 0.0, "name": "776b43d2db008c3cb02353262558293c", "is_reserved": 0, "rental_uris": {"android": "https://dc.lft.to/lastmile_qr_scan", "ios": "https://dc.lft.to/lastmile_qr_scan"}, "fusion_lon": 0.0}, {"lat": 38.9167995, "is_disabled": 0, "type": "electric_scooter", "lon": -77.02393133333334, "bike_id": "493de4b275ddc3a47d63f7c1f2115af6", "fusion_lat": 0.0, "name": "493de4b275ddc3a47d63f7c1f2115af6", "is_reserved": 0, "rental_uris": {"android": "https://dc.lft.to/lastmile_qr_scan", "ios": "https://dc.lft.to/lastmile_qr_scan"}, "fusion_lon": 0.0}, {"lat": 38.916036, "is_disabled": 0, "type": "electric_scooter", "lon": -77.03212133333334, "bike_id": "750323376c5116db97bd3503c12cf9bf", "fusion_lat": 0.0, "name": "750323376c5116db97bd3503c12cf9bf", "is_reserved": 0, "rental_uris": {"android": "https://dc.lft.to/lastmile_qr_scan", "ios": "https://dc.lft.to/lastmile_qr_scan"}, "fusion_lon": 0.0}, {"lat": 38.887167833333336, "is_disabled": 0, "type": "electric_scooter", "lon": -76.9547495, "bike_id": "05e26a0062f61394f07138c38df779a0", "fusion_lat": 0.0, "name": "05e26a0062f61394f07138c38df779a0", "is_reserved": 0, "rental_uris": {"android": "https://dc.lft.to/lastmile_qr_scan", "ios": "https://dc.lft.to/lastmile_qr_scan"}, "fusion_lon": 0.0}, {"lat": 38.9114225, "is_disabled": 0, "type": "electric_scooter", "lon": -77.04482783333333, "bike_id": "6852f7b2c2db3dea365848e15687dda2", "fusion_lat": 0.0, "name": "6852f7b2c2db3dea365848e15687dda2", "is_reserved": 0, "rental_uris": {"android": "https://dc.lft.to/lastmile_qr_scan", "ios": "https://dc.lft.to/lastmile_qr_scan"}, "fusion_lon": 0.0}, {"lat": 38.89579233333333, "is_disabled": 0, "type": "electric_scooter", "lon": -77.0220085, "bike_id": "c6a5901049607109a6ecfbbd19b1e31d", "fusion_lat": 0.0, "name": "c6a5901049607109a6ecfbbd19b1e31d", "is_reserved": 0, "rental_uris": {"android": "https://dc.lft.to/lastmile_qr_scan", "ios": "https://dc.lft.to/lastmile_qr_scan"}, "fusion_lon": 0.0}, {"lat": 38.853250333333335, "is_disabled": 0, "type": "electric_bike", "lon": -76.979995, "bike_id": "76db5d3832b40c1e3c26de10f03bb58d", "fusion_lat": 0.0, "name": "76db5d3832b40c1e3c26de10f03bb58d", "is_reserved": 0, "rental_uris": {"android": "https://dc.lft.to/lastmile_qr_scan", "ios": "https://dc.lft.to/lastmile_qr_scan"}, "fusion_lon": 0.0}, {"lat": 38.93076516666667, "is_disabled": 0, "type": "electric_scooter", "lon": -77.01666116666667, "bike_id": "4630683d04fb6aa98fe1fe15d665ffd5", "fusion_lat": 0.0, "name": "4630683d04fb6aa98fe1fe15d665ffd5", "is_reserved": 0, "rental_uris": {"android": "https://dc.lft.to/lastmile_qr_scan", "ios": "https://dc.lft.to/lastmile_qr_scan"}, "fusion_lon": 0.0}, {"lat": 38.89494333333333, "is_disabled": 0, "type": "electric_scooter", "lon": -77.02307533333334, "bike_id": "068dd4d99426541f155726d30c167937", "fusion_lat": 0.0, "name": "068dd4d99426541f155726d30c167937", "is_reserved": 0, "rental_uris": {"android": "https://dc.lft.to/lastmile_qr_scan", "ios": "https://dc.lft.to/lastmile_qr_scan"}, "fusion_lon": 0.0}, {"lat": 38.896808, "is_disabled": 0, "type": "electric_scooter", "lon": -76.936096, "bike_id": "5ba23a6ffb2e8e91cc9b5b7ba7875701", "fusion_lat": 0.0, "name": "5ba23a6ffb2e8e91cc9b5b7ba7875701", "is_reserved": 0, "rental_uris": {"android": "https://dc.lft.to/lastmile_qr_scan", "ios": "https://dc.lft.to/lastmile_qr_scan"}, "fusion_lon": 0.0}, {"lat": 38.9247085, "is_disabled": 0, "type": "electric_scooter", "lon": -77.02721766666667, "bike_id": "e912f6a1ec2974d109c675cb28f336ea", "fusion_lat": 0.0, "name": "e912f6a1ec2974d109c675cb28f336ea", "is_reserved": 0, "rental_uris": {"android": "https://dc.lft.to/lastmile_qr_scan", "ios": "https://dc.lft.to/lastmile_qr_scan"}, "fusion_lon": 0.0}, {"lat": 38.89694566666667, "is_disabled": 0, "type": "electric_scooter", "lon": -76.996279, "bike_id": "13187523449729732a0b32eaa5d18623", "fusion_lat": 0.0, "name": "13187523449729732a0b32eaa5d18623", "is_reserved": 0, "rental_uris": {"android": "https://dc.lft.to/lastmile_qr_scan", "ios": "https://dc.lft.to/lastmile_qr_scan"}, "fusion_lon": 0.0}, {"lat": 38.90960366666667, "is_disabled": 0, "type": "electric_scooter", "lon": -77.04660733333333, "bike_id": "499348a9e5cce203e6ba656950183960", "fusion_lat": 0.0, "name": "499348a9e5cce203e6ba656950183960", "is_reserved": 0, "rental_uris": {"android": "https://dc.lft.to/lastmile_qr_scan", "ios": "https://dc.lft.to/lastmile_qr_scan"}, "fusion_lon": 0.0}, {"lat": 38.91356716666667, "is_disabled": 0, "type": "electric_scooter", "lon": -77.0434645, "bike_id": "a5461661d5909268f5b6f067fcd9a0df", "fusion_lat": 0.0, "name": "a5461661d5909268f5b6f067fcd9a0df", "is_reserved": 0, "rental_uris": {"android": "https://dc.lft.to/lastmile_qr_scan", "ios": "https://dc.lft.to/lastmile_qr_scan"}, "fusion_lon": 0.0}, {"lat": 38.863677833333334, "is_disabled": 0, "type": "electric_scooter", "lon": -76.99049216666667, "bike_id": "f6ade407f7a0ecc981c025d401db2fff", "fusion_lat": 0.0, "name": "f6ade407f7a0ecc981c025d401db2fff", "is_reserved": 0, "rental_uris": {"android": "https://dc.lft.to/lastmile_qr_scan", "ios": "https://dc.lft.to/lastmile_qr_scan"}, "fusion_lon": 0.0}, {"lat": 38.93975283333333, "is_disabled": 0, "type": "electric_scooter", "lon": -77.0327155, "bike_id": "06fbfd9d87946ccbbdb70fa250eb2e50", "fusion_lat": 0.0, "name": "06fbfd9d87946ccbbdb70fa250eb2e50", "is_reserved": 0, "rental_uris": {"android": "https://dc.lft.to/lastmile_qr_scan", "ios": "https://dc.lft.to/lastmile_qr_scan"}, "fusion_lon": 0.0}, {"lat": 38.879491333333334, "is_disabled": 0, "type": "electric_bike", "lon": -77.10732033333333, "bike_id": "fa6cf48fcde9ec4ed6ade4fb954e3b4d", "fusion_lat": 0.0, "name": "fa6cf48fcde9ec4ed6ade4fb954e3b4d", "is_reserved": 0, "rental_uris": {"android": "https://dc.lft.to/lastmile_qr_scan", "ios": "https://dc.lft.to/lastmile_qr_scan"}, "fusion_lon": 0.0}, {"lat": 38.912659833333336, "is_disabled": 0, "type": "electric_scooter", "lon": -77.03635116666666, "bike_id": "e2b17c7a3b8930150ace8442a049df16", "fusion_lat": 0.0, "name": "e2b17c7a3b8930150ace8442a049df16", "is_reserved": 0, "rental_uris": {"android": "https://dc.lft.to/lastmile_qr_scan", "ios": "https://dc.lft.to/lastmile_qr_scan"}, "fusion_lon": 0.0}, {"lat": 38.87110216666667, "is_disabled": 0, "type": "electric_scooter", "lon": -77.010749, "bike_id": "9fd1179d3885d484ed35183558593128", "fusion_lat": 0.0, "name": "9fd1179d3885d484ed35183558593128", "is_reserved": 0, "rental_uris": {"android": "https://dc.lft.to/lastmile_qr_scan", "ios": "https://dc.lft.to/lastmile_qr_scan"}, "fusion_lon": 0.0}, {"lat": 38.907011, "is_disabled": 0, "type": "electric_scooter", "lon": -76.98702366666667, "bike_id": "3dd55af00c25f78328f5a65c57804c9c", "fusion_lat": 0.0, "name": "3dd55af00c25f78328f5a65c57804c9c", "is_reserved": 0, "rental_uris": {"android": "https://dc.lft.to/lastmile_qr_scan", "ios": "https://dc.lft.to/lastmile_qr_scan"}, "fusion_lon": 0.0}, {"lat": 38.951837, "is_disabled": 0, "type": "electric_bike", "lon": -76.93554033333334, "bike_id": "afb1e7e4c3f1730d25f3d4d99264d8f8", "fusion_lat": 0.0, "name": "afb1e7e4c3f1730d25f3d4d99264d8f8", "is_reserved": 0, "rental_uris": {"android": "https://dc.lft.to/lastmile_qr_scan", "ios": "https://dc.lft.to/lastmile_qr_scan"}, "fusion_lon": 0.0}, {"lat": 38.939324666666664, "is_disabled": 0, "type": "electric_scooter", "lon": -77.02228583333333, "bike_id": "7c392b7dcab3710ff32112d688204caf", "fusion_lat": 0.0, "name": "7c392b7dcab3710ff32112d688204caf", "is_reserved": 0, "rental_uris": {"android": "https://dc.lft.to/lastmile_qr_scan", "ios": "https://dc.lft.to/lastmile_qr_scan"}, "fusion_lon": 0.0}, {"lat": 38.91130783333333, "is_disabled": 0, "type": "electric_scooter", "lon": -77.0297255, "bike_id": "3ea2dddbe2da004962d6399d97a657af", "fusion_lat": 0.0, "name": "3ea2dddbe2da004962d6399d97a657af", "is_reserved": 0, "rental_uris": {"android": "https://dc.lft.to/lastmile_qr_scan", "ios": "https://dc.lft.to/lastmile_qr_scan"}, "fusion_lon": 0.0}, {"lat": 39.029355, "is_disabled": 0, "type": "electric_bike", "lon": -77.04929616666666, "bike_id": "caa7ce1ebefc2fa320fa38333d3982b9", "fusion_lat": 0.0, "name": "caa7ce1ebefc2fa320fa38333d3982b9", "is_reserved": 0, "rental_uris": {"android": "https://dc.lft.to/lastmile_qr_scan", "ios": "https://dc.lft.to/lastmile_qr_scan"}, "fusion_lon": 0.0}, {"lat": 38.882117666666666, "is_disabled": 0, "type": "electric_scooter", "lon": -76.98920266666667, "bike_id": "2095b337975f22a62c4a8715e5639b2f", "fusion_lat": 0.0, "name": "2095b337975f22a62c4a8715e5639b2f", "is_reserved": 0, "rental_uris": {"android": "https://dc.lft.to/lastmile_qr_scan", "ios": "https://dc.lft.to/lastmile_qr_scan"}, "fusion_lon": 0.0}, {"lat": 38.91987133333333, "is_disabled": 0, "type": "electric_scooter", "lon": -76.97315866666666, "bike_id": "ca7081b882fab9c6b40b111f66d3713c", "fusion_lat": 0.0, "name": "ca7081b882fab9c6b40b111f66d3713c", "is_reserved": 0, "rental_uris": {"android": "https://dc.lft.to/lastmile_qr_scan", "ios": "https://dc.lft.to/lastmile_qr_scan"}, "fusion_lon": 0.0}, {"lat": 38.917039833333334, "is_disabled": 0, "type": "electric_scooter", "lon": -77.03187333333334, "bike_id": "6a9e4712d718d508cd73e77637985b3a", "fusion_lat": 0.0, "name": "6a9e4712d718d508cd73e77637985b3a", "is_reserved": 0, "rental_uris": {"android": "https://dc.lft.to/lastmile_qr_scan", "ios": "https://dc.lft.to/lastmile_qr_scan"}, "fusion_lon": 0.0}, {"lat": 38.91494816666667, "is_disabled": 0, "type": "electric_scooter", "lon": -77.0186155, "bike_id": "7009515d9c77aec7f2a923ff436a53ae", "fusion_lat": 0.0, "name": "7009515d9c77aec7f2a923ff436a53ae", "is_reserved": 0, "rental_uris": {"android": "https://dc.lft.to/lastmile_qr_scan", "ios": "https://dc.lft.to/lastmile_qr_scan"}, "fusion_lon": 0.0}, {"lat": 38.95398216666667, "is_disabled": 0, "type": "electric_scooter", "lon": -77.02753416666667, "bike_id": "292021c3110a46417ec36bbcae8f0d76", "fusion_lat": 0.0, "name": "292021c3110a46417ec36bbcae8f0d76", "is_reserved": 0, "rental_uris": {"android": "https://dc.lft.to/lastmile_qr_scan", "ios": "https://dc.lft.to/lastmile_qr_scan"}, "fusion_lon": 0.0}, {"lat": 38.96016983333333, "is_disabled": 0, "type": "electric_bike", "lon": -77.017306, "bike_id": "eea446b0c60b8007036cae89afec145f", "fusion_lat": 0.0, "name": "eea446b0c60b8007036cae89afec145f", "is_reserved": 0, "rental_uris": {"android": "https://dc.lft.to/lastmile_qr_scan", "ios": "https://dc.lft.to/lastmile_qr_scan"}, "fusion_lon": 0.0}, {"lat": 38.874224166666664, "is_disabled": 0, "type": "electric_bike", "lon": -77.08573433333333, "bike_id": "22dabedd3bc88bf0c806ce2dbf59f73f", "fusion_lat": 0.0, "name": "22dabedd3bc88bf0c806ce2dbf59f73f", "is_reserved": 0, "rental_uris": {"android": "https://dc.lft.to/lastmile_qr_scan", "ios": "https://dc.lft.to/lastmile_qr_scan"}, "fusion_lon": 0.0}, {"lat": 38.87572316666667, "is_disabled": 0, "type": "electric_scooter", "lon": -77.01327866666666, "bike_id": "a65c0a907e5a5263979628d17027b6ba", "fusion_lat": 0.0, "name": "a65c0a907e5a5263979628d17027b6ba", "is_reserved": 0, "rental_uris": {"android": "https://dc.lft.to/lastmile_qr_scan", "ios": "https://dc.lft.to/lastmile_qr_scan"}, "fusion_lon": 0.0}, {"lat": 38.918941333333336, "is_disabled": 0, "type": "electric_scooter", "lon": -77.041558, "bike_id": "3dc4f43517ba5bba827c8927ce7607fe", "fusion_lat": 0.0, "name": "3dc4f43517ba5bba827c8927ce7607fe", "is_reserved": 0, "rental_uris": {"android": "https://dc.lft.to/lastmile_qr_scan", "ios": "https://dc.lft.to/lastmile_qr_scan"}, "fusion_lon": 0.0}, {"lat": 38.883173666666664, "is_disabled": 0, "type": "electric_scooter", "lon": -76.99243283333334, "bike_id": "28deee990405144c0e3f5c46c1bdfa30", "fusion_lat": 0.0, "name": "28deee990405144c0e3f5c46c1bdfa30", "is_reserved": 0, "rental_uris": {"android": "https://dc.lft.to/lastmile_qr_scan", "ios": "https://dc.lft.to/lastmile_qr_scan"}, "fusion_lon": 0.0}, {"lat": 38.90866116666667, "is_disabled": 0, "type": "electric_bike", "lon": -77.08070083333334, "bike_id": "48592623dacabbcd3cfd07c8c84ff006", "fusion_lat": 0.0, "name": "48592623dacabbcd3cfd07c8c84ff006", "is_reserved": 0, "rental_uris": {"android": "https://dc.lft.to/lastmile_qr_scan", "ios": "https://dc.lft.to/lastmile_qr_scan"}, "fusion_lon": 0.0}, {"lat": 38.950728, "is_disabled": 0, "type": "electric_scooter", "lon": -77.0087755, "bike_id": "b8e6df4b0485980df7f9828c2288fbbf", "fusion_lat": 0.0, "name": "b8e6df4b0485980df7f9828c2288fbbf", "is_reserved": 0, "rental_uris": {"android": "https://dc.lft.to/lastmile_qr_scan", "ios": "https://dc.lft.to/lastmile_qr_scan"}, "fusion_lon": 0.0}, {"lat": 38.9222385, "is_disabled": 0, "type": "electric_scooter", "lon": -77.032965, "bike_id": "65ff1bcd4b4ed1e7a457d73bc5f8d83f", "fusion_lat": 0.0, "name": "65ff1bcd4b4ed1e7a457d73bc5f8d83f", "is_reserved": 0, "rental_uris": {"android": "https://dc.lft.to/lastmile_qr_scan", "ios": "https://dc.lft.to/lastmile_qr_scan"}, "fusion_lon": 0.0}, {"lat": 38.89596, "is_disabled": 0, "type": "electric_scooter", "lon": -77.02911383333333, "bike_id": "1faa7e8fd66a5fc8d3a2b0a22d8639c2", "fusion_lat": 0.0, "name": "1faa7e8fd66a5fc8d3a2b0a22d8639c2", "is_reserved": 0, "rental_uris": {"android": "https://dc.lft.to/lastmile_qr_scan", "ios": "https://dc.lft.to/lastmile_qr_scan"}, "fusion_lon": 0.0}, {"lat": 38.90495466666667, "is_disabled": 0, "type": "electric_scooter", "lon": -77.04334716666666, "bike_id": "7de0496128569e4a6db494962def20a4", "fusion_lat": 0.0, "name": "7de0496128569e4a6db494962def20a4", "is_reserved": 0, "rental_uris": {"android": "https://dc.lft.to/lastmile_qr_scan", "ios": "https://dc.lft.to/lastmile_qr_scan"}, "fusion_lon": 0.0}, {"lat": 38.921459666666664, "is_disabled": 0, "type": "electric_scooter", "lon": -77.035159, "bike_id": "4206057e7d219ffc96719778c1a22ee3", "fusion_lat": 0.0, "name": "4206057e7d219ffc96719778c1a22ee3", "is_reserved": 0, "rental_uris": {"android": "https://dc.lft.to/lastmile_qr_scan", "ios": "https://dc.lft.to/lastmile_qr_scan"}, "fusion_lon": 0.0}, {"lat": 38.900563166666664, "is_disabled": 0, "type": "electric_bike", "lon": -77.04176866666667, "bike_id": "a020eff416a1df33f86250799469f418", "fusion_lat": 0.0, "name": "a020eff416a1df33f86250799469f418", "is_reserved": 0, "rental_uris": {"android": "https://dc.lft.to/lastmile_qr_scan", "ios": "https://dc.lft.to/lastmile_qr_scan"}, "fusion_lon": 0.0}, {"lat": 38.879064166666666, "is_disabled": 0, "type": "electric_scooter", "lon": -77.02232183333334, "bike_id": "986b06eff2fa5db0b6246531a30ba706", "fusion_lat": 0.0, "name": "986b06eff2fa5db0b6246531a30ba706", "is_reserved": 0, "rental_uris": {"android": "https://dc.lft.to/lastmile_qr_scan", "ios": "https://dc.lft.to/lastmile_qr_scan"}, "fusion_lon": 0.0}, {"lat": 38.90716533333333, "is_disabled": 0, "type": "electric_scooter", "lon": -77.04017066666667, "bike_id": "5132d55df542b7d2dc25492cbe95b729", "fusion_lat": 0.0, "name": "5132d55df542b7d2dc25492cbe95b729", "is_reserved": 0, "rental_uris": {"android": "https://dc.lft.to/lastmile_qr_scan", "ios": "https://dc.lft.to/lastmile_qr_scan"}, "fusion_lon": 0.0}, {"lat": 39.088581833333336, "is_disabled": 0, "type": "electric_bike", "lon": -77.17848, "bike_id": "b8221eeaf0612f514a80d26279983d58", "fusion_lat": 0.0, "name": "b8221eeaf0612f514a80d26279983d58", "is_reserved": 0, "rental_uris": {"android": "https://dc.lft.to/lastmile_qr_scan", "ios": "https://dc.lft.to/lastmile_qr_scan"}, "fusion_lon": 0.0}, {"lat": 38.98364333333333, "is_disabled": 0, "type": "electric_scooter", "lon": -77.02650466666667, "bike_id": "6831b96e8d96e38ba269eae369262154", "fusion_lat": 0.0, "name": "6831b96e8d96e38ba269eae369262154", "is_reserved": 0, "rental_uris": {"android": "https://dc.lft.to/lastmile_qr_scan", "ios": "https://dc.lft.to/lastmile_qr_scan"}, "fusion_lon": 0.0}, {"lat": 38.909535166666664, "is_disabled": 0, "type": "electric_scooter", "lon": -77.03895716666666, "bike_id": "355ea223238cf8e2f094c0749e47b9ed", "fusion_lat": 0.0, "name": "355ea223238cf8e2f094c0749e47b9ed", "is_reserved": 0, "rental_uris": {"android": "https://dc.lft.to/lastmile_qr_scan", "ios": "https://dc.lft.to/lastmile_qr_scan"}, "fusion_lon": 0.0}, {"lat": 38.928769, "is_disabled": 0, "type": "electric_scooter", "lon": -77.027103, "bike_id": "9f1be1bd7626696742b1b58a4a93744d", "fusion_lat": 0.0, "name": "9f1be1bd7626696742b1b58a4a93744d", "is_reserved": 0, "rental_uris": {"android": "https://dc.lft.to/lastmile_qr_scan", "ios": "https://dc.lft.to/lastmile_qr_scan"}, "fusion_lon": 0.0}, {"lat": 38.9285555, "is_disabled": 0, "type": "electric_bike", "lon": -77.2222755, "bike_id": "2b5c42e985765f2f6c3e03f5dd9d426e", "fusion_lat": 0.0, "name": "2b5c42e985765f2f6c3e03f5dd9d426e", "is_reserved": 0, "rental_uris": {"android": "https://dc.lft.to/lastmile_qr_scan", "ios": "https://dc.lft.to/lastmile_qr_scan"}, "fusion_lon": 0.0}, {"lat": 38.916852166666665, "is_disabled": 0, "type": "electric_scooter", "lon": -77.02702883333333, "bike_id": "0fe58e9b790e9035e5d9c71fb3fefa95", "fusion_lat": 0.0, "name": "0fe58e9b790e9035e5d9c71fb3fefa95", "is_reserved": 0, "rental_uris": {"android": "https://dc.lft.to/lastmile_qr_scan", "ios": "https://dc.lft.to/lastmile_qr_scan"}, "fusion_lon": 0.0}, {"lat": 38.919418666666665, "is_disabled": 0, "type": "electric_scooter", "lon": -77.04786033333333, "bike_id": "6566c7928aaca161bbf9c89c25c18eed", "fusion_lat": 0.0, "name": "6566c7928aaca161bbf9c89c25c18eed", "is_reserved": 0, "rental_uris": {"android": "https://dc.lft.to/lastmile_qr_scan", "ios": "https://dc.lft.to/lastmile_qr_scan"}, "fusion_lon": 0.0}, {"lat": 39.030483833333335, "is_disabled": 0, "type": "electric_bike", "lon": -77.09487, "bike_id": "7fc244eafb8b0c93e3f23d618021a67a", "fusion_lat": 0.0, "name": "7fc244eafb8b0c93e3f23d618021a67a", "is_reserved": 0, "rental_uris": {"android": "https://dc.lft.to/lastmile_qr_scan", "ios": "https://dc.lft.to/lastmile_qr_scan"}, "fusion_lon": 0.0}, {"lat": 38.93666433333333, "is_disabled": 0, "type": "electric_scooter", "lon": -77.03592366666666, "bike_id": "3179b61800a0ee032681ecdf274e4be5", "fusion_lat": 0.0, "name": "3179b61800a0ee032681ecdf274e4be5", "is_reserved": 0, "rental_uris": {"android": "https://dc.lft.to/lastmile_qr_scan", "ios": "https://dc.lft.to/lastmile_qr_scan"}, "fusion_lon": 0.0}, {"lat": 38.91722133333333, "is_disabled": 0, "type": "electric_scooter", "lon": -77.02895266666667, "bike_id": "b8dce877adde5fd3b4099f6bcb7d291d", "fusion_lat": 0.0, "name": "b8dce877adde5fd3b4099f6bcb7d291d", "is_reserved": 0, "rental_uris": {"android": "https://dc.lft.to/lastmile_qr_scan", "ios": "https://dc.lft.to/lastmile_qr_scan"}, "fusion_lon": 0.0}, {"lat": 38.917079, "is_disabled": 0, "type": "electric_scooter", "lon": -77.0289345, "bike_id": "80297568d453a08c4706a683fad3faf1", "fusion_lat": 0.0, "name": "80297568d453a08c4706a683fad3faf1", "is_reserved": 0, "rental_uris": {"android": "https://dc.lft.to/lastmile_qr_scan", "ios": "https://dc.lft.to/lastmile_qr_scan"}, "fusion_lon": 0.0}, {"lat": 38.915440333333336, "is_disabled": 0, "type": "electric_scooter", "lon": -77.03518916666667, "bike_id": "d7f4995e5d78caa639426c739b385d51", "fusion_lat": 0.0, "name": "d7f4995e5d78caa639426c739b385d51", "is_reserved": 0, "rental_uris": {"android": "https://dc.lft.to/lastmile_qr_scan", "ios": "https://dc.lft.to/lastmile_qr_scan"}, "fusion_lon": 0.0}, {"lat": 38.892219833333336, "is_disabled": 0, "type": "electric_scooter", "lon": -77.048004, "bike_id": "c863754ee0a8f74d2a573a4c644ffc0f", "fusion_lat": 0.0, "name": "c863754ee0a8f74d2a573a4c644ffc0f", "is_reserved": 0, "rental_uris": {"android": "https://dc.lft.to/lastmile_qr_scan", "ios": "https://dc.lft.to/lastmile_qr_scan"}, "fusion_lon": 0.0}, {"lat": 38.90133316666667, "is_disabled": 0, "type": "electric_scooter", "lon": -77.000713, "bike_id": "63d7c072a47cf2fe99c5f808f1432b91", "fusion_lat": 0.0, "name": "63d7c072a47cf2fe99c5f808f1432b91", "is_reserved": 0, "rental_uris": {"android": "https://dc.lft.to/lastmile_qr_scan", "ios": "https://dc.lft.to/lastmile_qr_scan"}, "fusion_lon": 0.0}, {"lat": 38.873855, "is_disabled": 0, "type": "electric_scooter", "lon": -77.00041366666666, "bike_id": "8b3f2ed372680dd50671aa6981167685", "fusion_lat": 0.0, "name": "8b3f2ed372680dd50671aa6981167685", "is_reserved": 0, "rental_uris": {"android": "https://dc.lft.to/lastmile_qr_scan", "ios": "https://dc.lft.to/lastmile_qr_scan"}, "fusion_lon": 0.0}, {"lat": 38.8870635, "is_disabled": 0, "type": "electric_scooter", "lon": -77.00154516666667, "bike_id": "c0820e9f3791f7f084b8f507d4035ace", "fusion_lat": 0.0, "name": "c0820e9f3791f7f084b8f507d4035ace", "is_reserved": 0, "rental_uris": {"android": "https://dc.lft.to/lastmile_qr_scan", "ios": "https://dc.lft.to/lastmile_qr_scan"}, "fusion_lon": 0.0}, {"lat": 38.90621333333333, "is_disabled": 0, "type": "electric_scooter", "lon": -77.070314, "bike_id": "ac57f86f2ef5aaa5bd77a8226bdac7f7", "fusion_lat": 0.0, "name": "ac57f86f2ef5aaa5bd77a8226bdac7f7", "is_reserved": 0, "rental_uris": {"android": "https://dc.lft.to/lastmile_qr_scan", "ios": "https://dc.lft.to/lastmile_qr_scan"}, "fusion_lon": 0.0}, {"lat": 38.916204, "is_disabled": 0, "type": "electric_scooter", "lon": -77.042724, "bike_id": "373cc99d4a80f18a0ab73c7567f85f03", "fusion_lat": 0.0, "name": "373cc99d4a80f18a0ab73c7567f85f03", "is_reserved": 0, "rental_uris": {"android": "https://dc.lft.to/lastmile_qr_scan", "ios": "https://dc.lft.to/lastmile_qr_scan"}, "fusion_lon": 0.0}, {"lat": 38.90502633333333, "is_disabled": 0, "type": "electric_scooter", "lon": -77.04663633333334, "bike_id": "48a483f98db08028d43f0062e8d062cf", "fusion_lat": 0.0, "name": "48a483f98db08028d43f0062e8d062cf", "is_reserved": 0, "rental_uris": {"android": "https://dc.lft.to/lastmile_qr_scan", "ios": "https://dc.lft.to/lastmile_qr_scan"}, "fusion_lon": 0.0}, {"lat": 38.921804, "is_disabled": 0, "type": "electric_scooter", "lon": -77.04232283333333, "bike_id": "450273d4d7dbebeacbf4760ccfea9f32", "fusion_lat": 0.0, "name": "450273d4d7dbebeacbf4760ccfea9f32", "is_reserved": 0, "rental_uris": {"android": "https://dc.lft.to/lastmile_qr_scan", "ios": "https://dc.lft.to/lastmile_qr_scan"}, "fusion_lon": 0.0}, {"lat": 38.9386005, "is_disabled": 0, "type": "electric_scooter", "lon": -77.02494783333333, "bike_id": "5787190c4496072617d7169533784d6e", "fusion_lat": 0.0, "name": "5787190c4496072617d7169533784d6e", "is_reserved": 0, "rental_uris": {"android": "https://dc.lft.to/lastmile_qr_scan", "ios": "https://dc.lft.to/lastmile_qr_scan"}, "fusion_lon": 0.0}, {"lat": 38.923286, "is_disabled": 0, "type": "electric_scooter", "lon": -77.039061, "bike_id": "c0b9a3938d8b6f71ee562a15229a6057", "fusion_lat": 0.0, "name": "c0b9a3938d8b6f71ee562a15229a6057", "is_reserved": 0, "rental_uris": {"android": "https://dc.lft.to/lastmile_qr_scan", "ios": "https://dc.lft.to/lastmile_qr_scan"}, "fusion_lon": 0.0}, {"lat": 38.93306783333333, "is_disabled": 0, "type": "electric_scooter", "lon": -77.03297983333333, "bike_id": "7cbc26b5a50c3702e1073beb168e3288", "fusion_lat": 0.0, "name": "7cbc26b5a50c3702e1073beb168e3288", "is_reserved": 0, "rental_uris": {"android": "https://dc.lft.to/lastmile_qr_scan", "ios": "https://dc.lft.to/lastmile_qr_scan"}, "fusion_lon": 0.0}, {"lat": 38.900186166666664, "is_disabled": 0, "type": "electric_scooter", "lon": -76.99088266666666, "bike_id": "1200f4a3ed342d3b0be92e687be45cbd", "fusion_lat": 0.0, "name": "1200f4a3ed342d3b0be92e687be45cbd", "is_reserved": 0, "rental_uris": {"android": "https://dc.lft.to/lastmile_qr_scan", "ios": "https://dc.lft.to/lastmile_qr_scan"}, "fusion_lon": 0.0}, {"lat": 38.914095333333336, "is_disabled": 0, "type": "electric_scooter", "lon": -77.02227716666667, "bike_id": "2182632f712782f0d385318c0fb15bf3", "fusion_lat": 0.0, "name": "2182632f712782f0d385318c0fb15bf3", "is_reserved": 0, "rental_uris": {"android": "https://dc.lft.to/lastmile_qr_scan", "ios": "https://dc.lft.to/lastmile_qr_scan"}, "fusion_lon": 0.0}, {"lat": 38.95198283333333, "is_disabled": 0, "type": "electric_bike", "lon": -76.96722066666666, "bike_id": "06053634f4c07b64f30b3ef11d8ee2cd", "fusion_lat": 0.0, "name": "06053634f4c07b64f30b3ef11d8ee2cd", "is_reserved": 0, "rental_uris": {"android": "https://dc.lft.to/lastmile_qr_scan", "ios": "https://dc.lft.to/lastmile_qr_scan"}, "fusion_lon": 0.0}, {"lat": 38.929545166666664, "is_disabled": 0, "type": "electric_scooter", "lon": -77.0549625, "bike_id": "11cd918f4269376f82e343c57ff02920", "fusion_lat": 0.0, "name": "11cd918f4269376f82e343c57ff02920", "is_reserved": 0, "rental_uris": {"android": "https://dc.lft.to/lastmile_qr_scan", "ios": "https://dc.lft.to/lastmile_qr_scan"}, "fusion_lon": 0.0}, {"lat": 38.863885333333336, "is_disabled": 0, "type": "electric_bike", "lon": -76.9899265, "bike_id": "499666b353f7eeb6065ba28f1c11db73", "fusion_lat": 0.0, "name": "499666b353f7eeb6065ba28f1c11db73", "is_reserved": 0, "rental_uris": {"android": "https://dc.lft.to/lastmile_qr_scan", "ios": "https://dc.lft.to/lastmile_qr_scan"}, "fusion_lon": 0.0}, {"lat": 38.90353966666667, "is_disabled": 0, "type": "electric_scooter", "lon": -77.01083066666666, "bike_id": "feae884f9d24edbae2f2f1bb16a30316", "fusion_lat": 0.0, "name": "feae884f9d24edbae2f2f1bb16a30316", "is_reserved": 0, "rental_uris": {"android": "https://dc.lft.to/lastmile_qr_scan", "ios": "https://dc.lft.to/lastmile_qr_scan"}, "fusion_lon": 0.0}, {"lat": 39.0002425, "is_disabled": 0, "type": "electric_bike", "lon": -76.91092816666666, "bike_id": "c4d971e98765b43a28f3367100b3188d", "fusion_lat": 0.0, "name": "c4d971e98765b43a28f3367100b3188d", "is_reserved": 0, "rental_uris": {"android": "https://dc.lft.to/lastmile_qr_scan", "ios": "https://dc.lft.to/lastmile_qr_scan"}, "fusion_lon": 0.0}, {"lat": 38.906865833333335, "is_disabled": 0, "type": "electric_scooter", "lon": -77.06358583333333, "bike_id": "28459f92bc0582ca29a1b6d260d59f1e", "fusion_lat": 0.0, "name": "28459f92bc0582ca29a1b6d260d59f1e", "is_reserved": 0, "rental_uris": {"android": "https://dc.lft.to/lastmile_qr_scan", "ios": "https://dc.lft.to/lastmile_qr_scan"}, "fusion_lon": 0.0}, {"lat": 38.9183685, "is_disabled": 0, "type": "electric_scooter", "lon": -77.0450335, "bike_id": "8453d2c3b7e118384712c360a86e3f7a", "fusion_lat": 0.0, "name": "8453d2c3b7e118384712c360a86e3f7a", "is_reserved": 0, "rental_uris": {"android": "https://dc.lft.to/lastmile_qr_scan", "ios": "https://dc.lft.to/lastmile_qr_scan"}, "fusion_lon": 0.0}, {"lat": 38.86819366666667, "is_disabled": 0, "type": "electric_bike", "lon": -76.98029933333333, "bike_id": "716dded2d8fbe4e72c2a2d1ff1752002", "fusion_lat": 0.0, "name": "716dded2d8fbe4e72c2a2d1ff1752002", "is_reserved": 0, "rental_uris": {"android": "https://dc.lft.to/lastmile_qr_scan", "ios": "https://dc.lft.to/lastmile_qr_scan"}, "fusion_lon": 0.0}, {"lat": 38.895282333333334, "is_disabled": 0, "type": "electric_scooter", "lon": -77.03211166666667, "bike_id": "2342b398647f15b713262592ba557730", "fusion_lat": 0.0, "name": "2342b398647f15b713262592ba557730", "is_reserved": 0, "rental_uris": {"android": "https://dc.lft.to/lastmile_qr_scan", "ios": "https://dc.lft.to/lastmile_qr_scan"}, "fusion_lon": 0.0}, {"lat": 38.92311933333333, "is_disabled": 0, "type": "electric_scooter", "lon": -77.04626833333333, "bike_id": "a841fddd7c6592b6ae5735832cebef6e", "fusion_lat": 0.0, "name": "a841fddd7c6592b6ae5735832cebef6e", "is_reserved": 0, "rental_uris": {"android": "https://dc.lft.to/lastmile_qr_scan", "ios": "https://dc.lft.to/lastmile_qr_scan"}, "fusion_lon": 0.0}, {"lat": 38.923423166666666, "is_disabled": 0, "type": "electric_scooter", "lon": -77.05053666666667, "bike_id": "4ca16be68c5d7adeacef6aef04587285", "fusion_lat": 0.0, "name": "4ca16be68c5d7adeacef6aef04587285", "is_reserved": 0, "rental_uris": {"android": "https://dc.lft.to/lastmile_qr_scan", "ios": "https://dc.lft.to/lastmile_qr_scan"}, "fusion_lon": 0.0}, {"lat": 38.930591666666665, "is_disabled": 0, "type": "electric_scooter", "lon": -77.02263416666666, "bike_id": "a2ee629b53d25040bec5060afe457322", "fusion_lat": 0.0, "name": "a2ee629b53d25040bec5060afe457322", "is_reserved": 0, "rental_uris": {"android": "https://dc.lft.to/lastmile_qr_scan", "ios": "https://dc.lft.to/lastmile_qr_scan"}, "fusion_lon": 0.0}, {"lat": 38.92596983333333, "is_disabled": 0, "type": "electric_scooter", "lon": -77.05695566666667, "bike_id": "9968dfa3e380de6b4e061f3cd419e282", "fusion_lat": 0.0, "name": "9968dfa3e380de6b4e061f3cd419e282", "is_reserved": 0, "rental_uris": {"android": "https://dc.lft.to/lastmile_qr_scan", "ios": "https://dc.lft.to/lastmile_qr_scan"}, "fusion_lon": 0.0}, {"lat": 38.916815, "is_disabled": 0, "type": "electric_scooter", "lon": -77.0297305, "bike_id": "3512cb9e2eca10841f6d697a80412bd0", "fusion_lat": 0.0, "name": "3512cb9e2eca10841f6d697a80412bd0", "is_reserved": 0, "rental_uris": {"android": "https://dc.lft.to/lastmile_qr_scan", "ios": "https://dc.lft.to/lastmile_qr_scan"}, "fusion_lon": 0.0}, {"lat": 38.9011205, "is_disabled": 0, "type": "electric_scooter", "lon": -77.031802, "bike_id": "137e3f4772f40863c198b771881ea9ac", "fusion_lat": 0.0, "name": "137e3f4772f40863c198b771881ea9ac", "is_reserved": 0, "rental_uris": {"android": "https://dc.lft.to/lastmile_qr_scan", "ios": "https://dc.lft.to/lastmile_qr_scan"}, "fusion_lon": 0.0}, {"lat": 38.9073995, "is_disabled": 0, "type": "electric_scooter", "lon": -77.00094066666666, "bike_id": "df6623f5dca40f7fc5aba3dfd19eaed3", "fusion_lat": 0.0, "name": "df6623f5dca40f7fc5aba3dfd19eaed3", "is_reserved": 0, "rental_uris": {"android": "https://dc.lft.to/lastmile_qr_scan", "ios": "https://dc.lft.to/lastmile_qr_scan"}, "fusion_lon": 0.0}, {"lat": 38.89468383333333, "is_disabled": 0, "type": "electric_bike", "lon": -76.94841533333333, "bike_id": "9e3c75edfc45fc25b1aa8a81b039fd17", "fusion_lat": 0.0, "name": "9e3c75edfc45fc25b1aa8a81b039fd17", "is_reserved": 0, "rental_uris": {"android": "https://dc.lft.to/lastmile_qr_scan", "ios": "https://dc.lft.to/lastmile_qr_scan"}, "fusion_lon": 0.0}, {"lat": 38.92324966666666, "is_disabled": 0, "type": "electric_scooter", "lon": -77.03898566666666, "bike_id": "d65b93ee389308994d87eafecae40cab", "fusion_lat": 0.0, "name": "d65b93ee389308994d87eafecae40cab", "is_reserved": 0, "rental_uris": {"android": "https://dc.lft.to/lastmile_qr_scan", "ios": "https://dc.lft.to/lastmile_qr_scan"}, "fusion_lon": 0.0}, {"lat": 38.9181205, "is_disabled": 0, "type": "electric_scooter", "lon": -77.032093, "bike_id": "3f67face4e4b3282ec81f7e74fd77be2", "fusion_lat": 0.0, "name": "3f67face4e4b3282ec81f7e74fd77be2", "is_reserved": 0, "rental_uris": {"android": "https://dc.lft.to/lastmile_qr_scan", "ios": "https://dc.lft.to/lastmile_qr_scan"}, "fusion_lon": 0.0}, {"lat": 38.9159365, "is_disabled": 0, "type": "electric_scooter", "lon": -77.02303783333333, "bike_id": "56fa4f77751e6fb7adddcda5fba05926", "fusion_lat": 0.0, "name": "56fa4f77751e6fb7adddcda5fba05926", "is_reserved": 0, "rental_uris": {"android": "https://dc.lft.to/lastmile_qr_scan", "ios": "https://dc.lft.to/lastmile_qr_scan"}, "fusion_lon": 0.0}, {"lat": 38.907993833333336, "is_disabled": 0, "type": "electric_scooter", "lon": -77.04493716666667, "bike_id": "1bc13c0b73b096faed970a24a27bb792", "fusion_lat": 0.0, "name": "1bc13c0b73b096faed970a24a27bb792", "is_reserved": 0, "rental_uris": {"android": "https://dc.lft.to/lastmile_qr_scan", "ios": "https://dc.lft.to/lastmile_qr_scan"}, "fusion_lon": 0.0}, {"lat": 38.9258695, "is_disabled": 0, "type": "electric_scooter", "lon": -77.03230083333334, "bike_id": "251438908d54001db9682ae761d904d7", "fusion_lat": 0.0, "name": "251438908d54001db9682ae761d904d7", "is_reserved": 0, "rental_uris": {"android": "https://dc.lft.to/lastmile_qr_scan", "ios": "https://dc.lft.to/lastmile_qr_scan"}, "fusion_lon": 0.0}, {"lat": 38.901483, "is_disabled": 0, "type": "electric_scooter", "lon": -77.03203366666666, "bike_id": "e5ddfd549fbe427aa60974dd26374eac", "fusion_lat": 0.0, "name": "e5ddfd549fbe427aa60974dd26374eac", "is_reserved": 0, "rental_uris": {"android": "https://dc.lft.to/lastmile_qr_scan", "ios": "https://dc.lft.to/lastmile_qr_scan"}, "fusion_lon": 0.0}, {"lat": 38.90581983333333, "is_disabled": 0, "type": "electric_scooter", "lon": -77.00574533333334, "bike_id": "2ab22ed25d2a3973e53e246f6f833d17", "fusion_lat": 0.0, "name": "2ab22ed25d2a3973e53e246f6f833d17", "is_reserved": 0, "rental_uris": {"android": "https://dc.lft.to/lastmile_qr_scan", "ios": "https://dc.lft.to/lastmile_qr_scan"}, "fusion_lon": 0.0}, {"lat": 38.916915, "is_disabled": 0, "type": "electric_scooter", "lon": -77.02949733333334, "bike_id": "f8c4d96f7007d420ec048770d19d1c8f", "fusion_lat": 0.0, "name": "f8c4d96f7007d420ec048770d19d1c8f", "is_reserved": 0, "rental_uris": {"android": "https://dc.lft.to/lastmile_qr_scan", "ios": "https://dc.lft.to/lastmile_qr_scan"}, "fusion_lon": 0.0}, {"lat": 38.92236666666667, "is_disabled": 0, "type": "electric_scooter", "lon": -77.02987383333334, "bike_id": "ea8508b7c3e3a082baedcd99b3c87fe6", "fusion_lat": 0.0, "name": "ea8508b7c3e3a082baedcd99b3c87fe6", "is_reserved": 0, "rental_uris": {"android": "https://dc.lft.to/lastmile_qr_scan", "ios": "https://dc.lft.to/lastmile_qr_scan"}, "fusion_lon": 0.0}, {"lat": 38.89874066666667, "is_disabled": 0, "type": "electric_scooter", "lon": -76.9318765, "bike_id": "d8effa05efa5e8a85a410b558e69c0a0", "fusion_lat": 0.0, "name": "d8effa05efa5e8a85a410b558e69c0a0", "is_reserved": 0, "rental_uris": {"android": "https://dc.lft.to/lastmile_qr_scan", "ios": "https://dc.lft.to/lastmile_qr_scan"}, "fusion_lon": 0.0}, {"lat": 38.9025075, "is_disabled": 0, "type": "electric_scooter", "lon": -77.00225266666666, "bike_id": "09d6b1975da4da1dd2cdcb7ed89c9cfa", "fusion_lat": 0.0, "name": "09d6b1975da4da1dd2cdcb7ed89c9cfa", "is_reserved": 0, "rental_uris": {"android": "https://dc.lft.to/lastmile_qr_scan", "ios": "https://dc.lft.to/lastmile_qr_scan"}, "fusion_lon": 0.0}, {"lat": 38.9259335, "is_disabled": 0, "type": "electric_scooter", "lon": -77.00475016666667, "bike_id": "1c86e35834179dad8959e7004065170c", "fusion_lat": 0.0, "name": "1c86e35834179dad8959e7004065170c", "is_reserved": 0, "rental_uris": {"android": "https://dc.lft.to/lastmile_qr_scan", "ios": "https://dc.lft.to/lastmile_qr_scan"}, "fusion_lon": 0.0}, {"lat": 38.91560833333333, "is_disabled": 0, "type": "electric_scooter", "lon": -77.04871966666667, "bike_id": "c54047bd865aa081c9eb54f73fd25f48", "fusion_lat": 0.0, "name": "c54047bd865aa081c9eb54f73fd25f48", "is_reserved": 0, "rental_uris": {"android": "https://dc.lft.to/lastmile_qr_scan", "ios": "https://dc.lft.to/lastmile_qr_scan"}, "fusion_lon": 0.0}, {"lat": 38.8670055, "is_disabled": 0, "type": "electric_bike", "lon": -76.98955783333334, "bike_id": "2c62c4ae26c38c4364b5b39de08d64fa", "fusion_lat": 0.0, "name": "2c62c4ae26c38c4364b5b39de08d64fa", "is_reserved": 0, "rental_uris": {"android": "https://dc.lft.to/lastmile_qr_scan", "ios": "https://dc.lft.to/lastmile_qr_scan"}, "fusion_lon": 0.0}, {"lat": 38.91328083333333, "is_disabled": 0, "type": "electric_scooter", "lon": -77.03133166666667, "bike_id": "c8bab16141b8d8e670d9650eb219d20a", "fusion_lat": 0.0, "name": "c8bab16141b8d8e670d9650eb219d20a", "is_reserved": 0, "rental_uris": {"android": "https://dc.lft.to/lastmile_qr_scan", "ios": "https://dc.lft.to/lastmile_qr_scan"}, "fusion_lon": 0.0}, {"lat": 38.90314083333333, "is_disabled": 0, "type": "electric_scooter", "lon": -76.97801466666667, "bike_id": "bcee774d6536119a4473258f60112415", "fusion_lat": 0.0, "name": "bcee774d6536119a4473258f60112415", "is_reserved": 0, "rental_uris": {"android": "https://dc.lft.to/lastmile_qr_scan", "ios": "https://dc.lft.to/lastmile_qr_scan"}, "fusion_lon": 0.0}, {"lat": 38.921884166666665, "is_disabled": 0, "type": "electric_scooter", "lon": -77.04239516666667, "bike_id": "68189859dd068183ee4e2b734aeb8374", "fusion_lat": 0.0, "name": "68189859dd068183ee4e2b734aeb8374", "is_reserved": 0, "rental_uris": {"android": "https://dc.lft.to/lastmile_qr_scan", "ios": "https://dc.lft.to/lastmile_qr_scan"}, "fusion_lon": 0.0}, {"lat": 38.925457, "is_disabled": 0, "type": "electric_scooter", "lon": -77.03786116666667, "bike_id": "916c12de4f6880df22917a00b2e7c232", "fusion_lat": 0.0, "name": "916c12de4f6880df22917a00b2e7c232", "is_reserved": 0, "rental_uris": {"android": "https://dc.lft.to/lastmile_qr_scan", "ios": "https://dc.lft.to/lastmile_qr_scan"}, "fusion_lon": 0.0}, {"lat": 38.8850965, "is_disabled": 0, "type": "electric_scooter", "lon": -77.01556016666666, "bike_id": "f459dcff20ce81e0449e35dd96bd51c0", "fusion_lat": 0.0, "name": "f459dcff20ce81e0449e35dd96bd51c0", "is_reserved": 0, "rental_uris": {"android": "https://dc.lft.to/lastmile_qr_scan", "ios": "https://dc.lft.to/lastmile_qr_scan"}, "fusion_lon": 0.0}, {"lat": 38.8569805, "is_disabled": 0, "type": "electric_scooter", "lon": -76.9896445, "bike_id": "1cd59493b9ab91777384f0708a2e561b", "fusion_lat": 0.0, "name": "1cd59493b9ab91777384f0708a2e561b", "is_reserved": 0, "rental_uris": {"android": "https://dc.lft.to/lastmile_qr_scan", "ios": "https://dc.lft.to/lastmile_qr_scan"}, "fusion_lon": 0.0}, {"lat": 38.898944666666665, "is_disabled": 0, "type": "electric_scooter", "lon": -77.03997033333333, "bike_id": "fca89fdd846b5fcdd6aaa1f499b1476e", "fusion_lat": 0.0, "name": "fca89fdd846b5fcdd6aaa1f499b1476e", "is_reserved": 0, "rental_uris": {"android": "https://dc.lft.to/lastmile_qr_scan", "ios": "https://dc.lft.to/lastmile_qr_scan"}, "fusion_lon": 0.0}, {"lat": 38.90123283333333, "is_disabled": 0, "type": "electric_scooter", "lon": -76.99753133333333, "bike_id": "f5ff90accb1ae3f6b986f2a92d69f9cc", "fusion_lat": 0.0, "name": "f5ff90accb1ae3f6b986f2a92d69f9cc", "is_reserved": 0, "rental_uris": {"android": "https://dc.lft.to/lastmile_qr_scan", "ios": "https://dc.lft.to/lastmile_qr_scan"}, "fusion_lon": 0.0}, {"lat": 38.911285, "is_disabled": 0, "type": "electric_scooter", "lon": -77.02202366666667, "bike_id": "47b512398b513f74afb8ee0152d2f91d", "fusion_lat": 0.0, "name": "47b512398b513f74afb8ee0152d2f91d", "is_reserved": 0, "rental_uris": {"android": "https://dc.lft.to/lastmile_qr_scan", "ios": "https://dc.lft.to/lastmile_qr_scan"}, "fusion_lon": 0.0}, {"lat": 38.901544666666666, "is_disabled": 0, "type": "electric_scooter", "lon": -76.98071883333333, "bike_id": "67a10b39c064fece3fe126bb083924cf", "fusion_lat": 0.0, "name": "67a10b39c064fece3fe126bb083924cf", "is_reserved": 0, "rental_uris": {"android": "https://dc.lft.to/lastmile_qr_scan", "ios": "https://dc.lft.to/lastmile_qr_scan"}, "fusion_lon": 0.0}, {"lat": 38.97087883333333, "is_disabled": 0, "type": "electric_bike", "lon": -77.06968916666666, "bike_id": "e707d07fc133aa8b0152ed3898593122", "fusion_lat": 0.0, "name": "e707d07fc133aa8b0152ed3898593122", "is_reserved": 0, "rental_uris": {"android": "https://dc.lft.to/lastmile_qr_scan", "ios": "https://dc.lft.to/lastmile_qr_scan"}, "fusion_lon": 0.0}, {"lat": 38.925538, "is_disabled": 0, "type": "electric_scooter", "lon": -77.03223666666666, "bike_id": "3932d48b1a72818f2426d95d9eb4566c", "fusion_lat": 0.0, "name": "3932d48b1a72818f2426d95d9eb4566c", "is_reserved": 0, "rental_uris": {"android": "https://dc.lft.to/lastmile_qr_scan", "ios": "https://dc.lft.to/lastmile_qr_scan"}, "fusion_lon": 0.0}, {"lat": 38.94426583333333, "is_disabled": 0, "type": "electric_scooter", "lon": -77.063041, "bike_id": "e8c541eab74236ad14335d419e927f77", "fusion_lat": 0.0, "name": "e8c541eab74236ad14335d419e927f77", "is_reserved": 0, "rental_uris": {"android": "https://dc.lft.to/lastmile_qr_scan", "ios": "https://dc.lft.to/lastmile_qr_scan"}, "fusion_lon": 0.0}, {"lat": 38.87471583333333, "is_disabled": 0, "type": "electric_scooter", "lon": -77.00552233333333, "bike_id": "ce69feab691fdcb7df0adaeae7324af7", "fusion_lat": 0.0, "name": "ce69feab691fdcb7df0adaeae7324af7", "is_reserved": 0, "rental_uris": {"android": "https://dc.lft.to/lastmile_qr_scan", "ios": "https://dc.lft.to/lastmile_qr_scan"}, "fusion_lon": 0.0}, {"lat": 38.90815083333333, "is_disabled": 0, "type": "electric_scooter", "lon": -76.99719183333333, "bike_id": "c83a34945d74790944570fc40930352d", "fusion_lat": 0.0, "name": "c83a34945d74790944570fc40930352d", "is_reserved": 0, "rental_uris": {"android": "https://dc.lft.to/lastmile_qr_scan", "ios": "https://dc.lft.to/lastmile_qr_scan"}, "fusion_lon": 0.0}, {"lat": 38.921778833333335, "is_disabled": 0, "type": "electric_scooter", "lon": -77.031949, "bike_id": "4d8c4bcc713eb24fa34c1a2d6d8ab7bf", "fusion_lat": 0.0, "name": "4d8c4bcc713eb24fa34c1a2d6d8ab7bf", "is_reserved": 0, "rental_uris": {"android": "https://dc.lft.to/lastmile_qr_scan", "ios": "https://dc.lft.to/lastmile_qr_scan"}, "fusion_lon": 0.0}, {"lat": 38.87151383333333, "is_disabled": 0, "type": "electric_bike", "lon": -76.93670166666666, "bike_id": "58d895d734e76759ef77f02946e4690b", "fusion_lat": 0.0, "name": "58d895d734e76759ef77f02946e4690b", "is_reserved": 0, "rental_uris": {"android": "https://dc.lft.to/lastmile_qr_scan", "ios": "https://dc.lft.to/lastmile_qr_scan"}, "fusion_lon": 0.0}, {"lat": 38.94456, "is_disabled": 0, "type": "electric_bike", "lon": -77.0232895, "bike_id": "4cbd8cd84db3780784b657fa0737479c", "fusion_lat": 0.0, "name": "4cbd8cd84db3780784b657fa0737479c", "is_reserved": 0, "rental_uris": {"android": "https://dc.lft.to/lastmile_qr_scan", "ios": "https://dc.lft.to/lastmile_qr_scan"}, "fusion_lon": 0.0}, {"lat": 38.883098333333336, "is_disabled": 0, "type": "electric_scooter", "lon": -77.00940116666666, "bike_id": "704474f6114bdae7acd7e338387ee49c", "fusion_lat": 0.0, "name": "704474f6114bdae7acd7e338387ee49c", "is_reserved": 0, "rental_uris": {"android": "https://dc.lft.to/lastmile_qr_scan", "ios": "https://dc.lft.to/lastmile_qr_scan"}, "fusion_lon": 0.0}, {"lat": 38.90704016666667, "is_disabled": 0, "type": "electric_scooter", "lon": -77.04342016666666, "bike_id": "d1066401a702234cd1fa8cf8e78fcf8a", "fusion_lat": 0.0, "name": "d1066401a702234cd1fa8cf8e78fcf8a", "is_reserved": 0, "rental_uris": {"android": "https://dc.lft.to/lastmile_qr_scan", "ios": "https://dc.lft.to/lastmile_qr_scan"}, "fusion_lon": 0.0}, {"lat": 38.94779316666666, "is_disabled": 0, "type": "electric_scooter", "lon": -77.07951666666666, "bike_id": "a41b992ecc6474c8db119242ceb76016", "fusion_lat": 0.0, "name": "a41b992ecc6474c8db119242ceb76016", "is_reserved": 0, "rental_uris": {"android": "https://dc.lft.to/lastmile_qr_scan", "ios": "https://dc.lft.to/lastmile_qr_scan"}, "fusion_lon": 0.0}, {"lat": 38.920534833333335, "is_disabled": 0, "type": "electric_scooter", "lon": -77.0243445, "bike_id": "6673145ecba45ba0348274c0464a808d", "fusion_lat": 0.0, "name": "6673145ecba45ba0348274c0464a808d", "is_reserved": 0, "rental_uris": {"android": "https://dc.lft.to/lastmile_qr_scan", "ios": "https://dc.lft.to/lastmile_qr_scan"}, "fusion_lon": 0.0}, {"lat": 38.923528, "is_disabled": 0, "type": "electric_scooter", "lon": -77.0415575, "bike_id": "81b313eeafc471b2c00e05336e1d8489", "fusion_lat": 0.0, "name": "81b313eeafc471b2c00e05336e1d8489", "is_reserved": 0, "rental_uris": {"android": "https://dc.lft.to/lastmile_qr_scan", "ios": "https://dc.lft.to/lastmile_qr_scan"}, "fusion_lon": 0.0}, {"lat": 38.919801, "is_disabled": 0, "type": "electric_scooter", "lon": -77.012119, "bike_id": "2a4cfa29a84df0466fcbf6d9049c962d", "fusion_lat": 0.0, "name": "2a4cfa29a84df0466fcbf6d9049c962d", "is_reserved": 0, "rental_uris": {"android": "https://dc.lft.to/lastmile_qr_scan", "ios": "https://dc.lft.to/lastmile_qr_scan"}, "fusion_lon": 0.0}, {"lat": 38.902173833333336, "is_disabled": 0, "type": "electric_scooter", "lon": -77.0236705, "bike_id": "5a4ab1ea5676b0dce86d19aefc4e0ce1", "fusion_lat": 0.0, "name": "5a4ab1ea5676b0dce86d19aefc4e0ce1", "is_reserved": 0, "rental_uris": {"android": "https://dc.lft.to/lastmile_qr_scan", "ios": "https://dc.lft.to/lastmile_qr_scan"}, "fusion_lon": 0.0}, {"lat": 38.90349616666666, "is_disabled": 0, "type": "electric_scooter", "lon": -77.03906, "bike_id": "6486cf5760c500027d01e1517f56ff80", "fusion_lat": 0.0, "name": "6486cf5760c500027d01e1517f56ff80", "is_reserved": 0, "rental_uris": {"android": "https://dc.lft.to/lastmile_qr_scan", "ios": "https://dc.lft.to/lastmile_qr_scan"}, "fusion_lon": 0.0}, {"lat": 38.9152065, "is_disabled": 0, "type": "electric_scooter", "lon": -77.02182966666666, "bike_id": "a6b3ffe475ba13c1fd867d08654e86e0", "fusion_lat": 0.0, "name": "a6b3ffe475ba13c1fd867d08654e86e0", "is_reserved": 0, "rental_uris": {"android": "https://dc.lft.to/lastmile_qr_scan", "ios": "https://dc.lft.to/lastmile_qr_scan"}, "fusion_lon": 0.0}, {"lat": 38.89250333333333, "is_disabled": 0, "type": "electric_scooter", "lon": -76.94336466666667, "bike_id": "caed102137e49dc94587c38d83314b6d", "fusion_lat": 0.0, "name": "caed102137e49dc94587c38d83314b6d", "is_reserved": 0, "rental_uris": {"android": "https://dc.lft.to/lastmile_qr_scan", "ios": "https://dc.lft.to/lastmile_qr_scan"}, "fusion_lon": 0.0}, {"lat": 38.90514183333333, "is_disabled": 0, "type": "electric_scooter", "lon": -77.06452883333333, "bike_id": "2a3f428c45f504adb409fd751d0a7552", "fusion_lat": 0.0, "name": "2a3f428c45f504adb409fd751d0a7552", "is_reserved": 0, "rental_uris": {"android": "https://dc.lft.to/lastmile_qr_scan", "ios": "https://dc.lft.to/lastmile_qr_scan"}, "fusion_lon": 0.0}, {"lat": 38.924298, "is_disabled": 0, "type": "electric_scooter", "lon": -77.04019566666666, "bike_id": "fa16f845be05cdc02f3ca8579ddefc5c", "fusion_lat": 0.0, "name": "fa16f845be05cdc02f3ca8579ddefc5c", "is_reserved": 0, "rental_uris": {"android": "https://dc.lft.to/lastmile_qr_scan", "ios": "https://dc.lft.to/lastmile_qr_scan"}, "fusion_lon": 0.0}, {"lat": 38.89710433333333, "is_disabled": 0, "type": "electric_scooter", "lon": -77.00717216666666, "bike_id": "df285601cd05c669a98fc99889ff3726", "fusion_lat": 0.0, "name": "df285601cd05c669a98fc99889ff3726", "is_reserved": 0, "rental_uris": {"android": "https://dc.lft.to/lastmile_qr_scan", "ios": "https://dc.lft.to/lastmile_qr_scan"}, "fusion_lon": 0.0}, {"lat": 38.89994266666667, "is_disabled": 0, "type": "electric_scooter", "lon": -77.00633366666666, "bike_id": "228ffb97340e12588e1c312d14102ca0", "fusion_lat": 0.0, "name": "228ffb97340e12588e1c312d14102ca0", "is_reserved": 0, "rental_uris": {"android": "https://dc.lft.to/lastmile_qr_scan", "ios": "https://dc.lft.to/lastmile_qr_scan"}, "fusion_lon": 0.0}, {"lat": 38.91115816666667, "is_disabled": 0, "type": "electric_scooter", "lon": -77.02221066666667, "bike_id": "2631055da07ea18081ca029a6fb36174", "fusion_lat": 0.0, "name": "2631055da07ea18081ca029a6fb36174", "is_reserved": 0, "rental_uris": {"android": "https://dc.lft.to/lastmile_qr_scan", "ios": "https://dc.lft.to/lastmile_qr_scan"}, "fusion_lon": 0.0}, {"lat": 38.898368166666664, "is_disabled": 0, "type": "electric_scooter", "lon": -76.93104283333334, "bike_id": "29522653cfca86a751b8018c8b1e8bb2", "fusion_lat": 0.0, "name": "29522653cfca86a751b8018c8b1e8bb2", "is_reserved": 0, "rental_uris": {"android": "https://dc.lft.to/lastmile_qr_scan", "ios": "https://dc.lft.to/lastmile_qr_scan"}, "fusion_lon": 0.0}, {"lat": 38.931180499999996, "is_disabled": 0, "type": "electric_scooter", "lon": -77.023495, "bike_id": "9f6f66e5621c964d0e9eead1465b47cf", "fusion_lat": 0.0, "name": "9f6f66e5621c964d0e9eead1465b47cf", "is_reserved": 0, "rental_uris": {"android": "https://dc.lft.to/lastmile_qr_scan", "ios": "https://dc.lft.to/lastmile_qr_scan"}, "fusion_lon": 0.0}, {"lat": 38.925686666666664, "is_disabled": 0, "type": "electric_scooter", "lon": -76.97012583333333, "bike_id": "fb925000bcd3efca62945cabea14c880", "fusion_lat": 0.0, "name": "fb925000bcd3efca62945cabea14c880", "is_reserved": 0, "rental_uris": {"android": "https://dc.lft.to/lastmile_qr_scan", "ios": "https://dc.lft.to/lastmile_qr_scan"}, "fusion_lon": 0.0}, {"lat": 38.93735783333333, "is_disabled": 0, "type": "electric_scooter", "lon": -77.03263533333333, "bike_id": "aace71fc28b8b1defbe1b4829f234f24", "fusion_lat": 0.0, "name": "aace71fc28b8b1defbe1b4829f234f24", "is_reserved": 0, "rental_uris": {"android": "https://dc.lft.to/lastmile_qr_scan", "ios": "https://dc.lft.to/lastmile_qr_scan"}, "fusion_lon": 0.0}, {"lat": 38.9660065, "is_disabled": 0, "type": "electric_bike", "lon": -76.98334283333334, "bike_id": "b8ee1b59ef53bfffa0430fca7256c44b", "fusion_lat": 0.0, "name": "b8ee1b59ef53bfffa0430fca7256c44b", "is_reserved": 0, "rental_uris": {"android": "https://dc.lft.to/lastmile_qr_scan", "ios": "https://dc.lft.to/lastmile_qr_scan"}, "fusion_lon": 0.0}, {"lat": 38.917607333333336, "is_disabled": 0, "type": "electric_scooter", "lon": -77.02322216666667, "bike_id": "5b0923f607ea91b046d1d9b85705fc23", "fusion_lat": 0.0, "name": "5b0923f607ea91b046d1d9b85705fc23", "is_reserved": 0, "rental_uris": {"android": "https://dc.lft.to/lastmile_qr_scan", "ios": "https://dc.lft.to/lastmile_qr_scan"}, "fusion_lon": 0.0}, {"lat": 38.938199166666664, "is_disabled": 0, "type": "electric_scooter", "lon": -77.06043516666666, "bike_id": "fc7879408acf3649b38343c815df702b", "fusion_lat": 0.0, "name": "fc7879408acf3649b38343c815df702b", "is_reserved": 0, "rental_uris": {"android": "https://dc.lft.to/lastmile_qr_scan", "ios": "https://dc.lft.to/lastmile_qr_scan"}, "fusion_lon": 0.0}, {"lat": 38.8924675, "is_disabled": 0, "type": "electric_scooter", "lon": -77.04876566666667, "bike_id": "ea9ad1f1468e821af5f6e938ad4d3b77", "fusion_lat": 0.0, "name": "ea9ad1f1468e821af5f6e938ad4d3b77", "is_reserved": 0, "rental_uris": {"android": "https://dc.lft.to/lastmile_qr_scan", "ios": "https://dc.lft.to/lastmile_qr_scan"}, "fusion_lon": 0.0}, {"lat": 38.906808166666664, "is_disabled": 0, "type": "electric_scooter", "lon": -77.03774383333334, "bike_id": "1f557d4f98913a3b72ca36672d17163e", "fusion_lat": 0.0, "name": "1f557d4f98913a3b72ca36672d17163e", "is_reserved": 0, "rental_uris": {"android": "https://dc.lft.to/lastmile_qr_scan", "ios": "https://dc.lft.to/lastmile_qr_scan"}, "fusion_lon": 0.0}, {"lat": 38.920343833333334, "is_disabled": 0, "type": "electric_scooter", "lon": -77.02605983333333, "bike_id": "a6e25f34f6473faa651c55a9bb52c95c", "fusion_lat": 0.0, "name": "a6e25f34f6473faa651c55a9bb52c95c", "is_reserved": 0, "rental_uris": {"android": "https://dc.lft.to/lastmile_qr_scan", "ios": "https://dc.lft.to/lastmile_qr_scan"}, "fusion_lon": 0.0}, {"lat": 38.8876275, "is_disabled": 0, "type": "electric_scooter", "lon": -76.956012, "bike_id": "bf40d012168027336f0f973e31c681b8", "fusion_lat": 0.0, "name": "bf40d012168027336f0f973e31c681b8", "is_reserved": 0, "rental_uris": {"android": "https://dc.lft.to/lastmile_qr_scan", "ios": "https://dc.lft.to/lastmile_qr_scan"}, "fusion_lon": 0.0}, {"lat": 38.93910783333333, "is_disabled": 0, "type": "electric_scooter", "lon": -77.02492283333333, "bike_id": "1e5ef75f460d6d65aafd80ab50a0fa2d", "fusion_lat": 0.0, "name": "1e5ef75f460d6d65aafd80ab50a0fa2d", "is_reserved": 0, "rental_uris": {"android": "https://dc.lft.to/lastmile_qr_scan", "ios": "https://dc.lft.to/lastmile_qr_scan"}, "fusion_lon": 0.0}, {"lat": 38.89220666666667, "is_disabled": 0, "type": "electric_scooter", "lon": -77.04861883333334, "bike_id": "1f18e3a8eeccee74f228304384f13a60", "fusion_lat": 0.0, "name": "1f18e3a8eeccee74f228304384f13a60", "is_reserved": 0, "rental_uris": {"android": "https://dc.lft.to/lastmile_qr_scan", "ios": "https://dc.lft.to/lastmile_qr_scan"}, "fusion_lon": 0.0}, {"lat": 38.92498666666667, "is_disabled": 0, "type": "electric_scooter", "lon": -77.05257416666667, "bike_id": "663118b40f52d8fe421a0ca1697b7f2e", "fusion_lat": 0.0, "name": "663118b40f52d8fe421a0ca1697b7f2e", "is_reserved": 0, "rental_uris": {"android": "https://dc.lft.to/lastmile_qr_scan", "ios": "https://dc.lft.to/lastmile_qr_scan"}, "fusion_lon": 0.0}, {"lat": 38.9171105, "is_disabled": 0, "type": "electric_scooter", "lon": -77.0280055, "bike_id": "f03fe0efcda61ebae572632da74a054c", "fusion_lat": 0.0, "name": "f03fe0efcda61ebae572632da74a054c", "is_reserved": 0, "rental_uris": {"android": "https://dc.lft.to/lastmile_qr_scan", "ios": "https://dc.lft.to/lastmile_qr_scan"}, "fusion_lon": 0.0}, {"lat": 38.896213833333334, "is_disabled": 0, "type": "electric_scooter", "lon": -77.0301625, "bike_id": "53efae2e14247447fccc7726a32d6418", "fusion_lat": 0.0, "name": "53efae2e14247447fccc7726a32d6418", "is_reserved": 0, "rental_uris": {"android": "https://dc.lft.to/lastmile_qr_scan", "ios": "https://dc.lft.to/lastmile_qr_scan"}, "fusion_lon": 0.0}, {"lat": 38.8919155, "is_disabled": 0, "type": "electric_scooter", "lon": -77.02459133333333, "bike_id": "ec3e184a1ab00ee2566d0f7b92acc4f7", "fusion_lat": 0.0, "name": "ec3e184a1ab00ee2566d0f7b92acc4f7", "is_reserved": 0, "rental_uris": {"android": "https://dc.lft.to/lastmile_qr_scan", "ios": "https://dc.lft.to/lastmile_qr_scan"}, "fusion_lon": 0.0}, {"lat": 38.91703666666667, "is_disabled": 0, "type": "electric_scooter", "lon": -77.03123483333333, "bike_id": "02ffd4b086e26d4b3d94af3f64afb564", "fusion_lat": 0.0, "name": "02ffd4b086e26d4b3d94af3f64afb564", "is_reserved": 0, "rental_uris": {"android": "https://dc.lft.to/lastmile_qr_scan", "ios": "https://dc.lft.to/lastmile_qr_scan"}, "fusion_lon": 0.0}, {"lat": 38.91417533333333, "is_disabled": 0, "type": "electric_scooter", "lon": -77.03212033333334, "bike_id": "730f816dde7a21494a215305d5ecda6f", "fusion_lat": 0.0, "name": "730f816dde7a21494a215305d5ecda6f", "is_reserved": 0, "rental_uris": {"android": "https://dc.lft.to/lastmile_qr_scan", "ios": "https://dc.lft.to/lastmile_qr_scan"}, "fusion_lon": 0.0}, {"lat": 38.923187166666665, "is_disabled": 0, "type": "electric_scooter", "lon": -77.043766, "bike_id": "9f71c686e37bfe234db86c4ce1a0a9e6", "fusion_lat": 0.0, "name": "9f71c686e37bfe234db86c4ce1a0a9e6", "is_reserved": 0, "rental_uris": {"android": "https://dc.lft.to/lastmile_qr_scan", "ios": "https://dc.lft.to/lastmile_qr_scan"}, "fusion_lon": 0.0}, {"lat": 38.92144533333333, "is_disabled": 0, "type": "electric_scooter", "lon": -76.96927533333333, "bike_id": "3175bc54782498209a732c6031022218", "fusion_lat": 0.0, "name": "3175bc54782498209a732c6031022218", "is_reserved": 0, "rental_uris": {"android": "https://dc.lft.to/lastmile_qr_scan", "ios": "https://dc.lft.to/lastmile_qr_scan"}, "fusion_lon": 0.0}, {"lat": 38.921095666666666, "is_disabled": 0, "type": "electric_scooter", "lon": -77.04209266666666, "bike_id": "f98c7ee51915061f8a4b6af12f990880", "fusion_lat": 0.0, "name": "f98c7ee51915061f8a4b6af12f990880", "is_reserved": 0, "rental_uris": {"android": "https://dc.lft.to/lastmile_qr_scan", "ios": "https://dc.lft.to/lastmile_qr_scan"}, "fusion_lon": 0.0}, {"lat": 38.86163583333333, "is_disabled": 0, "type": "electric_bike", "lon": -76.95070516666667, "bike_id": "de11a784a752f18db1360cfc99ba9c69", "fusion_lat": 0.0, "name": "de11a784a752f18db1360cfc99ba9c69", "is_reserved": 0, "rental_uris": {"android": "https://dc.lft.to/lastmile_qr_scan", "ios": "https://dc.lft.to/lastmile_qr_scan"}, "fusion_lon": 0.0}, {"lat": 38.909697333333334, "is_disabled": 0, "type": "electric_scooter", "lon": -77.03383166666667, "bike_id": "7361eae5cdf04bf60da2888ea28b9707", "fusion_lat": 0.0, "name": "7361eae5cdf04bf60da2888ea28b9707", "is_reserved": 0, "rental_uris": {"android": "https://dc.lft.to/lastmile_qr_scan", "ios": "https://dc.lft.to/lastmile_qr_scan"}, "fusion_lon": 0.0}, {"lat": 38.911909, "is_disabled": 0, "type": "electric_scooter", "lon": -77.06093116666666, "bike_id": "a468bf722ac9b8a6b45a0f7da0957da3", "fusion_lat": 0.0, "name": "a468bf722ac9b8a6b45a0f7da0957da3", "is_reserved": 0, "rental_uris": {"android": "https://dc.lft.to/lastmile_qr_scan", "ios": "https://dc.lft.to/lastmile_qr_scan"}, "fusion_lon": 0.0}, {"lat": 38.892232166666666, "is_disabled": 0, "type": "electric_scooter", "lon": -77.02419, "bike_id": "c8bc0219df619171c640a6683b03fa8f", "fusion_lat": 0.0, "name": "c8bc0219df619171c640a6683b03fa8f", "is_reserved": 0, "rental_uris": {"android": "https://dc.lft.to/lastmile_qr_scan", "ios": "https://dc.lft.to/lastmile_qr_scan"}, "fusion_lon": 0.0}, {"lat": 38.903833166666665, "is_disabled": 0, "type": "electric_scooter", "lon": -77.021645, "bike_id": "0a53760311a5bba21bcc496a203f494d", "fusion_lat": 0.0, "name": "0a53760311a5bba21bcc496a203f494d", "is_reserved": 0, "rental_uris": {"android": "https://dc.lft.to/lastmile_qr_scan", "ios": "https://dc.lft.to/lastmile_qr_scan"}, "fusion_lon": 0.0}, {"lat": 39.004744333333335, "is_disabled": 0, "type": "electric_bike", "lon": -76.90375516666667, "bike_id": "0835a2945418c7c8858db9607bfde7b8", "fusion_lat": 0.0, "name": "0835a2945418c7c8858db9607bfde7b8", "is_reserved": 0, "rental_uris": {"android": "https://dc.lft.to/lastmile_qr_scan", "ios": "https://dc.lft.to/lastmile_qr_scan"}, "fusion_lon": 0.0}, {"lat": 38.9561155, "is_disabled": 0, "type": "electric_scooter", "lon": -77.02794083333333, "bike_id": "1e3ea6fd59b5f2fd5ea70198c25f6dd7", "fusion_lat": 0.0, "name": "1e3ea6fd59b5f2fd5ea70198c25f6dd7", "is_reserved": 0, "rental_uris": {"android": "https://dc.lft.to/lastmile_qr_scan", "ios": "https://dc.lft.to/lastmile_qr_scan"}, "fusion_lon": 0.0}, {"lat": 38.914171, "is_disabled": 0, "type": "electric_scooter", "lon": -77.04539516666667, "bike_id": "c2cae1603ff2f11a70480b085dc6378f", "fusion_lat": 0.0, "name": "c2cae1603ff2f11a70480b085dc6378f", "is_reserved": 0, "rental_uris": {"android": "https://dc.lft.to/lastmile_qr_scan", "ios": "https://dc.lft.to/lastmile_qr_scan"}, "fusion_lon": 0.0}, {"lat": 38.909690833333336, "is_disabled": 0, "type": "electric_scooter", "lon": -76.99730283333334, "bike_id": "46439fe6ff800f1db8a80a52730f98f1", "fusion_lat": 0.0, "name": "46439fe6ff800f1db8a80a52730f98f1", "is_reserved": 0, "rental_uris": {"android": "https://dc.lft.to/lastmile_qr_scan", "ios": "https://dc.lft.to/lastmile_qr_scan"}, "fusion_lon": 0.0}, {"lat": 38.9191205, "is_disabled": 0, "type": "electric_scooter", "lon": -77.03139916666667, "bike_id": "3e7e36dfe9ec0cf9b16e920a9ca684c1", "fusion_lat": 0.0, "name": "3e7e36dfe9ec0cf9b16e920a9ca684c1", "is_reserved": 0, "rental_uris": {"android": "https://dc.lft.to/lastmile_qr_scan", "ios": "https://dc.lft.to/lastmile_qr_scan"}, "fusion_lon": 0.0}, {"lat": 38.89737083333333, "is_disabled": 0, "type": "electric_scooter", "lon": -77.046018, "bike_id": "9602730e69f8b05fa3bbb462d7fa0a57", "fusion_lat": 0.0, "name": "9602730e69f8b05fa3bbb462d7fa0a57", "is_reserved": 0, "rental_uris": {"android": "https://dc.lft.to/lastmile_qr_scan", "ios": "https://dc.lft.to/lastmile_qr_scan"}, "fusion_lon": 0.0}, {"lat": 38.828703, "is_disabled": 0, "type": "electric_bike", "lon": -77.11222716666667, "bike_id": "bc355f6ddb4c182ae4e9c1cdc24d2ccc", "fusion_lat": 0.0, "name": "bc355f6ddb4c182ae4e9c1cdc24d2ccc", "is_reserved": 0, "rental_uris": {"android": "https://dc.lft.to/lastmile_qr_scan", "ios": "https://dc.lft.to/lastmile_qr_scan"}, "fusion_lon": 0.0}, {"lat": 38.924336333333336, "is_disabled": 0, "type": "electric_scooter", "lon": -77.0561595, "bike_id": "a50e7ece0e1f8bd42cc4bb25b2b31a6f", "fusion_lat": 0.0, "name": "a50e7ece0e1f8bd42cc4bb25b2b31a6f", "is_reserved": 0, "rental_uris": {"android": "https://dc.lft.to/lastmile_qr_scan", "ios": "https://dc.lft.to/lastmile_qr_scan"}, "fusion_lon": 0.0}, {"lat": 38.90074, "is_disabled": 0, "type": "electric_scooter", "lon": -77.01339216666666, "bike_id": "fc40a6ab5141a31e967b5f4a2f6bbdf6", "fusion_lat": 0.0, "name": "fc40a6ab5141a31e967b5f4a2f6bbdf6", "is_reserved": 0, "rental_uris": {"android": "https://dc.lft.to/lastmile_qr_scan", "ios": "https://dc.lft.to/lastmile_qr_scan"}, "fusion_lon": 0.0}, {"lat": 38.9053615, "is_disabled": 0, "type": "electric_scooter", "lon": -77.0057985, "bike_id": "5f14ee8fd3961539e018d480830ba0f1", "fusion_lat": 0.0, "name": "5f14ee8fd3961539e018d480830ba0f1", "is_reserved": 0, "rental_uris": {"android": "https://dc.lft.to/lastmile_qr_scan", "ios": "https://dc.lft.to/lastmile_qr_scan"}, "fusion_lon": 0.0}, {"lat": 38.906767333333335, "is_disabled": 0, "type": "electric_scooter", "lon": -77.06272483333333, "bike_id": "a6896b9eac000be5effcd683d0d16ef7", "fusion_lat": 0.0, "name": "a6896b9eac000be5effcd683d0d16ef7", "is_reserved": 0, "rental_uris": {"android": "https://dc.lft.to/lastmile_qr_scan", "ios": "https://dc.lft.to/lastmile_qr_scan"}, "fusion_lon": 0.0}, {"lat": 38.93230916666667, "is_disabled": 0, "type": "electric_scooter", "lon": -77.03270833333333, "bike_id": "33dc570b8ec016e08707310c1d7fcf6a", "fusion_lat": 0.0, "name": "33dc570b8ec016e08707310c1d7fcf6a", "is_reserved": 0, "rental_uris": {"android": "https://dc.lft.to/lastmile_qr_scan", "ios": "https://dc.lft.to/lastmile_qr_scan"}, "fusion_lon": 0.0}, {"lat": 38.90278716666667, "is_disabled": 0, "type": "electric_scooter", "lon": -77.03827966666667, "bike_id": "91ead59dba7b9dcdcc1f942ba9b51399", "fusion_lat": 0.0, "name": "91ead59dba7b9dcdcc1f942ba9b51399", "is_reserved": 0, "rental_uris": {"android": "https://dc.lft.to/lastmile_qr_scan", "ios": "https://dc.lft.to/lastmile_qr_scan"}, "fusion_lon": 0.0}, {"lat": 38.936031166666666, "is_disabled": 0, "type": "electric_scooter", "lon": -77.03806533333334, "bike_id": "a613fc80bcd71ed374fe7ae993ba400d", "fusion_lat": 0.0, "name": "a613fc80bcd71ed374fe7ae993ba400d", "is_reserved": 0, "rental_uris": {"android": "https://dc.lft.to/lastmile_qr_scan", "ios": "https://dc.lft.to/lastmile_qr_scan"}, "fusion_lon": 0.0}, {"lat": 38.90374933333333, "is_disabled": 0, "type": "electric_scooter", "lon": -77.038464, "bike_id": "eeccee16c9971bf134c2856fc8c3de48", "fusion_lat": 0.0, "name": "eeccee16c9971bf134c2856fc8c3de48", "is_reserved": 0, "rental_uris": {"android": "https://dc.lft.to/lastmile_qr_scan", "ios": "https://dc.lft.to/lastmile_qr_scan"}, "fusion_lon": 0.0}, {"lat": 38.922504, "is_disabled": 0, "type": "electric_scooter", "lon": -77.04259166666667, "bike_id": "42d06b4302b0b6a2ee457a9dad173df2", "fusion_lat": 0.0, "name": "42d06b4302b0b6a2ee457a9dad173df2", "is_reserved": 0, "rental_uris": {"android": "https://dc.lft.to/lastmile_qr_scan", "ios": "https://dc.lft.to/lastmile_qr_scan"}, "fusion_lon": 0.0}, {"lat": 38.845880333333334, "is_disabled": 0, "type": "electric_scooter", "lon": -76.9816375, "bike_id": "2f7260c7e47330d99b85453199b725a5", "fusion_lat": 0.0, "name": "2f7260c7e47330d99b85453199b725a5", "is_reserved": 0, "rental_uris": {"android": "https://dc.lft.to/lastmile_qr_scan", "ios": "https://dc.lft.to/lastmile_qr_scan"}, "fusion_lon": 0.0}, {"lat": 38.921744833333335, "is_disabled": 0, "type": "electric_scooter", "lon": -77.04717, "bike_id": "6f95ab9bb05531bbd7e7e1bffed9130d", "fusion_lat": 0.0, "name": "6f95ab9bb05531bbd7e7e1bffed9130d", "is_reserved": 0, "rental_uris": {"android": "https://dc.lft.to/lastmile_qr_scan", "ios": "https://dc.lft.to/lastmile_qr_scan"}, "fusion_lon": 0.0}, {"lat": 38.8966705, "is_disabled": 0, "type": "electric_scooter", "lon": -77.0258975, "bike_id": "3c5c18e921f829e3972fa367b20db42e", "fusion_lat": 0.0, "name": "3c5c18e921f829e3972fa367b20db42e", "is_reserved": 0, "rental_uris": {"android": "https://dc.lft.to/lastmile_qr_scan", "ios": "https://dc.lft.to/lastmile_qr_scan"}, "fusion_lon": 0.0}, {"lat": 38.90756533333333, "is_disabled": 0, "type": "electric_scooter", "lon": -77.000343, "bike_id": "3e302362aac4d8f31790dd4f57591a66", "fusion_lat": 0.0, "name": "3e302362aac4d8f31790dd4f57591a66", "is_reserved": 0, "rental_uris": {"android": "https://dc.lft.to/lastmile_qr_scan", "ios": "https://dc.lft.to/lastmile_qr_scan"}, "fusion_lon": 0.0}, {"lat": 38.95630633333333, "is_disabled": 0, "type": "electric_scooter", "lon": -77.03303966666667, "bike_id": "2498f30e5f2efc11d9e39b609e5dd75f", "fusion_lat": 0.0, "name": "2498f30e5f2efc11d9e39b609e5dd75f", "is_reserved": 0, "rental_uris": {"android": "https://dc.lft.to/lastmile_qr_scan", "ios": "https://dc.lft.to/lastmile_qr_scan"}, "fusion_lon": 0.0}, {"lat": 38.87144933333333, "is_disabled": 0, "type": "electric_bike", "lon": -76.93705216666666, "bike_id": "708d411483f91b7ffaabf50084a9711d", "fusion_lat": 0.0, "name": "708d411483f91b7ffaabf50084a9711d", "is_reserved": 0, "rental_uris": {"android": "https://dc.lft.to/lastmile_qr_scan", "ios": "https://dc.lft.to/lastmile_qr_scan"}, "fusion_lon": 0.0}, {"lat": 38.917354, "is_disabled": 0, "type": "electric_scooter", "lon": -77.02122116666666, "bike_id": "9622c3230a23bcc99a6b5a10aea0ca2a", "fusion_lat": 0.0, "name": "9622c3230a23bcc99a6b5a10aea0ca2a", "is_reserved": 0, "rental_uris": {"android": "https://dc.lft.to/lastmile_qr_scan", "ios": "https://dc.lft.to/lastmile_qr_scan"}, "fusion_lon": 0.0}, {"lat": 38.874604, "is_disabled": 0, "type": "electric_scooter", "lon": -77.00543383333333, "bike_id": "b22b950a6c8dce382c5f44bd8d593954", "fusion_lat": 0.0, "name": "b22b950a6c8dce382c5f44bd8d593954", "is_reserved": 0, "rental_uris": {"android": "https://dc.lft.to/lastmile_qr_scan", "ios": "https://dc.lft.to/lastmile_qr_scan"}, "fusion_lon": 0.0}, {"lat": 38.9170985, "is_disabled": 0, "type": "electric_scooter", "lon": -77.007136, "bike_id": "a3743c616fb701c153acfa94c5e52480", "fusion_lat": 0.0, "name": "a3743c616fb701c153acfa94c5e52480", "is_reserved": 0, "rental_uris": {"android": "https://dc.lft.to/lastmile_qr_scan", "ios": "https://dc.lft.to/lastmile_qr_scan"}, "fusion_lon": 0.0}, {"lat": 38.956372333333334, "is_disabled": 0, "type": "electric_scooter", "lon": -77.03304283333334, "bike_id": "7a8fce1dc5b72d156bbecef27a5dc452", "fusion_lat": 0.0, "name": "7a8fce1dc5b72d156bbecef27a5dc452", "is_reserved": 0, "rental_uris": {"android": "https://dc.lft.to/lastmile_qr_scan", "ios": "https://dc.lft.to/lastmile_qr_scan"}, "fusion_lon": 0.0}, {"lat": 38.91049266666667, "is_disabled": 0, "type": "electric_scooter", "lon": -77.022014, "bike_id": "266e935158b34d9dfa420085473fc28b", "fusion_lat": 0.0, "name": "266e935158b34d9dfa420085473fc28b", "is_reserved": 0, "rental_uris": {"android": "https://dc.lft.to/lastmile_qr_scan", "ios": "https://dc.lft.to/lastmile_qr_scan"}, "fusion_lon": 0.0}, {"lat": 38.87384183333333, "is_disabled": 0, "type": "electric_scooter", "lon": -77.00027566666667, "bike_id": "25a76357a426a35c5251f87855548d61", "fusion_lat": 0.0, "name": "25a76357a426a35c5251f87855548d61", "is_reserved": 0, "rental_uris": {"android": "https://dc.lft.to/lastmile_qr_scan", "ios": "https://dc.lft.to/lastmile_qr_scan"}, "fusion_lon": 0.0}, {"lat": 38.89855983333333, "is_disabled": 0, "type": "electric_scooter", "lon": -77.03946083333334, "bike_id": "63b78497e154d325a17ac8ce863c43ab", "fusion_lat": 0.0, "name": "63b78497e154d325a17ac8ce863c43ab", "is_reserved": 0, "rental_uris": {"android": "https://dc.lft.to/lastmile_qr_scan", "ios": "https://dc.lft.to/lastmile_qr_scan"}, "fusion_lon": 0.0}, {"lat": 38.929961, "is_disabled": 0, "type": "electric_scooter", "lon": -77.0130765, "bike_id": "2abba9e61e5e51d51e69d23df1c3ecf6", "fusion_lat": 0.0, "name": "2abba9e61e5e51d51e69d23df1c3ecf6", "is_reserved": 0, "rental_uris": {"android": "https://dc.lft.to/lastmile_qr_scan", "ios": "https://dc.lft.to/lastmile_qr_scan"}, "fusion_lon": 0.0}, {"lat": 38.924171333333334, "is_disabled": 0, "type": "electric_scooter", "lon": -77.02989466666666, "bike_id": "7b9f5a9e5766103cdb6a32176366dee4", "fusion_lat": 0.0, "name": "7b9f5a9e5766103cdb6a32176366dee4", "is_reserved": 0, "rental_uris": {"android": "https://dc.lft.to/lastmile_qr_scan", "ios": "https://dc.lft.to/lastmile_qr_scan"}, "fusion_lon": 0.0}, {"lat": 38.86444516666667, "is_disabled": 0, "type": "electric_bike", "lon": -76.94542283333334, "bike_id": "258d9d322e148374d4e7e106c9049157", "fusion_lat": 0.0, "name": "258d9d322e148374d4e7e106c9049157", "is_reserved": 0, "rental_uris": {"android": "https://dc.lft.to/lastmile_qr_scan", "ios": "https://dc.lft.to/lastmile_qr_scan"}, "fusion_lon": 0.0}, {"lat": 38.9099635, "is_disabled": 0, "type": "electric_scooter", "lon": -77.03192816666666, "bike_id": "9cddb1a77a9946ea2af498005e8a64e7", "fusion_lat": 0.0, "name": "9cddb1a77a9946ea2af498005e8a64e7", "is_reserved": 0, "rental_uris": {"android": "https://dc.lft.to/lastmile_qr_scan", "ios": "https://dc.lft.to/lastmile_qr_scan"}, "fusion_lon": 0.0}, {"lat": 38.9230985, "is_disabled": 0, "type": "electric_scooter", "lon": -77.0395935, "bike_id": "006280d56644af49cae1e0130b876fda", "fusion_lat": 0.0, "name": "006280d56644af49cae1e0130b876fda", "is_reserved": 0, "rental_uris": {"android": "https://dc.lft.to/lastmile_qr_scan", "ios": "https://dc.lft.to/lastmile_qr_scan"}, "fusion_lon": 0.0}, {"lat": 38.902206, "is_disabled": 0, "type": "electric_scooter", "lon": -77.0467345, "bike_id": "55fd469c4c86e4cc69b1ecc0df39dc99", "fusion_lat": 0.0, "name": "55fd469c4c86e4cc69b1ecc0df39dc99", "is_reserved": 0, "rental_uris": {"android": "https://dc.lft.to/lastmile_qr_scan", "ios": "https://dc.lft.to/lastmile_qr_scan"}, "fusion_lon": 0.0}, {"lat": 38.9139955, "is_disabled": 0, "type": "electric_scooter", "lon": -77.03067683333333, "bike_id": "7dc594babc24d934c1352964f110019e", "fusion_lat": 0.0, "name": "7dc594babc24d934c1352964f110019e", "is_reserved": 0, "rental_uris": {"android": "https://dc.lft.to/lastmile_qr_scan", "ios": "https://dc.lft.to/lastmile_qr_scan"}, "fusion_lon": 0.0}, {"lat": 38.896128, "is_disabled": 0, "type": "electric_scooter", "lon": -76.95593733333334, "bike_id": "c6c01c7a4d14a910ad22a9f25ce155e9", "fusion_lat": 0.0, "name": "c6c01c7a4d14a910ad22a9f25ce155e9", "is_reserved": 0, "rental_uris": {"android": "https://dc.lft.to/lastmile_qr_scan", "ios": "https://dc.lft.to/lastmile_qr_scan"}, "fusion_lon": 0.0}, {"lat": 38.9038535, "is_disabled": 0, "type": "electric_scooter", "lon": -77.04398483333334, "bike_id": "e3e52f5318d2ac29397ed48fafa5ece8", "fusion_lat": 0.0, "name": "e3e52f5318d2ac29397ed48fafa5ece8", "is_reserved": 0, "rental_uris": {"android": "https://dc.lft.to/lastmile_qr_scan", "ios": "https://dc.lft.to/lastmile_qr_scan"}, "fusion_lon": 0.0}, {"lat": 38.915636, "is_disabled": 0, "type": "electric_scooter", "lon": -77.021782, "bike_id": "a7b36cb012052b556c047237cc3e0e10", "fusion_lat": 0.0, "name": "a7b36cb012052b556c047237cc3e0e10", "is_reserved": 0, "rental_uris": {"android": "https://dc.lft.to/lastmile_qr_scan", "ios": "https://dc.lft.to/lastmile_qr_scan"}, "fusion_lon": 0.0}, {"lat": 38.927587833333334, "is_disabled": 0, "type": "electric_scooter", "lon": -77.03220866666666, "bike_id": "3f2481503a44a6138ebf9bdc34bda810", "fusion_lat": 0.0, "name": "3f2481503a44a6138ebf9bdc34bda810", "is_reserved": 0, "rental_uris": {"android": "https://dc.lft.to/lastmile_qr_scan", "ios": "https://dc.lft.to/lastmile_qr_scan"}, "fusion_lon": 0.0}, {"lat": 38.886475833333336, "is_disabled": 0, "type": "electric_bike", "lon": -77.1623925, "bike_id": "dcd31628b177c937bac93156c3045fed", "fusion_lat": 0.0, "name": "dcd31628b177c937bac93156c3045fed", "is_reserved": 0, "rental_uris": {"android": "https://dc.lft.to/lastmile_qr_scan", "ios": "https://dc.lft.to/lastmile_qr_scan"}, "fusion_lon": 0.0}, {"lat": 38.903425666666664, "is_disabled": 0, "type": "electric_scooter", "lon": -77.02007383333333, "bike_id": "f68a2b1316d5b21efd06a4beca9dcab5", "fusion_lat": 0.0, "name": "f68a2b1316d5b21efd06a4beca9dcab5", "is_reserved": 0, "rental_uris": {"android": "https://dc.lft.to/lastmile_qr_scan", "ios": "https://dc.lft.to/lastmile_qr_scan"}, "fusion_lon": 0.0}, {"lat": 38.90443233333333, "is_disabled": 0, "type": "electric_scooter", "lon": -77.00778133333333, "bike_id": "1d0d2c1253c4e926d0371f6de68ddc43", "fusion_lat": 0.0, "name": "1d0d2c1253c4e926d0371f6de68ddc43", "is_reserved": 0, "rental_uris": {"android": "https://dc.lft.to/lastmile_qr_scan", "ios": "https://dc.lft.to/lastmile_qr_scan"}, "fusion_lon": 0.0}, {"lat": 38.921482833333336, "is_disabled": 0, "type": "electric_scooter", "lon": -77.04219933333333, "bike_id": "4f279bd64be91c198ac4a9f8369cb834", "fusion_lat": 0.0, "name": "4f279bd64be91c198ac4a9f8369cb834", "is_reserved": 0, "rental_uris": {"android": "https://dc.lft.to/lastmile_qr_scan", "ios": "https://dc.lft.to/lastmile_qr_scan"}, "fusion_lon": 0.0}, {"lat": 38.91894, "is_disabled": 0, "type": "electric_scooter", "lon": -77.03913083333333, "bike_id": "5072a1541902fe9dbcace75efb8713cf", "fusion_lat": 0.0, "name": "5072a1541902fe9dbcace75efb8713cf", "is_reserved": 0, "rental_uris": {"android": "https://dc.lft.to/lastmile_qr_scan", "ios": "https://dc.lft.to/lastmile_qr_scan"}, "fusion_lon": 0.0}, {"lat": 38.918580166666665, "is_disabled": 0, "type": "electric_scooter", "lon": -76.96553583333333, "bike_id": "4d327ab193842d71bb6a4f4852aebc8f", "fusion_lat": 0.0, "name": "4d327ab193842d71bb6a4f4852aebc8f", "is_reserved": 0, "rental_uris": {"android": "https://dc.lft.to/lastmile_qr_scan", "ios": "https://dc.lft.to/lastmile_qr_scan"}, "fusion_lon": 0.0}, {"lat": 38.937349, "is_disabled": 0, "type": "electric_scooter", "lon": -77.03265483333334, "bike_id": "c74111283442c71ab199be7bea9889b5", "fusion_lat": 0.0, "name": "c74111283442c71ab199be7bea9889b5", "is_reserved": 0, "rental_uris": {"android": "https://dc.lft.to/lastmile_qr_scan", "ios": "https://dc.lft.to/lastmile_qr_scan"}, "fusion_lon": 0.0}, {"lat": 38.919884333333336, "is_disabled": 0, "type": "electric_scooter", "lon": -77.04762333333333, "bike_id": "3124aba96f0410d6b07d0a79398eb384", "fusion_lat": 0.0, "name": "3124aba96f0410d6b07d0a79398eb384", "is_reserved": 0, "rental_uris": {"android": "https://dc.lft.to/lastmile_qr_scan", "ios": "https://dc.lft.to/lastmile_qr_scan"}, "fusion_lon": 0.0}, {"lat": 38.92143216666667, "is_disabled": 0, "type": "electric_scooter", "lon": -77.04339283333333, "bike_id": "2b431c56cf94cd64bbbc209cf58b2140", "fusion_lat": 0.0, "name": "2b431c56cf94cd64bbbc209cf58b2140", "is_reserved": 0, "rental_uris": {"android": "https://dc.lft.to/lastmile_qr_scan", "ios": "https://dc.lft.to/lastmile_qr_scan"}, "fusion_lon": 0.0}, {"lat": 38.901018, "is_disabled": 0, "type": "electric_scooter", "lon": -77.0260235, "bike_id": "c6c64bf0634b27a3c681eec2f2a16605", "fusion_lat": 0.0, "name": "c6c64bf0634b27a3c681eec2f2a16605", "is_reserved": 0, "rental_uris": {"android": "https://dc.lft.to/lastmile_qr_scan", "ios": "https://dc.lft.to/lastmile_qr_scan"}, "fusion_lon": 0.0}, {"lat": 38.916879333333334, "is_disabled": 0, "type": "electric_scooter", "lon": -77.03691583333334, "bike_id": "94798428d887e2005747e0e643ec8625", "fusion_lat": 0.0, "name": "94798428d887e2005747e0e643ec8625", "is_reserved": 0, "rental_uris": {"android": "https://dc.lft.to/lastmile_qr_scan", "ios": "https://dc.lft.to/lastmile_qr_scan"}, "fusion_lon": 0.0}, {"lat": 38.946324, "is_disabled": 0, "type": "electric_scooter", "lon": -77.01937983333333, "bike_id": "741493a69fd08a8c354c1e28eb1946f4", "fusion_lat": 0.0, "name": "741493a69fd08a8c354c1e28eb1946f4", "is_reserved": 0, "rental_uris": {"android": "https://dc.lft.to/lastmile_qr_scan", "ios": "https://dc.lft.to/lastmile_qr_scan"}, "fusion_lon": 0.0}, {"lat": 38.90094666666667, "is_disabled": 0, "type": "electric_scooter", "lon": -77.01362633333333, "bike_id": "16d8184840ebcec934af8427948c66ce", "fusion_lat": 0.0, "name": "16d8184840ebcec934af8427948c66ce", "is_reserved": 0, "rental_uris": {"android": "https://dc.lft.to/lastmile_qr_scan", "ios": "https://dc.lft.to/lastmile_qr_scan"}, "fusion_lon": 0.0}, {"lat": 38.8961855, "is_disabled": 0, "type": "electric_scooter", "lon": -76.9985765, "bike_id": "f3128bf89cfdbf43e1d8b07a9a00cd60", "fusion_lat": 0.0, "name": "f3128bf89cfdbf43e1d8b07a9a00cd60", "is_reserved": 0, "rental_uris": {"android": "https://dc.lft.to/lastmile_qr_scan", "ios": "https://dc.lft.to/lastmile_qr_scan"}, "fusion_lon": 0.0}, {"lat": 38.87392533333333, "is_disabled": 0, "type": "electric_scooter", "lon": -77.000864, "bike_id": "06a03dd15323474c1fafac1b57cd18f1", "fusion_lat": 0.0, "name": "06a03dd15323474c1fafac1b57cd18f1", "is_reserved": 0, "rental_uris": {"android": "https://dc.lft.to/lastmile_qr_scan", "ios": "https://dc.lft.to/lastmile_qr_scan"}, "fusion_lon": 0.0}, {"lat": 38.903335166666665, "is_disabled": 0, "type": "electric_scooter", "lon": -77.02058883333333, "bike_id": "230b61b65f8db213e05e117f5446ce89", "fusion_lat": 0.0, "name": "230b61b65f8db213e05e117f5446ce89", "is_reserved": 0, "rental_uris": {"android": "https://dc.lft.to/lastmile_qr_scan", "ios": "https://dc.lft.to/lastmile_qr_scan"}, "fusion_lon": 0.0}, {"lat": 39.03402766666667, "is_disabled": 0, "type": "electric_bike", "lon": -77.0421675, "bike_id": "d189a1ee9e8fbf9e9fb636c8ceb206cb", "fusion_lat": 0.0, "name": "d189a1ee9e8fbf9e9fb636c8ceb206cb", "is_reserved": 0, "rental_uris": {"android": "https://dc.lft.to/lastmile_qr_scan", "ios": "https://dc.lft.to/lastmile_qr_scan"}, "fusion_lon": 0.0}, {"lat": 38.9166705, "is_disabled": 0, "type": "electric_scooter", "lon": -77.03851433333334, "bike_id": "ea0c85e9dbca9e7335ae6012777acd4f", "fusion_lat": 0.0, "name": "ea0c85e9dbca9e7335ae6012777acd4f", "is_reserved": 0, "rental_uris": {"android": "https://dc.lft.to/lastmile_qr_scan", "ios": "https://dc.lft.to/lastmile_qr_scan"}, "fusion_lon": 0.0}, {"lat": 38.90066183333333, "is_disabled": 0, "type": "electric_scooter", "lon": -77.00190683333334, "bike_id": "ff8dd54c3c7fb9947d42cded09aeb683", "fusion_lat": 0.0, "name": "ff8dd54c3c7fb9947d42cded09aeb683", "is_reserved": 0, "rental_uris": {"android": "https://dc.lft.to/lastmile_qr_scan", "ios": "https://dc.lft.to/lastmile_qr_scan"}, "fusion_lon": 0.0}, {"lat": 38.91267883333333, "is_disabled": 0, "type": "electric_scooter", "lon": -77.022258, "bike_id": "64d685d2fde215bd8d77d0bab706e4c6", "fusion_lat": 0.0, "name": "64d685d2fde215bd8d77d0bab706e4c6", "is_reserved": 0, "rental_uris": {"android": "https://dc.lft.to/lastmile_qr_scan", "ios": "https://dc.lft.to/lastmile_qr_scan"}, "fusion_lon": 0.0}, {"lat": 38.87627116666667, "is_disabled": 0, "type": "electric_scooter", "lon": -76.96529566666666, "bike_id": "53060c634a1a720ed04c5eea0f4d64d1", "fusion_lat": 0.0, "name": "53060c634a1a720ed04c5eea0f4d64d1", "is_reserved": 0, "rental_uris": {"android": "https://dc.lft.to/lastmile_qr_scan", "ios": "https://dc.lft.to/lastmile_qr_scan"}, "fusion_lon": 0.0}, {"lat": 38.893244333333335, "is_disabled": 0, "type": "electric_scooter", "lon": -76.92992933333333, "bike_id": "ce3a1a001ee401f9c20603badf670b60", "fusion_lat": 0.0, "name": "ce3a1a001ee401f9c20603badf670b60", "is_reserved": 0, "rental_uris": {"android": "https://dc.lft.to/lastmile_qr_scan", "ios": "https://dc.lft.to/lastmile_qr_scan"}, "fusion_lon": 0.0}, {"lat": 38.905204833333336, "is_disabled": 0, "type": "electric_scooter", "lon": -77.047514, "bike_id": "f820c1cef8946f1aab5ea4bd8c3f6451", "fusion_lat": 0.0, "name": "f820c1cef8946f1aab5ea4bd8c3f6451", "is_reserved": 0, "rental_uris": {"android": "https://dc.lft.to/lastmile_qr_scan", "ios": "https://dc.lft.to/lastmile_qr_scan"}, "fusion_lon": 0.0}, {"lat": 38.92174333333333, "is_disabled": 0, "type": "electric_scooter", "lon": -77.03208166666667, "bike_id": "64278f33c20c43ad9cb8fb6e17e83910", "fusion_lat": 0.0, "name": "64278f33c20c43ad9cb8fb6e17e83910", "is_reserved": 0, "rental_uris": {"android": "https://dc.lft.to/lastmile_qr_scan", "ios": "https://dc.lft.to/lastmile_qr_scan"}, "fusion_lon": 0.0}, {"lat": 38.912693166666664, "is_disabled": 0, "type": "electric_scooter", "lon": -77.04514733333333, "bike_id": "9fc420e48fe7016b538da0203abbdbea", "fusion_lat": 0.0, "name": "9fc420e48fe7016b538da0203abbdbea", "is_reserved": 0, "rental_uris": {"android": "https://dc.lft.to/lastmile_qr_scan", "ios": "https://dc.lft.to/lastmile_qr_scan"}, "fusion_lon": 0.0}, {"lat": 38.922861166666664, "is_disabled": 0, "type": "electric_scooter", "lon": -77.03663, "bike_id": "0b004dbeb99a42854c5f6ab43e3e1aba", "fusion_lat": 0.0, "name": "0b004dbeb99a42854c5f6ab43e3e1aba", "is_reserved": 0, "rental_uris": {"android": "https://dc.lft.to/lastmile_qr_scan", "ios": "https://dc.lft.to/lastmile_qr_scan"}, "fusion_lon": 0.0}, {"lat": 38.90613283333333, "is_disabled": 0, "type": "electric_scooter", "lon": -77.0188355, "bike_id": "76440616f4493aee353c43f4030eb63b", "fusion_lat": 0.0, "name": "76440616f4493aee353c43f4030eb63b", "is_reserved": 0, "rental_uris": {"android": "https://dc.lft.to/lastmile_qr_scan", "ios": "https://dc.lft.to/lastmile_qr_scan"}, "fusion_lon": 0.0}, {"lat": 38.921494333333335, "is_disabled": 0, "type": "electric_scooter", "lon": -77.03513083333333, "bike_id": "f16c29add507e81a04cb5c0e845063a4", "fusion_lat": 0.0, "name": "f16c29add507e81a04cb5c0e845063a4", "is_reserved": 0, "rental_uris": {"android": "https://dc.lft.to/lastmile_qr_scan", "ios": "https://dc.lft.to/lastmile_qr_scan"}, "fusion_lon": 0.0}, {"lat": 38.916974, "is_disabled": 0, "type": "electric_scooter", "lon": -77.02750066666667, "bike_id": "60908834bf5143fbcf6332590af8dcaf", "fusion_lat": 0.0, "name": "60908834bf5143fbcf6332590af8dcaf", "is_reserved": 0, "rental_uris": {"android": "https://dc.lft.to/lastmile_qr_scan", "ios": "https://dc.lft.to/lastmile_qr_scan"}, "fusion_lon": 0.0}, {"lat": 38.89226166666667, "is_disabled": 0, "type": "electric_scooter", "lon": -77.03340466666667, "bike_id": "85ddf793a1cbffb66c1aed169d67ed55", "fusion_lat": 0.0, "name": "85ddf793a1cbffb66c1aed169d67ed55", "is_reserved": 0, "rental_uris": {"android": "https://dc.lft.to/lastmile_qr_scan", "ios": "https://dc.lft.to/lastmile_qr_scan"}, "fusion_lon": 0.0}, {"lat": 38.917281, "is_disabled": 0, "type": "electric_scooter", "lon": -77.036622, "bike_id": "7d0079bd7540f500fa709719723d25de", "fusion_lat": 0.0, "name": "7d0079bd7540f500fa709719723d25de", "is_reserved": 0, "rental_uris": {"android": "https://dc.lft.to/lastmile_qr_scan", "ios": "https://dc.lft.to/lastmile_qr_scan"}, "fusion_lon": 0.0}, {"lat": 38.905255833333335, "is_disabled": 0, "type": "electric_scooter", "lon": -77.04771683333334, "bike_id": "7beb532515660f39774501d4da2719c1", "fusion_lat": 0.0, "name": "7beb532515660f39774501d4da2719c1", "is_reserved": 0, "rental_uris": {"android": "https://dc.lft.to/lastmile_qr_scan", "ios": "https://dc.lft.to/lastmile_qr_scan"}, "fusion_lon": 0.0}, {"lat": 38.927140333333334, "is_disabled": 0, "type": "electric_scooter", "lon": -77.03636333333333, "bike_id": "3c233a1eca24c359a5a737333cd17ab6", "fusion_lat": 0.0, "name": "3c233a1eca24c359a5a737333cd17ab6", "is_reserved": 0, "rental_uris": {"android": "https://dc.lft.to/lastmile_qr_scan", "ios": "https://dc.lft.to/lastmile_qr_scan"}, "fusion_lon": 0.0}, {"lat": 38.918736333333335, "is_disabled": 0, "type": "electric_scooter", "lon": -77.042572, "bike_id": "f5a7330338d1e64c737ba5145c174a86", "fusion_lat": 0.0, "name": "f5a7330338d1e64c737ba5145c174a86", "is_reserved": 0, "rental_uris": {"android": "https://dc.lft.to/lastmile_qr_scan", "ios": "https://dc.lft.to/lastmile_qr_scan"}, "fusion_lon": 0.0}, {"lat": 38.8605535, "is_disabled": 0, "type": "electric_scooter", "lon": -77.05746183333333, "bike_id": "c3b75ff3d8742afb64f346aebd5e16dd", "fusion_lat": 0.0, "name": "c3b75ff3d8742afb64f346aebd5e16dd", "is_reserved": 0, "rental_uris": {"android": "https://dc.lft.to/lastmile_qr_scan", "ios": "https://dc.lft.to/lastmile_qr_scan"}, "fusion_lon": 0.0}, {"lat": 38.91649816666666, "is_disabled": 0, "type": "electric_scooter", "lon": -76.98238616666667, "bike_id": "f0ea525ba70452b714c4867982b1e089", "fusion_lat": 0.0, "name": "f0ea525ba70452b714c4867982b1e089", "is_reserved": 0, "rental_uris": {"android": "https://dc.lft.to/lastmile_qr_scan", "ios": "https://dc.lft.to/lastmile_qr_scan"}, "fusion_lon": 0.0}, {"lat": 38.9063215, "is_disabled": 0, "type": "electric_scooter", "lon": -77.0396795, "bike_id": "62f0f396bdc1e2f11f8336ab6dc4650b", "fusion_lat": 0.0, "name": "62f0f396bdc1e2f11f8336ab6dc4650b", "is_reserved": 0, "rental_uris": {"android": "https://dc.lft.to/lastmile_qr_scan", "ios": "https://dc.lft.to/lastmile_qr_scan"}, "fusion_lon": 0.0}, {"lat": 38.903240833333335, "is_disabled": 0, "type": "electric_scooter", "lon": -77.0374145, "bike_id": "c13c4b9561889de768c7950bd56dce77", "fusion_lat": 0.0, "name": "c13c4b9561889de768c7950bd56dce77", "is_reserved": 0, "rental_uris": {"android": "https://dc.lft.to/lastmile_qr_scan", "ios": "https://dc.lft.to/lastmile_qr_scan"}, "fusion_lon": 0.0}, {"lat": 38.91544783333333, "is_disabled": 0, "type": "electric_scooter", "lon": -77.03845416666667, "bike_id": "9c0e6ac4a0b68991b4b015db037d0c47", "fusion_lat": 0.0, "name": "9c0e6ac4a0b68991b4b015db037d0c47", "is_reserved": 0, "rental_uris": {"android": "https://dc.lft.to/lastmile_qr_scan", "ios": "https://dc.lft.to/lastmile_qr_scan"}, "fusion_lon": 0.0}, {"lat": 38.91673266666667, "is_disabled": 0, "type": "electric_scooter", "lon": -77.02721783333334, "bike_id": "3a80b31a041f0a4d879244eee9c4de8c", "fusion_lat": 0.0, "name": "3a80b31a041f0a4d879244eee9c4de8c", "is_reserved": 0, "rental_uris": {"android": "https://dc.lft.to/lastmile_qr_scan", "ios": "https://dc.lft.to/lastmile_qr_scan"}, "fusion_lon": 0.0}, {"lat": 38.91401, "is_disabled": 0, "type": "electric_scooter", "lon": -77.03185233333333, "bike_id": "32c0dca58bbdd1be85d89bdf63bb1568", "fusion_lat": 0.0, "name": "32c0dca58bbdd1be85d89bdf63bb1568", "is_reserved": 0, "rental_uris": {"android": "https://dc.lft.to/lastmile_qr_scan", "ios": "https://dc.lft.to/lastmile_qr_scan"}, "fusion_lon": 0.0}, {"lat": 38.91400983333333, "is_disabled": 0, "type": "electric_scooter", "lon": -77.03145866666667, "bike_id": "a901f2de78c8e2b0a90920bb6fd55eb7", "fusion_lat": 0.0, "name": "a901f2de78c8e2b0a90920bb6fd55eb7", "is_reserved": 0, "rental_uris": {"android": "https://dc.lft.to/lastmile_qr_scan", "ios": "https://dc.lft.to/lastmile_qr_scan"}, "fusion_lon": 0.0}, {"lat": 38.9035775, "is_disabled": 0, "type": "electric_scooter", "lon": -77.04111583333334, "bike_id": "df8595411056a81e05e5569c55671ce3", "fusion_lat": 0.0, "name": "df8595411056a81e05e5569c55671ce3", "is_reserved": 0, "rental_uris": {"android": "https://dc.lft.to/lastmile_qr_scan", "ios": "https://dc.lft.to/lastmile_qr_scan"}, "fusion_lon": 0.0}, {"lat": 38.904914833333336, "is_disabled": 0, "type": "electric_scooter", "lon": -77.04483316666666, "bike_id": "a0ae38b1dd96568cc6c1172db9573ecd", "fusion_lat": 0.0, "name": "a0ae38b1dd96568cc6c1172db9573ecd", "is_reserved": 0, "rental_uris": {"android": "https://dc.lft.to/lastmile_qr_scan", "ios": "https://dc.lft.to/lastmile_qr_scan"}, "fusion_lon": 0.0}, {"lat": 38.883981666666664, "is_disabled": 0, "type": "electric_scooter", "lon": -77.02425516666666, "bike_id": "31e86ef44771b80c2d0c5dc83a0a4eb1", "fusion_lat": 0.0, "name": "31e86ef44771b80c2d0c5dc83a0a4eb1", "is_reserved": 0, "rental_uris": {"android": "https://dc.lft.to/lastmile_qr_scan", "ios": "https://dc.lft.to/lastmile_qr_scan"}, "fusion_lon": 0.0}, {"lat": 38.918715166666665, "is_disabled": 0, "type": "electric_scooter", "lon": -77.03580216666667, "bike_id": "d59a0d655d934079c4325d3231c724f4", "fusion_lat": 0.0, "name": "d59a0d655d934079c4325d3231c724f4", "is_reserved": 0, "rental_uris": {"android": "https://dc.lft.to/lastmile_qr_scan", "ios": "https://dc.lft.to/lastmile_qr_scan"}, "fusion_lon": 0.0}, {"lat": 38.9181345, "is_disabled": 0, "type": "electric_scooter", "lon": -77.02582583333333, "bike_id": "03c39b18240705147d25d8a0e0760410", "fusion_lat": 0.0, "name": "03c39b18240705147d25d8a0e0760410", "is_reserved": 0, "rental_uris": {"android": "https://dc.lft.to/lastmile_qr_scan", "ios": "https://dc.lft.to/lastmile_qr_scan"}, "fusion_lon": 0.0}, {"lat": 38.92012, "is_disabled": 0, "type": "electric_scooter", "lon": -77.07117383333333, "bike_id": "e27f1a1300c3365730639bcd7c82e118", "fusion_lat": 0.0, "name": "e27f1a1300c3365730639bcd7c82e118", "is_reserved": 0, "rental_uris": {"android": "https://dc.lft.to/lastmile_qr_scan", "ios": "https://dc.lft.to/lastmile_qr_scan"}, "fusion_lon": 0.0}, {"lat": 38.92562383333333, "is_disabled": 0, "type": "electric_scooter", "lon": -77.03929083333334, "bike_id": "8b4ed86293eda41a4b14a14774aad1bf", "fusion_lat": 0.0, "name": "8b4ed86293eda41a4b14a14774aad1bf", "is_reserved": 0, "rental_uris": {"android": "https://dc.lft.to/lastmile_qr_scan", "ios": "https://dc.lft.to/lastmile_qr_scan"}, "fusion_lon": 0.0}, {"lat": 38.85643733333333, "is_disabled": 0, "type": "electric_bike", "lon": -77.11252233333333, "bike_id": "a79ca2d8bdab30468631f1d59b13b3fe", "fusion_lat": 0.0, "name": "a79ca2d8bdab30468631f1d59b13b3fe", "is_reserved": 0, "rental_uris": {"android": "https://dc.lft.to/lastmile_qr_scan", "ios": "https://dc.lft.to/lastmile_qr_scan"}, "fusion_lon": 0.0}, {"lat": 38.931077, "is_disabled": 0, "type": "electric_scooter", "lon": -77.03488816666666, "bike_id": "59ddfaec9b96659eb30d8499559138c3", "fusion_lat": 0.0, "name": "59ddfaec9b96659eb30d8499559138c3", "is_reserved": 0, "rental_uris": {"android": "https://dc.lft.to/lastmile_qr_scan", "ios": "https://dc.lft.to/lastmile_qr_scan"}, "fusion_lon": 0.0}, {"lat": 38.9170575, "is_disabled": 0, "type": "electric_scooter", "lon": -77.03883916666666, "bike_id": "56e4ca642fc027bac3a0726328f58b13", "fusion_lat": 0.0, "name": "56e4ca642fc027bac3a0726328f58b13", "is_reserved": 0, "rental_uris": {"android": "https://dc.lft.to/lastmile_qr_scan", "ios": "https://dc.lft.to/lastmile_qr_scan"}, "fusion_lon": 0.0}, {"lat": 38.915796666666665, "is_disabled": 0, "type": "electric_scooter", "lon": -77.01236633333333, "bike_id": "059b74bb27a6699d27b71281153cf381", "fusion_lat": 0.0, "name": "059b74bb27a6699d27b71281153cf381", "is_reserved": 0, "rental_uris": {"android": "https://dc.lft.to/lastmile_qr_scan", "ios": "https://dc.lft.to/lastmile_qr_scan"}, "fusion_lon": 0.0},