{"data": {"bikes": [{"is_reserved": 0, "type": "electric_scooter", "bike_id": "02a9a6eb772365b4cb5dfda9816631f6", "lat": 38.91802833333333, "lon": -77.03306033333334, "rental_uris": {"android": "https://dc.lft.to/lastmile_qr_scan", "ios": "https://dc.lft.to/lastmile_qr_scan"}, "is_disabled": 0, "fusion_lat": 0.0, "name": "02a9a6eb772365b4cb5dfda9816631f6", "fusion_lon": 0.0}, {"is_reserved": 0, "type": "electric_scooter", "bike_id": "86f3b10eac7d94d43a245d9561b155da", "lat": 38.90233883333333, "lon": -77.02651433333334, "rental_uris": {"android": "https://dc.lft.to/lastmile_qr_scan", "ios": "https://dc.lft.to/lastmile_qr_scan"}, "is_disabled": 0, "fusion_lat": 0.0, "name": "86f3b10eac7d94d43a245d9561b155da", "fusion_lon": 0.0}, {"is_reserved": 0, "type": "electric_scooter", "bike_id": "6b1296a149efdc5fc353458a825f48cd", "lat": 38.924476, "lon": -77.02034516666667, "rental_uris": {"android": "https://dc.lft.to/lastmile_qr_scan", "ios": "https://dc.lft.to/lastmile_qr_scan"}, "is_disabled": 0, "fusion_lat": 0.0, "name": "6b1296a149efdc5fc353458a825f48cd", "fusion_lon": 0.0}, {"is_reserved": 0, "type": "electric_scooter", "bike_id": "3bbd542066903703fdc76c533535556c", "lat": 38.853182333333336, "lon": -76.9800255, "rental_uris": {"android": "https://dc.lft.to/lastmile_qr_scan", "ios": "https://dc.lft.to/lastmile_qr_scan"}, "is_disabled": 0, "fusion_lat": 0.0, "name": "3bbd542066903703fdc76c533535556c", "fusion_lon": 0.0}, {"is_reserved": 0, "type": "electric_scooter", "bike_id": "ec3b5e68ca9ecdb1e83250298ce3eba3", "lat": 38.933324666666664, "lon": -77.02909116666666, "rental_uris": {"android": "https://dc.lft.to/lastmile_qr_scan", "ios": "https://dc.lft.to/lastmile_qr_scan"}, "is_disabled": 0, "fusion_lat": 0.0, "name": "ec3b5e68ca9ecdb1e83250298ce3eba3", "fusion_lon": 0.0}, {"is_reserved": 0, "type": "electric_bike", "bike_id": "c439910612f37f0ef40a2a995c797857", "lat": 38.89141933333333, "lon": -77.1828095, "rental_uris": {"android": "https://dc.lft.to/lastmile_qr_scan", "ios": "https://dc.lft.to/lastmile_qr_scan"}, "is_disabled": 0, "fusion_lat": 0.0, "name": "c439910612f37f0ef40a2a995c797857", "fusion_lon": 0.0}, {"is_reserved": 0, "type": "electric_scooter", "bike_id": "1409416d8778ae13147c241abdfa82b3", "lat": 38.923297, "lon": -77.04586166666667, "rental_uris": {"android": "https://dc.lft.to/lastmile_qr_scan", "ios": "https://dc.lft.to/lastmile_qr_scan"}, "is_disabled": 0, "fusion_lat": 0.0, "name": "1409416d8778ae13147c241abdfa82b3", "fusion_lon": 0.0}, {"is_reserved": 0, "type": "electric_scooter", "bike_id": "a12296bb40a91c8a93ffed952df59dbb", "lat": 38.937157, "lon": -77.03268583333333, "rental_uris": {"android": "https://dc.lft.to/lastmile_qr_scan", "ios": "https://dc.lft.to/lastmile_qr_scan"}, "is_disabled": 0, "fusion_lat": 0.0, "name": "a12296bb40a91c8a93ffed952df59dbb", "fusion_lon": 0.0}, {"is_reserved": 0, "type": "electric_scooter", "bike_id": "4cc6f1b46d41e1eeb4ca2e17d15da545", "lat": 38.90685166666667, "lon": -77.02693466666666, "rental_uris": {"android": "https://dc.lft.to/lastmile_qr_scan", "ios": "https://dc.lft.to/lastmile_qr_scan"}, "is_disabled": 0, "fusion_lat": 0.0, "name": "4cc6f1b46d41e1eeb4ca2e17d15da545", "fusion_lon": 0.0}, {"is_reserved": 0, "type": "electric_scooter", "bike_id": "b655984a60635506bc10c99ad2f9f125", "lat": 38.902642666666665, "lon": -77.0032575, "rental_uris": {"android": "https://dc.lft.to/lastmile_qr_scan", "ios": "https://dc.lft.to/lastmile_qr_scan"}, "is_disabled": 0, "fusion_lat": 0.0, "name": "b655984a60635506bc10c99ad2f9f125", "fusion_lon": 0.0}, {"is_reserved": 0, "type": "electric_scooter", "bike_id": "542026ff9a32e03b8cfbad6c1e1c717f", "lat": 38.920411, "lon": -77.04824166666667, "rental_uris": {"android": "https://dc.lft.to/lastmile_qr_scan", "ios": "https://dc.lft.to/lastmile_qr_scan"}, "is_disabled": 0, "fusion_lat": 0.0, "name": "542026ff9a32e03b8cfbad6c1e1c717f", "fusion_lon": 0.0}, {"is_reserved": 0, "type": "electric_scooter", "bike_id": "00284e2704ef5ef5dc0a8642f31eda6a", "lat": 38.917107, "lon": -77.03854366666667, "rental_uris": {"android": "https://dc.lft.to/lastmile_qr_scan", "ios": "https://dc.lft.to/lastmile_qr_scan"}, "is_disabled": 0, "fusion_lat": 0.0, "name": "00284e2704ef5ef5dc0a8642f31eda6a", "fusion_lon": 0.0}, {"is_reserved": 0, "type": "electric_scooter", "bike_id": "b1faaeca6b68e6baddc59b50a335b8d4", "lat": 38.920441333333336, "lon": -77.041843, "rental_uris": {"android": "https://dc.lft.to/lastmile_qr_scan", "ios": "https://dc.lft.to/lastmile_qr_scan"}, "is_disabled": 0, "fusion_lat": 0.0, "name": "b1faaeca6b68e6baddc59b50a335b8d4", "fusion_lon": 0.0}, {"is_reserved": 0, "type": "electric_scooter", "bike_id": "9da34a912bdf39772ae0c9e60833b495", "lat": 38.916808333333336, "lon": -77.0239405, "rental_uris": {"android": "https://dc.lft.to/lastmile_qr_scan", "ios": "https://dc.lft.to/lastmile_qr_scan"}, "is_disabled": 0, "fusion_lat": 0.0, "name": "9da34a912bdf39772ae0c9e60833b495", "fusion_lon": 0.0}, {"is_reserved": 0, "type": "electric_scooter", "bike_id": "e4ddc8e45a57d479995768ace347ac2b", "lat": 38.91914933333334, "lon": -77.048062, "rental_uris": {"android": "https://dc.lft.to/lastmile_qr_scan", "ios": "https://dc.lft.to/lastmile_qr_scan"}, "is_disabled": 0, "fusion_lat": 0.0, "name": "e4ddc8e45a57d479995768ace347ac2b", "fusion_lon": 0.0}, {"is_reserved": 0, "type": "electric_scooter", "bike_id": "3d211f91462cfc184ae073cf95e9afb9", "lat": 38.9153565, "lon": -77.01990133333334, "rental_uris": {"android": "https://dc.lft.to/lastmile_qr_scan", "ios": "https://dc.lft.to/lastmile_qr_scan"}, "is_disabled": 0, "fusion_lat": 0.0, "name": "3d211f91462cfc184ae073cf95e9afb9", "fusion_lon": 0.0}, {"is_reserved": 0, "type": "electric_scooter", "bike_id": "5e3db3f145b992b7ad8973ac01f78a26", "lat": 38.93457, "lon": -77.02248866666666, "rental_uris": {"android": "https://dc.lft.to/lastmile_qr_scan", "ios": "https://dc.lft.to/lastmile_qr_scan"}, "is_disabled": 0, "fusion_lat": 0.0, "name": "5e3db3f145b992b7ad8973ac01f78a26", "fusion_lon": 0.0}, {"is_reserved": 0, "type": "electric_scooter", "bike_id": "84ed29185690b7f9dd2820a77cc043f6", "lat": 38.8643045, "lon": -76.99861933333334, "rental_uris": {"android": "https://dc.lft.to/lastmile_qr_scan", "ios": "https://dc.lft.to/lastmile_qr_scan"}, "is_disabled": 0, "fusion_lat": 0.0, "name": "84ed29185690b7f9dd2820a77cc043f6", "fusion_lon": 0.0}, {"is_reserved": 0, "type": "electric_scooter", "bike_id": "01844c7d269331f6a24f9c82520c53e2", "lat": 38.922493, "lon": -76.98315916666667, "rental_uris": {"android": "https://dc.lft.to/lastmile_qr_scan", "ios": "https://dc.lft.to/lastmile_qr_scan"}, "is_disabled": 0, "fusion_lat": 0.0, "name": "01844c7d269331f6a24f9c82520c53e2", "fusion_lon": 0.0}, {"is_reserved": 0, "type": "electric_scooter", "bike_id": "5bec2f563f89f94e64584936e7da1f60", "lat": 38.9006045, "lon": -76.9868365, "rental_uris": {"android": "https://dc.lft.to/lastmile_qr_scan", "ios": "https://dc.lft.to/lastmile_qr_scan"}, "is_disabled": 0, "fusion_lat": 0.0, "name": "5bec2f563f89f94e64584936e7da1f60", "fusion_lon": 0.0}, {"is_reserved": 0, "type": "electric_scooter", "bike_id": "6e493dc135051ad07c3bf1cea4fcd7e5", "lat": 38.903612, "lon": -77.01106966666667, "rental_uris": {"android": "https://dc.lft.to/lastmile_qr_scan", "ios": "https://dc.lft.to/lastmile_qr_scan"}, "is_disabled": 0, "fusion_lat": 0.0, "name": "6e493dc135051ad07c3bf1cea4fcd7e5", "fusion_lon": 0.0}, {"is_reserved": 0, "type": "electric_scooter", "bike_id": "5690eaec3c318c4f73a85394fcab1c71", "lat": 38.917036333333336, "lon": -77.03866383333333, "rental_uris": {"android": "https://dc.lft.to/lastmile_qr_scan", "ios": "https://dc.lft.to/lastmile_qr_scan"}, "is_disabled": 0, "fusion_lat": 0.0, "name": "5690eaec3c318c4f73a85394fcab1c71", "fusion_lon": 0.0}, {"is_reserved": 0, "type": "electric_bike", "bike_id": "520842c8b17fef755023bb304963f7ae", "lat": 38.886562833333336, "lon": -77.16234166666666, "rental_uris": {"android": "https://dc.lft.to/lastmile_qr_scan", "ios": "https://dc.lft.to/lastmile_qr_scan"}, "is_disabled": 0, "fusion_lat": 0.0, "name": "520842c8b17fef755023bb304963f7ae", "fusion_lon": 0.0}, {"is_reserved": 0, "type": "electric_scooter", "bike_id": "59c39beac7a0bb18c0a141d6d5d6c14a", "lat": 38.909818333333334, "lon": -77.0333825, "rental_uris": {"android": "https://dc.lft.to/lastmile_qr_scan", "ios": "https://dc.lft.to/lastmile_qr_scan"}, "is_disabled": 0, "fusion_lat": 0.0, "name": "59c39beac7a0bb18c0a141d6d5d6c14a", "fusion_lon": 0.0}, {"is_reserved": 0, "type": "electric_scooter", "bike_id": "f3a8775b10c8fbf3039cf95e9377a082", "lat": 38.93752833333333, "lon": -77.03151383333334, "rental_uris": {"android": "https://dc.lft.to/lastmile_qr_scan", "ios": "https://dc.lft.to/lastmile_qr_scan"}, "is_disabled": 0, "fusion_lat": 0.0, "name": "f3a8775b10c8fbf3039cf95e9377a082", "fusion_lon": 0.0}, {"is_reserved": 0, "type": "electric_scooter", "bike_id": "2bab921a824df19ff5d913a23d9fe998", "lat": 38.940256, "lon": -77.02643566666667, "rental_uris": {"android": "https://dc.lft.to/lastmile_qr_scan", "ios": "https://dc.lft.to/lastmile_qr_scan"}, "is_disabled": 0, "fusion_lat": 0.0, "name": "2bab921a824df19ff5d913a23d9fe998", "fusion_lon": 0.0}, {"is_reserved": 0, "type": "electric_scooter", "bike_id": "dea76112e874a8d9d01e34ebc1fc881b", "lat": 38.924190833333334, "lon": -77.02248616666667, "rental_uris": {"android": "https://dc.lft.to/lastmile_qr_scan", "ios": "https://dc.lft.to/lastmile_qr_scan"}, "is_disabled": 0, "fusion_lat": 0.0, "name": "dea76112e874a8d9d01e34ebc1fc881b", "fusion_lon": 0.0}, {"is_reserved": 0, "type": "electric_scooter", "bike_id": "e83d2b5c275ba8d98b30781de60660bd", "lat": 38.9051745, "lon": -77.04027716666667, "rental_uris": {"android": "https://dc.lft.to/lastmile_qr_scan", "ios": "https://dc.lft.to/lastmile_qr_scan"}, "is_disabled": 0, "fusion_lat": 0.0, "name": "e83d2b5c275ba8d98b30781de60660bd", "fusion_lon": 0.0}, {"is_reserved": 0, "type": "electric_scooter", "bike_id": "be5e6f5dd69f9d0623ac5732c28a9e29", "lat": 38.908194333333334, "lon": -77.04320133333333, "rental_uris": {"android": "https://dc.lft.to/lastmile_qr_scan", "ios": "https://dc.lft.to/lastmile_qr_scan"}, "is_disabled": 0, "fusion_lat": 0.0, "name": "be5e6f5dd69f9d0623ac5732c28a9e29", "fusion_lon": 0.0}, {"is_reserved": 0, "type": "electric_scooter", "bike_id": "f6513a75d4fe4270927c48ff6c8b5b24", "lat": 38.861128, "lon": -76.98381816666667, "rental_uris": {"android": "https://dc.lft.to/lastmile_qr_scan", "ios": "https://dc.lft.to/lastmile_qr_scan"}, "is_disabled": 0, "fusion_lat": 0.0, "name": "f6513a75d4fe4270927c48ff6c8b5b24", "fusion_lon": 0.0}, {"is_reserved": 0, "type": "electric_scooter", "bike_id": "37446a8e69245af1601f61344b65bc5f", "lat": 38.899926666666666, "lon": -76.99012316666666, "rental_uris": {"android": "https://dc.lft.to/lastmile_qr_scan", "ios": "https://dc.lft.to/lastmile_qr_scan"}, "is_disabled": 0, "fusion_lat": 0.0, "name": "37446a8e69245af1601f61344b65bc5f", "fusion_lon": 0.0}, {"is_reserved": 0, "type": "electric_scooter", "bike_id": "0de00349ff6cecba4bc41d2ce1ecb78f", "lat": 38.92451116666667, "lon": -77.02159183333333, "rental_uris": {"android": "https://dc.lft.to/lastmile_qr_scan", "ios": "https://dc.lft.to/lastmile_qr_scan"}, "is_disabled": 0, "fusion_lat": 0.0, "name": "0de00349ff6cecba4bc41d2ce1ecb78f", "fusion_lon": 0.0}, {"is_reserved": 0, "type": "electric_scooter", "bike_id": "e1ecf214c6bb5867a99e4bd889c8c4b7", "lat": 38.907939666666664, "lon": -77.04334566666667, "rental_uris": {"android": "https://dc.lft.to/lastmile_qr_scan", "ios": "https://dc.lft.to/lastmile_qr_scan"}, "is_disabled": 0, "fusion_lat": 0.0, "name": "e1ecf214c6bb5867a99e4bd889c8c4b7", "fusion_lon": 0.0}, {"is_reserved": 0, "type": "electric_bike", "bike_id": "ab70b9bb4ab11eb971ca494d9e36e9cf", "lat": 39.084288, "lon": -76.95146916666667, "rental_uris": {"android": "https://dc.lft.to/lastmile_qr_scan", "ios": "https://dc.lft.to/lastmile_qr_scan"}, "is_disabled": 0, "fusion_lat": 0.0, "name": "ab70b9bb4ab11eb971ca494d9e36e9cf", "fusion_lon": 0.0}, {"is_reserved": 0, "type": "electric_scooter", "bike_id": "35fa8324feced7bef704616659b154f4", "lat": 38.91705433333333, "lon": -77.02302266666666, "rental_uris": {"android": "https://dc.lft.to/lastmile_qr_scan", "ios": "https://dc.lft.to/lastmile_qr_scan"}, "is_disabled": 0, "fusion_lat": 0.0, "name": "35fa8324feced7bef704616659b154f4", "fusion_lon": 0.0}, {"is_reserved": 0, "type": "electric_scooter", "bike_id": "73c2032fd96cb061398c072733035be7", "lat": 38.8865495, "lon": -76.93675533333334, "rental_uris": {"android": "https://dc.lft.to/lastmile_qr_scan", "ios": "https://dc.lft.to/lastmile_qr_scan"}, "is_disabled": 0, "fusion_lat": 0.0, "name": "73c2032fd96cb061398c072733035be7", "fusion_lon": 0.0}, {"is_reserved": 0, "type": "electric_scooter", "bike_id": "b44a5d21afb76ea07430e6509dc85eea", "lat": 38.90027933333333, "lon": -76.9887595, "rental_uris": {"android": "https://dc.lft.to/lastmile_qr_scan", "ios": "https://dc.lft.to/lastmile_qr_scan"}, "is_disabled": 0, "fusion_lat": 0.0, "name": "b44a5d21afb76ea07430e6509dc85eea", "fusion_lon": 0.0}, {"is_reserved": 0, "type": "electric_bike", "bike_id": "72853c0680e4c2cde3fef021ffa8f092", "lat": 38.8193905, "lon": -77.00199716666667, "rental_uris": {"android": "https://dc.lft.to/lastmile_qr_scan", "ios": "https://dc.lft.to/lastmile_qr_scan"}, "is_disabled": 0, "fusion_lat": 0.0, "name": "72853c0680e4c2cde3fef021ffa8f092", "fusion_lon": 0.0}, {"is_reserved": 0, "type": "electric_scooter", "bike_id": "08c876444935fe66262bb6ddbc980595", "lat": 38.930092333333334, "lon": -77.02773933333333, "rental_uris": {"android": "https://dc.lft.to/lastmile_qr_scan", "ios": "https://dc.lft.to/lastmile_qr_scan"}, "is_disabled": 0, "fusion_lat": 0.0, "name": "08c876444935fe66262bb6ddbc980595", "fusion_lon": 0.0}, {"is_reserved": 0, "type": "electric_scooter", "bike_id": "c87e6e6d71e378dfe62552ac8d474a65", "lat": 38.9054, "lon": -77.059192, "rental_uris": {"android": "https://dc.lft.to/lastmile_qr_scan", "ios": "https://dc.lft.to/lastmile_qr_scan"}, "is_disabled": 0, "fusion_lat": 0.0, "name": "c87e6e6d71e378dfe62552ac8d474a65", "fusion_lon": 0.0}, {"is_reserved": 0, "type": "electric_scooter", "bike_id": "87423f0b9b526a2203fce028b86a30ce", "lat": 38.92998133333333, "lon": -77.05541933333333, "rental_uris": {"android": "https://dc.lft.to/lastmile_qr_scan", "ios": "https://dc.lft.to/lastmile_qr_scan"}, "is_disabled": 0, "fusion_lat": 0.0, "name": "87423f0b9b526a2203fce028b86a30ce", "fusion_lon": 0.0}, {"is_reserved": 0, "type": "electric_scooter", "bike_id": "cf1ccb97d584701374931413d60f6f0f", "lat": 38.9106905, "lon": -77.01624766666667, "rental_uris": {"android": "https://dc.lft.to/lastmile_qr_scan", "ios": "https://dc.lft.to/lastmile_qr_scan"}, "is_disabled": 0, "fusion_lat": 0.0, "name": "cf1ccb97d584701374931413d60f6f0f", "fusion_lon": 0.0}, {"is_reserved": 0, "type": "electric_scooter", "bike_id": "e0bba03f26ececdc499045d8c0852cee", "lat": 38.887421, "lon": -76.98362766666666, "rental_uris": {"android": "https://dc.lft.to/lastmile_qr_scan", "ios": "https://dc.lft.to/lastmile_qr_scan"}, "is_disabled": 0, "fusion_lat": 0.0, "name": "e0bba03f26ececdc499045d8c0852cee", "fusion_lon": 0.0}, {"is_reserved": 0, "type": "electric_scooter", "bike_id": "5f6cced3e764f6442b3533f3a8243a5f", "lat": 38.895138833333334, "lon": -76.99205516666666, "rental_uris": {"android": "https://dc.lft.to/lastmile_qr_scan", "ios": "https://dc.lft.to/lastmile_qr_scan"}, "is_disabled": 0, "fusion_lat": 0.0, "name": "5f6cced3e764f6442b3533f3a8243a5f", "fusion_lon": 0.0}, {"is_reserved": 0, "type": "electric_scooter", "bike_id": "5ce2f9fbc503c21076782b8eb3f1066f", "lat": 38.91708216666667, "lon": -77.03236583333333, "rental_uris": {"android": "https://dc.lft.to/lastmile_qr_scan", "ios": "https://dc.lft.to/lastmile_qr_scan"}, "is_disabled": 0, "fusion_lat": 0.0, "name": "5ce2f9fbc503c21076782b8eb3f1066f", "fusion_lon": 0.0}, {"is_reserved": 0, "type": "electric_scooter", "bike_id": "8b9f811167284547b5542fb18da3aac8", "lat": 38.900313833333335, "lon": -76.99836983333333, "rental_uris": {"android": "https://dc.lft.to/lastmile_qr_scan", "ios": "https://dc.lft.to/lastmile_qr_scan"}, "is_disabled": 0, "fusion_lat": 0.0, "name": "8b9f811167284547b5542fb18da3aac8", "fusion_lon": 0.0}, {"is_reserved": 0, "type": "electric_scooter", "bike_id": "3621aedcb9d99fd0d594536887261365", "lat": 38.89866266666667, "lon": -77.021386, "rental_uris": {"android": "https://dc.lft.to/lastmile_qr_scan", "ios": "https://dc.lft.to/lastmile_qr_scan"}, "is_disabled": 0, "fusion_lat": 0.0, "name": "3621aedcb9d99fd0d594536887261365", "fusion_lon": 0.0}, {"is_reserved": 0, "type": "electric_scooter", "bike_id": "c2792d171fbcf20d91c7f6d4895253af", "lat": 38.89229016666667, "lon": -77.01768583333333, "rental_uris": {"android": "https://dc.lft.to/lastmile_qr_scan", "ios": "https://dc.lft.to/lastmile_qr_scan"}, "is_disabled": 0, "fusion_lat": 0.0, "name": "c2792d171fbcf20d91c7f6d4895253af", "fusion_lon": 0.0}, {"is_reserved": 0, "type": "electric_scooter", "bike_id": "480acb181be4091ff9238ff100b010d7", "lat": 38.9369195, "lon": -77.0560335, "rental_uris": {"android": "https://dc.lft.to/lastmile_qr_scan", "ios": "https://dc.lft.to/lastmile_qr_scan"}, "is_disabled": 0, "fusion_lat": 0.0, "name": "480acb181be4091ff9238ff100b010d7", "fusion_lon": 0.0}, {"is_reserved": 0, "type": "electric_scooter", "bike_id": "e4dc0f0411a5919fad975d779eaf036d", "lat": 38.929692, "lon": -77.0234875, "rental_uris": {"android": "https://dc.lft.to/lastmile_qr_scan", "ios": "https://dc.lft.to/lastmile_qr_scan"}, "is_disabled": 0, "fusion_lat": 0.0, "name": "e4dc0f0411a5919fad975d779eaf036d", "fusion_lon": 0.0}, {"is_reserved": 0, "type": "electric_scooter", "bike_id": "c2704be0665be36a40c5cb9e623ff9b3", "lat": 38.921666, "lon": -77.03212616666667, "rental_uris": {"android": "https://dc.lft.to/lastmile_qr_scan", "ios": "https://dc.lft.to/lastmile_qr_scan"}, "is_disabled": 0, "fusion_lat": 0.0, "name": "c2704be0665be36a40c5cb9e623ff9b3", "fusion_lon": 0.0}, {"is_reserved": 0, "type": "electric_scooter", "bike_id": "f6c6340de2b6035f2968e28ae818b058", "lat": 38.947337, "lon": -77.02459983333334, "rental_uris": {"android": "https://dc.lft.to/lastmile_qr_scan", "ios": "https://dc.lft.to/lastmile_qr_scan"}, "is_disabled": 0, "fusion_lat": 0.0, "name": "f6c6340de2b6035f2968e28ae818b058", "fusion_lon": 0.0}, {"is_reserved": 0, "type": "electric_scooter", "bike_id": "f4e598a37029b25de18ae45bb09f70df", "lat": 38.9336935, "lon": -77.05729616666666, "rental_uris": {"android": "https://dc.lft.to/lastmile_qr_scan", "ios": "https://dc.lft.to/lastmile_qr_scan"}, "is_disabled": 0, "fusion_lat": 0.0, "name": "f4e598a37029b25de18ae45bb09f70df", "fusion_lon": 0.0}, {"is_reserved": 0, "type": "electric_scooter", "bike_id": "c3eaf326f42d85e6a875cdd244ef7845", "lat": 38.920791666666666, "lon": -77.02531316666666, "rental_uris": {"android": "https://dc.lft.to/lastmile_qr_scan", "ios": "https://dc.lft.to/lastmile_qr_scan"}, "is_disabled": 0, "fusion_lat": 0.0, "name": "c3eaf326f42d85e6a875cdd244ef7845", "fusion_lon": 0.0}, {"is_reserved": 0, "type": "electric_scooter", "bike_id": "a3ccf8ac29fc998d2c3d5fec09b3f236", "lat": 38.925647, "lon": -76.97008183333334, "rental_uris": {"android": "https://dc.lft.to/lastmile_qr_scan", "ios": "https://dc.lft.to/lastmile_qr_scan"}, "is_disabled": 0, "fusion_lat": 0.0, "name": "a3ccf8ac29fc998d2c3d5fec09b3f236", "fusion_lon": 0.0}, {"is_reserved": 0, "type": "electric_scooter", "bike_id": "a22c297e199cbd8d7a683671664d7297", "lat": 38.8960575, "lon": -77.00529783333333, "rental_uris": {"android": "https://dc.lft.to/lastmile_qr_scan", "ios": "https://dc.lft.to/lastmile_qr_scan"}, "is_disabled": 0, "fusion_lat": 0.0, "name": "a22c297e199cbd8d7a683671664d7297", "fusion_lon": 0.0}, {"is_reserved": 0, "type": "electric_scooter", "bike_id": "78785ddb2360d83c6feb33a3c9cd4fa5", "lat": 38.915611166666665, "lon": -77.036782, "rental_uris": {"android": "https://dc.lft.to/lastmile_qr_scan", "ios": "https://dc.lft.to/lastmile_qr_scan"}, "is_disabled": 0, "fusion_lat": 0.0, "name": "78785ddb2360d83c6feb33a3c9cd4fa5", "fusion_lon": 0.0}, {"is_reserved": 0, "type": "electric_scooter", "bike_id": "1e59ce1a19bae74f840b0fc258758fa1", "lat": 38.936233666666666, "lon": -77.064855, "rental_uris": {"android": "https://dc.lft.to/lastmile_qr_scan", "ios": "https://dc.lft.to/lastmile_qr_scan"}, "is_disabled": 0, "fusion_lat": 0.0, "name": "1e59ce1a19bae74f840b0fc258758fa1", "fusion_lon": 0.0}, {"is_reserved": 0, "type": "electric_scooter", "bike_id": "1a997cedc60e797a4e9d20c78f5cf8ac", "lat": 38.89824933333333, "lon": -77.04827016666667, "rental_uris": {"android": "https://dc.lft.to/lastmile_qr_scan", "ios": "https://dc.lft.to/lastmile_qr_scan"}, "is_disabled": 0, "fusion_lat": 0.0, "name": "1a997cedc60e797a4e9d20c78f5cf8ac", "fusion_lon": 0.0}, {"is_reserved": 0, "type": "electric_scooter", "bike_id": "eddfbf8276a73b6c080991e64e2d97c0", "lat": 38.901086166666666, "lon": -77.03378716666667, "rental_uris": {"android": "https://dc.lft.to/lastmile_qr_scan", "ios": "https://dc.lft.to/lastmile_qr_scan"}, "is_disabled": 0, "fusion_lat": 0.0, "name": "eddfbf8276a73b6c080991e64e2d97c0", "fusion_lon": 0.0}, {"is_reserved": 0, "type": "electric_scooter", "bike_id": "ea79da1fe42c560332b2c62befc9be4e", "lat": 38.930342333333336, "lon": -77.08312866666667, "rental_uris": {"android": "https://dc.lft.to/lastmile_qr_scan", "ios": "https://dc.lft.to/lastmile_qr_scan"}, "is_disabled": 0, "fusion_lat": 0.0, "name": "ea79da1fe42c560332b2c62befc9be4e", "fusion_lon": 0.0}, {"is_reserved": 0, "type": "electric_scooter", "bike_id": "4d4dc1a66aea903b3ef8203c50c953bd", "lat": 38.916263, "lon": -77.03959116666667, "rental_uris": {"android": "https://dc.lft.to/lastmile_qr_scan", "ios": "https://dc.lft.to/lastmile_qr_scan"}, "is_disabled": 0, "fusion_lat": 0.0, "name": "4d4dc1a66aea903b3ef8203c50c953bd", "fusion_lon": 0.0}, {"is_reserved": 0, "type": "electric_scooter", "bike_id": "76bab4c767ca6bd47119640d4d28203a", "lat": 38.9749275, "lon": -77.01693183333333, "rental_uris": {"android": "https://dc.lft.to/lastmile_qr_scan", "ios": "https://dc.lft.to/lastmile_qr_scan"}, "is_disabled": 0, "fusion_lat": 0.0, "name": "76bab4c767ca6bd47119640d4d28203a", "fusion_lon": 0.0}, {"is_reserved": 0, "type": "electric_scooter", "bike_id": "9f9fa93679c821032d25780c462ae012", "lat": 38.917928833333335, "lon": -77.023032, "rental_uris": {"android": "https://dc.lft.to/lastmile_qr_scan", "ios": "https://dc.lft.to/lastmile_qr_scan"}, "is_disabled": 0, "fusion_lat": 0.0, "name": "9f9fa93679c821032d25780c462ae012", "fusion_lon": 0.0}, {"is_reserved": 0, "type": "electric_scooter", "bike_id": "2d5132873e4c111335ab85af760e4be8", "lat": 38.88421983333333, "lon": -77.025578, "rental_uris": {"android": "https://dc.lft.to/lastmile_qr_scan", "ios": "https://dc.lft.to/lastmile_qr_scan"}, "is_disabled": 0, "fusion_lat": 0.0, "name": "2d5132873e4c111335ab85af760e4be8", "fusion_lon": 0.0}, {"is_reserved": 0, "type": "electric_scooter", "bike_id": "7ddbc9de5ef2d8a0b120665637cf5f96", "lat": 38.8921985, "lon": -77.047476, "rental_uris": {"android": "https://dc.lft.to/lastmile_qr_scan", "ios": "https://dc.lft.to/lastmile_qr_scan"}, "is_disabled": 0, "fusion_lat": 0.0, "name": "7ddbc9de5ef2d8a0b120665637cf5f96", "fusion_lon": 0.0}, {"is_reserved": 0, "type": "electric_scooter", "bike_id": "754ee1061c51ff15f0d16fd947ace64b", "lat": 38.88195316666667, "lon": -76.98902383333333, "rental_uris": {"android": "https://dc.lft.to/lastmile_qr_scan", "ios": "https://dc.lft.to/lastmile_qr_scan"}, "is_disabled": 0, "fusion_lat": 0.0, "name": "754ee1061c51ff15f0d16fd947ace64b", "fusion_lon": 0.0}, {"is_reserved": 0, "type": "electric_scooter", "bike_id": "4dbd3f173409bd5df8df84a901c9d79e", "lat": 38.9170625, "lon": -77.02985083333333, "rental_uris": {"android": "https://dc.lft.to/lastmile_qr_scan", "ios": "https://dc.lft.to/lastmile_qr_scan"}, "is_disabled": 0, "fusion_lat": 0.0, "name": "4dbd3f173409bd5df8df84a901c9d79e", "fusion_lon": 0.0}, {"is_reserved": 0, "type": "electric_scooter", "bike_id": "0589574507dff7157fa102e7dc7a8850", "lat": 38.914045333333334, "lon": -77.03172516666666, "rental_uris": {"android": "https://dc.lft.to/lastmile_qr_scan", "ios": "https://dc.lft.to/lastmile_qr_scan"}, "is_disabled": 0, "fusion_lat": 0.0, "name": "0589574507dff7157fa102e7dc7a8850", "fusion_lon": 0.0}, {"is_reserved": 0, "type": "electric_scooter", "bike_id": "5f8ec9f35650ab57dd61f9e6884726c9", "lat": 38.900862333333336, "lon": -77.04957733333333, "rental_uris": {"android": "https://dc.lft.to/lastmile_qr_scan", "ios": "https://dc.lft.to/lastmile_qr_scan"}, "is_disabled": 0, "fusion_lat": 0.0, "name": "5f8ec9f35650ab57dd61f9e6884726c9", "fusion_lon": 0.0}, {"is_reserved": 0, "type": "electric_scooter", "bike_id": "4efa7ea2c663e0a04bb61fe7b9588b6a", "lat": 38.9225995, "lon": -77.01967666666667, "rental_uris": {"android": "https://dc.lft.to/lastmile_qr_scan", "ios": "https://dc.lft.to/lastmile_qr_scan"}, "is_disabled": 0, "fusion_lat": 0.0, "name": "4efa7ea2c663e0a04bb61fe7b9588b6a", "fusion_lon": 0.0}, {"is_reserved": 0, "type": "electric_scooter", "bike_id": "a3ed645682efc714c06919495faad983", "lat": 38.909619, "lon": -77.031617, "rental_uris": {"android": "https://dc.lft.to/lastmile_qr_scan", "ios": "https://dc.lft.to/lastmile_qr_scan"}, "is_disabled": 0, "fusion_lat": 0.0, "name": "a3ed645682efc714c06919495faad983", "fusion_lon": 0.0}, {"is_reserved": 0, "type": "electric_scooter", "bike_id": "b158023a4023653324e06e4e277dcdd8", "lat": 38.89656466666667, "lon": -77.021979, "rental_uris": {"android": "https://dc.lft.to/lastmile_qr_scan", "ios": "https://dc.lft.to/lastmile_qr_scan"}, "is_disabled": 0, "fusion_lat": 0.0, "name": "b158023a4023653324e06e4e277dcdd8", "fusion_lon": 0.0}, {"is_reserved": 0, "type": "electric_scooter", "bike_id": "5a82ba1889a5c5f91a01a02c5e9a1af5", "lat": 38.9055105, "lon": -77.04185, "rental_uris": {"android": "https://dc.lft.to/lastmile_qr_scan", "ios": "https://dc.lft.to/lastmile_qr_scan"}, "is_disabled": 0, "fusion_lat": 0.0, "name": "5a82ba1889a5c5f91a01a02c5e9a1af5", "fusion_lon": 0.0}, {"is_reserved": 0, "type": "electric_scooter", "bike_id": "c05bdd62a6d91d9138bc7edfd62b7f45", "lat": 38.900133333333336, "lon": -77.021791, "rental_uris": {"android": "https://dc.lft.to/lastmile_qr_scan", "ios": "https://dc.lft.to/lastmile_qr_scan"}, "is_disabled": 0, "fusion_lat": 0.0, "name": "c05bdd62a6d91d9138bc7edfd62b7f45", "fusion_lon": 0.0}, {"is_reserved": 0, "type": "electric_scooter", "bike_id": "d37c8e85491ee5b528ac229919928f19", "lat": 38.938726, "lon": -77.0321615, "rental_uris": {"android": "https://dc.lft.to/lastmile_qr_scan", "ios": "https://dc.lft.to/lastmile_qr_scan"}, "is_disabled": 0, "fusion_lat": 0.0, "name": "d37c8e85491ee5b528ac229919928f19", "fusion_lon": 0.0}, {"is_reserved": 0, "type": "electric_scooter", "bike_id": "ea0a7c998b67a64bb796f22af331599a", "lat": 38.922816833333336, "lon": -77.03038866666667, "rental_uris": {"android": "https://dc.lft.to/lastmile_qr_scan", "ios": "https://dc.lft.to/lastmile_qr_scan"}, "is_disabled": 0, "fusion_lat": 0.0, "name": "ea0a7c998b67a64bb796f22af331599a", "fusion_lon": 0.0}, {"is_reserved": 0, "type": "electric_scooter", "bike_id": "9cf10b821d1baaf46b6476bb2abe034e", "lat": 38.92486016666667, "lon": -77.02712916666667, "rental_uris": {"android": "https://dc.lft.to/lastmile_qr_scan", "ios": "https://dc.lft.to/lastmile_qr_scan"}, "is_disabled": 0, "fusion_lat": 0.0, "name": "9cf10b821d1baaf46b6476bb2abe034e", "fusion_lon": 0.0}, {"is_reserved": 0, "type": "electric_scooter", "bike_id": "ccb23b3d69004eb8511acaeea03b4ba7", "lat": 38.92184266666667, "lon": -77.041388, "rental_uris": {"android": "https://dc.lft.to/lastmile_qr_scan", "ios": "https://dc.lft.to/lastmile_qr_scan"}, "is_disabled": 0, "fusion_lat": 0.0, "name": "ccb23b3d69004eb8511acaeea03b4ba7", "fusion_lon": 0.0}, {"is_reserved": 0, "type": "electric_scooter", "bike_id": "d172e54554d0cf427a81f4d954ebe40a", "lat": 38.90431616666667, "lon": -77.03135866666666, "rental_uris": {"android": "https://dc.lft.to/lastmile_qr_scan", "ios": "https://dc.lft.to/lastmile_qr_scan"}, "is_disabled": 0, "fusion_lat": 0.0, "name": "d172e54554d0cf427a81f4d954ebe40a", "fusion_lon": 0.0}, {"is_reserved": 0, "type": "electric_scooter", "bike_id": "41e877d52dfe9a1b32ac025424c32856", "lat": 38.92271916666667, "lon": -77.04243083333333, "rental_uris": {"android": "https://dc.lft.to/lastmile_qr_scan", "ios": "https://dc.lft.to/lastmile_qr_scan"}, "is_disabled": 0, "fusion_lat": 0.0, "name": "41e877d52dfe9a1b32ac025424c32856", "fusion_lon": 0.0}, {"is_reserved": 0, "type": "electric_scooter", "bike_id": "3652d0f180e87b1c369ec622ffb32121", "lat": 38.9270605, "lon": -77.00264433333334, "rental_uris": {"android": "https://dc.lft.to/lastmile_qr_scan", "ios": "https://dc.lft.to/lastmile_qr_scan"}, "is_disabled": 0, "fusion_lat": 0.0, "name": "3652d0f180e87b1c369ec622ffb32121", "fusion_lon": 0.0}, {"is_reserved": 0, "type": "electric_scooter", "bike_id": "f2121ffef66f960341ead6ff41f170b6", "lat": 38.873415333333334, "lon": -76.99170166666667, "rental_uris": {"android": "https://dc.lft.to/lastmile_qr_scan", "ios": "https://dc.lft.to/lastmile_qr_scan"}, "is_disabled": 0, "fusion_lat": 0.0, "name": "f2121ffef66f960341ead6ff41f170b6", "fusion_lon": 0.0}, {"is_reserved": 0, "type": "electric_scooter", "bike_id": "1af3c1aa769898ab528fbbb34ad48e3c", "lat": 38.89613583333333, "lon": -77.0317495, "rental_uris": {"android": "https://dc.lft.to/lastmile_qr_scan", "ios": "https://dc.lft.to/lastmile_qr_scan"}, "is_disabled": 0, "fusion_lat": 0.0, "name": "1af3c1aa769898ab528fbbb34ad48e3c", "fusion_lon": 0.0}, {"is_reserved": 0, "type": "electric_scooter", "bike_id": "594795d0183c9840085665cf1dc9d1d0", "lat": 38.91676916666667, "lon": -77.03648566666666, "rental_uris": {"android": "https://dc.lft.to/lastmile_qr_scan", "ios": "https://dc.lft.to/lastmile_qr_scan"}, "is_disabled": 0, "fusion_lat": 0.0, "name": "594795d0183c9840085665cf1dc9d1d0", "fusion_lon": 0.0}, {"is_reserved": 0, "type": "electric_scooter", "bike_id": "f257e5095b0f172b420751e0f013950d", "lat": 38.892393, "lon": -77.04895366666666, "rental_uris": {"android": "https://dc.lft.to/lastmile_qr_scan", "ios": "https://dc.lft.to/lastmile_qr_scan"}, "is_disabled": 0, "fusion_lat": 0.0, "name": "f257e5095b0f172b420751e0f013950d", "fusion_lon": 0.0}, {"is_reserved": 0, "type": "electric_scooter", "bike_id": "e17502a3e5333aab2d5c71e357653f6a", "lat": 38.911194333333334, "lon": -77.02201716666667, "rental_uris": {"android": "https://dc.lft.to/lastmile_qr_scan", "ios": "https://dc.lft.to/lastmile_qr_scan"}, "is_disabled": 0, "fusion_lat": 0.0, "name": "e17502a3e5333aab2d5c71e357653f6a", "fusion_lon": 0.0}, {"is_reserved": 0, "type": "electric_scooter", "bike_id": "277c81d224b74ecbe364423660a12b8a", "lat": 38.9014375, "lon": -77.05916483333333, "rental_uris": {"android": "https://dc.lft.to/lastmile_qr_scan", "ios": "https://dc.lft.to/lastmile_qr_scan"}, "is_disabled": 0, "fusion_lat": 0.0, "name": "277c81d224b74ecbe364423660a12b8a", "fusion_lon": 0.0}, {"is_reserved": 0, "type": "electric_scooter", "bike_id": "7bf43fb7c255d10581b3f8f0c53c073f", "lat": 38.929805333333334, "lon": -77.05506183333334, "rental_uris": {"android": "https://dc.lft.to/lastmile_qr_scan", "ios": "https://dc.lft.to/lastmile_qr_scan"}, "is_disabled": 0, "fusion_lat": 0.0, "name": "7bf43fb7c255d10581b3f8f0c53c073f", "fusion_lon": 0.0}, {"is_reserved": 0, "type": "electric_bike", "bike_id": "c3ae3c779fc5078659e2b35b8b44a035", "lat": 39.09442133333334, "lon": -77.13461633333333, "rental_uris": {"android": "https://dc.lft.to/lastmile_qr_scan", "ios": "https://dc.lft.to/lastmile_qr_scan"}, "is_disabled": 0, "fusion_lat": 0.0, "name": "c3ae3c779fc5078659e2b35b8b44a035", "fusion_lon": 0.0}, {"is_reserved": 0, "type": "electric_scooter", "bike_id": "0afa2fe234255d422de399544d2655c0", "lat": 38.92482783333333, "lon": -77.02815983333333, "rental_uris": {"android": "https://dc.lft.to/lastmile_qr_scan", "ios": "https://dc.lft.to/lastmile_qr_scan"}, "is_disabled": 0, "fusion_lat": 0.0, "name": "0afa2fe234255d422de399544d2655c0", "fusion_lon": 0.0}, {"is_reserved": 0, "type": "electric_scooter", "bike_id": "963320f8b4e4da28ad52c237c8bc5bc8", "lat": 38.93638416666667, "lon": -77.05996566666667, "rental_uris": {"android": "https://dc.lft.to/lastmile_qr_scan", "ios": "https://dc.lft.to/lastmile_qr_scan"}, "is_disabled": 0, "fusion_lat": 0.0, "name": "963320f8b4e4da28ad52c237c8bc5bc8", "fusion_lon": 0.0}, {"is_reserved": 0, "type": "electric_scooter", "bike_id": "1e9515e464bedfbac88289700274ee13", "lat": 38.91926633333333, "lon": -77.0197655, "rental_uris": {"android": "https://dc.lft.to/lastmile_qr_scan", "ios": "https://dc.lft.to/lastmile_qr_scan"}, "is_disabled": 0, "fusion_lat": 0.0, "name": "1e9515e464bedfbac88289700274ee13", "fusion_lon": 0.0}, {"is_reserved": 0, "type": "electric_scooter", "bike_id": "71525a146613e2fe9e3d778643ccbb58", "lat": 38.89709033333333, "lon": -76.9911845, "rental_uris": {"android": "https://dc.lft.to/lastmile_qr_scan", "ios": "https://dc.lft.to/lastmile_qr_scan"}, "is_disabled": 0, "fusion_lat": 0.0, "name": "71525a146613e2fe9e3d778643ccbb58", "fusion_lon": 0.0}, {"is_reserved": 0, "type": "electric_scooter", "bike_id": "1e7f120505da2fa5b68275828a6175ac", "lat": 38.914927666666664, "lon": -77.0198875, "rental_uris": {"android": "https://dc.lft.to/lastmile_qr_scan", "ios": "https://dc.lft.to/lastmile_qr_scan"}, "is_disabled": 0, "fusion_lat": 0.0, "name": "1e7f120505da2fa5b68275828a6175ac", "fusion_lon": 0.0}, {"is_reserved": 0, "type": "electric_scooter", "bike_id": "e35fbd1d9f8b44b1bd71066b2532c339", "lat": 38.92372533333333, "lon": -77.08053616666666, "rental_uris": {"android": "https://dc.lft.to/lastmile_qr_scan", "ios": "https://dc.lft.to/lastmile_qr_scan"}, "is_disabled": 0, "fusion_lat": 0.0, "name": "e35fbd1d9f8b44b1bd71066b2532c339", "fusion_lon": 0.0}, {"is_reserved": 0, "type": "electric_scooter", "bike_id": "f210d4e287b95fa95a071d9bd10fc861", "lat": 38.927798333333335, "lon": -77.03594433333333, "rental_uris": {"android": "https://dc.lft.to/lastmile_qr_scan", "ios": "https://dc.lft.to/lastmile_qr_scan"}, "is_disabled": 0, "fusion_lat": 0.0, "name": "f210d4e287b95fa95a071d9bd10fc861", "fusion_lon": 0.0}, {"is_reserved": 0, "type": "electric_scooter", "bike_id": "326d99b9b74eb94e62dcdc0d64a375fc", "lat": 38.905598166666664, "lon": -77.02812116666666, "rental_uris": {"android": "https://dc.lft.to/lastmile_qr_scan", "ios": "https://dc.lft.to/lastmile_qr_scan"}, "is_disabled": 0, "fusion_lat": 0.0, "name": "326d99b9b74eb94e62dcdc0d64a375fc", "fusion_lon": 0.0}, {"is_reserved": 0, "type": "electric_bike", "bike_id": "697c2861c014aa326676ae82b6db98b8", "lat": 38.906188666666665, "lon": -77.07032816666667, "rental_uris": {"android": "https://dc.lft.to/lastmile_qr_scan", "ios": "https://dc.lft.to/lastmile_qr_scan"}, "is_disabled": 0, "fusion_lat": 0.0, "name": "697c2861c014aa326676ae82b6db98b8", "fusion_lon": 0.0}, {"is_reserved": 0, "type": "electric_scooter", "bike_id": "7b695e545b97bf438c36d7d6b18ff8fa", "lat": 38.97289283333333, "lon": -77.0362975, "rental_uris": {"android": "https://dc.lft.to/lastmile_qr_scan", "ios": "https://dc.lft.to/lastmile_qr_scan"}, "is_disabled": 0, "fusion_lat": 0.0, "name": "7b695e545b97bf438c36d7d6b18ff8fa", "fusion_lon": 0.0}, {"is_reserved": 0, "type": "electric_scooter", "bike_id": "8e0d2978e1417dc48cfe0a4a0b6e1e3a", "lat": 38.86445116666667, "lon": -76.99111316666666, "rental_uris": {"android": "https://dc.lft.to/lastmile_qr_scan", "ios": "https://dc.lft.to/lastmile_qr_scan"}, "is_disabled": 0, "fusion_lat": 0.0, "name": "8e0d2978e1417dc48cfe0a4a0b6e1e3a", "fusion_lon": 0.0}, {"is_reserved": 0, "type": "electric_scooter", "bike_id": "0ba867840512ef7775db1dcf49aebda0", "lat": 38.92031583333333, "lon": -77.02378783333333, "rental_uris": {"android": "https://dc.lft.to/lastmile_qr_scan", "ios": "https://dc.lft.to/lastmile_qr_scan"}, "is_disabled": 0, "fusion_lat": 0.0, "name": "0ba867840512ef7775db1dcf49aebda0", "fusion_lon": 0.0}, {"is_reserved": 0, "type": "electric_scooter", "bike_id": "0fc939e66a652974664bf4c63e9d4bdb", "lat": 38.9052805, "lon": -77.06153183333333, "rental_uris": {"android": "https://dc.lft.to/lastmile_qr_scan", "ios": "https://dc.lft.to/lastmile_qr_scan"}, "is_disabled": 0, "fusion_lat": 0.0, "name": "0fc939e66a652974664bf4c63e9d4bdb", "fusion_lon": 0.0}, {"is_reserved": 0, "type": "electric_scooter", "bike_id": "19ff5efbff6c6568bc3cdddc57b4b560", "lat": 38.930199333333334, "lon": -77.03788083333333, "rental_uris": {"android": "https://dc.lft.to/lastmile_qr_scan", "ios": "https://dc.lft.to/lastmile_qr_scan"}, "is_disabled": 0, "fusion_lat": 0.0, "name": "19ff5efbff6c6568bc3cdddc57b4b560", "fusion_lon": 0.0}, {"is_reserved": 0, "type": "electric_scooter", "bike_id": "8ba60c990a0a2def85afcf6a136c71b8", "lat": 38.925933666666666, "lon": -77.02491283333333, "rental_uris": {"android": "https://dc.lft.to/lastmile_qr_scan", "ios": "https://dc.lft.to/lastmile_qr_scan"}, "is_disabled": 0, "fusion_lat": 0.0, "name": "8ba60c990a0a2def85afcf6a136c71b8", "fusion_lon": 0.0}, {"is_reserved": 0, "type": "electric_bike", "bike_id": "efebfa90a270c684be223edbb43fc818", "lat": 38.845311, "lon": -77.07637033333333, "rental_uris": {"android": "https://dc.lft.to/lastmile_qr_scan", "ios": "https://dc.lft.to/lastmile_qr_scan"}, "is_disabled": 0, "fusion_lat": 0.0, "name": "efebfa90a270c684be223edbb43fc818", "fusion_lon": 0.0}, {"is_reserved": 0, "type": "electric_scooter", "bike_id": "b406e45cb9837245a6d599791d8ef40a", "lat": 38.896744, "lon": -77.05040716666667, "rental_uris": {"android": "https://dc.lft.to/lastmile_qr_scan", "ios": "https://dc.lft.to/lastmile_qr_scan"}, "is_disabled": 0, "fusion_lat": 0.0, "name": "b406e45cb9837245a6d599791d8ef40a", "fusion_lon": 0.0}, {"is_reserved": 0, "type": "electric_scooter", "bike_id": "47116837d7fe030a53383044b1b46216", "lat": 38.90961266666667, "lon": -77.03157083333333, "rental_uris": {"android": "https://dc.lft.to/lastmile_qr_scan", "ios": "https://dc.lft.to/lastmile_qr_scan"}, "is_disabled": 0, "fusion_lat": 0.0, "name": "47116837d7fe030a53383044b1b46216", "fusion_lon": 0.0}, {"is_reserved": 0, "type": "electric_scooter", "bike_id": "fb8fac3e62cd25633d23e4dc42de1c15", "lat": 38.92269966666667, "lon": -77.01981316666667, "rental_uris": {"android": "https://dc.lft.to/lastmile_qr_scan", "ios": "https://dc.lft.to/lastmile_qr_scan"}, "is_disabled": 0, "fusion_lat": 0.0, "name": "fb8fac3e62cd25633d23e4dc42de1c15", "fusion_lon": 0.0}, {"is_reserved": 0, "type": "electric_scooter", "bike_id": "2732b895bae17ab7db688292f086712f", "lat": 38.926931, "lon": -77.0258105, "rental_uris": {"android": "https://dc.lft.to/lastmile_qr_scan", "ios": "https://dc.lft.to/lastmile_qr_scan"}, "is_disabled": 0, "fusion_lat": 0.0, "name": "2732b895bae17ab7db688292f086712f", "fusion_lon": 0.0}, {"is_reserved": 0, "type": "electric_bike", "bike_id": "05a90e4f0293fded5161f0215f162c28", "lat": 38.9415135, "lon": -77.00183466666667, "rental_uris": {"android": "https://dc.lft.to/lastmile_qr_scan", "ios": "https://dc.lft.to/lastmile_qr_scan"}, "is_disabled": 0, "fusion_lat": 0.0, "name": "05a90e4f0293fded5161f0215f162c28", "fusion_lon": 0.0}, {"is_reserved": 0, "type": "electric_scooter", "bike_id": "ea6e579abb2219b66cc2448f520a6247", "lat": 38.89704116666667, "lon": -77.00486533333333, "rental_uris": {"android": "https://dc.lft.to/lastmile_qr_scan", "ios": "https://dc.lft.to/lastmile_qr_scan"}, "is_disabled": 0, "fusion_lat": 0.0, "name": "ea6e579abb2219b66cc2448f520a6247", "fusion_lon": 0.0}, {"is_reserved": 0, "type": "electric_scooter", "bike_id": "2ff55374f04660d1729bbd49067f0b2d", "lat": 38.9007385, "lon": -77.04869066666667, "rental_uris": {"android": "https://dc.lft.to/lastmile_qr_scan", "ios": "https://dc.lft.to/lastmile_qr_scan"}, "is_disabled": 0, "fusion_lat": 0.0, "name": "2ff55374f04660d1729bbd49067f0b2d", "fusion_lon": 0.0}, {"is_reserved": 0, "type": "electric_scooter", "bike_id": "79eb2581f4f2c8cefbd74211993b50cc", "lat": 38.9283125, "lon": -77.03708883333333, "rental_uris": {"android": "https://dc.lft.to/lastmile_qr_scan", "ios": "https://dc.lft.to/lastmile_qr_scan"}, "is_disabled": 0, "fusion_lat": 0.0, "name": "79eb2581f4f2c8cefbd74211993b50cc", "fusion_lon": 0.0}, {"is_reserved": 0, "type": "electric_scooter", "bike_id": "89e5267f2037debc8a945b314b2fe77e", "lat": 38.926702666666664, "lon": -77.00748566666667, "rental_uris": {"android": "https://dc.lft.to/lastmile_qr_scan", "ios": "https://dc.lft.to/lastmile_qr_scan"}, "is_disabled": 0, "fusion_lat": 0.0, "name": "89e5267f2037debc8a945b314b2fe77e", "fusion_lon": 0.0}, {"is_reserved": 0, "type": "electric_scooter", "bike_id": "45b7d4bbf82d694d5af10f19913cc0c4", "lat": 38.896224, "lon": -77.02147633333334, "rental_uris": {"android": "https://dc.lft.to/lastmile_qr_scan", "ios": "https://dc.lft.to/lastmile_qr_scan"}, "is_disabled": 0, "fusion_lat": 0.0, "name": "45b7d4bbf82d694d5af10f19913cc0c4", "fusion_lon": 0.0}, {"is_reserved": 0, "type": "electric_scooter", "bike_id": "dd4d05ca0d58ae69415e5cf1dd354625", "lat": 38.89543, "lon": -76.98337733333334, "rental_uris": {"android": "https://dc.lft.to/lastmile_qr_scan", "ios": "https://dc.lft.to/lastmile_qr_scan"}, "is_disabled": 0, "fusion_lat": 0.0, "name": "dd4d05ca0d58ae69415e5cf1dd354625", "fusion_lon": 0.0}, {"is_reserved": 0, "type": "electric_scooter", "bike_id": "fea33d6d5bdc8d412b063c848d8d3566", "lat": 38.911750166666664, "lon": -77.03184433333334, "rental_uris": {"android": "https://dc.lft.to/lastmile_qr_scan", "ios": "https://dc.lft.to/lastmile_qr_scan"}, "is_disabled": 0, "fusion_lat": 0.0, "name": "fea33d6d5bdc8d412b063c848d8d3566", "fusion_lon": 0.0}, {"is_reserved": 0, "type": "electric_scooter", "bike_id": "588cf5d8c3039fd0ca9209d203c734ad", "lat": 38.9011135, "lon": -77.03344766666666, "rental_uris": {"android": "https://dc.lft.to/lastmile_qr_scan", "ios": "https://dc.lft.to/lastmile_qr_scan"}, "is_disabled": 0, "fusion_lat": 0.0, "name": "588cf5d8c3039fd0ca9209d203c734ad", "fusion_lon": 0.0}, {"is_reserved": 0, "type": "electric_bike", "bike_id": "430a82b80ef09b31bcf103a6514a9e5d", "lat": 38.8445585, "lon": -76.9315945, "rental_uris": {"android": "https://dc.lft.to/lastmile_qr_scan", "ios": "https://dc.lft.to/lastmile_qr_scan"}, "is_disabled": 0, "fusion_lat": 0.0, "name": "430a82b80ef09b31bcf103a6514a9e5d", "fusion_lon": 0.0}, {"is_reserved": 0, "type": "electric_scooter", "bike_id": "2f0f4f55ce24f63b9b0f3779873051b8", "lat": 38.92242566666667, "lon": -77.04252366666667, "rental_uris": {"android": "https://dc.lft.to/lastmile_qr_scan", "ios": "https://dc.lft.to/lastmile_qr_scan"}, "is_disabled": 0, "fusion_lat": 0.0, "name": "2f0f4f55ce24f63b9b0f3779873051b8", "fusion_lon": 0.0}, {"is_reserved": 0, "type": "electric_scooter", "bike_id": "a4f5ce63808ad9d392eb41f4828a18ce", "lat": 38.90633033333334, "lon": -77.0703115, "rental_uris": {"android": "https://dc.lft.to/lastmile_qr_scan", "ios": "https://dc.lft.to/lastmile_qr_scan"}, "is_disabled": 0, "fusion_lat": 0.0, "name": "a4f5ce63808ad9d392eb41f4828a18ce", "fusion_lon": 0.0}, {"is_reserved": 0, "type": "electric_scooter", "bike_id": "50280333267ea51a6a7c1296297cafa6", "lat": 38.89961383333333, "lon": -77.02119883333333, "rental_uris": {"android": "https://dc.lft.to/lastmile_qr_scan", "ios": "https://dc.lft.to/lastmile_qr_scan"}, "is_disabled": 0, "fusion_lat": 0.0, "name": "50280333267ea51a6a7c1296297cafa6", "fusion_lon": 0.0}, {"is_reserved": 0, "type": "electric_scooter", "bike_id": "cc608e7298fbc71feebe56fe2735f878", "lat": 38.91869333333333, "lon": -77.04046616666666, "rental_uris": {"android": "https://dc.lft.to/lastmile_qr_scan", "ios": "https://dc.lft.to/lastmile_qr_scan"}, "is_disabled": 0, "fusion_lat": 0.0, "name": "cc608e7298fbc71feebe56fe2735f878", "fusion_lon": 0.0}, {"is_reserved": 0, "type": "electric_scooter", "bike_id": "08300e56605bb3378dc64f2c5cb7a599", "lat": 38.91560466666667, "lon": -77.03116816666666, "rental_uris": {"android": "https://dc.lft.to/lastmile_qr_scan", "ios": "https://dc.lft.to/lastmile_qr_scan"}, "is_disabled": 0, "fusion_lat": 0.0, "name": "08300e56605bb3378dc64f2c5cb7a599", "fusion_lon": 0.0}, {"is_reserved": 0, "type": "electric_bike", "bike_id": "ce48f8ab3d8c5a02a3b02f94174f831d", "lat": 38.947973, "lon": -76.9425205, "rental_uris": {"android": "https://dc.lft.to/lastmile_qr_scan", "ios": "https://dc.lft.to/lastmile_qr_scan"}, "is_disabled": 0, "fusion_lat": 0.0, "name": "ce48f8ab3d8c5a02a3b02f94174f831d", "fusion_lon": 0.0}, {"is_reserved": 0, "type": "electric_bike", "bike_id": "5b9e8d3b0a72ab5b50bb8228f8020e03", "lat": 38.987075833333336, "lon": -76.94585533333333, "rental_uris": {"android": "https://dc.lft.to/lastmile_qr_scan", "ios": "https://dc.lft.to/lastmile_qr_scan"}, "is_disabled": 0, "fusion_lat": 0.0, "name": "5b9e8d3b0a72ab5b50bb8228f8020e03", "fusion_lon": 0.0}, {"is_reserved": 0, "type": "electric_scooter", "bike_id": "af5bb3a6a255fb04ead414dedb692710", "lat": 38.91112616666667, "lon": -77.002569, "rental_uris": {"android": "https://dc.lft.to/lastmile_qr_scan", "ios": "https://dc.lft.to/lastmile_qr_scan"}, "is_disabled": 0, "fusion_lat": 0.0, "name": "af5bb3a6a255fb04ead414dedb692710", "fusion_lon": 0.0}, {"is_reserved": 0, "type": "electric_scooter", "bike_id": "32200254abb3c146eaf4d29295e06ba0", "lat": 38.916194, "lon": -77.03195033333333, "rental_uris": {"android": "https://dc.lft.to/lastmile_qr_scan", "ios": "https://dc.lft.to/lastmile_qr_scan"}, "is_disabled": 0, "fusion_lat": 0.0, "name": "32200254abb3c146eaf4d29295e06ba0", "fusion_lon": 0.0}, {"is_reserved": 0, "type": "electric_scooter", "bike_id": "abec418c0a4db89c258d1024e14bc3da", "lat": 38.910919666666665, "lon": -77.03840083333333, "rental_uris": {"android": "https://dc.lft.to/lastmile_qr_scan", "ios": "https://dc.lft.to/lastmile_qr_scan"}, "is_disabled": 0, "fusion_lat": 0.0, "name": "abec418c0a4db89c258d1024e14bc3da", "fusion_lon": 0.0}, {"is_reserved": 0, "type": "electric_scooter", "bike_id": "ac604c69409c708d6c28baeed3eaf6eb", "lat": 38.907643666666665, "lon": -77.04523733333333, "rental_uris": {"android": "https://dc.lft.to/lastmile_qr_scan", "ios": "https://dc.lft.to/lastmile_qr_scan"}, "is_disabled": 0, "fusion_lat": 0.0, "name": "ac604c69409c708d6c28baeed3eaf6eb", "fusion_lon": 0.0}, {"is_reserved": 0, "type": "electric_scooter", "bike_id": "9540c2b89310a7694c9095595e011e50", "lat": 38.903853833333336, "lon": -77.03334666666667, "rental_uris": {"android": "https://dc.lft.to/lastmile_qr_scan", "ios": "https://dc.lft.to/lastmile_qr_scan"}, "is_disabled": 0, "fusion_lat": 0.0, "name": "9540c2b89310a7694c9095595e011e50", "fusion_lon": 0.0}, {"is_reserved": 0, "type": "electric_scooter", "bike_id": "08c8ed8195c0645b80627f788f8bd9df", "lat": 38.917447833333334, "lon": -77.040737, "rental_uris": {"android": "https://dc.lft.to/lastmile_qr_scan", "ios": "https://dc.lft.to/lastmile_qr_scan"}, "is_disabled": 0, "fusion_lat": 0.0, "name": "08c8ed8195c0645b80627f788f8bd9df", "fusion_lon": 0.0}, {"is_reserved": 0, "type": "electric_bike", "bike_id": "0a5312205f6e97adfcdffb4a1d633952", "lat": 39.08595833333333, "lon": -77.12266166666667, "rental_uris": {"android": "https://dc.lft.to/lastmile_qr_scan", "ios": "https://dc.lft.to/lastmile_qr_scan"}, "is_disabled": 0, "fusion_lat": 0.0, "name": "0a5312205f6e97adfcdffb4a1d633952", "fusion_lon": 0.0}, {"is_reserved": 0, "type": "electric_scooter", "bike_id": "baa06073f2dd416cae5b7268fe3abce6", "lat": 38.935636833333334, "lon": -77.0329975, "rental_uris": {"android": "https://dc.lft.to/lastmile_qr_scan", "ios": "https://dc.lft.to/lastmile_qr_scan"}, "is_disabled": 0, "fusion_lat": 0.0, "name": "baa06073f2dd416cae5b7268fe3abce6", "fusion_lon": 0.0}, {"is_reserved": 0, "type": "electric_bike", "bike_id": "2f08baf9b5c4585c1bc8486ad124cf4d", "lat": 38.972355666666665, "lon": -77.02708083333333, "rental_uris": {"android": "https://dc.lft.to/lastmile_qr_scan", "ios": "https://dc.lft.to/lastmile_qr_scan"}, "is_disabled": 0, "fusion_lat": 0.0, "name": "2f08baf9b5c4585c1bc8486ad124cf4d", "fusion_lon": 0.0}, {"is_reserved": 0, "type": "electric_scooter", "bike_id": "c17e614a5cb5e09f8b4392f7e4c1b264", "lat": 38.89467716666667, "lon": -77.0239805, "rental_uris": {"android": "https://dc.lft.to/lastmile_qr_scan", "ios": "https://dc.lft.to/lastmile_qr_scan"}, "is_disabled": 0, "fusion_lat": 0.0, "name": "c17e614a5cb5e09f8b4392f7e4c1b264", "fusion_lon": 0.0}, {"is_reserved": 0, "type": "electric_scooter", "bike_id": "aaf424ccbba41eec7b1b7ffb7e21a25b", "lat": 38.920420666666665, "lon": -77.04196783333333, "rental_uris": {"android": "https://dc.lft.to/lastmile_qr_scan", "ios": "https://dc.lft.to/lastmile_qr_scan"}, "is_disabled": 0, "fusion_lat": 0.0, "name": "aaf424ccbba41eec7b1b7ffb7e21a25b", "fusion_lon": 0.0}, {"is_reserved": 0, "type": "electric_scooter", "bike_id": "f4c162dbfa222a77c2b00da62e5f8e3c", "lat": 38.910417, "lon": -77.02198383333334, "rental_uris": {"android": "https://dc.lft.to/lastmile_qr_scan", "ios": "https://dc.lft.to/lastmile_qr_scan"}, "is_disabled": 0, "fusion_lat": 0.0, "name": "f4c162dbfa222a77c2b00da62e5f8e3c", "fusion_lon": 0.0}, {"is_reserved": 0, "type": "electric_scooter", "bike_id": "00804c6e846f81e0861692a49db48c99", "lat": 38.90709733333333, "lon": -77.000047, "rental_uris": {"android": "https://dc.lft.to/lastmile_qr_scan", "ios": "https://dc.lft.to/lastmile_qr_scan"}, "is_disabled": 0, "fusion_lat": 0.0, "name": "00804c6e846f81e0861692a49db48c99", "fusion_lon": 0.0}, {"is_reserved": 0, "type": "electric_scooter", "bike_id": "33e4bcd94ccc41fd5860d41399cd3a42", "lat": 38.93183966666667, "lon": -77.04141716666666, "rental_uris": {"android": "https://dc.lft.to/lastmile_qr_scan", "ios": "https://dc.lft.to/lastmile_qr_scan"}, "is_disabled": 0, "fusion_lat": 0.0, "name": "33e4bcd94ccc41fd5860d41399cd3a42", "fusion_lon": 0.0}, {"is_reserved": 0, "type": "electric_scooter", "bike_id": "144a31c22d35185584ebdf845035c29c", "lat": 38.8991265, "lon": -77.02709566666667, "rental_uris": {"android": "https://dc.lft.to/lastmile_qr_scan", "ios": "https://dc.lft.to/lastmile_qr_scan"}, "is_disabled": 0, "fusion_lat": 0.0, "name": "144a31c22d35185584ebdf845035c29c", "fusion_lon": 0.0}, {"is_reserved": 0, "type": "electric_scooter", "bike_id": "3dbec996dd724ebe0f7745cffe52b396", "lat": 38.9193065, "lon": -77.04173566666667, "rental_uris": {"android": "https://dc.lft.to/lastmile_qr_scan", "ios": "https://dc.lft.to/lastmile_qr_scan"}, "is_disabled": 0, "fusion_lat": 0.0, "name": "3dbec996dd724ebe0f7745cffe52b396", "fusion_lon": 0.0}, {"is_reserved": 0, "type": "electric_scooter", "bike_id": "dc47f1f9773a7e7fff23d03cb3ed73a7", "lat": 38.918151333333334, "lon": -77.03999616666667, "rental_uris": {"android": "https://dc.lft.to/lastmile_qr_scan", "ios": "https://dc.lft.to/lastmile_qr_scan"}, "is_disabled": 0, "fusion_lat": 0.0, "name": "dc47f1f9773a7e7fff23d03cb3ed73a7", "fusion_lon": 0.0}, {"is_reserved": 0, "type": "electric_scooter", "bike_id": "7c1df5e79ecf29a3aa3b44efa78ed606", "lat": 38.9118285, "lon": -77.0450575, "rental_uris": {"android": "https://dc.lft.to/lastmile_qr_scan", "ios": "https://dc.lft.to/lastmile_qr_scan"}, "is_disabled": 0, "fusion_lat": 0.0, "name": "7c1df5e79ecf29a3aa3b44efa78ed606", "fusion_lon": 0.0}, {"is_reserved": 0, "type": "electric_scooter", "bike_id": "c8f63514ed2bd5fb74ce13ef382b7fc3", "lat": 38.9003155, "lon": -76.988728, "rental_uris": {"android": "https://dc.lft.to/lastmile_qr_scan", "ios": "https://dc.lft.to/lastmile_qr_scan"}, "is_disabled": 0, "fusion_lat": 0.0, "name": "c8f63514ed2bd5fb74ce13ef382b7fc3", "fusion_lon": 0.0}, {"is_reserved": 0, "type": "electric_scooter", "bike_id": "f79bf4371534f7dd9cbbba33dc8a22ed", "lat": 38.88779783333333, "lon": -76.97713333333333, "rental_uris": {"android": "https://dc.lft.to/lastmile_qr_scan", "ios": "https://dc.lft.to/lastmile_qr_scan"}, "is_disabled": 0, "fusion_lat": 0.0, "name": "f79bf4371534f7dd9cbbba33dc8a22ed", "fusion_lon": 0.0}, {"is_reserved": 0, "type": "electric_scooter", "bike_id": "550284a4f291dc44dedcc83e9ffd8319", "lat": 38.872923166666666, "lon": -77.015611, "rental_uris": {"android": "https://dc.lft.to/lastmile_qr_scan", "ios": "https://dc.lft.to/lastmile_qr_scan"}, "is_disabled": 0, "fusion_lat": 0.0, "name": "550284a4f291dc44dedcc83e9ffd8319", "fusion_lon": 0.0}, {"is_reserved": 0, "type": "electric_scooter", "bike_id": "e3d8f6382a83b790014b8a7db0e0b9a6", "lat": 38.93069716666667, "lon": -77.03740583333334, "rental_uris": {"android": "https://dc.lft.to/lastmile_qr_scan", "ios": "https://dc.lft.to/lastmile_qr_scan"}, "is_disabled": 0, "fusion_lat": 0.0, "name": "e3d8f6382a83b790014b8a7db0e0b9a6", "fusion_lon": 0.0}, {"is_reserved": 0, "type": "electric_scooter", "bike_id": "e7b0a94e708e91781a32772d0c783710", "lat": 38.924669, "lon": -77.03957433333333, "rental_uris": {"android": "https://dc.lft.to/lastmile_qr_scan", "ios": "https://dc.lft.to/lastmile_qr_scan"}, "is_disabled": 0, "fusion_lat": 0.0, "name": "e7b0a94e708e91781a32772d0c783710", "fusion_lon": 0.0}, {"is_reserved": 0, "type": "electric_scooter", "bike_id": "0f0685d26fd7593114dc31394651905f", "lat": 38.92850983333334, "lon": -77.03735483333334, "rental_uris": {"android": "https://dc.lft.to/lastmile_qr_scan", "ios": "https://dc.lft.to/lastmile_qr_scan"}, "is_disabled": 0, "fusion_lat": 0.0, "name": "0f0685d26fd7593114dc31394651905f", "fusion_lon": 0.0}, {"is_reserved": 0, "type": "electric_scooter", "bike_id": "573d7a663fba6ec30c49b86df489aa3d", "lat": 38.91703733333333, "lon": -77.02892066666666, "rental_uris": {"android": "https://dc.lft.to/lastmile_qr_scan", "ios": "https://dc.lft.to/lastmile_qr_scan"}, "is_disabled": 0, "fusion_lat": 0.0, "name": "573d7a663fba6ec30c49b86df489aa3d", "fusion_lon": 0.0}, {"is_reserved": 0, "type": "electric_scooter", "bike_id": "d25e522f82c17714c93c73a08aeef024", "lat": 38.898173666666665, "lon": -77.029382, "rental_uris": {"android": "https://dc.lft.to/lastmile_qr_scan", "ios": "https://dc.lft.to/lastmile_qr_scan"}, "is_disabled": 0, "fusion_lat": 0.0, "name": "d25e522f82c17714c93c73a08aeef024", "fusion_lon": 0.0}, {"is_reserved": 0, "type": "electric_scooter", "bike_id": "0a278b8d7348035e83c4ca4a275adf6e", "lat": 38.935568833333335, "lon": -77.02221066666667, "rental_uris": {"android": "https://dc.lft.to/lastmile_qr_scan", "ios": "https://dc.lft.to/lastmile_qr_scan"}, "is_disabled": 0, "fusion_lat": 0.0, "name": "0a278b8d7348035e83c4ca4a275adf6e", "fusion_lon": 0.0}, {"is_reserved": 0, "type": "electric_scooter", "bike_id": "b5a1a33a012d6de89ee472a7cb5b8249", "lat": 38.91803483333333, "lon": -77.033018, "rental_uris": {"android": "https://dc.lft.to/lastmile_qr_scan", "ios": "https://dc.lft.to/lastmile_qr_scan"}, "is_disabled": 0, "fusion_lat": 0.0, "name": "b5a1a33a012d6de89ee472a7cb5b8249", "fusion_lon": 0.0}, {"is_reserved": 0, "type": "electric_scooter", "bike_id": "58c72070cc6310e0a617c42e52768c16", "lat": 38.8949595, "lon": -77.00203783333333, "rental_uris": {"android": "https://dc.lft.to/lastmile_qr_scan", "ios": "https://dc.lft.to/lastmile_qr_scan"}, "is_disabled": 0, "fusion_lat": 0.0, "name": "58c72070cc6310e0a617c42e52768c16", "fusion_lon": 0.0}, {"is_reserved": 0, "type": "electric_scooter", "bike_id": "950612c23946880333d1227815722b89", "lat": 38.908804333333336, "lon": -77.02351416666667, "rental_uris": {"android": "https://dc.lft.to/lastmile_qr_scan", "ios": "https://dc.lft.to/lastmile_qr_scan"}, "is_disabled": 0, "fusion_lat": 0.0, "name": "950612c23946880333d1227815722b89", "fusion_lon": 0.0}, {"is_reserved": 0, "type": "electric_scooter", "bike_id": "7e8a9db5bca54a16547c825f69bfe055", "lat": 38.956264166666664, "lon": -77.02781833333333, "rental_uris": {"android": "https://dc.lft.to/lastmile_qr_scan", "ios": "https://dc.lft.to/lastmile_qr_scan"}, "is_disabled": 0, "fusion_lat": 0.0, "name": "7e8a9db5bca54a16547c825f69bfe055", "fusion_lon": 0.0}, {"is_reserved": 0, "type": "electric_scooter", "bike_id": "8d20449444a0b13e9a2c593dc0b3c8ba", "lat": 38.905437166666665, "lon": -77.00595133333333, "rental_uris": {"android": "https://dc.lft.to/lastmile_qr_scan", "ios": "https://dc.lft.to/lastmile_qr_scan"}, "is_disabled": 0, "fusion_lat": 0.0, "name": "8d20449444a0b13e9a2c593dc0b3c8ba", "fusion_lon": 0.0}, {"is_reserved": 0, "type": "electric_scooter", "bike_id": "eedf53d883522a6f2429f36a9941126b", "lat": 38.924442666666664, "lon": -77.04394416666666, "rental_uris": {"android": "https://dc.lft.to/lastmile_qr_scan", "ios": "https://dc.lft.to/lastmile_qr_scan"}, "is_disabled": 0, "fusion_lat": 0.0, "name": "eedf53d883522a6f2429f36a9941126b", "fusion_lon": 0.0}, {"is_reserved": 0, "type": "electric_bike", "bike_id": "ca697bb0c2273be2c52a2b91cf2e0d07", "lat": 38.90848533333333, "lon": -77.05759866666666, "rental_uris": {"android": "https://dc.lft.to/lastmile_qr_scan", "ios": "https://dc.lft.to/lastmile_qr_scan"}, "is_disabled": 0, "fusion_lat": 0.0, "name": "ca697bb0c2273be2c52a2b91cf2e0d07", "fusion_lon": 0.0}, {"is_reserved": 0, "type": "electric_scooter", "bike_id": "e51c44703b43649c978fc81a8322eafe", "lat": 38.928836833333335, "lon": -77.01379266666666, "rental_uris": {"android": "https://dc.lft.to/lastmile_qr_scan", "ios": "https://dc.lft.to/lastmile_qr_scan"}, "is_disabled": 0, "fusion_lat": 0.0, "name": "e51c44703b43649c978fc81a8322eafe", "fusion_lon": 0.0}, {"is_reserved": 0, "type": "electric_scooter", "bike_id": "2e9653fc2889702ff23ffbb161499b73", "lat": 38.906871833333334, "lon": -77.0625615, "rental_uris": {"android": "https://dc.lft.to/lastmile_qr_scan", "ios": "https://dc.lft.to/lastmile_qr_scan"}, "is_disabled": 0, "fusion_lat": 0.0, "name": "2e9653fc2889702ff23ffbb161499b73", "fusion_lon": 0.0}, {"is_reserved": 0, "type": "electric_scooter", "bike_id": "c0446da541d83a2d8bb61e65c9928f3f", "lat": 38.90680033333334, "lon": -77.00912816666667, "rental_uris": {"android": "https://dc.lft.to/lastmile_qr_scan", "ios": "https://dc.lft.to/lastmile_qr_scan"}, "is_disabled": 0, "fusion_lat": 0.0, "name": "c0446da541d83a2d8bb61e65c9928f3f", "fusion_lon": 0.0}, {"is_reserved": 0, "type": "electric_scooter", "bike_id": "148208d326997c8030b981dc04f8551f", "lat": 38.90720133333333, "lon": -77.0168155, "rental_uris": {"android": "https://dc.lft.to/lastmile_qr_scan", "ios": "https://dc.lft.to/lastmile_qr_scan"}, "is_disabled": 0, "fusion_lat": 0.0, "name": "148208d326997c8030b981dc04f8551f", "fusion_lon": 0.0}, {"is_reserved": 0, "type": "electric_scooter", "bike_id": "1f085bb0fb58979445c3e6cfb7ed4bb5", "lat": 38.89222083333333, "lon": -77.03110266666667, "rental_uris": {"android": "https://dc.lft.to/lastmile_qr_scan", "ios": "https://dc.lft.to/lastmile_qr_scan"}, "is_disabled": 0, "fusion_lat": 0.0, "name": "1f085bb0fb58979445c3e6cfb7ed4bb5", "fusion_lon": 0.0}, {"is_reserved": 0, "type": "electric_scooter", "bike_id": "ea04897d107e8c7e85a12c081ad2bf45", "lat": 38.91706716666667, "lon": -77.02405333333333, "rental_uris": {"android": "https://dc.lft.to/lastmile_qr_scan", "ios": "https://dc.lft.to/lastmile_qr_scan"}, "is_disabled": 0, "fusion_lat": 0.0, "name": "ea04897d107e8c7e85a12c081ad2bf45", "fusion_lon": 0.0}, {"is_reserved": 0, "type": "electric_scooter", "bike_id": "54b60e07bdddf1aad422cf7a7cc06892", "lat": 38.91740266666667, "lon": -77.02788583333333, "rental_uris": {"android": "https://dc.lft.to/lastmile_qr_scan", "ios": "https://dc.lft.to/lastmile_qr_scan"}, "is_disabled": 0, "fusion_lat": 0.0, "name": "54b60e07bdddf1aad422cf7a7cc06892", "fusion_lon": 0.0}, {"is_reserved": 0, "type": "electric_scooter", "bike_id": "eb3b5b3fb6a0e2b49c767072b65fa0a2", "lat": 38.8921805, "lon": -77.01387366666667, "rental_uris": {"android": "https://dc.lft.to/lastmile_qr_scan", "ios": "https://dc.lft.to/lastmile_qr_scan"}, "is_disabled": 0, "fusion_lat": 0.0, "name": "eb3b5b3fb6a0e2b49c767072b65fa0a2", "fusion_lon": 0.0}, {"is_reserved": 0, "type": "electric_scooter", "bike_id": "6833e9868588e3ecb737bac76ccb1a4b", "lat": 38.92248466666667, "lon": -77.0425115, "rental_uris": {"android": "https://dc.lft.to/lastmile_qr_scan", "ios": "https://dc.lft.to/lastmile_qr_scan"}, "is_disabled": 0, "fusion_lat": 0.0, "name": "6833e9868588e3ecb737bac76ccb1a4b", "fusion_lon": 0.0}, {"is_reserved": 0, "type": "electric_scooter", "bike_id": "528a93b2d5a61de776df99f1def1ef57", "lat": 38.92382, "lon": -77.02691316666667, "rental_uris": {"android": "https://dc.lft.to/lastmile_qr_scan", "ios": "https://dc.lft.to/lastmile_qr_scan"}, "is_disabled": 0, "fusion_lat": 0.0, "name": "528a93b2d5a61de776df99f1def1ef57", "fusion_lon": 0.0}, {"is_reserved": 0, "type": "electric_scooter", "bike_id": "ecab68be9f0217276df7a021fe11b681", "lat": 38.940774166666664, "lon": -77.05494283333333, "rental_uris": {"android": "https://dc.lft.to/lastmile_qr_scan", "ios": "https://dc.lft.to/lastmile_qr_scan"}, "is_disabled": 0, "fusion_lat": 0.0, "name": "ecab68be9f0217276df7a021fe11b681", "fusion_lon": 0.0}, {"is_reserved": 0, "type": "electric_scooter", "bike_id": "863a00dbaf61a15ece98a95f5ca7abfd", "lat": 38.924857833333334, "lon": -77.02713616666666, "rental_uris": {"android": "https://dc.lft.to/lastmile_qr_scan", "ios": "https://dc.lft.to/lastmile_qr_scan"}, "is_disabled": 0, "fusion_lat": 0.0, "name": "863a00dbaf61a15ece98a95f5ca7abfd", "fusion_lon": 0.0}, {"is_reserved": 0, "type": "electric_scooter", "bike_id": "3f1d037e3adec181a2fb97e79fb5842e", "lat": 38.90183916666667, "lon": -77.0488775, "rental_uris": {"android": "https://dc.lft.to/lastmile_qr_scan", "ios": "https://dc.lft.to/lastmile_qr_scan"}, "is_disabled": 0, "fusion_lat": 0.0, "name": "3f1d037e3adec181a2fb97e79fb5842e", "fusion_lon": 0.0}, {"is_reserved": 0, "type": "electric_scooter", "bike_id": "c7b42ce4f2c381c16d77091d00157f7e", "lat": 38.89323133333333, "lon": -77.02956216666666, "rental_uris": {"android": "https://dc.lft.to/lastmile_qr_scan", "ios": "https://dc.lft.to/lastmile_qr_scan"}, "is_disabled": 0, "fusion_lat": 0.0, "name": "c7b42ce4f2c381c16d77091d00157f7e", "fusion_lon": 0.0}, {"is_reserved": 0, "type": "electric_scooter", "bike_id": "1064488c9b77e3bcaeb9f7e390e42a6c", "lat": 38.92832466666667, "lon": -77.05517816666666, "rental_uris": {"android": "https://dc.lft.to/lastmile_qr_scan", "ios": "https://dc.lft.to/lastmile_qr_scan"}, "is_disabled": 0, "fusion_lat": 0.0, "name": "1064488c9b77e3bcaeb9f7e390e42a6c", "fusion_lon": 0.0}, {"is_reserved": 0, "type": "electric_scooter", "bike_id": "195713ba0a025b8a2ee3f4b362dc47ba", "lat": 38.924321, "lon": -77.00321916666667, "rental_uris": {"android": "https://dc.lft.to/lastmile_qr_scan", "ios": "https://dc.lft.to/lastmile_qr_scan"}, "is_disabled": 0, "fusion_lat": 0.0, "name": "195713ba0a025b8a2ee3f4b362dc47ba", "fusion_lon": 0.0}, {"is_reserved": 0, "type": "electric_scooter", "bike_id": "b476a71f5865080efb76e8e9ef14c0d5", "lat": 38.885219, "lon": -76.99606883333334, "rental_uris": {"android": "https://dc.lft.to/lastmile_qr_scan", "ios": "https://dc.lft.to/lastmile_qr_scan"}, "is_disabled": 0, "fusion_lat": 0.0, "name": "b476a71f5865080efb76e8e9ef14c0d5", "fusion_lon": 0.0}, {"is_reserved": 0, "type": "electric_scooter", "bike_id": "ef78610834285f5a6c439e632605ddd1", "lat": 38.92338433333333, "lon": -77.0506835, "rental_uris": {"android": "https://dc.lft.to/lastmile_qr_scan", "ios": "https://dc.lft.to/lastmile_qr_scan"}, "is_disabled": 0, "fusion_lat": 0.0, "name": "ef78610834285f5a6c439e632605ddd1", "fusion_lon": 0.0}, {"is_reserved": 0, "type": "electric_scooter", "bike_id": "63ae0b08b79e1771caae24e58e4ad11b", "lat": 38.90391316666667, "lon": -77.06299266666667, "rental_uris": {"android": "https://dc.lft.to/lastmile_qr_scan", "ios": "https://dc.lft.to/lastmile_qr_scan"}, "is_disabled": 0, "fusion_lat": 0.0, "name": "63ae0b08b79e1771caae24e58e4ad11b", "fusion_lon": 0.0}, {"is_reserved": 0, "type": "electric_scooter", "bike_id": "d889e94137804424b41cc8117a1066bb", "lat": 38.89872533333333, "lon": -76.93184966666666, "rental_uris": {"android": "https://dc.lft.to/lastmile_qr_scan", "ios": "https://dc.lft.to/lastmile_qr_scan"}, "is_disabled": 0, "fusion_lat": 0.0, "name": "d889e94137804424b41cc8117a1066bb", "fusion_lon": 0.0}, {"is_reserved": 0, "type": "electric_scooter", "bike_id": "73b967c70e5f199589116f10a6788be6", "lat": 38.90773016666667, "lon": -77.03552183333333, "rental_uris": {"android": "https://dc.lft.to/lastmile_qr_scan", "ios": "https://dc.lft.to/lastmile_qr_scan"}, "is_disabled": 0, "fusion_lat": 0.0, "name": "73b967c70e5f199589116f10a6788be6", "fusion_lon": 0.0}, {"is_reserved": 0, "type": "electric_scooter", "bike_id": "bbbffbb537de57dc7dd685121dc45e49", "lat": 38.892302666666666, "lon": -77.01607416666667, "rental_uris": {"android": "https://dc.lft.to/lastmile_qr_scan", "ios": "https://dc.lft.to/lastmile_qr_scan"}, "is_disabled": 0, "fusion_lat": 0.0, "name": "bbbffbb537de57dc7dd685121dc45e49", "fusion_lon": 0.0}, {"is_reserved": 0, "type": "electric_scooter", "bike_id": "99c3a34cd7af005c8665db23be1859a0", "lat": 38.906008166666666, "lon": -76.95057583333333, "rental_uris": {"android": "https://dc.lft.to/lastmile_qr_scan", "ios": "https://dc.lft.to/lastmile_qr_scan"}, "is_disabled": 0, "fusion_lat": 0.0, "name": "99c3a34cd7af005c8665db23be1859a0", "fusion_lon": 0.0}, {"is_reserved": 0, "type": "electric_scooter", "bike_id": "ac5f630242f947967f42d8920c8985c7", "lat": 38.9052775, "lon": -77.06149683333334, "rental_uris": {"android": "https://dc.lft.to/lastmile_qr_scan", "ios": "https://dc.lft.to/lastmile_qr_scan"}, "is_disabled": 0, "fusion_lat": 0.0, "name": "ac5f630242f947967f42d8920c8985c7", "fusion_lon": 0.0}, {"is_reserved": 0, "type": "electric_scooter", "bike_id": "d47f6cb821299a5cc90176f5a76ef2cc", "lat": 38.94072233333333, "lon": -77.05493183333333, "rental_uris": {"android": "https://dc.lft.to/lastmile_qr_scan", "ios": "https://dc.lft.to/lastmile_qr_scan"}, "is_disabled": 0, "fusion_lat": 0.0, "name": "d47f6cb821299a5cc90176f5a76ef2cc", "fusion_lon": 0.0}, {"is_reserved": 0, "type": "electric_scooter", "bike_id": "9f727095ca822a1805a6255133489026", "lat": 38.9170385, "lon": -77.03865083333334, "rental_uris": {"android": "https://dc.lft.to/lastmile_qr_scan", "ios": "https://dc.lft.to/lastmile_qr_scan"}, "is_disabled": 0, "fusion_lat": 0.0, "name": "9f727095ca822a1805a6255133489026", "fusion_lon": 0.0}, {"is_reserved": 0, "type": "electric_scooter", "bike_id": "480b5e67758b26eeeb12f11849b160c3", "lat": 38.883811666666666, "lon": -76.930442, "rental_uris": {"android": "https://dc.lft.to/lastmile_qr_scan", "ios": "https://dc.lft.to/lastmile_qr_scan"}, "is_disabled": 0, "fusion_lat": 0.0, "name": "480b5e67758b26eeeb12f11849b160c3", "fusion_lon": 0.0}, {"is_reserved": 0, "type": "electric_scooter", "bike_id": "66b1d0e62de23c8e854d34b3ea895dab", "lat": 38.9320785, "lon": -77.038797, "rental_uris": {"android": "https://dc.lft.to/lastmile_qr_scan", "ios": "https://dc.lft.to/lastmile_qr_scan"}, "is_disabled": 0, "fusion_lat": 0.0, "name": "66b1d0e62de23c8e854d34b3ea895dab", "fusion_lon": 0.0}, {"is_reserved": 0, "type": "electric_scooter", "bike_id": "e1123e2005e77717026b9dbe2ca6662f", "lat": 38.901522666666665, "lon": -77.04171383333333, "rental_uris": {"android": "https://dc.lft.to/lastmile_qr_scan", "ios": "https://dc.lft.to/lastmile_qr_scan"}, "is_disabled": 0, "fusion_lat": 0.0, "name": "e1123e2005e77717026b9dbe2ca6662f", "fusion_lon": 0.0}, {"is_reserved": 0, "type": "electric_bike", "bike_id": "8e98976a765e4a4f499e0342d84fd3f2", "lat": 38.89454666666666, "lon": -77.19129016666666, "rental_uris": {"android": "https://dc.lft.to/lastmile_qr_scan", "ios": "https://dc.lft.to/lastmile_qr_scan"}, "is_disabled": 0, "fusion_lat": 0.0, "name": "8e98976a765e4a4f499e0342d84fd3f2", "fusion_lon": 0.0}, {"is_reserved": 0, "type": "electric_scooter", "bike_id": "738cbf321afa8f5535f50a70d552a48f", "lat": 38.894769333333336, "lon": -76.99579516666667, "rental_uris": {"android": "https://dc.lft.to/lastmile_qr_scan", "ios": "https://dc.lft.to/lastmile_qr_scan"}, "is_disabled": 0, "fusion_lat": 0.0, "name": "738cbf321afa8f5535f50a70d552a48f", "fusion_lon": 0.0}, {"is_reserved": 0, "type": "electric_bike", "bike_id": "f50175503e7b884311e9cf32810ffa3a", "lat": 38.89612316666667, "lon": -76.907325, "rental_uris": {"android": "https://dc.lft.to/lastmile_qr_scan", "ios": "https://dc.lft.to/lastmile_qr_scan"}, "is_disabled": 0, "fusion_lat": 0.0, "name": "f50175503e7b884311e9cf32810ffa3a", "fusion_lon": 0.0}, {"is_reserved": 0, "type": "electric_scooter", "bike_id": "f857284cba134a7feed815cabd799e69", "lat": 38.89472516666667, "lon": -77.00257583333334, "rental_uris": {"android": "https://dc.lft.to/lastmile_qr_scan", "ios": "https://dc.lft.to/lastmile_qr_scan"}, "is_disabled": 0, "fusion_lat": 0.0, "name": "f857284cba134a7feed815cabd799e69", "fusion_lon": 0.0}, {"is_reserved": 0, "type": "electric_scooter", "bike_id": "ddf1635f7bc504db55227279eaa96164", "lat": 38.86487733333333, "lon": -76.97744866666666, "rental_uris": {"android": "https://dc.lft.to/lastmile_qr_scan", "ios": "https://dc.lft.to/lastmile_qr_scan"}, "is_disabled": 0, "fusion_lat": 0.0, "name": "ddf1635f7bc504db55227279eaa96164", "fusion_lon": 0.0}, {"is_reserved": 0, "type": "electric_scooter", "bike_id": "96ae761fb306829ffdb8b7941677d23f", "lat": 38.8934025, "lon": -77.04873483333333, "rental_uris": {"android": "https://dc.lft.to/lastmile_qr_scan", "ios": "https://dc.lft.to/lastmile_qr_scan"}, "is_disabled": 0, "fusion_lat": 0.0, "name": "96ae761fb306829ffdb8b7941677d23f", "fusion_lon": 0.0}, {"is_reserved": 0, "type": "electric_scooter", "bike_id": "822256b55855caecf0e9359f76d3f279", "lat": 38.9267035, "lon": -77.02604216666667, "rental_uris": {"android": "https://dc.lft.to/lastmile_qr_scan", "ios": "https://dc.lft.to/lastmile_qr_scan"}, "is_disabled": 0, "fusion_lat": 0.0, "name": "822256b55855caecf0e9359f76d3f279", "fusion_lon": 0.0}, {"is_reserved": 0, "type": "electric_scooter", "bike_id": "1f6ebe9c8b0f5dbee331bc7f9f6c62ab", "lat": 38.89426016666667, "lon": -77.05590933333333, "rental_uris": {"android": "https://dc.lft.to/lastmile_qr_scan", "ios": "https://dc.lft.to/lastmile_qr_scan"}, "is_disabled": 0, "fusion_lat": 0.0, "name": "1f6ebe9c8b0f5dbee331bc7f9f6c62ab", "fusion_lon": 0.0}, {"is_reserved": 0, "type": "electric_scooter", "bike_id": "ac858c67d4f47cc135620ca9918f34e4", "lat": 38.89351666666666, "lon": -77.0173135, "rental_uris": {"android": "https://dc.lft.to/lastmile_qr_scan", "ios": "https://dc.lft.to/lastmile_qr_scan"}, "is_disabled": 0, "fusion_lat": 0.0, "name": "ac858c67d4f47cc135620ca9918f34e4", "fusion_lon": 0.0}, {"is_reserved": 0, "type": "electric_scooter", "bike_id": "e6541d87948502b459aeb433be5dd962", "lat": 38.90415733333333, "lon": -77.02395183333333, "rental_uris": {"android": "https://dc.lft.to/lastmile_qr_scan", "ios": "https://dc.lft.to/lastmile_qr_scan"}, "is_disabled": 0, "fusion_lat": 0.0, "name": "e6541d87948502b459aeb433be5dd962", "fusion_lon": 0.0}, {"is_reserved": 0, "type": "electric_scooter", "bike_id": "426ffb6dfefce3e252de7d3e031632a8", "lat": 38.91185866666667, "lon": -77.03208533333333, "rental_uris": {"android": "https://dc.lft.to/lastmile_qr_scan", "ios": "https://dc.lft.to/lastmile_qr_scan"}, "is_disabled": 0, "fusion_lat": 0.0, "name": "426ffb6dfefce3e252de7d3e031632a8", "fusion_lon": 0.0}, {"is_reserved": 0, "type": "electric_scooter", "bike_id": "7f02ab8ac5ebf7d7f49feb38370589ec", "lat": 38.920468166666666, "lon": -77.0257365, "rental_uris": {"android": "https://dc.lft.to/lastmile_qr_scan", "ios": "https://dc.lft.to/lastmile_qr_scan"}, "is_disabled": 0, "fusion_lat": 0.0, "name": "7f02ab8ac5ebf7d7f49feb38370589ec", "fusion_lon": 0.0}, {"is_reserved": 0, "type": "electric_scooter", "bike_id": "b3b57a53192d42dab1b87acc8a7de3fd", "lat": 38.90857166666667, "lon": -77.00207183333333, "rental_uris": {"android": "https://dc.lft.to/lastmile_qr_scan", "ios": "https://dc.lft.to/lastmile_qr_scan"}, "is_disabled": 0, "fusion_lat": 0.0, "name": "b3b57a53192d42dab1b87acc8a7de3fd", "fusion_lon": 0.0}, {"is_reserved": 0, "type": "electric_scooter", "bike_id": "4682d985c35ac03ef72d2d7ef331e468", "lat": 38.88785033333333, "lon": -76.99156733333334, "rental_uris": {"android": "https://dc.lft.to/lastmile_qr_scan", "ios": "https://dc.lft.to/lastmile_qr_scan"}, "is_disabled": 0, "fusion_lat": 0.0, "name": "4682d985c35ac03ef72d2d7ef331e468", "fusion_lon": 0.0}, {"is_reserved": 0, "type": "electric_scooter", "bike_id": "87b69882bcec4603d127b363bdfef8ce", "lat": 38.90593, "lon": -77.0641745, "rental_uris": {"android": "https://dc.lft.to/lastmile_qr_scan", "ios": "https://dc.lft.to/lastmile_qr_scan"}, "is_disabled": 0, "fusion_lat": 0.0, "name": "87b69882bcec4603d127b363bdfef8ce", "fusion_lon": 0.0}, {"is_reserved": 0, "type": "electric_scooter", "bike_id": "303126d95f694b72682cf23ce74a0f4c", "lat": 38.94189816666667, "lon": -77.02337616666667, "rental_uris": {"android": "https://dc.lft.to/lastmile_qr_scan", "ios": "https://dc.lft.to/lastmile_qr_scan"}, "is_disabled": 0, "fusion_lat": 0.0, "name": "303126d95f694b72682cf23ce74a0f4c", "fusion_lon": 0.0}, {"is_reserved": 0, "type": "electric_scooter", "bike_id": "1c1833928e36737bbdde4d432aee5d8d", "lat": 38.905781, "lon": -77.04868033333334, "rental_uris": {"android": "https://dc.lft.to/lastmile_qr_scan", "ios": "https://dc.lft.to/lastmile_qr_scan"}, "is_disabled": 0, "fusion_lat": 0.0, "name": "1c1833928e36737bbdde4d432aee5d8d", "fusion_lon": 0.0}, {"is_reserved": 0, "type": "electric_scooter", "bike_id": "7a60dfdcab71870dc0b8154b29b050d4", "lat": 38.924241, "lon": -77.051789, "rental_uris": {"android": "https://dc.lft.to/lastmile_qr_scan", "ios": "https://dc.lft.to/lastmile_qr_scan"}, "is_disabled": 0, "fusion_lat": 0.0, "name": "7a60dfdcab71870dc0b8154b29b050d4", "fusion_lon": 0.0}, {"is_reserved": 0, "type": "electric_scooter", "bike_id": "fd20000f23fe949372da356c8882f99d", "lat": 38.924589166666664, "lon": -77.00891233333333, "rental_uris": {"android": "https://dc.lft.to/lastmile_qr_scan", "ios": "https://dc.lft.to/lastmile_qr_scan"}, "is_disabled": 0, "fusion_lat": 0.0, "name": "fd20000f23fe949372da356c8882f99d", "fusion_lon": 0.0}, {"is_reserved": 0, "type": "electric_scooter", "bike_id": "c8bec75e191edf36403ed8e679acc34c", "lat": 38.87811383333333, "lon": -77.02224633333333, "rental_uris": {"android": "https://dc.lft.to/lastmile_qr_scan", "ios": "https://dc.lft.to/lastmile_qr_scan"}, "is_disabled": 0, "fusion_lat": 0.0, "name": "c8bec75e191edf36403ed8e679acc34c", "fusion_lon": 0.0}, {"is_reserved": 0, "type": "electric_scooter", "bike_id": "f870084271ff9fb4649881fbed4b2f35", "lat": 38.9203465, "lon": -77.012213, "rental_uris": {"android": "https://dc.lft.to/lastmile_qr_scan", "ios": "https://dc.lft.to/lastmile_qr_scan"}, "is_disabled": 0, "fusion_lat": 0.0, "name": "f870084271ff9fb4649881fbed4b2f35", "fusion_lon": 0.0}, {"is_reserved": 0, "type": "electric_scooter", "bike_id": "c80f31e31cc65ed595966ac246e4a84e", "lat": 38.90547466666666, "lon": -77.0652415, "rental_uris": {"android": "https://dc.lft.to/lastmile_qr_scan", "ios": "https://dc.lft.to/lastmile_qr_scan"}, "is_disabled": 0, "fusion_lat": 0.0, "name": "c80f31e31cc65ed595966ac246e4a84e", "fusion_lon": 0.0}, {"is_reserved": 0, "type": "electric_scooter", "bike_id": "9b14f2717194ff7c2b4b80203b0bba41", "lat": 38.919336, "lon": -77.0314525, "rental_uris": {"android": "https://dc.lft.to/lastmile_qr_scan", "ios": "https://dc.lft.to/lastmile_qr_scan"}, "is_disabled": 0, "fusion_lat": 0.0, "name": "9b14f2717194ff7c2b4b80203b0bba41", "fusion_lon": 0.0}, {"is_reserved": 0, "type": "electric_scooter", "bike_id": "ffd2d9763efd1d5c3acefa688cb976c0", "lat": 38.924453, "lon": -77.00006083333334, "rental_uris": {"android": "https://dc.lft.to/lastmile_qr_scan", "ios": "https://dc.lft.to/lastmile_qr_scan"}, "is_disabled": 0, "fusion_lat": 0.0, "name": "ffd2d9763efd1d5c3acefa688cb976c0", "fusion_lon": 0.0}, {"is_reserved": 0, "type": "electric_scooter", "bike_id": "47ecda0a605894c8801f107d2d0c84c2", "lat": 38.8935075, "lon": -77.0116775, "rental_uris": {"android": "https://dc.lft.to/lastmile_qr_scan", "ios": "https://dc.lft.to/lastmile_qr_scan"}, "is_disabled": 0, "fusion_lat": 0.0, "name": "47ecda0a605894c8801f107d2d0c84c2", "fusion_lon": 0.0}, {"is_reserved": 0, "type": "electric_scooter", "bike_id": "e58b9d7a776e79f3013f1282677b9fa0", "lat": 38.90077766666667, "lon": -77.04926016666667, "rental_uris": {"android": "https://dc.lft.to/lastmile_qr_scan", "ios": "https://dc.lft.to/lastmile_qr_scan"}, "is_disabled": 0, "fusion_lat": 0.0, "name": "e58b9d7a776e79f3013f1282677b9fa0", "fusion_lon": 0.0}, {"is_reserved": 0, "type": "electric_scooter", "bike_id": "e7a10db7c3bbb1087ef1c771533c673f", "lat": 38.9311965, "lon": -77.03876333333334, "rental_uris": {"android": "https://dc.lft.to/lastmile_qr_scan", "ios": "https://dc.lft.to/lastmile_qr_scan"}, "is_disabled": 0, "fusion_lat": 0.0, "name": "e7a10db7c3bbb1087ef1c771533c673f", "fusion_lon": 0.0}, {"is_reserved": 0, "type": "electric_scooter", "bike_id": "c86a5107fa2ddd0e296e83a3ec0ec61f", "lat": 38.95320566666667, "lon": -77.069334, "rental_uris": {"android": "https://dc.lft.to/lastmile_qr_scan", "ios": "https://dc.lft.to/lastmile_qr_scan"}, "is_disabled": 0, "fusion_lat": 0.0, "name": "c86a5107fa2ddd0e296e83a3ec0ec61f", "fusion_lon": 0.0}, {"is_reserved": 0, "type": "electric_scooter", "bike_id": "a3edf4acb573044082b512ff3f1b9ec6", "lat": 38.926697, "lon": -77.01512416666667, "rental_uris": {"android": "https://dc.lft.to/lastmile_qr_scan", "ios": "https://dc.lft.to/lastmile_qr_scan"}, "is_disabled": 0, "fusion_lat": 0.0, "name": "a3edf4acb573044082b512ff3f1b9ec6", "fusion_lon": 0.0}, {"is_reserved": 0, "type": "electric_bike", "bike_id": "1cd20f9eee10f37658805ce66a158f1f", "lat": 38.858704833333334, "lon": -77.095552, "rental_uris": {"android": "https://dc.lft.to/lastmile_qr_scan", "ios": "https://dc.lft.to/lastmile_qr_scan"}, "is_disabled": 0, "fusion_lat": 0.0, "name": "1cd20f9eee10f37658805ce66a158f1f", "fusion_lon": 0.0}, {"is_reserved": 0, "type": "electric_scooter", "bike_id": "20284c1f9753682247b78609d59e1b86", "lat": 38.9255405, "lon": -77.02272916666666, "rental_uris": {"android": "https://dc.lft.to/lastmile_qr_scan", "ios": "https://dc.lft.to/lastmile_qr_scan"}, "is_disabled": 0, "fusion_lat": 0.0, "name": "20284c1f9753682247b78609d59e1b86", "fusion_lon": 0.0}, {"is_reserved": 0, "type": "electric_scooter", "bike_id": "1cd76f22c4ae302ff9e2a5681beb8538", "lat": 38.92417733333333, "lon": -77.02008183333334, "rental_uris": {"android": "https://dc.lft.to/lastmile_qr_scan", "ios": "https://dc.lft.to/lastmile_qr_scan"}, "is_disabled": 0, "fusion_lat": 0.0, "name": "1cd76f22c4ae302ff9e2a5681beb8538", "fusion_lon": 0.0}, {"is_reserved": 0, "type": "electric_scooter", "bike_id": "e8a1eb4a409b558e74f7f9eeb1fe52a3", "lat": 38.88741733333333, "lon": -77.02598766666667, "rental_uris": {"android": "https://dc.lft.to/lastmile_qr_scan", "ios": "https://dc.lft.to/lastmile_qr_scan"}, "is_disabled": 0, "fusion_lat": 0.0, "name": "e8a1eb4a409b558e74f7f9eeb1fe52a3", "fusion_lon": 0.0}, {"is_reserved": 0, "type": "electric_scooter", "bike_id": "78c82513d8252b3ca708ff7403956297", "lat": 38.9215385, "lon": -77.0721975, "rental_uris": {"android": "https://dc.lft.to/lastmile_qr_scan", "ios": "https://dc.lft.to/lastmile_qr_scan"}, "is_disabled": 0, "fusion_lat": 0.0, "name": "78c82513d8252b3ca708ff7403956297", "fusion_lon": 0.0}, {"is_reserved": 0, "type": "electric_bike", "bike_id": "ae875d434ebed3f200c55a83c771ba3f", "lat": 38.880023, "lon": -76.9983685, "rental_uris": {"android": "https://dc.lft.to/lastmile_qr_scan", "ios": "https://dc.lft.to/lastmile_qr_scan"}, "is_disabled": 0, "fusion_lat": 0.0, "name": "ae875d434ebed3f200c55a83c771ba3f", "fusion_lon": 0.0}, {"is_reserved": 0, "type": "electric_scooter", "bike_id": "866a6cad3df7600036bf84787051959f", "lat": 38.901793833333336, "lon": -76.93004966666666, "rental_uris": {"android": "https://dc.lft.to/lastmile_qr_scan", "ios": "https://dc.lft.to/lastmile_qr_scan"}, "is_disabled": 0, "fusion_lat": 0.0, "name": "866a6cad3df7600036bf84787051959f", "fusion_lon": 0.0}, {"is_reserved": 0, "type": "electric_scooter", "bike_id": "7e030785d4cd9739a5509538958cc490", "lat": 38.919766833333334, "lon": -77.04142683333333, "rental_uris": {"android": "https://dc.lft.to/lastmile_qr_scan", "ios": "https://dc.lft.to/lastmile_qr_scan"}, "is_disabled": 0, "fusion_lat": 0.0, "name": "7e030785d4cd9739a5509538958cc490", "fusion_lon": 0.0}, {"is_reserved": 0, "type": "electric_bike", "bike_id": "ff27eaed166d713ec76f8b0ab3434a57", "lat": 38.905719, "lon": -77.05709333333333, "rental_uris": {"android": "https://dc.lft.to/lastmile_qr_scan", "ios": "https://dc.lft.to/lastmile_qr_scan"}, "is_disabled": 0, "fusion_lat": 0.0, "name": "ff27eaed166d713ec76f8b0ab3434a57", "fusion_lon": 0.0}, {"is_reserved": 0, "type": "electric_scooter", "bike_id": "bdba849ba032235c162aec4d3ad7443c", "lat": 38.9279445, "lon": -77.025351, "rental_uris": {"android": "https://dc.lft.to/lastmile_qr_scan", "ios": "https://dc.lft.to/lastmile_qr_scan"}, "is_disabled": 0, "fusion_lat": 0.0, "name": "bdba849ba032235c162aec4d3ad7443c", "fusion_lon": 0.0}, {"is_reserved": 0, "type": "electric_bike", "bike_id": "83e54b73b1653cf31443351aa430ff6d", "lat": 38.922400833333334, "lon": -77.03068916666666, "rental_uris": {"android": "https://dc.lft.to/lastmile_qr_scan", "ios": "https://dc.lft.to/lastmile_qr_scan"}, "is_disabled": 0, "fusion_lat": 0.0, "name": "83e54b73b1653cf31443351aa430ff6d", "fusion_lon": 0.0}, {"is_reserved": 0, "type": "electric_scooter", "bike_id": "30b57c427234d9c6bc6eec0083d4acbb", "lat": 38.920438833333336, "lon": -77.041871, "rental_uris": {"android": "https://dc.lft.to/lastmile_qr_scan", "ios": "https://dc.lft.to/lastmile_qr_scan"}, "is_disabled": 0, "fusion_lat": 0.0, "name": "30b57c427234d9c6bc6eec0083d4acbb", "fusion_lon": 0.0}, {"is_reserved": 0, "type": "electric_scooter", "bike_id": "ce53accb0f8af1c6648e3cdff7a1058f", "lat": 38.872871833333335, "lon": -77.00229783333333, "rental_uris": {"android": "https://dc.lft.to/lastmile_qr_scan", "ios": "https://dc.lft.to/lastmile_qr_scan"}, "is_disabled": 0, "fusion_lat": 0.0, "name": "ce53accb0f8af1c6648e3cdff7a1058f", "fusion_lon": 0.0}, {"is_reserved": 0, "type": "electric_scooter", "bike_id": "a57ed8c539ba75e90797a313ce0a7408", "lat": 38.926198666666664, "lon": -77.03540483333333, "rental_uris": {"android": "https://dc.lft.to/lastmile_qr_scan", "ios": "https://dc.lft.to/lastmile_qr_scan"}, "is_disabled": 0, "fusion_lat": 0.0, "name": "a57ed8c539ba75e90797a313ce0a7408", "fusion_lon": 0.0}, {"is_reserved": 0, "type": "electric_scooter", "bike_id": "d07850e43ed1c4ce46ffe38161ee7eb5", "lat": 38.9015985, "lon": -77.03207633333334, "rental_uris": {"android": "https://dc.lft.to/lastmile_qr_scan", "ios": "https://dc.lft.to/lastmile_qr_scan"}, "is_disabled": 0, "fusion_lat": 0.0, "name": "d07850e43ed1c4ce46ffe38161ee7eb5", "fusion_lon": 0.0}, {"is_reserved": 0, "type": "electric_scooter", "bike_id": "1ffbfca913bf0b11dab534137949382f", "lat": 38.893542333333336, "lon": -77.0222325, "rental_uris": {"android": "https://dc.lft.to/lastmile_qr_scan", "ios": "https://dc.lft.to/lastmile_qr_scan"}, "is_disabled": 0, "fusion_lat": 0.0, "name": "1ffbfca913bf0b11dab534137949382f", "fusion_lon": 0.0}, {"is_reserved": 0, "type": "electric_bike", "bike_id": "1ddb92df5f6aff6c350e1332e8285396", "lat": 38.839290166666665, "lon": -77.07905133333334, "rental_uris": {"android": "https://dc.lft.to/lastmile_qr_scan", "ios": "https://dc.lft.to/lastmile_qr_scan"}, "is_disabled": 0, "fusion_lat": 0.0, "name": "1ddb92df5f6aff6c350e1332e8285396", "fusion_lon": 0.0}, {"is_reserved": 0, "type": "electric_scooter", "bike_id": "f3ee1562fdcf561f38131f80a8541512", "lat": 38.928300166666666, "lon": -77.05421066666666, "rental_uris": {"android": "https://dc.lft.to/lastmile_qr_scan", "ios": "https://dc.lft.to/lastmile_qr_scan"}, "is_disabled": 0, "fusion_lat": 0.0, "name": "f3ee1562fdcf561f38131f80a8541512", "fusion_lon": 0.0}, {"is_reserved": 0, "type": "electric_scooter", "bike_id": "26063e173ec7d67e33ce541b6d043e12", "lat": 38.90163166666667, "lon": -77.02468483333334, "rental_uris": {"android": "https://dc.lft.to/lastmile_qr_scan", "ios": "https://dc.lft.to/lastmile_qr_scan"}, "is_disabled": 0, "fusion_lat": 0.0, "name": "26063e173ec7d67e33ce541b6d043e12", "fusion_lon": 0.0}, {"is_reserved": 0, "type": "electric_scooter", "bike_id": "806629bff168bc888c5c175cb84c6e91", "lat": 38.923655833333335, "lon": -77.0195345, "rental_uris": {"android": "https://dc.lft.to/lastmile_qr_scan", "ios": "https://dc.lft.to/lastmile_qr_scan"}, "is_disabled": 0, "fusion_lat": 0.0, "name": "806629bff168bc888c5c175cb84c6e91", "fusion_lon": 0.0}, {"is_reserved": 0, "type": "electric_scooter", "bike_id": "1350412f8b823e26d1beda4681c9ac86", "lat": 38.92045666666667, "lon": -77.0419905, "rental_uris": {"android": "https://dc.lft.to/lastmile_qr_scan", "ios": "https://dc.lft.to/lastmile_qr_scan"}, "is_disabled": 0, "fusion_lat": 0.0, "name": "1350412f8b823e26d1beda4681c9ac86", "fusion_lon": 0.0}, {"is_reserved": 0, "type": "electric_scooter", "bike_id": "a6e2504313d6dd49a3b6988ce135d45b", "lat": 38.88513066666667, "lon": -76.99673266666667, "rental_uris": {"android": "https://dc.lft.to/lastmile_qr_scan", "ios": "https://dc.lft.to/lastmile_qr_scan"}, "is_disabled": 0, "fusion_lat": 0.0, "name": "a6e2504313d6dd49a3b6988ce135d45b", "fusion_lon": 0.0}, {"is_reserved": 0, "type": "electric_scooter", "bike_id": "7fc76645c4df7de3f70c40ae82da324e", "lat": 38.98226366666667, "lon": -77.02643616666667, "rental_uris": {"android": "https://dc.lft.to/lastmile_qr_scan", "ios": "https://dc.lft.to/lastmile_qr_scan"}, "is_disabled": 0, "fusion_lat": 0.0, "name": "7fc76645c4df7de3f70c40ae82da324e", "fusion_lon": 0.0}, {"is_reserved": 0, "type": "electric_scooter", "bike_id": "88bbe98f542389fb186d6be04f3e4f55", "lat": 38.90146416666666, "lon": -77.02587816666667, "rental_uris": {"android": "https://dc.lft.to/lastmile_qr_scan", "ios": "https://dc.lft.to/lastmile_qr_scan"}, "is_disabled": 0, "fusion_lat": 0.0, "name": "88bbe98f542389fb186d6be04f3e4f55", "fusion_lon": 0.0}, {"is_reserved": 0, "type": "electric_scooter", "bike_id": "00092c15c6d972377debc628eb6ddada", "lat": 38.90013616666667, "lon": -76.9935065, "rental_uris": {"android": "https://dc.lft.to/lastmile_qr_scan", "ios": "https://dc.lft.to/lastmile_qr_scan"}, "is_disabled": 0, "fusion_lat": 0.0, "name": "00092c15c6d972377debc628eb6ddada", "fusion_lon": 0.0}, {"is_reserved": 0, "type": "electric_scooter", "bike_id": "469f7e86bbaa7935f71308ef0668c64c", "lat": 38.925935, "lon": -77.02152783333334, "rental_uris": {"android": "https://dc.lft.to/lastmile_qr_scan", "ios": "https://dc.lft.to/lastmile_qr_scan"}, "is_disabled": 0, "fusion_lat": 0.0, "name": "469f7e86bbaa7935f71308ef0668c64c", "fusion_lon": 0.0}, {"is_reserved": 0, "type": "electric_scooter", "bike_id": "1515c171dfe77574c21458fee8f998f7", "lat": 38.88748833333333, "lon": -77.031773, "rental_uris": {"android": "https://dc.lft.to/lastmile_qr_scan", "ios": "https://dc.lft.to/lastmile_qr_scan"}, "is_disabled": 0, "fusion_lat": 0.0, "name": "1515c171dfe77574c21458fee8f998f7", "fusion_lon": 0.0}, {"is_reserved": 0, "type": "electric_scooter", "bike_id": "68528670a1d1fec5a3b55a89619d831c", "lat": 38.9359445, "lon": -77.03369233333333, "rental_uris": {"android": "https://dc.lft.to/lastmile_qr_scan", "ios": "https://dc.lft.to/lastmile_qr_scan"}, "is_disabled": 0, "fusion_lat": 0.0, "name": "68528670a1d1fec5a3b55a89619d831c", "fusion_lon": 0.0}, {"is_reserved": 0, "type": "electric_bike", "bike_id": "e83a817b4ad60ac32b6dfc3843028ab2", "lat": 38.97316983333333, "lon": -76.994762, "rental_uris": {"android": "https://dc.lft.to/lastmile_qr_scan", "ios": "https://dc.lft.to/lastmile_qr_scan"}, "is_disabled": 0, "fusion_lat": 0.0, "name": "e83a817b4ad60ac32b6dfc3843028ab2", "fusion_lon": 0.0}, {"is_reserved": 0, "type": "electric_scooter", "bike_id": "37c1824d3df617edb910e6459189f76a", "lat": 38.914751833333334, "lon": -77.03185016666667, "rental_uris": {"android": "https://dc.lft.to/lastmile_qr_scan", "ios": "https://dc.lft.to/lastmile_qr_scan"}, "is_disabled": 0, "fusion_lat": 0.0, "name": "37c1824d3df617edb910e6459189f76a", "fusion_lon": 0.0}, {"is_reserved": 0, "type": "electric_scooter", "bike_id": "35e31c226125baaf98d5c77148e5dfd6", "lat": 38.89624583333333, "lon": -77.03217333333333, "rental_uris": {"android": "https://dc.lft.to/lastmile_qr_scan", "ios": "https://dc.lft.to/lastmile_qr_scan"}, "is_disabled": 0, "fusion_lat": 0.0, "name": "35e31c226125baaf98d5c77148e5dfd6", "fusion_lon": 0.0}, {"is_reserved": 0, "type": "electric_scooter", "bike_id": "9c4766771c6e96b66725422882dba5a5", "lat": 38.91413566666667, "lon": -77.02246516666666, "rental_uris": {"android": "https://dc.lft.to/lastmile_qr_scan", "ios": "https://dc.lft.to/lastmile_qr_scan"}, "is_disabled": 0, "fusion_lat": 0.0, "name": "9c4766771c6e96b66725422882dba5a5", "fusion_lon": 0.0}, {"is_reserved": 0, "type": "electric_scooter", "bike_id": "2a8f4000cc393a2009b4cc5f803e52c3", "lat": 38.90115816666667, "lon": -77.03365566666666, "rental_uris": {"android": "https://dc.lft.to/lastmile_qr_scan", "ios": "https://dc.lft.to/lastmile_qr_scan"}, "is_disabled": 0, "fusion_lat": 0.0, "name": "2a8f4000cc393a2009b4cc5f803e52c3", "fusion_lon": 0.0}, {"is_reserved": 0, "type": "electric_scooter", "bike_id": "341329a537a2efa1c89dec6351483e69", "lat": 38.919206, "lon": -77.04917766666667, "rental_uris": {"android": "https://dc.lft.to/lastmile_qr_scan", "ios": "https://dc.lft.to/lastmile_qr_scan"}, "is_disabled": 0, "fusion_lat": 0.0, "name": "341329a537a2efa1c89dec6351483e69", "fusion_lon": 0.0}, {"is_reserved": 0, "type": "electric_scooter", "bike_id": "7110c21758b5f89d3de104795577dd98", "lat": 38.89911883333333, "lon": -76.979999, "rental_uris": {"android": "https://dc.lft.to/lastmile_qr_scan", "ios": "https://dc.lft.to/lastmile_qr_scan"}, "is_disabled": 0, "fusion_lat": 0.0, "name": "7110c21758b5f89d3de104795577dd98", "fusion_lon": 0.0}, {"is_reserved": 0, "type": "electric_scooter", "bike_id": "9369c9929631b37a7cadd3700d78ca47", "lat": 38.90689233333333, "lon": -77.03467283333333, "rental_uris": {"android": "https://dc.lft.to/lastmile_qr_scan", "ios": "https://dc.lft.to/lastmile_qr_scan"}, "is_disabled": 0, "fusion_lat": 0.0, "name": "9369c9929631b37a7cadd3700d78ca47", "fusion_lon": 0.0}, {"is_reserved": 0, "type": "electric_bike", "bike_id": "d2082dbdefc31f13ccb89765d78acd58", "lat": 38.783917, "lon": -77.12069266666667, "rental_uris": {"android": "https://dc.lft.to/lastmile_qr_scan", "ios": "https://dc.lft.to/lastmile_qr_scan"}, "is_disabled": 0, "fusion_lat": 0.0, "name": "d2082dbdefc31f13ccb89765d78acd58", "fusion_lon": 0.0}, {"is_reserved": 0, "type": "electric_scooter", "bike_id": "e2be9b637a11de9c27f941ae92259f8b", "lat": 38.933182333333335, "lon": -77.032345, "rental_uris": {"android": "https://dc.lft.to/lastmile_qr_scan", "ios": "https://dc.lft.to/lastmile_qr_scan"}, "is_disabled": 0, "fusion_lat": 0.0, "name": "e2be9b637a11de9c27f941ae92259f8b", "fusion_lon": 0.0}, {"is_reserved": 0, "type": "electric_scooter", "bike_id": "392a230eee93c71980d9e50943a3b81c", "lat": 38.92827616666667, "lon": -77.026127, "rental_uris": {"android": "https://dc.lft.to/lastmile_qr_scan", "ios": "https://dc.lft.to/lastmile_qr_scan"}, "is_disabled": 0, "fusion_lat": 0.0, "name": "392a230eee93c71980d9e50943a3b81c", "fusion_lon": 0.0}, {"is_reserved": 0, "type": "electric_scooter", "bike_id": "119e38343ccec3b7559b3050fe74992b", "lat": 38.903756, "lon": -77.03151266666667, "rental_uris": {"android": "https://dc.lft.to/lastmile_qr_scan", "ios": "https://dc.lft.to/lastmile_qr_scan"}, "is_disabled": 0, "fusion_lat": 0.0, "name": "119e38343ccec3b7559b3050fe74992b", "fusion_lon": 0.0}, {"is_reserved": 0, "type": "electric_scooter", "bike_id": "7a98d821928024cb5bf280b8d3f37f3f", "lat": 38.88320916666667, "lon": -77.00951383333333, "rental_uris": {"android": "https://dc.lft.to/lastmile_qr_scan", "ios": "https://dc.lft.to/lastmile_qr_scan"}, "is_disabled": 0, "fusion_lat": 0.0, "name": "7a98d821928024cb5bf280b8d3f37f3f", "fusion_lon": 0.0}, {"is_reserved": 0, "type": "electric_bike", "bike_id": "b27db115cfdf52daa512f8c3edc35f3b", "lat": 38.884076666666665, "lon": -76.96060616666666, "rental_uris": {"android": "https://dc.lft.to/lastmile_qr_scan", "ios": "https://dc.lft.to/lastmile_qr_scan"}, "is_disabled": 0, "fusion_lat": 0.0, "name": "b27db115cfdf52daa512f8c3edc35f3b", "fusion_lon": 0.0}, {"is_reserved": 0, "type": "electric_scooter", "bike_id": "abedc057f57a8f8d13bfef8c3c7c166e", "lat": 38.9640715, "lon": -77.03278033333333, "rental_uris": {"android": "https://dc.lft.to/lastmile_qr_scan", "ios": "https://dc.lft.to/lastmile_qr_scan"}, "is_disabled": 0, "fusion_lat": 0.0, "name": "abedc057f57a8f8d13bfef8c3c7c166e", "fusion_lon": 0.0}, {"is_reserved": 0, "type": "electric_scooter", "bike_id": "05c85c922edc64a366c46d4ba1de70ce", "lat": 38.923608, "lon": -77.05126466666667, "rental_uris": {"android": "https://dc.lft.to/lastmile_qr_scan", "ios": "https://dc.lft.to/lastmile_qr_scan"}, "is_disabled": 0, "fusion_lat": 0.0, "name": "05c85c922edc64a366c46d4ba1de70ce", "fusion_lon": 0.0}, {"is_reserved": 0, "type": "electric_scooter", "bike_id": "54833a4264146459dc3e15ed1dfb88e9", "lat": 38.903612833333334, "lon": -76.99953633333334, "rental_uris": {"android": "https://dc.lft.to/lastmile_qr_scan", "ios": "https://dc.lft.to/lastmile_qr_scan"}, "is_disabled": 0, "fusion_lat": 0.0, "name": "54833a4264146459dc3e15ed1dfb88e9", "fusion_lon": 0.0}, {"is_reserved": 0, "type": "electric_scooter", "bike_id": "62c9817f2c5e4e451fd00104b008264d", "lat": 38.915773333333334, "lon": -77.012315, "rental_uris": {"android": "https://dc.lft.to/lastmile_qr_scan", "ios": "https://dc.lft.to/lastmile_qr_scan"}, "is_disabled": 0, "fusion_lat": 0.0, "name": "62c9817f2c5e4e451fd00104b008264d", "fusion_lon": 0.0}, {"is_reserved": 0, "type": "electric_scooter", "bike_id": "3217a96d5af628dfceacf841a6024a77", "lat": 38.90144216666667, "lon": -77.038813, "rental_uris": {"android": "https://dc.lft.to/lastmile_qr_scan", "ios": "https://dc.lft.to/lastmile_qr_scan"}, "is_disabled": 0, "fusion_lat": 0.0, "name": "3217a96d5af628dfceacf841a6024a77", "fusion_lon": 0.0}, {"is_reserved": 0, "type": "electric_scooter", "bike_id": "3abe086ca709d51d047607946c04fbac", "lat": 38.907155333333336, "lon": -76.998242, "rental_uris": {"android": "https://dc.lft.to/lastmile_qr_scan", "ios": "https://dc.lft.to/lastmile_qr_scan"}, "is_disabled": 0, "fusion_lat": 0.0, "name": "3abe086ca709d51d047607946c04fbac", "fusion_lon": 0.0}, {"is_reserved": 0, "type": "electric_scooter", "bike_id": "0e296d0fff64fdd2a0b863da3c08b5d7", "lat": 38.916914, "lon": -77.041114, "rental_uris": {"android": "https://dc.lft.to/lastmile_qr_scan", "ios": "https://dc.lft.to/lastmile_qr_scan"}, "is_disabled": 0, "fusion_lat": 0.0, "name": "0e296d0fff64fdd2a0b863da3c08b5d7", "fusion_lon": 0.0}, {"is_reserved": 0, "type": "electric_scooter", "bike_id": "8d604a1a6d364da14b5ffce185f02665", "lat": 38.852202, "lon": -76.99424583333334, "rental_uris": {"android": "https://dc.lft.to/lastmile_qr_scan", "ios": "https://dc.lft.to/lastmile_qr_scan"}, "is_disabled": 0, "fusion_lat": 0.0, "name": "8d604a1a6d364da14b5ffce185f02665", "fusion_lon": 0.0}, {"is_reserved": 0, "type": "electric_scooter", "bike_id": "e8f719164fe490ca837a86f66be25b31", "lat": 38.9191545, "lon": -77.0459235, "rental_uris": {"android": "https://dc.lft.to/lastmile_qr_scan", "ios": "https://dc.lft.to/lastmile_qr_scan"}, "is_disabled": 0, "fusion_lat": 0.0, "name": "e8f719164fe490ca837a86f66be25b31", "fusion_lon": 0.0}, {"is_reserved": 0, "type": "electric_scooter", "bike_id": "a92d0fceb842f0899476167adbe5a509", "lat": 38.946606, "lon": -77.03280866666667, "rental_uris": {"android": "https://dc.lft.to/lastmile_qr_scan", "ios": "https://dc.lft.to/lastmile_qr_scan"}, "is_disabled": 0, "fusion_lat": 0.0, "name": "a92d0fceb842f0899476167adbe5a509", "fusion_lon": 0.0}, {"is_reserved": 0, "type": "electric_scooter", "bike_id": "fe18cc44859d951c2b481d2580463a68", "lat": 38.874653, "lon": -77.00560933333334, "rental_uris": {"android": "https://dc.lft.to/lastmile_qr_scan", "ios": "https://dc.lft.to/lastmile_qr_scan"}, "is_disabled": 0, "fusion_lat": 0.0, "name": "fe18cc44859d951c2b481d2580463a68", "fusion_lon": 0.0}, {"is_reserved": 0, "type": "electric_scooter", "bike_id": "c2b95251d028e2ec4fa27c6b3c85a55a", "lat": 38.89909166666666, "lon": -76.93363083333334, "rental_uris": {"android": "https://dc.lft.to/lastmile_qr_scan", "ios": "https://dc.lft.to/lastmile_qr_scan"}, "is_disabled": 0, "fusion_lat": 0.0, "name": "c2b95251d028e2ec4fa27c6b3c85a55a", "fusion_lon": 0.0}, {"is_reserved": 0, "type": "electric_scooter", "bike_id": "d53e3263cd77bbca773389305227bb85", "lat": 38.902806166666664, "lon": -77.00218583333333, "rental_uris": {"android": "https://dc.lft.to/lastmile_qr_scan", "ios": "https://dc.lft.to/lastmile_qr_scan"}, "is_disabled": 0, "fusion_lat": 0.0, "name": "d53e3263cd77bbca773389305227bb85", "fusion_lon": 0.0}, {"is_reserved": 0, "type": "electric_scooter", "bike_id": "1101e255136ed813bad172dca7171a4b", "lat": 38.9388425, "lon": -77.032642, "rental_uris": {"android": "https://dc.lft.to/lastmile_qr_scan", "ios": "https://dc.lft.to/lastmile_qr_scan"}, "is_disabled": 0, "fusion_lat": 0.0, "name": "1101e255136ed813bad172dca7171a4b", "fusion_lon": 0.0}, {"is_reserved": 0, "type": "electric_scooter", "bike_id": "60a97e56bb326361d80b5bf3076ff046", "lat": 38.9055575, "lon": -77.03469683333333, "rental_uris": {"android": "https://dc.lft.to/lastmile_qr_scan", "ios": "https://dc.lft.to/lastmile_qr_scan"}, "is_disabled": 0, "fusion_lat": 0.0, "name": "60a97e56bb326361d80b5bf3076ff046", "fusion_lon": 0.0}, {"is_reserved": 0, "type": "electric_scooter", "bike_id": "2006d0957f9c5dcf61471c600c67f1c2", "lat": 38.90610483333333, "lon": -77.00911033333334, "rental_uris": {"android": "https://dc.lft.to/lastmile_qr_scan", "ios": "https://dc.lft.to/lastmile_qr_scan"}, "is_disabled": 0, "fusion_lat": 0.0, "name": "2006d0957f9c5dcf61471c600c67f1c2", "fusion_lon": 0.0}, {"is_reserved": 0, "type": "electric_scooter", "bike_id": "7412587cc96b9d5055ab9eba5dc2b003", "lat": 38.90482883333333, "lon": -77.02958083333333, "rental_uris": {"android": "https://dc.lft.to/lastmile_qr_scan", "ios": "https://dc.lft.to/lastmile_qr_scan"}, "is_disabled": 0, "fusion_lat": 0.0, "name": "7412587cc96b9d5055ab9eba5dc2b003", "fusion_lon": 0.0}, {"is_reserved": 0, "type": "electric_scooter", "bike_id": "95d537b2a1c95d6a4baa2df25f9b14f7", "lat": 38.9052095, "lon": -77.06217, "rental_uris": {"android": "https://dc.lft.to/lastmile_qr_scan", "ios": "https://dc.lft.to/lastmile_qr_scan"}, "is_disabled": 0, "fusion_lat": 0.0, "name": "95d537b2a1c95d6a4baa2df25f9b14f7", "fusion_lon": 0.0}, {"is_reserved": 0, "type": "electric_scooter", "bike_id": "abcd61576a6901dcf1d6179bea0bcecc", "lat": 38.923453, "lon": -77.04143, "rental_uris": {"android": "https://dc.lft.to/lastmile_qr_scan", "ios": "https://dc.lft.to/lastmile_qr_scan"}, "is_disabled": 0, "fusion_lat": 0.0, "name": "abcd61576a6901dcf1d6179bea0bcecc", "fusion_lon": 0.0}, {"is_reserved": 0, "type": "electric_scooter", "bike_id": "4fd04ce8b583f8c56acacd560376b144", "lat": 38.893379, "lon": -76.99384816666667, "rental_uris": {"android": "https://dc.lft.to/lastmile_qr_scan", "ios": "https://dc.lft.to/lastmile_qr_scan"}, "is_disabled": 0, "fusion_lat": 0.0, "name": "4fd04ce8b583f8c56acacd560376b144", "fusion_lon": 0.0}, {"is_reserved": 0, "type": "electric_scooter", "bike_id": "b27fec0b560c2202b3ccee74533de21f", "lat": 38.90239583333333, "lon": -77.03555666666666, "rental_uris": {"android": "https://dc.lft.to/lastmile_qr_scan", "ios": "https://dc.lft.to/lastmile_qr_scan"}, "is_disabled": 0, "fusion_lat": 0.0, "name": "b27fec0b560c2202b3ccee74533de21f", "fusion_lon": 0.0},