{"data": {"bikes": [{"rental_uris": {"ios": "https://dc.lft.to/lastmile_qr_scan", "android": "https://dc.lft.to/lastmile_qr_scan"}, "lon": -76.99879583333333, "type": "electric_scooter", "fusion_lat": 0.0, "lat": 38.90751933333333, "name": "ea2ed7b9255c412db0c9201c9d08f4bf", "fusion_lon": 0.0, "bike_id": "ea2ed7b9255c412db0c9201c9d08f4bf", "is_disabled": 0, "is_reserved": 0}, {"rental_uris": {"ios": "https://dc.lft.to/lastmile_qr_scan", "android": "https://dc.lft.to/lastmile_qr_scan"}, "lon": -77.0284485, "type": "electric_scooter", "fusion_lat": 0.0, "lat": 38.94268433333333, "name": "c0c650c4fb471e4fa33d03a3b38f17d6", "fusion_lon": 0.0, "bike_id": "c0c650c4fb471e4fa33d03a3b38f17d6", "is_disabled": 0, "is_reserved": 0}, {"rental_uris": {"ios": "https://dc.lft.to/lastmile_qr_scan", "android": "https://dc.lft.to/lastmile_qr_scan"}, "lon": -77.041694, "type": "electric_scooter", "fusion_lat": 0.0, "lat": 38.90844583333333, "name": "3d9555a9e2fccdd65c4e88e3e857624b", "fusion_lon": 0.0, "bike_id": "3d9555a9e2fccdd65c4e88e3e857624b", "is_disabled": 0, "is_reserved": 0}, {"rental_uris": {"ios": "https://dc.lft.to/lastmile_qr_scan", "android": "https://dc.lft.to/lastmile_qr_scan"}, "lon": -77.35301416666667, "type": "electric_bike", "fusion_lat": 0.0, "lat": 38.95002683333333, "name": "6e392e1b7fbc59b66050a7a1f9382a13", "fusion_lon": 0.0, "bike_id": "6e392e1b7fbc59b66050a7a1f9382a13", "is_disabled": 0, "is_reserved": 0}, {"rental_uris": {"ios": "https://dc.lft.to/lastmile_qr_scan", "android": "https://dc.lft.to/lastmile_qr_scan"}, "lon": -76.99488333333333, "type": "electric_scooter", "fusion_lat": 0.0, "lat": 38.862428333333334, "name": "e76584e51582d4cbf1caefbb06586b1a", "fusion_lon": 0.0, "bike_id": "e76584e51582d4cbf1caefbb06586b1a", "is_disabled": 0, "is_reserved": 0}, {"rental_uris": {"ios": "https://dc.lft.to/lastmile_qr_scan", "android": "https://dc.lft.to/lastmile_qr_scan"}, "lon": -77.00576566666666, "type": "electric_scooter", "fusion_lat": 0.0, "lat": 38.886047833333336, "name": "b034728c82032bba8e0016fe9fd478be", "fusion_lon": 0.0, "bike_id": "b034728c82032bba8e0016fe9fd478be", "is_disabled": 0, "is_reserved": 0}, {"rental_uris": {"ios": "https://dc.lft.to/lastmile_qr_scan", "android": "https://dc.lft.to/lastmile_qr_scan"}, "lon": -76.93171166666667, "type": "electric_scooter", "fusion_lat": 0.0, "lat": 38.898855833333336, "name": "e3c48e49989e6b93959736dcbce3826b", "fusion_lon": 0.0, "bike_id": "e3c48e49989e6b93959736dcbce3826b", "is_disabled": 0, "is_reserved": 0}, {"rental_uris": {"ios": "https://dc.lft.to/lastmile_qr_scan", "android": "https://dc.lft.to/lastmile_qr_scan"}, "lon": -77.02973683333333, "type": "electric_scooter", "fusion_lat": 0.0, "lat": 38.906113500000004, "name": "d2fc55f86f228420c583f69bed67aff2", "fusion_lon": 0.0, "bike_id": "d2fc55f86f228420c583f69bed67aff2", "is_disabled": 0, "is_reserved": 0}, {"rental_uris": {"ios": "https://dc.lft.to/lastmile_qr_scan", "android": "https://dc.lft.to/lastmile_qr_scan"}, "lon": -77.03176516666667, "type": "electric_scooter", "fusion_lat": 0.0, "lat": 38.919194833333336, "name": "06c3a1ace83fd46d8c466f76ec77f362", "fusion_lon": 0.0, "bike_id": "06c3a1ace83fd46d8c466f76ec77f362", "is_disabled": 0, "is_reserved": 0}, {"rental_uris": {"ios": "https://dc.lft.to/lastmile_qr_scan", "android": "https://dc.lft.to/lastmile_qr_scan"}, "lon": -76.94996616666667, "type": "electric_scooter", "fusion_lat": 0.0, "lat": 38.89370516666666, "name": "b5d9e09d9503b64689a8c8a42c3c2a6b", "fusion_lon": 0.0, "bike_id": "b5d9e09d9503b64689a8c8a42c3c2a6b", "is_disabled": 0, "is_reserved": 0}, {"rental_uris": {"ios": "https://dc.lft.to/lastmile_qr_scan", "android": "https://dc.lft.to/lastmile_qr_scan"}, "lon": -76.99691033333333, "type": "electric_scooter", "fusion_lat": 0.0, "lat": 38.90066016666667, "name": "20c28399c8f25c8d7705b3c1c77fe88f", "fusion_lon": 0.0, "bike_id": "20c28399c8f25c8d7705b3c1c77fe88f", "is_disabled": 0, "is_reserved": 0}, {"rental_uris": {"ios": "https://dc.lft.to/lastmile_qr_scan", "android": "https://dc.lft.to/lastmile_qr_scan"}, "lon": -76.94213783333333, "type": "electric_scooter", "fusion_lat": 0.0, "lat": 38.896840833333336, "name": "90badd42eb46b406653b55e03f0c7fbb", "fusion_lon": 0.0, "bike_id": "90badd42eb46b406653b55e03f0c7fbb", "is_disabled": 0, "is_reserved": 0}, {"rental_uris": {"ios": "https://dc.lft.to/lastmile_qr_scan", "android": "https://dc.lft.to/lastmile_qr_scan"}, "lon": -77.03418816666667, "type": "electric_scooter", "fusion_lat": 0.0, "lat": 38.919225, "name": "6c55d5b7efa40f92559d1a922671dc8f", "fusion_lon": 0.0, "bike_id": "6c55d5b7efa40f92559d1a922671dc8f", "is_disabled": 0, "is_reserved": 0}, {"rental_uris": {"ios": "https://dc.lft.to/lastmile_qr_scan", "android": "https://dc.lft.to/lastmile_qr_scan"}, "lon": -76.99547633333333, "type": "electric_scooter", "fusion_lat": 0.0, "lat": 38.9012885, "name": "1d8e103e893f78fab39f4dec120bd4a3", "fusion_lon": 0.0, "bike_id": "1d8e103e893f78fab39f4dec120bd4a3", "is_disabled": 0, "is_reserved": 0}, {"rental_uris": {"ios": "https://dc.lft.to/lastmile_qr_scan", "android": "https://dc.lft.to/lastmile_qr_scan"}, "lon": -76.932252, "type": "electric_bike", "fusion_lat": 0.0, "lat": 38.8659465, "name": "fa5cbdb54b98e109de0eb36888d64974", "fusion_lon": 0.0, "bike_id": "fa5cbdb54b98e109de0eb36888d64974", "is_disabled": 0, "is_reserved": 0}, {"rental_uris": {"ios": "https://dc.lft.to/lastmile_qr_scan", "android": "https://dc.lft.to/lastmile_qr_scan"}, "lon": -77.04535866666667, "type": "electric_scooter", "fusion_lat": 0.0, "lat": 38.912657, "name": "1f797f54b6a15effdc6068af5f6b447f", "fusion_lon": 0.0, "bike_id": "1f797f54b6a15effdc6068af5f6b447f", "is_disabled": 0, "is_reserved": 0}, {"rental_uris": {"ios": "https://dc.lft.to/lastmile_qr_scan", "android": "https://dc.lft.to/lastmile_qr_scan"}, "lon": -77.05000833333334, "type": "electric_scooter", "fusion_lat": 0.0, "lat": 38.89227783333333, "name": "db084fdd38563c3c2e98b6b344180373", "fusion_lon": 0.0, "bike_id": "db084fdd38563c3c2e98b6b344180373", "is_disabled": 0, "is_reserved": 0}, {"rental_uris": {"ios": "https://dc.lft.to/lastmile_qr_scan", "android": "https://dc.lft.to/lastmile_qr_scan"}, "lon": -76.97293966666666, "type": "electric_scooter", "fusion_lat": 0.0, "lat": 38.9033285, "name": "fc5d18a57c5dcefa022523f1d426c156", "fusion_lon": 0.0, "bike_id": "fc5d18a57c5dcefa022523f1d426c156", "is_disabled": 0, "is_reserved": 0}, {"rental_uris": {"ios": "https://dc.lft.to/lastmile_qr_scan", "android": "https://dc.lft.to/lastmile_qr_scan"}, "lon": -77.02847383333334, "type": "electric_scooter", "fusion_lat": 0.0, "lat": 38.92377666666667, "name": "2cb8ce35ca670127cae0258da29fb5b4", "fusion_lon": 0.0, "bike_id": "2cb8ce35ca670127cae0258da29fb5b4", "is_disabled": 0, "is_reserved": 0}, {"rental_uris": {"ios": "https://dc.lft.to/lastmile_qr_scan", "android": "https://dc.lft.to/lastmile_qr_scan"}, "lon": -77.12967616666667, "type": "electric_bike", "fusion_lat": 0.0, "lat": 38.85218283333333, "name": "39ec78f96ef92cad850966a2082597c3", "fusion_lon": 0.0, "bike_id": "39ec78f96ef92cad850966a2082597c3", "is_disabled": 0, "is_reserved": 0}, {"rental_uris": {"ios": "https://dc.lft.to/lastmile_qr_scan", "android": "https://dc.lft.to/lastmile_qr_scan"}, "lon": -77.05475233333334, "type": "electric_scooter", "fusion_lat": 0.0, "lat": 38.89390383333333, "name": "29375335d98b3ca84e9b90685315a90d", "fusion_lon": 0.0, "bike_id": "29375335d98b3ca84e9b90685315a90d", "is_disabled": 0, "is_reserved": 0}, {"rental_uris": {"ios": "https://dc.lft.to/lastmile_qr_scan", "android": "https://dc.lft.to/lastmile_qr_scan"}, "lon": -77.09205566666667, "type": "electric_scooter", "fusion_lat": 0.0, "lat": 38.9413475, "name": "5ef3775297c0b0dce428576e7f7f7471", "fusion_lon": 0.0, "bike_id": "5ef3775297c0b0dce428576e7f7f7471", "is_disabled": 0, "is_reserved": 0}, {"rental_uris": {"ios": "https://dc.lft.to/lastmile_qr_scan", "android": "https://dc.lft.to/lastmile_qr_scan"}, "lon": -77.00719166666667, "type": "electric_scooter", "fusion_lat": 0.0, "lat": 38.879205166666665, "name": "967b2c6415448002ccb34a25d158c622", "fusion_lon": 0.0, "bike_id": "967b2c6415448002ccb34a25d158c622", "is_disabled": 0, "is_reserved": 0}, {"rental_uris": {"ios": "https://dc.lft.to/lastmile_qr_scan", "android": "https://dc.lft.to/lastmile_qr_scan"}, "lon": -76.9950825, "type": "electric_scooter", "fusion_lat": 0.0, "lat": 38.886002166666664, "name": "6ca02f66bfc47d19e2eb6531371fa234", "fusion_lon": 0.0, "bike_id": "6ca02f66bfc47d19e2eb6531371fa234", "is_disabled": 0, "is_reserved": 0}, {"rental_uris": {"ios": "https://dc.lft.to/lastmile_qr_scan", "android": "https://dc.lft.to/lastmile_qr_scan"}, "lon": -76.96847933333333, "type": "electric_scooter", "fusion_lat": 0.0, "lat": 38.8746525, "name": "4bf96c25904eae0a4bf2d84f189e6bc7", "fusion_lon": 0.0, "bike_id": "4bf96c25904eae0a4bf2d84f189e6bc7", "is_disabled": 0, "is_reserved": 0}, {"rental_uris": {"ios": "https://dc.lft.to/lastmile_qr_scan", "android": "https://dc.lft.to/lastmile_qr_scan"}, "lon": -77.00976083333333, "type": "electric_scooter", "fusion_lat": 0.0, "lat": 38.9192515, "name": "617fcb2ba6642a6b42749a153bcef2a7", "fusion_lon": 0.0, "bike_id": "617fcb2ba6642a6b42749a153bcef2a7", "is_disabled": 0, "is_reserved": 0}, {"rental_uris": {"ios": "https://dc.lft.to/lastmile_qr_scan", "android": "https://dc.lft.to/lastmile_qr_scan"}, "lon": -77.02183233333334, "type": "electric_scooter", "fusion_lat": 0.0, "lat": 38.9394835, "name": "df75152101a4d955f9d2c6445bf24ff4", "fusion_lon": 0.0, "bike_id": "df75152101a4d955f9d2c6445bf24ff4", "is_disabled": 0, "is_reserved": 0}, {"rental_uris": {"ios": "https://dc.lft.to/lastmile_qr_scan", "android": "https://dc.lft.to/lastmile_qr_scan"}, "lon": -77.030166, "type": "electric_scooter", "fusion_lat": 0.0, "lat": 38.91009416666667, "name": "bf737b933c734770505cc98baef3d94f", "fusion_lon": 0.0, "bike_id": "bf737b933c734770505cc98baef3d94f", "is_disabled": 0, "is_reserved": 0}, {"rental_uris": {"ios": "https://dc.lft.to/lastmile_qr_scan", "android": "https://dc.lft.to/lastmile_qr_scan"}, "lon": -77.04543933333333, "type": "electric_scooter", "fusion_lat": 0.0, "lat": 38.9340075, "name": "4f7ec5b2b09256b268a005b29ccbff4d", "fusion_lon": 0.0, "bike_id": "4f7ec5b2b09256b268a005b29ccbff4d", "is_disabled": 0, "is_reserved": 0}, {"rental_uris": {"ios": "https://dc.lft.to/lastmile_qr_scan", "android": "https://dc.lft.to/lastmile_qr_scan"}, "lon": -76.94889833333333, "type": "electric_scooter", "fusion_lat": 0.0, "lat": 38.89529533333334, "name": "33f2cab23c130b16246a34e947824540", "fusion_lon": 0.0, "bike_id": "33f2cab23c130b16246a34e947824540", "is_disabled": 0, "is_reserved": 0}, {"rental_uris": {"ios": "https://dc.lft.to/lastmile_qr_scan", "android": "https://dc.lft.to/lastmile_qr_scan"}, "lon": -77.03181766666667, "type": "electric_scooter", "fusion_lat": 0.0, "lat": 38.913177, "name": "8c0d67ed9bdb54e32a2efd15bde0d8cb", "fusion_lon": 0.0, "bike_id": "8c0d67ed9bdb54e32a2efd15bde0d8cb", "is_disabled": 0, "is_reserved": 0}, {"rental_uris": {"ios": "https://dc.lft.to/lastmile_qr_scan", "android": "https://dc.lft.to/lastmile_qr_scan"}, "lon": -77.041982, "type": "electric_scooter", "fusion_lat": 0.0, "lat": 38.9202265, "name": "9382939861f870c02c08699e87df360a", "fusion_lon": 0.0, "bike_id": "9382939861f870c02c08699e87df360a", "is_disabled": 0, "is_reserved": 0}, {"rental_uris": {"ios": "https://dc.lft.to/lastmile_qr_scan", "android": "https://dc.lft.to/lastmile_qr_scan"}, "lon": -76.98177216666667, "type": "electric_scooter", "fusion_lat": 0.0, "lat": 38.89586466666667, "name": "c60712869674426bf24e7002db63b15c", "fusion_lon": 0.0, "bike_id": "c60712869674426bf24e7002db63b15c", "is_disabled": 0, "is_reserved": 0}, {"rental_uris": {"ios": "https://dc.lft.to/lastmile_qr_scan", "android": "https://dc.lft.to/lastmile_qr_scan"}, "lon": -77.04661716666666, "type": "electric_scooter", "fusion_lat": 0.0, "lat": 38.9014435, "name": "1518e343daaa4bee66a0a53b77a9016a", "fusion_lon": 0.0, "bike_id": "1518e343daaa4bee66a0a53b77a9016a", "is_disabled": 0, "is_reserved": 0}, {"rental_uris": {"ios": "https://dc.lft.to/lastmile_qr_scan", "android": "https://dc.lft.to/lastmile_qr_scan"}, "lon": -77.03143233333333, "type": "electric_scooter", "fusion_lat": 0.0, "lat": 38.91265816666667, "name": "14a9452840f63e5d4edb8ab94609a5a9", "fusion_lon": 0.0, "bike_id": "14a9452840f63e5d4edb8ab94609a5a9", "is_disabled": 0, "is_reserved": 0}, {"rental_uris": {"ios": "https://dc.lft.to/lastmile_qr_scan", "android": "https://dc.lft.to/lastmile_qr_scan"}, "lon": -77.02952583333334, "type": "electric_scooter", "fusion_lat": 0.0, "lat": 38.91583766666667, "name": "2b20a82c518e2acb3723025b297cd83a", "fusion_lon": 0.0, "bike_id": "2b20a82c518e2acb3723025b297cd83a", "is_disabled": 0, "is_reserved": 0}, {"rental_uris": {"ios": "https://dc.lft.to/lastmile_qr_scan", "android": "https://dc.lft.to/lastmile_qr_scan"}, "lon": -77.01874266666667, "type": "electric_scooter", "fusion_lat": 0.0, "lat": 38.88747883333333, "name": "e33d6e28685249b2ad142483e8d23f80", "fusion_lon": 0.0, "bike_id": "e33d6e28685249b2ad142483e8d23f80", "is_disabled": 0, "is_reserved": 0}, {"rental_uris": {"ios": "https://dc.lft.to/lastmile_qr_scan", "android": "https://dc.lft.to/lastmile_qr_scan"}, "lon": -77.0446265, "type": "electric_scooter", "fusion_lat": 0.0, "lat": 38.90873233333333, "name": "fdedf9432d8fc7d00ab7cd6dae792a99", "fusion_lon": 0.0, "bike_id": "fdedf9432d8fc7d00ab7cd6dae792a99", "is_disabled": 0, "is_reserved": 0}, {"rental_uris": {"ios": "https://dc.lft.to/lastmile_qr_scan", "android": "https://dc.lft.to/lastmile_qr_scan"}, "lon": -76.98267766666666, "type": "electric_scooter", "fusion_lat": 0.0, "lat": 38.9087415, "name": "d09cdeca6900f3e625671b272d41bea8", "fusion_lon": 0.0, "bike_id": "d09cdeca6900f3e625671b272d41bea8", "is_disabled": 0, "is_reserved": 0}, {"rental_uris": {"ios": "https://dc.lft.to/lastmile_qr_scan", "android": "https://dc.lft.to/lastmile_qr_scan"}, "lon": -76.90971883333333, "type": "electric_bike", "fusion_lat": 0.0, "lat": 38.854246333333336, "name": "5290b7d181ae969de982faba03819e9f", "fusion_lon": 0.0, "bike_id": "5290b7d181ae969de982faba03819e9f", "is_disabled": 0, "is_reserved": 0}, {"rental_uris": {"ios": "https://dc.lft.to/lastmile_qr_scan", "android": "https://dc.lft.to/lastmile_qr_scan"}, "lon": -77.041611, "type": "electric_scooter", "fusion_lat": 0.0, "lat": 38.909881, "name": "cd6d455476a0df77d1213e7900c9077e", "fusion_lon": 0.0, "bike_id": "cd6d455476a0df77d1213e7900c9077e", "is_disabled": 0, "is_reserved": 0}, {"rental_uris": {"ios": "https://dc.lft.to/lastmile_qr_scan", "android": "https://dc.lft.to/lastmile_qr_scan"}, "lon": -77.05119416666666, "type": "electric_bike", "fusion_lat": 0.0, "lat": 38.999664333333335, "name": "09c5a30f402c26288fafd1139d58a21a", "fusion_lon": 0.0, "bike_id": "09c5a30f402c26288fafd1139d58a21a", "is_disabled": 0, "is_reserved": 0}, {"rental_uris": {"ios": "https://dc.lft.to/lastmile_qr_scan", "android": "https://dc.lft.to/lastmile_qr_scan"}, "lon": -76.98610883333333, "type": "electric_bike", "fusion_lat": 0.0, "lat": 38.906316833333335, "name": "4bfaa93d66b1fdd25aadb25817e03641", "fusion_lon": 0.0, "bike_id": "4bfaa93d66b1fdd25aadb25817e03641", "is_disabled": 0, "is_reserved": 0}, {"rental_uris": {"ios": "https://dc.lft.to/lastmile_qr_scan", "android": "https://dc.lft.to/lastmile_qr_scan"}, "lon": -77.03286716666666, "type": "electric_scooter", "fusion_lat": 0.0, "lat": 38.917120833333335, "name": "642157b7c4c659bca9d292977dbf6d19", "fusion_lon": 0.0, "bike_id": "642157b7c4c659bca9d292977dbf6d19", "is_disabled": 0, "is_reserved": 0}, {"rental_uris": {"ios": "https://dc.lft.to/lastmile_qr_scan", "android": "https://dc.lft.to/lastmile_qr_scan"}, "lon": -76.98881233333333, "type": "electric_scooter", "fusion_lat": 0.0, "lat": 38.866623833333335, "name": "09191aff16abebd22f7163c82c3da1e9", "fusion_lon": 0.0, "bike_id": "09191aff16abebd22f7163c82c3da1e9", "is_disabled": 0, "is_reserved": 0}, {"rental_uris": {"ios": "https://dc.lft.to/lastmile_qr_scan", "android": "https://dc.lft.to/lastmile_qr_scan"}, "lon": -77.02194633333333, "type": "electric_scooter", "fusion_lat": 0.0, "lat": 38.8963005, "name": "ec665f6fae183a7e3e9f971a31075435", "fusion_lon": 0.0, "bike_id": "ec665f6fae183a7e3e9f971a31075435", "is_disabled": 0, "is_reserved": 0}, {"rental_uris": {"ios": "https://dc.lft.to/lastmile_qr_scan", "android": "https://dc.lft.to/lastmile_qr_scan"}, "lon": -76.9630355, "type": "electric_bike", "fusion_lat": 0.0, "lat": 38.9270695, "name": "86c1b1e49e9ee3e1b4f969f8a8a803fa", "fusion_lon": 0.0, "bike_id": "86c1b1e49e9ee3e1b4f969f8a8a803fa", "is_disabled": 0, "is_reserved": 0}, {"rental_uris": {"ios": "https://dc.lft.to/lastmile_qr_scan", "android": "https://dc.lft.to/lastmile_qr_scan"}, "lon": -77.011884, "type": "electric_scooter", "fusion_lat": 0.0, "lat": 38.900291833333334, "name": "aba48ae2864cc04bfd85819625f34828", "fusion_lon": 0.0, "bike_id": "aba48ae2864cc04bfd85819625f34828", "is_disabled": 0, "is_reserved": 0}, {"rental_uris": {"ios": "https://dc.lft.to/lastmile_qr_scan", "android": "https://dc.lft.to/lastmile_qr_scan"}, "lon": -77.01933233333334, "type": "electric_scooter", "fusion_lat": 0.0, "lat": 38.90865, "name": "bd7b98ceae60c156680ea8b7109ace6c", "fusion_lon": 0.0, "bike_id": "bd7b98ceae60c156680ea8b7109ace6c", "is_disabled": 0, "is_reserved": 0}, {"rental_uris": {"ios": "https://dc.lft.to/lastmile_qr_scan", "android": "https://dc.lft.to/lastmile_qr_scan"}, "lon": -77.0020605, "type": "electric_scooter", "fusion_lat": 0.0, "lat": 38.90019616666667, "name": "e2545b3d87b84507ab19ffba203d236b", "fusion_lon": 0.0, "bike_id": "e2545b3d87b84507ab19ffba203d236b", "is_disabled": 0, "is_reserved": 0}, {"rental_uris": {"ios": "https://dc.lft.to/lastmile_qr_scan", "android": "https://dc.lft.to/lastmile_qr_scan"}, "lon": -77.053544, "type": "electric_scooter", "fusion_lat": 0.0, "lat": 38.9026795, "name": "b4c62f7a2ed1052bc3ba134a5d3e1929", "fusion_lon": 0.0, "bike_id": "b4c62f7a2ed1052bc3ba134a5d3e1929", "is_disabled": 0, "is_reserved": 0}, {"rental_uris": {"ios": "https://dc.lft.to/lastmile_qr_scan", "android": "https://dc.lft.to/lastmile_qr_scan"}, "lon": -77.050053, "type": "electric_scooter", "fusion_lat": 0.0, "lat": 38.89227566666667, "name": "b2844147adb6f23f4a154d875e5ea6d9", "fusion_lon": 0.0, "bike_id": "b2844147adb6f23f4a154d875e5ea6d9", "is_disabled": 0, "is_reserved": 0}, {"rental_uris": {"ios": "https://dc.lft.to/lastmile_qr_scan", "android": "https://dc.lft.to/lastmile_qr_scan"}, "lon": -76.9816015, "type": "electric_scooter", "fusion_lat": 0.0, "lat": 38.9000995, "name": "cfca0d22a3161fd95615ee51e7bda61a", "fusion_lon": 0.0, "bike_id": "cfca0d22a3161fd95615ee51e7bda61a", "is_disabled": 0, "is_reserved": 0}, {"rental_uris": {"ios": "https://dc.lft.to/lastmile_qr_scan", "android": "https://dc.lft.to/lastmile_qr_scan"}, "lon": -76.931609, "type": "electric_scooter", "fusion_lat": 0.0, "lat": 38.89875033333333, "name": "ba9b0e0504487760450ab501f48a7b1a", "fusion_lon": 0.0, "bike_id": "ba9b0e0504487760450ab501f48a7b1a", "is_disabled": 0, "is_reserved": 0}, {"rental_uris": {"ios": "https://dc.lft.to/lastmile_qr_scan", "android": "https://dc.lft.to/lastmile_qr_scan"}, "lon": -77.04657783333333, "type": "electric_scooter", "fusion_lat": 0.0, "lat": 38.89332666666667, "name": "eea796b00118c5a8e05ba4aeaf0d5db2", "fusion_lon": 0.0, "bike_id": "eea796b00118c5a8e05ba4aeaf0d5db2", "is_disabled": 0, "is_reserved": 0}, {"rental_uris": {"ios": "https://dc.lft.to/lastmile_qr_scan", "android": "https://dc.lft.to/lastmile_qr_scan"}, "lon": -77.05160683333334, "type": "electric_scooter", "fusion_lat": 0.0, "lat": 38.897721833333335, "name": "c001564c8fbc9dbb1af9e2c5336bf508", "fusion_lon": 0.0, "bike_id": "c001564c8fbc9dbb1af9e2c5336bf508", "is_disabled": 0, "is_reserved": 0}, {"rental_uris": {"ios": "https://dc.lft.to/lastmile_qr_scan", "android": "https://dc.lft.to/lastmile_qr_scan"}, "lon": -77.00209683333334, "type": "electric_scooter", "fusion_lat": 0.0, "lat": 38.90223783333333, "name": "0a3a2b4dc6ca73353d763a3f7178b6a4", "fusion_lon": 0.0, "bike_id": "0a3a2b4dc6ca73353d763a3f7178b6a4", "is_disabled": 0, "is_reserved": 0}, {"rental_uris": {"ios": "https://dc.lft.to/lastmile_qr_scan", "android": "https://dc.lft.to/lastmile_qr_scan"}, "lon": -76.94982216666666, "type": "electric_scooter", "fusion_lat": 0.0, "lat": 38.89369283333333, "name": "cd1904b38f397456f2b4786bbd8a0c89", "fusion_lon": 0.0, "bike_id": "cd1904b38f397456f2b4786bbd8a0c89", "is_disabled": 0, "is_reserved": 0}, {"rental_uris": {"ios": "https://dc.lft.to/lastmile_qr_scan", "android": "https://dc.lft.to/lastmile_qr_scan"}, "lon": -77.0316905, "type": "electric_scooter", "fusion_lat": 0.0, "lat": 38.886270833333334, "name": "d9f779465f1c2158eae4e5c59f4f0ff7", "fusion_lon": 0.0, "bike_id": "d9f779465f1c2158eae4e5c59f4f0ff7", "is_disabled": 0, "is_reserved": 0}, {"rental_uris": {"ios": "https://dc.lft.to/lastmile_qr_scan", "android": "https://dc.lft.to/lastmile_qr_scan"}, "lon": -77.120371, "type": "electric_bike", "fusion_lat": 0.0, "lat": 38.85503833333333, "name": "c3ac3fc333879b80479714b85a69cc68", "fusion_lon": 0.0, "bike_id": "c3ac3fc333879b80479714b85a69cc68", "is_disabled": 0, "is_reserved": 0}, {"rental_uris": {"ios": "https://dc.lft.to/lastmile_qr_scan", "android": "https://dc.lft.to/lastmile_qr_scan"}, "lon": -76.931742, "type": "electric_scooter", "fusion_lat": 0.0, "lat": 38.89887933333333, "name": "bfe83344f73ab52a6c6a623da111bad4", "fusion_lon": 0.0, "bike_id": "bfe83344f73ab52a6c6a623da111bad4", "is_disabled": 0, "is_reserved": 0}, {"rental_uris": {"ios": "https://dc.lft.to/lastmile_qr_scan", "android": "https://dc.lft.to/lastmile_qr_scan"}, "lon": -77.00575666666667, "type": "electric_scooter", "fusion_lat": 0.0, "lat": 38.88604733333333, "name": "8a0293875bcd89421d346647782b6fc6", "fusion_lon": 0.0, "bike_id": "8a0293875bcd89421d346647782b6fc6", "is_disabled": 0, "is_reserved": 0}, {"rental_uris": {"ios": "https://dc.lft.to/lastmile_qr_scan", "android": "https://dc.lft.to/lastmile_qr_scan"}, "lon": -77.046149, "type": "electric_scooter", "fusion_lat": 0.0, "lat": 38.913981, "name": "3fb0b6a343326a9ce730b3fd2b58efe0", "fusion_lon": 0.0, "bike_id": "3fb0b6a343326a9ce730b3fd2b58efe0", "is_disabled": 0, "is_reserved": 0}, {"rental_uris": {"ios": "https://dc.lft.to/lastmile_qr_scan", "android": "https://dc.lft.to/lastmile_qr_scan"}, "lon": -77.032293, "type": "electric_scooter", "fusion_lat": 0.0, "lat": 38.903892166666665, "name": "7d99a72d1c4c9b56a9bba17cbbfc54a0", "fusion_lon": 0.0, "bike_id": "7d99a72d1c4c9b56a9bba17cbbfc54a0", "is_disabled": 0, "is_reserved": 0}, {"rental_uris": {"ios": "https://dc.lft.to/lastmile_qr_scan", "android": "https://dc.lft.to/lastmile_qr_scan"}, "lon": -77.0250595, "type": "electric_scooter", "fusion_lat": 0.0, "lat": 38.936355, "name": "a3d8d7390b02d30c1715190bb1371e21", "fusion_lon": 0.0, "bike_id": "a3d8d7390b02d30c1715190bb1371e21", "is_disabled": 0, "is_reserved": 0}, {"rental_uris": {"ios": "https://dc.lft.to/lastmile_qr_scan", "android": "https://dc.lft.to/lastmile_qr_scan"}, "lon": -77.02601516666667, "type": "electric_scooter", "fusion_lat": 0.0, "lat": 38.91997083333333, "name": "3e387b265266f0128a84d9ab1bceab82", "fusion_lon": 0.0, "bike_id": "3e387b265266f0128a84d9ab1bceab82", "is_disabled": 0, "is_reserved": 0}, {"rental_uris": {"ios": "https://dc.lft.to/lastmile_qr_scan", "android": "https://dc.lft.to/lastmile_qr_scan"}, "lon": -77.02284166666666, "type": "electric_scooter", "fusion_lat": 0.0, "lat": 38.9086635, "name": "7f0f300bddb58531a207a6688b966196", "fusion_lon": 0.0, "bike_id": "7f0f300bddb58531a207a6688b966196", "is_disabled": 0, "is_reserved": 0}, {"rental_uris": {"ios": "https://dc.lft.to/lastmile_qr_scan", "android": "https://dc.lft.to/lastmile_qr_scan"}, "lon": -77.04862583333333, "type": "electric_scooter", "fusion_lat": 0.0, "lat": 38.91245216666667, "name": "40f7846e6b4c8dec30779dfc83fe34a7", "fusion_lon": 0.0, "bike_id": "40f7846e6b4c8dec30779dfc83fe34a7", "is_disabled": 0, "is_reserved": 0}, {"rental_uris": {"ios": "https://dc.lft.to/lastmile_qr_scan", "android": "https://dc.lft.to/lastmile_qr_scan"}, "lon": -77.03577, "type": "electric_scooter", "fusion_lat": 0.0, "lat": 38.9023425, "name": "a0241ae4d00ae5515f06054f36d49888", "fusion_lon": 0.0, "bike_id": "a0241ae4d00ae5515f06054f36d49888", "is_disabled": 0, "is_reserved": 0}, {"rental_uris": {"ios": "https://dc.lft.to/lastmile_qr_scan", "android": "https://dc.lft.to/lastmile_qr_scan"}, "lon": -77.02468616666667, "type": "electric_scooter", "fusion_lat": 0.0, "lat": 38.9329745, "name": "a402314175b79ababed87f3f09fa71f0", "fusion_lon": 0.0, "bike_id": "a402314175b79ababed87f3f09fa71f0", "is_disabled": 0, "is_reserved": 0}, {"rental_uris": {"ios": "https://dc.lft.to/lastmile_qr_scan", "android": "https://dc.lft.to/lastmile_qr_scan"}, "lon": -76.9043975, "type": "electric_bike", "fusion_lat": 0.0, "lat": 38.89776966666667, "name": "7b5e91f36b72104cd19ccce514cce80f", "fusion_lon": 0.0, "bike_id": "7b5e91f36b72104cd19ccce514cce80f", "is_disabled": 0, "is_reserved": 0}, {"rental_uris": {"ios": "https://dc.lft.to/lastmile_qr_scan", "android": "https://dc.lft.to/lastmile_qr_scan"}, "lon": -77.03083933333333, "type": "electric_scooter", "fusion_lat": 0.0, "lat": 38.910007, "name": "f7fda9f68f3e2d5c8710defb8c5aebe3", "fusion_lon": 0.0, "bike_id": "f7fda9f68f3e2d5c8710defb8c5aebe3", "is_disabled": 0, "is_reserved": 0}, {"rental_uris": {"ios": "https://dc.lft.to/lastmile_qr_scan", "android": "https://dc.lft.to/lastmile_qr_scan"}, "lon": -77.01211316666667, "type": "electric_scooter", "fusion_lat": 0.0, "lat": 38.915213666666666, "name": "14c86bafc22e23ed026848143e1a38a2", "fusion_lon": 0.0, "bike_id": "14c86bafc22e23ed026848143e1a38a2", "is_disabled": 0, "is_reserved": 0}, {"rental_uris": {"ios": "https://dc.lft.to/lastmile_qr_scan", "android": "https://dc.lft.to/lastmile_qr_scan"}, "lon": -77.00137266666667, "type": "electric_scooter", "fusion_lat": 0.0, "lat": 38.904103666666664, "name": "0cb9998e2c959100591b3d0c04cbb7db", "fusion_lon": 0.0, "bike_id": "0cb9998e2c959100591b3d0c04cbb7db", "is_disabled": 0, "is_reserved": 0}, {"rental_uris": {"ios": "https://dc.lft.to/lastmile_qr_scan", "android": "https://dc.lft.to/lastmile_qr_scan"}, "lon": -77.00879633333334, "type": "electric_scooter", "fusion_lat": 0.0, "lat": 38.914146333333335, "name": "a8672822cc5911f5949c2eab6ea15fb1", "fusion_lon": 0.0, "bike_id": "a8672822cc5911f5949c2eab6ea15fb1", "is_disabled": 0, "is_reserved": 0}, {"rental_uris": {"ios": "https://dc.lft.to/lastmile_qr_scan", "android": "https://dc.lft.to/lastmile_qr_scan"}, "lon": -77.04011133333333, "type": "electric_bike", "fusion_lat": 0.0, "lat": 38.8987955, "name": "9890ea71f6621e6c1ee0cc19c1843279", "fusion_lon": 0.0, "bike_id": "9890ea71f6621e6c1ee0cc19c1843279", "is_disabled": 0, "is_reserved": 0}, {"rental_uris": {"ios": "https://dc.lft.to/lastmile_qr_scan", "android": "https://dc.lft.to/lastmile_qr_scan"}, "lon": -77.1034135, "type": "electric_bike", "fusion_lat": 0.0, "lat": 38.852288333333334, "name": "a02c824f9f3cd4dacdefb879b86e813e", "fusion_lon": 0.0, "bike_id": "a02c824f9f3cd4dacdefb879b86e813e", "is_disabled": 0, "is_reserved": 0}, {"rental_uris": {"ios": "https://dc.lft.to/lastmile_qr_scan", "android": "https://dc.lft.to/lastmile_qr_scan"}, "lon": -76.9479445, "type": "electric_scooter", "fusion_lat": 0.0, "lat": 38.896312333333334, "name": "ae21f3fe40e3013bce25a6b8fbe8d569", "fusion_lon": 0.0, "bike_id": "ae21f3fe40e3013bce25a6b8fbe8d569", "is_disabled": 0, "is_reserved": 0}, {"rental_uris": {"ios": "https://dc.lft.to/lastmile_qr_scan", "android": "https://dc.lft.to/lastmile_qr_scan"}, "lon": -77.02976583333333, "type": "electric_scooter", "fusion_lat": 0.0, "lat": 38.962336666666666, "name": "9177b760665ac9504e7a6cc65b0b4f11", "fusion_lon": 0.0, "bike_id": "9177b760665ac9504e7a6cc65b0b4f11", "is_disabled": 0, "is_reserved": 0}, {"rental_uris": {"ios": "https://dc.lft.to/lastmile_qr_scan", "android": "https://dc.lft.to/lastmile_qr_scan"}, "lon": -77.02593733333333, "type": "electric_scooter", "fusion_lat": 0.0, "lat": 38.89605316666667, "name": "a7353b801337067f5f9822fa02809332", "fusion_lon": 0.0, "bike_id": "a7353b801337067f5f9822fa02809332", "is_disabled": 0, "is_reserved": 0}, {"rental_uris": {"ios": "https://dc.lft.to/lastmile_qr_scan", "android": "https://dc.lft.to/lastmile_qr_scan"}, "lon": -77.01809266666666, "type": "electric_scooter", "fusion_lat": 0.0, "lat": 38.887483333333336, "name": "0ea8ebcbd7cd4bb841aab062ca6f0aea", "fusion_lon": 0.0, "bike_id": "0ea8ebcbd7cd4bb841aab062ca6f0aea", "is_disabled": 0, "is_reserved": 0}, {"rental_uris": {"ios": "https://dc.lft.to/lastmile_qr_scan", "android": "https://dc.lft.to/lastmile_qr_scan"}, "lon": -77.02109666666666, "type": "electric_scooter", "fusion_lat": 0.0, "lat": 38.91309566666666, "name": "238716714303e3e75f987ad7e7252618", "fusion_lon": 0.0, "bike_id": "238716714303e3e75f987ad7e7252618", "is_disabled": 0, "is_reserved": 0}, {"rental_uris": {"ios": "https://dc.lft.to/lastmile_qr_scan", "android": "https://dc.lft.to/lastmile_qr_scan"}, "lon": -76.966262, "type": "electric_bike", "fusion_lat": 0.0, "lat": 38.9420525, "name": "729826a2d3ed2e1f298e856a2c467483", "fusion_lon": 0.0, "bike_id": "729826a2d3ed2e1f298e856a2c467483", "is_disabled": 0, "is_reserved": 0}, {"rental_uris": {"ios": "https://dc.lft.to/lastmile_qr_scan", "android": "https://dc.lft.to/lastmile_qr_scan"}, "lon": -77.0390755, "type": "electric_scooter", "fusion_lat": 0.0, "lat": 38.9037555, "name": "1b9fc563c1c06d05d6d71f118f94f09c", "fusion_lon": 0.0, "bike_id": "1b9fc563c1c06d05d6d71f118f94f09c", "is_disabled": 0, "is_reserved": 0}, {"rental_uris": {"ios": "https://dc.lft.to/lastmile_qr_scan", "android": "https://dc.lft.to/lastmile_qr_scan"}, "lon": -77.0298395, "type": "electric_scooter", "fusion_lat": 0.0, "lat": 38.916898833333335, "name": "7b652875f0ec1d6d1f8d8d6507c0799f", "fusion_lon": 0.0, "bike_id": "7b652875f0ec1d6d1f8d8d6507c0799f", "is_disabled": 0, "is_reserved": 0}, {"rental_uris": {"ios": "https://dc.lft.to/lastmile_qr_scan", "android": "https://dc.lft.to/lastmile_qr_scan"}, "lon": -77.02591516666666, "type": "electric_scooter", "fusion_lat": 0.0, "lat": 38.9150215, "name": "d6014927cabf38d29dfa105489a5e256", "fusion_lon": 0.0, "bike_id": "d6014927cabf38d29dfa105489a5e256", "is_disabled": 0, "is_reserved": 0}, {"rental_uris": {"ios": "https://dc.lft.to/lastmile_qr_scan", "android": "https://dc.lft.to/lastmile_qr_scan"}, "lon": -77.02296233333334, "type": "electric_scooter", "fusion_lat": 0.0, "lat": 38.932987833333335, "name": "205b9894b5fee28853be5d206ec42a97", "fusion_lon": 0.0, "bike_id": "205b9894b5fee28853be5d206ec42a97", "is_disabled": 0, "is_reserved": 0}, {"rental_uris": {"ios": "https://dc.lft.to/lastmile_qr_scan", "android": "https://dc.lft.to/lastmile_qr_scan"}, "lon": -77.02394133333334, "type": "electric_scooter", "fusion_lat": 0.0, "lat": 38.95294, "name": "4f7eed22b7c771af09fd7bdd5a4bb9aa", "fusion_lon": 0.0, "bike_id": "4f7eed22b7c771af09fd7bdd5a4bb9aa", "is_disabled": 0, "is_reserved": 0}, {"rental_uris": {"ios": "https://dc.lft.to/lastmile_qr_scan", "android": "https://dc.lft.to/lastmile_qr_scan"}, "lon": -77.0097825, "type": "electric_scooter", "fusion_lat": 0.0, "lat": 38.914917333333335, "name": "d188944973257a060a0f0f5d8eca0a97", "fusion_lon": 0.0, "bike_id": "d188944973257a060a0f0f5d8eca0a97", "is_disabled": 0, "is_reserved": 0}, {"rental_uris": {"ios": "https://dc.lft.to/lastmile_qr_scan", "android": "https://dc.lft.to/lastmile_qr_scan"}, "lon": -76.9380195, "type": "electric_scooter", "fusion_lat": 0.0, "lat": 38.8823585, "name": "50338c70296501847b880813c4334532", "fusion_lon": 0.0, "bike_id": "50338c70296501847b880813c4334532", "is_disabled": 0, "is_reserved": 0}, {"rental_uris": {"ios": "https://dc.lft.to/lastmile_qr_scan", "android": "https://dc.lft.to/lastmile_qr_scan"}, "lon": -77.01776133333334, "type": "electric_scooter", "fusion_lat": 0.0, "lat": 38.900441666666666, "name": "f45af7373da253ce06c2aefc109e8fb4", "fusion_lon": 0.0, "bike_id": "f45af7373da253ce06c2aefc109e8fb4", "is_disabled": 0, "is_reserved": 0}, {"rental_uris": {"ios": "https://dc.lft.to/lastmile_qr_scan", "android": "https://dc.lft.to/lastmile_qr_scan"}, "lon": -77.01052016666667, "type": "electric_scooter", "fusion_lat": 0.0, "lat": 38.879414, "name": "e774973ad91720a5a265a147a387251f", "fusion_lon": 0.0, "bike_id": "e774973ad91720a5a265a147a387251f", "is_disabled": 0, "is_reserved": 0}, {"rental_uris": {"ios": "https://dc.lft.to/lastmile_qr_scan", "android": "https://dc.lft.to/lastmile_qr_scan"}, "lon": -77.058652, "type": "electric_scooter", "fusion_lat": 0.0, "lat": 38.93608716666667, "name": "687429934830a9d26fdba037bccb4403", "fusion_lon": 0.0, "bike_id": "687429934830a9d26fdba037bccb4403", "is_disabled": 0, "is_reserved": 0}, {"rental_uris": {"ios": "https://dc.lft.to/lastmile_qr_scan", "android": "https://dc.lft.to/lastmile_qr_scan"}, "lon": -77.0321155, "type": "electric_scooter", "fusion_lat": 0.0, "lat": 38.92060633333333, "name": "2f4d06f4851c493f08055570be43ea81", "fusion_lon": 0.0, "bike_id": "2f4d06f4851c493f08055570be43ea81", "is_disabled": 0, "is_reserved": 0}, {"rental_uris": {"ios": "https://dc.lft.to/lastmile_qr_scan", "android": "https://dc.lft.to/lastmile_qr_scan"}, "lon": -77.04783333333333, "type": "electric_scooter", "fusion_lat": 0.0, "lat": 38.8994455, "name": "7816cab621513200e0ca32b44a979fa5", "fusion_lon": 0.0, "bike_id": "7816cab621513200e0ca32b44a979fa5", "is_disabled": 0, "is_reserved": 0}, {"rental_uris": {"ios": "https://dc.lft.to/lastmile_qr_scan", "android": "https://dc.lft.to/lastmile_qr_scan"}, "lon": -77.02181166666666, "type": "electric_scooter", "fusion_lat": 0.0, "lat": 38.88034416666667, "name": "5b205244848c85df8fa516e1ee6dae0d", "fusion_lon": 0.0, "bike_id": "5b205244848c85df8fa516e1ee6dae0d", "is_disabled": 0, "is_reserved": 0}, {"rental_uris": {"ios": "https://dc.lft.to/lastmile_qr_scan", "android": "https://dc.lft.to/lastmile_qr_scan"}, "lon": -77.02495283333333, "type": "electric_scooter", "fusion_lat": 0.0, "lat": 38.93895166666667, "name": "ef66e37305f2e6d9c28e589fb07be73a", "fusion_lon": 0.0, "bike_id": "ef66e37305f2e6d9c28e589fb07be73a", "is_disabled": 0, "is_reserved": 0}, {"rental_uris": {"ios": "https://dc.lft.to/lastmile_qr_scan", "android": "https://dc.lft.to/lastmile_qr_scan"}, "lon": -77.01167233333334, "type": "electric_bike", "fusion_lat": 0.0, "lat": 38.872416, "name": "7026d85dc5c6729a6d963fbfac4c6b72", "fusion_lon": 0.0, "bike_id": "7026d85dc5c6729a6d963fbfac4c6b72", "is_disabled": 0, "is_reserved": 0}, {"rental_uris": {"ios": "https://dc.lft.to/lastmile_qr_scan", "android": "https://dc.lft.to/lastmile_qr_scan"}, "lon": -76.98098683333333, "type": "electric_bike", "fusion_lat": 0.0, "lat": 38.88137533333333, "name": "b5cd4d12f1dc4613d0f94d2bb63701c2", "fusion_lon": 0.0, "bike_id": "b5cd4d12f1dc4613d0f94d2bb63701c2", "is_disabled": 0, "is_reserved": 0}, {"rental_uris": {"ios": "https://dc.lft.to/lastmile_qr_scan", "android": "https://dc.lft.to/lastmile_qr_scan"}, "lon": -76.9839165, "type": "electric_scooter", "fusion_lat": 0.0, "lat": 38.878429833333335, "name": "722e9ed5c9185dd16c96cc42682f1ddb", "fusion_lon": 0.0, "bike_id": "722e9ed5c9185dd16c96cc42682f1ddb", "is_disabled": 0, "is_reserved": 0}, {"rental_uris": {"ios": "https://dc.lft.to/lastmile_qr_scan", "android": "https://dc.lft.to/lastmile_qr_scan"}, "lon": -77.02545433333333, "type": "electric_scooter", "fusion_lat": 0.0, "lat": 38.92407383333333, "name": "e4b905920a97b7f2eb53c1957250a7a4", "fusion_lon": 0.0, "bike_id": "e4b905920a97b7f2eb53c1957250a7a4", "is_disabled": 0, "is_reserved": 0}, {"rental_uris": {"ios": "https://dc.lft.to/lastmile_qr_scan", "android": "https://dc.lft.to/lastmile_qr_scan"}, "lon": -77.0709825, "type": "electric_bike", "fusion_lat": 0.0, "lat": 38.914527, "name": "58dadd9ff509e6b9840c4066474ee718", "fusion_lon": 0.0, "bike_id": "58dadd9ff509e6b9840c4066474ee718", "is_disabled": 0, "is_reserved": 0}, {"rental_uris": {"ios": "https://dc.lft.to/lastmile_qr_scan", "android": "https://dc.lft.to/lastmile_qr_scan"}, "lon": -77.07720883333333, "type": "electric_scooter", "fusion_lat": 0.0, "lat": 38.9470595, "name": "8aa0d0b33b916a7d6494f50bffa2b713", "fusion_lon": 0.0, "bike_id": "8aa0d0b33b916a7d6494f50bffa2b713", "is_disabled": 0, "is_reserved": 0}, {"rental_uris": {"ios": "https://dc.lft.to/lastmile_qr_scan", "android": "https://dc.lft.to/lastmile_qr_scan"}, "lon": -77.0321485, "type": "electric_scooter", "fusion_lat": 0.0, "lat": 38.926819333333334, "name": "75b4deef3b105e7e96d54c2f52546b0c", "fusion_lon": 0.0, "bike_id": "75b4deef3b105e7e96d54c2f52546b0c", "is_disabled": 0, "is_reserved": 0}, {"rental_uris": {"ios": "https://dc.lft.to/lastmile_qr_scan", "android": "https://dc.lft.to/lastmile_qr_scan"}, "lon": -77.03470533333333, "type": "electric_scooter", "fusion_lat": 0.0, "lat": 38.92357666666667, "name": "36e145ce8b59545e57185bf15bcfc1ff", "fusion_lon": 0.0, "bike_id": "36e145ce8b59545e57185bf15bcfc1ff", "is_disabled": 0, "is_reserved": 0}, {"rental_uris": {"ios": "https://dc.lft.to/lastmile_qr_scan", "android": "https://dc.lft.to/lastmile_qr_scan"}, "lon": -77.0144165, "type": "electric_scooter", "fusion_lat": 0.0, "lat": 38.90572733333333, "name": "012e6e98c35ee04dd7d80fbb2848974d", "fusion_lon": 0.0, "bike_id": "012e6e98c35ee04dd7d80fbb2848974d", "is_disabled": 0, "is_reserved": 0}, {"rental_uris": {"ios": "https://dc.lft.to/lastmile_qr_scan", "android": "https://dc.lft.to/lastmile_qr_scan"}, "lon": -77.07932116666667, "type": "electric_scooter", "fusion_lat": 0.0, "lat": 38.948812333333336, "name": "8230c2402f19b464daa4b0cff2c0646f", "fusion_lon": 0.0, "bike_id": "8230c2402f19b464daa4b0cff2c0646f", "is_disabled": 0, "is_reserved": 0}, {"rental_uris": {"ios": "https://dc.lft.to/lastmile_qr_scan", "android": "https://dc.lft.to/lastmile_qr_scan"}, "lon": -77.05301783333333, "type": "electric_scooter", "fusion_lat": 0.0, "lat": 38.9102205, "name": "87b8c0f45cade1a6f05f871369d4fb5f", "fusion_lon": 0.0, "bike_id": "87b8c0f45cade1a6f05f871369d4fb5f", "is_disabled": 0, "is_reserved": 0}, {"rental_uris": {"ios": "https://dc.lft.to/lastmile_qr_scan", "android": "https://dc.lft.to/lastmile_qr_scan"}, "lon": -77.00719133333334, "type": "electric_scooter", "fusion_lat": 0.0, "lat": 38.91347833333333, "name": "04c6adbfaeb8ad08c4a1ad71a97242b4", "fusion_lon": 0.0, "bike_id": "04c6adbfaeb8ad08c4a1ad71a97242b4", "is_disabled": 0, "is_reserved": 0}, {"rental_uris": {"ios": "https://dc.lft.to/lastmile_qr_scan", "android": "https://dc.lft.to/lastmile_qr_scan"}, "lon": -77.04034266666666, "type": "electric_scooter", "fusion_lat": 0.0, "lat": 38.918768166666666, "name": "008d2abaed2272af3ecdad59490a1250", "fusion_lon": 0.0, "bike_id": "008d2abaed2272af3ecdad59490a1250", "is_disabled": 0, "is_reserved": 0}, {"rental_uris": {"ios": "https://dc.lft.to/lastmile_qr_scan", "android": "https://dc.lft.to/lastmile_qr_scan"}, "lon": -76.92995633333334, "type": "electric_bike", "fusion_lat": 0.0, "lat": 38.887972, "name": "7a56c8b3211d58e7ee5aa73164ae4a29", "fusion_lon": 0.0, "bike_id": "7a56c8b3211d58e7ee5aa73164ae4a29", "is_disabled": 0, "is_reserved": 0}, {"rental_uris": {"ios": "https://dc.lft.to/lastmile_qr_scan", "android": "https://dc.lft.to/lastmile_qr_scan"}, "lon": -77.00209983333333, "type": "electric_scooter", "fusion_lat": 0.0, "lat": 38.908475, "name": "35ff4e944ddb2ecf1eb9d9be150f136b", "fusion_lon": 0.0, "bike_id": "35ff4e944ddb2ecf1eb9d9be150f136b", "is_disabled": 0, "is_reserved": 0}, {"rental_uris": {"ios": "https://dc.lft.to/lastmile_qr_scan", "android": "https://dc.lft.to/lastmile_qr_scan"}, "lon": -77.016011, "type": "electric_scooter", "fusion_lat": 0.0, "lat": 38.896138, "name": "3b505aa07afe82484db9a8895170e1c6", "fusion_lon": 0.0, "bike_id": "3b505aa07afe82484db9a8895170e1c6", "is_disabled": 0, "is_reserved": 0}, {"rental_uris": {"ios": "https://dc.lft.to/lastmile_qr_scan", "android": "https://dc.lft.to/lastmile_qr_scan"}, "lon": -77.03078666666667, "type": "electric_scooter", "fusion_lat": 0.0, "lat": 38.89970866666667, "name": "10208c559a775e6312d40518bfb424e8", "fusion_lon": 0.0, "bike_id": "10208c559a775e6312d40518bfb424e8", "is_disabled": 0, "is_reserved": 0}, {"rental_uris": {"ios": "https://dc.lft.to/lastmile_qr_scan", "android": "https://dc.lft.to/lastmile_qr_scan"}, "lon": -76.937416, "type": "electric_scooter", "fusion_lat": 0.0, "lat": 38.89017116666667, "name": "cf9c9461f4a636a2464a3b5614712120", "fusion_lon": 0.0, "bike_id": "cf9c9461f4a636a2464a3b5614712120", "is_disabled": 0, "is_reserved": 0}, {"rental_uris": {"ios": "https://dc.lft.to/lastmile_qr_scan", "android": "https://dc.lft.to/lastmile_qr_scan"}, "lon": -77.00935216666667, "type": "electric_scooter", "fusion_lat": 0.0, "lat": 38.87630016666667, "name": "40bb3eab65b8465775ad77c2ace67a02", "fusion_lon": 0.0, "bike_id": "40bb3eab65b8465775ad77c2ace67a02", "is_disabled": 0, "is_reserved": 0}, {"rental_uris": {"ios": "https://dc.lft.to/lastmile_qr_scan", "android": "https://dc.lft.to/lastmile_qr_scan"}, "lon": -77.025977, "type": "electric_scooter", "fusion_lat": 0.0, "lat": 38.9169565, "name": "b39efc4a6ee808bf9159ff7643690b6f", "fusion_lon": 0.0, "bike_id": "b39efc4a6ee808bf9159ff7643690b6f", "is_disabled": 0, "is_reserved": 0}, {"rental_uris": {"ios": "https://dc.lft.to/lastmile_qr_scan", "android": "https://dc.lft.to/lastmile_qr_scan"}, "lon": -77.0396945, "type": "electric_scooter", "fusion_lat": 0.0, "lat": 38.91366716666667, "name": "24b3ea407cd6e6f49938a7f91c63ab7b", "fusion_lon": 0.0, "bike_id": "24b3ea407cd6e6f49938a7f91c63ab7b", "is_disabled": 0, "is_reserved": 0}, {"rental_uris": {"ios": "https://dc.lft.to/lastmile_qr_scan", "android": "https://dc.lft.to/lastmile_qr_scan"}, "lon": -76.97595983333333, "type": "electric_scooter", "fusion_lat": 0.0, "lat": 38.90332383333333, "name": "a2917cc99283a0b868b132e91e6317ac", "fusion_lon": 0.0, "bike_id": "a2917cc99283a0b868b132e91e6317ac", "is_disabled": 0, "is_reserved": 0}, {"rental_uris": {"ios": "https://dc.lft.to/lastmile_qr_scan", "android": "https://dc.lft.to/lastmile_qr_scan"}, "lon": -77.02599716666667, "type": "electric_scooter", "fusion_lat": 0.0, "lat": 38.88757866666667, "name": "92aa6e6ab849573b4fc7e444b55bab08", "fusion_lon": 0.0, "bike_id": "92aa6e6ab849573b4fc7e444b55bab08", "is_disabled": 0, "is_reserved": 0}, {"rental_uris": {"ios": "https://dc.lft.to/lastmile_qr_scan", "android": "https://dc.lft.to/lastmile_qr_scan"}, "lon": -77.0180465, "type": "electric_scooter", "fusion_lat": 0.0, "lat": 38.887480333333336, "name": "2a9429f289b3615ac43f7038ecfe4c72", "fusion_lon": 0.0, "bike_id": "2a9429f289b3615ac43f7038ecfe4c72", "is_disabled": 0, "is_reserved": 0}, {"rental_uris": {"ios": "https://dc.lft.to/lastmile_qr_scan", "android": "https://dc.lft.to/lastmile_qr_scan"}, "lon": -77.02400583333333, "type": "electric_scooter", "fusion_lat": 0.0, "lat": 38.9159715, "name": "d90cb45735cef8171dfc5c31b24ddebc", "fusion_lon": 0.0, "bike_id": "d90cb45735cef8171dfc5c31b24ddebc", "is_disabled": 0, "is_reserved": 0}, {"rental_uris": {"ios": "https://dc.lft.to/lastmile_qr_scan", "android": "https://dc.lft.to/lastmile_qr_scan"}, "lon": -76.946233, "type": "electric_bike", "fusion_lat": 0.0, "lat": 38.83238033333333, "name": "0e8680874bcdc147d8c33da017c62c13", "fusion_lon": 0.0, "bike_id": "0e8680874bcdc147d8c33da017c62c13", "is_disabled": 0, "is_reserved": 0}, {"rental_uris": {"ios": "https://dc.lft.to/lastmile_qr_scan", "android": "https://dc.lft.to/lastmile_qr_scan"}, "lon": -77.03441933333333, "type": "electric_scooter", "fusion_lat": 0.0, "lat": 38.90717033333333, "name": "480969d51663a73493cbeccb4d4c9a30", "fusion_lon": 0.0, "bike_id": "480969d51663a73493cbeccb4d4c9a30", "is_disabled": 0, "is_reserved": 0}, {"rental_uris": {"ios": "https://dc.lft.to/lastmile_qr_scan", "android": "https://dc.lft.to/lastmile_qr_scan"}, "lon": -77.0514935, "type": "electric_scooter", "fusion_lat": 0.0, "lat": 38.89920883333333, "name": "c1adc14ccbe49a0ddda2f37335ac7f77", "fusion_lon": 0.0, "bike_id": "c1adc14ccbe49a0ddda2f37335ac7f77", "is_disabled": 0, "is_reserved": 0}, {"rental_uris": {"ios": "https://dc.lft.to/lastmile_qr_scan", "android": "https://dc.lft.to/lastmile_qr_scan"}, "lon": -77.00320583333334, "type": "electric_scooter", "fusion_lat": 0.0, "lat": 38.88739316666667, "name": "31088d732982ac978b0eaf66777f9876", "fusion_lon": 0.0, "bike_id": "31088d732982ac978b0eaf66777f9876", "is_disabled": 0, "is_reserved": 0}, {"rental_uris": {"ios": "https://dc.lft.to/lastmile_qr_scan", "android": "https://dc.lft.to/lastmile_qr_scan"}, "lon": -77.04365133333333, "type": "electric_scooter", "fusion_lat": 0.0, "lat": 38.9333635, "name": "897efcb84f1f3c398e5ce21c3c3eafc8", "fusion_lon": 0.0, "bike_id": "897efcb84f1f3c398e5ce21c3c3eafc8", "is_disabled": 0, "is_reserved": 0}, {"rental_uris": {"ios": "https://dc.lft.to/lastmile_qr_scan", "android": "https://dc.lft.to/lastmile_qr_scan"}, "lon": -77.00662, "type": "electric_scooter", "fusion_lat": 0.0, "lat": 38.874868666666664, "name": "34a9ec15514fbff8c60d9247ef0ceae2", "fusion_lon": 0.0, "bike_id": "34a9ec15514fbff8c60d9247ef0ceae2", "is_disabled": 0, "is_reserved": 0}, {"rental_uris": {"ios": "https://dc.lft.to/lastmile_qr_scan", "android": "https://dc.lft.to/lastmile_qr_scan"}, "lon": -77.02979066666667, "type": "electric_scooter", "fusion_lat": 0.0, "lat": 38.962323166666664, "name": "5e8f2512fc2726f5f80a8920bd3fc2a6", "fusion_lon": 0.0, "bike_id": "5e8f2512fc2726f5f80a8920bd3fc2a6", "is_disabled": 0, "is_reserved": 0}, {"rental_uris": {"ios": "https://dc.lft.to/lastmile_qr_scan", "android": "https://dc.lft.to/lastmile_qr_scan"}, "lon": -77.04424516666667, "type": "electric_scooter", "fusion_lat": 0.0, "lat": 38.89221383333334, "name": "704ba6eb6dab70b7c5dedbbafeb28c4e", "fusion_lon": 0.0, "bike_id": "704ba6eb6dab70b7c5dedbbafeb28c4e", "is_disabled": 0, "is_reserved": 0}, {"rental_uris": {"ios": "https://dc.lft.to/lastmile_qr_scan", "android": "https://dc.lft.to/lastmile_qr_scan"}, "lon": -77.00727566666667, "type": "electric_scooter", "fusion_lat": 0.0, "lat": 38.88497683333333, "name": "9349df0e64a9c4d69cace31c76428d65", "fusion_lon": 0.0, "bike_id": "9349df0e64a9c4d69cace31c76428d65", "is_disabled": 0, "is_reserved": 0}, {"rental_uris": {"ios": "https://dc.lft.to/lastmile_qr_scan", "android": "https://dc.lft.to/lastmile_qr_scan"}, "lon": -77.04104983333333, "type": "electric_scooter", "fusion_lat": 0.0, "lat": 38.91857566666667, "name": "de82d952e0a3c7f83415a09f06a1cee3", "fusion_lon": 0.0, "bike_id": "de82d952e0a3c7f83415a09f06a1cee3", "is_disabled": 0, "is_reserved": 0}, {"rental_uris": {"ios": "https://dc.lft.to/lastmile_qr_scan", "android": "https://dc.lft.to/lastmile_qr_scan"}, "lon": -77.1784845, "type": "electric_bike", "fusion_lat": 0.0, "lat": 39.08901816666667, "name": "e5054047abacd61c6f7a57c0c11ee2a1", "fusion_lon": 0.0, "bike_id": "e5054047abacd61c6f7a57c0c11ee2a1", "is_disabled": 0, "is_reserved": 0}, {"rental_uris": {"ios": "https://dc.lft.to/lastmile_qr_scan", "android": "https://dc.lft.to/lastmile_qr_scan"}, "lon": -77.02886766666667, "type": "electric_scooter", "fusion_lat": 0.0, "lat": 38.9237445, "name": "c1f168587e263c8cf43a591fc39dccad", "fusion_lon": 0.0, "bike_id": "c1f168587e263c8cf43a591fc39dccad", "is_disabled": 0, "is_reserved": 0}, {"rental_uris": {"ios": "https://dc.lft.to/lastmile_qr_scan", "android": "https://dc.lft.to/lastmile_qr_scan"}, "lon": -76.9954615, "type": "electric_scooter", "fusion_lat": 0.0, "lat": 38.900311333333335, "name": "d51274887b0e1f82876c4019f1792318", "fusion_lon": 0.0, "bike_id": "d51274887b0e1f82876c4019f1792318", "is_disabled": 0, "is_reserved": 0}, {"rental_uris": {"ios": "https://dc.lft.to/lastmile_qr_scan", "android": "https://dc.lft.to/lastmile_qr_scan"}, "lon": -77.03468783333334, "type": "electric_scooter", "fusion_lat": 0.0, "lat": 38.934465, "name": "7aad62c3a7f99dc9034f65ae07a7babf", "fusion_lon": 0.0, "bike_id": "7aad62c3a7f99dc9034f65ae07a7babf", "is_disabled": 0, "is_reserved": 0}, {"rental_uris": {"ios": "https://dc.lft.to/lastmile_qr_scan", "android": "https://dc.lft.to/lastmile_qr_scan"}, "lon": -77.085409, "type": "electric_bike", "fusion_lat": 0.0, "lat": 38.856222333333335, "name": "0dd89e51fdd979d85fdaa19bb5b236fc", "fusion_lon": 0.0, "bike_id": "0dd89e51fdd979d85fdaa19bb5b236fc", "is_disabled": 0, "is_reserved": 0}, {"rental_uris": {"ios": "https://dc.lft.to/lastmile_qr_scan", "android": "https://dc.lft.to/lastmile_qr_scan"}, "lon": -77.02646116666666, "type": "electric_scooter", "fusion_lat": 0.0, "lat": 38.8922345, "name": "65b07064ed22127b5eddcedbf7ee82e5", "fusion_lon": 0.0, "bike_id": "65b07064ed22127b5eddcedbf7ee82e5", "is_disabled": 0, "is_reserved": 0}, {"rental_uris": {"ios": "https://dc.lft.to/lastmile_qr_scan", "android": "https://dc.lft.to/lastmile_qr_scan"}, "lon": -76.98902566666666, "type": "electric_scooter", "fusion_lat": 0.0, "lat": 38.86693916666667, "name": "578eebe6188adcad7b8907aa11d2f68c", "fusion_lon": 0.0, "bike_id": "578eebe6188adcad7b8907aa11d2f68c", "is_disabled": 0, "is_reserved": 0}, {"rental_uris": {"ios": "https://dc.lft.to/lastmile_qr_scan", "android": "https://dc.lft.to/lastmile_qr_scan"}, "lon": -77.00140033333334, "type": "electric_scooter", "fusion_lat": 0.0, "lat": 38.873949, "name": "18e873c052c2f1a58575710346c51d9a", "fusion_lon": 0.0, "bike_id": "18e873c052c2f1a58575710346c51d9a", "is_disabled": 0, "is_reserved": 0}, {"rental_uris": {"ios": "https://dc.lft.to/lastmile_qr_scan", "android": "https://dc.lft.to/lastmile_qr_scan"}, "lon": -77.027058, "type": "electric_scooter", "fusion_lat": 0.0, "lat": 38.949971, "name": "3553c1543641a43ac5d869b40b4a56c2", "fusion_lon": 0.0, "bike_id": "3553c1543641a43ac5d869b40b4a56c2", "is_disabled": 0, "is_reserved": 0}, {"rental_uris": {"ios": "https://dc.lft.to/lastmile_qr_scan", "android": "https://dc.lft.to/lastmile_qr_scan"}, "lon": -77.0514695, "type": "electric_scooter", "fusion_lat": 0.0, "lat": 38.923716, "name": "0ef532685ba2c2a67368c5817cce3e44", "fusion_lon": 0.0, "bike_id": "0ef532685ba2c2a67368c5817cce3e44", "is_disabled": 0, "is_reserved": 0}, {"rental_uris": {"ios": "https://dc.lft.to/lastmile_qr_scan", "android": "https://dc.lft.to/lastmile_qr_scan"}, "lon": -77.035789, "type": "electric_scooter", "fusion_lat": 0.0, "lat": 38.90761333333333, "name": "a6b8747eb509bfcda73107a224e9f330", "fusion_lon": 0.0, "bike_id": "a6b8747eb509bfcda73107a224e9f330", "is_disabled": 0, "is_reserved": 0}, {"rental_uris": {"ios": "https://dc.lft.to/lastmile_qr_scan", "android": "https://dc.lft.to/lastmile_qr_scan"}, "lon": -77.04307216666666, "type": "electric_bike", "fusion_lat": 0.0, "lat": 39.05449383333333, "name": "1cf65fdef7a8deb4c999ba83fc4063e1", "fusion_lon": 0.0, "bike_id": "1cf65fdef7a8deb4c999ba83fc4063e1", "is_disabled": 0, "is_reserved": 0}, {"rental_uris": {"ios": "https://dc.lft.to/lastmile_qr_scan", "android": "https://dc.lft.to/lastmile_qr_scan"}, "lon": -77.0383525, "type": "electric_scooter", "fusion_lat": 0.0, "lat": 38.914931, "name": "b66225c309442117d394c51436444fef", "fusion_lon": 0.0, "bike_id": "b66225c309442117d394c51436444fef", "is_disabled": 0, "is_reserved": 0}, {"rental_uris": {"ios": "https://dc.lft.to/lastmile_qr_scan", "android": "https://dc.lft.to/lastmile_qr_scan"}, "lon": -77.02614866666667, "type": "electric_scooter", "fusion_lat": 0.0, "lat": 38.89758766666667, "name": "889587300333f38d1e3db34f1283803d", "fusion_lon": 0.0, "bike_id": "889587300333f38d1e3db34f1283803d", "is_disabled": 0, "is_reserved": 0}, {"rental_uris": {"ios": "https://dc.lft.to/lastmile_qr_scan", "android": "https://dc.lft.to/lastmile_qr_scan"}, "lon": -77.00195383333333, "type": "electric_scooter", "fusion_lat": 0.0, "lat": 38.90014383333333, "name": "8cbec810c23ce5d7d47bc3e6816dd049", "fusion_lon": 0.0, "bike_id": "8cbec810c23ce5d7d47bc3e6816dd049", "is_disabled": 0, "is_reserved": 0}, {"rental_uris": {"ios": "https://dc.lft.to/lastmile_qr_scan", "android": "https://dc.lft.to/lastmile_qr_scan"}, "lon": -76.95355883333333, "type": "electric_bike", "fusion_lat": 0.0, "lat": 38.939512, "name": "d781407a1e8b4af2eadb9ef37ace6893", "fusion_lon": 0.0, "bike_id": "d781407a1e8b4af2eadb9ef37ace6893", "is_disabled": 0, "is_reserved": 0}, {"rental_uris": {"ios": "https://dc.lft.to/lastmile_qr_scan", "android": "https://dc.lft.to/lastmile_qr_scan"}, "lon": -77.17840633333333, "type": "electric_bike", "fusion_lat": 0.0, "lat": 39.088578, "name": "a4642333c49c8a0579f81a230a7614e3", "fusion_lon": 0.0, "bike_id": "a4642333c49c8a0579f81a230a7614e3", "is_disabled": 0, "is_reserved": 0}, {"rental_uris": {"ios": "https://dc.lft.to/lastmile_qr_scan", "android": "https://dc.lft.to/lastmile_qr_scan"}, "lon": -77.03646, "type": "electric_scooter", "fusion_lat": 0.0, "lat": 38.917407833333336, "name": "39d0d486d3a9bbee5174c662bf72961f", "fusion_lon": 0.0, "bike_id": "39d0d486d3a9bbee5174c662bf72961f", "is_disabled": 0, "is_reserved": 0}, {"rental_uris": {"ios": "https://dc.lft.to/lastmile_qr_scan", "android": "https://dc.lft.to/lastmile_qr_scan"}, "lon": -77.02881933333333, "type": "electric_scooter", "fusion_lat": 0.0, "lat": 38.907336666666666, "name": "7d76d7b1db96f4a4173ba34093b8ec1a", "fusion_lon": 0.0, "bike_id": "7d76d7b1db96f4a4173ba34093b8ec1a", "is_disabled": 0, "is_reserved": 0}, {"rental_uris": {"ios": "https://dc.lft.to/lastmile_qr_scan", "android": "https://dc.lft.to/lastmile_qr_scan"}, "lon": -77.00736716666667, "type": "electric_scooter", "fusion_lat": 0.0, "lat": 38.955230666666665, "name": "37f9bd3dde399c6f33fd92d7b052db59", "fusion_lon": 0.0, "bike_id": "37f9bd3dde399c6f33fd92d7b052db59", "is_disabled": 0, "is_reserved": 0}, {"rental_uris": {"ios": "https://dc.lft.to/lastmile_qr_scan", "android": "https://dc.lft.to/lastmile_qr_scan"}, "lon": -77.03996866666667, "type": "electric_scooter", "fusion_lat": 0.0, "lat": 38.900339, "name": "17a16eeb601f2fe41aaaf6b324ce34d9", "fusion_lon": 0.0, "bike_id": "17a16eeb601f2fe41aaaf6b324ce34d9", "is_disabled": 0, "is_reserved": 0}, {"rental_uris": {"ios": "https://dc.lft.to/lastmile_qr_scan", "android": "https://dc.lft.to/lastmile_qr_scan"}, "lon": -77.00211183333333, "type": "electric_scooter", "fusion_lat": 0.0, "lat": 38.902190833333336, "name": "d53054a7ff6e9578638d004e3f0355dc", "fusion_lon": 0.0, "bike_id": "d53054a7ff6e9578638d004e3f0355dc", "is_disabled": 0, "is_reserved": 0}, {"rental_uris": {"ios": "https://dc.lft.to/lastmile_qr_scan", "android": "https://dc.lft.to/lastmile_qr_scan"}, "lon": -77.06784833333333, "type": "electric_scooter", "fusion_lat": 0.0, "lat": 38.952149166666665, "name": "34966d06537c4c50db862f643bbfa09f", "fusion_lon": 0.0, "bike_id": "34966d06537c4c50db862f643bbfa09f", "is_disabled": 0, "is_reserved": 0}, {"rental_uris": {"ios": "https://dc.lft.to/lastmile_qr_scan", "android": "https://dc.lft.to/lastmile_qr_scan"}, "lon": -77.0321705, "type": "electric_scooter", "fusion_lat": 0.0, "lat": 38.912714666666666, "name": "d6e5f9cb3b4af3edfbe49ead7eebc692", "fusion_lon": 0.0, "bike_id": "d6e5f9cb3b4af3edfbe49ead7eebc692", "is_disabled": 0, "is_reserved": 0}, {"rental_uris": {"ios": "https://dc.lft.to/lastmile_qr_scan", "android": "https://dc.lft.to/lastmile_qr_scan"}, "lon": -77.02926916666667, "type": "electric_scooter", "fusion_lat": 0.0, "lat": 38.88222366666667, "name": "b5cfe551a942718e993fca887c97465a", "fusion_lon": 0.0, "bike_id": "b5cfe551a942718e993fca887c97465a", "is_disabled": 0, "is_reserved": 0}, {"rental_uris": {"ios": "https://dc.lft.to/lastmile_qr_scan", "android": "https://dc.lft.to/lastmile_qr_scan"}, "lon": -77.0557835, "type": "electric_scooter", "fusion_lat": 0.0, "lat": 38.899757666666666, "name": "af2c1efd43ef89fe515b33255f12fb7b", "fusion_lon": 0.0, "bike_id": "af2c1efd43ef89fe515b33255f12fb7b", "is_disabled": 0, "is_reserved": 0}, {"rental_uris": {"ios": "https://dc.lft.to/lastmile_qr_scan", "android": "https://dc.lft.to/lastmile_qr_scan"}, "lon": -77.00106783333334, "type": "electric_scooter", "fusion_lat": 0.0, "lat": 38.894337666666665, "name": "e406f062462b22bd27ae5c05cdfa30a7", "fusion_lon": 0.0, "bike_id": "e406f062462b22bd27ae5c05cdfa30a7", "is_disabled": 0, "is_reserved": 0}, {"rental_uris": {"ios": "https://dc.lft.to/lastmile_qr_scan", "android": "https://dc.lft.to/lastmile_qr_scan"}, "lon": -77.01870083333333, "type": "electric_scooter", "fusion_lat": 0.0, "lat": 38.9489765, "name": "27251fa8613e41cd05945452766f4995", "fusion_lon": 0.0, "bike_id": "27251fa8613e41cd05945452766f4995", "is_disabled": 0, "is_reserved": 0}, {"rental_uris": {"ios": "https://dc.lft.to/lastmile_qr_scan", "android": "https://dc.lft.to/lastmile_qr_scan"}, "lon": -77.0460295, "type": "electric_scooter", "fusion_lat": 0.0, "lat": 38.90260833333333, "name": "68025a3ffbb68e7df8384d37c56bb2e9", "fusion_lon": 0.0, "bike_id": "68025a3ffbb68e7df8384d37c56bb2e9", "is_disabled": 0, "is_reserved": 0}, {"rental_uris": {"ios": "https://dc.lft.to/lastmile_qr_scan", "android": "https://dc.lft.to/lastmile_qr_scan"}, "lon": -77.065919, "type": "electric_scooter", "fusion_lat": 0.0, "lat": 38.9053835, "name": "b603ae854b50dd0a3316d5a627e6fcdf", "fusion_lon": 0.0, "bike_id": "b603ae854b50dd0a3316d5a627e6fcdf", "is_disabled": 0, "is_reserved": 0}, {"rental_uris": {"ios": "https://dc.lft.to/lastmile_qr_scan", "android": "https://dc.lft.to/lastmile_qr_scan"}, "lon": -77.02324983333334, "type": "electric_scooter", "fusion_lat": 0.0, "lat": 38.93527916666667, "name": "d15ff29e66474b0dfa6b3f5376b1b381", "fusion_lon": 0.0, "bike_id": "d15ff29e66474b0dfa6b3f5376b1b381", "is_disabled": 0, "is_reserved": 0}, {"rental_uris": {"ios": "https://dc.lft.to/lastmile_qr_scan", "android": "https://dc.lft.to/lastmile_qr_scan"}, "lon": -76.96527333333333, "type": "electric_scooter", "fusion_lat": 0.0, "lat": 38.876274333333335, "name": "56d69314b69758be7d1759431961fc37", "fusion_lon": 0.0, "bike_id": "56d69314b69758be7d1759431961fc37", "is_disabled": 0, "is_reserved": 0}, {"rental_uris": {"ios": "https://dc.lft.to/lastmile_qr_scan", "android": "https://dc.lft.to/lastmile_qr_scan"}, "lon": -77.07364416666667, "type": "electric_scooter", "fusion_lat": 0.0, "lat": 38.9373305, "name": "680aaf68c7819ab68f7c75ae79d4c61b", "fusion_lon": 0.0, "bike_id": "680aaf68c7819ab68f7c75ae79d4c61b", "is_disabled": 0, "is_reserved": 0}, {"rental_uris": {"ios": "https://dc.lft.to/lastmile_qr_scan", "android": "https://dc.lft.to/lastmile_qr_scan"}, "lon": -77.1143305, "type": "electric_bike", "fusion_lat": 0.0, "lat": 38.852466, "name": "231c1f1257b2e1ca3d3f6a76f9378920", "fusion_lon": 0.0, "bike_id": "231c1f1257b2e1ca3d3f6a76f9378920", "is_disabled": 0, "is_reserved": 0}, {"rental_uris": {"ios": "https://dc.lft.to/lastmile_qr_scan", "android": "https://dc.lft.to/lastmile_qr_scan"}, "lon": -76.9678905, "type": "electric_scooter", "fusion_lat": 0.0, "lat": 38.861405, "name": "5d1683dc8ac07807f3735ee256480d16", "fusion_lon": 0.0, "bike_id": "5d1683dc8ac07807f3735ee256480d16", "is_disabled": 0, "is_reserved": 0}, {"rental_uris": {"ios": "https://dc.lft.to/lastmile_qr_scan", "android": "https://dc.lft.to/lastmile_qr_scan"}, "lon": -77.04403283333333, "type": "electric_scooter", "fusion_lat": 0.0, "lat": 38.92083366666667, "name": "1f87ee1e8e5af0c9a4490453c0c51e49", "fusion_lon": 0.0, "bike_id": "1f87ee1e8e5af0c9a4490453c0c51e49", "is_disabled": 0, "is_reserved": 0}, {"rental_uris": {"ios": "https://dc.lft.to/lastmile_qr_scan", "android": "https://dc.lft.to/lastmile_qr_scan"}, "lon": -77.01763683333333, "type": "electric_scooter", "fusion_lat": 0.0, "lat": 38.87735683333333, "name": "a307b3cff75c5e4ce57fc72eae498fc1", "fusion_lon": 0.0, "bike_id": "a307b3cff75c5e4ce57fc72eae498fc1", "is_disabled": 0, "is_reserved": 0}, {"rental_uris": {"ios": "https://dc.lft.to/lastmile_qr_scan", "android": "https://dc.lft.to/lastmile_qr_scan"}, "lon": -77.03179766666666, "type": "electric_scooter", "fusion_lat": 0.0, "lat": 38.899666833333335, "name": "28b3c6f371b648bffe51e491dd6f4e36", "fusion_lon": 0.0, "bike_id": "28b3c6f371b648bffe51e491dd6f4e36", "is_disabled": 0, "is_reserved": 0}, {"rental_uris": {"ios": "https://dc.lft.to/lastmile_qr_scan", "android": "https://dc.lft.to/lastmile_qr_scan"}, "lon": -77.03094716666666, "type": "electric_scooter", "fusion_lat": 0.0, "lat": 38.899777666666665, "name": "d7982e33ffc07070ad0878bdeb05a512", "fusion_lon": 0.0, "bike_id": "d7982e33ffc07070ad0878bdeb05a512", "is_disabled": 0, "is_reserved": 0}, {"rental_uris": {"ios": "https://dc.lft.to/lastmile_qr_scan", "android": "https://dc.lft.to/lastmile_qr_scan"}, "lon": -76.98367116666667, "type": "electric_scooter", "fusion_lat": 0.0, "lat": 38.915486666666666, "name": "6b99ba5481f640b998b109633128ffa0", "fusion_lon": 0.0, "bike_id": "6b99ba5481f640b998b109633128ffa0", "is_disabled": 0, "is_reserved": 0}, {"rental_uris": {"ios": "https://dc.lft.to/lastmile_qr_scan", "android": "https://dc.lft.to/lastmile_qr_scan"}, "lon": -76.9835925, "type": "electric_scooter", "fusion_lat": 0.0, "lat": 38.864839, "name": "9a92fd0e3e7361d4ec81cba13673bdcb", "fusion_lon": 0.0, "bike_id": "9a92fd0e3e7361d4ec81cba13673bdcb", "is_disabled": 0, "is_reserved": 0}, {"rental_uris": {"ios": "https://dc.lft.to/lastmile_qr_scan", "android": "https://dc.lft.to/lastmile_qr_scan"}, "lon": -77.04389516666667, "type": "electric_scooter", "fusion_lat": 0.0, "lat": 38.90909666666667, "name": "e3bf80a5dc2d23672f4e86e09ee7b044", "fusion_lon": 0.0, "bike_id": "e3bf80a5dc2d23672f4e86e09ee7b044", "is_disabled": 0, "is_reserved": 0}, {"rental_uris": {"ios": "https://dc.lft.to/lastmile_qr_scan", "android": "https://dc.lft.to/lastmile_qr_scan"}, "lon": -77.01414666666666, "type": "electric_scooter", "fusion_lat": 0.0, "lat": 38.91563, "name": "266e0df178e335ee9b43a5cd62854f7f", "fusion_lon": 0.0, "bike_id": "266e0df178e335ee9b43a5cd62854f7f", "is_disabled": 0, "is_reserved": 0}, {"rental_uris": {"ios": "https://dc.lft.to/lastmile_qr_scan", "android": "https://dc.lft.to/lastmile_qr_scan"}, "lon": -77.02251866666667, "type": "electric_scooter", "fusion_lat": 0.0, "lat": 38.91656833333333, "name": "222a63fde7025cab9ec8cb42f221a72a", "fusion_lon": 0.0, "bike_id": "222a63fde7025cab9ec8cb42f221a72a", "is_disabled": 0, "is_reserved": 0}, {"rental_uris": {"ios": "https://dc.lft.to/lastmile_qr_scan", "android": "https://dc.lft.to/lastmile_qr_scan"}, "lon": -76.98414083333333, "type": "electric_scooter", "fusion_lat": 0.0, "lat": 38.9138575, "name": "7914bc1c7140af91375aa425e0a66519", "fusion_lon": 0.0, "bike_id": "7914bc1c7140af91375aa425e0a66519", "is_disabled": 0, "is_reserved": 0}, {"rental_uris": {"ios": "https://dc.lft.to/lastmile_qr_scan", "android": "https://dc.lft.to/lastmile_qr_scan"}, "lon": -77.07815283333333, "type": "electric_scooter", "fusion_lat": 0.0, "lat": 38.92621366666667, "name": "24126ec8f945326a4f15d4d397089f51", "fusion_lon": 0.0, "bike_id": "24126ec8f945326a4f15d4d397089f51", "is_disabled": 0, "is_reserved": 0}, {"rental_uris": {"ios": "https://dc.lft.to/lastmile_qr_scan", "android": "https://dc.lft.to/lastmile_qr_scan"}, "lon": -77.02189983333334, "type": "electric_scooter", "fusion_lat": 0.0, "lat": 38.908402833333334, "name": "fd38f13ebb09056dec8348bc9e92abd2", "fusion_lon": 0.0, "bike_id": "fd38f13ebb09056dec8348bc9e92abd2", "is_disabled": 0, "is_reserved": 0}, {"rental_uris": {"ios": "https://dc.lft.to/lastmile_qr_scan", "android": "https://dc.lft.to/lastmile_qr_scan"}, "lon": -77.05121066666666, "type": "electric_scooter", "fusion_lat": 0.0, "lat": 38.923636, "name": "116667c5ce86bc721032824fcee27aaf", "fusion_lon": 0.0, "bike_id": "116667c5ce86bc721032824fcee27aaf", "is_disabled": 0, "is_reserved": 0}, {"rental_uris": {"ios": "https://dc.lft.to/lastmile_qr_scan", "android": "https://dc.lft.to/lastmile_qr_scan"}, "lon": -77.01506416666666, "type": "electric_scooter", "fusion_lat": 0.0, "lat": 38.88769966666667, "name": "338ad66f53e2799185d96a6b8914e86d", "fusion_lon": 0.0, "bike_id": "338ad66f53e2799185d96a6b8914e86d", "is_disabled": 0, "is_reserved": 0}, {"rental_uris": {"ios": "https://dc.lft.to/lastmile_qr_scan", "android": "https://dc.lft.to/lastmile_qr_scan"}, "lon": -77.068828, "type": "electric_scooter", "fusion_lat": 0.0, "lat": 38.94027483333333, "name": "9994d4b7d7208e83c466d9a4ca1064ed", "fusion_lon": 0.0, "bike_id": "9994d4b7d7208e83c466d9a4ca1064ed", "is_disabled": 0, "is_reserved": 0}, {"rental_uris": {"ios": "https://dc.lft.to/lastmile_qr_scan", "android": "https://dc.lft.to/lastmile_qr_scan"}, "lon": -77.12975783333333, "type": "electric_bike", "fusion_lat": 0.0, "lat": 38.7999365, "name": "d6f1c89ec75b33dde1904702fbafc4b3", "fusion_lon": 0.0, "bike_id": "d6f1c89ec75b33dde1904702fbafc4b3", "is_disabled": 0, "is_reserved": 0}, {"rental_uris": {"ios": "https://dc.lft.to/lastmile_qr_scan", "android": "https://dc.lft.to/lastmile_qr_scan"}, "lon": -77.03110133333334, "type": "electric_scooter", "fusion_lat": 0.0, "lat": 38.911935666666665, "name": "be81ab38a2a4761a31936f32d9723dd4", "fusion_lon": 0.0, "bike_id": "be81ab38a2a4761a31936f32d9723dd4", "is_disabled": 0, "is_reserved": 0}, {"rental_uris": {"ios": "https://dc.lft.to/lastmile_qr_scan", "android": "https://dc.lft.to/lastmile_qr_scan"}, "lon": -77.04177, "type": "electric_scooter", "fusion_lat": 0.0, "lat": 38.917356166666664, "name": "80ed578e485126e164cba3ddb9d97d81", "fusion_lon": 0.0, "bike_id": "80ed578e485126e164cba3ddb9d97d81", "is_disabled": 0, "is_reserved": 0}, {"rental_uris": {"ios": "https://dc.lft.to/lastmile_qr_scan", "android": "https://dc.lft.to/lastmile_qr_scan"}, "lon": -77.024288, "type": "electric_bike", "fusion_lat": 0.0, "lat": 38.99428533333333, "name": "10fc7e08596026bcdb960bbdb2809a2c", "fusion_lon": 0.0, "bike_id": "10fc7e08596026bcdb960bbdb2809a2c", "is_disabled": 0, "is_reserved": 0}, {"rental_uris": {"ios": "https://dc.lft.to/lastmile_qr_scan", "android": "https://dc.lft.to/lastmile_qr_scan"}, "lon": -77.04018833333333, "type": "electric_scooter", "fusion_lat": 0.0, "lat": 38.91795883333333, "name": "837e6943aa67ed3088b3db1d352d655a", "fusion_lon": 0.0, "bike_id": "837e6943aa67ed3088b3db1d352d655a", "is_disabled": 0, "is_reserved": 0}, {"rental_uris": {"ios": "https://dc.lft.to/lastmile_qr_scan", "android": "https://dc.lft.to/lastmile_qr_scan"}, "lon": -77.017549, "type": "electric_scooter", "fusion_lat": 0.0, "lat": 38.877343, "name": "504f0196ea70b378801e334e5c8384ea", "fusion_lon": 0.0, "bike_id": "504f0196ea70b378801e334e5c8384ea", "is_disabled": 0, "is_reserved": 0}, {"rental_uris": {"ios": "https://dc.lft.to/lastmile_qr_scan", "android": "https://dc.lft.to/lastmile_qr_scan"}, "lon": -77.03265766666667, "type": "electric_bike", "fusion_lat": 0.0, "lat": 38.93013033333333, "name": "6e150e03d7a3ac46216ce4c315412c1f", "fusion_lon": 0.0, "bike_id": "6e150e03d7a3ac46216ce4c315412c1f", "is_disabled": 0, "is_reserved": 0}, {"rental_uris": {"ios": "https://dc.lft.to/lastmile_qr_scan", "android": "https://dc.lft.to/lastmile_qr_scan"}, "lon": -77.07045366666667, "type": "electric_bike", "fusion_lat": 0.0, "lat": 38.82443583333333, "name": "2ce09486789ebb30ed20363f028bf0a7", "fusion_lon": 0.0, "bike_id": "2ce09486789ebb30ed20363f028bf0a7", "is_disabled": 0, "is_reserved": 0}, {"rental_uris": {"ios": "https://dc.lft.to/lastmile_qr_scan", "android": "https://dc.lft.to/lastmile_qr_scan"}, "lon": -77.03966466666667, "type": "electric_scooter", "fusion_lat": 0.0, "lat": 38.902685, "name": "e47241469265ee4307c50a90027f7e99", "fusion_lon": 0.0, "bike_id": "e47241469265ee4307c50a90027f7e99", "is_disabled": 0, "is_reserved": 0}, {"rental_uris": {"ios": "https://dc.lft.to/lastmile_qr_scan", "android": "https://dc.lft.to/lastmile_qr_scan"}, "lon": -77.03221833333333, "type": "electric_scooter", "fusion_lat": 0.0, "lat": 38.917363, "name": "c24509d001e16bcd3bfe0824d563c9b4", "fusion_lon": 0.0, "bike_id": "c24509d001e16bcd3bfe0824d563c9b4", "is_disabled": 0, "is_reserved": 0}, {"rental_uris": {"ios": "https://dc.lft.to/lastmile_qr_scan", "android": "https://dc.lft.to/lastmile_qr_scan"}, "lon": -77.06366866666667, "type": "electric_scooter", "fusion_lat": 0.0, "lat": 38.909359333333335, "name": "3471d93098cfa829f5e7fc4c2ea0f729", "fusion_lon": 0.0, "bike_id": "3471d93098cfa829f5e7fc4c2ea0f729", "is_disabled": 0, "is_reserved": 0}, {"rental_uris": {"ios": "https://dc.lft.to/lastmile_qr_scan", "android": "https://dc.lft.to/lastmile_qr_scan"}, "lon": -77.04600916666666, "type": "electric_scooter", "fusion_lat": 0.0, "lat": 38.916895333333336, "name": "9d16c0b7b1104aea21b78ea2358e583e", "fusion_lon": 0.0, "bike_id": "9d16c0b7b1104aea21b78ea2358e583e", "is_disabled": 0, "is_reserved": 0}, {"rental_uris": {"ios": "https://dc.lft.to/lastmile_qr_scan", "android": "https://dc.lft.to/lastmile_qr_scan"}, "lon": -77.063974, "type": "electric_scooter", "fusion_lat": 0.0, "lat": 38.9291415, "name": "4e3a67f80964f7e3485d69c1a673d362", "fusion_lon": 0.0, "bike_id": "4e3a67f80964f7e3485d69c1a673d362", "is_disabled": 0, "is_reserved": 0}, {"rental_uris": {"ios": "https://dc.lft.to/lastmile_qr_scan", "android": "https://dc.lft.to/lastmile_qr_scan"}, "lon": -77.02243916666667, "type": "electric_scooter", "fusion_lat": 0.0, "lat": 38.91653766666667, "name": "2c2be63f941beb76673f0f8ae26c553a", "fusion_lon": 0.0, "bike_id": "2c2be63f941beb76673f0f8ae26c553a", "is_disabled": 0, "is_reserved": 0}, {"rental_uris": {"ios": "https://dc.lft.to/lastmile_qr_scan", "android": "https://dc.lft.to/lastmile_qr_scan"}, "lon": -77.12811833333333, "type": "electric_bike", "fusion_lat": 0.0, "lat": 38.865282666666666, "name": "4ab6982a1c6ab99b109055d1cc0246c2", "fusion_lon": 0.0, "bike_id": "4ab6982a1c6ab99b109055d1cc0246c2", "is_disabled": 0, "is_reserved": 0}, {"rental_uris": {"ios": "https://dc.lft.to/lastmile_qr_scan", "android": "https://dc.lft.to/lastmile_qr_scan"}, "lon": -77.032267, "type": "electric_scooter", "fusion_lat": 0.0, "lat": 38.90386183333333, "name": "c2a8aae3c7310e9958e0821ced2e8f60", "fusion_lon": 0.0, "bike_id": "c2a8aae3c7310e9958e0821ced2e8f60", "is_disabled": 0, "is_reserved": 0}, {"rental_uris": {"ios": "https://dc.lft.to/lastmile_qr_scan", "android": "https://dc.lft.to/lastmile_qr_scan"}, "lon": -76.91597633333333, "type": "electric_bike", "fusion_lat": 0.0, "lat": 38.8798, "name": "062ea754e01ab5f83f7f64d0a614f347", "fusion_lon": 0.0, "bike_id": "062ea754e01ab5f83f7f64d0a614f347", "is_disabled": 0, "is_reserved": 0}, {"rental_uris": {"ios": "https://dc.lft.to/lastmile_qr_scan", "android": "https://dc.lft.to/lastmile_qr_scan"}, "lon": -76.974978, "type": "electric_bike", "fusion_lat": 0.0, "lat": 38.9200915, "name": "0ca4e15c74d2edc5738b0484ce7d4d14", "fusion_lon": 0.0, "bike_id": "0ca4e15c74d2edc5738b0484ce7d4d14", "is_disabled": 0, "is_reserved": 0}, {"rental_uris": {"ios": "https://dc.lft.to/lastmile_qr_scan", "android": "https://dc.lft.to/lastmile_qr_scan"}, "lon": -77.03314333333333, "type": "electric_scooter", "fusion_lat": 0.0, "lat": 38.90015183333333, "name": "5885d7e3760d69285158cd543760fc29", "fusion_lon": 0.0, "bike_id": "5885d7e3760d69285158cd543760fc29", "is_disabled": 0, "is_reserved": 0}, {"rental_uris": {"ios": "https://dc.lft.to/lastmile_qr_scan", "android": "https://dc.lft.to/lastmile_qr_scan"}, "lon": -77.002399, "type": "electric_scooter", "fusion_lat": 0.0, "lat": 38.91185433333333, "name": "4d010cd2160817761a9657e2ddd60510", "fusion_lon": 0.0, "bike_id": "4d010cd2160817761a9657e2ddd60510", "is_disabled": 0, "is_reserved": 0}, {"rental_uris": {"ios": "https://dc.lft.to/lastmile_qr_scan", "android": "https://dc.lft.to/lastmile_qr_scan"}, "lon": -77.01788566666667, "type": "electric_scooter", "fusion_lat": 0.0, "lat": 38.892395666666665, "name": "c97937eb4328a2ae38d00ecf018ffe8a", "fusion_lon": 0.0, "bike_id": "c97937eb4328a2ae38d00ecf018ffe8a", "is_disabled": 0, "is_reserved": 0}, {"rental_uris": {"ios": "https://dc.lft.to/lastmile_qr_scan", "android": "https://dc.lft.to/lastmile_qr_scan"}, "lon": -76.9371695, "type": "electric_scooter", "fusion_lat": 0.0, "lat": 38.895912833333334, "name": "c4e7fec49aa78165027634b12fbd794d", "fusion_lon": 0.0, "bike_id": "c4e7fec49aa78165027634b12fbd794d", "is_disabled": 0, "is_reserved": 0}, {"rental_uris": {"ios": "https://dc.lft.to/lastmile_qr_scan", "android": "https://dc.lft.to/lastmile_qr_scan"}, "lon": -77.02460383333333, "type": "electric_scooter", "fusion_lat": 0.0, "lat": 38.90263816666667, "name": "cce2810a3329153035584ddb95dfda0c", "fusion_lon": 0.0, "bike_id": "cce2810a3329153035584ddb95dfda0c", "is_disabled": 0, "is_reserved": 0}, {"rental_uris": {"ios": "https://dc.lft.to/lastmile_qr_scan", "android": "https://dc.lft.to/lastmile_qr_scan"}, "lon": -77.04174266666666, "type": "electric_scooter", "fusion_lat": 0.0, "lat": 38.90545516666667, "name": "cd00a13a25e6038bd61d3a22174de082", "fusion_lon": 0.0, "bike_id": "cd00a13a25e6038bd61d3a22174de082", "is_disabled": 0, "is_reserved": 0}, {"rental_uris": {"ios": "https://dc.lft.to/lastmile_qr_scan", "android": "https://dc.lft.to/lastmile_qr_scan"}, "lon": -77.03977616666667, "type": "electric_scooter", "fusion_lat": 0.0, "lat": 38.90359816666667, "name": "6a25d2efadc57bb0bf63ba6ffe50af73", "fusion_lon": 0.0, "bike_id": "6a25d2efadc57bb0bf63ba6ffe50af73", "is_disabled": 0, "is_reserved": 0}, {"rental_uris": {"ios": "https://dc.lft.to/lastmile_qr_scan", "android": "https://dc.lft.to/lastmile_qr_scan"}, "lon": -77.04116383333333, "type": "electric_scooter", "fusion_lat": 0.0, "lat": 38.924547833333335, "name": "45867981588eeb85ca720204e6620562", "fusion_lon": 0.0, "bike_id": "45867981588eeb85ca720204e6620562", "is_disabled": 0, "is_reserved": 0}, {"rental_uris": {"ios": "https://dc.lft.to/lastmile_qr_scan", "android": "https://dc.lft.to/lastmile_qr_scan"}, "lon": -77.03147033333333, "type": "electric_scooter", "fusion_lat": 0.0, "lat": 38.918279166666665, "name": "b0a3632a2c8660af10182631e59c0610", "fusion_lon": 0.0, "bike_id": "b0a3632a2c8660af10182631e59c0610", "is_disabled": 0, "is_reserved": 0}, {"rental_uris": {"ios": "https://dc.lft.to/lastmile_qr_scan", "android": "https://dc.lft.to/lastmile_qr_scan"}, "lon": -76.979355, "type": "electric_scooter", "fusion_lat": 0.0, "lat": 38.90673733333333, "name": "1a860b94286b2691b734817b3998bf49", "fusion_lon": 0.0, "bike_id": "1a860b94286b2691b734817b3998bf49", "is_disabled": 0, "is_reserved": 0}, {"rental_uris": {"ios": "https://dc.lft.to/lastmile_qr_scan", "android": "https://dc.lft.to/lastmile_qr_scan"}, "lon": -76.99831583333334, "type": "electric_scooter", "fusion_lat": 0.0, "lat": 38.900002, "name": "59bac75c8f311f8788b256e70f099241", "fusion_lon": 0.0, "bike_id": "59bac75c8f311f8788b256e70f099241", "is_disabled": 0, "is_reserved": 0}, {"rental_uris": {"ios": "https://dc.lft.to/lastmile_qr_scan", "android": "https://dc.lft.to/lastmile_qr_scan"}, "lon": -77.03347466666666, "type": "electric_scooter", "fusion_lat": 0.0, "lat": 38.9119275, "name": "20ab64a42daddaadd09fad00542e19ad", "fusion_lon": 0.0, "bike_id": "20ab64a42daddaadd09fad00542e19ad", "is_disabled": 0, "is_reserved": 0}, {"rental_uris": {"ios": "https://dc.lft.to/lastmile_qr_scan", "android": "https://dc.lft.to/lastmile_qr_scan"}, "lon": -77.03472683333334, "type": "electric_scooter", "fusion_lat": 0.0, "lat": 38.91267116666667, "name": "9ed9f4286362e484975fa517cdbcba6c", "fusion_lon": 0.0, "bike_id": "9ed9f4286362e484975fa517cdbcba6c", "is_disabled": 0, "is_reserved": 0}, {"rental_uris": {"ios": "https://dc.lft.to/lastmile_qr_scan", "android": "https://dc.lft.to/lastmile_qr_scan"}, "lon": -76.97408266666666, "type": "electric_scooter", "fusion_lat": 0.0, "lat": 38.901619333333336, "name": "87eca5646fd3593538130807db03266a", "fusion_lon": 0.0, "bike_id": "87eca5646fd3593538130807db03266a", "is_disabled": 0, "is_reserved": 0}, {"rental_uris": {"ios": "https://dc.lft.to/lastmile_qr_scan", "android": "https://dc.lft.to/lastmile_qr_scan"}, "lon": -77.03361316666667, "type": "electric_scooter", "fusion_lat": 0.0, "lat": 38.919772333333334, "name": "ad14a96d32bd6365482927156f03ea5a", "fusion_lon": 0.0, "bike_id": "ad14a96d32bd6365482927156f03ea5a", "is_disabled": 0, "is_reserved": 0}, {"rental_uris": {"ios": "https://dc.lft.to/lastmile_qr_scan", "android": "https://dc.lft.to/lastmile_qr_scan"}, "lon": -77.0738305, "type": "electric_bike", "fusion_lat": 0.0, "lat": 38.9618275, "name": "f1bae4b3c60b84fe8c0af847f38e22ab", "fusion_lon": 0.0, "bike_id": "f1bae4b3c60b84fe8c0af847f38e22ab", "is_disabled": 0, "is_reserved": 0}, {"rental_uris": {"ios": "https://dc.lft.to/lastmile_qr_scan", "android": "https://dc.lft.to/lastmile_qr_scan"}, "lon": -77.005661, "type": "electric_scooter", "fusion_lat": 0.0, "lat": 38.9054865, "name": "490a3cde7813e2dd2369c6237bdf0c9f", "fusion_lon": 0.0, "bike_id": "490a3cde7813e2dd2369c6237bdf0c9f", "is_disabled": 0, "is_reserved": 0}, {"rental_uris": {"ios": "https://dc.lft.to/lastmile_qr_scan", "android": "https://dc.lft.to/lastmile_qr_scan"}, "lon": -77.02156883333333, "type": "electric_scooter", "fusion_lat": 0.0, "lat": 38.926090333333335, "name": "47d1a53743e49afc8735309e8af05f57", "fusion_lon": 0.0, "bike_id": "47d1a53743e49afc8735309e8af05f57", "is_disabled": 0, "is_reserved": 0}, {"rental_uris": {"ios": "https://dc.lft.to/lastmile_qr_scan", "android": "https://dc.lft.to/lastmile_qr_scan"}, "lon": -77.00809483333333, "type": "electric_scooter", "fusion_lat": 0.0, "lat": 38.90574383333333, "name": "0e31e951701f13f2dd0aaa471b810d37", "fusion_lon": 0.0, "bike_id": "0e31e951701f13f2dd0aaa471b810d37", "is_disabled": 0, "is_reserved": 0}, {"rental_uris": {"ios": "https://dc.lft.to/lastmile_qr_scan", "android": "https://dc.lft.to/lastmile_qr_scan"}, "lon": -77.0450505, "type": "electric_scooter", "fusion_lat": 0.0, "lat": 38.9111265, "name": "7dfea81cbe3e433068c5706544a740f6", "fusion_lon": 0.0, "bike_id": "7dfea81cbe3e433068c5706544a740f6", "is_disabled": 0, "is_reserved": 0}, {"rental_uris": {"ios": "https://dc.lft.to/lastmile_qr_scan", "android": "https://dc.lft.to/lastmile_qr_scan"}, "lon": -77.0402985, "type": "electric_scooter", "fusion_lat": 0.0, "lat": 38.9040765, "name": "ade7d47d2e60585fe8960bc547720948", "fusion_lon": 0.0, "bike_id": "ade7d47d2e60585fe8960bc547720948", "is_disabled": 0, "is_reserved": 0}, {"rental_uris": {"ios": "https://dc.lft.to/lastmile_qr_scan", "android": "https://dc.lft.to/lastmile_qr_scan"}, "lon": -77.0229805, "type": "electric_scooter", "fusion_lat": 0.0, "lat": 38.901478, "name": "ac85541ae6d56b5d2b07dd47e30ee079", "fusion_lon": 0.0, "bike_id": "ac85541ae6d56b5d2b07dd47e30ee079", "is_disabled": 0, "is_reserved": 0}, {"rental_uris": {"ios": "https://dc.lft.to/lastmile_qr_scan", "android": "https://dc.lft.to/lastmile_qr_scan"}, "lon": -77.0238115, "type": "electric_scooter", "fusion_lat": 0.0, "lat": 38.92053533333333, "name": "7054e3373e3315a979332fdf028a577b", "fusion_lon": 0.0, "bike_id": "7054e3373e3315a979332fdf028a577b", "is_disabled": 0, "is_reserved": 0}, {"rental_uris": {"ios": "https://dc.lft.to/lastmile_qr_scan", "android": "https://dc.lft.to/lastmile_qr_scan"}, "lon": -76.9237135, "type": "electric_bike", "fusion_lat": 0.0, "lat": 38.88378516666667, "name": "83d68d9b4283352044b398689cc11465", "fusion_lon": 0.0, "bike_id": "83d68d9b4283352044b398689cc11465", "is_disabled": 0, "is_reserved": 0}, {"rental_uris": {"ios": "https://dc.lft.to/lastmile_qr_scan", "android": "https://dc.lft.to/lastmile_qr_scan"}, "lon": -77.0987455, "type": "electric_bike", "fusion_lat": 0.0, "lat": 38.947893, "name": "e3fa67cfe88d1a8840384eb73d7e83ba", "fusion_lon": 0.0, "bike_id": "e3fa67cfe88d1a8840384eb73d7e83ba", "is_disabled": 0, "is_reserved": 0}, {"rental_uris": {"ios": "https://dc.lft.to/lastmile_qr_scan", "android": "https://dc.lft.to/lastmile_qr_scan"}, "lon": -76.93174466666666, "type": "electric_scooter", "fusion_lat": 0.0, "lat": 38.89887933333333, "name": "d88e87817852f577a9800b316fc8fd53", "fusion_lon": 0.0, "bike_id": "d88e87817852f577a9800b316fc8fd53", "is_disabled": 0, "is_reserved": 0}, {"rental_uris": {"ios": "https://dc.lft.to/lastmile_qr_scan", "android": "https://dc.lft.to/lastmile_qr_scan"}, "lon": -77.01713, "type": "electric_scooter", "fusion_lat": 0.0, "lat": 38.892220333333334, "name": "fb9a41fbf3949446db0a51b450b89b18", "fusion_lon": 0.0, "bike_id": "fb9a41fbf3949446db0a51b450b89b18", "is_disabled": 0, "is_reserved": 0}, {"rental_uris": {"ios": "https://dc.lft.to/lastmile_qr_scan", "android": "https://dc.lft.to/lastmile_qr_scan"}, "lon": -77.0467815, "type": "electric_scooter", "fusion_lat": 0.0, "lat": 38.9096975, "name": "79996004fc4f89edf982e6e1b3abdd2a", "fusion_lon": 0.0, "bike_id": "79996004fc4f89edf982e6e1b3abdd2a", "is_disabled": 0, "is_reserved": 0}, {"rental_uris": {"ios": "https://dc.lft.to/lastmile_qr_scan", "android": "https://dc.lft.to/lastmile_qr_scan"}, "lon": -77.00255783333333, "type": "electric_scooter", "fusion_lat": 0.0, "lat": 38.911996, "name": "fd453a87221cf32c28e3a1087a1252bd", "fusion_lon": 0.0, "bike_id": "fd453a87221cf32c28e3a1087a1252bd", "is_disabled": 0, "is_reserved": 0}, {"rental_uris": {"ios": "https://dc.lft.to/lastmile_qr_scan", "android": "https://dc.lft.to/lastmile_qr_scan"}, "lon": -77.02000483333333, "type": "electric_scooter", "fusion_lat": 0.0, "lat": 38.914200666666666, "name": "b8c14765dbe589835703ad528d6f528c", "fusion_lon": 0.0, "bike_id": "b8c14765dbe589835703ad528d6f528c", "is_disabled": 0, "is_reserved": 0}, {"rental_uris": {"ios": "https://dc.lft.to/lastmile_qr_scan", "android": "https://dc.lft.to/lastmile_qr_scan"}, "lon": -76.995784, "type": "electric_scooter", "fusion_lat": 0.0, "lat": 38.900287666666664, "name": "a4d4f62d82ee425a6d2f014f83df41b8", "fusion_lon": 0.0, "bike_id": "a4d4f62d82ee425a6d2f014f83df41b8", "is_disabled": 0, "is_reserved": 0}, {"rental_uris": {"ios": "https://dc.lft.to/lastmile_qr_scan", "android": "https://dc.lft.to/lastmile_qr_scan"}, "lon": -77.09508533333333, "type": "electric_bike", "fusion_lat": 0.0, "lat": 38.8875975, "name": "a2bd35aa3ad2f797154a273d0dd6e318", "fusion_lon": 0.0, "bike_id": "a2bd35aa3ad2f797154a273d0dd6e318", "is_disabled": 0, "is_reserved": 0}, {"rental_uris": {"ios": "https://dc.lft.to/lastmile_qr_scan", "android": "https://dc.lft.to/lastmile_qr_scan"}, "lon": -77.02181783333333, "type": "electric_scooter", "fusion_lat": 0.0, "lat": 38.87988, "name": "29057e91b08eb7395967d52d2e524683", "fusion_lon": 0.0, "bike_id": "29057e91b08eb7395967d52d2e524683", "is_disabled": 0, "is_reserved": 0}, {"rental_uris": {"ios": "https://dc.lft.to/lastmile_qr_scan", "android": "https://dc.lft.to/lastmile_qr_scan"}, "lon": -76.98327233333333, "type": "electric_scooter", "fusion_lat": 0.0, "lat": 38.861707333333335, "name": "61d196e666458d7ddd37fab125af8b18", "fusion_lon": 0.0, "bike_id": "61d196e666458d7ddd37fab125af8b18", "is_disabled": 0, "is_reserved": 0}, {"rental_uris": {"ios": "https://dc.lft.to/lastmile_qr_scan", "android": "https://dc.lft.to/lastmile_qr_scan"}, "lon": -76.94879916666666, "type": "electric_scooter", "fusion_lat": 0.0, "lat": 38.895024666666664, "name": "563ae7eacbaac35fdb0d057d8abaae9d", "fusion_lon": 0.0, "bike_id": "563ae7eacbaac35fdb0d057d8abaae9d", "is_disabled": 0, "is_reserved": 0}, {"rental_uris": {"ios": "https://dc.lft.to/lastmile_qr_scan", "android": "https://dc.lft.to/lastmile_qr_scan"}, "lon": -76.9650485, "type": "electric_scooter", "fusion_lat": 0.0, "lat": 38.876478166666665, "name": "f34a6a391d870cdd72c1a0c8d994573e", "fusion_lon": 0.0, "bike_id": "f34a6a391d870cdd72c1a0c8d994573e", "is_disabled": 0, "is_reserved": 0}, {"rental_uris": {"ios": "https://dc.lft.to/lastmile_qr_scan", "android": "https://dc.lft.to/lastmile_qr_scan"}, "lon": -76.95754933333333, "type": "electric_scooter", "fusion_lat": 0.0, "lat": 38.88432916666667, "name": "3e158b1b1304e450adb960f04932ffe4", "fusion_lon": 0.0, "bike_id": "3e158b1b1304e450adb960f04932ffe4", "is_disabled": 0, "is_reserved": 0}, {"rental_uris": {"ios": "https://dc.lft.to/lastmile_qr_scan", "android": "https://dc.lft.to/lastmile_qr_scan"}, "lon": -77.041827, "type": "electric_scooter", "fusion_lat": 0.0, "lat": 38.905712, "name": "73fc5ce4653114b9681849e01e7b93b8", "fusion_lon": 0.0, "bike_id": "73fc5ce4653114b9681849e01e7b93b8", "is_disabled": 0, "is_reserved": 0}, {"rental_uris": {"ios": "https://dc.lft.to/lastmile_qr_scan", "android": "https://dc.lft.to/lastmile_qr_scan"}, "lon": -76.99509716666667, "type": "electric_scooter", "fusion_lat": 0.0, "lat": 38.881805666666665, "name": "55213cda98f2976d69096b9c87f8b39c", "fusion_lon": 0.0, "bike_id": "55213cda98f2976d69096b9c87f8b39c", "is_disabled": 0, "is_reserved": 0}, {"rental_uris": {"ios": "https://dc.lft.to/lastmile_qr_scan", "android": "https://dc.lft.to/lastmile_qr_scan"}, "lon": -77.03003433333333, "type": "electric_scooter", "fusion_lat": 0.0, "lat": 38.91020866666667, "name": "fa682c8d526a732cd99e904afe5a2fc3", "fusion_lon": 0.0, "bike_id": "fa682c8d526a732cd99e904afe5a2fc3", "is_disabled": 0, "is_reserved": 0}, {"rental_uris": {"ios": "https://dc.lft.to/lastmile_qr_scan", "android": "https://dc.lft.to/lastmile_qr_scan"}, "lon": -77.03196433333333, "type": "electric_scooter", "fusion_lat": 0.0, "lat": 38.91016916666667, "name": "ac8682a1c182f82bf5e210741805ffa7", "fusion_lon": 0.0, "bike_id": "ac8682a1c182f82bf5e210741805ffa7", "is_disabled": 0, "is_reserved": 0}, {"rental_uris": {"ios": "https://dc.lft.to/lastmile_qr_scan", "android": "https://dc.lft.to/lastmile_qr_scan"}, "lon": -77.03148633333333, "type": "electric_scooter", "fusion_lat": 0.0, "lat": 38.92474933333333, "name": "cf0d9522d691b4fef5a7c8ec7a3753a8", "fusion_lon": 0.0, "bike_id": "cf0d9522d691b4fef5a7c8ec7a3753a8", "is_disabled": 0, "is_reserved": 0}, {"rental_uris": {"ios": "https://dc.lft.to/lastmile_qr_scan", "android": "https://dc.lft.to/lastmile_qr_scan"}, "lon": -77.152682, "type": "electric_bike", "fusion_lat": 0.0, "lat": 39.1056605, "name": "5a604377985a300598ad50e9d6c1c85a", "fusion_lon": 0.0, "bike_id": "5a604377985a300598ad50e9d6c1c85a", "is_disabled": 0, "is_reserved": 0}, {"rental_uris": {"ios": "https://dc.lft.to/lastmile_qr_scan", "android": "https://dc.lft.to/lastmile_qr_scan"}, "lon": -77.035176, "type": "electric_scooter", "fusion_lat": 0.0, "lat": 38.91840916666666, "name": "981faeab4286e4b17161051d1fe367a0", "fusion_lon": 0.0, "bike_id": "981faeab4286e4b17161051d1fe367a0", "is_disabled": 0, "is_reserved": 0}, {"rental_uris": {"ios": "https://dc.lft.to/lastmile_qr_scan", "android": "https://dc.lft.to/lastmile_qr_scan"}, "lon": -77.04193566666666, "type": "electric_scooter", "fusion_lat": 0.0, "lat": 38.90345333333333, "name": "39dc2238653ced19084c46e85c94bdbe", "fusion_lon": 0.0, "bike_id": "39dc2238653ced19084c46e85c94bdbe", "is_disabled": 0, "is_reserved": 0}, {"rental_uris": {"ios": "https://dc.lft.to/lastmile_qr_scan", "android": "https://dc.lft.to/lastmile_qr_scan"}, "lon": -77.0512175, "type": "electric_scooter", "fusion_lat": 0.0, "lat": 38.9236275, "name": "d972dfd55af7358c24c9f485aece03bc", "fusion_lon": 0.0, "bike_id": "d972dfd55af7358c24c9f485aece03bc", "is_disabled": 0, "is_reserved": 0}, {"rental_uris": {"ios": "https://dc.lft.to/lastmile_qr_scan", "android": "https://dc.lft.to/lastmile_qr_scan"}, "lon": -77.0075265, "type": "electric_scooter", "fusion_lat": 0.0, "lat": 38.89736333333333, "name": "fa84ba1dd7f11e692518bfb7203aa827", "fusion_lon": 0.0, "bike_id": "fa84ba1dd7f11e692518bfb7203aa827", "is_disabled": 0, "is_reserved": 0}, {"rental_uris": {"ios": "https://dc.lft.to/lastmile_qr_scan", "android": "https://dc.lft.to/lastmile_qr_scan"}, "lon": -77.04478916666666, "type": "electric_scooter", "fusion_lat": 0.0, "lat": 38.911238166666664, "name": "cd7d26f7e6105aaa9ec1acc5313b5fd2", "fusion_lon": 0.0, "bike_id": "cd7d26f7e6105aaa9ec1acc5313b5fd2", "is_disabled": 0, "is_reserved": 0}, {"rental_uris": {"ios": "https://dc.lft.to/lastmile_qr_scan", "android": "https://dc.lft.to/lastmile_qr_scan"}, "lon": -77.03665116666667, "type": "electric_bike", "fusion_lat": 0.0, "lat": 38.9524445, "name": "f5482fc3444245585464a9398e36d639", "fusion_lon": 0.0, "bike_id": "f5482fc3444245585464a9398e36d639", "is_disabled": 0, "is_reserved": 0}, {"rental_uris": {"ios": "https://dc.lft.to/lastmile_qr_scan", "android": "https://dc.lft.to/lastmile_qr_scan"}, "lon": -77.00073666666667, "type": "electric_scooter", "fusion_lat": 0.0, "lat": 38.90142733333333, "name": "88fef45917c7830817cbdc652509ec1a", "fusion_lon": 0.0, "bike_id": "88fef45917c7830817cbdc652509ec1a", "is_disabled": 0, "is_reserved": 0}, {"rental_uris": {"ios": "https://dc.lft.to/lastmile_qr_scan", "android": "https://dc.lft.to/lastmile_qr_scan"}, "lon": -77.02478066666667, "type": "electric_scooter", "fusion_lat": 0.0, "lat": 38.89718766666667, "name": "409da7656f3905676b14267d2b6bc912", "fusion_lon": 0.0, "bike_id": "409da7656f3905676b14267d2b6bc912", "is_disabled": 0, "is_reserved": 0}, {"rental_uris": {"ios": "https://dc.lft.to/lastmile_qr_scan", "android": "https://dc.lft.to/lastmile_qr_scan"}, "lon": -77.03220633333333, "type": "electric_scooter", "fusion_lat": 0.0, "lat": 38.91815033333334, "name": "f46aff4dc9fea5126daf0948ef044f8a", "fusion_lon": 0.0, "bike_id": "f46aff4dc9fea5126daf0948ef044f8a", "is_disabled": 0, "is_reserved": 0}, {"rental_uris": {"ios": "https://dc.lft.to/lastmile_qr_scan", "android": "https://dc.lft.to/lastmile_qr_scan"}, "lon": -77.0465815, "type": "electric_scooter", "fusion_lat": 0.0, "lat": 38.89339533333333, "name": "099728be7233d2ecc5eae182aadc064b", "fusion_lon": 0.0, "bike_id": "099728be7233d2ecc5eae182aadc064b", "is_disabled": 0, "is_reserved": 0}, {"rental_uris": {"ios": "https://dc.lft.to/lastmile_qr_scan", "android": "https://dc.lft.to/lastmile_qr_scan"}, "lon": -77.0490265, "type": "electric_scooter", "fusion_lat": 0.0, "lat": 38.90553116666667, "name": "9739bc069a50971f4db0ef3f93be685f", "fusion_lon": 0.0, "bike_id": "9739bc069a50971f4db0ef3f93be685f", "is_disabled": 0, "is_reserved": 0}, {"rental_uris": {"ios": "https://dc.lft.to/lastmile_qr_scan", "android": "https://dc.lft.to/lastmile_qr_scan"}, "lon": -76.94881166666667, "type": "electric_scooter", "fusion_lat": 0.0, "lat": 38.895069, "name": "8dada007e307a14b6e3c95c989283346", "fusion_lon": 0.0, "bike_id": "8dada007e307a14b6e3c95c989283346", "is_disabled": 0, "is_reserved": 0}, {"rental_uris": {"ios": "https://dc.lft.to/lastmile_qr_scan", "android": "https://dc.lft.to/lastmile_qr_scan"}, "lon": -77.04259833333333, "type": "electric_scooter", "fusion_lat": 0.0, "lat": 38.90281266666667, "name": "cd24ea92e7c68eb87c535b1f3d8e475c", "fusion_lon": 0.0, "bike_id": "cd24ea92e7c68eb87c535b1f3d8e475c", "is_disabled": 0, "is_reserved": 0}, {"rental_uris": {"ios": "https://dc.lft.to/lastmile_qr_scan", "android": "https://dc.lft.to/lastmile_qr_scan"}, "lon": -77.03277166666666, "type": "electric_scooter", "fusion_lat": 0.0, "lat": 38.92937383333334, "name": "444f350a724b47d7c4736e391ab8cdaf", "fusion_lon": 0.0, "bike_id": "444f350a724b47d7c4736e391ab8cdaf", "is_disabled": 0, "is_reserved": 0}, {"rental_uris": {"ios": "https://dc.lft.to/lastmile_qr_scan", "android": "https://dc.lft.to/lastmile_qr_scan"}, "lon": -77.10683416666667, "type": "electric_bike", "fusion_lat": 0.0, "lat": 38.9358525, "name": "f9d729bcd9131f4f2f637efad8a5bf55", "fusion_lon": 0.0, "bike_id": "f9d729bcd9131f4f2f637efad8a5bf55", "is_disabled": 0, "is_reserved": 0}, {"rental_uris": {"ios": "https://dc.lft.to/lastmile_qr_scan", "android": "https://dc.lft.to/lastmile_qr_scan"}, "lon": -77.061835, "type": "electric_scooter", "fusion_lat": 0.0, "lat": 38.902569166666666, "name": "b87af7b2d8df2c1ca792524ae5265335", "fusion_lon": 0.0, "bike_id": "b87af7b2d8df2c1ca792524ae5265335", "is_disabled": 0, "is_reserved": 0}, {"rental_uris": {"ios": "https://dc.lft.to/lastmile_qr_scan", "android": "https://dc.lft.to/lastmile_qr_scan"}, "lon": -76.97829, "type": "electric_bike", "fusion_lat": 0.0, "lat": 38.8461135, "name": "2db4cdb4e571171ecfdd6952e8ac5ef2", "fusion_lon": 0.0, "bike_id": "2db4cdb4e571171ecfdd6952e8ac5ef2", "is_disabled": 0, "is_reserved": 0}, {"rental_uris": {"ios": "https://dc.lft.to/lastmile_qr_scan", "android": "https://dc.lft.to/lastmile_qr_scan"}, "lon": -77.03411516666667, "type": "electric_scooter", "fusion_lat": 0.0, "lat": 38.93546516666667, "name": "c6ff4b5ff6208a86cdcc3ca28325989a", "fusion_lon": 0.0, "bike_id": "c6ff4b5ff6208a86cdcc3ca28325989a", "is_disabled": 0, "is_reserved": 0}, {"rental_uris": {"ios": "https://dc.lft.to/lastmile_qr_scan", "android": "https://dc.lft.to/lastmile_qr_scan"}, "lon": -77.029677, "type": "electric_scooter", "fusion_lat": 0.0, "lat": 38.892195666666666, "name": "ad409cb8b89d81a5771f9ad371a9cf23", "fusion_lon": 0.0, "bike_id": "ad409cb8b89d81a5771f9ad371a9cf23", "is_disabled": 0, "is_reserved": 0}, {"rental_uris": {"ios": "https://dc.lft.to/lastmile_qr_scan", "android": "https://dc.lft.to/lastmile_qr_scan"}, "lon": -77.03141016666666, "type": "electric_scooter", "fusion_lat": 0.0, "lat": 38.9103725, "name": "e6dc98f3aa1e31b2addba349616e207e", "fusion_lon": 0.0, "bike_id": "e6dc98f3aa1e31b2addba349616e207e", "is_disabled": 0, "is_reserved": 0}, {"rental_uris": {"ios": "https://dc.lft.to/lastmile_qr_scan", "android": "https://dc.lft.to/lastmile_qr_scan"}, "lon": -77.1262885, "type": "electric_bike", "fusion_lat": 0.0, "lat": 39.05814566666667, "name": "90013640d3e5cf934067245c98594510", "fusion_lon": 0.0, "bike_id": "90013640d3e5cf934067245c98594510", "is_disabled": 0, "is_reserved": 0}, {"rental_uris": {"ios": "https://dc.lft.to/lastmile_qr_scan", "android": "https://dc.lft.to/lastmile_qr_scan"}, "lon": -77.0396225, "type": "electric_scooter", "fusion_lat": 0.0, "lat": 38.89858483333333, "name": "68bffe0afb352af690ac7ec42e7829f2", "fusion_lon": 0.0, "bike_id": "68bffe0afb352af690ac7ec42e7829f2", "is_disabled": 0, "is_reserved": 0}, {"rental_uris": {"ios": "https://dc.lft.to/lastmile_qr_scan", "android": "https://dc.lft.to/lastmile_qr_scan"}, "lon": -76.9839335, "type": "electric_bike", "fusion_lat": 0.0, "lat": 38.922028166666664, "name": "5f6c7664ac698fba25228e6c0b968ee7", "fusion_lon": 0.0, "bike_id": "5f6c7664ac698fba25228e6c0b968ee7", "is_disabled": 0, "is_reserved": 0}, {"rental_uris": {"ios": "https://dc.lft.to/lastmile_qr_scan", "android": "https://dc.lft.to/lastmile_qr_scan"}, "lon": -77.04898983333334, "type": "electric_scooter", "fusion_lat": 0.0, "lat": 38.9057365, "name": "4784d6a6afc62d73cb8b5e6b2166ef15", "fusion_lon": 0.0, "bike_id": "4784d6a6afc62d73cb8b5e6b2166ef15", "is_disabled": 0, "is_reserved": 0}, {"rental_uris": {"ios": "https://dc.lft.to/lastmile_qr_scan", "android": "https://dc.lft.to/lastmile_qr_scan"}, "lon": -77.02694116666666, "type": "electric_scooter", "fusion_lat": 0.0, "lat": 38.90626666666667, "name": "422456e59e22980e8052680cc5536c65", "fusion_lon": 0.0, "bike_id": "422456e59e22980e8052680cc5536c65", "is_disabled": 0, "is_reserved": 0}, {"rental_uris": {"ios": "https://dc.lft.to/lastmile_qr_scan", "android": "https://dc.lft.to/lastmile_qr_scan"}, "lon": -77.00034783333334, "type": "electric_scooter", "fusion_lat": 0.0, "lat": 38.8745405, "name": "1d838154105d5a9bfdf68001458d0e01", "fusion_lon": 0.0, "bike_id": "1d838154105d5a9bfdf68001458d0e01", "is_disabled": 0, "is_reserved": 0}, {"rental_uris": {"ios": "https://dc.lft.to/lastmile_qr_scan", "android": "https://dc.lft.to/lastmile_qr_scan"}, "lon": -77.04175683333334, "type": "electric_scooter", "fusion_lat": 0.0, "lat": 38.91941033333333, "name": "89306b18a03f3bd719b6fd3cbf3c659f", "fusion_lon": 0.0, "bike_id": "89306b18a03f3bd719b6fd3cbf3c659f", "is_disabled": 0, "is_reserved": 0}, {"rental_uris": {"ios": "https://dc.lft.to/lastmile_qr_scan", "android": "https://dc.lft.to/lastmile_qr_scan"}, "lon": -77.03570366666666, "type": "electric_scooter", "fusion_lat": 0.0, "lat": 38.91819783333333, "name": "3e3403c22deaa4dcdfcbae28fcb550d0", "fusion_lon": 0.0, "bike_id": "3e3403c22deaa4dcdfcbae28fcb550d0", "is_disabled": 0, "is_reserved": 0}, {"rental_uris": {"ios": "https://dc.lft.to/lastmile_qr_scan", "android": "https://dc.lft.to/lastmile_qr_scan"}, "lon": -77.06952216666667, "type": "electric_bike", "fusion_lat": 0.0, "lat": 38.99041533333333, "name": "f4c4485d39c9b5950d721943d93f7f4f", "fusion_lon": 0.0, "bike_id": "f4c4485d39c9b5950d721943d93f7f4f", "is_disabled": 0, "is_reserved": 0}, {"rental_uris": {"ios": "https://dc.lft.to/lastmile_qr_scan", "android": "https://dc.lft.to/lastmile_qr_scan"}, "lon": -77.03284833333333, "type": "electric_scooter", "fusion_lat": 0.0, "lat": 38.937807166666666, "name": "430a20890b0a191c709f0328e4f78716", "fusion_lon": 0.0, "bike_id": "430a20890b0a191c709f0328e4f78716", "is_disabled": 0, "is_reserved": 0}, {"rental_uris": {"ios": "https://dc.lft.to/lastmile_qr_scan", "android": "https://dc.lft.to/lastmile_qr_scan"}, "lon": -77.05883083333333, "type": "electric_scooter", "fusion_lat": 0.0, "lat": 38.936363, "name": "f689e7c7f80168e5d46cf4c2251cdbf5", "fusion_lon": 0.0, "bike_id": "f689e7c7f80168e5d46cf4c2251cdbf5", "is_disabled": 0, "is_reserved": 0}, {"rental_uris": {"ios": "https://dc.lft.to/lastmile_qr_scan", "android": "https://dc.lft.to/lastmile_qr_scan"}, "lon": -77.027074, "type": "electric_scooter", "fusion_lat": 0.0, "lat": 38.906712, "name": "7ed917a643add0368e951e5f8660b406", "fusion_lon": 0.0, "bike_id": "7ed917a643add0368e951e5f8660b406", "is_disabled": 0, "is_reserved": 0}, {"rental_uris": {"ios": "https://dc.lft.to/lastmile_qr_scan", "android": "https://dc.lft.to/lastmile_qr_scan"}, "lon": -77.02160916666666, "type": "electric_scooter", "fusion_lat": 0.0, "lat": 38.9260565, "name": "7c0d0f12512fe1e17beaf94a12603514", "fusion_lon": 0.0, "bike_id": "7c0d0f12512fe1e17beaf94a12603514", "is_disabled": 0, "is_reserved": 0}, {"rental_uris": {"ios": "https://dc.lft.to/lastmile_qr_scan", "android": "https://dc.lft.to/lastmile_qr_scan"}, "lon": -77.033428, "type": "electric_scooter", "fusion_lat": 0.0, "lat": 38.89725933333333, "name": "59f49cab0ab493617275f342a935127c", "fusion_lon": 0.0, "bike_id": "59f49cab0ab493617275f342a935127c", "is_disabled": 0, "is_reserved": 0}, {"rental_uris": {"ios": "https://dc.lft.to/lastmile_qr_scan", "android": "https://dc.lft.to/lastmile_qr_scan"}, "lon": -77.00207966666666, "type": "electric_scooter", "fusion_lat": 0.0, "lat": 38.900711666666666, "name": "9dd663096ad23431ad3acfafcc408114", "fusion_lon": 0.0, "bike_id": "9dd663096ad23431ad3acfafcc408114", "is_disabled": 0, "is_reserved": 0}, {"rental_uris": {"ios": "https://dc.lft.to/lastmile_qr_scan", "android": "https://dc.lft.to/lastmile_qr_scan"}, "lon": -77.04209866666666, "type": "electric_scooter", "fusion_lat": 0.0, "lat": 38.92129883333333, "name": "1f1aad42636ce1ed8f01db2f0440b39f", "fusion_lon": 0.0, "bike_id": "1f1aad42636ce1ed8f01db2f0440b39f", "is_disabled": 0, "is_reserved": 0}, {"rental_uris": {"ios": "https://dc.lft.to/lastmile_qr_scan", "android": "https://dc.lft.to/lastmile_qr_scan"}, "lon": -77.00761633333333, "type": "electric_scooter", "fusion_lat": 0.0, "lat": 38.87662066666667, "name": "0ddfa4fe4ee32a622a688511768a9dc7", "fusion_lon": 0.0, "bike_id": "0ddfa4fe4ee32a622a688511768a9dc7", "is_disabled": 0, "is_reserved": 0}, {"rental_uris": {"ios": "https://dc.lft.to/lastmile_qr_scan", "android": "https://dc.lft.to/lastmile_qr_scan"}, "lon": -77.00672733333333, "type": "electric_bike", "fusion_lat": 0.0, "lat": 38.94516083333333, "name": "69ae2a4889f6cc27550f1a7c94ef5e43", "fusion_lon": 0.0, "bike_id": "69ae2a4889f6cc27550f1a7c94ef5e43", "is_disabled": 0, "is_reserved": 0}, {"rental_uris": {"ios": "https://dc.lft.to/lastmile_qr_scan", "android": "https://dc.lft.to/lastmile_qr_scan"}, "lon": -77.00595883333334, "type": "electric_scooter", "fusion_lat": 0.0, "lat": 38.90635666666667, "name": "fd5c2761bad644ceb46795053a020ea1", "fusion_lon": 0.0, "bike_id": "fd5c2761bad644ceb46795053a020ea1", "is_disabled": 0, "is_reserved": 0}, {"rental_uris": {"ios": "https://dc.lft.to/lastmile_qr_scan", "android": "https://dc.lft.to/lastmile_qr_scan"},