{"data": {"bikes": [{"lat": 38.897715833333336, "is_disabled": 0, "type": "electric_bike", "lon": -76.9044005, "bike_id": "1982c8c5d89eb48a82c5f303aeee5f88", "fusion_lat": 0.0, "name": "1982c8c5d89eb48a82c5f303aeee5f88", "is_reserved": 0, "rental_uris": {"android": "https://dc.lft.to/lastmile_qr_scan", "ios": "https://dc.lft.to/lastmile_qr_scan"}, "fusion_lon": 0.0}, {"lat": 38.9006955, "is_disabled": 0, "type": "electric_scooter", "lon": -77.04962116666667, "bike_id": "7501738c79f51f4c9bdb54c4f084f727", "fusion_lat": 0.0, "name": "7501738c79f51f4c9bdb54c4f084f727", "is_reserved": 0, "rental_uris": {"android": "https://dc.lft.to/lastmile_qr_scan", "ios": "https://dc.lft.to/lastmile_qr_scan"}, "fusion_lon": 0.0}, {"lat": 38.95638316666667, "is_disabled": 0, "type": "electric_bike", "lon": -76.9388275, "bike_id": "1dea801d348eacec29ef31a993ed3d3e", "fusion_lat": 0.0, "name": "1dea801d348eacec29ef31a993ed3d3e", "is_reserved": 0, "rental_uris": {"android": "https://dc.lft.to/lastmile_qr_scan", "ios": "https://dc.lft.to/lastmile_qr_scan"}, "fusion_lon": 0.0}, {"lat": 38.880944166666666, "is_disabled": 0, "type": "electric_scooter", "lon": -76.99856116666666, "bike_id": "3eee68f40f7f64dfaf5cd44a828deeab", "fusion_lat": 0.0, "name": "3eee68f40f7f64dfaf5cd44a828deeab", "is_reserved": 0, "rental_uris": {"android": "https://dc.lft.to/lastmile_qr_scan", "ios": "https://dc.lft.to/lastmile_qr_scan"}, "fusion_lon": 0.0}, {"lat": 38.84275183333333, "is_disabled": 0, "type": "electric_bike", "lon": -76.98842166666667, "bike_id": "82ed366e5dcb7e9b5dbb42b943e1340e", "fusion_lat": 0.0, "name": "82ed366e5dcb7e9b5dbb42b943e1340e", "is_reserved": 0, "rental_uris": {"android": "https://dc.lft.to/lastmile_qr_scan", "ios": "https://dc.lft.to/lastmile_qr_scan"}, "fusion_lon": 0.0}, {"lat": 38.9073085, "is_disabled": 0, "type": "electric_scooter", "lon": -77.037111, "bike_id": "f859b8299a36ae995d0ae7b171b2d583", "fusion_lat": 0.0, "name": "f859b8299a36ae995d0ae7b171b2d583", "is_reserved": 0, "rental_uris": {"android": "https://dc.lft.to/lastmile_qr_scan", "ios": "https://dc.lft.to/lastmile_qr_scan"}, "fusion_lon": 0.0}, {"lat": 38.919657666666666, "is_disabled": 0, "type": "electric_scooter", "lon": -77.012171, "bike_id": "cfdbcd0b8dde1b33d9b1893b2a86e541", "fusion_lat": 0.0, "name": "cfdbcd0b8dde1b33d9b1893b2a86e541", "is_reserved": 0, "rental_uris": {"android": "https://dc.lft.to/lastmile_qr_scan", "ios": "https://dc.lft.to/lastmile_qr_scan"}, "fusion_lon": 0.0}, {"lat": 38.92662816666667, "is_disabled": 0, "type": "electric_scooter", "lon": -76.9953375, "bike_id": "27a3c139d59f49883a4a78736bab51eb", "fusion_lat": 0.0, "name": "27a3c139d59f49883a4a78736bab51eb", "is_reserved": 0, "rental_uris": {"android": "https://dc.lft.to/lastmile_qr_scan", "ios": "https://dc.lft.to/lastmile_qr_scan"}, "fusion_lon": 0.0}, {"lat": 38.925727, "is_disabled": 0, "type": "electric_scooter", "lon": -77.05741616666667, "bike_id": "77ad2f400238636dac6b10e87acc66a4", "fusion_lat": 0.0, "name": "77ad2f400238636dac6b10e87acc66a4", "is_reserved": 0, "rental_uris": {"android": "https://dc.lft.to/lastmile_qr_scan", "ios": "https://dc.lft.to/lastmile_qr_scan"}, "fusion_lon": 0.0}, {"lat": 38.89801216666667, "is_disabled": 0, "type": "electric_scooter", "lon": -77.00050816666666, "bike_id": "d58edb9fcf9391e00023fa8799e3e986", "fusion_lat": 0.0, "name": "d58edb9fcf9391e00023fa8799e3e986", "is_reserved": 0, "rental_uris": {"android": "https://dc.lft.to/lastmile_qr_scan", "ios": "https://dc.lft.to/lastmile_qr_scan"}, "fusion_lon": 0.0}, {"lat": 38.95560166666667, "is_disabled": 0, "type": "electric_scooter", "lon": -77.02229983333334, "bike_id": "ff3925803e3f10b04a4bc7b154f20b02", "fusion_lat": 0.0, "name": "ff3925803e3f10b04a4bc7b154f20b02", "is_reserved": 0, "rental_uris": {"android": "https://dc.lft.to/lastmile_qr_scan", "ios": "https://dc.lft.to/lastmile_qr_scan"}, "fusion_lon": 0.0}, {"lat": 38.9091705, "is_disabled": 0, "type": "electric_scooter", "lon": -77.03644183333333, "bike_id": "0133e04709068ba77821c22a4048c6e5", "fusion_lat": 0.0, "name": "0133e04709068ba77821c22a4048c6e5", "is_reserved": 0, "rental_uris": {"android": "https://dc.lft.to/lastmile_qr_scan", "ios": "https://dc.lft.to/lastmile_qr_scan"}, "fusion_lon": 0.0}, {"lat": 38.86560883333333, "is_disabled": 0, "type": "electric_scooter", "lon": -76.98943733333333, "bike_id": "99224b6054fde49959699759d3ea524e", "fusion_lat": 0.0, "name": "99224b6054fde49959699759d3ea524e", "is_reserved": 0, "rental_uris": {"android": "https://dc.lft.to/lastmile_qr_scan", "ios": "https://dc.lft.to/lastmile_qr_scan"}, "fusion_lon": 0.0}, {"lat": 38.907690333333335, "is_disabled": 0, "type": "electric_scooter", "lon": -76.98301816666667, "bike_id": "9222aae5bc68a3998b0dbd090e908b38", "fusion_lat": 0.0, "name": "9222aae5bc68a3998b0dbd090e908b38", "is_reserved": 0, "rental_uris": {"android": "https://dc.lft.to/lastmile_qr_scan", "ios": "https://dc.lft.to/lastmile_qr_scan"}, "fusion_lon": 0.0}, {"lat": 38.922485, "is_disabled": 0, "type": "electric_scooter", "lon": -77.0297325, "bike_id": "d73c827133339130bb319844a7e0bcf7", "fusion_lat": 0.0, "name": "d73c827133339130bb319844a7e0bcf7", "is_reserved": 0, "rental_uris": {"android": "https://dc.lft.to/lastmile_qr_scan", "ios": "https://dc.lft.to/lastmile_qr_scan"}, "fusion_lon": 0.0}, {"lat": 38.901075166666665, "is_disabled": 0, "type": "electric_scooter", "lon": -76.99614966666667, "bike_id": "cdcecbb5e576df3a8094e021316e5a21", "fusion_lat": 0.0, "name": "cdcecbb5e576df3a8094e021316e5a21", "is_reserved": 0, "rental_uris": {"android": "https://dc.lft.to/lastmile_qr_scan", "ios": "https://dc.lft.to/lastmile_qr_scan"}, "fusion_lon": 0.0}, {"lat": 38.92746183333333, "is_disabled": 0, "type": "electric_scooter", "lon": -77.024125, "bike_id": "3fff6f06539dc4afc94343e2e922b946", "fusion_lat": 0.0, "name": "3fff6f06539dc4afc94343e2e922b946", "is_reserved": 0, "rental_uris": {"android": "https://dc.lft.to/lastmile_qr_scan", "ios": "https://dc.lft.to/lastmile_qr_scan"}, "fusion_lon": 0.0}, {"lat": 38.88576533333333, "is_disabled": 0, "type": "electric_scooter", "lon": -76.9190685, "bike_id": "e936fa7051e4564da1d5a2d636cd6f14", "fusion_lat": 0.0, "name": "e936fa7051e4564da1d5a2d636cd6f14", "is_reserved": 0, "rental_uris": {"android": "https://dc.lft.to/lastmile_qr_scan", "ios": "https://dc.lft.to/lastmile_qr_scan"}, "fusion_lon": 0.0}, {"lat": 38.9132425, "is_disabled": 0, "type": "electric_scooter", "lon": -77.04534433333333, "bike_id": "1f72af2202e027990ae478c15b70aa0e", "fusion_lat": 0.0, "name": "1f72af2202e027990ae478c15b70aa0e", "is_reserved": 0, "rental_uris": {"android": "https://dc.lft.to/lastmile_qr_scan", "ios": "https://dc.lft.to/lastmile_qr_scan"}, "fusion_lon": 0.0}, {"lat": 38.897292666666665, "is_disabled": 0, "type": "electric_scooter", "lon": -77.04908066666667, "bike_id": "a3bb710abdc8f5524bf8999bf2e5c2e9", "fusion_lat": 0.0, "name": "a3bb710abdc8f5524bf8999bf2e5c2e9", "is_reserved": 0, "rental_uris": {"android": "https://dc.lft.to/lastmile_qr_scan", "ios": "https://dc.lft.to/lastmile_qr_scan"}, "fusion_lon": 0.0}, {"lat": 38.954033333333335, "is_disabled": 0, "type": "electric_scooter", "lon": -77.02742533333333, "bike_id": "b90d8b1bb7b455c334e5f764163a56d7", "fusion_lat": 0.0, "name": "b90d8b1bb7b455c334e5f764163a56d7", "is_reserved": 0, "rental_uris": {"android": "https://dc.lft.to/lastmile_qr_scan", "ios": "https://dc.lft.to/lastmile_qr_scan"}, "fusion_lon": 0.0}, {"lat": 38.92182866666667, "is_disabled": 0, "type": "electric_scooter", "lon": -77.04703766666667, "bike_id": "fe5f124d75f5e2c120921695e03f56e2", "fusion_lat": 0.0, "name": "fe5f124d75f5e2c120921695e03f56e2", "is_reserved": 0, "rental_uris": {"android": "https://dc.lft.to/lastmile_qr_scan", "ios": "https://dc.lft.to/lastmile_qr_scan"}, "fusion_lon": 0.0}, {"lat": 38.914150666666664, "is_disabled": 0, "type": "electric_scooter", "lon": -77.01329883333334, "bike_id": "a443daf42b03bf734f7bf1b0fa1173e5", "fusion_lat": 0.0, "name": "a443daf42b03bf734f7bf1b0fa1173e5", "is_reserved": 0, "rental_uris": {"android": "https://dc.lft.to/lastmile_qr_scan", "ios": "https://dc.lft.to/lastmile_qr_scan"}, "fusion_lon": 0.0}, {"lat": 38.926028, "is_disabled": 0, "type": "electric_scooter", "lon": -77.05691166666666, "bike_id": "57e553b3b9bb6bb1b11dc437f5c27a5d", "fusion_lat": 0.0, "name": "57e553b3b9bb6bb1b11dc437f5c27a5d", "is_reserved": 0, "rental_uris": {"android": "https://dc.lft.to/lastmile_qr_scan", "ios": "https://dc.lft.to/lastmile_qr_scan"}, "fusion_lon": 0.0}, {"lat": 38.9375045, "is_disabled": 0, "type": "electric_scooter", "lon": -77.03471183333333, "bike_id": "974d8dda7c4ac5414fced2f0850283a2", "fusion_lat": 0.0, "name": "974d8dda7c4ac5414fced2f0850283a2", "is_reserved": 0, "rental_uris": {"android": "https://dc.lft.to/lastmile_qr_scan", "ios": "https://dc.lft.to/lastmile_qr_scan"}, "fusion_lon": 0.0}, {"lat": 38.9155355, "is_disabled": 0, "type": "electric_scooter", "lon": -77.053089, "bike_id": "6fd0a767bf70ba87a38bd788ca3eaf8d", "fusion_lat": 0.0, "name": "6fd0a767bf70ba87a38bd788ca3eaf8d", "is_reserved": 0, "rental_uris": {"android": "https://dc.lft.to/lastmile_qr_scan", "ios": "https://dc.lft.to/lastmile_qr_scan"}, "fusion_lon": 0.0}, {"lat": 38.90619683333333, "is_disabled": 0, "type": "electric_scooter", "lon": -76.98980883333333, "bike_id": "8bbfc9f37a675c1afd3628eaf3fb900e", "fusion_lat": 0.0, "name": "8bbfc9f37a675c1afd3628eaf3fb900e", "is_reserved": 0, "rental_uris": {"android": "https://dc.lft.to/lastmile_qr_scan", "ios": "https://dc.lft.to/lastmile_qr_scan"}, "fusion_lon": 0.0}, {"lat": 38.899013833333335, "is_disabled": 0, "type": "electric_scooter", "lon": -76.93360566666667, "bike_id": "ef9eabedd7c389feaa44a4495efae9f1", "fusion_lat": 0.0, "name": "ef9eabedd7c389feaa44a4495efae9f1", "is_reserved": 0, "rental_uris": {"android": "https://dc.lft.to/lastmile_qr_scan", "ios": "https://dc.lft.to/lastmile_qr_scan"}, "fusion_lon": 0.0}, {"lat": 38.91554716666667, "is_disabled": 0, "type": "electric_scooter", "lon": -77.03786866666667, "bike_id": "887a9d29d8d1f3a672c8931306677d7e", "fusion_lat": 0.0, "name": "887a9d29d8d1f3a672c8931306677d7e", "is_reserved": 0, "rental_uris": {"android": "https://dc.lft.to/lastmile_qr_scan", "ios": "https://dc.lft.to/lastmile_qr_scan"}, "fusion_lon": 0.0}, {"lat": 38.908651666666664, "is_disabled": 0, "type": "electric_scooter", "lon": -76.991663, "bike_id": "29cccddea417b514af5abfaf3ab8538b", "fusion_lat": 0.0, "name": "29cccddea417b514af5abfaf3ab8538b", "is_reserved": 0, "rental_uris": {"android": "https://dc.lft.to/lastmile_qr_scan", "ios": "https://dc.lft.to/lastmile_qr_scan"}, "fusion_lon": 0.0}, {"lat": 38.90032566666667, "is_disabled": 0, "type": "electric_scooter", "lon": -77.00203116666667, "bike_id": "8fcca735c4fd7e0f5d6eeef7f663f08a", "fusion_lat": 0.0, "name": "8fcca735c4fd7e0f5d6eeef7f663f08a", "is_reserved": 0, "rental_uris": {"android": "https://dc.lft.to/lastmile_qr_scan", "ios": "https://dc.lft.to/lastmile_qr_scan"}, "fusion_lon": 0.0}, {"lat": 38.859082, "is_disabled": 0, "type": "electric_scooter", "lon": -76.9914925, "bike_id": "f4f543660235e4ec229d2256d8a914b0", "fusion_lat": 0.0, "name": "f4f543660235e4ec229d2256d8a914b0", "is_reserved": 0, "rental_uris": {"android": "https://dc.lft.to/lastmile_qr_scan", "ios": "https://dc.lft.to/lastmile_qr_scan"}, "fusion_lon": 0.0}, {"lat": 39.05195366666667, "is_disabled": 0, "type": "electric_bike", "lon": -77.1091445, "bike_id": "1bb547985f5af2d373cc6df9d5fc131c", "fusion_lat": 0.0, "name": "1bb547985f5af2d373cc6df9d5fc131c", "is_reserved": 0, "rental_uris": {"android": "https://dc.lft.to/lastmile_qr_scan", "ios": "https://dc.lft.to/lastmile_qr_scan"}, "fusion_lon": 0.0}, {"lat": 38.89123166666667, "is_disabled": 0, "type": "electric_scooter", "lon": -76.94386683333333, "bike_id": "e22e2e1d8d637a0134f8d02e8e9f5113", "fusion_lat": 0.0, "name": "e22e2e1d8d637a0134f8d02e8e9f5113", "is_reserved": 0, "rental_uris": {"android": "https://dc.lft.to/lastmile_qr_scan", "ios": "https://dc.lft.to/lastmile_qr_scan"}, "fusion_lon": 0.0}, {"lat": 38.90043283333333, "is_disabled": 0, "type": "electric_scooter", "lon": -76.99371333333333, "bike_id": "06acc56775d0202a41b5f6a07a6d7505", "fusion_lat": 0.0, "name": "06acc56775d0202a41b5f6a07a6d7505", "is_reserved": 0, "rental_uris": {"android": "https://dc.lft.to/lastmile_qr_scan", "ios": "https://dc.lft.to/lastmile_qr_scan"}, "fusion_lon": 0.0}, {"lat": 38.9104565, "is_disabled": 0, "type": "electric_scooter", "lon": -77.02755716666667, "bike_id": "3b0778a37e4367edd14626b2aff7a10c", "fusion_lat": 0.0, "name": "3b0778a37e4367edd14626b2aff7a10c", "is_reserved": 0, "rental_uris": {"android": "https://dc.lft.to/lastmile_qr_scan", "ios": "https://dc.lft.to/lastmile_qr_scan"}, "fusion_lon": 0.0}, {"lat": 38.952740666666664, "is_disabled": 0, "type": "electric_scooter", "lon": -77.06875233333334, "bike_id": "4225a940e3c9bd3072d42b2a0711f3c6", "fusion_lat": 0.0, "name": "4225a940e3c9bd3072d42b2a0711f3c6", "is_reserved": 0, "rental_uris": {"android": "https://dc.lft.to/lastmile_qr_scan", "ios": "https://dc.lft.to/lastmile_qr_scan"}, "fusion_lon": 0.0}, {"lat": 38.86655616666667, "is_disabled": 0, "type": "electric_scooter", "lon": -76.98879633333334, "bike_id": "6ceab0b472a60a1b8208c5c6570b5233", "fusion_lat": 0.0, "name": "6ceab0b472a60a1b8208c5c6570b5233", "is_reserved": 0, "rental_uris": {"android": "https://dc.lft.to/lastmile_qr_scan", "ios": "https://dc.lft.to/lastmile_qr_scan"}, "fusion_lon": 0.0}, {"lat": 38.89615666666667, "is_disabled": 0, "type": "electric_scooter", "lon": -77.045044, "bike_id": "6a676b75c6e8cbb327582315864dbb29", "fusion_lat": 0.0, "name": "6a676b75c6e8cbb327582315864dbb29", "is_reserved": 0, "rental_uris": {"android": "https://dc.lft.to/lastmile_qr_scan", "ios": "https://dc.lft.to/lastmile_qr_scan"}, "fusion_lon": 0.0}, {"lat": 38.919502333333334, "is_disabled": 0, "type": "electric_scooter", "lon": -76.98076533333334, "bike_id": "36bb8612ff80e8e30aaea5b92e54e35d", "fusion_lat": 0.0, "name": "36bb8612ff80e8e30aaea5b92e54e35d", "is_reserved": 0, "rental_uris": {"android": "https://dc.lft.to/lastmile_qr_scan", "ios": "https://dc.lft.to/lastmile_qr_scan"}, "fusion_lon": 0.0}, {"lat": 38.855693333333335, "is_disabled": 0, "type": "electric_bike", "lon": -77.11137933333333, "bike_id": "7e5f0dcb99e2bee1dafbcffa6c82c894", "fusion_lat": 0.0, "name": "7e5f0dcb99e2bee1dafbcffa6c82c894", "is_reserved": 0, "rental_uris": {"android": "https://dc.lft.to/lastmile_qr_scan", "ios": "https://dc.lft.to/lastmile_qr_scan"}, "fusion_lon": 0.0}, {"lat": 38.9052705, "is_disabled": 0, "type": "electric_scooter", "lon": -77.06235066666666, "bike_id": "b755229b81d22d1d00e8e5184829f712", "fusion_lat": 0.0, "name": "b755229b81d22d1d00e8e5184829f712", "is_reserved": 0, "rental_uris": {"android": "https://dc.lft.to/lastmile_qr_scan", "ios": "https://dc.lft.to/lastmile_qr_scan"}, "fusion_lon": 0.0}, {"lat": 38.89736083333333, "is_disabled": 0, "type": "electric_scooter", "lon": -77.007728, "bike_id": "08f0dc5126eb599b5ebd075a13de0d21", "fusion_lat": 0.0, "name": "08f0dc5126eb599b5ebd075a13de0d21", "is_reserved": 0, "rental_uris": {"android": "https://dc.lft.to/lastmile_qr_scan", "ios": "https://dc.lft.to/lastmile_qr_scan"}, "fusion_lon": 0.0}, {"lat": 38.933239, "is_disabled": 0, "type": "electric_scooter", "lon": -77.04366166666667, "bike_id": "407b88d1485f5bf2ffb1ae6825ad4ad1", "fusion_lat": 0.0, "name": "407b88d1485f5bf2ffb1ae6825ad4ad1", "is_reserved": 0, "rental_uris": {"android": "https://dc.lft.to/lastmile_qr_scan", "ios": "https://dc.lft.to/lastmile_qr_scan"}, "fusion_lon": 0.0}, {"lat": 38.89003016666667, "is_disabled": 0, "type": "electric_scooter", "lon": -77.0492285, "bike_id": "6bee3e26a206e933e1388cc07ff4f1b6", "fusion_lat": 0.0, "name": "6bee3e26a206e933e1388cc07ff4f1b6", "is_reserved": 0, "rental_uris": {"android": "https://dc.lft.to/lastmile_qr_scan", "ios": "https://dc.lft.to/lastmile_qr_scan"}, "fusion_lon": 0.0}, {"lat": 38.88657583333333, "is_disabled": 0, "type": "electric_bike", "lon": -77.162287, "bike_id": "870d8c04eb9b267758bf6b846a18528f", "fusion_lat": 0.0, "name": "870d8c04eb9b267758bf6b846a18528f", "is_reserved": 0, "rental_uris": {"android": "https://dc.lft.to/lastmile_qr_scan", "ios": "https://dc.lft.to/lastmile_qr_scan"}, "fusion_lon": 0.0}, {"lat": 38.887392, "is_disabled": 0, "type": "electric_scooter", "lon": -77.01529666666667, "bike_id": "cda0e5ec35995d6b9bf924e0e9ff3672", "fusion_lat": 0.0, "name": "cda0e5ec35995d6b9bf924e0e9ff3672", "is_reserved": 0, "rental_uris": {"android": "https://dc.lft.to/lastmile_qr_scan", "ios": "https://dc.lft.to/lastmile_qr_scan"}, "fusion_lon": 0.0}, {"lat": 38.9128905, "is_disabled": 0, "type": "electric_scooter", "lon": -77.02380766666667, "bike_id": "0b14a7fe9d0632fbdb393e542424dec0", "fusion_lat": 0.0, "name": "0b14a7fe9d0632fbdb393e542424dec0", "is_reserved": 0, "rental_uris": {"android": "https://dc.lft.to/lastmile_qr_scan", "ios": "https://dc.lft.to/lastmile_qr_scan"}, "fusion_lon": 0.0}, {"lat": 38.91136783333334, "is_disabled": 0, "type": "electric_scooter", "lon": -77.02690966666667, "bike_id": "f0fea436de382129de0401b11f967fcb", "fusion_lat": 0.0, "name": "f0fea436de382129de0401b11f967fcb", "is_reserved": 0, "rental_uris": {"android": "https://dc.lft.to/lastmile_qr_scan", "ios": "https://dc.lft.to/lastmile_qr_scan"}, "fusion_lon": 0.0}, {"lat": 38.915386, "is_disabled": 0, "type": "electric_scooter", "lon": -77.0379015, "bike_id": "695388ab805013a227cc186d0b66ff48", "fusion_lat": 0.0, "name": "695388ab805013a227cc186d0b66ff48", "is_reserved": 0, "rental_uris": {"android": "https://dc.lft.to/lastmile_qr_scan", "ios": "https://dc.lft.to/lastmile_qr_scan"}, "fusion_lon": 0.0}, {"lat": 38.901057333333334, "is_disabled": 0, "type": "electric_scooter", "lon": -76.99545716666667, "bike_id": "85c27a304bf25de182e85adadbcc2972", "fusion_lat": 0.0, "name": "85c27a304bf25de182e85adadbcc2972", "is_reserved": 0, "rental_uris": {"android": "https://dc.lft.to/lastmile_qr_scan", "ios": "https://dc.lft.to/lastmile_qr_scan"}, "fusion_lon": 0.0}, {"lat": 38.93886966666667, "is_disabled": 0, "type": "electric_scooter", "lon": -77.03284983333333, "bike_id": "6414f98521498e63b278bb6b999e07f3", "fusion_lat": 0.0, "name": "6414f98521498e63b278bb6b999e07f3", "is_reserved": 0, "rental_uris": {"android": "https://dc.lft.to/lastmile_qr_scan", "ios": "https://dc.lft.to/lastmile_qr_scan"}, "fusion_lon": 0.0}, {"lat": 38.90057, "is_disabled": 0, "type": "electric_scooter", "lon": -77.00195883333333, "bike_id": "ae90df85df99d277a10c7502c7928844", "fusion_lat": 0.0, "name": "ae90df85df99d277a10c7502c7928844", "is_reserved": 0, "rental_uris": {"android": "https://dc.lft.to/lastmile_qr_scan", "ios": "https://dc.lft.to/lastmile_qr_scan"}, "fusion_lon": 0.0}, {"lat": 38.91886216666666, "is_disabled": 0, "type": "electric_scooter", "lon": -77.03898266666667, "bike_id": "529828726abf5f9125cbdbc5895ac755", "fusion_lat": 0.0, "name": "529828726abf5f9125cbdbc5895ac755", "is_reserved": 0, "rental_uris": {"android": "https://dc.lft.to/lastmile_qr_scan", "ios": "https://dc.lft.to/lastmile_qr_scan"}, "fusion_lon": 0.0}, {"lat": 38.904521833333334, "is_disabled": 0, "type": "electric_scooter", "lon": -76.994548, "bike_id": "851ad3539404e9b66261e46b43db390a", "fusion_lat": 0.0, "name": "851ad3539404e9b66261e46b43db390a", "is_reserved": 0, "rental_uris": {"android": "https://dc.lft.to/lastmile_qr_scan", "ios": "https://dc.lft.to/lastmile_qr_scan"}, "fusion_lon": 0.0}, {"lat": 38.917184666666664, "is_disabled": 0, "type": "electric_scooter", "lon": -77.02292783333333, "bike_id": "1b383b1c9570291c04b29e5145bc1a7e", "fusion_lat": 0.0, "name": "1b383b1c9570291c04b29e5145bc1a7e", "is_reserved": 0, "rental_uris": {"android": "https://dc.lft.to/lastmile_qr_scan", "ios": "https://dc.lft.to/lastmile_qr_scan"}, "fusion_lon": 0.0}, {"lat": 38.91602533333333, "is_disabled": 0, "type": "electric_scooter", "lon": -77.03846266666666, "bike_id": "5d1d492908e023d60dc77d9063d64059", "fusion_lat": 0.0, "name": "5d1d492908e023d60dc77d9063d64059", "is_reserved": 0, "rental_uris": {"android": "https://dc.lft.to/lastmile_qr_scan", "ios": "https://dc.lft.to/lastmile_qr_scan"}, "fusion_lon": 0.0}, {"lat": 38.90475933333333, "is_disabled": 0, "type": "electric_scooter", "lon": -77.04036433333333, "bike_id": "3a89f3bbd596298c057398cec74449d1", "fusion_lat": 0.0, "name": "3a89f3bbd596298c057398cec74449d1", "is_reserved": 0, "rental_uris": {"android": "https://dc.lft.to/lastmile_qr_scan", "ios": "https://dc.lft.to/lastmile_qr_scan"}, "fusion_lon": 0.0}, {"lat": 38.90417766666667, "is_disabled": 0, "type": "electric_scooter", "lon": -77.06888916666666, "bike_id": "ac513e340cd358fc8f12bd4d6b9499a6", "fusion_lat": 0.0, "name": "ac513e340cd358fc8f12bd4d6b9499a6", "is_reserved": 0, "rental_uris": {"android": "https://dc.lft.to/lastmile_qr_scan", "ios": "https://dc.lft.to/lastmile_qr_scan"}, "fusion_lon": 0.0}, {"lat": 38.91611566666667, "is_disabled": 0, "type": "electric_scooter", "lon": -77.02133466666666, "bike_id": "b3d00dc16a9cff16b6ce6e0ae7a0eec4", "fusion_lat": 0.0, "name": "b3d00dc16a9cff16b6ce6e0ae7a0eec4", "is_reserved": 0, "rental_uris": {"android": "https://dc.lft.to/lastmile_qr_scan", "ios": "https://dc.lft.to/lastmile_qr_scan"}, "fusion_lon": 0.0}, {"lat": 38.931079, "is_disabled": 0, "type": "electric_scooter", "lon": -77.035076, "bike_id": "86e58fb069afbfa124d0efb0db0074a1", "fusion_lat": 0.0, "name": "86e58fb069afbfa124d0efb0db0074a1", "is_reserved": 0, "rental_uris": {"android": "https://dc.lft.to/lastmile_qr_scan", "ios": "https://dc.lft.to/lastmile_qr_scan"}, "fusion_lon": 0.0}, {"lat": 38.914807333333336, "is_disabled": 0, "type": "electric_scooter", "lon": -76.98355983333333, "bike_id": "404e7bb33940c36b29d48d2ca728a4e4", "fusion_lat": 0.0, "name": "404e7bb33940c36b29d48d2ca728a4e4", "is_reserved": 0, "rental_uris": {"android": "https://dc.lft.to/lastmile_qr_scan", "ios": "https://dc.lft.to/lastmile_qr_scan"}, "fusion_lon": 0.0}, {"lat": 38.94070283333333, "is_disabled": 0, "type": "electric_scooter", "lon": -77.0613275, "bike_id": "bd88f20734b49d029078bea6d2174c59", "fusion_lat": 0.0, "name": "bd88f20734b49d029078bea6d2174c59", "is_reserved": 0, "rental_uris": {"android": "https://dc.lft.to/lastmile_qr_scan", "ios": "https://dc.lft.to/lastmile_qr_scan"}, "fusion_lon": 0.0}, {"lat": 38.876295166666665, "is_disabled": 0, "type": "electric_scooter", "lon": -76.96524866666667, "bike_id": "7d5d8f4cdec92f4980a2c324cf96d492", "fusion_lat": 0.0, "name": "7d5d8f4cdec92f4980a2c324cf96d492", "is_reserved": 0, "rental_uris": {"android": "https://dc.lft.to/lastmile_qr_scan", "ios": "https://dc.lft.to/lastmile_qr_scan"}, "fusion_lon": 0.0}, {"lat": 38.902659666666665, "is_disabled": 0, "type": "electric_scooter", "lon": -77.01756516666667, "bike_id": "fc98108425dee5c4231186291cfa0cd0", "fusion_lat": 0.0, "name": "fc98108425dee5c4231186291cfa0cd0", "is_reserved": 0, "rental_uris": {"android": "https://dc.lft.to/lastmile_qr_scan", "ios": "https://dc.lft.to/lastmile_qr_scan"}, "fusion_lon": 0.0}, {"lat": 38.932019333333336, "is_disabled": 0, "type": "electric_scooter", "lon": -77.044237, "bike_id": "5454a9f5d00d1cb27c6d5481898babcc", "fusion_lat": 0.0, "name": "5454a9f5d00d1cb27c6d5481898babcc", "is_reserved": 0, "rental_uris": {"android": "https://dc.lft.to/lastmile_qr_scan", "ios": "https://dc.lft.to/lastmile_qr_scan"}, "fusion_lon": 0.0}, {"lat": 38.89754416666667, "is_disabled": 0, "type": "electric_scooter", "lon": -77.05491683333334, "bike_id": "2c31a0426b80d8988680dd499df36412", "fusion_lat": 0.0, "name": "2c31a0426b80d8988680dd499df36412", "is_reserved": 0, "rental_uris": {"android": "https://dc.lft.to/lastmile_qr_scan", "ios": "https://dc.lft.to/lastmile_qr_scan"}, "fusion_lon": 0.0}, {"lat": 38.91266616666667, "is_disabled": 0, "type": "electric_scooter", "lon": -77.022471, "bike_id": "67c4b963abfc639a4bfc0d81766818c7", "fusion_lat": 0.0, "name": "67c4b963abfc639a4bfc0d81766818c7", "is_reserved": 0, "rental_uris": {"android": "https://dc.lft.to/lastmile_qr_scan", "ios": "https://dc.lft.to/lastmile_qr_scan"}, "fusion_lon": 0.0}, {"lat": 38.8960525, "is_disabled": 0, "type": "electric_scooter", "lon": -77.05466666666666, "bike_id": "4dcb90cb759de3aa4f09ca8e76eecb0e", "fusion_lat": 0.0, "name": "4dcb90cb759de3aa4f09ca8e76eecb0e", "is_reserved": 0, "rental_uris": {"android": "https://dc.lft.to/lastmile_qr_scan", "ios": "https://dc.lft.to/lastmile_qr_scan"}, "fusion_lon": 0.0}, {"lat": 38.94633566666667, "is_disabled": 0, "type": "electric_scooter", "lon": -77.02525083333333, "bike_id": "1d0e8e0ba7d739241e5f5439094fa39a", "fusion_lat": 0.0, "name": "1d0e8e0ba7d739241e5f5439094fa39a", "is_reserved": 0, "rental_uris": {"android": "https://dc.lft.to/lastmile_qr_scan", "ios": "https://dc.lft.to/lastmile_qr_scan"}, "fusion_lon": 0.0}, {"lat": 38.90141333333333, "is_disabled": 0, "type": "electric_scooter", "lon": -77.00064016666667, "bike_id": "0613f1039fb44450d4f56adf66a6aa6f", "fusion_lat": 0.0, "name": "0613f1039fb44450d4f56adf66a6aa6f", "is_reserved": 0, "rental_uris": {"android": "https://dc.lft.to/lastmile_qr_scan", "ios": "https://dc.lft.to/lastmile_qr_scan"}, "fusion_lon": 0.0}, {"lat": 38.9025825, "is_disabled": 0, "type": "electric_scooter", "lon": -77.062346, "bike_id": "24337bb1a86a744a38ab72aefab486f3", "fusion_lat": 0.0, "name": "24337bb1a86a744a38ab72aefab486f3", "is_reserved": 0, "rental_uris": {"android": "https://dc.lft.to/lastmile_qr_scan", "ios": "https://dc.lft.to/lastmile_qr_scan"}, "fusion_lon": 0.0}, {"lat": 38.911869833333334, "is_disabled": 0, "type": "electric_scooter", "lon": -77.044484, "bike_id": "c843f83db2ce4eb3f47abffc95e9ffac", "fusion_lat": 0.0, "name": "c843f83db2ce4eb3f47abffc95e9ffac", "is_reserved": 0, "rental_uris": {"android": "https://dc.lft.to/lastmile_qr_scan", "ios": "https://dc.lft.to/lastmile_qr_scan"}, "fusion_lon": 0.0}, {"lat": 38.926111666666664, "is_disabled": 0, "type": "electric_scooter", "lon": -77.021564, "bike_id": "75bd9f04b763b5861353cdcd40f2b397", "fusion_lat": 0.0, "name": "75bd9f04b763b5861353cdcd40f2b397", "is_reserved": 0, "rental_uris": {"android": "https://dc.lft.to/lastmile_qr_scan", "ios": "https://dc.lft.to/lastmile_qr_scan"}, "fusion_lon": 0.0}, {"lat": 38.91803983333333, "is_disabled": 0, "type": "electric_scooter", "lon": -77.0269685, "bike_id": "f2ccb926e77cf17532417ac8b19bfd2b", "fusion_lat": 0.0, "name": "f2ccb926e77cf17532417ac8b19bfd2b", "is_reserved": 0, "rental_uris": {"android": "https://dc.lft.to/lastmile_qr_scan", "ios": "https://dc.lft.to/lastmile_qr_scan"}, "fusion_lon": 0.0}, {"lat": 38.91708366666667, "is_disabled": 0, "type": "electric_scooter", "lon": -77.04040166666667, "bike_id": "57ff3bb0f20bc4e15e17204de953d8a5", "fusion_lat": 0.0, "name": "57ff3bb0f20bc4e15e17204de953d8a5", "is_reserved": 0, "rental_uris": {"android": "https://dc.lft.to/lastmile_qr_scan", "ios": "https://dc.lft.to/lastmile_qr_scan"}, "fusion_lon": 0.0}, {"lat": 38.905311833333336, "is_disabled": 0, "type": "electric_scooter", "lon": -77.05150216666667, "bike_id": "325ce2b090b0cbffa0651526b174a948", "fusion_lat": 0.0, "name": "325ce2b090b0cbffa0651526b174a948", "is_reserved": 0, "rental_uris": {"android": "https://dc.lft.to/lastmile_qr_scan", "ios": "https://dc.lft.to/lastmile_qr_scan"}, "fusion_lon": 0.0}, {"lat": 38.90408383333333, "is_disabled": 0, "type": "electric_scooter", "lon": -77.01825233333334, "bike_id": "d3a56cb68e4942618de935526845b4a0", "fusion_lat": 0.0, "name": "d3a56cb68e4942618de935526845b4a0", "is_reserved": 0, "rental_uris": {"android": "https://dc.lft.to/lastmile_qr_scan", "ios": "https://dc.lft.to/lastmile_qr_scan"}, "fusion_lon": 0.0}, {"lat": 38.892191833333335, "is_disabled": 0, "type": "electric_scooter", "lon": -77.03217783333334, "bike_id": "43419a5dbd88310f9f711e79a91ad35b", "fusion_lat": 0.0, "name": "43419a5dbd88310f9f711e79a91ad35b", "is_reserved": 0, "rental_uris": {"android": "https://dc.lft.to/lastmile_qr_scan", "ios": "https://dc.lft.to/lastmile_qr_scan"}, "fusion_lon": 0.0}, {"lat": 38.90956883333333, "is_disabled": 0, "type": "electric_scooter", "lon": -77.04822316666667, "bike_id": "b622a9076171a8e2c5f82eedc8dc6918", "fusion_lat": 0.0, "name": "b622a9076171a8e2c5f82eedc8dc6918", "is_reserved": 0, "rental_uris": {"android": "https://dc.lft.to/lastmile_qr_scan", "ios": "https://dc.lft.to/lastmile_qr_scan"}, "fusion_lon": 0.0}, {"lat": 38.8762695, "is_disabled": 0, "type": "electric_scooter", "lon": -76.965235, "bike_id": "211b4ed645fa68d96d9d6873bb32de56", "fusion_lat": 0.0, "name": "211b4ed645fa68d96d9d6873bb32de56", "is_reserved": 0, "rental_uris": {"android": "https://dc.lft.to/lastmile_qr_scan", "ios": "https://dc.lft.to/lastmile_qr_scan"}, "fusion_lon": 0.0}, {"lat": 38.903906666666664, "is_disabled": 0, "type": "electric_scooter", "lon": -77.04252033333333, "bike_id": "47bf6668e55a73a82e1c7d433ecc18b8", "fusion_lat": 0.0, "name": "47bf6668e55a73a82e1c7d433ecc18b8", "is_reserved": 0, "rental_uris": {"android": "https://dc.lft.to/lastmile_qr_scan", "ios": "https://dc.lft.to/lastmile_qr_scan"}, "fusion_lon": 0.0}, {"lat": 38.86995366666667, "is_disabled": 0, "type": "electric_bike", "lon": -77.06566, "bike_id": "bf830a01fbad9a5bf327e5bde5630819", "fusion_lat": 0.0, "name": "bf830a01fbad9a5bf327e5bde5630819", "is_reserved": 0, "rental_uris": {"android": "https://dc.lft.to/lastmile_qr_scan", "ios": "https://dc.lft.to/lastmile_qr_scan"}, "fusion_lon": 0.0}, {"lat": 38.924121666666665, "is_disabled": 0, "type": "electric_scooter", "lon": -77.02736366666667, "bike_id": "6a4825b0215622281480412573493854", "fusion_lat": 0.0, "name": "6a4825b0215622281480412573493854", "is_reserved": 0, "rental_uris": {"android": "https://dc.lft.to/lastmile_qr_scan", "ios": "https://dc.lft.to/lastmile_qr_scan"}, "fusion_lon": 0.0}, {"lat": 38.894026833333335, "is_disabled": 0, "type": "electric_scooter", "lon": -76.98662533333334, "bike_id": "fdf538af07b288c8d4a007c3697d9753", "fusion_lat": 0.0, "name": "fdf538af07b288c8d4a007c3697d9753", "is_reserved": 0, "rental_uris": {"android": "https://dc.lft.to/lastmile_qr_scan", "ios": "https://dc.lft.to/lastmile_qr_scan"}, "fusion_lon": 0.0}, {"lat": 38.905292, "is_disabled": 0, "type": "electric_scooter", "lon": -77.06244633333333, "bike_id": "6e76bc324cac5e0dcd24961431dc5a55", "fusion_lat": 0.0, "name": "6e76bc324cac5e0dcd24961431dc5a55", "is_reserved": 0, "rental_uris": {"android": "https://dc.lft.to/lastmile_qr_scan", "ios": "https://dc.lft.to/lastmile_qr_scan"}, "fusion_lon": 0.0}, {"lat": 38.90607116666666, "is_disabled": 0, "type": "electric_scooter", "lon": -76.98978116666666, "bike_id": "9e945d38f93cf7ac70f35320108e57bd", "fusion_lat": 0.0, "name": "9e945d38f93cf7ac70f35320108e57bd", "is_reserved": 0, "rental_uris": {"android": "https://dc.lft.to/lastmile_qr_scan", "ios": "https://dc.lft.to/lastmile_qr_scan"}, "fusion_lon": 0.0}, {"lat": 38.859275833333335, "is_disabled": 0, "type": "electric_scooter", "lon": -76.99716066666667, "bike_id": "2534450cb0e8a5ad7ccd4ec769de04ca", "fusion_lat": 0.0, "name": "2534450cb0e8a5ad7ccd4ec769de04ca", "is_reserved": 0, "rental_uris": {"android": "https://dc.lft.to/lastmile_qr_scan", "ios": "https://dc.lft.to/lastmile_qr_scan"}, "fusion_lon": 0.0}, {"lat": 38.865229, "is_disabled": 0, "type": "electric_scooter", "lon": -76.99030933333333, "bike_id": "8c762191c1d2bf047a6fbbeb4e2fea3d", "fusion_lat": 0.0, "name": "8c762191c1d2bf047a6fbbeb4e2fea3d", "is_reserved": 0, "rental_uris": {"android": "https://dc.lft.to/lastmile_qr_scan", "ios": "https://dc.lft.to/lastmile_qr_scan"}, "fusion_lon": 0.0}, {"lat": 38.929697, "is_disabled": 0, "type": "electric_scooter", "lon": -77.0318425, "bike_id": "b6bfa6aab260721946bb7198a730654b", "fusion_lat": 0.0, "name": "b6bfa6aab260721946bb7198a730654b", "is_reserved": 0, "rental_uris": {"android": "https://dc.lft.to/lastmile_qr_scan", "ios": "https://dc.lft.to/lastmile_qr_scan"}, "fusion_lon": 0.0}, {"lat": 38.934424666666665, "is_disabled": 0, "type": "electric_scooter", "lon": -77.03097933333333, "bike_id": "c86cd4c3a9a2f3cea0e08748039f37e3", "fusion_lat": 0.0, "name": "c86cd4c3a9a2f3cea0e08748039f37e3", "is_reserved": 0, "rental_uris": {"android": "https://dc.lft.to/lastmile_qr_scan", "ios": "https://dc.lft.to/lastmile_qr_scan"}, "fusion_lon": 0.0}, {"lat": 38.90106333333333, "is_disabled": 0, "type": "electric_scooter", "lon": -77.03164, "bike_id": "8d0f6e76aa38a0b403716593d13ff145", "fusion_lat": 0.0, "name": "8d0f6e76aa38a0b403716593d13ff145", "is_reserved": 0, "rental_uris": {"android": "https://dc.lft.to/lastmile_qr_scan", "ios": "https://dc.lft.to/lastmile_qr_scan"}, "fusion_lon": 0.0}, {"lat": 38.917396, "is_disabled": 0, "type": "electric_scooter", "lon": -77.031802, "bike_id": "d847709c2c5cba70c975e2b0c99314af", "fusion_lat": 0.0, "name": "d847709c2c5cba70c975e2b0c99314af", "is_reserved": 0, "rental_uris": {"android": "https://dc.lft.to/lastmile_qr_scan", "ios": "https://dc.lft.to/lastmile_qr_scan"}, "fusion_lon": 0.0}, {"lat": 38.9170645, "is_disabled": 0, "type": "electric_scooter", "lon": -77.03213733333334, "bike_id": "3bc9c4417f01a2144879561c8e174ac6", "fusion_lat": 0.0, "name": "3bc9c4417f01a2144879561c8e174ac6", "is_reserved": 0, "rental_uris": {"android": "https://dc.lft.to/lastmile_qr_scan", "ios": "https://dc.lft.to/lastmile_qr_scan"}, "fusion_lon": 0.0}, {"lat": 38.8670135, "is_disabled": 0, "type": "electric_scooter", "lon": -76.9870805, "bike_id": "922f899ffc29f2516df8873bf792769d", "fusion_lat": 0.0, "name": "922f899ffc29f2516df8873bf792769d", "is_reserved": 0, "rental_uris": {"android": "https://dc.lft.to/lastmile_qr_scan", "ios": "https://dc.lft.to/lastmile_qr_scan"}, "fusion_lon": 0.0}, {"lat": 38.9055725, "is_disabled": 0, "type": "electric_scooter", "lon": -77.01770683333334, "bike_id": "3e35f4da6b8e50985bc6a02048cefdd9", "fusion_lat": 0.0, "name": "3e35f4da6b8e50985bc6a02048cefdd9", "is_reserved": 0, "rental_uris": {"android": "https://dc.lft.to/lastmile_qr_scan", "ios": "https://dc.lft.to/lastmile_qr_scan"}, "fusion_lon": 0.0}, {"lat": 38.878499, "is_disabled": 0, "type": "electric_scooter", "lon": -77.02279766666666, "bike_id": "cf526b75f90a4cbdcb84321ffc162520", "fusion_lat": 0.0, "name": "cf526b75f90a4cbdcb84321ffc162520", "is_reserved": 0, "rental_uris": {"android": "https://dc.lft.to/lastmile_qr_scan", "ios": "https://dc.lft.to/lastmile_qr_scan"}, "fusion_lon": 0.0}, {"lat": 38.90038883333333, "is_disabled": 0, "type": "electric_scooter", "lon": -76.99709283333334, "bike_id": "42e033e798933cda0d688f65fc5ccbbd", "fusion_lat": 0.0, "name": "42e033e798933cda0d688f65fc5ccbbd", "is_reserved": 0, "rental_uris": {"android": "https://dc.lft.to/lastmile_qr_scan", "ios": "https://dc.lft.to/lastmile_qr_scan"}, "fusion_lon": 0.0}, {"lat": 38.86169483333333, "is_disabled": 0, "type": "electric_bike", "lon": -77.13142433333333, "bike_id": "f9be3b6ee37370a524ae230d84c00f7a", "fusion_lat": 0.0, "name": "f9be3b6ee37370a524ae230d84c00f7a", "is_reserved": 0, "rental_uris": {"android": "https://dc.lft.to/lastmile_qr_scan", "ios": "https://dc.lft.to/lastmile_qr_scan"}, "fusion_lon": 0.0}, {"lat": 38.91788916666667, "is_disabled": 0, "type": "electric_bike", "lon": -76.97180766666666, "bike_id": "5d84ecfa67f10c138dd5a67d5feee55a", "fusion_lat": 0.0, "name": "5d84ecfa67f10c138dd5a67d5feee55a", "is_reserved": 0, "rental_uris": {"android": "https://dc.lft.to/lastmile_qr_scan", "ios": "https://dc.lft.to/lastmile_qr_scan"}, "fusion_lon": 0.0}, {"lat": 38.927444666666666, "is_disabled": 0, "type": "electric_scooter", "lon": -76.99723566666667, "bike_id": "85691a0f12df8346b3bf1ec37e38ea42", "fusion_lat": 0.0, "name": "85691a0f12df8346b3bf1ec37e38ea42", "is_reserved": 0, "rental_uris": {"android": "https://dc.lft.to/lastmile_qr_scan", "ios": "https://dc.lft.to/lastmile_qr_scan"}, "fusion_lon": 0.0}, {"lat": 38.86370933333333, "is_disabled": 0, "type": "electric_scooter", "lon": -76.9902925, "bike_id": "f1e54545505d806c82d59ac97ffe946a", "fusion_lat": 0.0, "name": "f1e54545505d806c82d59ac97ffe946a", "is_reserved": 0, "rental_uris": {"android": "https://dc.lft.to/lastmile_qr_scan", "ios": "https://dc.lft.to/lastmile_qr_scan"}, "fusion_lon": 0.0}, {"lat": 38.9181315, "is_disabled": 0, "type": "electric_scooter", "lon": -77.024778, "bike_id": "68a5c792eae8b0c0ce72901ed482f43b", "fusion_lat": 0.0, "name": "68a5c792eae8b0c0ce72901ed482f43b", "is_reserved": 0, "rental_uris": {"android": "https://dc.lft.to/lastmile_qr_scan", "ios": "https://dc.lft.to/lastmile_qr_scan"}, "fusion_lon": 0.0}, {"lat": 38.911108166666665, "is_disabled": 0, "type": "electric_scooter", "lon": -77.04245566666667, "bike_id": "7d3a7e3dbaba16afbe5277c899f4e8fb", "fusion_lat": 0.0, "name": "7d3a7e3dbaba16afbe5277c899f4e8fb", "is_reserved": 0, "rental_uris": {"android": "https://dc.lft.to/lastmile_qr_scan", "ios": "https://dc.lft.to/lastmile_qr_scan"}, "fusion_lon": 0.0}, {"lat": 38.943597833333335, "is_disabled": 0, "type": "electric_bike", "lon": -76.96778316666666, "bike_id": "2d51428c7860e338a71a5a687f6bdb25", "fusion_lat": 0.0, "name": "2d51428c7860e338a71a5a687f6bdb25", "is_reserved": 0, "rental_uris": {"android": "https://dc.lft.to/lastmile_qr_scan", "ios": "https://dc.lft.to/lastmile_qr_scan"}, "fusion_lon": 0.0}, {"lat": 38.91390633333334, "is_disabled": 0, "type": "electric_bike", "lon": -77.0384695, "bike_id": "d6759421fa2a5687196ae19e270b4dd8", "fusion_lat": 0.0, "name": "d6759421fa2a5687196ae19e270b4dd8", "is_reserved": 0, "rental_uris": {"android": "https://dc.lft.to/lastmile_qr_scan", "ios": "https://dc.lft.to/lastmile_qr_scan"}, "fusion_lon": 0.0}, {"lat": 38.907721333333335, "is_disabled": 0, "type": "electric_scooter", "lon": -77.03542583333333, "bike_id": "6294431e61d0b29c2a30772dc2708399", "fusion_lat": 0.0, "name": "6294431e61d0b29c2a30772dc2708399", "is_reserved": 0, "rental_uris": {"android": "https://dc.lft.to/lastmile_qr_scan", "ios": "https://dc.lft.to/lastmile_qr_scan"}, "fusion_lon": 0.0}, {"lat": 38.917057666666665, "is_disabled": 0, "type": "electric_scooter", "lon": -77.03720066666666, "bike_id": "202c0a035eaa2e5eff3b5c209456d93a", "fusion_lat": 0.0, "name": "202c0a035eaa2e5eff3b5c209456d93a", "is_reserved": 0, "rental_uris": {"android": "https://dc.lft.to/lastmile_qr_scan", "ios": "https://dc.lft.to/lastmile_qr_scan"}, "fusion_lon": 0.0}, {"lat": 38.907719166666666, "is_disabled": 0, "type": "electric_scooter", "lon": -77.03856966666666, "bike_id": "45824cbe1c2fb075e969f3543bcd41ef", "fusion_lat": 0.0, "name": "45824cbe1c2fb075e969f3543bcd41ef", "is_reserved": 0, "rental_uris": {"android": "https://dc.lft.to/lastmile_qr_scan", "ios": "https://dc.lft.to/lastmile_qr_scan"}, "fusion_lon": 0.0}, {"lat": 39.03046833333333, "is_disabled": 0, "type": "electric_bike", "lon": -77.0948, "bike_id": "b752e6c5654c939b53e5505c1cb7ddd7", "fusion_lat": 0.0, "name": "b752e6c5654c939b53e5505c1cb7ddd7", "is_reserved": 0, "rental_uris": {"android": "https://dc.lft.to/lastmile_qr_scan", "ios": "https://dc.lft.to/lastmile_qr_scan"}, "fusion_lon": 0.0}, {"lat": 38.885123666666665, "is_disabled": 0, "type": "electric_scooter", "lon": -77.00679316666667, "bike_id": "c0f8c8453df368d0e6cbe44283e58d98", "fusion_lat": 0.0, "name": "c0f8c8453df368d0e6cbe44283e58d98", "is_reserved": 0, "rental_uris": {"android": "https://dc.lft.to/lastmile_qr_scan", "ios": "https://dc.lft.to/lastmile_qr_scan"}, "fusion_lon": 0.0}, {"lat": 38.913597833333334, "is_disabled": 0, "type": "electric_scooter", "lon": -77.045904, "bike_id": "8b2de532c39b94c2e4514ae6186f82ec", "fusion_lat": 0.0, "name": "8b2de532c39b94c2e4514ae6186f82ec", "is_reserved": 0, "rental_uris": {"android": "https://dc.lft.to/lastmile_qr_scan", "ios": "https://dc.lft.to/lastmile_qr_scan"}, "fusion_lon": 0.0}, {"lat": 38.9160385, "is_disabled": 0, "type": "electric_scooter", "lon": -77.0384495, "bike_id": "5b07d007e16822c2684fe4926bfef176", "fusion_lat": 0.0, "name": "5b07d007e16822c2684fe4926bfef176", "is_reserved": 0, "rental_uris": {"android": "https://dc.lft.to/lastmile_qr_scan", "ios": "https://dc.lft.to/lastmile_qr_scan"}, "fusion_lon": 0.0}, {"lat": 38.972240666666664, "is_disabled": 0, "type": "electric_bike", "lon": -77.03605283333333, "bike_id": "9190da6bf6adade84b3a14f60db1fd9b", "fusion_lat": 0.0, "name": "9190da6bf6adade84b3a14f60db1fd9b", "is_reserved": 0, "rental_uris": {"android": "https://dc.lft.to/lastmile_qr_scan", "ios": "https://dc.lft.to/lastmile_qr_scan"}, "fusion_lon": 0.0}, {"lat": 38.87429083333333, "is_disabled": 0, "type": "electric_scooter", "lon": -77.00046133333333, "bike_id": "bc15a57122a2adc48753624119ef2ae8", "fusion_lat": 0.0, "name": "bc15a57122a2adc48753624119ef2ae8", "is_reserved": 0, "rental_uris": {"android": "https://dc.lft.to/lastmile_qr_scan", "ios": "https://dc.lft.to/lastmile_qr_scan"}, "fusion_lon": 0.0}, {"lat": 38.89288083333334, "is_disabled": 0, "type": "electric_scooter", "lon": -76.95850083333333, "bike_id": "09741a4e092878e4cd3e191608fe522d", "fusion_lat": 0.0, "name": "09741a4e092878e4cd3e191608fe522d", "is_reserved": 0, "rental_uris": {"android": "https://dc.lft.to/lastmile_qr_scan", "ios": "https://dc.lft.to/lastmile_qr_scan"}, "fusion_lon": 0.0}, {"lat": 38.899936333333336, "is_disabled": 0, "type": "electric_scooter", "lon": -76.99948666666667, "bike_id": "a8fcf7dceb92424703dd511ff3b3b6fe", "fusion_lat": 0.0, "name": "a8fcf7dceb92424703dd511ff3b3b6fe", "is_reserved": 0, "rental_uris": {"android": "https://dc.lft.to/lastmile_qr_scan", "ios": "https://dc.lft.to/lastmile_qr_scan"}, "fusion_lon": 0.0}, {"lat": 38.8973095, "is_disabled": 0, "type": "electric_scooter", "lon": -77.05470283333334, "bike_id": "5d116d48d7474bbec1f1325fc47e99f2", "fusion_lat": 0.0, "name": "5d116d48d7474bbec1f1325fc47e99f2", "is_reserved": 0, "rental_uris": {"android": "https://dc.lft.to/lastmile_qr_scan", "ios": "https://dc.lft.to/lastmile_qr_scan"}, "fusion_lon": 0.0}, {"lat": 38.929536166666665, "is_disabled": 0, "type": "electric_scooter", "lon": -76.99084733333333, "bike_id": "110d63a1c418d02caf262a0b2ae4c36a", "fusion_lat": 0.0, "name": "110d63a1c418d02caf262a0b2ae4c36a", "is_reserved": 0, "rental_uris": {"android": "https://dc.lft.to/lastmile_qr_scan", "ios": "https://dc.lft.to/lastmile_qr_scan"}, "fusion_lon": 0.0}, {"lat": 38.91541983333333, "is_disabled": 0, "type": "electric_scooter", "lon": -77.0741275, "bike_id": "eef77d7c6244e163c492c7900d455530", "fusion_lat": 0.0, "name": "eef77d7c6244e163c492c7900d455530", "is_reserved": 0, "rental_uris": {"android": "https://dc.lft.to/lastmile_qr_scan", "ios": "https://dc.lft.to/lastmile_qr_scan"}, "fusion_lon": 0.0}, {"lat": 38.90967, "is_disabled": 0, "type": "electric_scooter", "lon": -76.99603933333333, "bike_id": "295e9f46528cfb2233729c346ab33522", "fusion_lat": 0.0, "name": "295e9f46528cfb2233729c346ab33522", "is_reserved": 0, "rental_uris": {"android": "https://dc.lft.to/lastmile_qr_scan", "ios": "https://dc.lft.to/lastmile_qr_scan"}, "fusion_lon": 0.0}, {"lat": 38.91563816666667, "is_disabled": 0, "type": "electric_scooter", "lon": -77.03267033333333, "bike_id": "fb4c8d7bf7e081ee8d3f9af840cfebf2", "fusion_lat": 0.0, "name": "fb4c8d7bf7e081ee8d3f9af840cfebf2", "is_reserved": 0, "rental_uris": {"android": "https://dc.lft.to/lastmile_qr_scan", "ios": "https://dc.lft.to/lastmile_qr_scan"}, "fusion_lon": 0.0}, {"lat": 38.930937, "is_disabled": 0, "type": "electric_scooter", "lon": -77.02346433333334, "bike_id": "dc5b1934713923fb87e7e5e009d7cfb8", "fusion_lat": 0.0, "name": "dc5b1934713923fb87e7e5e009d7cfb8", "is_reserved": 0, "rental_uris": {"android": "https://dc.lft.to/lastmile_qr_scan", "ios": "https://dc.lft.to/lastmile_qr_scan"}, "fusion_lon": 0.0}, {"lat": 38.9209175, "is_disabled": 0, "type": "electric_scooter", "lon": -77.0251215, "bike_id": "6a7bf4b9734b391d33917e76a052fd45", "fusion_lat": 0.0, "name": "6a7bf4b9734b391d33917e76a052fd45", "is_reserved": 0, "rental_uris": {"android": "https://dc.lft.to/lastmile_qr_scan", "ios": "https://dc.lft.to/lastmile_qr_scan"}, "fusion_lon": 0.0}, {"lat": 38.87145316666667, "is_disabled": 0, "type": "electric_bike", "lon": -76.93659083333333, "bike_id": "6fef06e287567eb29f892bd96575ed57", "fusion_lat": 0.0, "name": "6fef06e287567eb29f892bd96575ed57", "is_reserved": 0, "rental_uris": {"android": "https://dc.lft.to/lastmile_qr_scan", "ios": "https://dc.lft.to/lastmile_qr_scan"}, "fusion_lon": 0.0}, {"lat": 38.896423166666665, "is_disabled": 0, "type": "electric_scooter", "lon": -77.009018, "bike_id": "971b6037f0b9487b14b189bd3d4b9893", "fusion_lat": 0.0, "name": "971b6037f0b9487b14b189bd3d4b9893", "is_reserved": 0, "rental_uris": {"android": "https://dc.lft.to/lastmile_qr_scan", "ios": "https://dc.lft.to/lastmile_qr_scan"}, "fusion_lon": 0.0}, {"lat": 38.900316333333336, "is_disabled": 0, "type": "electric_scooter", "lon": -76.98872183333333, "bike_id": "1cfefa2c7074c176efe1053d933854f4", "fusion_lat": 0.0, "name": "1cfefa2c7074c176efe1053d933854f4", "is_reserved": 0, "rental_uris": {"android": "https://dc.lft.to/lastmile_qr_scan", "ios": "https://dc.lft.to/lastmile_qr_scan"}, "fusion_lon": 0.0}, {"lat": 38.93578, "is_disabled": 0, "type": "electric_bike", "lon": -77.106784, "bike_id": "6cf53a9bf3f58c7647de9f14441ebdf9", "fusion_lat": 0.0, "name": "6cf53a9bf3f58c7647de9f14441ebdf9", "is_reserved": 0, "rental_uris": {"android": "https://dc.lft.to/lastmile_qr_scan", "ios": "https://dc.lft.to/lastmile_qr_scan"}, "fusion_lon": 0.0}, {"lat": 38.86368933333333, "is_disabled": 0, "type": "electric_scooter", "lon": -76.9902995, "bike_id": "4dd669ecb9b96e6bf0ca006a93798264", "fusion_lat": 0.0, "name": "4dd669ecb9b96e6bf0ca006a93798264", "is_reserved": 0, "rental_uris": {"android": "https://dc.lft.to/lastmile_qr_scan", "ios": "https://dc.lft.to/lastmile_qr_scan"}, "fusion_lon": 0.0}, {"lat": 38.89526333333333, "is_disabled": 0, "type": "electric_scooter", "lon": -77.0005735, "bike_id": "218c06ecb274988dde4e44a1efc34e37", "fusion_lat": 0.0, "name": "218c06ecb274988dde4e44a1efc34e37", "is_reserved": 0, "rental_uris": {"android": "https://dc.lft.to/lastmile_qr_scan", "ios": "https://dc.lft.to/lastmile_qr_scan"}, "fusion_lon": 0.0}, {"lat": 38.90015266666666, "is_disabled": 0, "type": "electric_scooter", "lon": -77.03310333333333, "bike_id": "1bbc8f84e07af72988c1e2cfebec8ac7", "fusion_lat": 0.0, "name": "1bbc8f84e07af72988c1e2cfebec8ac7", "is_reserved": 0, "rental_uris": {"android": "https://dc.lft.to/lastmile_qr_scan", "ios": "https://dc.lft.to/lastmile_qr_scan"}, "fusion_lon": 0.0}, {"lat": 38.949515, "is_disabled": 0, "type": "electric_scooter", "lon": -77.015856, "bike_id": "db4451f1cac7ff9ebf2a6ff4373d6487", "fusion_lat": 0.0, "name": "db4451f1cac7ff9ebf2a6ff4373d6487", "is_reserved": 0, "rental_uris": {"android": "https://dc.lft.to/lastmile_qr_scan", "ios": "https://dc.lft.to/lastmile_qr_scan"}, "fusion_lon": 0.0}, {"lat": 38.91739283333333, "is_disabled": 0, "type": "electric_scooter", "lon": -77.03181533333333, "bike_id": "78cad20230808bcc22205959ad0c5ac4", "fusion_lat": 0.0, "name": "78cad20230808bcc22205959ad0c5ac4", "is_reserved": 0, "rental_uris": {"android": "https://dc.lft.to/lastmile_qr_scan", "ios": "https://dc.lft.to/lastmile_qr_scan"}, "fusion_lon": 0.0}, {"lat": 38.9094945, "is_disabled": 0, "type": "electric_scooter", "lon": -77.04657133333333, "bike_id": "b85a35b001a664df96d4c707f04036b8", "fusion_lat": 0.0, "name": "b85a35b001a664df96d4c707f04036b8", "is_reserved": 0, "rental_uris": {"android": "https://dc.lft.to/lastmile_qr_scan", "ios": "https://dc.lft.to/lastmile_qr_scan"}, "fusion_lon": 0.0}, {"lat": 38.90077516666667, "is_disabled": 0, "type": "electric_scooter", "lon": -77.04480933333333, "bike_id": "c3a597a427a99138198eeced03aadd5c", "fusion_lat": 0.0, "name": "c3a597a427a99138198eeced03aadd5c", "is_reserved": 0, "rental_uris": {"android": "https://dc.lft.to/lastmile_qr_scan", "ios": "https://dc.lft.to/lastmile_qr_scan"}, "fusion_lon": 0.0}, {"lat": 38.9231035, "is_disabled": 0, "type": "electric_scooter", "lon": -77.04222733333333, "bike_id": "f4a25ba026a1ce64e4e8ca8d05622a0b", "fusion_lat": 0.0, "name": "f4a25ba026a1ce64e4e8ca8d05622a0b", "is_reserved": 0, "rental_uris": {"android": "https://dc.lft.to/lastmile_qr_scan", "ios": "https://dc.lft.to/lastmile_qr_scan"}, "fusion_lon": 0.0}, {"lat": 38.915605666666664, "is_disabled": 0, "type": "electric_scooter", "lon": -77.03265633333334, "bike_id": "66b0dec90d4e08e39ad100b2bb268966", "fusion_lat": 0.0, "name": "66b0dec90d4e08e39ad100b2bb268966", "is_reserved": 0, "rental_uris": {"android": "https://dc.lft.to/lastmile_qr_scan", "ios": "https://dc.lft.to/lastmile_qr_scan"}, "fusion_lon": 0.0}, {"lat": 38.900384333333335, "is_disabled": 0, "type": "electric_scooter", "lon": -77.033341, "bike_id": "ad6971fe5d4b1346fc8bfc4f06b97bc1", "fusion_lat": 0.0, "name": "ad6971fe5d4b1346fc8bfc4f06b97bc1", "is_reserved": 0, "rental_uris": {"android": "https://dc.lft.to/lastmile_qr_scan", "ios": "https://dc.lft.to/lastmile_qr_scan"}, "fusion_lon": 0.0}, {"lat": 38.912643833333334, "is_disabled": 0, "type": "electric_scooter", "lon": -77.02243333333334, "bike_id": "7188a3e2ccd815ec22fee2b7abb71072", "fusion_lat": 0.0, "name": "7188a3e2ccd815ec22fee2b7abb71072", "is_reserved": 0, "rental_uris": {"android": "https://dc.lft.to/lastmile_qr_scan", "ios": "https://dc.lft.to/lastmile_qr_scan"}, "fusion_lon": 0.0}, {"lat": 38.89417916666667, "is_disabled": 0, "type": "electric_scooter", "lon": -77.0217475, "bike_id": "043365cee6966a79158c518332ce52b3", "fusion_lat": 0.0, "name": "043365cee6966a79158c518332ce52b3", "is_reserved": 0, "rental_uris": {"android": "https://dc.lft.to/lastmile_qr_scan", "ios": "https://dc.lft.to/lastmile_qr_scan"}, "fusion_lon": 0.0}, {"lat": 38.94999816666667, "is_disabled": 0, "type": "electric_scooter", "lon": -77.0819185, "bike_id": "9f21ec69b572db53265f2da6f883f6db", "fusion_lat": 0.0, "name": "9f21ec69b572db53265f2da6f883f6db", "is_reserved": 0, "rental_uris": {"android": "https://dc.lft.to/lastmile_qr_scan", "ios": "https://dc.lft.to/lastmile_qr_scan"}, "fusion_lon": 0.0}, {"lat": 38.9126525, "is_disabled": 0, "type": "electric_scooter", "lon": -77.022462, "bike_id": "7c441fe96641eb188c87f4c92cab39df", "fusion_lat": 0.0, "name": "7c441fe96641eb188c87f4c92cab39df", "is_reserved": 0, "rental_uris": {"android": "https://dc.lft.to/lastmile_qr_scan", "ios": "https://dc.lft.to/lastmile_qr_scan"}, "fusion_lon": 0.0}, {"lat": 38.911006, "is_disabled": 0, "type": "electric_scooter", "lon": -77.03851483333334, "bike_id": "0d8dc57895e50bd448394ee2b7dd7ced", "fusion_lat": 0.0, "name": "0d8dc57895e50bd448394ee2b7dd7ced", "is_reserved": 0, "rental_uris": {"android": "https://dc.lft.to/lastmile_qr_scan", "ios": "https://dc.lft.to/lastmile_qr_scan"}, "fusion_lon": 0.0}, {"lat": 38.8867255, "is_disabled": 0, "type": "electric_scooter", "lon": -76.99028233333334, "bike_id": "5c6452e783b3df0e387c2b91dfc0eaac", "fusion_lat": 0.0, "name": "5c6452e783b3df0e387c2b91dfc0eaac", "is_reserved": 0, "rental_uris": {"android": "https://dc.lft.to/lastmile_qr_scan", "ios": "https://dc.lft.to/lastmile_qr_scan"}, "fusion_lon": 0.0}, {"lat": 38.90959133333333, "is_disabled": 0, "type": "electric_scooter", "lon": -77.04823883333333, "bike_id": "4dc9ec2d642bc645cd63b26a79e9f48d", "fusion_lat": 0.0, "name": "4dc9ec2d642bc645cd63b26a79e9f48d", "is_reserved": 0, "rental_uris": {"android": "https://dc.lft.to/lastmile_qr_scan", "ios": "https://dc.lft.to/lastmile_qr_scan"}, "fusion_lon": 0.0}, {"lat": 39.075029666666666, "is_disabled": 0, "type": "electric_bike", "lon": -77.118939, "bike_id": "2a29b99e44264461cc60633e638e3337", "fusion_lat": 0.0, "name": "2a29b99e44264461cc60633e638e3337", "is_reserved": 0, "rental_uris": {"android": "https://dc.lft.to/lastmile_qr_scan", "ios": "https://dc.lft.to/lastmile_qr_scan"}, "fusion_lon": 0.0}, {"lat": 38.926540833333334, "is_disabled": 0, "type": "electric_scooter", "lon": -77.02414166666667, "bike_id": "0dce5fb0196e3e7b8f1e95fed4901cbf", "fusion_lat": 0.0, "name": "0dce5fb0196e3e7b8f1e95fed4901cbf", "is_reserved": 0, "rental_uris": {"android": "https://dc.lft.to/lastmile_qr_scan", "ios": "https://dc.lft.to/lastmile_qr_scan"}, "fusion_lon": 0.0}, {"lat": 38.921097, "is_disabled": 0, "type": "electric_scooter", "lon": -77.04564816666667, "bike_id": "8fcd76263a4664a70ff046a077f28e1e", "fusion_lat": 0.0, "name": "8fcd76263a4664a70ff046a077f28e1e", "is_reserved": 0, "rental_uris": {"android": "https://dc.lft.to/lastmile_qr_scan", "ios": "https://dc.lft.to/lastmile_qr_scan"}, "fusion_lon": 0.0}, {"lat": 38.95077716666667, "is_disabled": 0, "type": "electric_bike", "lon": -77.012011, "bike_id": "c9f66b23736dfb945962f80492c39b5b", "fusion_lat": 0.0, "name": "c9f66b23736dfb945962f80492c39b5b", "is_reserved": 0, "rental_uris": {"android": "https://dc.lft.to/lastmile_qr_scan", "ios": "https://dc.lft.to/lastmile_qr_scan"}, "fusion_lon": 0.0}, {"lat": 38.90622033333333, "is_disabled": 0, "type": "electric_scooter", "lon": -77.021763, "bike_id": "b2221f7eb9142875529a080ffa15df94", "fusion_lat": 0.0, "name": "b2221f7eb9142875529a080ffa15df94", "is_reserved": 0, "rental_uris": {"android": "https://dc.lft.to/lastmile_qr_scan", "ios": "https://dc.lft.to/lastmile_qr_scan"}, "fusion_lon": 0.0}, {"lat": 38.9149975, "is_disabled": 0, "type": "electric_scooter", "lon": -76.98358516666667, "bike_id": "3bf0a6b7d5b25cf3b8a8f6b532445473", "fusion_lat": 0.0, "name": "3bf0a6b7d5b25cf3b8a8f6b532445473", "is_reserved": 0, "rental_uris": {"android": "https://dc.lft.to/lastmile_qr_scan", "ios": "https://dc.lft.to/lastmile_qr_scan"}, "fusion_lon": 0.0}, {"lat": 38.9074005, "is_disabled": 0, "type": "electric_scooter", "lon": -77.0413625, "bike_id": "f8e991bc34413bfb76ca4761a6f8cfa0", "fusion_lat": 0.0, "name": "f8e991bc34413bfb76ca4761a6f8cfa0", "is_reserved": 0, "rental_uris": {"android": "https://dc.lft.to/lastmile_qr_scan", "ios": "https://dc.lft.to/lastmile_qr_scan"}, "fusion_lon": 0.0}, {"lat": 38.91463733333333, "is_disabled": 0, "type": "electric_scooter", "lon": -77.01426666666667, "bike_id": "5661bd3fd79e2898e9c35c7edf09d272", "fusion_lat": 0.0, "name": "5661bd3fd79e2898e9c35c7edf09d272", "is_reserved": 0, "rental_uris": {"android": "https://dc.lft.to/lastmile_qr_scan", "ios": "https://dc.lft.to/lastmile_qr_scan"}, "fusion_lon": 0.0}, {"lat": 38.90884366666667, "is_disabled": 0, "type": "electric_scooter", "lon": -77.03663266666666, "bike_id": "2e1ba2eda737439fcad5faac8da36f81", "fusion_lat": 0.0, "name": "2e1ba2eda737439fcad5faac8da36f81", "is_reserved": 0, "rental_uris": {"android": "https://dc.lft.to/lastmile_qr_scan", "ios": "https://dc.lft.to/lastmile_qr_scan"}, "fusion_lon": 0.0}, {"lat": 38.866190833333334, "is_disabled": 0, "type": "electric_scooter", "lon": -76.986581, "bike_id": "239ea037772b56ff0f40683db9d52ddc", "fusion_lat": 0.0, "name": "239ea037772b56ff0f40683db9d52ddc", "is_reserved": 0, "rental_uris": {"android": "https://dc.lft.to/lastmile_qr_scan", "ios": "https://dc.lft.to/lastmile_qr_scan"}, "fusion_lon": 0.0}, {"lat": 38.88285066666667, "is_disabled": 0, "type": "electric_bike", "lon": -76.93240333333334, "bike_id": "8e86f41c0127ab458d992a4a6515c762", "fusion_lat": 0.0, "name": "8e86f41c0127ab458d992a4a6515c762", "is_reserved": 0, "rental_uris": {"android": "https://dc.lft.to/lastmile_qr_scan", "ios": "https://dc.lft.to/lastmile_qr_scan"}, "fusion_lon": 0.0}, {"lat": 38.9034535, "is_disabled": 0, "type": "electric_scooter", "lon": -77.00210866666667, "bike_id": "31684d53983c39569da6fd3e0d340a3d", "fusion_lat": 0.0, "name": "31684d53983c39569da6fd3e0d340a3d", "is_reserved": 0, "rental_uris": {"android": "https://dc.lft.to/lastmile_qr_scan", "ios": "https://dc.lft.to/lastmile_qr_scan"}, "fusion_lon": 0.0}, {"lat": 38.93578733333333, "is_disabled": 0, "type": "electric_scooter", "lon": -77.037484, "bike_id": "7b3da49671f277d287b0f49df068c415", "fusion_lat": 0.0, "name": "7b3da49671f277d287b0f49df068c415", "is_reserved": 0, "rental_uris": {"android": "https://dc.lft.to/lastmile_qr_scan", "ios": "https://dc.lft.to/lastmile_qr_scan"}, "fusion_lon": 0.0}, {"lat": 38.94652283333333, "is_disabled": 0, "type": "electric_scooter", "lon": -77.0364805, "bike_id": "4648a81e650bb0d3416e964145c313b4", "fusion_lat": 0.0, "name": "4648a81e650bb0d3416e964145c313b4", "is_reserved": 0, "rental_uris": {"android": "https://dc.lft.to/lastmile_qr_scan", "ios": "https://dc.lft.to/lastmile_qr_scan"}, "fusion_lon": 0.0}, {"lat": 38.90140133333333, "is_disabled": 0, "type": "electric_scooter", "lon": -77.051, "bike_id": "8f19c923bc8726fba8f5aa5dd116558b", "fusion_lat": 0.0, "name": "8f19c923bc8726fba8f5aa5dd116558b", "is_reserved": 0, "rental_uris": {"android": "https://dc.lft.to/lastmile_qr_scan", "ios": "https://dc.lft.to/lastmile_qr_scan"}, "fusion_lon": 0.0}, {"lat": 38.89418916666666, "is_disabled": 0, "type": "electric_scooter", "lon": -77.02086983333334, "bike_id": "ac9ccdab460aba9ae542d73ed4642266", "fusion_lat": 0.0, "name": "ac9ccdab460aba9ae542d73ed4642266", "is_reserved": 0, "rental_uris": {"android": "https://dc.lft.to/lastmile_qr_scan", "ios": "https://dc.lft.to/lastmile_qr_scan"}, "fusion_lon": 0.0}, {"lat": 38.903412333333335, "is_disabled": 0, "type": "electric_scooter", "lon": -76.9705915, "bike_id": "7a539d3bb81068ddd01b7ed20e7c232f", "fusion_lat": 0.0, "name": "7a539d3bb81068ddd01b7ed20e7c232f", "is_reserved": 0, "rental_uris": {"android": "https://dc.lft.to/lastmile_qr_scan", "ios": "https://dc.lft.to/lastmile_qr_scan"}, "fusion_lon": 0.0}, {"lat": 38.902787333333336, "is_disabled": 0, "type": "electric_scooter", "lon": -77.04042383333334, "bike_id": "b6e21cdd0ac22e850006030c5e320306", "fusion_lat": 0.0, "name": "b6e21cdd0ac22e850006030c5e320306", "is_reserved": 0, "rental_uris": {"android": "https://dc.lft.to/lastmile_qr_scan", "ios": "https://dc.lft.to/lastmile_qr_scan"}, "fusion_lon": 0.0}, {"lat": 38.92604083333333, "is_disabled": 0, "type": "electric_scooter", "lon": -77.02151283333333, "bike_id": "dffd38d7cae18e37743c67ebf5c00ce3", "fusion_lat": 0.0, "name": "dffd38d7cae18e37743c67ebf5c00ce3", "is_reserved": 0, "rental_uris": {"android": "https://dc.lft.to/lastmile_qr_scan", "ios": "https://dc.lft.to/lastmile_qr_scan"}, "fusion_lon": 0.0}, {"lat": 38.903452, "is_disabled": 0, "type": "electric_scooter", "lon": -77.053239, "bike_id": "daef766b6d2315cae3b72210cf963a77", "fusion_lat": 0.0, "name": "daef766b6d2315cae3b72210cf963a77", "is_reserved": 0, "rental_uris": {"android": "https://dc.lft.to/lastmile_qr_scan", "ios": "https://dc.lft.to/lastmile_qr_scan"}, "fusion_lon": 0.0}, {"lat": 38.9306735, "is_disabled": 0, "type": "electric_scooter", "lon": -76.99075, "bike_id": "1adaf597760693ab25cedbb3a542ca7b", "fusion_lat": 0.0, "name": "1adaf597760693ab25cedbb3a542ca7b", "is_reserved": 0, "rental_uris": {"android": "https://dc.lft.to/lastmile_qr_scan", "ios": "https://dc.lft.to/lastmile_qr_scan"}, "fusion_lon": 0.0}, {"lat": 38.89058033333333, "is_disabled": 0, "type": "electric_scooter", "lon": -76.93755766666666, "bike_id": "ed892dde5fb723bbf2c9f030a2e80406", "fusion_lat": 0.0, "name": "ed892dde5fb723bbf2c9f030a2e80406", "is_reserved": 0, "rental_uris": {"android": "https://dc.lft.to/lastmile_qr_scan", "ios": "https://dc.lft.to/lastmile_qr_scan"}, "fusion_lon": 0.0}, {"lat": 38.8505325, "is_disabled": 0, "type": "electric_bike", "lon": -76.97314366666667, "bike_id": "4833f5ff952f876a90364f820932ac83", "fusion_lat": 0.0, "name": "4833f5ff952f876a90364f820932ac83", "is_reserved": 0, "rental_uris": {"android": "https://dc.lft.to/lastmile_qr_scan", "ios": "https://dc.lft.to/lastmile_qr_scan"}, "fusion_lon": 0.0}, {"lat": 38.89714766666667, "is_disabled": 0, "type": "electric_scooter", "lon": -77.0079365, "bike_id": "3a2c500f6a26b3d614812a0bfbbcd477", "fusion_lat": 0.0, "name": "3a2c500f6a26b3d614812a0bfbbcd477", "is_reserved": 0, "rental_uris": {"android": "https://dc.lft.to/lastmile_qr_scan", "ios": "https://dc.lft.to/lastmile_qr_scan"}, "fusion_lon": 0.0}, {"lat": 38.90693733333333, "is_disabled": 0, "type": "electric_scooter", "lon": -77.03760466666667, "bike_id": "7788e1554bed2bb83d1397da1655949b", "fusion_lat": 0.0, "name": "7788e1554bed2bb83d1397da1655949b", "is_reserved": 0, "rental_uris": {"android": "https://dc.lft.to/lastmile_qr_scan", "ios": "https://dc.lft.to/lastmile_qr_scan"}, "fusion_lon": 0.0}, {"lat": 38.8874245, "is_disabled": 0, "type": "electric_scooter", "lon": -77.02569966666667, "bike_id": "f359e4cdff3925dc856ccbd0296f8d43", "fusion_lat": 0.0, "name": "f359e4cdff3925dc856ccbd0296f8d43", "is_reserved": 0, "rental_uris": {"android": "https://dc.lft.to/lastmile_qr_scan", "ios": "https://dc.lft.to/lastmile_qr_scan"}, "fusion_lon": 0.0}, {"lat": 38.89734883333333, "is_disabled": 0, "type": "electric_scooter", "lon": -77.04755333333334, "bike_id": "255d00a6ed4fd89e3ec7bf135e77cda7", "fusion_lat": 0.0, "name": "255d00a6ed4fd89e3ec7bf135e77cda7", "is_reserved": 0, "rental_uris": {"android": "https://dc.lft.to/lastmile_qr_scan", "ios": "https://dc.lft.to/lastmile_qr_scan"}, "fusion_lon": 0.0}, {"lat": 38.91929783333333, "is_disabled": 0, "type": "electric_scooter", "lon": -77.0229425, "bike_id": "31d3fcb722fed3a179f60f9763da7501", "fusion_lat": 0.0, "name": "31d3fcb722fed3a179f60f9763da7501", "is_reserved": 0, "rental_uris": {"android": "https://dc.lft.to/lastmile_qr_scan", "ios": "https://dc.lft.to/lastmile_qr_scan"}, "fusion_lon": 0.0}, {"lat": 38.9026355, "is_disabled": 0, "type": "electric_scooter", "lon": -77.052529, "bike_id": "dd20ddf56bfaea501e201925e4487f38", "fusion_lat": 0.0, "name": "dd20ddf56bfaea501e201925e4487f38", "is_reserved": 0, "rental_uris": {"android": "https://dc.lft.to/lastmile_qr_scan", "ios": "https://dc.lft.to/lastmile_qr_scan"}, "fusion_lon": 0.0}, {"lat": 38.92242133333333, "is_disabled": 0, "type": "electric_scooter", "lon": -77.04572433333334, "bike_id": "b0cce24a2c9273f8740ab1041e2c8372", "fusion_lat": 0.0, "name": "b0cce24a2c9273f8740ab1041e2c8372", "is_reserved": 0, "rental_uris": {"android": "https://dc.lft.to/lastmile_qr_scan", "ios": "https://dc.lft.to/lastmile_qr_scan"}, "fusion_lon": 0.0}, {"lat": 38.9082045, "is_disabled": 0, "type": "electric_scooter", "lon": -77.06371733333333, "bike_id": "e78f26d53eed3322821eafcfe43ab4a6", "fusion_lat": 0.0, "name": "e78f26d53eed3322821eafcfe43ab4a6", "is_reserved": 0, "rental_uris": {"android": "https://dc.lft.to/lastmile_qr_scan", "ios": "https://dc.lft.to/lastmile_qr_scan"}, "fusion_lon": 0.0}, {"lat": 38.8924625, "is_disabled": 0, "type": "electric_scooter", "lon": -77.0395525, "bike_id": "caeb6d03bcf2f6e957b67070ad5f1338", "fusion_lat": 0.0, "name": "caeb6d03bcf2f6e957b67070ad5f1338", "is_reserved": 0, "rental_uris": {"android": "https://dc.lft.to/lastmile_qr_scan", "ios": "https://dc.lft.to/lastmile_qr_scan"}, "fusion_lon": 0.0}, {"lat": 39.0520195, "is_disabled": 0, "type": "electric_bike", "lon": -77.10913516666666, "bike_id": "837fdfd17b03da02a8799d0644438f9a", "fusion_lat": 0.0, "name": "837fdfd17b03da02a8799d0644438f9a", "is_reserved": 0, "rental_uris": {"android": "https://dc.lft.to/lastmile_qr_scan", "ios": "https://dc.lft.to/lastmile_qr_scan"}, "fusion_lon": 0.0}, {"lat": 38.8996675, "is_disabled": 0, "type": "electric_scooter", "lon": -76.9265465, "bike_id": "92f6ec65834479e10778aed306a3a09d", "fusion_lat": 0.0, "name": "92f6ec65834479e10778aed306a3a09d", "is_reserved": 0, "rental_uris": {"android": "https://dc.lft.to/lastmile_qr_scan", "ios": "https://dc.lft.to/lastmile_qr_scan"}, "fusion_lon": 0.0}, {"lat": 38.88734383333333, "is_disabled": 0, "type": "electric_scooter", "lon": -77.03212183333333, "bike_id": "6afcfdbfbf06fdf6e1f7c38d8762ac96", "fusion_lat": 0.0, "name": "6afcfdbfbf06fdf6e1f7c38d8762ac96", "is_reserved": 0, "rental_uris": {"android": "https://dc.lft.to/lastmile_qr_scan", "ios": "https://dc.lft.to/lastmile_qr_scan"}, "fusion_lon": 0.0}, {"lat": 38.9007145, "is_disabled": 0, "type": "electric_scooter", "lon": -77.00208333333333, "bike_id": "6796cd7a0146baedb238409ed0c836e7", "fusion_lat": 0.0, "name": "6796cd7a0146baedb238409ed0c836e7", "is_reserved": 0, "rental_uris": {"android": "https://dc.lft.to/lastmile_qr_scan", "ios": "https://dc.lft.to/lastmile_qr_scan"}, "fusion_lon": 0.0}, {"lat": 38.9177425, "is_disabled": 0, "type": "electric_scooter", "lon": -77.03846033333333, "bike_id": "e5df82812ec3ee5741a060f77727c5b1", "fusion_lat": 0.0, "name": "e5df82812ec3ee5741a060f77727c5b1", "is_reserved": 0, "rental_uris": {"android": "https://dc.lft.to/lastmile_qr_scan", "ios": "https://dc.lft.to/lastmile_qr_scan"}, "fusion_lon": 0.0}, {"lat": 38.916740833333336, "is_disabled": 0, "type": "electric_scooter", "lon": -77.02711983333333, "bike_id": "045758d62664c966e81037c71dc74bf9", "fusion_lat": 0.0, "name": "045758d62664c966e81037c71dc74bf9", "is_reserved": 0, "rental_uris": {"android": "https://dc.lft.to/lastmile_qr_scan", "ios": "https://dc.lft.to/lastmile_qr_scan"}, "fusion_lon": 0.0}, {"lat": 38.89819216666667, "is_disabled": 0, "type": "electric_scooter", "lon": -77.03241616666666, "bike_id": "ecb3e775bb0f229ce910ebde64fd983b", "fusion_lat": 0.0, "name": "ecb3e775bb0f229ce910ebde64fd983b", "is_reserved": 0, "rental_uris": {"android": "https://dc.lft.to/lastmile_qr_scan", "ios": "https://dc.lft.to/lastmile_qr_scan"}, "fusion_lon": 0.0}, {"lat": 38.90084783333333, "is_disabled": 0, "type": "electric_scooter", "lon": -77.01219916666666, "bike_id": "9615b094873e61d328a220314fb6cdda", "fusion_lat": 0.0, "name": "9615b094873e61d328a220314fb6cdda", "is_reserved": 0, "rental_uris": {"android": "https://dc.lft.to/lastmile_qr_scan", "ios": "https://dc.lft.to/lastmile_qr_scan"}, "fusion_lon": 0.0}, {"lat": 38.902822666666665, "is_disabled": 0, "type": "electric_scooter", "lon": -77.0382535, "bike_id": "fd71b5d14f166fe405a439c06fdff177", "fusion_lat": 0.0, "name": "fd71b5d14f166fe405a439c06fdff177", "is_reserved": 0, "rental_uris": {"android": "https://dc.lft.to/lastmile_qr_scan", "ios": "https://dc.lft.to/lastmile_qr_scan"}, "fusion_lon": 0.0}, {"lat": 38.90644233333333, "is_disabled": 0, "type": "electric_scooter", "lon": -77.02973666666666, "bike_id": "160381b91e86ac053334934f8dd004e2", "fusion_lat": 0.0, "name": "160381b91e86ac053334934f8dd004e2", "is_reserved": 0, "rental_uris": {"android": "https://dc.lft.to/lastmile_qr_scan", "ios": "https://dc.lft.to/lastmile_qr_scan"}, "fusion_lon": 0.0}, {"lat": 38.90151316666667, "is_disabled": 0, "type": "electric_scooter", "lon": -77.0498235, "bike_id": "148354555ba5ef988bb854e41d39a258", "fusion_lat": 0.0, "name": "148354555ba5ef988bb854e41d39a258", "is_reserved": 0, "rental_uris": {"android": "https://dc.lft.to/lastmile_qr_scan", "ios": "https://dc.lft.to/lastmile_qr_scan"}, "fusion_lon": 0.0}, {"lat": 38.91707616666667, "is_disabled": 0, "type": "electric_scooter", "lon": -77.03469283333334, "bike_id": "a1a1aab7a6ddebf606d03b3d7e4bda19", "fusion_lat": 0.0, "name": "a1a1aab7a6ddebf606d03b3d7e4bda19", "is_reserved": 0, "rental_uris": {"android": "https://dc.lft.to/lastmile_qr_scan", "ios": "https://dc.lft.to/lastmile_qr_scan"}, "fusion_lon": 0.0}, {"lat": 38.90142, "is_disabled": 0, "type": "electric_scooter", "lon": -77.01156233333333, "bike_id": "bf7c54e444f9ac2fd09890325c0c6b44", "fusion_lat": 0.0, "name": "bf7c54e444f9ac2fd09890325c0c6b44", "is_reserved": 0, "rental_uris": {"android": "https://dc.lft.to/lastmile_qr_scan", "ios": "https://dc.lft.to/lastmile_qr_scan"}, "fusion_lon": 0.0}, {"lat": 38.90599133333333, "is_disabled": 0, "type": "electric_scooter", "lon": -77.01605733333334, "bike_id": "32e6660b30ba512de21606f125d03205", "fusion_lat": 0.0, "name": "32e6660b30ba512de21606f125d03205", "is_reserved": 0, "rental_uris": {"android": "https://dc.lft.to/lastmile_qr_scan", "ios": "https://dc.lft.to/lastmile_qr_scan"}, "fusion_lon": 0.0}, {"lat": 38.89929866666667, "is_disabled": 0, "type": "electric_scooter", "lon": -77.00346816666666, "bike_id": "877d3697c6bdec070ddd7894c6a21605", "fusion_lat": 0.0, "name": "877d3697c6bdec070ddd7894c6a21605", "is_reserved": 0, "rental_uris": {"android": "https://dc.lft.to/lastmile_qr_scan", "ios": "https://dc.lft.to/lastmile_qr_scan"}, "fusion_lon": 0.0}, {"lat": 38.92641716666667, "is_disabled": 0, "type": "electric_scooter", "lon": -77.0250075, "bike_id": "6c23df6a27c4291e6ca1782a7bae57fa", "fusion_lat": 0.0, "name": "6c23df6a27c4291e6ca1782a7bae57fa", "is_reserved": 0, "rental_uris": {"android": "https://dc.lft.to/lastmile_qr_scan", "ios": "https://dc.lft.to/lastmile_qr_scan"}, "fusion_lon": 0.0}, {"lat": 38.924415, "is_disabled": 0, "type": "electric_scooter", "lon": -77.0335565, "bike_id": "b787030e293724c3e8c4f801dd9159ec", "fusion_lat": 0.0, "name": "b787030e293724c3e8c4f801dd9159ec", "is_reserved": 0, "rental_uris": {"android": "https://dc.lft.to/lastmile_qr_scan", "ios": "https://dc.lft.to/lastmile_qr_scan"}, "fusion_lon": 0.0}, {"lat": 38.86663266666667, "is_disabled": 0, "type": "electric_scooter", "lon": -76.98901066666667, "bike_id": "27748c7b58a54f077967e626282fd500", "fusion_lat": 0.0, "name": "27748c7b58a54f077967e626282fd500", "is_reserved": 0, "rental_uris": {"android": "https://dc.lft.to/lastmile_qr_scan", "ios": "https://dc.lft.to/lastmile_qr_scan"}, "fusion_lon": 0.0}, {"lat": 38.9243035, "is_disabled": 0, "type": "electric_scooter", "lon": -77.03415916666667, "bike_id": "c2e7b14b93972aa2642cdc227787b609", "fusion_lat": 0.0, "name": "c2e7b14b93972aa2642cdc227787b609", "is_reserved": 0, "rental_uris": {"android": "https://dc.lft.to/lastmile_qr_scan", "ios": "https://dc.lft.to/lastmile_qr_scan"}, "fusion_lon": 0.0}, {"lat": 38.857311833333334, "is_disabled": 0, "type": "electric_scooter", "lon": -76.994324, "bike_id": "46ca2fa8ca7868e03f0ba703d96c2bf2", "fusion_lat": 0.0, "name": "46ca2fa8ca7868e03f0ba703d96c2bf2", "is_reserved": 0, "rental_uris": {"android": "https://dc.lft.to/lastmile_qr_scan", "ios": "https://dc.lft.to/lastmile_qr_scan"}, "fusion_lon": 0.0}, {"lat": 38.93665716666667, "is_disabled": 0, "type": "electric_scooter", "lon": -77.036316, "bike_id": "4edc91ca3054aae590ba954b7f252510", "fusion_lat": 0.0, "name": "4edc91ca3054aae590ba954b7f252510", "is_reserved": 0, "rental_uris": {"android": "https://dc.lft.to/lastmile_qr_scan", "ios": "https://dc.lft.to/lastmile_qr_scan"}, "fusion_lon": 0.0}, {"lat": 38.920631666666665, "is_disabled": 0, "type": "electric_scooter", "lon": -77.04237116666667, "bike_id": "af3fe25bac5ed8a1332e58e500269b6b", "fusion_lat": 0.0, "name": "af3fe25bac5ed8a1332e58e500269b6b", "is_reserved": 0, "rental_uris": {"android": "https://dc.lft.to/lastmile_qr_scan", "ios": "https://dc.lft.to/lastmile_qr_scan"}, "fusion_lon": 0.0}, {"lat": 38.90391916666667, "is_disabled": 0, "type": "electric_scooter", "lon": -77.04804016666667, "bike_id": "99d915e3fa52a72165f86062a5f87c5a", "fusion_lat": 0.0, "name": "99d915e3fa52a72165f86062a5f87c5a", "is_reserved": 0, "rental_uris": {"android": "https://dc.lft.to/lastmile_qr_scan", "ios": "https://dc.lft.to/lastmile_qr_scan"}, "fusion_lon": 0.0}, {"lat": 38.9443575, "is_disabled": 0, "type": "electric_scooter", "lon": -77.02338016666667, "bike_id": "8fb71ff515a982f80ad850c4a2582f7b", "fusion_lat": 0.0, "name": "8fb71ff515a982f80ad850c4a2582f7b", "is_reserved": 0, "rental_uris": {"android": "https://dc.lft.to/lastmile_qr_scan", "ios": "https://dc.lft.to/lastmile_qr_scan"}, "fusion_lon": 0.0}, {"lat": 38.9126575, "is_disabled": 0, "type": "electric_scooter", "lon": -77.01766966666666, "bike_id": "c886f443b17960e6d33e251d6b1b5e2f", "fusion_lat": 0.0, "name": "c886f443b17960e6d33e251d6b1b5e2f", "is_reserved": 0, "rental_uris": {"android": "https://dc.lft.to/lastmile_qr_scan", "ios": "https://dc.lft.to/lastmile_qr_scan"}, "fusion_lon": 0.0}, {"lat": 38.934752833333334, "is_disabled": 0, "type": "electric_scooter", "lon": -77.04115283333333, "bike_id": "478fe18c4291299ac29091f3a32a4a66", "fusion_lat": 0.0, "name": "478fe18c4291299ac29091f3a32a4a66", "is_reserved": 0, "rental_uris": {"android": "https://dc.lft.to/lastmile_qr_scan", "ios": "https://dc.lft.to/lastmile_qr_scan"}, "fusion_lon": 0.0}, {"lat": 38.8954855, "is_disabled": 0, "type": "electric_scooter", "lon": -77.00912533333333, "bike_id": "5be759f67f86d24bd6fc8f79780ac07a", "fusion_lat": 0.0, "name": "5be759f67f86d24bd6fc8f79780ac07a", "is_reserved": 0, "rental_uris": {"android": "https://dc.lft.to/lastmile_qr_scan", "ios": "https://dc.lft.to/lastmile_qr_scan"}, "fusion_lon": 0.0}, {"lat": 38.93032183333333, "is_disabled": 0, "type": "electric_scooter", "lon": -77.029564, "bike_id": "a8b35118f40f186498bdde64b5f64f96", "fusion_lat": 0.0, "name": "a8b35118f40f186498bdde64b5f64f96", "is_reserved": 0, "rental_uris": {"android": "https://dc.lft.to/lastmile_qr_scan", "ios": "https://dc.lft.to/lastmile_qr_scan"}, "fusion_lon": 0.0}, {"lat": 38.912541, "is_disabled": 0, "type": "electric_scooter", "lon": -77.03798466666667, "bike_id": "6eacf848e5f132ab2840206355a30734", "fusion_lat": 0.0, "name": "6eacf848e5f132ab2840206355a30734", "is_reserved": 0, "rental_uris": {"android": "https://dc.lft.to/lastmile_qr_scan", "ios": "https://dc.lft.to/lastmile_qr_scan"}, "fusion_lon": 0.0}, {"lat": 38.90523866666667, "is_disabled": 0, "type": "electric_scooter", "lon": -77.0605585, "bike_id": "2c15f9d6ac46560f21e61e5b2f0573d3", "fusion_lat": 0.0, "name": "2c15f9d6ac46560f21e61e5b2f0573d3", "is_reserved": 0, "rental_uris": {"android": "https://dc.lft.to/lastmile_qr_scan", "ios": "https://dc.lft.to/lastmile_qr_scan"}, "fusion_lon": 0.0}, {"lat": 38.9037215, "is_disabled": 0, "type": "electric_scooter", "lon": -76.9921955, "bike_id": "14bb091d9b16afd2f007dd7aab5ae7cd", "fusion_lat": 0.0, "name": "14bb091d9b16afd2f007dd7aab5ae7cd", "is_reserved": 0, "rental_uris": {"android": "https://dc.lft.to/lastmile_qr_scan", "ios": "https://dc.lft.to/lastmile_qr_scan"}, "fusion_lon": 0.0}, {"lat": 38.923416333333336, "is_disabled": 0, "type": "electric_scooter", "lon": -77.05117733333333, "bike_id": "36e59b153a3b9cffb7891bdbe44e09b5", "fusion_lat": 0.0, "name": "36e59b153a3b9cffb7891bdbe44e09b5", "is_reserved": 0, "rental_uris": {"android": "https://dc.lft.to/lastmile_qr_scan", "ios": "https://dc.lft.to/lastmile_qr_scan"}, "fusion_lon": 0.0}, {"lat": 38.903947333333335, "is_disabled": 0, "type": "electric_scooter", "lon": -77.0508055, "bike_id": "d2a620e4f12ae84f69455aaffaa4b882", "fusion_lat": 0.0, "name": "d2a620e4f12ae84f69455aaffaa4b882", "is_reserved": 0, "rental_uris": {"android": "https://dc.lft.to/lastmile_qr_scan", "ios": "https://dc.lft.to/lastmile_qr_scan"}, "fusion_lon": 0.0}, {"lat": 38.9003695, "is_disabled": 0, "type": "electric_scooter", "lon": -77.03314983333334, "bike_id": "ef26e534a1ab333bef909b0f5a0c9c66", "fusion_lat": 0.0, "name": "ef26e534a1ab333bef909b0f5a0c9c66", "is_reserved": 0, "rental_uris": {"android": "https://dc.lft.to/lastmile_qr_scan", "ios": "https://dc.lft.to/lastmile_qr_scan"}, "fusion_lon": 0.0}, {"lat": 38.91746966666667, "is_disabled": 0, "type": "electric_scooter", "lon": -77.03591316666666, "bike_id": "f7a7a8d9586e3041eb00abd0c03f63e1", "fusion_lat": 0.0, "name": "f7a7a8d9586e3041eb00abd0c03f63e1", "is_reserved": 0, "rental_uris": {"android": "https://dc.lft.to/lastmile_qr_scan", "ios": "https://dc.lft.to/lastmile_qr_scan"}, "fusion_lon": 0.0}, {"lat": 38.865064333333336, "is_disabled": 0, "type": "electric_scooter", "lon": -76.99000283333334, "bike_id": "4b9be656432abd377c505e41210a8f10", "fusion_lat": 0.0, "name": "4b9be656432abd377c505e41210a8f10", "is_reserved": 0, "rental_uris": {"android": "https://dc.lft.to/lastmile_qr_scan", "ios": "https://dc.lft.to/lastmile_qr_scan"}, "fusion_lon": 0.0}, {"lat": 38.89229733333333, "is_disabled": 0, "type": "electric_scooter", "lon": -77.02827066666667, "bike_id": "82473be1319aeec4fef3ae22262e64b7", "fusion_lat": 0.0, "name": "82473be1319aeec4fef3ae22262e64b7", "is_reserved": 0, "rental_uris": {"android": "https://dc.lft.to/lastmile_qr_scan", "ios": "https://dc.lft.to/lastmile_qr_scan"}, "fusion_lon": 0.0}, {"lat": 38.892188833333336, "is_disabled": 0, "type": "electric_scooter", "lon": -76.93292416666667, "bike_id": "3a5f35ff0b8075f92b7db2fb824ede76", "fusion_lat": 0.0, "name": "3a5f35ff0b8075f92b7db2fb824ede76", "is_reserved": 0, "rental_uris": {"android": "https://dc.lft.to/lastmile_qr_scan", "ios": "https://dc.lft.to/lastmile_qr_scan"}, "fusion_lon": 0.0}, {"lat": 38.93753133333333, "is_disabled": 0, "type": "electric_scooter", "lon": -77.03251983333334, "bike_id": "9eeed7bffcef46845858d82aa73a5f00", "fusion_lat": 0.0, "name": "9eeed7bffcef46845858d82aa73a5f00", "is_reserved": 0, "rental_uris": {"android": "https://dc.lft.to/lastmile_qr_scan", "ios": "https://dc.lft.to/lastmile_qr_scan"}, "fusion_lon": 0.0}, {"lat": 38.912659166666664, "is_disabled": 0, "type": "electric_scooter", "lon": -77.01974916666667, "bike_id": "0f2ee2a2f79561978412ed414b0a055a", "fusion_lat": 0.0, "name": "0f2ee2a2f79561978412ed414b0a055a", "is_reserved": 0, "rental_uris": {"android": "https://dc.lft.to/lastmile_qr_scan", "ios": "https://dc.lft.to/lastmile_qr_scan"}, "fusion_lon": 0.0}, {"lat": 38.90090716666667, "is_disabled": 0, "type": "electric_scooter", "lon": -77.05594466666666, "bike_id": "c4710fb76fe11bbb2fe6b4386f6c7ad5", "fusion_lat": 0.0, "name": "c4710fb76fe11bbb2fe6b4386f6c7ad5", "is_reserved": 0, "rental_uris": {"android": "https://dc.lft.to/lastmile_qr_scan", "ios": "https://dc.lft.to/lastmile_qr_scan"}, "fusion_lon": 0.0}, {"lat": 38.9104755, "is_disabled": 0, "type": "electric_scooter", "lon": -77.04255366666666, "bike_id": "5327c838fc38b7b3f22c004d69c6ce08", "fusion_lat": 0.0, "name": "5327c838fc38b7b3f22c004d69c6ce08", "is_reserved": 0, "rental_uris": {"android": "https://dc.lft.to/lastmile_qr_scan", "ios": "https://dc.lft.to/lastmile_qr_scan"}, "fusion_lon": 0.0}, {"lat": 38.89702033333333, "is_disabled": 0, "type": "electric_scooter", "lon": -77.02670233333333, "bike_id": "d3a6321c15f5a8ebf11981e766e4a808", "fusion_lat": 0.0, "name": "d3a6321c15f5a8ebf11981e766e4a808", "is_reserved": 0, "rental_uris": {"android": "https://dc.lft.to/lastmile_qr_scan", "ios": "https://dc.lft.to/lastmile_qr_scan"}, "fusion_lon": 0.0}, {"lat": 38.88495233333333, "is_disabled": 0, "type": "electric_scooter", "lon": -77.00704116666667, "bike_id": "c973e46740a9b20b2faedeceeb8cb124", "fusion_lat": 0.0, "name": "c973e46740a9b20b2faedeceeb8cb124", "is_reserved": 0, "rental_uris": {"android": "https://dc.lft.to/lastmile_qr_scan", "ios": "https://dc.lft.to/lastmile_qr_scan"}, "fusion_lon": 0.0}, {"lat": 38.90845566666667, "is_disabled": 0, "type": "electric_scooter", "lon": -77.020564, "bike_id": "7cc009fc39082fa43e660468ecf1f33e", "fusion_lat": 0.0, "name": "7cc009fc39082fa43e660468ecf1f33e", "is_reserved": 0, "rental_uris": {"android": "https://dc.lft.to/lastmile_qr_scan", "ios": "https://dc.lft.to/lastmile_qr_scan"}, "fusion_lon": 0.0}, {"lat": 38.86654766666667, "is_disabled": 0, "type": "electric_scooter", "lon": -76.98880416666667, "bike_id": "c80d72b5195c4fe46d7cac81b2f13873", "fusion_lat": 0.0, "name": "c80d72b5195c4fe46d7cac81b2f13873", "is_reserved": 0, "rental_uris": {"android": "https://dc.lft.to/lastmile_qr_scan", "ios": "https://dc.lft.to/lastmile_qr_scan"}, "fusion_lon": 0.0}, {"lat": 38.941731, "is_disabled": 0, "type": "electric_bike", "lon": -76.98483533333334, "bike_id": "0d0114f0a5152dd55b2858e6ae88b15f", "fusion_lat": 0.0, "name": "0d0114f0a5152dd55b2858e6ae88b15f", "is_reserved": 0, "rental_uris": {"android": "https://dc.lft.to/lastmile_qr_scan", "ios": "https://dc.lft.to/lastmile_qr_scan"}, "fusion_lon": 0.0}, {"lat": 38.905483333333336, "is_disabled": 0, "type": "electric_scooter", "lon": -77.03245966666667, "bike_id": "db2e600d44e391e33d5098a79c37c19a", "fusion_lat": 0.0, "name": "db2e600d44e391e33d5098a79c37c19a", "is_reserved": 0, "rental_uris": {"android": "https://dc.lft.to/lastmile_qr_scan", "ios": "https://dc.lft.to/lastmile_qr_scan"}, "fusion_lon": 0.0}, {"lat": 38.800571, "is_disabled": 0, "type": "electric_bike", "lon": -77.07107366666666, "bike_id": "976c358628be1d8c52211e6b4a4bc279", "fusion_lat": 0.0, "name": "976c358628be1d8c52211e6b4a4bc279", "is_reserved": 0, "rental_uris": {"android": "https://dc.lft.to/lastmile_qr_scan", "ios": "https://dc.lft.to/lastmile_qr_scan"}, "fusion_lon": 0.0}, {"lat": 38.9207105, "is_disabled": 0, "type": "electric_scooter", "lon": -77.02537633333333, "bike_id": "8a857125986637a4f0513d39c135d794", "fusion_lat": 0.0, "name": "8a857125986637a4f0513d39c135d794", "is_reserved": 0, "rental_uris": {"android": "https://dc.lft.to/lastmile_qr_scan", "ios": "https://dc.lft.to/lastmile_qr_scan"}, "fusion_lon": 0.0}, {"lat": 38.922946333333336, "is_disabled": 0, "type": "electric_scooter", "lon": -77.04719716666666, "bike_id": "7b0aeac028ee90956d84b1e86ca1ac84", "fusion_lat": 0.0, "name": "7b0aeac028ee90956d84b1e86ca1ac84", "is_reserved": 0, "rental_uris": {"android": "https://dc.lft.to/lastmile_qr_scan", "ios": "https://dc.lft.to/lastmile_qr_scan"}, "fusion_lon": 0.0}, {"lat": 38.930774, "is_disabled": 0, "type": "electric_scooter", "lon": -77.0341535, "bike_id": "f528234056fceafccb5b8f11485b75e4", "fusion_lat": 0.0, "name": "f528234056fceafccb5b8f11485b75e4", "is_reserved": 0, "rental_uris": {"android": "https://dc.lft.to/lastmile_qr_scan", "ios": "https://dc.lft.to/lastmile_qr_scan"}, "fusion_lon": 0.0}, {"lat": 38.9201605, "is_disabled": 0, "type": "electric_scooter", "lon": -77.01956383333334, "bike_id": "cd34092f8e966dae272f88441d2ed3d9", "fusion_lat": 0.0, "name": "cd34092f8e966dae272f88441d2ed3d9", "is_reserved": 0, "rental_uris": {"android": "https://dc.lft.to/lastmile_qr_scan", "ios": "https://dc.lft.to/lastmile_qr_scan"}, "fusion_lon": 0.0}, {"lat": 38.80575483333333, "is_disabled": 0, "type": "electric_bike", "lon": -77.068575, "bike_id": "b6c12c955effde5b4a7d9c83f7a7e057", "fusion_lat": 0.0, "name": "b6c12c955effde5b4a7d9c83f7a7e057", "is_reserved": 0, "rental_uris": {"android": "https://dc.lft.to/lastmile_qr_scan", "ios": "https://dc.lft.to/lastmile_qr_scan"}, "fusion_lon": 0.0}, {"lat": 38.985007333333336, "is_disabled": 0, "type": "electric_bike", "lon": -76.98195866666667, "bike_id": "a8dcba47889c1a016f61f1e1e2cdbc5a", "fusion_lat": 0.0, "name": "a8dcba47889c1a016f61f1e1e2cdbc5a", "is_reserved": 0, "rental_uris": {"android": "https://dc.lft.to/lastmile_qr_scan", "ios": "https://dc.lft.to/lastmile_qr_scan"}, "fusion_lon": 0.0}, {"lat": 38.919843666666665, "is_disabled": 0, "type": "electric_scooter", "lon": -77.02527016666667, "bike_id": "c8937db1765898c0069ffac040167d79", "fusion_lat": 0.0, "name": "c8937db1765898c0069ffac040167d79", "is_reserved": 0, "rental_uris": {"android": "https://dc.lft.to/lastmile_qr_scan", "ios": "https://dc.lft.to/lastmile_qr_scan"}, "fusion_lon": 0.0}, {"lat": 38.90005633333333, "is_disabled": 0, "type": "electric_scooter", "lon": -77.04159816666666, "bike_id": "e1c2fbbe58638f4b85b53f9fa0967a6b", "fusion_lat": 0.0, "name": "e1c2fbbe58638f4b85b53f9fa0967a6b", "is_reserved": 0, "rental_uris": {"android": "https://dc.lft.to/lastmile_qr_scan", "ios": "https://dc.lft.to/lastmile_qr_scan"}, "fusion_lon": 0.0}, {"lat": 38.88827166666667, "is_disabled": 0, "type": "electric_scooter", "lon": -76.99407866666667, "bike_id": "84b9195f086910fe9871573cd4b8f7d0", "fusion_lat": 0.0, "name": "84b9195f086910fe9871573cd4b8f7d0", "is_reserved": 0, "rental_uris": {"android": "https://dc.lft.to/lastmile_qr_scan", "ios": "https://dc.lft.to/lastmile_qr_scan"}, "fusion_lon": 0.0}, {"lat": 38.916641, "is_disabled": 0, "type": "electric_scooter", "lon": -77.02820216666667, "bike_id": "cb3e8aab744a661dec7100e8656f0387", "fusion_lat": 0.0, "name": "cb3e8aab744a661dec7100e8656f0387", "is_reserved": 0, "rental_uris": {"android": "https://dc.lft.to/lastmile_qr_scan", "ios": "https://dc.lft.to/lastmile_qr_scan"}, "fusion_lon": 0.0}, {"lat": 38.917357333333335, "is_disabled": 0, "type": "electric_scooter", "lon": -77.03182583333333, "bike_id": "10d7c8097021c0179ed22e6221e34764", "fusion_lat": 0.0, "name": "10d7c8097021c0179ed22e6221e34764", "is_reserved": 0, "rental_uris": {"android": "https://dc.lft.to/lastmile_qr_scan", "ios": "https://dc.lft.to/lastmile_qr_scan"}, "fusion_lon": 0.0}, {"lat": 38.89546683333333, "is_disabled": 0, "type": "electric_scooter", "lon": -77.0228435, "bike_id": "aaf1913eb315d3451bd9316caedbba23", "fusion_lat": 0.0, "name": "aaf1913eb315d3451bd9316caedbba23", "is_reserved": 0, "rental_uris": {"android": "https://dc.lft.to/lastmile_qr_scan", "ios": "https://dc.lft.to/lastmile_qr_scan"}, "fusion_lon": 0.0}, {"lat": 38.91405, "is_disabled": 0, "type": "electric_scooter", "lon": -77.04499733333333, "bike_id": "1f1483024209c4650f8f6137d835f856", "fusion_lat": 0.0, "name": "1f1483024209c4650f8f6137d835f856", "is_reserved": 0, "rental_uris": {"android": "https://dc.lft.to/lastmile_qr_scan", "ios": "https://dc.lft.to/lastmile_qr_scan"}, "fusion_lon": 0.0}, {"lat": 38.982726, "is_disabled": 0, "type": "electric_bike", "lon": -77.017699, "bike_id": "7d989ca3e68213a63e67eba28b87ff54", "fusion_lat": 0.0, "name": "7d989ca3e68213a63e67eba28b87ff54", "is_reserved": 0, "rental_uris": {"android": "https://dc.lft.to/lastmile_qr_scan", "ios": "https://dc.lft.to/lastmile_qr_scan"}, "fusion_lon": 0.0}, {"lat": 38.8975275, "is_disabled": 0, "type": "electric_scooter", "lon": -77.0454055, "bike_id": "c2b7fdf2e15789e8b84edb9d820a2c84", "fusion_lat": 0.0, "name": "c2b7fdf2e15789e8b84edb9d820a2c84", "is_reserved": 0, "rental_uris": {"android": "https://dc.lft.to/lastmile_qr_scan", "ios": "https://dc.lft.to/lastmile_qr_scan"}, "fusion_lon": 0.0}, {"lat": 38.8740875, "is_disabled": 0, "type": "electric_scooter", "lon": -76.97304683333333, "bike_id": "334fd26ca610cf4d7d40649bb921ee21", "fusion_lat": 0.0, "name": "334fd26ca610cf4d7d40649bb921ee21", "is_reserved": 0, "rental_uris": {"android": "https://dc.lft.to/lastmile_qr_scan", "ios": "https://dc.lft.to/lastmile_qr_scan"}, "fusion_lon": 0.0}, {"lat": 38.9257035, "is_disabled": 0, "type": "electric_scooter", "lon": -77.057502, "bike_id": "6620092cbf5ea177976b9a06c129c504", "fusion_lat": 0.0, "name": "6620092cbf5ea177976b9a06c129c504", "is_reserved": 0, "rental_uris": {"android": "https://dc.lft.to/lastmile_qr_scan", "ios": "https://dc.lft.to/lastmile_qr_scan"}, "fusion_lon": 0.0}, {"lat": 38.866534, "is_disabled": 0, "type": "electric_scooter", "lon": -76.98883516666666, "bike_id": "338357ba9a5ad8ff298253a2ed1722bc", "fusion_lat": 0.0, "name": "338357ba9a5ad8ff298253a2ed1722bc", "is_reserved": 0, "rental_uris": {"android": "https://dc.lft.to/lastmile_qr_scan", "ios": "https://dc.lft.to/lastmile_qr_scan"}, "fusion_lon": 0.0}, {"lat": 38.90333033333334, "is_disabled": 0, "type": "electric_scooter", "lon": -76.97593216666667, "bike_id": "5fd2e958cc45289cc69080e057473624", "fusion_lat": 0.0, "name": "5fd2e958cc45289cc69080e057473624", "is_reserved": 0, "rental_uris": {"android": "https://dc.lft.to/lastmile_qr_scan", "ios": "https://dc.lft.to/lastmile_qr_scan"}, "fusion_lon": 0.0}, {"lat": 38.9213895, "is_disabled": 0, "type": "electric_scooter", "lon": -77.0436275, "bike_id": "b81577dd5cd5ea1deb165e6c5640829f", "fusion_lat": 0.0, "name": "b81577dd5cd5ea1deb165e6c5640829f", "is_reserved": 0, "rental_uris": {"android": "https://dc.lft.to/lastmile_qr_scan", "ios": "https://dc.lft.to/lastmile_qr_scan"}, "fusion_lon": 0.0}, {"lat": 38.907622, "is_disabled": 0, "type": "electric_scooter", "lon": -77.07023966666667, "bike_id": "65212a3e9376cd45b3610977bb8664ff", "fusion_lat": 0.0, "name": "65212a3e9376cd45b3610977bb8664ff", "is_reserved": 0, "rental_uris": {"android": "https://dc.lft.to/lastmile_qr_scan", "ios": "https://dc.lft.to/lastmile_qr_scan"}, "fusion_lon": 0.0}, {"lat": 38.90344316666667, "is_disabled": 0, "type": "electric_scooter", "lon": -77.02528733333334, "bike_id": "e7ee67e026734ccf526d9d16cb599de0", "fusion_lat": 0.0, "name": "e7ee67e026734ccf526d9d16cb599de0", "is_reserved": 0, "rental_uris": {"android": "https://dc.lft.to/lastmile_qr_scan", "ios": "https://dc.lft.to/lastmile_qr_scan"}, "fusion_lon": 0.0}, {"lat": 38.80678533333333, "is_disabled": 0, "type": "electric_bike", "lon": -77.08117216666666, "bike_id": "565d2ffa3e9783ce8c44fcdbac777eff", "fusion_lat": 0.0, "name": "565d2ffa3e9783ce8c44fcdbac777eff", "is_reserved": 0, "rental_uris": {"android": "https://dc.lft.to/lastmile_qr_scan", "ios": "https://dc.lft.to/lastmile_qr_scan"}, "fusion_lon": 0.0}, {"lat": 38.907285333333334, "is_disabled": 0, "type": "electric_scooter", "lon": -76.93544516666667, "bike_id": "c32be9922992176d9006838cbb67649c", "fusion_lat": 0.0, "name": "c32be9922992176d9006838cbb67649c", "is_reserved": 0, "rental_uris": {"android": "https://dc.lft.to/lastmile_qr_scan", "ios": "https://dc.lft.to/lastmile_qr_scan"}, "fusion_lon": 0.0}, {"lat": 38.916706833333336, "is_disabled": 0, "type": "electric_scooter", "lon": -77.036559, "bike_id": "1105955284b25cbdaf0232099cce06e8", "fusion_lat": 0.0, "name": "1105955284b25cbdaf0232099cce06e8", "is_reserved": 0, "rental_uris": {"android": "https://dc.lft.to/lastmile_qr_scan", "ios": "https://dc.lft.to/lastmile_qr_scan"}, "fusion_lon": 0.0}, {"lat": 38.90600233333333, "is_disabled": 0, "type": "electric_scooter", "lon": -77.06347333333333, "bike_id": "3a1fa126aca0b725c515ccdb9c919a6d", "fusion_lat": 0.0, "name": "3a1fa126aca0b725c515ccdb9c919a6d", "is_reserved": 0, "rental_uris": {"android": "https://dc.lft.to/lastmile_qr_scan", "ios": "https://dc.lft.to/lastmile_qr_scan"}, "fusion_lon": 0.0}, {"lat": 38.909754166666666, "is_disabled": 0, "type": "electric_scooter", "lon": -77.031903, "bike_id": "3c5c8c5fc6b3b8ee4e8d653264854022", "fusion_lat": 0.0, "name": "3c5c8c5fc6b3b8ee4e8d653264854022", "is_reserved": 0, "rental_uris": {"android": "https://dc.lft.to/lastmile_qr_scan", "ios": "https://dc.lft.to/lastmile_qr_scan"}, "fusion_lon": 0.0}, {"lat": 38.9925415, "is_disabled": 0, "type": "electric_scooter", "lon": -77.03652933333333, "bike_id": "63b03a59785aa0312619a46cb1101c18", "fusion_lat": 0.0, "name": "63b03a59785aa0312619a46cb1101c18", "is_reserved": 0, "rental_uris": {"android": "https://dc.lft.to/lastmile_qr_scan", "ios": "https://dc.lft.to/lastmile_qr_scan"}, "fusion_lon": 0.0}, {"lat": 38.85716083333333, "is_disabled": 0, "type": "electric_scooter", "lon": -76.986709, "bike_id": "9dfadb689f35981e4a6f4be2337a2523", "fusion_lat": 0.0, "name": "9dfadb689f35981e4a6f4be2337a2523", "is_reserved": 0, "rental_uris": {"android": "https://dc.lft.to/lastmile_qr_scan", "ios": "https://dc.lft.to/lastmile_qr_scan"}, "fusion_lon": 0.0}, {"lat": 38.89350833333334, "is_disabled": 0, "type": "electric_scooter", "lon": -77.04137116666666, "bike_id": "22be45200a2e69eed16b6c2af3ded4a1", "fusion_lat": 0.0, "name": "22be45200a2e69eed16b6c2af3ded4a1", "is_reserved": 0, "rental_uris": {"android": "https://dc.lft.to/lastmile_qr_scan", "ios": "https://dc.lft.to/lastmile_qr_scan"}, "fusion_lon": 0.0}, {"lat": 38.90526583333333, "is_disabled": 0, "type": "electric_scooter", "lon": -77.063013, "bike_id": "6d0bedec9d083d2703a38d39c3999839", "fusion_lat": 0.0, "name": "6d0bedec9d083d2703a38d39c3999839", "is_reserved": 0, "rental_uris": {"android": "https://dc.lft.to/lastmile_qr_scan", "ios": "https://dc.lft.to/lastmile_qr_scan"}, "fusion_lon": 0.0}, {"lat": 38.890707166666665, "is_disabled": 0, "type": "electric_scooter", "lon": -76.9883525, "bike_id": "d8420a3556b9647d8e57de4e5dd46c65", "fusion_lat": 0.0, "name": "d8420a3556b9647d8e57de4e5dd46c65", "is_reserved": 0, "rental_uris": {"android": "https://dc.lft.to/lastmile_qr_scan", "ios": "https://dc.lft.to/lastmile_qr_scan"}, "fusion_lon": 0.0}, {"lat": 38.937408166666664, "is_disabled": 0, "type": "electric_scooter", "lon": -77.03620733333334, "bike_id": "5fc1a5e6c317827ab3910b5c6f1a7f0a", "fusion_lat": 0.0, "name": "5fc1a5e6c317827ab3910b5c6f1a7f0a", "is_reserved": 0, "rental_uris": {"android": "https://dc.lft.to/lastmile_qr_scan", "ios": "https://dc.lft.to/lastmile_qr_scan"}, "fusion_lon": 0.0}, {"lat": 38.94551033333333, "is_disabled": 0, "type": "electric_bike", "lon": -76.89535033333334, "bike_id": "5ff32381c59a1f94644784f1cf40398e", "fusion_lat": 0.0, "name": "5ff32381c59a1f94644784f1cf40398e", "is_reserved": 0, "rental_uris": {"android": "https://dc.lft.to/lastmile_qr_scan", "ios": "https://dc.lft.to/lastmile_qr_scan"}, "fusion_lon": 0.0}, {"lat": 38.8518865, "is_disabled": 0, "type": "electric_scooter", "lon": -76.97619333333333, "bike_id": "4d46c399aa5b55748ab34333db4049c9", "fusion_lat": 0.0, "name": "4d46c399aa5b55748ab34333db4049c9", "is_reserved": 0, "rental_uris": {"android": "https://dc.lft.to/lastmile_qr_scan", "ios": "https://dc.lft.to/lastmile_qr_scan"}, "fusion_lon": 0.0}, {"lat": 38.84431933333333, "is_disabled": 0, "type": "electric_scooter", "lon": -76.99655433333334, "bike_id": "5dc1164710266ee9a7311a177e339a80", "fusion_lat": 0.0, "name": "5dc1164710266ee9a7311a177e339a80", "is_reserved": 0, "rental_uris": {"android": "https://dc.lft.to/lastmile_qr_scan", "ios": "https://dc.lft.to/lastmile_qr_scan"}, "fusion_lon": 0.0}, {"lat": 38.917200333333334, "is_disabled": 0, "type": "electric_scooter", "lon": -77.02292233333333, "bike_id": "a06fec0d09c22a6c9de6a2d8c8f4912c", "fusion_lat": 0.0, "name": "a06fec0d09c22a6c9de6a2d8c8f4912c", "is_reserved": 0, "rental_uris": {"android": "https://dc.lft.to/lastmile_qr_scan", "ios": "https://dc.lft.to/lastmile_qr_scan"}, "fusion_lon": 0.0}, {"lat": 38.936538166666665, "is_disabled": 0, "type": "electric_bike", "lon": -76.95217933333333, "bike_id": "ec39d73e5f70ad5448e8bff20d50c60c", "fusion_lat": 0.0, "name": "ec39d73e5f70ad5448e8bff20d50c60c", "is_reserved": 0, "rental_uris": {"android": "https://dc.lft.to/lastmile_qr_scan", "ios": "https://dc.lft.to/lastmile_qr_scan"}, "fusion_lon": 0.0}, {"lat": 39.034291, "is_disabled": 0, "type": "electric_bike", "lon": -77.04299316666666, "bike_id": "295a7c7cd1592c6468e5b44e118bbc73", "fusion_lat": 0.0, "name": "295a7c7cd1592c6468e5b44e118bbc73", "is_reserved": 0, "rental_uris": {"android": "https://dc.lft.to/lastmile_qr_scan", "ios": "https://dc.lft.to/lastmile_qr_scan"}, "fusion_lon": 0.0}, {"lat": 38.90533216666667, "is_disabled": 0, "type": "electric_scooter", "lon": -77.05716716666667, "bike_id": "4e41959319f7a1160611b5d9a3a8db25", "fusion_lat": 0.0, "name": "4e41959319f7a1160611b5d9a3a8db25", "is_reserved": 0, "rental_uris": {"android": "https://dc.lft.to/lastmile_qr_scan", "ios": "https://dc.lft.to/lastmile_qr_scan"}, "fusion_lon": 0.0}, {"lat": 38.9011685, "is_disabled": 0, "type": "electric_scooter", "lon": -77.043508, "bike_id": "57c79f4ce942dc7783ae2cc4750297d5", "fusion_lat": 0.0, "name": "57c79f4ce942dc7783ae2cc4750297d5", "is_reserved": 0, "rental_uris": {"android": "https://dc.lft.to/lastmile_qr_scan", "ios": "https://dc.lft.to/lastmile_qr_scan"}, "fusion_lon": 0.0}, {"lat": 38.900704833333336, "is_disabled": 0, "type": "electric_scooter", "lon": -77.04894433333334, "bike_id": "0312a9d97c967759a5e23ad7bccbe0af", "fusion_lat": 0.0, "name": "0312a9d97c967759a5e23ad7bccbe0af", "is_reserved": 0, "rental_uris": {"android": "https://dc.lft.to/lastmile_qr_scan", "ios": "https://dc.lft.to/lastmile_qr_scan"}, "fusion_lon": 0.0}, {"lat": 38.925839333333336, "is_disabled": 0, "type": "electric_scooter", "lon": -77.044112, "bike_id": "5b6939a2f1bbb67fa62f727052099208", "fusion_lat": 0.0, "name": "5b6939a2f1bbb67fa62f727052099208", "is_reserved": 0, "rental_uris": {"android": "https://dc.lft.to/lastmile_qr_scan", "ios": "https://dc.lft.to/lastmile_qr_scan"}, "fusion_lon": 0.0}, {"lat": 38.903718833333336, "is_disabled": 0, "type": "electric_scooter", "lon": -77.043285, "bike_id": "31b1564b5cb66aae0d367beac2b36a97", "fusion_lat": 0.0, "name": "31b1564b5cb66aae0d367beac2b36a97", "is_reserved": 0, "rental_uris": {"android": "https://dc.lft.to/lastmile_qr_scan", "ios": "https://dc.lft.to/lastmile_qr_scan"}, "fusion_lon": 0.0}, {"lat": 38.89714383333333, "is_disabled": 0, "type": "electric_scooter", "lon": -77.0079745, "bike_id": "2b4ab6109a363aac50756200c79275f4", "fusion_lat": 0.0, "name": "2b4ab6109a363aac50756200c79275f4", "is_reserved": 0, "rental_uris": {"android": "https://dc.lft.to/lastmile_qr_scan", "ios": "https://dc.lft.to/lastmile_qr_scan"}, "fusion_lon": 0.0}, {"lat": 38.890401, "is_disabled": 0, "type": "electric_scooter", "lon": -76.95136116666667, "bike_id": "dababceba4c050859c3a878dcfe667d0", "fusion_lat": 0.0, "name": "dababceba4c050859c3a878dcfe667d0", "is_reserved": 0, "rental_uris": {"android": "https://dc.lft.to/lastmile_qr_scan", "ios": "https://dc.lft.to/lastmile_qr_scan"}, "fusion_lon": 0.0}, {"lat": 38.912098, "is_disabled": 0, "type": "electric_scooter", "lon": -77.0447895, "bike_id": "d2956b32ebbb00e8571bc9b7eeae6ba3", "fusion_lat": 0.0, "name": "d2956b32ebbb00e8571bc9b7eeae6ba3", "is_reserved": 0, "rental_uris": {"android": "https://dc.lft.to/lastmile_qr_scan", "ios": "https://dc.lft.to/lastmile_qr_scan"}, "fusion_lon": 0.0}, {"lat": 38.9557235, "is_disabled": 0, "type": "electric_scooter", "lon": -77.07006016666666, "bike_id": "758837a8110c190537960807ad2773fd", "fusion_lat": 0.0, "name": "758837a8110c190537960807ad2773fd", "is_reserved": 0, "rental_uris": {"android": "https://dc.lft.to/lastmile_qr_scan", "ios": "https://dc.lft.to/lastmile_qr_scan"}, "fusion_lon": 0.0}, {"lat": 38.88718566666667, "is_disabled": 0, "type": "electric_scooter", "lon": -77.02383166666667, "bike_id": "6122128626deb91d34d830584fc84155", "fusion_lat": 0.0, "name": "6122128626deb91d34d830584fc84155", "is_reserved": 0, "rental_uris": {"android": "https://dc.lft.to/lastmile_qr_scan", "ios": "https://dc.lft.to/lastmile_qr_scan"}, "fusion_lon": 0.0}, {"lat": 38.869072833333334, "is_disabled": 0, "type": "electric_bike", "lon": -77.13169966666666, "bike_id": "f7bb3e8aa0aae0fdb439839d51d24e0f", "fusion_lat": 0.0, "name": "f7bb3e8aa0aae0fdb439839d51d24e0f", "is_reserved": 0, "rental_uris": {"android": "https://dc.lft.to/lastmile_qr_scan", "ios": "https://dc.lft.to/lastmile_qr_scan"}, "fusion_lon": 0.0}, {"lat": 38.922059, "is_disabled": 0, "type": "electric_scooter", "lon": -77.04003833333333, "bike_id": "ed4abcb712d56f541adb08efd7dac604", "fusion_lat": 0.0, "name": "ed4abcb712d56f541adb08efd7dac604", "is_reserved": 0, "rental_uris": {"android": "https://dc.lft.to/lastmile_qr_scan", "ios": "https://dc.lft.to/lastmile_qr_scan"}, "fusion_lon": 0.0}, {"lat": 38.899308166666664, "is_disabled": 0, "type": "electric_scooter", "lon": -77.03285366666667, "bike_id": "75d0e364a34e3366ee8e1a073dc2c3eb", "fusion_lat": 0.0, "name": "75d0e364a34e3366ee8e1a073dc2c3eb", "is_reserved": 0, "rental_uris": {"android": "https://dc.lft.to/lastmile_qr_scan", "ios": "https://dc.lft.to/lastmile_qr_scan"}, "fusion_lon": 0.0}, {"lat": 38.904995666666665, "is_disabled": 0, "type": "electric_scooter", "lon": -77.02805383333333, "bike_id": "f13cf99da34e5e9f62193bc6d03fac4c", "fusion_lat": 0.0, "name": "f13cf99da34e5e9f62193bc6d03fac4c", "is_reserved": 0, "rental_uris": {"android": "https://dc.lft.to/lastmile_qr_scan", "ios": "https://dc.lft.to/lastmile_qr_scan"}, "fusion_lon": 0.0}, {"lat": 38.907814333333334, "is_disabled": 0, "type": "electric_scooter", "lon": -77.04223183333333, "bike_id": "4d29bed7c58cbd785dface02aa55fa9c", "fusion_lat": 0.0, "name": "4d29bed7c58cbd785dface02aa55fa9c", "is_reserved": 0, "rental_uris": {"android": "https://dc.lft.to/lastmile_qr_scan", "ios": "https://dc.lft.to/lastmile_qr_scan"}, "fusion_lon": 0.0}, {"lat": 38.954041833333335, "is_disabled": 0, "type": "electric_scooter", "lon": -77.03629466666666, "bike_id": "6aad0483f16837a83477d85f3b4e20f7", "fusion_lat": 0.0, "name": "6aad0483f16837a83477d85f3b4e20f7", "is_reserved": 0, "rental_uris": {"android": "https://dc.lft.to/lastmile_qr_scan", "ios": "https://dc.lft.to/lastmile_qr_scan"}, "fusion_lon": 0.0}, {"lat": 38.92002083333333, "is_disabled": 0, "type": "electric_scooter", "lon": -77.02051316666666, "bike_id": "d7ef696dccca62367fcff7b6bb94ad75", "fusion_lat": 0.0, "name": "d7ef696dccca62367fcff7b6bb94ad75", "is_reserved": 0, "rental_uris": {"android": "https://dc.lft.to/lastmile_qr_scan", "ios": "https://dc.lft.to/lastmile_qr_scan"}, "fusion_lon": 0.0},