{"data": {"bikes": [{"lon": -76.97478066666666, "bike_id": "7db9e7dd4eea6cca28fb2db7d1e6ecd3", "lat": 38.90349833333333, "fusion_lon": 0.0, "fusion_lat": 0.0, "type": "electric_scooter", "name": "7db9e7dd4eea6cca28fb2db7d1e6ecd3", "is_disabled": 0, "rental_uris": {"ios": "https://dc.lft.to/lastmile_qr_scan", "android": "https://dc.lft.to/lastmile_qr_scan"}, "is_reserved": 0}, {"lon": -76.99086883333334, "bike_id": "7a594eb3903b5fc04b06cc04d7e184c4", "lat": 38.862357333333335, "fusion_lon": 0.0, "fusion_lat": 0.0, "type": "electric_bike", "name": "7a594eb3903b5fc04b06cc04d7e184c4", "is_disabled": 0, "rental_uris": {"ios": "https://dc.lft.to/lastmile_qr_scan", "android": "https://dc.lft.to/lastmile_qr_scan"}, "is_reserved": 0}, {"lon": -77.065111, "bike_id": "7659b0677513e9ac4532baf33c6388ed", "lat": 38.904084, "fusion_lon": 0.0, "fusion_lat": 0.0, "type": "electric_scooter", "name": "7659b0677513e9ac4532baf33c6388ed", "is_disabled": 0, "rental_uris": {"ios": "https://dc.lft.to/lastmile_qr_scan", "android": "https://dc.lft.to/lastmile_qr_scan"}, "is_reserved": 0}, {"lon": -76.99017633333334, "bike_id": "99d02da1f350e7a526cd7316f5317c76", "lat": 38.866444, "fusion_lon": 0.0, "fusion_lat": 0.0, "type": "electric_scooter", "name": "99d02da1f350e7a526cd7316f5317c76", "is_disabled": 0, "rental_uris": {"ios": "https://dc.lft.to/lastmile_qr_scan", "android": "https://dc.lft.to/lastmile_qr_scan"}, "is_reserved": 0}, {"lon": -77.03250783333333, "bike_id": "35607bd5fc335d8b79c6102753a2969b", "lat": 38.915489666666666, "fusion_lon": 0.0, "fusion_lat": 0.0, "type": "electric_scooter", "name": "35607bd5fc335d8b79c6102753a2969b", "is_disabled": 0, "rental_uris": {"ios": "https://dc.lft.to/lastmile_qr_scan", "android": "https://dc.lft.to/lastmile_qr_scan"}, "is_reserved": 0}, {"lon": -77.05183966666667, "bike_id": "a46ce29ab5d6be4702042df83bc86735", "lat": 38.899690166666666, "fusion_lon": 0.0, "fusion_lat": 0.0, "type": "electric_scooter", "name": "a46ce29ab5d6be4702042df83bc86735", "is_disabled": 0, "rental_uris": {"ios": "https://dc.lft.to/lastmile_qr_scan", "android": "https://dc.lft.to/lastmile_qr_scan"}, "is_reserved": 0}, {"lon": -77.03438833333334, "bike_id": "f44362a94e2cc635da835d49bb632ba8", "lat": 38.9097235, "fusion_lon": 0.0, "fusion_lat": 0.0, "type": "electric_scooter", "name": "f44362a94e2cc635da835d49bb632ba8", "is_disabled": 0, "rental_uris": {"ios": "https://dc.lft.to/lastmile_qr_scan", "android": "https://dc.lft.to/lastmile_qr_scan"}, "is_reserved": 0}, {"lon": -77.01938233333334, "bike_id": "bf8cfb146e6e5fab1a87aab4f42fe349", "lat": 38.935264, "fusion_lon": 0.0, "fusion_lat": 0.0, "type": "electric_scooter", "name": "bf8cfb146e6e5fab1a87aab4f42fe349", "is_disabled": 0, "rental_uris": {"ios": "https://dc.lft.to/lastmile_qr_scan", "android": "https://dc.lft.to/lastmile_qr_scan"}, "is_reserved": 0}, {"lon": -77.02198766666666, "bike_id": "f820618dfe717e6733ef7364ad5156b7", "lat": 38.892648333333334, "fusion_lon": 0.0, "fusion_lat": 0.0, "type": "electric_scooter", "name": "f820618dfe717e6733ef7364ad5156b7", "is_disabled": 0, "rental_uris": {"ios": "https://dc.lft.to/lastmile_qr_scan", "android": "https://dc.lft.to/lastmile_qr_scan"}, "is_reserved": 0}, {"lon": -77.03198216666667, "bike_id": "a7fa822a17c45acdc07120cddc6a916f", "lat": 38.91919, "fusion_lon": 0.0, "fusion_lat": 0.0, "type": "electric_scooter", "name": "a7fa822a17c45acdc07120cddc6a916f", "is_disabled": 0, "rental_uris": {"ios": "https://dc.lft.to/lastmile_qr_scan", "android": "https://dc.lft.to/lastmile_qr_scan"}, "is_reserved": 0}, {"lon": -76.99530766666666, "bike_id": "26ac9c73b99062b8203e1cd0fe2d7452", "lat": 38.883717833333336, "fusion_lon": 0.0, "fusion_lat": 0.0, "type": "electric_scooter", "name": "26ac9c73b99062b8203e1cd0fe2d7452", "is_disabled": 0, "rental_uris": {"ios": "https://dc.lft.to/lastmile_qr_scan", "android": "https://dc.lft.to/lastmile_qr_scan"}, "is_reserved": 0}, {"lon": -77.022857, "bike_id": "f8a3ed2ee43765653e97ba2fcf62f4c2", "lat": 38.89061316666667, "fusion_lon": 0.0, "fusion_lat": 0.0, "type": "electric_scooter", "name": "f8a3ed2ee43765653e97ba2fcf62f4c2", "is_disabled": 0, "rental_uris": {"ios": "https://dc.lft.to/lastmile_qr_scan", "android": "https://dc.lft.to/lastmile_qr_scan"}, "is_reserved": 0}, {"lon": -77.08068566666667, "bike_id": "5f16aaebfa6d2449839d99db9a3a3c39", "lat": 39.052775833333335, "fusion_lon": 0.0, "fusion_lat": 0.0, "type": "electric_bike", "name": "5f16aaebfa6d2449839d99db9a3a3c39", "is_disabled": 0, "rental_uris": {"ios": "https://dc.lft.to/lastmile_qr_scan", "android": "https://dc.lft.to/lastmile_qr_scan"}, "is_reserved": 0}, {"lon": -77.00645666666667, "bike_id": "8e8b4cf89ae2400a827b403206da25b8", "lat": 38.926233, "fusion_lon": 0.0, "fusion_lat": 0.0, "type": "electric_scooter", "name": "8e8b4cf89ae2400a827b403206da25b8", "is_disabled": 0, "rental_uris": {"ios": "https://dc.lft.to/lastmile_qr_scan", "android": "https://dc.lft.to/lastmile_qr_scan"}, "is_reserved": 0}, {"lon": -77.00227933333333, "bike_id": "471c7c5893b9af6696047e3ccbf6a21a", "lat": 38.900230666666666, "fusion_lon": 0.0, "fusion_lat": 0.0, "type": "electric_scooter", "name": "471c7c5893b9af6696047e3ccbf6a21a", "is_disabled": 0, "rental_uris": {"ios": "https://dc.lft.to/lastmile_qr_scan", "android": "https://dc.lft.to/lastmile_qr_scan"}, "is_reserved": 0}, {"lon": -76.995544, "bike_id": "76bbfc871dbb10dbe039ca79c8a3a150", "lat": 38.883845, "fusion_lon": 0.0, "fusion_lat": 0.0, "type": "electric_bike", "name": "76bbfc871dbb10dbe039ca79c8a3a150", "is_disabled": 0, "rental_uris": {"ios": "https://dc.lft.to/lastmile_qr_scan", "android": "https://dc.lft.to/lastmile_qr_scan"}, "is_reserved": 0}, {"lon": -77.022078, "bike_id": "0e3f5911a86c89209590de141214daa8", "lat": 38.914111, "fusion_lon": 0.0, "fusion_lat": 0.0, "type": "electric_scooter", "name": "0e3f5911a86c89209590de141214daa8", "is_disabled": 0, "rental_uris": {"ios": "https://dc.lft.to/lastmile_qr_scan", "android": "https://dc.lft.to/lastmile_qr_scan"}, "is_reserved": 0}, {"lon": -77.04010633333333, "bike_id": "3dd418845e45ce1a3b5dab160d045642", "lat": 38.91561, "fusion_lon": 0.0, "fusion_lat": 0.0, "type": "electric_scooter", "name": "3dd418845e45ce1a3b5dab160d045642", "is_disabled": 0, "rental_uris": {"ios": "https://dc.lft.to/lastmile_qr_scan", "android": "https://dc.lft.to/lastmile_qr_scan"}, "is_reserved": 0}, {"lon": -77.023708, "bike_id": "c34ac42b96da88135dffcee0773d94c5", "lat": 38.917842666666665, "fusion_lon": 0.0, "fusion_lat": 0.0, "type": "electric_scooter", "name": "c34ac42b96da88135dffcee0773d94c5", "is_disabled": 0, "rental_uris": {"ios": "https://dc.lft.to/lastmile_qr_scan", "android": "https://dc.lft.to/lastmile_qr_scan"}, "is_reserved": 0}, {"lon": -77.02802283333334, "bike_id": "a64a862667c99feefa8f1353eee39fdd", "lat": 38.92022766666667, "fusion_lon": 0.0, "fusion_lat": 0.0, "type": "electric_scooter", "name": "a64a862667c99feefa8f1353eee39fdd", "is_disabled": 0, "rental_uris": {"ios": "https://dc.lft.to/lastmile_qr_scan", "android": "https://dc.lft.to/lastmile_qr_scan"}, "is_reserved": 0}, {"lon": -77.045433, "bike_id": "ec159aa21ec3424da361f2b4c906e11f", "lat": 38.92056633333333, "fusion_lon": 0.0, "fusion_lat": 0.0, "type": "electric_scooter", "name": "ec159aa21ec3424da361f2b4c906e11f", "is_disabled": 0, "rental_uris": {"ios": "https://dc.lft.to/lastmile_qr_scan", "android": "https://dc.lft.to/lastmile_qr_scan"}, "is_reserved": 0}, {"lon": -77.02732616666667, "bike_id": "6cfa554309442d9ce94d3e738deae5b6", "lat": 38.93208583333333, "fusion_lon": 0.0, "fusion_lat": 0.0, "type": "electric_scooter", "name": "6cfa554309442d9ce94d3e738deae5b6", "is_disabled": 0, "rental_uris": {"ios": "https://dc.lft.to/lastmile_qr_scan", "android": "https://dc.lft.to/lastmile_qr_scan"}, "is_reserved": 0}, {"lon": -77.03327866666666, "bike_id": "b7377095195857d0344c2cbf7c549c26", "lat": 38.9097655, "fusion_lon": 0.0, "fusion_lat": 0.0, "type": "electric_scooter", "name": "b7377095195857d0344c2cbf7c549c26", "is_disabled": 0, "rental_uris": {"ios": "https://dc.lft.to/lastmile_qr_scan", "android": "https://dc.lft.to/lastmile_qr_scan"}, "is_reserved": 0}, {"lon": -77.0629895, "bike_id": "d2f88e3fdcf27088744aea03663f813d", "lat": 38.90606366666667, "fusion_lon": 0.0, "fusion_lat": 0.0, "type": "electric_scooter", "name": "d2f88e3fdcf27088744aea03663f813d", "is_disabled": 0, "rental_uris": {"ios": "https://dc.lft.to/lastmile_qr_scan", "android": "https://dc.lft.to/lastmile_qr_scan"}, "is_reserved": 0}, {"lon": -77.02559783333334, "bike_id": "d33daa468ee679101e2842def7292860", "lat": 38.91817316666667, "fusion_lon": 0.0, "fusion_lat": 0.0, "type": "electric_scooter", "name": "d33daa468ee679101e2842def7292860", "is_disabled": 0, "rental_uris": {"ios": "https://dc.lft.to/lastmile_qr_scan", "android": "https://dc.lft.to/lastmile_qr_scan"}, "is_reserved": 0}, {"lon": -77.0278475, "bike_id": "c48e186aa89bc1bed87ca6de74e07f3e", "lat": 38.887489, "fusion_lon": 0.0, "fusion_lat": 0.0, "type": "electric_scooter", "name": "c48e186aa89bc1bed87ca6de74e07f3e", "is_disabled": 0, "rental_uris": {"ios": "https://dc.lft.to/lastmile_qr_scan", "android": "https://dc.lft.to/lastmile_qr_scan"}, "is_reserved": 0}, {"lon": -77.021817, "bike_id": "7a1c6e526c0382ebd7eff27f3f050919", "lat": 38.90992816666667, "fusion_lon": 0.0, "fusion_lat": 0.0, "type": "electric_scooter", "name": "7a1c6e526c0382ebd7eff27f3f050919", "is_disabled": 0, "rental_uris": {"ios": "https://dc.lft.to/lastmile_qr_scan", "android": "https://dc.lft.to/lastmile_qr_scan"}, "is_reserved": 0}, {"lon": -77.03441316666667, "bike_id": "f4ce3e6163b2f3cf9ab844195c3205a6", "lat": 38.909790666666666, "fusion_lon": 0.0, "fusion_lat": 0.0, "type": "electric_scooter", "name": "f4ce3e6163b2f3cf9ab844195c3205a6", "is_disabled": 0, "rental_uris": {"ios": "https://dc.lft.to/lastmile_qr_scan", "android": "https://dc.lft.to/lastmile_qr_scan"}, "is_reserved": 0}, {"lon": -77.032102, "bike_id": "4779d2a7adcce68a09427d39a42ce541", "lat": 38.90786133333334, "fusion_lon": 0.0, "fusion_lat": 0.0, "type": "electric_scooter", "name": "4779d2a7adcce68a09427d39a42ce541", "is_disabled": 0, "rental_uris": {"ios": "https://dc.lft.to/lastmile_qr_scan", "android": "https://dc.lft.to/lastmile_qr_scan"}, "is_reserved": 0}, {"lon": -77.02164033333334, "bike_id": "2c2ffe568be5c0816727f2257a13d812", "lat": 38.89897833333333, "fusion_lon": 0.0, "fusion_lat": 0.0, "type": "electric_scooter", "name": "2c2ffe568be5c0816727f2257a13d812", "is_disabled": 0, "rental_uris": {"ios": "https://dc.lft.to/lastmile_qr_scan", "android": "https://dc.lft.to/lastmile_qr_scan"}, "is_reserved": 0}, {"lon": -77.0084175, "bike_id": "9ebe278844a0c352a9036425380a6c63", "lat": 38.916258666666664, "fusion_lon": 0.0, "fusion_lat": 0.0, "type": "electric_scooter", "name": "9ebe278844a0c352a9036425380a6c63", "is_disabled": 0, "rental_uris": {"ios": "https://dc.lft.to/lastmile_qr_scan", "android": "https://dc.lft.to/lastmile_qr_scan"}, "is_reserved": 0}, {"lon": -77.03829166666667, "bike_id": "202dc6f5826ec71ddc16306f57373ea1", "lat": 38.906709666666664, "fusion_lon": 0.0, "fusion_lat": 0.0, "type": "electric_scooter", "name": "202dc6f5826ec71ddc16306f57373ea1", "is_disabled": 0, "rental_uris": {"ios": "https://dc.lft.to/lastmile_qr_scan", "android": "https://dc.lft.to/lastmile_qr_scan"}, "is_reserved": 0}, {"lon": -77.04254916666666, "bike_id": "6420614ed845553bbc6998b801ef6ed2", "lat": 38.90015616666667, "fusion_lon": 0.0, "fusion_lat": 0.0, "type": "electric_scooter", "name": "6420614ed845553bbc6998b801ef6ed2", "is_disabled": 0, "rental_uris": {"ios": "https://dc.lft.to/lastmile_qr_scan", "android": "https://dc.lft.to/lastmile_qr_scan"}, "is_reserved": 0}, {"lon": -77.03664533333334, "bike_id": "a62a52b21b00abe38d31fad68eb2df29", "lat": 38.93605783333334, "fusion_lon": 0.0, "fusion_lat": 0.0, "type": "electric_scooter", "name": "a62a52b21b00abe38d31fad68eb2df29", "is_disabled": 0, "rental_uris": {"ios": "https://dc.lft.to/lastmile_qr_scan", "android": "https://dc.lft.to/lastmile_qr_scan"}, "is_reserved": 0}, {"lon": -77.03444516666667, "bike_id": "b4fee7c35b3989b17e5daa7f753419b0", "lat": 38.914943666666666, "fusion_lon": 0.0, "fusion_lat": 0.0, "type": "electric_scooter", "name": "b4fee7c35b3989b17e5daa7f753419b0", "is_disabled": 0, "rental_uris": {"ios": "https://dc.lft.to/lastmile_qr_scan", "android": "https://dc.lft.to/lastmile_qr_scan"}, "is_reserved": 0}, {"lon": -77.04324566666666, "bike_id": "290196d546a881be871232a9eb5a294c", "lat": 38.9072745, "fusion_lon": 0.0, "fusion_lat": 0.0, "type": "electric_scooter", "name": "290196d546a881be871232a9eb5a294c", "is_disabled": 0, "rental_uris": {"ios": "https://dc.lft.to/lastmile_qr_scan", "android": "https://dc.lft.to/lastmile_qr_scan"}, "is_reserved": 0}, {"lon": -76.988957, "bike_id": "1042f197c86e5b5f5f36e34594065ede", "lat": 38.913418166666666, "fusion_lon": 0.0, "fusion_lat": 0.0, "type": "electric_scooter", "name": "1042f197c86e5b5f5f36e34594065ede", "is_disabled": 0, "rental_uris": {"ios": "https://dc.lft.to/lastmile_qr_scan", "android": "https://dc.lft.to/lastmile_qr_scan"}, "is_reserved": 0}, {"lon": -77.040896, "bike_id": "9429bf52f7ddd2283e6bffd0629e01e2", "lat": 38.90896, "fusion_lon": 0.0, "fusion_lat": 0.0, "type": "electric_scooter", "name": "9429bf52f7ddd2283e6bffd0629e01e2", "is_disabled": 0, "rental_uris": {"ios": "https://dc.lft.to/lastmile_qr_scan", "android": "https://dc.lft.to/lastmile_qr_scan"}, "is_reserved": 0}, {"lon": -77.03662533333333, "bike_id": "b67470f3fb5ca6ab81d858e988948701", "lat": 38.93204933333333, "fusion_lon": 0.0, "fusion_lat": 0.0, "type": "electric_scooter", "name": "b67470f3fb5ca6ab81d858e988948701", "is_disabled": 0, "rental_uris": {"ios": "https://dc.lft.to/lastmile_qr_scan", "android": "https://dc.lft.to/lastmile_qr_scan"}, "is_reserved": 0}, {"lon": -77.02343633333334, "bike_id": "9be97d76d11617ba7880913d1e33572d", "lat": 38.92249433333333, "fusion_lon": 0.0, "fusion_lat": 0.0, "type": "electric_scooter", "name": "9be97d76d11617ba7880913d1e33572d", "is_disabled": 0, "rental_uris": {"ios": "https://dc.lft.to/lastmile_qr_scan", "android": "https://dc.lft.to/lastmile_qr_scan"}, "is_reserved": 0}, {"lon": -77.03254483333333, "bike_id": "24c4e16859f52796a3a480c186df43bf", "lat": 38.92895566666667, "fusion_lon": 0.0, "fusion_lat": 0.0, "type": "electric_scooter", "name": "24c4e16859f52796a3a480c186df43bf", "is_disabled": 0, "rental_uris": {"ios": "https://dc.lft.to/lastmile_qr_scan", "android": "https://dc.lft.to/lastmile_qr_scan"}, "is_reserved": 0}, {"lon": -77.01505383333334, "bike_id": "ee4b56d022bee6164913d81d879201ee", "lat": 38.900112166666666, "fusion_lon": 0.0, "fusion_lat": 0.0, "type": "electric_scooter", "name": "ee4b56d022bee6164913d81d879201ee", "is_disabled": 0, "rental_uris": {"ios": "https://dc.lft.to/lastmile_qr_scan", "android": "https://dc.lft.to/lastmile_qr_scan"}, "is_reserved": 0}, {"lon": -76.95533116666667, "bike_id": "54229d2b8727ef715cbeee2f7646bc26", "lat": 38.88874633333333, "fusion_lon": 0.0, "fusion_lat": 0.0, "type": "electric_scooter", "name": "54229d2b8727ef715cbeee2f7646bc26", "is_disabled": 0, "rental_uris": {"ios": "https://dc.lft.to/lastmile_qr_scan", "android": "https://dc.lft.to/lastmile_qr_scan"}, "is_reserved": 0}, {"lon": -77.04557766666667, "bike_id": "f5974f7918fa303f296933380530e6cf", "lat": 38.896106333333336, "fusion_lon": 0.0, "fusion_lat": 0.0, "type": "electric_scooter", "name": "f5974f7918fa303f296933380530e6cf", "is_disabled": 0, "rental_uris": {"ios": "https://dc.lft.to/lastmile_qr_scan", "android": "https://dc.lft.to/lastmile_qr_scan"}, "is_reserved": 0}, {"lon": -77.03324233333333, "bike_id": "01a6e53ef797ac2f55c5625c2eb22edc", "lat": 38.901152, "fusion_lon": 0.0, "fusion_lat": 0.0, "type": "electric_scooter", "name": "01a6e53ef797ac2f55c5625c2eb22edc", "is_disabled": 0, "rental_uris": {"ios": "https://dc.lft.to/lastmile_qr_scan", "android": "https://dc.lft.to/lastmile_qr_scan"}, "is_reserved": 0}, {"lon": -77.06060233333334, "bike_id": "79e6472a1cca4e95e4a1c8393718effc", "lat": 38.8085595, "fusion_lon": 0.0, "fusion_lat": 0.0, "type": "electric_bike", "name": "79e6472a1cca4e95e4a1c8393718effc", "is_disabled": 0, "rental_uris": {"ios": "https://dc.lft.to/lastmile_qr_scan", "android": "https://dc.lft.to/lastmile_qr_scan"}, "is_reserved": 0}, {"lon": -77.0278495, "bike_id": "a3cbfe0a9dec710957d431edd952f05f", "lat": 38.927736333333335, "fusion_lon": 0.0, "fusion_lat": 0.0, "type": "electric_scooter", "name": "a3cbfe0a9dec710957d431edd952f05f", "is_disabled": 0, "rental_uris": {"ios": "https://dc.lft.to/lastmile_qr_scan", "android": "https://dc.lft.to/lastmile_qr_scan"}, "is_reserved": 0}, {"lon": -77.00543616666667, "bike_id": "21fb6aa18df79f8c9a47817bb3042991", "lat": 38.87460816666667, "fusion_lon": 0.0, "fusion_lat": 0.0, "type": "electric_scooter", "name": "21fb6aa18df79f8c9a47817bb3042991", "is_disabled": 0, "rental_uris": {"ios": "https://dc.lft.to/lastmile_qr_scan", "android": "https://dc.lft.to/lastmile_qr_scan"}, "is_reserved": 0}, {"lon": -77.03761966666667, "bike_id": "c0e9b66d1ea7f0fd7a3142e021d763b3", "lat": 38.929425, "fusion_lon": 0.0, "fusion_lat": 0.0, "type": "electric_scooter", "name": "c0e9b66d1ea7f0fd7a3142e021d763b3", "is_disabled": 0, "rental_uris": {"ios": "https://dc.lft.to/lastmile_qr_scan", "android": "https://dc.lft.to/lastmile_qr_scan"}, "is_reserved": 0}, {"lon": -77.03801333333334, "bike_id": "18d551a9126a95cbb5eb3572e22d5ac7", "lat": 38.91036616666667, "fusion_lon": 0.0, "fusion_lat": 0.0, "type": "electric_scooter", "name": "18d551a9126a95cbb5eb3572e22d5ac7", "is_disabled": 0, "rental_uris": {"ios": "https://dc.lft.to/lastmile_qr_scan", "android": "https://dc.lft.to/lastmile_qr_scan"}, "is_reserved": 0}, {"lon": -77.002022, "bike_id": "5ac1ced6f275df5c1e6c72d1b76aa3bf", "lat": 38.9024245, "fusion_lon": 0.0, "fusion_lat": 0.0, "type": "electric_scooter", "name": "5ac1ced6f275df5c1e6c72d1b76aa3bf", "is_disabled": 0, "rental_uris": {"ios": "https://dc.lft.to/lastmile_qr_scan", "android": "https://dc.lft.to/lastmile_qr_scan"}, "is_reserved": 0}, {"lon": -77.02451183333334, "bike_id": "fd188691ee83e8d4a59a98918509f4d2", "lat": 38.9141145, "fusion_lon": 0.0, "fusion_lat": 0.0, "type": "electric_scooter", "name": "fd188691ee83e8d4a59a98918509f4d2", "is_disabled": 0, "rental_uris": {"ios": "https://dc.lft.to/lastmile_qr_scan", "android": "https://dc.lft.to/lastmile_qr_scan"}, "is_reserved": 0}, {"lon": -77.05042116666667, "bike_id": "deedcffb4551d6c202e8c39e6b8283aa", "lat": 38.90046433333333, "fusion_lon": 0.0, "fusion_lat": 0.0, "type": "electric_scooter", "name": "deedcffb4551d6c202e8c39e6b8283aa", "is_disabled": 0, "rental_uris": {"ios": "https://dc.lft.to/lastmile_qr_scan", "android": "https://dc.lft.to/lastmile_qr_scan"}, "is_reserved": 0}, {"lon": -77.0003325, "bike_id": "11d54cb1ebbbdf08a91ca8ee04982ec4", "lat": 38.967998333333334, "fusion_lon": 0.0, "fusion_lat": 0.0, "type": "electric_bike", "name": "11d54cb1ebbbdf08a91ca8ee04982ec4", "is_disabled": 0, "rental_uris": {"ios": "https://dc.lft.to/lastmile_qr_scan", "android": "https://dc.lft.to/lastmile_qr_scan"}, "is_reserved": 0}, {"lon": -77.03202083333333, "bike_id": "ef13aa1e123de2138aa8ff48669ba620", "lat": 38.94409916666667, "fusion_lon": 0.0, "fusion_lat": 0.0, "type": "electric_scooter", "name": "ef13aa1e123de2138aa8ff48669ba620", "is_disabled": 0, "rental_uris": {"ios": "https://dc.lft.to/lastmile_qr_scan", "android": "https://dc.lft.to/lastmile_qr_scan"}, "is_reserved": 0}, {"lon": -77.02342383333334, "bike_id": "69c359bad9964286d5e06d9545e24d88", "lat": 38.940826333333334, "fusion_lon": 0.0, "fusion_lat": 0.0, "type": "electric_scooter", "name": "69c359bad9964286d5e06d9545e24d88", "is_disabled": 0, "rental_uris": {"ios": "https://dc.lft.to/lastmile_qr_scan", "android": "https://dc.lft.to/lastmile_qr_scan"}, "is_reserved": 0}, {"lon": -77.041949, "bike_id": "adb87f507644b88a1181a5ec95378bd1", "lat": 38.920491166666665, "fusion_lon": 0.0, "fusion_lat": 0.0, "type": "electric_scooter", "name": "adb87f507644b88a1181a5ec95378bd1", "is_disabled": 0, "rental_uris": {"ios": "https://dc.lft.to/lastmile_qr_scan", "android": "https://dc.lft.to/lastmile_qr_scan"}, "is_reserved": 0}, {"lon": -77.02325016666667, "bike_id": "7b6a4bd724775d622a31e037a4457abf", "lat": 38.922271333333335, "fusion_lon": 0.0, "fusion_lat": 0.0, "type": "electric_scooter", "name": "7b6a4bd724775d622a31e037a4457abf", "is_disabled": 0, "rental_uris": {"ios": "https://dc.lft.to/lastmile_qr_scan", "android": "https://dc.lft.to/lastmile_qr_scan"}, "is_reserved": 0}, {"lon": -77.0425425, "bike_id": "cd8e518567667b994751183acfa06911", "lat": 38.92288766666667, "fusion_lon": 0.0, "fusion_lat": 0.0, "type": "electric_scooter", "name": "cd8e518567667b994751183acfa06911", "is_disabled": 0, "rental_uris": {"ios": "https://dc.lft.to/lastmile_qr_scan", "android": "https://dc.lft.to/lastmile_qr_scan"}, "is_reserved": 0}, {"lon": -77.0331455, "bike_id": "6f582cd0a56ac5d962e252b5c70aa815", "lat": 38.903768166666666, "fusion_lon": 0.0, "fusion_lat": 0.0, "type": "electric_scooter", "name": "6f582cd0a56ac5d962e252b5c70aa815", "is_disabled": 0, "rental_uris": {"ios": "https://dc.lft.to/lastmile_qr_scan", "android": "https://dc.lft.to/lastmile_qr_scan"}, "is_reserved": 0}, {"lon": -76.98091683333334, "bike_id": "e8f9746c9910231de8f7c0d3de2b8c98", "lat": 38.953621, "fusion_lon": 0.0, "fusion_lat": 0.0, "type": "electric_bike", "name": "e8f9746c9910231de8f7c0d3de2b8c98", "is_disabled": 0, "rental_uris": {"ios": "https://dc.lft.to/lastmile_qr_scan", "android": "https://dc.lft.to/lastmile_qr_scan"}, "is_reserved": 0}, {"lon": -77.03121716666666, "bike_id": "9437420b377884ca8efdb23483750cf6", "lat": 38.91699466666667, "fusion_lon": 0.0, "fusion_lat": 0.0, "type": "electric_scooter", "name": "9437420b377884ca8efdb23483750cf6", "is_disabled": 0, "rental_uris": {"ios": "https://dc.lft.to/lastmile_qr_scan", "android": "https://dc.lft.to/lastmile_qr_scan"}, "is_reserved": 0}, {"lon": -76.99002083333333, "bike_id": "9b36a9a1e20c3e4a86db749e5727cbba", "lat": 38.865024166666664, "fusion_lon": 0.0, "fusion_lat": 0.0, "type": "electric_scooter", "name": "9b36a9a1e20c3e4a86db749e5727cbba", "is_disabled": 0, "rental_uris": {"ios": "https://dc.lft.to/lastmile_qr_scan", "android": "https://dc.lft.to/lastmile_qr_scan"}, "is_reserved": 0}, {"lon": -77.05575083333333, "bike_id": "637651d15128113b0e9ddfa4006eae44", "lat": 38.9159395, "fusion_lon": 0.0, "fusion_lat": 0.0, "type": "electric_scooter", "name": "637651d15128113b0e9ddfa4006eae44", "is_disabled": 0, "rental_uris": {"ios": "https://dc.lft.to/lastmile_qr_scan", "android": "https://dc.lft.to/lastmile_qr_scan"}, "is_reserved": 0}, {"lon": -77.0333675, "bike_id": "924cf8419d561df94325d3efe13723c1", "lat": 38.9364465, "fusion_lon": 0.0, "fusion_lat": 0.0, "type": "electric_scooter", "name": "924cf8419d561df94325d3efe13723c1", "is_disabled": 0, "rental_uris": {"ios": "https://dc.lft.to/lastmile_qr_scan", "android": "https://dc.lft.to/lastmile_qr_scan"}, "is_reserved": 0}, {"lon": -77.020888, "bike_id": "70aa0557c118f5248295958cd9b6d1d9", "lat": 38.957494833333335, "fusion_lon": 0.0, "fusion_lat": 0.0, "type": "electric_scooter", "name": "70aa0557c118f5248295958cd9b6d1d9", "is_disabled": 0, "rental_uris": {"ios": "https://dc.lft.to/lastmile_qr_scan", "android": "https://dc.lft.to/lastmile_qr_scan"}, "is_reserved": 0}, {"lon": -76.987262, "bike_id": "e0a5eb555a641922e4143efa4210aa3b", "lat": 38.867109666666664, "fusion_lon": 0.0, "fusion_lat": 0.0, "type": "electric_scooter", "name": "e0a5eb555a641922e4143efa4210aa3b", "is_disabled": 0, "rental_uris": {"ios": "https://dc.lft.to/lastmile_qr_scan", "android": "https://dc.lft.to/lastmile_qr_scan"}, "is_reserved": 0}, {"lon": -77.02572533333333, "bike_id": "e15e12a0c8325a2331bda46e10c2967f", "lat": 38.89759083333333, "fusion_lon": 0.0, "fusion_lat": 0.0, "type": "electric_scooter", "name": "e15e12a0c8325a2331bda46e10c2967f", "is_disabled": 0, "rental_uris": {"ios": "https://dc.lft.to/lastmile_qr_scan", "android": "https://dc.lft.to/lastmile_qr_scan"}, "is_reserved": 0}, {"lon": -76.98700683333334, "bike_id": "e06c3570df900a981200d0ee805b54fa", "lat": 38.865334833333335, "fusion_lon": 0.0, "fusion_lat": 0.0, "type": "electric_scooter", "name": "e06c3570df900a981200d0ee805b54fa", "is_disabled": 0, "rental_uris": {"ios": "https://dc.lft.to/lastmile_qr_scan", "android": "https://dc.lft.to/lastmile_qr_scan"}, "is_reserved": 0}, {"lon": -76.99331983333333, "bike_id": "74652152700699173334cedc4a319719", "lat": 38.871440166666666, "fusion_lon": 0.0, "fusion_lat": 0.0, "type": "electric_scooter", "name": "74652152700699173334cedc4a319719", "is_disabled": 0, "rental_uris": {"ios": "https://dc.lft.to/lastmile_qr_scan", "android": "https://dc.lft.to/lastmile_qr_scan"}, "is_reserved": 0}, {"lon": -77.02481766666666, "bike_id": "47427e1c895e8d7eeb5139087f4fcc29", "lat": 38.880094166666666, "fusion_lon": 0.0, "fusion_lat": 0.0, "type": "electric_scooter", "name": "47427e1c895e8d7eeb5139087f4fcc29", "is_disabled": 0, "rental_uris": {"ios": "https://dc.lft.to/lastmile_qr_scan", "android": "https://dc.lft.to/lastmile_qr_scan"}, "is_reserved": 0}, {"lon": -77.03870233333333, "bike_id": "5666a8e093b2d6d239cd06f597ebb183", "lat": 38.92148066666667, "fusion_lon": 0.0, "fusion_lat": 0.0, "type": "electric_scooter", "name": "5666a8e093b2d6d239cd06f597ebb183", "is_disabled": 0, "rental_uris": {"ios": "https://dc.lft.to/lastmile_qr_scan", "android": "https://dc.lft.to/lastmile_qr_scan"}, "is_reserved": 0}, {"lon": -77.02966183333334, "bike_id": "72663cbb40652d46aee3783715f98819", "lat": 38.9166525, "fusion_lon": 0.0, "fusion_lat": 0.0, "type": "electric_scooter", "name": "72663cbb40652d46aee3783715f98819", "is_disabled": 0, "rental_uris": {"ios": "https://dc.lft.to/lastmile_qr_scan", "android": "https://dc.lft.to/lastmile_qr_scan"}, "is_reserved": 0}, {"lon": -77.041808, "bike_id": "98ebe4514b4fe46355fcfd7eb3984b7b", "lat": 38.9198515, "fusion_lon": 0.0, "fusion_lat": 0.0, "type": "electric_scooter", "name": "98ebe4514b4fe46355fcfd7eb3984b7b", "is_disabled": 0, "rental_uris": {"ios": "https://dc.lft.to/lastmile_qr_scan", "android": "https://dc.lft.to/lastmile_qr_scan"}, "is_reserved": 0}, {"lon": -77.03674666666667, "bike_id": "291d6a5f5567a0be0fd246fe1e8c72fe", "lat": 38.939379, "fusion_lon": 0.0, "fusion_lat": 0.0, "type": "electric_scooter", "name": "291d6a5f5567a0be0fd246fe1e8c72fe", "is_disabled": 0, "rental_uris": {"ios": "https://dc.lft.to/lastmile_qr_scan", "android": "https://dc.lft.to/lastmile_qr_scan"}, "is_reserved": 0}, {"lon": -77.03329916666667, "bike_id": "4266fc206189f07676bbbd0b605f4d4d", "lat": 38.898395, "fusion_lon": 0.0, "fusion_lat": 0.0, "type": "electric_scooter", "name": "4266fc206189f07676bbbd0b605f4d4d", "is_disabled": 0, "rental_uris": {"ios": "https://dc.lft.to/lastmile_qr_scan", "android": "https://dc.lft.to/lastmile_qr_scan"}, "is_reserved": 0}, {"lon": -76.94036216666666, "bike_id": "5e941dc631731c5fc68a91a81242e1a9", "lat": 38.908164166666666, "fusion_lon": 0.0, "fusion_lat": 0.0, "type": "electric_bike", "name": "5e941dc631731c5fc68a91a81242e1a9", "is_disabled": 0, "rental_uris": {"ios": "https://dc.lft.to/lastmile_qr_scan", "android": "https://dc.lft.to/lastmile_qr_scan"}, "is_reserved": 0}, {"lon": -77.0641445, "bike_id": "262cda9c6a1e19c39d4d8a1c88bcf35f", "lat": 38.99332283333333, "fusion_lon": 0.0, "fusion_lat": 0.0, "type": "electric_scooter", "name": "262cda9c6a1e19c39d4d8a1c88bcf35f", "is_disabled": 0, "rental_uris": {"ios": "https://dc.lft.to/lastmile_qr_scan", "android": "https://dc.lft.to/lastmile_qr_scan"}, "is_reserved": 0}, {"lon": -77.03633083333334, "bike_id": "2e1b102fc996c4c54298eb1f294ed663", "lat": 38.944943, "fusion_lon": 0.0, "fusion_lat": 0.0, "type": "electric_scooter", "name": "2e1b102fc996c4c54298eb1f294ed663", "is_disabled": 0, "rental_uris": {"ios": "https://dc.lft.to/lastmile_qr_scan", "android": "https://dc.lft.to/lastmile_qr_scan"}, "is_reserved": 0}, {"lon": -76.96527366666666, "bike_id": "1f8134c3a2244eeb33fcafa5fb0b47fc", "lat": 38.876295166666665, "fusion_lon": 0.0, "fusion_lat": 0.0, "type": "electric_scooter", "name": "1f8134c3a2244eeb33fcafa5fb0b47fc", "is_disabled": 0, "rental_uris": {"ios": "https://dc.lft.to/lastmile_qr_scan", "android": "https://dc.lft.to/lastmile_qr_scan"}, "is_reserved": 0}, {"lon": -77.02105066666667, "bike_id": "953139557a447e93fa4bbdf8385ab655", "lat": 38.90559416666667, "fusion_lon": 0.0, "fusion_lat": 0.0, "type": "electric_scooter", "name": "953139557a447e93fa4bbdf8385ab655", "is_disabled": 0, "rental_uris": {"ios": "https://dc.lft.to/lastmile_qr_scan", "android": "https://dc.lft.to/lastmile_qr_scan"}, "is_reserved": 0}, {"lon": -77.0143495, "bike_id": "04acd2b7799743786cb16f7381a5d551", "lat": 38.876712166666664, "fusion_lon": 0.0, "fusion_lat": 0.0, "type": "electric_bike", "name": "04acd2b7799743786cb16f7381a5d551", "is_disabled": 0, "rental_uris": {"ios": "https://dc.lft.to/lastmile_qr_scan", "android": "https://dc.lft.to/lastmile_qr_scan"}, "is_reserved": 0}, {"lon": -77.04269066666667, "bike_id": "9d703c9af96c9d839e5470c411974172", "lat": 38.92298183333333, "fusion_lon": 0.0, "fusion_lat": 0.0, "type": "electric_scooter", "name": "9d703c9af96c9d839e5470c411974172", "is_disabled": 0, "rental_uris": {"ios": "https://dc.lft.to/lastmile_qr_scan", "android": "https://dc.lft.to/lastmile_qr_scan"}, "is_reserved": 0}, {"lon": -77.05466, "bike_id": "9ea0d298afe01eca924be4105d25a1be", "lat": 38.925708666666665, "fusion_lon": 0.0, "fusion_lat": 0.0, "type": "electric_scooter", "name": "9ea0d298afe01eca924be4105d25a1be", "is_disabled": 0, "rental_uris": {"ios": "https://dc.lft.to/lastmile_qr_scan", "android": "https://dc.lft.to/lastmile_qr_scan"}, "is_reserved": 0}, {"lon": -77.02321266666667, "bike_id": "7c68c73556b90a66bb2115a8ed73dc5d", "lat": 38.92408916666667, "fusion_lon": 0.0, "fusion_lat": 0.0, "type": "electric_scooter", "name": "7c68c73556b90a66bb2115a8ed73dc5d", "is_disabled": 0, "rental_uris": {"ios": "https://dc.lft.to/lastmile_qr_scan", "android": "https://dc.lft.to/lastmile_qr_scan"}, "is_reserved": 0}, {"lon": -77.00651566666667, "bike_id": "8a0594a8e0351c139a8e566e04d512ac", "lat": 38.9000155, "fusion_lon": 0.0, "fusion_lat": 0.0, "type": "electric_scooter", "name": "8a0594a8e0351c139a8e566e04d512ac", "is_disabled": 0, "rental_uris": {"ios": "https://dc.lft.to/lastmile_qr_scan", "android": "https://dc.lft.to/lastmile_qr_scan"}, "is_reserved": 0}, {"lon": -76.9917475, "bike_id": "1b5276d0e3bc7240bb2afac7cf42362b", "lat": 38.88992783333333, "fusion_lon": 0.0, "fusion_lat": 0.0, "type": "electric_scooter", "name": "1b5276d0e3bc7240bb2afac7cf42362b", "is_disabled": 0, "rental_uris": {"ios": "https://dc.lft.to/lastmile_qr_scan", "android": "https://dc.lft.to/lastmile_qr_scan"}, "is_reserved": 0}, {"lon": -77.01840183333333, "bike_id": "67c46aa4bbd25ddd7884ec356da843a6", "lat": 38.90956883333333, "fusion_lon": 0.0, "fusion_lat": 0.0, "type": "electric_scooter", "name": "67c46aa4bbd25ddd7884ec356da843a6", "is_disabled": 0, "rental_uris": {"ios": "https://dc.lft.to/lastmile_qr_scan", "android": "https://dc.lft.to/lastmile_qr_scan"}, "is_reserved": 0}, {"lon": -77.01700133333334, "bike_id": "9b1dd4649f460d55c8062904bf3884f3", "lat": 38.90446333333333, "fusion_lon": 0.0, "fusion_lat": 0.0, "type": "electric_scooter", "name": "9b1dd4649f460d55c8062904bf3884f3", "is_disabled": 0, "rental_uris": {"ios": "https://dc.lft.to/lastmile_qr_scan", "android": "https://dc.lft.to/lastmile_qr_scan"}, "is_reserved": 0}, {"lon": -76.99070216666667, "bike_id": "aac1c871792a790853b070d78fa9391c", "lat": 38.898214833333334, "fusion_lon": 0.0, "fusion_lat": 0.0, "type": "electric_bike", "name": "aac1c871792a790853b070d78fa9391c", "is_disabled": 0, "rental_uris": {"ios": "https://dc.lft.to/lastmile_qr_scan", "android": "https://dc.lft.to/lastmile_qr_scan"}, "is_reserved": 0}, {"lon": -76.97243916666666, "bike_id": "6ad518a10e41343f42ee8e34e1b3f0a2", "lat": 38.90344183333333, "fusion_lon": 0.0, "fusion_lat": 0.0, "type": "electric_scooter", "name": "6ad518a10e41343f42ee8e34e1b3f0a2", "is_disabled": 0, "rental_uris": {"ios": "https://dc.lft.to/lastmile_qr_scan", "android": "https://dc.lft.to/lastmile_qr_scan"}, "is_reserved": 0}, {"lon": -77.043382, "bike_id": "dbdedf44045b27a6c5944abb082a1db6", "lat": 38.90800333333333, "fusion_lon": 0.0, "fusion_lat": 0.0, "type": "electric_scooter", "name": "dbdedf44045b27a6c5944abb082a1db6", "is_disabled": 0, "rental_uris": {"ios": "https://dc.lft.to/lastmile_qr_scan", "android": "https://dc.lft.to/lastmile_qr_scan"}, "is_reserved": 0}, {"lon": -77.01834216666667, "bike_id": "a52f32b54afda209be1d3f4fab050e32", "lat": 38.909327, "fusion_lon": 0.0, "fusion_lat": 0.0, "type": "electric_scooter", "name": "a52f32b54afda209be1d3f4fab050e32", "is_disabled": 0, "rental_uris": {"ios": "https://dc.lft.to/lastmile_qr_scan", "android": "https://dc.lft.to/lastmile_qr_scan"}, "is_reserved": 0}, {"lon": -76.98526483333333, "bike_id": "c2aeb884b7e6bbcd4c822a1ca146a78b", "lat": 38.866855666666666, "fusion_lon": 0.0, "fusion_lat": 0.0, "type": "electric_scooter", "name": "c2aeb884b7e6bbcd4c822a1ca146a78b", "is_disabled": 0, "rental_uris": {"ios": "https://dc.lft.to/lastmile_qr_scan", "android": "https://dc.lft.to/lastmile_qr_scan"}, "is_reserved": 0}, {"lon": -77.048688, "bike_id": "6bece7ba3d23b263bba222d21ea6e3db", "lat": 38.892213166666664, "fusion_lon": 0.0, "fusion_lat": 0.0, "type": "electric_scooter", "name": "6bece7ba3d23b263bba222d21ea6e3db", "is_disabled": 0, "rental_uris": {"ios": "https://dc.lft.to/lastmile_qr_scan", "android": "https://dc.lft.to/lastmile_qr_scan"}, "is_reserved": 0}, {"lon": -77.06978383333333, "bike_id": "89f8f76b589b5b912ef393b4f7a245af", "lat": 38.95520116666667, "fusion_lon": 0.0, "fusion_lat": 0.0, "type": "electric_scooter", "name": "89f8f76b589b5b912ef393b4f7a245af", "is_disabled": 0, "rental_uris": {"ios": "https://dc.lft.to/lastmile_qr_scan", "android": "https://dc.lft.to/lastmile_qr_scan"}, "is_reserved": 0}, {"lon": -77.03280133333334, "bike_id": "68c1655ffb73f859c70133e1601c2206", "lat": 38.92873266666667, "fusion_lon": 0.0, "fusion_lat": 0.0, "type": "electric_scooter", "name": "68c1655ffb73f859c70133e1601c2206", "is_disabled": 0, "rental_uris": {"ios": "https://dc.lft.to/lastmile_qr_scan", "android": "https://dc.lft.to/lastmile_qr_scan"}, "is_reserved": 0}, {"lon": -77.041026, "bike_id": "e2c45096c6d2ad0ceadd8bffbdff6dad", "lat": 38.91727083333333, "fusion_lon": 0.0, "fusion_lat": 0.0, "type": "electric_scooter", "name": "e2c45096c6d2ad0ceadd8bffbdff6dad", "is_disabled": 0, "rental_uris": {"ios": "https://dc.lft.to/lastmile_qr_scan", "android": "https://dc.lft.to/lastmile_qr_scan"}, "is_reserved": 0}, {"lon": -77.00560233333333, "bike_id": "6a362439f0258e8ae3b1d16971a6bb04", "lat": 38.87470366666667, "fusion_lon": 0.0, "fusion_lat": 0.0, "type": "electric_scooter", "name": "6a362439f0258e8ae3b1d16971a6bb04", "is_disabled": 0, "rental_uris": {"ios": "https://dc.lft.to/lastmile_qr_scan", "android": "https://dc.lft.to/lastmile_qr_scan"}, "is_reserved": 0}, {"lon": -77.02764266666667, "bike_id": "b64e8d0a5762bfaf0dfb9cdc4ef61e13", "lat": 38.95427166666666, "fusion_lon": 0.0, "fusion_lat": 0.0, "type": "electric_scooter", "name": "b64e8d0a5762bfaf0dfb9cdc4ef61e13", "is_disabled": 0, "rental_uris": {"ios": "https://dc.lft.to/lastmile_qr_scan", "android": "https://dc.lft.to/lastmile_qr_scan"}, "is_reserved": 0}, {"lon": -77.00080883333334, "bike_id": "a306279568844a85a41c84d025981118", "lat": 38.874019, "fusion_lon": 0.0, "fusion_lat": 0.0, "type": "electric_scooter", "name": "a306279568844a85a41c84d025981118", "is_disabled": 0, "rental_uris": {"ios": "https://dc.lft.to/lastmile_qr_scan", "android": "https://dc.lft.to/lastmile_qr_scan"}, "is_reserved": 0}, {"lon": -76.90741366666667, "bike_id": "a472cd08b12f0ef6606d991990601999", "lat": 38.896176833333335, "fusion_lon": 0.0, "fusion_lat": 0.0, "type": "electric_bike", "name": "a472cd08b12f0ef6606d991990601999", "is_disabled": 0, "rental_uris": {"ios": "https://dc.lft.to/lastmile_qr_scan", "android": "https://dc.lft.to/lastmile_qr_scan"}, "is_reserved": 0}, {"lon": -77.048155, "bike_id": "7faf7c8946c9d4b856ef7b26ee94a472", "lat": 38.9110755, "fusion_lon": 0.0, "fusion_lat": 0.0, "type": "electric_scooter", "name": "7faf7c8946c9d4b856ef7b26ee94a472", "is_disabled": 0, "rental_uris": {"ios": "https://dc.lft.to/lastmile_qr_scan", "android": "https://dc.lft.to/lastmile_qr_scan"}, "is_reserved": 0}, {"lon": -77.0447125, "bike_id": "b16147089f97fa4caad8e9be069239b1", "lat": 38.923906, "fusion_lon": 0.0, "fusion_lat": 0.0, "type": "electric_scooter", "name": "b16147089f97fa4caad8e9be069239b1", "is_disabled": 0, "rental_uris": {"ios": "https://dc.lft.to/lastmile_qr_scan", "android": "https://dc.lft.to/lastmile_qr_scan"}, "is_reserved": 0}, {"lon": -77.03231133333334, "bike_id": "d7370a822b160f2efa377b2816679e3c", "lat": 38.9286115, "fusion_lon": 0.0, "fusion_lat": 0.0, "type": "electric_scooter", "name": "d7370a822b160f2efa377b2816679e3c", "is_disabled": 0, "rental_uris": {"ios": "https://dc.lft.to/lastmile_qr_scan", "android": "https://dc.lft.to/lastmile_qr_scan"}, "is_reserved": 0}, {"lon": -77.0399005, "bike_id": "c1d61def36844d129c5e0d0a0242c806", "lat": 38.933380166666666, "fusion_lon": 0.0, "fusion_lat": 0.0, "type": "electric_scooter", "name": "c1d61def36844d129c5e0d0a0242c806", "is_disabled": 0, "rental_uris": {"ios": "https://dc.lft.to/lastmile_qr_scan", "android": "https://dc.lft.to/lastmile_qr_scan"}, "is_reserved": 0}, {"lon": -77.043589, "bike_id": "d4c313fa5c2d7d7a2a2fa8f32160128a", "lat": 39.01538216666667, "fusion_lon": 0.0, "fusion_lat": 0.0, "type": "electric_bike", "name": "d4c313fa5c2d7d7a2a2fa8f32160128a", "is_disabled": 0, "rental_uris": {"ios": "https://dc.lft.to/lastmile_qr_scan", "android": "https://dc.lft.to/lastmile_qr_scan"}, "is_reserved": 0}, {"lon": -77.03810583333333, "bike_id": "7c1f5c4ae70ac6f66cb5d88408563843", "lat": 38.93108133333333, "fusion_lon": 0.0, "fusion_lat": 0.0, "type": "electric_scooter", "name": "7c1f5c4ae70ac6f66cb5d88408563843", "is_disabled": 0, "rental_uris": {"ios": "https://dc.lft.to/lastmile_qr_scan", "android": "https://dc.lft.to/lastmile_qr_scan"}, "is_reserved": 0}, {"lon": -77.02712983333333, "bike_id": "8fc04485be67dab083b24f19527eb33f", "lat": 38.897163166666665, "fusion_lon": 0.0, "fusion_lat": 0.0, "type": "electric_scooter", "name": "8fc04485be67dab083b24f19527eb33f", "is_disabled": 0, "rental_uris": {"ios": "https://dc.lft.to/lastmile_qr_scan", "android": "https://dc.lft.to/lastmile_qr_scan"}, "is_reserved": 0}, {"lon": -76.9784385, "bike_id": "a161a523088f620e78d6cf2d567e3ce8", "lat": 38.86567483333333, "fusion_lon": 0.0, "fusion_lat": 0.0, "type": "electric_scooter", "name": "a161a523088f620e78d6cf2d567e3ce8", "is_disabled": 0, "rental_uris": {"ios": "https://dc.lft.to/lastmile_qr_scan", "android": "https://dc.lft.to/lastmile_qr_scan"}, "is_reserved": 0}, {"lon": -77.02976333333334, "bike_id": "2dd2eb1470649a7cd3c98088d9128353", "lat": 38.92287666666667, "fusion_lon": 0.0, "fusion_lat": 0.0, "type": "electric_scooter", "name": "2dd2eb1470649a7cd3c98088d9128353", "is_disabled": 0, "rental_uris": {"ios": "https://dc.lft.to/lastmile_qr_scan", "android": "https://dc.lft.to/lastmile_qr_scan"}, "is_reserved": 0}, {"lon": -77.023935, "bike_id": "f2043076de15e8cba1697a69140f50ea", "lat": 38.915167833333335, "fusion_lon": 0.0, "fusion_lat": 0.0, "type": "electric_scooter", "name": "f2043076de15e8cba1697a69140f50ea", "is_disabled": 0, "rental_uris": {"ios": "https://dc.lft.to/lastmile_qr_scan", "android": "https://dc.lft.to/lastmile_qr_scan"}, "is_reserved": 0}, {"lon": -77.0345885, "bike_id": "6845f17587ba93ae3274d69f3a9567dc", "lat": 38.91801866666667, "fusion_lon": 0.0, "fusion_lat": 0.0, "type": "electric_scooter", "name": "6845f17587ba93ae3274d69f3a9567dc", "is_disabled": 0, "rental_uris": {"ios": "https://dc.lft.to/lastmile_qr_scan", "android": "https://dc.lft.to/lastmile_qr_scan"}, "is_reserved": 0}, {"lon": -77.03901783333333, "bike_id": "c3aca3d7ca79ea87d81b003486b57d8f", "lat": 38.92342583333333, "fusion_lon": 0.0, "fusion_lat": 0.0, "type": "electric_scooter", "name": "c3aca3d7ca79ea87d81b003486b57d8f", "is_disabled": 0, "rental_uris": {"ios": "https://dc.lft.to/lastmile_qr_scan", "android": "https://dc.lft.to/lastmile_qr_scan"}, "is_reserved": 0}, {"lon": -77.03864383333334, "bike_id": "52da8d06d21ffaa2b2986aa15d3f4950", "lat": 38.909738833333336, "fusion_lon": 0.0, "fusion_lat": 0.0, "type": "electric_scooter", "name": "52da8d06d21ffaa2b2986aa15d3f4950", "is_disabled": 0, "rental_uris": {"ios": "https://dc.lft.to/lastmile_qr_scan", "android": "https://dc.lft.to/lastmile_qr_scan"}, "is_reserved": 0}, {"lon": -77.04876616666667, "bike_id": "a7a032f9ad533b023d5366a02939d0e5", "lat": 38.892292166666664, "fusion_lon": 0.0, "fusion_lat": 0.0, "type": "electric_scooter", "name": "a7a032f9ad533b023d5366a02939d0e5", "is_disabled": 0, "rental_uris": {"ios": "https://dc.lft.to/lastmile_qr_scan", "android": "https://dc.lft.to/lastmile_qr_scan"}, "is_reserved": 0}, {"lon": -77.0321715, "bike_id": "413f8f9e939de209cf75f0a8a1320a45", "lat": 38.91408466666667, "fusion_lon": 0.0, "fusion_lat": 0.0, "type": "electric_scooter", "name": "413f8f9e939de209cf75f0a8a1320a45", "is_disabled": 0, "rental_uris": {"ios": "https://dc.lft.to/lastmile_qr_scan", "android": "https://dc.lft.to/lastmile_qr_scan"}, "is_reserved": 0}, {"lon": -77.04432216666666, "bike_id": "5a552fc14c5dad1760c26014ceb14cc6", "lat": 38.905870166666666, "fusion_lon": 0.0, "fusion_lat": 0.0, "type": "electric_bike", "name": "5a552fc14c5dad1760c26014ceb14cc6", "is_disabled": 0, "rental_uris": {"ios": "https://dc.lft.to/lastmile_qr_scan", "android": "https://dc.lft.to/lastmile_qr_scan"}, "is_reserved": 0}, {"lon": -77.019427, "bike_id": "8b8bad96605b7c872945576b3d0af973", "lat": 38.936841333333334, "fusion_lon": 0.0, "fusion_lat": 0.0, "type": "electric_scooter", "name": "8b8bad96605b7c872945576b3d0af973", "is_disabled": 0, "rental_uris": {"ios": "https://dc.lft.to/lastmile_qr_scan", "android": "https://dc.lft.to/lastmile_qr_scan"}, "is_reserved": 0}, {"lon": -77.05054066666666, "bike_id": "bc9794f34480dcd2780c2a73e26bfdd8", "lat": 38.92359883333334, "fusion_lon": 0.0, "fusion_lat": 0.0, "type": "electric_scooter", "name": "bc9794f34480dcd2780c2a73e26bfdd8", "is_disabled": 0, "rental_uris": {"ios": "https://dc.lft.to/lastmile_qr_scan", "android": "https://dc.lft.to/lastmile_qr_scan"}, "is_reserved": 0}, {"lon": -76.93121666666667, "bike_id": "3f6b95e93630333839c9c34537353dbb", "lat": 38.90143666666667, "fusion_lon": 0.0, "fusion_lat": 0.0, "type": "electric_scooter", "name": "3f6b95e93630333839c9c34537353dbb", "is_disabled": 0, "rental_uris": {"ios": "https://dc.lft.to/lastmile_qr_scan", "android": "https://dc.lft.to/lastmile_qr_scan"}, "is_reserved": 0}, {"lon": -76.99534016666667, "bike_id": "321df6fa559a29e8f7fb1dc61964ded7", "lat": 38.883736999999996, "fusion_lon": 0.0, "fusion_lat": 0.0, "type": "electric_scooter", "name": "321df6fa559a29e8f7fb1dc61964ded7", "is_disabled": 0, "rental_uris": {"ios": "https://dc.lft.to/lastmile_qr_scan", "android": "https://dc.lft.to/lastmile_qr_scan"}, "is_reserved": 0}, {"lon": -77.02515916666667, "bike_id": "29eaf00d0c27fe7e49015c8a4b2fc359", "lat": 38.9168845, "fusion_lon": 0.0, "fusion_lat": 0.0, "type": "electric_scooter", "name": "29eaf00d0c27fe7e49015c8a4b2fc359", "is_disabled": 0, "rental_uris": {"ios": "https://dc.lft.to/lastmile_qr_scan", "android": "https://dc.lft.to/lastmile_qr_scan"}, "is_reserved": 0}, {"lon": -77.03859616666666, "bike_id": "208418d8f0e34f23519b24152385a1d9", "lat": 38.917810833333334, "fusion_lon": 0.0, "fusion_lat": 0.0, "type": "electric_scooter", "name": "208418d8f0e34f23519b24152385a1d9", "is_disabled": 0, "rental_uris": {"ios": "https://dc.lft.to/lastmile_qr_scan", "android": "https://dc.lft.to/lastmile_qr_scan"}, "is_reserved": 0}, {"lon": -76.99489583333333, "bike_id": "29f521438b2d663f87dbfb75a0f16f0e", "lat": 38.8624125, "fusion_lon": 0.0, "fusion_lat": 0.0, "type": "electric_scooter", "name": "29f521438b2d663f87dbfb75a0f16f0e", "is_disabled": 0, "rental_uris": {"ios": "https://dc.lft.to/lastmile_qr_scan", "android": "https://dc.lft.to/lastmile_qr_scan"}, "is_reserved": 0}, {"lon": -77.05274683333333, "bike_id": "1472cedf4b4e99805a62401689cb47c4", "lat": 38.89967466666667, "fusion_lon": 0.0, "fusion_lat": 0.0, "type": "electric_scooter", "name": "1472cedf4b4e99805a62401689cb47c4", "is_disabled": 0, "rental_uris": {"ios": "https://dc.lft.to/lastmile_qr_scan", "android": "https://dc.lft.to/lastmile_qr_scan"}, "is_reserved": 0}, {"lon": -76.98546716666667, "bike_id": "205de71c8b95ab6f75a23bae75fa33ab", "lat": 38.896567833333336, "fusion_lon": 0.0, "fusion_lat": 0.0, "type": "electric_scooter", "name": "205de71c8b95ab6f75a23bae75fa33ab", "is_disabled": 0, "rental_uris": {"ios": "https://dc.lft.to/lastmile_qr_scan", "android": "https://dc.lft.to/lastmile_qr_scan"}, "is_reserved": 0}, {"lon": -77.04769616666667, "bike_id": "149932a93a7b93289843455cff52908d", "lat": 38.92142066666667, "fusion_lon": 0.0, "fusion_lat": 0.0, "type": "electric_scooter", "name": "149932a93a7b93289843455cff52908d", "is_disabled": 0, "rental_uris": {"ios": "https://dc.lft.to/lastmile_qr_scan", "android": "https://dc.lft.to/lastmile_qr_scan"}, "is_reserved": 0}, {"lon": -77.02627883333334, "bike_id": "9f026afba650597f1c67f1697d14433f", "lat": 38.9170765, "fusion_lon": 0.0, "fusion_lat": 0.0, "type": "electric_scooter", "name": "9f026afba650597f1c67f1697d14433f", "is_disabled": 0, "rental_uris": {"ios": "https://dc.lft.to/lastmile_qr_scan", "android": "https://dc.lft.to/lastmile_qr_scan"}, "is_reserved": 0}, {"lon": -77.03303416666667, "bike_id": "c0ef5cb1555ccf05b97a971356535378", "lat": 38.925476333333336, "fusion_lon": 0.0, "fusion_lat": 0.0, "type": "electric_scooter", "name": "c0ef5cb1555ccf05b97a971356535378", "is_disabled": 0, "rental_uris": {"ios": "https://dc.lft.to/lastmile_qr_scan", "android": "https://dc.lft.to/lastmile_qr_scan"}, "is_reserved": 0}, {"lon": -77.04158083333333, "bike_id": "e261d2925e3ede7848ab1a98fa40740b", "lat": 38.9124945, "fusion_lon": 0.0, "fusion_lat": 0.0, "type": "electric_scooter", "name": "e261d2925e3ede7848ab1a98fa40740b", "is_disabled": 0, "rental_uris": {"ios": "https://dc.lft.to/lastmile_qr_scan", "android": "https://dc.lft.to/lastmile_qr_scan"}, "is_reserved": 0}, {"lon": -76.93348283333333, "bike_id": "473342ab047e5fdb5d7676adb6c29ed9", "lat": 38.8990745, "fusion_lon": 0.0, "fusion_lat": 0.0, "type": "electric_scooter", "name": "473342ab047e5fdb5d7676adb6c29ed9", "is_disabled": 0, "rental_uris": {"ios": "https://dc.lft.to/lastmile_qr_scan", "android": "https://dc.lft.to/lastmile_qr_scan"}, "is_reserved": 0}, {"lon": -77.04444383333333, "bike_id": "83d147bdbe21bc38e4d5f31f4707bf30", "lat": 38.91884316666667, "fusion_lon": 0.0, "fusion_lat": 0.0, "type": "electric_scooter", "name": "83d147bdbe21bc38e4d5f31f4707bf30", "is_disabled": 0, "rental_uris": {"ios": "https://dc.lft.to/lastmile_qr_scan", "android": "https://dc.lft.to/lastmile_qr_scan"}, "is_reserved": 0}, {"lon": -76.98563083333333, "bike_id": "383c8c3b5cb90adda24a32ed730e6785", "lat": 38.8995585, "fusion_lon": 0.0, "fusion_lat": 0.0, "type": "electric_scooter", "name": "383c8c3b5cb90adda24a32ed730e6785", "is_disabled": 0, "rental_uris": {"ios": "https://dc.lft.to/lastmile_qr_scan", "android": "https://dc.lft.to/lastmile_qr_scan"}, "is_reserved": 0}, {"lon": -76.98182816666667, "bike_id": "c95a3b6f22745e18492de099ef2f9044", "lat": 38.926065, "fusion_lon": 0.0, "fusion_lat": 0.0, "type": "electric_scooter", "name": "c95a3b6f22745e18492de099ef2f9044", "is_disabled": 0, "rental_uris": {"ios": "https://dc.lft.to/lastmile_qr_scan", "android": "https://dc.lft.to/lastmile_qr_scan"}, "is_reserved": 0}, {"lon": -77.0320865, "bike_id": "22471604fb2ccfb5a2d72cfd800f0fd0", "lat": 38.912034166666665, "fusion_lon": 0.0, "fusion_lat": 0.0, "type": "electric_scooter", "name": "22471604fb2ccfb5a2d72cfd800f0fd0", "is_disabled": 0, "rental_uris": {"ios": "https://dc.lft.to/lastmile_qr_scan", "android": "https://dc.lft.to/lastmile_qr_scan"}, "is_reserved": 0}, {"lon": -77.1265565, "bike_id": "be3ecc67c8b3044e9af4a288cf92be7d", "lat": 38.81509883333333, "fusion_lon": 0.0, "fusion_lat": 0.0, "type": "electric_bike", "name": "be3ecc67c8b3044e9af4a288cf92be7d", "is_disabled": 0, "rental_uris": {"ios": "https://dc.lft.to/lastmile_qr_scan", "android": "https://dc.lft.to/lastmile_qr_scan"}, "is_reserved": 0}, {"lon": -76.99107766666667, "bike_id": "6f77fc6d884788110cdf702f39ac0bd7", "lat": 38.90322283333333, "fusion_lon": 0.0, "fusion_lat": 0.0, "type": "electric_scooter", "name": "6f77fc6d884788110cdf702f39ac0bd7", "is_disabled": 0, "rental_uris": {"ios": "https://dc.lft.to/lastmile_qr_scan", "android": "https://dc.lft.to/lastmile_qr_scan"}, "is_reserved": 0}, {"lon": -77.07164733333333, "bike_id": "3fa83f43b3bb3f681b3e502c4ea39c9b", "lat": 38.907742666666664, "fusion_lon": 0.0, "fusion_lat": 0.0, "type": "electric_scooter", "name": "3fa83f43b3bb3f681b3e502c4ea39c9b", "is_disabled": 0, "rental_uris": {"ios": "https://dc.lft.to/lastmile_qr_scan", "android": "https://dc.lft.to/lastmile_qr_scan"}, "is_reserved": 0}, {"lon": -77.04633333333334, "bike_id": "01b6effdd636a215bf7951da9f3d8da7", "lat": 38.91914966666667, "fusion_lon": 0.0, "fusion_lat": 0.0, "type": "electric_scooter", "name": "01b6effdd636a215bf7951da9f3d8da7", "is_disabled": 0, "rental_uris": {"ios": "https://dc.lft.to/lastmile_qr_scan", "android": "https://dc.lft.to/lastmile_qr_scan"}, "is_reserved": 0}, {"lon": -77.02681116666666, "bike_id": "a2869f8b0fbbd55c1b7d7eb6985422ff", "lat": 38.943254833333334, "fusion_lon": 0.0, "fusion_lat": 0.0, "type": "electric_scooter", "name": "a2869f8b0fbbd55c1b7d7eb6985422ff", "is_disabled": 0, "rental_uris": {"ios": "https://dc.lft.to/lastmile_qr_scan", "android": "https://dc.lft.to/lastmile_qr_scan"}, "is_reserved": 0}, {"lon": -77.03834983333333, "bike_id": "3b10bbf06cf23963c7562e6cc79bde72", "lat": 38.9104075, "fusion_lon": 0.0, "fusion_lat": 0.0, "type": "electric_scooter", "name": "3b10bbf06cf23963c7562e6cc79bde72", "is_disabled": 0, "rental_uris": {"ios": "https://dc.lft.to/lastmile_qr_scan", "android": "https://dc.lft.to/lastmile_qr_scan"}, "is_reserved": 0}, {"lon": -76.93374666666666, "bike_id": "510d95fd7cbe2c1cb679ab9ed92e68dc", "lat": 38.910297, "fusion_lon": 0.0, "fusion_lat": 0.0, "type": "electric_scooter", "name": "510d95fd7cbe2c1cb679ab9ed92e68dc", "is_disabled": 0, "rental_uris": {"ios": "https://dc.lft.to/lastmile_qr_scan", "android": "https://dc.lft.to/lastmile_qr_scan"}, "is_reserved": 0}, {"lon": -77.021178, "bike_id": "f4da1d855e9e8757474a26babde69e0d", "lat": 38.90970683333333, "fusion_lon": 0.0, "fusion_lat": 0.0, "type": "electric_scooter", "name": "f4da1d855e9e8757474a26babde69e0d", "is_disabled": 0, "rental_uris": {"ios": "https://dc.lft.to/lastmile_qr_scan", "android": "https://dc.lft.to/lastmile_qr_scan"}, "is_reserved": 0}, {"lon": -77.02761166666667, "bike_id": "77f153a3353f805e17108d1c345bb70e", "lat": 38.943990666666664, "fusion_lon": 0.0, "fusion_lat": 0.0, "type": "electric_scooter", "name": "77f153a3353f805e17108d1c345bb70e", "is_disabled": 0, "rental_uris": {"ios": "https://dc.lft.to/lastmile_qr_scan", "android": "https://dc.lft.to/lastmile_qr_scan"}, "is_reserved": 0}, {"lon": -77.05859666666667, "bike_id": "7b9e034e91ab1aa3e2cb477f90cd7799", "lat": 38.93607983333333, "fusion_lon": 0.0, "fusion_lat": 0.0, "type": "electric_scooter", "name": "7b9e034e91ab1aa3e2cb477f90cd7799", "is_disabled": 0, "rental_uris": {"ios": "https://dc.lft.to/lastmile_qr_scan", "android": "https://dc.lft.to/lastmile_qr_scan"}, "is_reserved": 0}, {"lon": -77.02459733333333, "bike_id": "26f93e461496325ed7d291c5401f0921", "lat": 38.901016, "fusion_lon": 0.0, "fusion_lat": 0.0, "type": "electric_scooter", "name": "26f93e461496325ed7d291c5401f0921", "is_disabled": 0, "rental_uris": {"ios": "https://dc.lft.to/lastmile_qr_scan", "android": "https://dc.lft.to/lastmile_qr_scan"}, "is_reserved": 0}, {"lon": -77.05264816666667, "bike_id": "2fa1876fbd06b42afc343baed35e8768", "lat": 38.927737666666665, "fusion_lon": 0.0, "fusion_lat": 0.0, "type": "electric_scooter", "name": "2fa1876fbd06b42afc343baed35e8768", "is_disabled": 0, "rental_uris": {"ios": "https://dc.lft.to/lastmile_qr_scan", "android": "https://dc.lft.to/lastmile_qr_scan"}, "is_reserved": 0}, {"lon": -77.03829483333334, "bike_id": "5ae44e9056c0706056013acd023c7221", "lat": 38.906726666666664, "fusion_lon": 0.0, "fusion_lat": 0.0, "type": "electric_scooter", "name": "5ae44e9056c0706056013acd023c7221", "is_disabled": 0, "rental_uris": {"ios": "https://dc.lft.to/lastmile_qr_scan", "android": "https://dc.lft.to/lastmile_qr_scan"}, "is_reserved": 0}, {"lon": -77.017757, "bike_id": "591fd14b431915b785d4b13f92380613", "lat": 38.902666333333336, "fusion_lon": 0.0, "fusion_lat": 0.0, "type": "electric_scooter", "name": "591fd14b431915b785d4b13f92380613", "is_disabled": 0, "rental_uris": {"ios": "https://dc.lft.to/lastmile_qr_scan", "android": "https://dc.lft.to/lastmile_qr_scan"}, "is_reserved": 0}, {"lon": -77.03070733333334, "bike_id": "8f9716fc354d2e333f6e3282dd511a15", "lat": 38.902708833333335, "fusion_lon": 0.0, "fusion_lat": 0.0, "type": "electric_scooter", "name": "8f9716fc354d2e333f6e3282dd511a15", "is_disabled": 0, "rental_uris": {"ios": "https://dc.lft.to/lastmile_qr_scan", "android": "https://dc.lft.to/lastmile_qr_scan"}, "is_reserved": 0}, {"lon": -77.04551433333333, "bike_id": "7bba0425a0652ce74ca0afdd8ed4ada4", "lat": 38.915962, "fusion_lon": 0.0, "fusion_lat": 0.0, "type": "electric_scooter", "name": "7bba0425a0652ce74ca0afdd8ed4ada4", "is_disabled": 0, "rental_uris": {"ios": "https://dc.lft.to/lastmile_qr_scan", "android": "https://dc.lft.to/lastmile_qr_scan"}, "is_reserved": 0}, {"lon": -77.0340185, "bike_id": "56c9b77b015284f2fe609d8cba71a1cd", "lat": 38.92314916666667, "fusion_lon": 0.0, "fusion_lat": 0.0, "type": "electric_scooter", "name": "56c9b77b015284f2fe609d8cba71a1cd", "is_disabled": 0, "rental_uris": {"ios": "https://dc.lft.to/lastmile_qr_scan", "android": "https://dc.lft.to/lastmile_qr_scan"}, "is_reserved": 0}, {"lon": -77.02397466666666, "bike_id": "c5730905987d15a6b71d5e08e9394d38", "lat": 38.91986, "fusion_lon": 0.0, "fusion_lat": 0.0, "type": "electric_scooter", "name": "c5730905987d15a6b71d5e08e9394d38", "is_disabled": 0, "rental_uris": {"ios": "https://dc.lft.to/lastmile_qr_scan", "android": "https://dc.lft.to/lastmile_qr_scan"}, "is_reserved": 0}, {"lon": -77.033787, "bike_id": "15b9fe02e5c7889a6c347f2218918081", "lat": 38.90988, "fusion_lon": 0.0, "fusion_lat": 0.0, "type": "electric_scooter", "name": "15b9fe02e5c7889a6c347f2218918081", "is_disabled": 0, "rental_uris": {"ios": "https://dc.lft.to/lastmile_qr_scan", "android": "https://dc.lft.to/lastmile_qr_scan"}, "is_reserved": 0}, {"lon": -77.03262216666667, "bike_id": "ce6ed60ce97def7e82dd8fb2a5cd86df", "lat": 38.9326325, "fusion_lon": 0.0, "fusion_lat": 0.0, "type": "electric_scooter", "name": "ce6ed60ce97def7e82dd8fb2a5cd86df", "is_disabled": 0, "rental_uris": {"ios": "https://dc.lft.to/lastmile_qr_scan", "android": "https://dc.lft.to/lastmile_qr_scan"}, "is_reserved": 0}, {"lon": -77.00256766666666, "bike_id": "9f90e433cc2a29b9f67c3cee9eedc54d", "lat": 38.91816383333333, "fusion_lon": 0.0, "fusion_lat": 0.0, "type": "electric_scooter", "name": "9f90e433cc2a29b9f67c3cee9eedc54d", "is_disabled": 0, "rental_uris": {"ios": "https://dc.lft.to/lastmile_qr_scan", "android": "https://dc.lft.to/lastmile_qr_scan"}, "is_reserved": 0}, {"lon": -77.037165, "bike_id": "cfe582577eecf050ca32a8a00459102e", "lat": 38.91483866666667, "fusion_lon": 0.0, "fusion_lat": 0.0, "type": "electric_scooter", "name": "cfe582577eecf050ca32a8a00459102e", "is_disabled": 0, "rental_uris": {"ios": "https://dc.lft.to/lastmile_qr_scan", "android": "https://dc.lft.to/lastmile_qr_scan"}, "is_reserved": 0}, {"lon": -77.001022, "bike_id": "ed6ac659828c3b281ddae74c3ca3df32", "lat": 38.91703666666667, "fusion_lon": 0.0, "fusion_lat": 0.0, "type": "electric_scooter", "name": "ed6ac659828c3b281ddae74c3ca3df32", "is_disabled": 0, "rental_uris": {"ios": "https://dc.lft.to/lastmile_qr_scan", "android": "https://dc.lft.to/lastmile_qr_scan"}, "is_reserved": 0}, {"lon": -77.018934, "bike_id": "a25ea3f5f69519b7b628862c571710d6", "lat": 38.87462333333333, "fusion_lon": 0.0, "fusion_lat": 0.0, "type": "electric_scooter", "name": "a25ea3f5f69519b7b628862c571710d6", "is_disabled": 0, "rental_uris": {"ios": "https://dc.lft.to/lastmile_qr_scan", "android": "https://dc.lft.to/lastmile_qr_scan"}, "is_reserved": 0}, {"lon": -77.03438283333334, "bike_id": "5aab1c666be4066bd429c3ed3f339660", "lat": 38.90966366666667, "fusion_lon": 0.0, "fusion_lat": 0.0, "type": "electric_scooter", "name": "5aab1c666be4066bd429c3ed3f339660", "is_disabled": 0, "rental_uris": {"ios": "https://dc.lft.to/lastmile_qr_scan", "android": "https://dc.lft.to/lastmile_qr_scan"}, "is_reserved": 0}, {"lon": -77.0409755, "bike_id": "155aa29af0f251889ed2fb4883ba6461", "lat": 38.89230216666667, "fusion_lon": 0.0, "fusion_lat": 0.0, "type": "electric_scooter", "name": "155aa29af0f251889ed2fb4883ba6461", "is_disabled": 0, "rental_uris": {"ios": "https://dc.lft.to/lastmile_qr_scan", "android": "https://dc.lft.to/lastmile_qr_scan"}, "is_reserved": 0}, {"lon": -77.02703733333334, "bike_id": "408911527d43a9fac0b1a33e00e080d1", "lat": 38.9066815, "fusion_lon": 0.0, "fusion_lat": 0.0, "type": "electric_scooter", "name": "408911527d43a9fac0b1a33e00e080d1", "is_disabled": 0, "rental_uris": {"ios": "https://dc.lft.to/lastmile_qr_scan", "android": "https://dc.lft.to/lastmile_qr_scan"}, "is_reserved": 0}, {"lon": -77.00609666666666, "bike_id": "56dfde20b4afb109b50c1657545e9e52", "lat": 38.871795, "fusion_lon": 0.0, "fusion_lat": 0.0, "type": "electric_scooter", "name": "56dfde20b4afb109b50c1657545e9e52", "is_disabled": 0, "rental_uris": {"ios": "https://dc.lft.to/lastmile_qr_scan", "android": "https://dc.lft.to/lastmile_qr_scan"}, "is_reserved": 0}, {"lon": -77.04877416666666, "bike_id": "fa0c546e423869392bbc870b5b34a059", "lat": 38.892355, "fusion_lon": 0.0, "fusion_lat": 0.0, "type": "electric_scooter", "name": "fa0c546e423869392bbc870b5b34a059", "is_disabled": 0, "rental_uris": {"ios": "https://dc.lft.to/lastmile_qr_scan", "android": "https://dc.lft.to/lastmile_qr_scan"}, "is_reserved": 0}, {"lon": -77.01628583333333, "bike_id": "0c93b9abc6b4897065ad33ea8669d142", "lat": 38.9061115, "fusion_lon": 0.0, "fusion_lat": 0.0, "type": "electric_scooter", "name": "0c93b9abc6b4897065ad33ea8669d142", "is_disabled": 0, "rental_uris": {"ios": "https://dc.lft.to/lastmile_qr_scan", "android": "https://dc.lft.to/lastmile_qr_scan"}, "is_reserved": 0}, {"lon": -77.0363625, "bike_id": "3aabcde75ef5d9d9061944a3fbd0734d", "lat": 38.924612333333336, "fusion_lon": 0.0, "fusion_lat": 0.0, "type": "electric_scooter", "name": "3aabcde75ef5d9d9061944a3fbd0734d", "is_disabled": 0, "rental_uris": {"ios": "https://dc.lft.to/lastmile_qr_scan", "android": "https://dc.lft.to/lastmile_qr_scan"}, "is_reserved": 0}, {"lon": -77.03640033333333, "bike_id": "de0502ca23613f7657a685b73955b98b", "lat": 38.90353966666667, "fusion_lon": 0.0, "fusion_lat": 0.0, "type": "electric_scooter", "name": "de0502ca23613f7657a685b73955b98b", "is_disabled": 0, "rental_uris": {"ios": "https://dc.lft.to/lastmile_qr_scan", "android": "https://dc.lft.to/lastmile_qr_scan"}, "is_reserved": 0}, {"lon": -77.09493916666666, "bike_id": "e1e93714be4c3e9fa9c4698a3eb8891e", "lat": 38.8076295, "fusion_lon": 0.0, "fusion_lat": 0.0, "type": "electric_bike", "name": "e1e93714be4c3e9fa9c4698a3eb8891e", "is_disabled": 0, "rental_uris": {"ios": "https://dc.lft.to/lastmile_qr_scan", "android": "https://dc.lft.to/lastmile_qr_scan"}, "is_reserved": 0}, {"lon": -77.04152116666667, "bike_id": "553d66cbcd233d35e835f81b324408c3", "lat": 38.917938666666664, "fusion_lon": 0.0, "fusion_lat": 0.0, "type": "electric_scooter", "name": "553d66cbcd233d35e835f81b324408c3", "is_disabled": 0, "rental_uris": {"ios": "https://dc.lft.to/lastmile_qr_scan", "android": "https://dc.lft.to/lastmile_qr_scan"}, "is_reserved": 0}, {"lon": -76.98834533333333, "bike_id": "377c90a11462746de8a52ea23aa0e6ff", "lat": 38.901245333333335, "fusion_lon": 0.0, "fusion_lat": 0.0, "type": "electric_scooter", "name": "377c90a11462746de8a52ea23aa0e6ff", "is_disabled": 0, "rental_uris": {"ios": "https://dc.lft.to/lastmile_qr_scan", "android": "https://dc.lft.to/lastmile_qr_scan"}, "is_reserved": 0}, {"lon": -77.02400166666666, "bike_id": "3b5c0d2cdded541eba183be5b3c6e378", "lat": 38.92152433333333, "fusion_lon": 0.0, "fusion_lat": 0.0, "type": "electric_scooter", "name": "3b5c0d2cdded541eba183be5b3c6e378", "is_disabled": 0, "rental_uris": {"ios": "https://dc.lft.to/lastmile_qr_scan", "android": "https://dc.lft.to/lastmile_qr_scan"}, "is_reserved": 0}, {"lon": -76.99072333333334, "bike_id": "484ea6e94aba8e19be41651156efb0db", "lat": 38.927460833333335, "fusion_lon": 0.0, "fusion_lat": 0.0, "type": "electric_scooter", "name": "484ea6e94aba8e19be41651156efb0db", "is_disabled": 0, "rental_uris": {"ios": "https://dc.lft.to/lastmile_qr_scan", "android": "https://dc.lft.to/lastmile_qr_scan"}, "is_reserved": 0}, {"lon": -77.11593016666667, "bike_id": "18a695a19de5b94757cc430c9a89cb45", "lat": 39.074929, "fusion_lon": 0.0, "fusion_lat": 0.0, "type": "electric_bike", "name": "18a695a19de5b94757cc430c9a89cb45", "is_disabled": 0, "rental_uris": {"ios": "https://dc.lft.to/lastmile_qr_scan", "android": "https://dc.lft.to/lastmile_qr_scan"}, "is_reserved": 0}, {"lon": -77.007973, "bike_id": "db25063ef352738da2b5137c2e26bbc3", "lat": 38.8777635, "fusion_lon": 0.0, "fusion_lat": 0.0, "type": "electric_scooter", "name": "db25063ef352738da2b5137c2e26bbc3", "is_disabled": 0, "rental_uris": {"ios": "https://dc.lft.to/lastmile_qr_scan", "android": "https://dc.lft.to/lastmile_qr_scan"}, "is_reserved": 0}, {"lon": -76.96908, "bike_id": "f557763275b039cea2b90ec22c0aef5b", "lat": 38.84610033333333, "fusion_lon": 0.0, "fusion_lat": 0.0, "type": "electric_bike", "name": "f557763275b039cea2b90ec22c0aef5b", "is_disabled": 0, "rental_uris": {"ios": "https://dc.lft.to/lastmile_qr_scan", "android": "https://dc.lft.to/lastmile_qr_scan"}, "is_reserved": 0}, {"lon": -77.0629855, "bike_id": "a39bcc31fe5e04a395ae638b132d0bb7", "lat": 38.9060675, "fusion_lon": 0.0, "fusion_lat": 0.0, "type": "electric_scooter", "name": "a39bcc31fe5e04a395ae638b132d0bb7", "is_disabled": 0, "rental_uris": {"ios": "https://dc.lft.to/lastmile_qr_scan", "android": "https://dc.lft.to/lastmile_qr_scan"}, "is_reserved": 0}, {"lon": -77.032148, "bike_id": "1bc5258e5a91a012af0b7b7f5b622e40", "lat": 38.892475833333336, "fusion_lon": 0.0, "fusion_lat": 0.0, "type": "electric_scooter", "name": "1bc5258e5a91a012af0b7b7f5b622e40", "is_disabled": 0, "rental_uris": {"ios": "https://dc.lft.to/lastmile_qr_scan", "android": "https://dc.lft.to/lastmile_qr_scan"}, "is_reserved": 0}, {"lon": -76.9993215, "bike_id": "0c6a806603e0b4f672ada9aecdc3b10c", "lat": 38.843159166666666, "fusion_lon": 0.0, "fusion_lat": 0.0, "type": "electric_scooter", "name": "0c6a806603e0b4f672ada9aecdc3b10c", "is_disabled": 0, "rental_uris": {"ios": "https://dc.lft.to/lastmile_qr_scan", "android": "https://dc.lft.to/lastmile_qr_scan"}, "is_reserved": 0}, {"lon": -77.03208683333334, "bike_id": "0c6246e9ed97bff42324657ab057f688", "lat": 38.908976333333335, "fusion_lon": 0.0, "fusion_lat": 0.0, "type": "electric_scooter", "name": "0c6246e9ed97bff42324657ab057f688", "is_disabled": 0, "rental_uris": {"ios": "https://dc.lft.to/lastmile_qr_scan", "android": "https://dc.lft.to/lastmile_qr_scan"}, "is_reserved": 0}, {"lon": -77.02978716666667, "bike_id": "48ccaa85a19c1745800fddb19f743e9b", "lat": 38.91627783333333, "fusion_lon": 0.0, "fusion_lat": 0.0, "type": "electric_scooter", "name": "48ccaa85a19c1745800fddb19f743e9b", "is_disabled": 0, "rental_uris": {"ios": "https://dc.lft.to/lastmile_qr_scan", "android": "https://dc.lft.to/lastmile_qr_scan"}, "is_reserved": 0}, {"lon": -77.026805, "bike_id": "3070eaac815aaf6fb96d67e63d750098", "lat": 38.9095715, "fusion_lon": 0.0, "fusion_lat": 0.0, "type": "electric_scooter", "name": "3070eaac815aaf6fb96d67e63d750098", "is_disabled": 0, "rental_uris": {"ios": "https://dc.lft.to/lastmile_qr_scan", "android": "https://dc.lft.to/lastmile_qr_scan"}, "is_reserved": 0}, {"lon": -76.99052366666666, "bike_id": "5da9f37231f7786242f83c520afcaaa1", "lat": 38.8637275, "fusion_lon": 0.0, "fusion_lat": 0.0, "type": "electric_scooter", "name": "5da9f37231f7786242f83c520afcaaa1", "is_disabled": 0, "rental_uris": {"ios": "https://dc.lft.to/lastmile_qr_scan", "android": "https://dc.lft.to/lastmile_qr_scan"}, "is_reserved": 0}, {"lon": -77.0313035, "bike_id": "4018927897a6492ab095ef8464b6b530", "lat": 38.912645499999996, "fusion_lon": 0.0, "fusion_lat": 0.0, "type": "electric_scooter", "name": "4018927897a6492ab095ef8464b6b530", "is_disabled": 0, "rental_uris": {"ios": "https://dc.lft.to/lastmile_qr_scan", "android": "https://dc.lft.to/lastmile_qr_scan"}, "is_reserved": 0}, {"lon": -77.02370433333333, "bike_id": "f13f13c0622f7d2255e41818d840bf61", "lat": 38.916186, "fusion_lon": 0.0, "fusion_lat": 0.0, "type": "electric_scooter", "name": "f13f13c0622f7d2255e41818d840bf61", "is_disabled": 0, "rental_uris": {"ios": "https://dc.lft.to/lastmile_qr_scan", "android": "https://dc.lft.to/lastmile_qr_scan"}, "is_reserved": 0}, {"lon": -77.02953966666666, "bike_id": "f77fe595244afe3e6df9e5ffd3f424f7", "lat": 38.927719, "fusion_lon": 0.0, "fusion_lat": 0.0, "type": "electric_scooter", "name": "f77fe595244afe3e6df9e5ffd3f424f7", "is_disabled": 0, "rental_uris": {"ios": "https://dc.lft.to/lastmile_qr_scan", "android": "https://dc.lft.to/lastmile_qr_scan"}, "is_reserved": 0}, {"lon": -77.05873933333334, "bike_id": "3f1cefb1d7d5431a20f40e13525ca26c", "lat": 38.93564083333333, "fusion_lon": 0.0, "fusion_lat": 0.0, "type": "electric_scooter", "name": "3f1cefb1d7d5431a20f40e13525ca26c", "is_disabled": 0, "rental_uris": {"ios": "https://dc.lft.to/lastmile_qr_scan", "android": "https://dc.lft.to/lastmile_qr_scan"}, "is_reserved": 0}, {"lon": -76.99958983333333, "bike_id": "e1ce988e2d3ace6904997d23c065a9f1", "lat": 38.90758316666667, "fusion_lon": 0.0, "fusion_lat": 0.0, "type": "electric_scooter", "name": "e1ce988e2d3ace6904997d23c065a9f1", "is_disabled": 0, "rental_uris": {"ios": "https://dc.lft.to/lastmile_qr_scan", "android": "https://dc.lft.to/lastmile_qr_scan"}, "is_reserved": 0}, {"lon": -77.03124466666667, "bike_id": "adbc380dec0064dbd7a8778406c84032", "lat": 38.98829416666667, "fusion_lon": 0.0, "fusion_lat": 0.0, "type": "electric_scooter", "name": "adbc380dec0064dbd7a8778406c84032", "is_disabled": 0, "rental_uris": {"ios": "https://dc.lft.to/lastmile_qr_scan", "android": "https://dc.lft.to/lastmile_qr_scan"}, "is_reserved": 0}, {"lon": -77.05316183333333, "bike_id": "57c2282e354a09461ac71df290c82bad", "lat": 38.941004166666666, "fusion_lon": 0.0, "fusion_lat": 0.0, "type": "electric_bike", "name": "57c2282e354a09461ac71df290c82bad", "is_disabled": 0, "rental_uris": {"ios": "https://dc.lft.to/lastmile_qr_scan", "android": "https://dc.lft.to/lastmile_qr_scan"}, "is_reserved": 0}, {"lon": -77.0410565, "bike_id": "c1d8f7baed91bf3b04af611072abf41a", "lat": 38.916928166666665, "fusion_lon": 0.0, "fusion_lat": 0.0, "type": "electric_scooter", "name": "c1d8f7baed91bf3b04af611072abf41a", "is_disabled": 0, "rental_uris": {"ios": "https://dc.lft.to/lastmile_qr_scan", "android": "https://dc.lft.to/lastmile_qr_scan"}, "is_reserved": 0}, {"lon": -77.04168866666667, "bike_id": "632f5d96f432ee52b9bb6865803e4c9d", "lat": 38.906642, "fusion_lon": 0.0, "fusion_lat": 0.0, "type": "electric_scooter", "name": "632f5d96f432ee52b9bb6865803e4c9d", "is_disabled": 0, "rental_uris": {"ios": "https://dc.lft.to/lastmile_qr_scan", "android": "https://dc.lft.to/lastmile_qr_scan"}, "is_reserved": 0}, {"lon": -77.0214985, "bike_id": "5797a91862b27f28901a1d79691c1312", "lat": 38.89715066666667, "fusion_lon": 0.0, "fusion_lat": 0.0, "type": "electric_scooter", "name": "5797a91862b27f28901a1d79691c1312", "is_disabled": 0, "rental_uris": {"ios": "https://dc.lft.to/lastmile_qr_scan", "android": "https://dc.lft.to/lastmile_qr_scan"}, "is_reserved": 0}, {"lon": -76.96383666666667, "bike_id": "1922e54ba5d964c85bdf16774eabab58", "lat": 38.95171166666667, "fusion_lon": 0.0, "fusion_lat": 0.0, "type": "electric_bike", "name": "1922e54ba5d964c85bdf16774eabab58", "is_disabled": 0, "rental_uris": {"ios": "https://dc.lft.to/lastmile_qr_scan", "android": "https://dc.lft.to/lastmile_qr_scan"}, "is_reserved": 0}, {"lon": -77.22803016666667, "bike_id": "b86612318338891288a5f603c9cea7e5", "lat": 38.91014166666667, "fusion_lon": 0.0, "fusion_lat": 0.0, "type": "electric_bike", "name": "b86612318338891288a5f603c9cea7e5", "is_disabled": 0, "rental_uris": {"ios": "https://dc.lft.to/lastmile_qr_scan", "android": "https://dc.lft.to/lastmile_qr_scan"}, "is_reserved": 0}, {"lon": -77.02795883333333, "bike_id": "f76a412569390da9309ce99507276e72", "lat": 38.95412916666667, "fusion_lon": 0.0, "fusion_lat": 0.0, "type": "electric_scooter", "name": "f76a412569390da9309ce99507276e72", "is_disabled": 0, "rental_uris": {"ios": "https://dc.lft.to/lastmile_qr_scan", "android": "https://dc.lft.to/lastmile_qr_scan"}, "is_reserved": 0}, {"lon": -77.04337066666666, "bike_id": "20c2b8d2d78c97ce019c805067768f84", "lat": 38.910435666666665, "fusion_lon": 0.0, "fusion_lat": 0.0, "type": "electric_scooter", "name": "20c2b8d2d78c97ce019c805067768f84", "is_disabled": 0, "rental_uris": {"ios": "https://dc.lft.to/lastmile_qr_scan", "android": "https://dc.lft.to/lastmile_qr_scan"}, "is_reserved": 0}, {"lon": -77.02092316666666, "bike_id": "ea142956d461afc83a6aa864f3856327", "lat": 38.9291015, "fusion_lon": 0.0, "fusion_lat": 0.0, "type": "electric_scooter", "name": "ea142956d461afc83a6aa864f3856327", "is_disabled": 0, "rental_uris": {"ios": "https://dc.lft.to/lastmile_qr_scan", "android": "https://dc.lft.to/lastmile_qr_scan"}, "is_reserved": 0}, {"lon": -77.007435, "bike_id": "1faf0f5987448a71740bc3aa8131f73b", "lat": 38.925255, "fusion_lon": 0.0, "fusion_lat": 0.0, "type": "electric_scooter", "name": "1faf0f5987448a71740bc3aa8131f73b", "is_disabled": 0, "rental_uris": {"ios": "https://dc.lft.to/lastmile_qr_scan", "android": "https://dc.lft.to/lastmile_qr_scan"}, "is_reserved": 0}, {"lon": -77.04386266666667, "bike_id": "430822b6a008df0257f120fe44d0816a", "lat": 38.91660133333333, "fusion_lon": 0.0, "fusion_lat": 0.0, "type": "electric_scooter", "name": "430822b6a008df0257f120fe44d0816a", "is_disabled": 0, "rental_uris": {"ios": "https://dc.lft.to/lastmile_qr_scan", "android": "https://dc.lft.to/lastmile_qr_scan"}, "is_reserved": 0}, {"lon": -77.0433685, "bike_id": "76a23074fa4428bff9d2fd91483248c0", "lat": 38.91108833333333, "fusion_lon": 0.0, "fusion_lat": 0.0, "type": "electric_scooter", "name": "76a23074fa4428bff9d2fd91483248c0", "is_disabled": 0, "rental_uris": {"ios": "https://dc.lft.to/lastmile_qr_scan", "android": "https://dc.lft.to/lastmile_qr_scan"}, "is_reserved": 0}, {"lon": -77.00522833333333, "bike_id": "af780ae92fa0b903ed142614071da817", "lat": 38.8754425, "fusion_lon": 0.0, "fusion_lat": 0.0, "type": "electric_scooter", "name": "af780ae92fa0b903ed142614071da817", "is_disabled": 0, "rental_uris": {"ios": "https://dc.lft.to/lastmile_qr_scan", "android": "https://dc.lft.to/lastmile_qr_scan"}, "is_reserved": 0}, {"lon": -77.02771, "bike_id": "8000cc0c4f1a4db83647728cee381608", "lat": 38.93015116666667, "fusion_lon": 0.0, "fusion_lat": 0.0, "type": "electric_scooter", "name": "8000cc0c4f1a4db83647728cee381608", "is_disabled": 0, "rental_uris": {"ios": "https://dc.lft.to/lastmile_qr_scan", "android": "https://dc.lft.to/lastmile_qr_scan"}, "is_reserved": 0}, {"lon": -76.99003016666667, "bike_id": "1b430aa32d6bd9427f5cf80b85feba36", "lat": 38.865049, "fusion_lon": 0.0, "fusion_lat": 0.0, "type": "electric_scooter", "name": "1b430aa32d6bd9427f5cf80b85feba36", "is_disabled": 0, "rental_uris": {"ios": "https://dc.lft.to/lastmile_qr_scan", "android": "https://dc.lft.to/lastmile_qr_scan"}, "is_reserved": 0}, {"lon": -76.98085166666667, "bike_id": "7b326be36367237ad64809996cc7b5a7", "lat": 38.9070625, "fusion_lon": 0.0, "fusion_lat": 0.0, "type": "electric_scooter", "name": "7b326be36367237ad64809996cc7b5a7", "is_disabled": 0, "rental_uris": {"ios": "https://dc.lft.to/lastmile_qr_scan", "android": "https://dc.lft.to/lastmile_qr_scan"}, "is_reserved": 0}, {"lon": -77.108358, "bike_id": "e6fd3190990a05897ef197c246d1cef9", "lat": 38.81200233333333, "fusion_lon": 0.0, "fusion_lat": 0.0, "type": "electric_bike", "name": "e6fd3190990a05897ef197c246d1cef9", "is_disabled": 0, "rental_uris": {"ios": "https://dc.lft.to/lastmile_qr_scan", "android": "https://dc.lft.to/lastmile_qr_scan"}, "is_reserved": 0}, {"lon": -77.00332133333333, "bike_id": "dc539b03f171630b0860caeda26f025a", "lat": 38.897281666666665, "fusion_lon": 0.0, "fusion_lat": 0.0, "type": "electric_scooter", "name": "dc539b03f171630b0860caeda26f025a", "is_disabled": 0, "rental_uris": {"ios": "https://dc.lft.to/lastmile_qr_scan", "android": "https://dc.lft.to/lastmile_qr_scan"}, "is_reserved": 0}, {"lon": -77.0320355, "bike_id": "6e6fe9c675cb93118e2297330df9b8e4", "lat": 38.915374166666666, "fusion_lon": 0.0, "fusion_lat": 0.0, "type": "electric_scooter", "name": "6e6fe9c675cb93118e2297330df9b8e4", "is_disabled": 0, "rental_uris": {"ios": "https://dc.lft.to/lastmile_qr_scan", "android": "https://dc.lft.to/lastmile_qr_scan"}, "is_reserved": 0}, {"lon": -77.02854566666667, "bike_id": "a6df32c20e5a34c6757c9f3fc987a5d6", "lat": 38.892694666666664, "fusion_lon": 0.0, "fusion_lat": 0.0, "type": "electric_scooter", "name": "a6df32c20e5a34c6757c9f3fc987a5d6", "is_disabled": 0, "rental_uris": {"ios": "https://dc.lft.to/lastmile_qr_scan", "android": "https://dc.lft.to/lastmile_qr_scan"}, "is_reserved": 0}, {"lon": -77.04875716666666, "bike_id": "5d5cd1ec4fc7fd876ce8a734ab8d963c", "lat": 38.89236183333333, "fusion_lon": 0.0, "fusion_lat": 0.0, "type": "electric_scooter", "name": "5d5cd1ec4fc7fd876ce8a734ab8d963c", "is_disabled": 0, "rental_uris": {"ios": "https://dc.lft.to/lastmile_qr_scan", "android": "https://dc.lft.to/lastmile_qr_scan"}, "is_reserved": 0}, {"lon": -77.03220866666666, "bike_id": "15b60e1442b643d2b842de5829ffd96d", "lat": 38.928816833333336, "fusion_lon": 0.0, "fusion_lat": 0.0, "type": "electric_scooter", "name": "15b60e1442b643d2b842de5829ffd96d", "is_disabled": 0, "rental_uris": {"ios": "https://dc.lft.to/lastmile_qr_scan", "android": "https://dc.lft.to/lastmile_qr_scan"}, "is_reserved": 0}, {"lon": -77.07232533333334, "bike_id": "be0c0dfadf503919fc1f43299d412ee7", "lat": 38.9681155, "fusion_lon": 0.0, "fusion_lat": 0.0, "type": "electric_bike", "name": "be0c0dfadf503919fc1f43299d412ee7", "is_disabled": 0, "rental_uris": {"ios": "https://dc.lft.to/lastmile_qr_scan", "android": "https://dc.lft.to/lastmile_qr_scan"}, "is_reserved": 0}, {"lon": -77.07005466666666, "bike_id": "eb6dab8868c5c9621e3c1af6c1691d62", "lat": 38.9584705, "fusion_lon": 0.0, "fusion_lat": 0.0, "type": "electric_scooter", "name": "eb6dab8868c5c9621e3c1af6c1691d62", "is_disabled": 0, "rental_uris": {"ios": "https://dc.lft.to/lastmile_qr_scan", "android": "https://dc.lft.to/lastmile_qr_scan"}, "is_reserved": 0}, {"lon": -76.99375433333333, "bike_id": "b0759100bb08fab3ec276e292789cee8", "lat": 38.971833333333336, "fusion_lon": 0.0, "fusion_lat": 0.0, "type": "electric_bike", "name": "b0759100bb08fab3ec276e292789cee8", "is_disabled": 0, "rental_uris": {"ios": "https://dc.lft.to/lastmile_qr_scan", "android": "https://dc.lft.to/lastmile_qr_scan"}, "is_reserved": 0}, {"lon": -77.03299566666666, "bike_id": "096f061809f4148b146d0863f5ba9b64", "lat": 38.90724783333334, "fusion_lon": 0.0, "fusion_lat": 0.0, "type": "electric_scooter", "name": "096f061809f4148b146d0863f5ba9b64", "is_disabled": 0, "rental_uris": {"ios": "https://dc.lft.to/lastmile_qr_scan", "android": "https://dc.lft.to/lastmile_qr_scan"}, "is_reserved": 0}, {"lon": -77.01303033333333, "bike_id": "0f5d4297feed1ea1c0e1e2a1f5d10ef3", "lat": 38.943244, "fusion_lon": 0.0, "fusion_lat": 0.0, "type": "electric_scooter", "name": "0f5d4297feed1ea1c0e1e2a1f5d10ef3", "is_disabled": 0, "rental_uris": {"ios": "https://dc.lft.to/lastmile_qr_scan", "android": "https://dc.lft.to/lastmile_qr_scan"}, "is_reserved": 0}, {"lon": -77.044246, "bike_id": "0a698ed149cd7f727d74b2483d4f313c", "lat": 38.90973816666666, "fusion_lon": 0.0, "fusion_lat": 0.0, "type": "electric_scooter", "name": "0a698ed149cd7f727d74b2483d4f313c", "is_disabled": 0, "rental_uris": {"ios": "https://dc.lft.to/lastmile_qr_scan", "android": "https://dc.lft.to/lastmile_qr_scan"}, "is_reserved": 0}, {"lon": -77.02890516666666, "bike_id": "6fce5044852cd074ed8237d864f8734a", "lat": 38.917043166666666, "fusion_lon": 0.0, "fusion_lat": 0.0, "type": "electric_scooter", "name": "6fce5044852cd074ed8237d864f8734a", "is_disabled": 0, "rental_uris": {"ios": "https://dc.lft.to/lastmile_qr_scan", "android": "https://dc.lft.to/lastmile_qr_scan"}, "is_reserved": 0}, {"lon": -77.005725, "bike_id": "1ebf27fb41ecfe423ff6ff8b8c2e586f", "lat": 38.83590316666667, "fusion_lon": 0.0, "fusion_lat": 0.0, "type": "electric_scooter", "name": "1ebf27fb41ecfe423ff6ff8b8c2e586f", "is_disabled": 0, "rental_uris": {"ios": "https://dc.lft.to/lastmile_qr_scan", "android": "https://dc.lft.to/lastmile_qr_scan"}, "is_reserved": 0}, {"lon": -77.03319066666667, "bike_id": "33eb985727212a3a86b7a46b17e02a31", "lat": 38.89007466666666, "fusion_lon": 0.0, "fusion_lat": 0.0, "type": "electric_scooter", "name": "33eb985727212a3a86b7a46b17e02a31", "is_disabled": 0, "rental_uris": {"ios": "https://dc.lft.to/lastmile_qr_scan", "android": "https://dc.lft.to/lastmile_qr_scan"}, "is_reserved": 0}, {"lon": -77.04469516666667, "bike_id": "84e1209fc825cf821aa7b62d7cb95552", "lat": 38.911156166666665, "fusion_lon": 0.0, "fusion_lat": 0.0, "type": "electric_bike", "name": "84e1209fc825cf821aa7b62d7cb95552", "is_disabled": 0, "rental_uris": {"ios": "https://dc.lft.to/lastmile_qr_scan", "android": "https://dc.lft.to/lastmile_qr_scan"}, "is_reserved": 0}, {"lon": -76.96091783333334, "bike_id": "968efb15d51ef759a2f322a5cd7c9f1c", "lat": 38.918601, "fusion_lon": 0.0, "fusion_lat": 0.0, "type": "electric_bike", "name": "968efb15d51ef759a2f322a5cd7c9f1c", "is_disabled": 0, "rental_uris": {"ios": "https://dc.lft.to/lastmile_qr_scan", "android": "https://dc.lft.to/lastmile_qr_scan"}, "is_reserved": 0}, {"lon": -76.98801466666667, "bike_id": "5839d1dd774928e97a84eee3ae952285", "lat": 38.86727, "fusion_lon": 0.0, "fusion_lat": 0.0, "type": "electric_scooter", "name": "5839d1dd774928e97a84eee3ae952285", "is_disabled": 0, "rental_uris": {"ios": "https://dc.lft.to/lastmile_qr_scan", "android": "https://dc.lft.to/lastmile_qr_scan"}, "is_reserved": 0}, {"lon": -77.04681, "bike_id": "7c187aa084a81bc130c2f2d2be5ad4e2", "lat": 38.8922255, "fusion_lon": 0.0, "fusion_lat": 0.0, "type": "electric_scooter", "name": "7c187aa084a81bc130c2f2d2be5ad4e2", "is_disabled": 0, "rental_uris": {"ios": "https://dc.lft.to/lastmile_qr_scan", "android": "https://dc.lft.to/lastmile_qr_scan"}, "is_reserved": 0}, {"lon": -77.071116, "bike_id": "9fb606efe9fa2457716e7ec280172ed6", "lat": 38.919805, "fusion_lon": 0.0, "fusion_lat": 0.0, "type": "electric_scooter", "name": "9fb606efe9fa2457716e7ec280172ed6", "is_disabled": 0, "rental_uris": {"ios": "https://dc.lft.to/lastmile_qr_scan", "android": "https://dc.lft.to/lastmile_qr_scan"}, "is_reserved": 0}, {"lon": -77.02936433333333, "bike_id": "9b4c582752d5fa871208e728b4a6d960", "lat": 38.92064466666667, "fusion_lon": 0.0, "fusion_lat": 0.0, "type": "electric_scooter", "name": "9b4c582752d5fa871208e728b4a6d960", "is_disabled": 0, "rental_uris": {"ios": "https://dc.lft.to/lastmile_qr_scan", "android": "https://dc.lft.to/lastmile_qr_scan"}, "is_reserved": 0}, {"lon": -77.033508, "bike_id": "4b4763fe55dad8b035f624d2c796ea7e", "lat": 38.923541666666665, "fusion_lon": 0.0, "fusion_lat": 0.0, "type": "electric_scooter", "name": "4b4763fe55dad8b035f624d2c796ea7e", "is_disabled": 0, "rental_uris": {"ios": "https://dc.lft.to/lastmile_qr_scan", "android": "https://dc.lft.to/lastmile_qr_scan"}, "is_reserved": 0}, {"lon": -77.02890416666666, "bike_id": "a187cf238c6d7c9f694804b1a698fb52", "lat": 38.907259333333336, "fusion_lon": 0.0, "fusion_lat": 0.0, "type": "electric_scooter", "name": "a187cf238c6d7c9f694804b1a698fb52", "is_disabled": 0, "rental_uris": {"ios": "https://dc.lft.to/lastmile_qr_scan", "android": "https://dc.lft.to/lastmile_qr_scan"}, "is_reserved": 0}, {"lon": -77.031142, "bike_id": "ab4336a135ffb9d45f71653114fd4ebb", "lat": 38.91559266666667, "fusion_lon": 0.0, "fusion_lat": 0.0, "type": "electric_scooter", "name": "ab4336a135ffb9d45f71653114fd4ebb", "is_disabled": 0, "rental_uris": {"ios": "https://dc.lft.to/lastmile_qr_scan", "android": "https://dc.lft.to/lastmile_qr_scan"}, "is_reserved": 0}, {"lon": -76.9943555, "bike_id": "4f1d4a25bc4dc809866128ee6ed342ae", "lat": 38.93346283333333, "fusion_lon": 0.0, "fusion_lat": 0.0, "type": "electric_scooter", "name": "4f1d4a25bc4dc809866128ee6ed342ae", "is_disabled": 0, "rental_uris": {"ios": "https://dc.lft.to/lastmile_qr_scan", "android": "https://dc.lft.to/lastmile_qr_scan"}, "is_reserved": 0}, {"lon": -77.0551855, "bike_id": "8083181e9fdc48001475eb4532df844c", "lat": 38.899942833333334, "fusion_lon": 0.0, "fusion_lat": 0.0, "type": "electric_scooter", "name": "8083181e9fdc48001475eb4532df844c", "is_disabled": 0, "rental_uris": {"ios": "https://dc.lft.to/lastmile_qr_scan", "android": "https://dc.lft.to/lastmile_qr_scan"}, "is_reserved": 0}, {"lon": -77.07929683333333, "bike_id": "e52a731d5b3c4da2fb686dced377d472", "lat": 38.9309025, "fusion_lon": 0.0, "fusion_lat": 0.0, "type": "electric_scooter", "name": "e52a731d5b3c4da2fb686dced377d472", "is_disabled": 0, "rental_uris": {"ios": "https://dc.lft.to/lastmile_qr_scan", "android": "https://dc.lft.to/lastmile_qr_scan"}, "is_reserved": 0}, {"lon": -77.02927, "bike_id": "94cbd1b1c1fa333674b291828cf52277", "lat": 38.93454583333333, "fusion_lon": 0.0, "fusion_lat": 0.0, "type": "electric_scooter", "name": "94cbd1b1c1fa333674b291828cf52277", "is_disabled": 0, "rental_uris": {"ios": "https://dc.lft.to/lastmile_qr_scan", "android": "https://dc.lft.to/lastmile_qr_scan"}, "is_reserved": 0}, {"lon": -77.03827433333333, "bike_id": "1ebdf8cb774978546f887b74ecf28295", "lat": 38.90678066666667, "fusion_lon": 0.0, "fusion_lat": 0.0, "type": "electric_scooter", "name": "1ebdf8cb774978546f887b74ecf28295", "is_disabled": 0, "rental_uris": {"ios": "https://dc.lft.to/lastmile_qr_scan", "android": "https://dc.lft.to/lastmile_qr_scan"}, "is_reserved": 0}, {"lon": -77.024475, "bike_id": "e0dedfa5c1ea40014d02e1874ba506c2", "lat": 38.9249895, "fusion_lon": 0.0, "fusion_lat": 0.0, "type": "electric_scooter", "name": "e0dedfa5c1ea40014d02e1874ba506c2", "is_disabled": 0, "rental_uris": {"ios": "https://dc.lft.to/lastmile_qr_scan", "android": "https://dc.lft.to/lastmile_qr_scan"}, "is_reserved": 0}, {"lon": -76.98147283333333, "bike_id": "0319d4a5e972b04c6c2c1fc2400641cf", "lat": 38.903172, "fusion_lon": 0.0, "fusion_lat": 0.0, "type": "electric_scooter", "name": "0319d4a5e972b04c6c2c1fc2400641cf", "is_disabled": 0, "rental_uris": {"ios": "https://dc.lft.to/lastmile_qr_scan", "android": "https://dc.lft.to/lastmile_qr_scan"}, "is_reserved": 0}, {"lon": -76.976735, "bike_id": "3d604898c98c76b99b857b0c0301bab9", "lat": 38.952416, "fusion_lon": 0.0, "fusion_lat": 0.0, "type": "electric_bike", "name": "3d604898c98c76b99b857b0c0301bab9", "is_disabled": 0, "rental_uris": {"ios": "https://dc.lft.to/lastmile_qr_scan", "android": "https://dc.lft.to/lastmile_qr_scan"}, "is_reserved": 0}, {"lon": -76.98866783333334, "bike_id": "ba575bd52856d79cb5125d7da9f363e8", "lat": 38.891736333333334, "fusion_lon": 0.0, "fusion_lat": 0.0, "type": "electric_scooter", "name": "ba575bd52856d79cb5125d7da9f363e8", "is_disabled": 0, "rental_uris": {"ios": "https://dc.lft.to/lastmile_qr_scan", "android": "https://dc.lft.to/lastmile_qr_scan"}, "is_reserved": 0}, {"lon": -77.04100233333334, "bike_id": "fb406974743b90afa328b0e469a5a022", "lat": 38.908824833333334, "fusion_lon": 0.0, "fusion_lat": 0.0, "type": "electric_scooter", "name": "fb406974743b90afa328b0e469a5a022", "is_disabled": 0, "rental_uris": {"ios": "https://dc.lft.to/lastmile_qr_scan", "android": "https://dc.lft.to/lastmile_qr_scan"}, "is_reserved": 0}, {"lon": -77.02307866666666, "bike_id": "3536145eee647c34b98f1e8e7a95f562", "lat": 38.918322333333336, "fusion_lon": 0.0, "fusion_lat": 0.0, "type": "electric_scooter", "name": "3536145eee647c34b98f1e8e7a95f562", "is_disabled": 0, "rental_uris": {"ios": "https://dc.lft.to/lastmile_qr_scan", "android": "https://dc.lft.to/lastmile_qr_scan"}, "is_reserved": 0}, {"lon": -77.04721766666667, "bike_id": "684fb9eb5bffbe5e5f783c6b5981d1d0", "lat": 38.90323633333333, "fusion_lon": 0.0, "fusion_lat": 0.0, "type": "electric_scooter", "name": "684fb9eb5bffbe5e5f783c6b5981d1d0", "is_disabled": 0, "rental_uris": {"ios": "https://dc.lft.to/lastmile_qr_scan", "android": "https://dc.lft.to/lastmile_qr_scan"}, "is_reserved": 0}, {"lon": -77.0513245, "bike_id": "21fe2c200204e0e81ee57e0a9c700b8e", "lat": 38.92364116666667, "fusion_lon": 0.0, "fusion_lat": 0.0, "type": "electric_scooter", "name": "21fe2c200204e0e81ee57e0a9c700b8e", "is_disabled": 0, "rental_uris": {"ios": "https://dc.lft.to/lastmile_qr_scan", "android": "https://dc.lft.to/lastmile_qr_scan"}, "is_reserved": 0}, {"lon": -77.02207083333333, "bike_id": "5c53461f5e51a0ab2da8abd4c42b2118", "lat": 38.91413566666667, "fusion_lon": 0.0, "fusion_lat": 0.0, "type": "electric_scooter", "name": "5c53461f5e51a0ab2da8abd4c42b2118", "is_disabled": 0, "rental_uris": {"ios": "https://dc.lft.to/lastmile_qr_scan", "android": "https://dc.lft.to/lastmile_qr_scan"}, "is_reserved": 0}, {"lon": -76.9459215, "bike_id": "a2bd088695038d3012e89db3a11f0b77", "lat": 38.90149, "fusion_lon": 0.0, "fusion_lat": 0.0, "type": "electric_scooter", "name": "a2bd088695038d3012e89db3a11f0b77", "is_disabled": 0, "rental_uris": {"ios": "https://dc.lft.to/lastmile_qr_scan", "android": "https://dc.lft.to/lastmile_qr_scan"}, "is_reserved": 0}, {"lon": -77.0282865, "bike_id": "4813c49f838bacd7238b7c6a6fc8a299", "lat": 38.887291833333336, "fusion_lon": 0.0, "fusion_lat": 0.0, "type": "electric_scooter", "name": "4813c49f838bacd7238b7c6a6fc8a299", "is_disabled": 0, "rental_uris": {"ios": "https://dc.lft.to/lastmile_qr_scan", "android": "https://dc.lft.to/lastmile_qr_scan"}, "is_reserved": 0}, {"lon": -77.03268966666667, "bike_id": "80c3aa076d912e4484c9f36eee0692c7", "lat": 38.90148966666667, "fusion_lon": 0.0, "fusion_lat": 0.0, "type": "electric_scooter", "name": "80c3aa076d912e4484c9f36eee0692c7", "is_disabled": 0, "rental_uris": {"ios": "https://dc.lft.to/lastmile_qr_scan", "android": "https://dc.lft.to/lastmile_qr_scan"}, "is_reserved": 0}, {"lon": -77.02728366666666, "bike_id": "b0bfb3cf43b7d80d498ed85153418349", "lat": 38.897315666666664, "fusion_lon": 0.0, "fusion_lat": 0.0, "type": "electric_scooter", "name": "b0bfb3cf43b7d80d498ed85153418349", "is_disabled": 0, "rental_uris": {"ios": "https://dc.lft.to/lastmile_qr_scan", "android": "https://dc.lft.to/lastmile_qr_scan"}, "is_reserved": 0}, {"lon": -76.99040616666667, "bike_id": "cb0744ab2057c2fe1c81803b6eaebc15", "lat": 38.88879583333333, "fusion_lon": 0.0, "fusion_lat": 0.0, "type": "electric_scooter", "name": "cb0744ab2057c2fe1c81803b6eaebc15", "is_disabled": 0, "rental_uris": {"ios": "https://dc.lft.to/lastmile_qr_scan", "android": "https://dc.lft.to/lastmile_qr_scan"}, "is_reserved": 0}, {"lon": -76.93187983333334, "bike_id": "fedd0ef72bbab2172afd0df6aaa6dd4d", "lat": 38.898748499999996, "fusion_lon": 0.0, "fusion_lat": 0.0, "type": "electric_scooter", "name": "fedd0ef72bbab2172afd0df6aaa6dd4d", "is_disabled": 0, "rental_uris": {"ios": "https://dc.lft.to/lastmile_qr_scan", "android": "https://dc.lft.to/lastmile_qr_scan"}, "is_reserved": 0}, {"lon": -77.02712433333333, "bike_id": "68ae8650cb95932e6b897ca75e37c042", "lat": 38.92466016666667, "fusion_lon": 0.0, "fusion_lat": 0.0, "type": "electric_scooter", "name": "68ae8650cb95932e6b897ca75e37c042", "is_disabled": 0, "rental_uris": {"ios": "https://dc.lft.to/lastmile_qr_scan", "android": "https://dc.lft.to/lastmile_qr_scan"}, "is_reserved": 0}, {"lon": -76.97398733333333, "bike_id": "2053466d390c163ec16fb5564173d237", "lat": 38.903000666666664, "fusion_lon": 0.0, "fusion_lat": 0.0, "type": "electric_scooter", "name": "2053466d390c163ec16fb5564173d237", "is_disabled": 0, "rental_uris": {"ios": "https://dc.lft.to/lastmile_qr_scan", "android": "https://dc.lft.to/lastmile_qr_scan"}, "is_reserved": 0}, {"lon": -77.03213866666667, "bike_id": "3988a91667dd3a3b684a8f0051601906", "lat": 38.91479833333333, "fusion_lon": 0.0, "fusion_lat": 0.0, "type": "electric_scooter", "name": "3988a91667dd3a3b684a8f0051601906", "is_disabled": 0, "rental_uris": {"ios": "https://dc.lft.to/lastmile_qr_scan", "android": "https://dc.lft.to/lastmile_qr_scan"}, "is_reserved": 0}, {"lon": -77.02095166666666, "bike_id": "c95be20a52ac4332a165641f1af12e32", "lat": 38.88505766666667, "fusion_lon": 0.0, "fusion_lat": 0.0, "type": "electric_scooter", "name": "c95be20a52ac4332a165641f1af12e32", "is_disabled": 0, "rental_uris": {"ios": "https://dc.lft.to/lastmile_qr_scan", "android": "https://dc.lft.to/lastmile_qr_scan"}, "is_reserved": 0}, {"lon": -77.084885, "bike_id": "10b6a7132bf23ca42d3eb8d576cef5d1", "lat": 38.848474333333336, "fusion_lon": 0.0, "fusion_lat": 0.0, "type": "electric_bike", "name": "10b6a7132bf23ca42d3eb8d576cef5d1", "is_disabled": 0, "rental_uris": {"ios": "https://dc.lft.to/lastmile_qr_scan", "android": "https://dc.lft.to/lastmile_qr_scan"}, "is_reserved": 0}, {"lon": -76.9891845, "bike_id": "add5842737e3bf32118b5f61d1e0d072", "lat": 38.864885, "fusion_lon": 0.0, "fusion_lat": 0.0, "type": "electric_scooter", "name": "add5842737e3bf32118b5f61d1e0d072", "is_disabled": 0, "rental_uris": {"ios": "https://dc.lft.to/lastmile_qr_scan", "android": "https://dc.lft.to/lastmile_qr_scan"}, "is_reserved": 0}, {"lon": -77.0393915, "bike_id": "52a5be13ed985ca576a2b8e6e1a3f80d", "lat": 38.924912, "fusion_lon": 0.0, "fusion_lat": 0.0, "type": "electric_scooter", "name": "52a5be13ed985ca576a2b8e6e1a3f80d", "is_disabled": 0, "rental_uris": {"ios": "https://dc.lft.to/lastmile_qr_scan", "android": "https://dc.lft.to/lastmile_qr_scan"}, "is_reserved": 0}, {"lon": -77.04273483333333, "bike_id": "dc133e942086446f34d22caaf771a2a4", "lat": 38.900112166666666, "fusion_lon": 0.0, "fusion_lat": 0.0, "type": "electric_scooter", "name": "dc133e942086446f34d22caaf771a2a4", "is_disabled": 0, "rental_uris": {"ios": "https://dc.lft.to/lastmile_qr_scan", "android": "https://dc.lft.to/lastmile_qr_scan"}, "is_reserved": 0}, {"lon": -77.0088935, "bike_id": "c5880143c1a02f757bfacebdfb52cf73", "lat": 38.9612295, "fusion_lon": 0.0, "fusion_lat": 0.0, "type": "electric_scooter", "name": "c5880143c1a02f757bfacebdfb52cf73", "is_disabled": 0, "rental_uris": {"ios": "https://dc.lft.to/lastmile_qr_scan", "android": "https://dc.lft.to/lastmile_qr_scan"}, "is_reserved": 0}, {"lon": -77.04461566666667, "bike_id": "9299b2d9fdd0d40e37371511bf9dc9e9", "lat": 38.92431766666667, "fusion_lon": 0.0, "fusion_lat": 0.0, "type": "electric_scooter", "name": "9299b2d9fdd0d40e37371511bf9dc9e9", "is_disabled": 0, "rental_uris": {"ios": "https://dc.lft.to/lastmile_qr_scan", "android": "https://dc.lft.to/lastmile_qr_scan"}, "is_reserved": 0}, {"lon": -77.02304966666667, "bike_id": "388bbd49078385528bf45474b16a4128", "lat": 38.915941833333335, "fusion_lon": 0.0, "fusion_lat": 0.0, "type": "electric_bike", "name": "388bbd49078385528bf45474b16a4128", "is_disabled": 0, "rental_uris": {"ios": "https://dc.lft.to/lastmile_qr_scan", "android": "https://dc.lft.to/lastmile_qr_scan"}, "is_reserved": 0}, {"lon": -77.04242216666667, "bike_id": "dcc21e60256a80e91f3efe4a9544c83d", "lat": 38.90961183333334, "fusion_lon": 0.0, "fusion_lat": 0.0, "type": "electric_scooter", "name": "dcc21e60256a80e91f3efe4a9544c83d", "is_disabled": 0, "rental_uris": {"ios": "https://dc.lft.to/lastmile_qr_scan", "android": "https://dc.lft.to/lastmile_qr_scan"}, "is_reserved": 0}, {"lon": -77.00597183333333, "bike_id": "2670f6265688b219da196b6a37e369ab", "lat": 38.87181266666666, "fusion_lon": 0.0, "fusion_lat": 0.0, "type": "electric_bike", "name": "2670f6265688b219da196b6a37e369ab", "is_disabled": 0, "rental_uris": {"ios": "https://dc.lft.to/lastmile_qr_scan", "android": "https://dc.lft.to/lastmile_qr_scan"}, "is_reserved": 0}, {"lon": -77.02430716666667, "bike_id": "0aff70bc91c45b49e5bdc32777a14775", "lat": 38.9229295, "fusion_lon": 0.0, "fusion_lat": 0.0, "type": "electric_scooter", "name": "0aff70bc91c45b49e5bdc32777a14775", "is_disabled": 0, "rental_uris": {"ios": "https://dc.lft.to/lastmile_qr_scan", "android": "https://dc.lft.to/lastmile_qr_scan"}, "is_reserved": 0}, {"lon": -77.06131716666667, "bike_id": "9c495b622f596dc51f4ada8bdf30fbb6", "lat": 38.9435655, "fusion_lon": 0.0, "fusion_lat": 0.0, "type": "electric_scooter", "name": "9c495b622f596dc51f4ada8bdf30fbb6", "is_disabled": 0, "rental_uris": {"ios": "https://dc.lft.to/lastmile_qr_scan", "android": "https://dc.lft.to/lastmile_qr_scan"}, "is_reserved": 0}, {"lon": -77.03586716666666, "bike_id": "f8917135bfde0d32aa66228f06ec9e6b", "lat": 38.909662, "fusion_lon": 0.0, "fusion_lat": 0.0, "type": "electric_scooter", "name": "f8917135bfde0d32aa66228f06ec9e6b", "is_disabled": 0, "rental_uris": {"ios": "https://dc.lft.to/lastmile_qr_scan", "android": "https://dc.lft.to/lastmile_qr_scan"}, "is_reserved": 0}, {"lon": -77.0019245, "bike_id": "6f6fa2bb48fd70a089f3c253135b5642", "lat": 38.891002666666665, "fusion_lon": 0.0, "fusion_lat": 0.0, "type": "electric_scooter", "name": "6f6fa2bb48fd70a089f3c253135b5642", "is_disabled": 0, "rental_uris": {"ios": "https://dc.lft.to/lastmile_qr_scan", "android": "https://dc.lft.to/lastmile_qr_scan"}, "is_reserved": 0}, {"lon": -77.07794966666667, "bike_id": "05f73a9b6de65d00d4c57b41fb2a2f83", "lat": 38.99604216666667, "fusion_lon": 0.0, "fusion_lat": 0.0, "type": "electric_bike", "name": "05f73a9b6de65d00d4c57b41fb2a2f83", "is_disabled": 0, "rental_uris": {"ios": "https://dc.lft.to/lastmile_qr_scan", "android": "https://dc.lft.to/lastmile_qr_scan"}, "is_reserved": 0}, {"lon": -77.04972416666666, "bike_id": "9782528b452fe7b8bf79e76926622d4f", "lat": 38.899782, "fusion_lon": 0.0, "fusion_lat": 0.0, "type": "electric_scooter", "name": "9782528b452fe7b8bf79e76926622d4f", "is_disabled": 0, "rental_uris": {"ios": "https://dc.lft.to/lastmile_qr_scan", "android": "https://dc.lft.to/lastmile_qr_scan"}, "is_reserved": 0}, {"lon": -77.05271816666666, "bike_id": "27183b990839be21a06c41859dbcdfd5", "lat": 38.899683333333336, "fusion_lon": 0.0, "fusion_lat": 0.0, "type": "electric_scooter", "name": "27183b990839be21a06c41859dbcdfd5", "is_disabled": 0, "rental_uris": {"ios": "https://dc.lft.to/lastmile_qr_scan", "android": "https://dc.lft.to/lastmile_qr_scan"}, "is_reserved": 0}, {"lon": -76.95331883333333, "bike_id": "503b51cba374fb15e334d37e85706310", "lat": 38.889332, "fusion_lon": 0.0, "fusion_lat": 0.0, "type": "electric_scooter", "name": "503b51cba374fb15e334d37e85706310", "is_disabled": 0, "rental_uris": {"ios": "https://dc.lft.to/lastmile_qr_scan", "android": "https://dc.lft.to/lastmile_qr_scan"}, "is_reserved": 0}, {"lon": -77.03001433333333, "bike_id": "8efe307e4a5edd185838db78a29ab3ac", "lat": 39.04195583333333, "fusion_lon": 0.0, "fusion_lat": 0.0, "type": "electric_bike", "name": "8efe307e4a5edd185838db78a29ab3ac", "is_disabled": 0, "rental_uris": {"ios": "https://dc.lft.to/lastmile_qr_scan", "android": "https://dc.lft.to/lastmile_qr_scan"}, "is_reserved": 0}, {"lon": -77.02450583333334, "bike_id": "698fe2da620f7df15eaeee4ee66f5158", "lat": 38.9373515, "fusion_lon": 0.0, "fusion_lat": 0.0, "type": "electric_scooter", "name": "698fe2da620f7df15eaeee4ee66f5158", "is_disabled": 0, "rental_uris": {"ios": "https://dc.lft.to/lastmile_qr_scan", "android": "https://dc.lft.to/lastmile_qr_scan"}, "is_reserved": 0}, {"lon": -77.0248015, "bike_id": "3f09fabb9386066660041fd9b5252881", "lat": 38.903913333333335, "fusion_lon": 0.0, "fusion_lat": 0.0, "type": "electric_scooter", "name": "3f09fabb9386066660041fd9b5252881", "is_disabled": 0, "rental_uris": {"ios": "https://dc.lft.to/lastmile_qr_scan", "android": "https://dc.lft.to/lastmile_qr_scan"}, "is_reserved": 0}, {"lon": -76.97745866666666, "bike_id": "3ec45704c37da79ab9b2211e5db94ae4", "lat": 38.89898, "fusion_lon": 0.0, "fusion_lat": 0.0, "type": "electric_scooter", "name": "3ec45704c37da79ab9b2211e5db94ae4", "is_disabled": 0, "rental_uris": {"ios": "https://dc.lft.to/lastmile_qr_scan", "android": "https://dc.lft.to/lastmile_qr_scan"}, "is_reserved": 0}, {"lon": -77.043875, "bike_id": "607ad41f1de7e1b32392e14bda6046cb", "lat": 38.905852, "fusion_lon": 0.0, "fusion_lat": 0.0, "type": "electric_scooter", "name": "607ad41f1de7e1b32392e14bda6046cb", "is_disabled": 0, "rental_uris": {"ios": "https://dc.lft.to/lastmile_qr_scan", "android": "https://dc.lft.to/lastmile_qr_scan"}, "is_reserved": 0}, {"lon": -77.01984933333334, "bike_id": "827e640e7145983ff4f463c98882132f", "lat": 38.88604516666667, "fusion_lon": 0.0, "fusion_lat": 0.0, "type": "electric_scooter", "name": "827e640e7145983ff4f463c98882132f", "is_disabled": 0, "rental_uris": {"ios": "https://dc.lft.to/lastmile_qr_scan", "android": "https://dc.lft.to/lastmile_qr_scan"}, "is_reserved": 0}, {"lon": -77.04554683333333, "bike_id": "ed429bd2d0ce210247e833eece2b4a8c", "lat": 38.9134515, "fusion_lon": 0.0, "fusion_lat": 0.0, "type": "electric_scooter", "name": "ed429bd2d0ce210247e833eece2b4a8c", "is_disabled": 0, "rental_uris": {"ios": "https://dc.lft.to/lastmile_qr_scan", "android": "https://dc.lft.to/lastmile_qr_scan"}, "is_reserved": 0}, {"lon": -76.99483566666666, "bike_id": "6daa849380b8d885c56d04c2a9739025", "lat": 38.89739733333333, "fusion_lon": 0.0, "fusion_lat": 0.0, "type": "electric_scooter", "name": "6daa849380b8d885c56d04c2a9739025", "is_disabled": 0, "rental_uris": {"ios": "https://dc.lft.to/lastmile_qr_scan", "android": "https://dc.lft.to/lastmile_qr_scan"}, "is_reserved": 0}, {"lon": -77.02159533333334, "bike_id": "13de81b8c33495dc1b1c5919bc13c5af", "lat": 38.8972465, "fusion_lon": 0.0, "fusion_lat": 0.0, "type": "electric_scooter", "name": "13de81b8c33495dc1b1c5919bc13c5af", "is_disabled": 0, "rental_uris": {"ios": "https://dc.lft.to/lastmile_qr_scan", "android": "https://dc.lft.to/lastmile_qr_scan"}, "is_reserved": 0}, {"lon": -77.02914533333333, "bike_id": "e2b7e1c4a744cec676114e0011008913", "lat": 38.94030266666667, "fusion_lon": 0.0, "fusion_lat": 0.0, "type": "electric_scooter", "name": "e2b7e1c4a744cec676114e0011008913", "is_disabled": 0, "rental_uris": {"ios": "https://dc.lft.to/lastmile_qr_scan", "android": "https://dc.lft.to/lastmile_qr_scan"}, "is_reserved": 0}, {"lon": -77.02903083333334, "bike_id": "41664fe865bfa2624cdea895653ba485", "lat": 38.928213666666664, "fusion_lon": 0.0, "fusion_lat": 0.0, "type": "electric_scooter", "name": "41664fe865bfa2624cdea895653ba485", "is_disabled": 0, "rental_uris": {"ios": "https://dc.lft.to/lastmile_qr_scan", "android": "https://dc.lft.to/lastmile_qr_scan"}, "is_reserved": 0}, {"lon": -77.026146, "bike_id": "b7ee736cc30f4e20f568d4c8f7f335f5", "lat": 38.8836275, "fusion_lon": 0.0, "fusion_lat": 0.0, "type": "electric_scooter", "name": "b7ee736cc30f4e20f568d4c8f7f335f5", "is_disabled": 0, "rental_uris": {"ios": "https://dc.lft.to/lastmile_qr_scan", "android": "https://dc.lft.to/lastmile_qr_scan"}, "is_reserved": 0},