{"data": {"bikes": [{"rental_uris": {"ios": "https://dc.lft.to/lastmile_qr_scan", "android": "https://dc.lft.to/lastmile_qr_scan"}, "name": "4fbe63f14853e290375afdc47c5da08c", "is_disabled": 0, "fusion_lon": 0.0, "fusion_lat": 0.0, "lon": -77.02030783333333, "bike_id": "4fbe63f14853e290375afdc47c5da08c", "lat": 38.9240815, "is_reserved": 0, "type": "electric_scooter"}, {"rental_uris": {"ios": "https://dc.lft.to/lastmile_qr_scan", "android": "https://dc.lft.to/lastmile_qr_scan"}, "name": "0131e203250d99f9f2456f61cb1670d5", "is_disabled": 0, "fusion_lon": 0.0, "fusion_lat": 0.0, "lon": -77.02291833333334, "bike_id": "0131e203250d99f9f2456f61cb1670d5", "lat": 38.9667415, "is_reserved": 0, "type": "electric_bike"}, {"rental_uris": {"ios": "https://dc.lft.to/lastmile_qr_scan", "android": "https://dc.lft.to/lastmile_qr_scan"}, "name": "92d81d36f5769625bc971a7128ae5d09", "is_disabled": 0, "fusion_lon": 0.0, "fusion_lat": 0.0, "lon": -77.0316255, "bike_id": "92d81d36f5769625bc971a7128ae5d09", "lat": 38.89887083333333, "is_reserved": 0, "type": "electric_scooter"}, {"rental_uris": {"ios": "https://dc.lft.to/lastmile_qr_scan", "android": "https://dc.lft.to/lastmile_qr_scan"}, "name": "7503af02593f46f097e18ed190c1337c", "is_disabled": 0, "fusion_lon": 0.0, "fusion_lat": 0.0, "lon": -76.98237916666666, "bike_id": "7503af02593f46f097e18ed190c1337c", "lat": 38.908910166666665, "is_reserved": 0, "type": "electric_scooter"}, {"rental_uris": {"ios": "https://dc.lft.to/lastmile_qr_scan", "android": "https://dc.lft.to/lastmile_qr_scan"}, "name": "fb97f3dc5b259309a0c4f3e61e50fe90", "is_disabled": 0, "fusion_lon": 0.0, "fusion_lat": 0.0, "lon": -76.93224033333334, "bike_id": "fb97f3dc5b259309a0c4f3e61e50fe90", "lat": 38.880578, "is_reserved": 0, "type": "electric_scooter"}, {"rental_uris": {"ios": "https://dc.lft.to/lastmile_qr_scan", "android": "https://dc.lft.to/lastmile_qr_scan"}, "name": "1ae14042d429c06143faaea4472fa664", "is_disabled": 0, "fusion_lon": 0.0, "fusion_lat": 0.0, "lon": -77.02667816666667, "bike_id": "1ae14042d429c06143faaea4472fa664", "lat": 38.89610783333333, "is_reserved": 0, "type": "electric_scooter"}, {"rental_uris": {"ios": "https://dc.lft.to/lastmile_qr_scan", "android": "https://dc.lft.to/lastmile_qr_scan"}, "name": "91b532620e5f1fe1d61d4736100be4a0", "is_disabled": 0, "fusion_lon": 0.0, "fusion_lat": 0.0, "lon": -77.02724066666667, "bike_id": "91b532620e5f1fe1d61d4736100be4a0", "lat": 38.9180955, "is_reserved": 0, "type": "electric_scooter"}, {"rental_uris": {"ios": "https://dc.lft.to/lastmile_qr_scan", "android": "https://dc.lft.to/lastmile_qr_scan"}, "name": "978f7dac6cf21892031c8f6cd8e16fe8", "is_disabled": 0, "fusion_lon": 0.0, "fusion_lat": 0.0, "lon": -76.98857733333334, "bike_id": "978f7dac6cf21892031c8f6cd8e16fe8", "lat": 38.90028816666667, "is_reserved": 0, "type": "electric_scooter"}, {"rental_uris": {"ios": "https://dc.lft.to/lastmile_qr_scan", "android": "https://dc.lft.to/lastmile_qr_scan"}, "name": "56d96c92b5f9f45e94492673b01311d6", "is_disabled": 0, "fusion_lon": 0.0, "fusion_lat": 0.0, "lon": -77.06001466666666, "bike_id": "56d96c92b5f9f45e94492673b01311d6", "lat": 38.927105, "is_reserved": 0, "type": "electric_scooter"}, {"rental_uris": {"ios": "https://dc.lft.to/lastmile_qr_scan", "android": "https://dc.lft.to/lastmile_qr_scan"}, "name": "3acdff4a82023b7794c684dff991d0cd", "is_disabled": 0, "fusion_lon": 0.0, "fusion_lat": 0.0, "lon": -77.043417, "bike_id": "3acdff4a82023b7794c684dff991d0cd", "lat": 38.90414533333333, "is_reserved": 0, "type": "electric_scooter"}, {"rental_uris": {"ios": "https://dc.lft.to/lastmile_qr_scan", "android": "https://dc.lft.to/lastmile_qr_scan"}, "name": "c15336a15066398e13e4b725f55933d5", "is_disabled": 0, "fusion_lon": 0.0, "fusion_lat": 0.0, "lon": -77.02249383333333, "bike_id": "c15336a15066398e13e4b725f55933d5", "lat": 38.92289683333333, "is_reserved": 0, "type": "electric_scooter"}, {"rental_uris": {"ios": "https://dc.lft.to/lastmile_qr_scan", "android": "https://dc.lft.to/lastmile_qr_scan"}, "name": "86b2a23102f45fdf86384805f267ff33", "is_disabled": 0, "fusion_lon": 0.0, "fusion_lat": 0.0, "lon": -77.0309975, "bike_id": "86b2a23102f45fdf86384805f267ff33", "lat": 38.917043, "is_reserved": 0, "type": "electric_scooter"}, {"rental_uris": {"ios": "https://dc.lft.to/lastmile_qr_scan", "android": "https://dc.lft.to/lastmile_qr_scan"}, "name": "5aa6ace12ad68d867e48ab1960c07c04", "is_disabled": 0, "fusion_lon": 0.0, "fusion_lat": 0.0, "lon": -77.0716695, "bike_id": "5aa6ace12ad68d867e48ab1960c07c04", "lat": 38.92069683333333, "is_reserved": 0, "type": "electric_scooter"}, {"rental_uris": {"ios": "https://dc.lft.to/lastmile_qr_scan", "android": "https://dc.lft.to/lastmile_qr_scan"}, "name": "8b98724f01f7febd2f1de71430145b60", "is_disabled": 0, "fusion_lon": 0.0, "fusion_lat": 0.0, "lon": -77.02877416666666, "bike_id": "8b98724f01f7febd2f1de71430145b60", "lat": 38.916380833333335, "is_reserved": 0, "type": "electric_scooter"}, {"rental_uris": {"ios": "https://dc.lft.to/lastmile_qr_scan", "android": "https://dc.lft.to/lastmile_qr_scan"}, "name": "5e40ad2ec815662518ee6bbd96093f88", "is_disabled": 0, "fusion_lon": 0.0, "fusion_lat": 0.0, "lon": -77.002633, "bike_id": "5e40ad2ec815662518ee6bbd96093f88", "lat": 38.952166, "is_reserved": 0, "type": "electric_bike"}, {"rental_uris": {"ios": "https://dc.lft.to/lastmile_qr_scan", "android": "https://dc.lft.to/lastmile_qr_scan"}, "name": "d30397599f844be27255319cf00515cf", "is_disabled": 0, "fusion_lon": 0.0, "fusion_lat": 0.0, "lon": -77.03008566666666, "bike_id": "d30397599f844be27255319cf00515cf", "lat": 38.9035395, "is_reserved": 0, "type": "electric_scooter"}, {"rental_uris": {"ios": "https://dc.lft.to/lastmile_qr_scan", "android": "https://dc.lft.to/lastmile_qr_scan"}, "name": "2d397e3160fd5173ca7ef7052f5b580a", "is_disabled": 0, "fusion_lon": 0.0, "fusion_lat": 0.0, "lon": -77.01716866666666, "bike_id": "2d397e3160fd5173ca7ef7052f5b580a", "lat": 38.9748475, "is_reserved": 0, "type": "electric_scooter"}, {"rental_uris": {"ios": "https://dc.lft.to/lastmile_qr_scan", "android": "https://dc.lft.to/lastmile_qr_scan"}, "name": "9861c7797a17e5f2331fa8d3aee81666", "is_disabled": 0, "fusion_lon": 0.0, "fusion_lat": 0.0, "lon": -76.99263416666666, "bike_id": "9861c7797a17e5f2331fa8d3aee81666", "lat": 38.93761283333333, "is_reserved": 0, "type": "electric_scooter"}, {"rental_uris": {"ios": "https://dc.lft.to/lastmile_qr_scan", "android": "https://dc.lft.to/lastmile_qr_scan"}, "name": "a60750e82b8a24d14ad4929edc90b4b5", "is_disabled": 0, "fusion_lon": 0.0, "fusion_lat": 0.0, "lon": -77.02316383333333, "bike_id": "a60750e82b8a24d14ad4929edc90b4b5", "lat": 38.920755, "is_reserved": 0, "type": "electric_scooter"}, {"rental_uris": {"ios": "https://dc.lft.to/lastmile_qr_scan", "android": "https://dc.lft.to/lastmile_qr_scan"}, "name": "07d934b6b42ab656dcabe9dec84e310f", "is_disabled": 0, "fusion_lon": 0.0, "fusion_lat": 0.0, "lon": -77.04474633333334, "bike_id": "07d934b6b42ab656dcabe9dec84e310f", "lat": 38.89827283333333, "is_reserved": 0, "type": "electric_scooter"}, {"rental_uris": {"ios": "https://dc.lft.to/lastmile_qr_scan", "android": "https://dc.lft.to/lastmile_qr_scan"}, "name": "a5354b830deb87606bf7756f35f89967", "is_disabled": 0, "fusion_lon": 0.0, "fusion_lat": 0.0, "lon": -77.037652, "bike_id": "a5354b830deb87606bf7756f35f89967", "lat": 38.916861, "is_reserved": 0, "type": "electric_scooter"}, {"rental_uris": {"ios": "https://dc.lft.to/lastmile_qr_scan", "android": "https://dc.lft.to/lastmile_qr_scan"}, "name": "82a544438117ff0791984d87cd35b212", "is_disabled": 0, "fusion_lon": 0.0, "fusion_lat": 0.0, "lon": -77.04158016666666, "bike_id": "82a544438117ff0791984d87cd35b212", "lat": 38.9171825, "is_reserved": 0, "type": "electric_scooter"}, {"rental_uris": {"ios": "https://dc.lft.to/lastmile_qr_scan", "android": "https://dc.lft.to/lastmile_qr_scan"}, "name": "d85a7371ceda1c27a16d53f0da490188", "is_disabled": 0, "fusion_lon": 0.0, "fusion_lat": 0.0, "lon": -77.01277266666666, "bike_id": "d85a7371ceda1c27a16d53f0da490188", "lat": 38.90951916666667, "is_reserved": 0, "type": "electric_scooter"}, {"rental_uris": {"ios": "https://dc.lft.to/lastmile_qr_scan", "android": "https://dc.lft.to/lastmile_qr_scan"}, "name": "c47f0697a001d09761dc3baff4953aa2", "is_disabled": 0, "fusion_lon": 0.0, "fusion_lat": 0.0, "lon": -77.01667866666666, "bike_id": "c47f0697a001d09761dc3baff4953aa2", "lat": 38.91036583333333, "is_reserved": 0, "type": "electric_scooter"}, {"rental_uris": {"ios": "https://dc.lft.to/lastmile_qr_scan", "android": "https://dc.lft.to/lastmile_qr_scan"}, "name": "2b676a8fa52c3ae90c8cbaeb0869b9c1", "is_disabled": 0, "fusion_lon": 0.0, "fusion_lat": 0.0, "lon": -76.993936, "bike_id": "2b676a8fa52c3ae90c8cbaeb0869b9c1", "lat": 38.910084166666664, "is_reserved": 0, "type": "electric_bike"}, {"rental_uris": {"ios": "https://dc.lft.to/lastmile_qr_scan", "android": "https://dc.lft.to/lastmile_qr_scan"}, "name": "5087b57ed79585cdafd88c796bc8f9bc", "is_disabled": 0, "fusion_lon": 0.0, "fusion_lat": 0.0, "lon": -77.01942783333334, "bike_id": "5087b57ed79585cdafd88c796bc8f9bc", "lat": 38.92420883333333, "is_reserved": 0, "type": "electric_scooter"}, {"rental_uris": {"ios": "https://dc.lft.to/lastmile_qr_scan", "android": "https://dc.lft.to/lastmile_qr_scan"}, "name": "935acd6e84c72325ddbeb280d5990daa", "is_disabled": 0, "fusion_lon": 0.0, "fusion_lat": 0.0, "lon": -77.0211845, "bike_id": "935acd6e84c72325ddbeb280d5990daa", "lat": 38.91739316666666, "is_reserved": 0, "type": "electric_scooter"}, {"rental_uris": {"ios": "https://dc.lft.to/lastmile_qr_scan", "android": "https://dc.lft.to/lastmile_qr_scan"}, "name": "77dda50ff2d12e4406862cb68f93313b", "is_disabled": 0, "fusion_lon": 0.0, "fusion_lat": 0.0, "lon": -76.99403966666667, "bike_id": "77dda50ff2d12e4406862cb68f93313b", "lat": 38.91008, "is_reserved": 0, "type": "electric_scooter"}, {"rental_uris": {"ios": "https://dc.lft.to/lastmile_qr_scan", "android": "https://dc.lft.to/lastmile_qr_scan"}, "name": "844e78ad34165726db530e0a2345320b", "is_disabled": 0, "fusion_lon": 0.0, "fusion_lat": 0.0, "lon": -76.99416883333333, "bike_id": "844e78ad34165726db530e0a2345320b", "lat": 38.920957666666666, "is_reserved": 0, "type": "electric_scooter"}, {"rental_uris": {"ios": "https://dc.lft.to/lastmile_qr_scan", "android": "https://dc.lft.to/lastmile_qr_scan"}, "name": "03956dfe8f5ef2d65c280f23c50400b4", "is_disabled": 0, "fusion_lon": 0.0, "fusion_lat": 0.0, "lon": -77.00724683333334, "bike_id": "03956dfe8f5ef2d65c280f23c50400b4", "lat": 38.911949, "is_reserved": 0, "type": "electric_scooter"}, {"rental_uris": {"ios": "https://dc.lft.to/lastmile_qr_scan", "android": "https://dc.lft.to/lastmile_qr_scan"}, "name": "8954df3a69af0c053a8a6f86e485293c", "is_disabled": 0, "fusion_lon": 0.0, "fusion_lat": 0.0, "lon": -76.98840816666667, "bike_id": "8954df3a69af0c053a8a6f86e485293c", "lat": 38.8910125, "is_reserved": 0, "type": "electric_scooter"}, {"rental_uris": {"ios": "https://dc.lft.to/lastmile_qr_scan", "android": "https://dc.lft.to/lastmile_qr_scan"}, "name": "8a22239106e973d4e4c765bb619f74ea", "is_disabled": 0, "fusion_lon": 0.0, "fusion_lat": 0.0, "lon": -77.01541966666667, "bike_id": "8a22239106e973d4e4c765bb619f74ea", "lat": 38.89372316666667, "is_reserved": 0, "type": "electric_scooter"}, {"rental_uris": {"ios": "https://dc.lft.to/lastmile_qr_scan", "android": "https://dc.lft.to/lastmile_qr_scan"}, "name": "b7ad63f46b0d0f3da512e9b269351c8d", "is_disabled": 0, "fusion_lon": 0.0, "fusion_lat": 0.0, "lon": -77.01225583333333, "bike_id": "b7ad63f46b0d0f3da512e9b269351c8d", "lat": 38.91539566666667, "is_reserved": 0, "type": "electric_scooter"}, {"rental_uris": {"ios": "https://dc.lft.to/lastmile_qr_scan", "android": "https://dc.lft.to/lastmile_qr_scan"}, "name": "8fad00170f76cd3e58c6b6909efefa90", "is_disabled": 0, "fusion_lon": 0.0, "fusion_lat": 0.0, "lon": -77.00027966666667, "bike_id": "8fad00170f76cd3e58c6b6909efefa90", "lat": 38.873911166666666, "is_reserved": 0, "type": "electric_scooter"}, {"rental_uris": {"ios": "https://dc.lft.to/lastmile_qr_scan", "android": "https://dc.lft.to/lastmile_qr_scan"}, "name": "45aacae8fda374e7f44a642395c766d8", "is_disabled": 0, "fusion_lon": 0.0, "fusion_lat": 0.0, "lon": -77.0180885, "bike_id": "45aacae8fda374e7f44a642395c766d8", "lat": 38.919331, "is_reserved": 0, "type": "electric_scooter"}, {"rental_uris": {"ios": "https://dc.lft.to/lastmile_qr_scan", "android": "https://dc.lft.to/lastmile_qr_scan"}, "name": "54d6e0d8b5579b5c32e477d3a785a7c9", "is_disabled": 0, "fusion_lon": 0.0, "fusion_lat": 0.0, "lon": -77.03212816666667, "bike_id": "54d6e0d8b5579b5c32e477d3a785a7c9", "lat": 38.90244466666667, "is_reserved": 0, "type": "electric_scooter"}, {"rental_uris": {"ios": "https://dc.lft.to/lastmile_qr_scan", "android": "https://dc.lft.to/lastmile_qr_scan"}, "name": "d64807a39cc8f3534327b3c291044084", "is_disabled": 0, "fusion_lon": 0.0, "fusion_lat": 0.0, "lon": -77.02062216666667, "bike_id": "d64807a39cc8f3534327b3c291044084", "lat": 38.92373766666667, "is_reserved": 0, "type": "electric_scooter"}, {"rental_uris": {"ios": "https://dc.lft.to/lastmile_qr_scan", "android": "https://dc.lft.to/lastmile_qr_scan"}, "name": "c80714a018eb33d2b707780993541c52", "is_disabled": 0, "fusion_lon": 0.0, "fusion_lat": 0.0, "lon": -77.01421716666667, "bike_id": "c80714a018eb33d2b707780993541c52", "lat": 38.89876433333333, "is_reserved": 0, "type": "electric_scooter"}, {"rental_uris": {"ios": "https://dc.lft.to/lastmile_qr_scan", "android": "https://dc.lft.to/lastmile_qr_scan"}, "name": "23a16373588de6c11844839de2065eab", "is_disabled": 0, "fusion_lon": 0.0, "fusion_lat": 0.0, "lon": -76.91720766666667, "bike_id": "23a16373588de6c11844839de2065eab", "lat": 38.88028, "is_reserved": 0, "type": "electric_bike"}, {"rental_uris": {"ios": "https://dc.lft.to/lastmile_qr_scan", "android": "https://dc.lft.to/lastmile_qr_scan"}, "name": "1e0e80d68fabd655d3c6bf139835b1c9", "is_disabled": 0, "fusion_lon": 0.0, "fusion_lat": 0.0, "lon": -77.0278235, "bike_id": "1e0e80d68fabd655d3c6bf139835b1c9", "lat": 38.955418, "is_reserved": 0, "type": "electric_scooter"}, {"rental_uris": {"ios": "https://dc.lft.to/lastmile_qr_scan", "android": "https://dc.lft.to/lastmile_qr_scan"}, "name": "6e02057240fe640899df85b038f23e22", "is_disabled": 0, "fusion_lon": 0.0, "fusion_lat": 0.0, "lon": -77.06037783333333, "bike_id": "6e02057240fe640899df85b038f23e22", "lat": 38.9051415, "is_reserved": 0, "type": "electric_scooter"}, {"rental_uris": {"ios": "https://dc.lft.to/lastmile_qr_scan", "android": "https://dc.lft.to/lastmile_qr_scan"}, "name": "65fde51f5c240ec0e18bf55f90151d26", "is_disabled": 0, "fusion_lon": 0.0, "fusion_lat": 0.0, "lon": -77.036955, "bike_id": "65fde51f5c240ec0e18bf55f90151d26", "lat": 38.907391, "is_reserved": 0, "type": "electric_scooter"}, {"rental_uris": {"ios": "https://dc.lft.to/lastmile_qr_scan", "android": "https://dc.lft.to/lastmile_qr_scan"}, "name": "0dc7970464b4d11a0587b77cc8417d44", "is_disabled": 0, "fusion_lon": 0.0, "fusion_lat": 0.0, "lon": -76.93385016666667, "bike_id": "0dc7970464b4d11a0587b77cc8417d44", "lat": 38.89915416666667, "is_reserved": 0, "type": "electric_scooter"}, {"rental_uris": {"ios": "https://dc.lft.to/lastmile_qr_scan", "android": "https://dc.lft.to/lastmile_qr_scan"}, "name": "c26c5612d0bf1f29ed77974140c20b81", "is_disabled": 0, "fusion_lon": 0.0, "fusion_lat": 0.0, "lon": -77.04987333333334, "bike_id": "c26c5612d0bf1f29ed77974140c20b81", "lat": 38.89827316666667, "is_reserved": 0, "type": "electric_scooter"}, {"rental_uris": {"ios": "https://dc.lft.to/lastmile_qr_scan", "android": "https://dc.lft.to/lastmile_qr_scan"}, "name": "6b6ab160749518b9fa01a419497e55a0", "is_disabled": 0, "fusion_lon": 0.0, "fusion_lat": 0.0, "lon": -77.019456, "bike_id": "6b6ab160749518b9fa01a419497e55a0", "lat": 38.92419783333333, "is_reserved": 0, "type": "electric_scooter"}, {"rental_uris": {"ios": "https://dc.lft.to/lastmile_qr_scan", "android": "https://dc.lft.to/lastmile_qr_scan"}, "name": "828fe207e5d90ec24216e7320b3b1206", "is_disabled": 0, "fusion_lon": 0.0, "fusion_lat": 0.0, "lon": -77.02954066666666, "bike_id": "828fe207e5d90ec24216e7320b3b1206", "lat": 38.94307666666667, "is_reserved": 0, "type": "electric_scooter"}, {"rental_uris": {"ios": "https://dc.lft.to/lastmile_qr_scan", "android": "https://dc.lft.to/lastmile_qr_scan"}, "name": "955ab9be8eacf604cd623d69cc5fa0a5", "is_disabled": 0, "fusion_lon": 0.0, "fusion_lat": 0.0, "lon": -77.0187015, "bike_id": "955ab9be8eacf604cd623d69cc5fa0a5", "lat": 38.929136666666665, "is_reserved": 0, "type": "electric_scooter"}, {"rental_uris": {"ios": "https://dc.lft.to/lastmile_qr_scan", "android": "https://dc.lft.to/lastmile_qr_scan"}, "name": "028359acd69b797774d6e4fe9f70506e", "is_disabled": 0, "fusion_lon": 0.0, "fusion_lat": 0.0, "lon": -77.12731266666667, "bike_id": "028359acd69b797774d6e4fe9f70506e", "lat": 38.895619833333335, "is_reserved": 0, "type": "electric_bike"}, {"rental_uris": {"ios": "https://dc.lft.to/lastmile_qr_scan", "android": "https://dc.lft.to/lastmile_qr_scan"}, "name": "2001ad774486995a462ee40f403515f3", "is_disabled": 0, "fusion_lon": 0.0, "fusion_lat": 0.0, "lon": -77.029838, "bike_id": "2001ad774486995a462ee40f403515f3", "lat": 38.9244215, "is_reserved": 0, "type": "electric_scooter"}, {"rental_uris": {"ios": "https://dc.lft.to/lastmile_qr_scan", "android": "https://dc.lft.to/lastmile_qr_scan"}, "name": "a284925f783a2227d1142befd57475f0", "is_disabled": 0, "fusion_lon": 0.0, "fusion_lat": 0.0, "lon": -76.99048833333333, "bike_id": "a284925f783a2227d1142befd57475f0", "lat": 38.903952833333335, "is_reserved": 0, "type": "electric_scooter"}, {"rental_uris": {"ios": "https://dc.lft.to/lastmile_qr_scan", "android": "https://dc.lft.to/lastmile_qr_scan"}, "name": "5e6e71f5b33ec5abe426035cd8c1de1c", "is_disabled": 0, "fusion_lon": 0.0, "fusion_lat": 0.0, "lon": -77.044824, "bike_id": "5e6e71f5b33ec5abe426035cd8c1de1c", "lat": 38.910890333333334, "is_reserved": 0, "type": "electric_scooter"}, {"rental_uris": {"ios": "https://dc.lft.to/lastmile_qr_scan", "android": "https://dc.lft.to/lastmile_qr_scan"}, "name": "7dcbb12ca27e7d1dfc5640a280af2171", "is_disabled": 0, "fusion_lon": 0.0, "fusion_lat": 0.0, "lon": -77.0630235, "bike_id": "7dcbb12ca27e7d1dfc5640a280af2171", "lat": 38.907869166666664, "is_reserved": 0, "type": "electric_scooter"}, {"rental_uris": {"ios": "https://dc.lft.to/lastmile_qr_scan", "android": "https://dc.lft.to/lastmile_qr_scan"}, "name": "8ee9cb501cd4b32c17233b22eb7b5d97", "is_disabled": 0, "fusion_lon": 0.0, "fusion_lat": 0.0, "lon": -77.04711883333333, "bike_id": "8ee9cb501cd4b32c17233b22eb7b5d97", "lat": 38.922453, "is_reserved": 0, "type": "electric_scooter"}, {"rental_uris": {"ios": "https://dc.lft.to/lastmile_qr_scan", "android": "https://dc.lft.to/lastmile_qr_scan"}, "name": "1315b4648266246c37aacced55710bec", "is_disabled": 0, "fusion_lon": 0.0, "fusion_lat": 0.0, "lon": -77.009576, "bike_id": "1315b4648266246c37aacced55710bec", "lat": 38.8763105, "is_reserved": 0, "type": "electric_scooter"}, {"rental_uris": {"ios": "https://dc.lft.to/lastmile_qr_scan", "android": "https://dc.lft.to/lastmile_qr_scan"}, "name": "a224e432d6b4ea65b31515ca1bba9810", "is_disabled": 0, "fusion_lon": 0.0, "fusion_lat": 0.0, "lon": -77.05917716666667, "bike_id": "a224e432d6b4ea65b31515ca1bba9810", "lat": 38.90145616666667, "is_reserved": 0, "type": "electric_scooter"}, {"rental_uris": {"ios": "https://dc.lft.to/lastmile_qr_scan", "android": "https://dc.lft.to/lastmile_qr_scan"}, "name": "02a7d59560df5f15d528b8cb1c275a73", "is_disabled": 0, "fusion_lon": 0.0, "fusion_lat": 0.0, "lon": -76.97161216666666, "bike_id": "02a7d59560df5f15d528b8cb1c275a73", "lat": 38.92436583333333, "is_reserved": 0, "type": "electric_bike"}, {"rental_uris": {"ios": "https://dc.lft.to/lastmile_qr_scan", "android": "https://dc.lft.to/lastmile_qr_scan"}, "name": "2c03ee8ac110e034ec6bbe896a5e8e8c", "is_disabled": 0, "fusion_lon": 0.0, "fusion_lat": 0.0, "lon": -77.01384566666667, "bike_id": "2c03ee8ac110e034ec6bbe896a5e8e8c", "lat": 38.89849316666667, "is_reserved": 0, "type": "electric_scooter"}, {"rental_uris": {"ios": "https://dc.lft.to/lastmile_qr_scan", "android": "https://dc.lft.to/lastmile_qr_scan"}, "name": "e22907a59544f6c481e53f4e30fe27de", "is_disabled": 0, "fusion_lon": 0.0, "fusion_lat": 0.0, "lon": -76.98835783333334, "bike_id": "e22907a59544f6c481e53f4e30fe27de", "lat": 38.89946, "is_reserved": 0, "type": "electric_scooter"}, {"rental_uris": {"ios": "https://dc.lft.to/lastmile_qr_scan", "android": "https://dc.lft.to/lastmile_qr_scan"}, "name": "3873a920799bd4228a93ffef31c46e66", "is_disabled": 0, "fusion_lon": 0.0, "fusion_lat": 0.0, "lon": -77.046112, "bike_id": "3873a920799bd4228a93ffef31c46e66", "lat": 38.9159175, "is_reserved": 0, "type": "electric_scooter"}, {"rental_uris": {"ios": "https://dc.lft.to/lastmile_qr_scan", "android": "https://dc.lft.to/lastmile_qr_scan"}, "name": "112c79e757ed83850022ac2dc15dab3f", "is_disabled": 0, "fusion_lon": 0.0, "fusion_lat": 0.0, "lon": -77.007263, "bike_id": "112c79e757ed83850022ac2dc15dab3f", "lat": 38.91195966666667, "is_reserved": 0, "type": "electric_scooter"}, {"rental_uris": {"ios": "https://dc.lft.to/lastmile_qr_scan", "android": "https://dc.lft.to/lastmile_qr_scan"}, "name": "2df2a760c4511d369c8709f182da4870", "is_disabled": 0, "fusion_lon": 0.0, "fusion_lat": 0.0, "lon": -77.0454495, "bike_id": "2df2a760c4511d369c8709f182da4870", "lat": 38.914720833333334, "is_reserved": 0, "type": "electric_scooter"}, {"rental_uris": {"ios": "https://dc.lft.to/lastmile_qr_scan", "android": "https://dc.lft.to/lastmile_qr_scan"}, "name": "c04eb761e9748519d59e0cef1febcc11", "is_disabled": 0, "fusion_lon": 0.0, "fusion_lat": 0.0, "lon": -76.99555266666667, "bike_id": "c04eb761e9748519d59e0cef1febcc11", "lat": 38.9266505, "is_reserved": 0, "type": "electric_scooter"}, {"rental_uris": {"ios": "https://dc.lft.to/lastmile_qr_scan", "android": "https://dc.lft.to/lastmile_qr_scan"}, "name": "b89ebf34546b50f8308ee4992889123b", "is_disabled": 0, "fusion_lon": 0.0, "fusion_lat": 0.0, "lon": -77.00373533333334, "bike_id": "b89ebf34546b50f8308ee4992889123b", "lat": 38.892585833333335, "is_reserved": 0, "type": "electric_scooter"}, {"rental_uris": {"ios": "https://dc.lft.to/lastmile_qr_scan", "android": "https://dc.lft.to/lastmile_qr_scan"}, "name": "773277d03f812e42f209529331a716c5", "is_disabled": 0, "fusion_lon": 0.0, "fusion_lat": 0.0, "lon": -77.0340275, "bike_id": "773277d03f812e42f209529331a716c5", "lat": 38.923608333333334, "is_reserved": 0, "type": "electric_scooter"}, {"rental_uris": {"ios": "https://dc.lft.to/lastmile_qr_scan", "android": "https://dc.lft.to/lastmile_qr_scan"}, "name": "2f9af2a8cc6a35a08822c731813d8bf7", "is_disabled": 0, "fusion_lon": 0.0, "fusion_lat": 0.0, "lon": -77.03282833333333, "bike_id": "2f9af2a8cc6a35a08822c731813d8bf7", "lat": 38.93619983333333, "is_reserved": 0, "type": "electric_scooter"}, {"rental_uris": {"ios": "https://dc.lft.to/lastmile_qr_scan", "android": "https://dc.lft.to/lastmile_qr_scan"}, "name": "c0612f80633e62b1def4313e4aa4d750", "is_disabled": 0, "fusion_lon": 0.0, "fusion_lat": 0.0, "lon": -77.033643, "bike_id": "c0612f80633e62b1def4313e4aa4d750", "lat": 38.922381, "is_reserved": 0, "type": "electric_scooter"}, {"rental_uris": {"ios": "https://dc.lft.to/lastmile_qr_scan", "android": "https://dc.lft.to/lastmile_qr_scan"}, "name": "dcc74245bcb32ed2e14e97167c632670", "is_disabled": 0, "fusion_lon": 0.0, "fusion_lat": 0.0, "lon": -77.03750066666667, "bike_id": "dcc74245bcb32ed2e14e97167c632670", "lat": 38.93199283333333, "is_reserved": 0, "type": "electric_scooter"}, {"rental_uris": {"ios": "https://dc.lft.to/lastmile_qr_scan", "android": "https://dc.lft.to/lastmile_qr_scan"}, "name": "92751eb866df417718f5b4d6f3dcfb5b", "is_disabled": 0, "fusion_lon": 0.0, "fusion_lat": 0.0, "lon": -76.98940716666667, "bike_id": "92751eb866df417718f5b4d6f3dcfb5b", "lat": 38.88289666666667, "is_reserved": 0, "type": "electric_scooter"}, {"rental_uris": {"ios": "https://dc.lft.to/lastmile_qr_scan", "android": "https://dc.lft.to/lastmile_qr_scan"}, "name": "609e1bf23a10c763cded5a05993e57b3", "is_disabled": 0, "fusion_lon": 0.0, "fusion_lat": 0.0, "lon": -77.06530816666667, "bike_id": "609e1bf23a10c763cded5a05993e57b3", "lat": 38.99223666666666, "is_reserved": 0, "type": "electric_bike"}, {"rental_uris": {"ios": "https://dc.lft.to/lastmile_qr_scan", "android": "https://dc.lft.to/lastmile_qr_scan"}, "name": "79566f9f22d6670cc1cefc0a5bbe91e1", "is_disabled": 0, "fusion_lon": 0.0, "fusion_lat": 0.0, "lon": -77.09660333333333, "bike_id": "79566f9f22d6670cc1cefc0a5bbe91e1", "lat": 38.98216566666667, "is_reserved": 0, "type": "electric_bike"}, {"rental_uris": {"ios": "https://dc.lft.to/lastmile_qr_scan", "android": "https://dc.lft.to/lastmile_qr_scan"}, "name": "707aae0841199eff6595a43fa2380624", "is_disabled": 0, "fusion_lon": 0.0, "fusion_lat": 0.0, "lon": -77.02713233333333, "bike_id": "707aae0841199eff6595a43fa2380624", "lat": 38.897141166666664, "is_reserved": 0, "type": "electric_scooter"}, {"rental_uris": {"ios": "https://dc.lft.to/lastmile_qr_scan", "android": "https://dc.lft.to/lastmile_qr_scan"}, "name": "51cc8a7f8068e0802a9f22088c222b61", "is_disabled": 0, "fusion_lon": 0.0, "fusion_lat": 0.0, "lon": -77.02193533333333, "bike_id": "51cc8a7f8068e0802a9f22088c222b61", "lat": 38.929107, "is_reserved": 0, "type": "electric_scooter"}, {"rental_uris": {"ios": "https://dc.lft.to/lastmile_qr_scan", "android": "https://dc.lft.to/lastmile_qr_scan"}, "name": "110124dd4ebb33e326f9c2729802dff2", "is_disabled": 0, "fusion_lon": 0.0, "fusion_lat": 0.0, "lon": -76.99680133333334, "bike_id": "110124dd4ebb33e326f9c2729802dff2", "lat": 38.88433416666667, "is_reserved": 0, "type": "electric_scooter"}, {"rental_uris": {"ios": "https://dc.lft.to/lastmile_qr_scan", "android": "https://dc.lft.to/lastmile_qr_scan"}, "name": "d07ec853f5b6f7ffd0c821f4209a6221", "is_disabled": 0, "fusion_lon": 0.0, "fusion_lat": 0.0, "lon": -76.99150166666666, "bike_id": "d07ec853f5b6f7ffd0c821f4209a6221", "lat": 38.9106995, "is_reserved": 0, "type": "electric_scooter"}, {"rental_uris": {"ios": "https://dc.lft.to/lastmile_qr_scan", "android": "https://dc.lft.to/lastmile_qr_scan"}, "name": "9efba08ce358718fb78a2f7b6d78b367", "is_disabled": 0, "fusion_lon": 0.0, "fusion_lat": 0.0, "lon": -77.02500566666667, "bike_id": "9efba08ce358718fb78a2f7b6d78b367", "lat": 38.92596016666667, "is_reserved": 0, "type": "electric_scooter"}, {"rental_uris": {"ios": "https://dc.lft.to/lastmile_qr_scan", "android": "https://dc.lft.to/lastmile_qr_scan"}, "name": "321ba7db65a578269a23eb7e9edf1744", "is_disabled": 0, "fusion_lon": 0.0, "fusion_lat": 0.0, "lon": -77.031544, "bike_id": "321ba7db65a578269a23eb7e9edf1744", "lat": 38.921173, "is_reserved": 0, "type": "electric_scooter"}, {"rental_uris": {"ios": "https://dc.lft.to/lastmile_qr_scan", "android": "https://dc.lft.to/lastmile_qr_scan"}, "name": "3be778f744766799b4168388878d1d7a", "is_disabled": 0, "fusion_lon": 0.0, "fusion_lat": 0.0, "lon": -77.01299583333333, "bike_id": "3be778f744766799b4168388878d1d7a", "lat": 38.900834333333336, "is_reserved": 0, "type": "electric_scooter"}, {"rental_uris": {"ios": "https://dc.lft.to/lastmile_qr_scan", "android": "https://dc.lft.to/lastmile_qr_scan"}, "name": "34d5de49935fd5470f658c453b79e549", "is_disabled": 0, "fusion_lon": 0.0, "fusion_lat": 0.0, "lon": -77.0633725, "bike_id": "34d5de49935fd5470f658c453b79e549", "lat": 38.944145, "is_reserved": 0, "type": "electric_scooter"}, {"rental_uris": {"ios": "https://dc.lft.to/lastmile_qr_scan", "android": "https://dc.lft.to/lastmile_qr_scan"}, "name": "c8365ec7e79c5a3282961c895f4fd771", "is_disabled": 0, "fusion_lon": 0.0, "fusion_lat": 0.0, "lon": -76.9453485, "bike_id": "c8365ec7e79c5a3282961c895f4fd771", "lat": 38.86750383333333, "is_reserved": 0, "type": "electric_bike"}, {"rental_uris": {"ios": "https://dc.lft.to/lastmile_qr_scan", "android": "https://dc.lft.to/lastmile_qr_scan"}, "name": "452406c1dd554fdea68fd23b1c270c24", "is_disabled": 0, "fusion_lon": 0.0, "fusion_lat": 0.0, "lon": -77.00199883333333, "bike_id": "452406c1dd554fdea68fd23b1c270c24", "lat": 38.9308265, "is_reserved": 0, "type": "electric_scooter"}, {"rental_uris": {"ios": "https://dc.lft.to/lastmile_qr_scan", "android": "https://dc.lft.to/lastmile_qr_scan"}, "name": "db9daecdd564de4c748230d0eb7710cf", "is_disabled": 0, "fusion_lon": 0.0, "fusion_lat": 0.0, "lon": -77.03495616666666, "bike_id": "db9daecdd564de4c748230d0eb7710cf", "lat": 38.9308015, "is_reserved": 0, "type": "electric_scooter"}, {"rental_uris": {"ios": "https://dc.lft.to/lastmile_qr_scan", "android": "https://dc.lft.to/lastmile_qr_scan"}, "name": "1b277c726bd48e7ad08f6e64357920e7", "is_disabled": 0, "fusion_lon": 0.0, "fusion_lat": 0.0, "lon": -77.033464, "bike_id": "1b277c726bd48e7ad08f6e64357920e7", "lat": 38.928755, "is_reserved": 0, "type": "electric_scooter"}, {"rental_uris": {"ios": "https://dc.lft.to/lastmile_qr_scan", "android": "https://dc.lft.to/lastmile_qr_scan"}, "name": "a60a2ceae0b7db5fc42a2350bb5d4620", "is_disabled": 0, "fusion_lon": 0.0, "fusion_lat": 0.0, "lon": -77.05451316666667, "bike_id": "a60a2ceae0b7db5fc42a2350bb5d4620", "lat": 38.91476483333334, "is_reserved": 0, "type": "electric_scooter"}, {"rental_uris": {"ios": "https://dc.lft.to/lastmile_qr_scan", "android": "https://dc.lft.to/lastmile_qr_scan"}, "name": "ec8a2b3e66c3ce52aade425890c0be5c", "is_disabled": 0, "fusion_lon": 0.0, "fusion_lat": 0.0, "lon": -77.02203116666666, "bike_id": "ec8a2b3e66c3ce52aade425890c0be5c", "lat": 38.90534616666667, "is_reserved": 0, "type": "electric_scooter"}, {"rental_uris": {"ios": "https://dc.lft.to/lastmile_qr_scan", "android": "https://dc.lft.to/lastmile_qr_scan"}, "name": "12dc2761f615cc854cbf51bfd2e8c969", "is_disabled": 0, "fusion_lon": 0.0, "fusion_lat": 0.0, "lon": -77.0029245, "bike_id": "12dc2761f615cc854cbf51bfd2e8c969", "lat": 38.893635, "is_reserved": 0, "type": "electric_scooter"}, {"rental_uris": {"ios": "https://dc.lft.to/lastmile_qr_scan", "android": "https://dc.lft.to/lastmile_qr_scan"}, "name": "9d02ac4bd493141618d4df6ca7bc6622", "is_disabled": 0, "fusion_lon": 0.0, "fusion_lat": 0.0, "lon": -77.02195916666666, "bike_id": "9d02ac4bd493141618d4df6ca7bc6622", "lat": 38.92168366666667, "is_reserved": 0, "type": "electric_scooter"}, {"rental_uris": {"ios": "https://dc.lft.to/lastmile_qr_scan", "android": "https://dc.lft.to/lastmile_qr_scan"}, "name": "a896e4d4a4a6026da7973bb0b0e133f2", "is_disabled": 0, "fusion_lon": 0.0, "fusion_lat": 0.0, "lon": -77.0207645, "bike_id": "a896e4d4a4a6026da7973bb0b0e133f2", "lat": 38.90312316666667, "is_reserved": 0, "type": "electric_scooter"}, {"rental_uris": {"ios": "https://dc.lft.to/lastmile_qr_scan", "android": "https://dc.lft.to/lastmile_qr_scan"}, "name": "c36000eb34a14933c7455e6342d79c2a", "is_disabled": 0, "fusion_lon": 0.0, "fusion_lat": 0.0, "lon": -77.032699, "bike_id": "c36000eb34a14933c7455e6342d79c2a", "lat": 38.928483, "is_reserved": 0, "type": "electric_scooter"}, {"rental_uris": {"ios": "https://dc.lft.to/lastmile_qr_scan", "android": "https://dc.lft.to/lastmile_qr_scan"}, "name": "6db7adc360b6e5c0674d8e1d95dac203", "is_disabled": 0, "fusion_lon": 0.0, "fusion_lat": 0.0, "lon": -77.01219866666666, "bike_id": "6db7adc360b6e5c0674d8e1d95dac203", "lat": 38.89607766666666, "is_reserved": 0, "type": "electric_scooter"}, {"rental_uris": {"ios": "https://dc.lft.to/lastmile_qr_scan", "android": "https://dc.lft.to/lastmile_qr_scan"}, "name": "3aad57a6325b63b041a3b68b2bfa80cc", "is_disabled": 0, "fusion_lon": 0.0, "fusion_lat": 0.0, "lon": -77.05156983333333, "bike_id": "3aad57a6325b63b041a3b68b2bfa80cc", "lat": 38.8995085, "is_reserved": 0, "type": "electric_scooter"}, {"rental_uris": {"ios": "https://dc.lft.to/lastmile_qr_scan", "android": "https://dc.lft.to/lastmile_qr_scan"}, "name": "d838a7be7a50629e1c206177ca5361dc", "is_disabled": 0, "fusion_lon": 0.0, "fusion_lat": 0.0, "lon": -77.02155183333333, "bike_id": "d838a7be7a50629e1c206177ca5361dc", "lat": 38.926027, "is_reserved": 0, "type": "electric_scooter"}, {"rental_uris": {"ios": "https://dc.lft.to/lastmile_qr_scan", "android": "https://dc.lft.to/lastmile_qr_scan"}, "name": "5eca49b0982683bdb2bc219d3e832715", "is_disabled": 0, "fusion_lon": 0.0, "fusion_lat": 0.0, "lon": -77.0455505, "bike_id": "5eca49b0982683bdb2bc219d3e832715", "lat": 38.90361516666667, "is_reserved": 0, "type": "electric_scooter"}, {"rental_uris": {"ios": "https://dc.lft.to/lastmile_qr_scan", "android": "https://dc.lft.to/lastmile_qr_scan"}, "name": "33893929f95b24ae65df8ae7c9751045", "is_disabled": 0, "fusion_lon": 0.0, "fusion_lat": 0.0, "lon": -77.0395855, "bike_id": "33893929f95b24ae65df8ae7c9751045", "lat": 38.919687, "is_reserved": 0, "type": "electric_scooter"}, {"rental_uris": {"ios": "https://dc.lft.to/lastmile_qr_scan", "android": "https://dc.lft.to/lastmile_qr_scan"}, "name": "f1e2e45e57adb946938e568ec8031018", "is_disabled": 0, "fusion_lon": 0.0, "fusion_lat": 0.0, "lon": -77.0067415, "bike_id": "f1e2e45e57adb946938e568ec8031018", "lat": 38.8959905, "is_reserved": 0, "type": "electric_scooter"}, {"rental_uris": {"ios": "https://dc.lft.to/lastmile_qr_scan", "android": "https://dc.lft.to/lastmile_qr_scan"}, "name": "9ef003faf7a4f2c7d87aa72be21e89c0", "is_disabled": 0, "fusion_lon": 0.0, "fusion_lat": 0.0, "lon": -76.93061833333333, "bike_id": "9ef003faf7a4f2c7d87aa72be21e89c0", "lat": 38.895594, "is_reserved": 0, "type": "electric_scooter"}, {"rental_uris": {"ios": "https://dc.lft.to/lastmile_qr_scan", "android": "https://dc.lft.to/lastmile_qr_scan"}, "name": "4ba7441476d65ced0d5fe293718d4324", "is_disabled": 0, "fusion_lon": 0.0, "fusion_lat": 0.0, "lon": -77.03282983333334, "bike_id": "4ba7441476d65ced0d5fe293718d4324", "lat": 38.936182333333335, "is_reserved": 0, "type": "electric_scooter"}, {"rental_uris": {"ios": "https://dc.lft.to/lastmile_qr_scan", "android": "https://dc.lft.to/lastmile_qr_scan"}, "name": "6cd6ee20c36c32f54574719a2a4ae9d7", "is_disabled": 0, "fusion_lon": 0.0, "fusion_lat": 0.0, "lon": -77.011161, "bike_id": "6cd6ee20c36c32f54574719a2a4ae9d7", "lat": 38.8851005, "is_reserved": 0, "type": "electric_scooter"}, {"rental_uris": {"ios": "https://dc.lft.to/lastmile_qr_scan", "android": "https://dc.lft.to/lastmile_qr_scan"}, "name": "525fedeb73cf46e584e301d03a1b2776", "is_disabled": 0, "fusion_lon": 0.0, "fusion_lat": 0.0, "lon": -77.05248633333333, "bike_id": "525fedeb73cf46e584e301d03a1b2776", "lat": 38.924942, "is_reserved": 0, "type": "electric_scooter"}, {"rental_uris": {"ios": "https://dc.lft.to/lastmile_qr_scan", "android": "https://dc.lft.to/lastmile_qr_scan"}, "name": "3af1057910f05dc467f3e6c7d08c039a", "is_disabled": 0, "fusion_lon": 0.0, "fusion_lat": 0.0, "lon": -76.93602466666667, "bike_id": "3af1057910f05dc467f3e6c7d08c039a", "lat": 38.9094665, "is_reserved": 0, "type": "electric_scooter"}, {"rental_uris": {"ios": "https://dc.lft.to/lastmile_qr_scan", "android": "https://dc.lft.to/lastmile_qr_scan"}, "name": "57959234e473751116761310a71eca8a", "is_disabled": 0, "fusion_lon": 0.0, "fusion_lat": 0.0, "lon": -77.02662833333333, "bike_id": "57959234e473751116761310a71eca8a", "lat": 38.930987, "is_reserved": 0, "type": "electric_scooter"}, {"rental_uris": {"ios": "https://dc.lft.to/lastmile_qr_scan", "android": "https://dc.lft.to/lastmile_qr_scan"}, "name": "20023924c13889d79f092fb644ca77e4", "is_disabled": 0, "fusion_lon": 0.0, "fusion_lat": 0.0, "lon": -77.0434475, "bike_id": "20023924c13889d79f092fb644ca77e4", "lat": 38.90312083333333, "is_reserved": 0, "type": "electric_scooter"}, {"rental_uris": {"ios": "https://dc.lft.to/lastmile_qr_scan", "android": "https://dc.lft.to/lastmile_qr_scan"}, "name": "8de2048c7c3c07d16f749f36de529363", "is_disabled": 0, "fusion_lon": 0.0, "fusion_lat": 0.0, "lon": -77.0404225, "bike_id": "8de2048c7c3c07d16f749f36de529363", "lat": 38.918629333333335, "is_reserved": 0, "type": "electric_scooter"}, {"rental_uris": {"ios": "https://dc.lft.to/lastmile_qr_scan", "android": "https://dc.lft.to/lastmile_qr_scan"}, "name": "95d8435501bd38ec5679682c50e90789", "is_disabled": 0, "fusion_lon": 0.0, "fusion_lat": 0.0, "lon": -77.06430816666666, "bike_id": "95d8435501bd38ec5679682c50e90789", "lat": 38.935647333333335, "is_reserved": 0, "type": "electric_scooter"}, {"rental_uris": {"ios": "https://dc.lft.to/lastmile_qr_scan", "android": "https://dc.lft.to/lastmile_qr_scan"}, "name": "3c1fa05823e4e07b2ba5ccc29b5ef8a4", "is_disabled": 0, "fusion_lon": 0.0, "fusion_lat": 0.0, "lon": -77.02803866666666, "bike_id": "3c1fa05823e4e07b2ba5ccc29b5ef8a4", "lat": 38.897137, "is_reserved": 0, "type": "electric_scooter"}, {"rental_uris": {"ios": "https://dc.lft.to/lastmile_qr_scan", "android": "https://dc.lft.to/lastmile_qr_scan"}, "name": "f28472dc824eea7e8865973f85b8c4bb", "is_disabled": 0, "fusion_lon": 0.0, "fusion_lat": 0.0, "lon": -77.02204966666666, "bike_id": "f28472dc824eea7e8865973f85b8c4bb", "lat": 38.90194316666667, "is_reserved": 0, "type": "electric_scooter"}, {"rental_uris": {"ios": "https://dc.lft.to/lastmile_qr_scan", "android": "https://dc.lft.to/lastmile_qr_scan"}, "name": "4510878c7b5c0f07b45400959e3f94f8", "is_disabled": 0, "fusion_lon": 0.0, "fusion_lat": 0.0, "lon": -77.031906, "bike_id": "4510878c7b5c0f07b45400959e3f94f8", "lat": 38.916790666666664, "is_reserved": 0, "type": "electric_scooter"}, {"rental_uris": {"ios": "https://dc.lft.to/lastmile_qr_scan", "android": "https://dc.lft.to/lastmile_qr_scan"}, "name": "3f151e30b0eb6dafdad3551d02027337", "is_disabled": 0, "fusion_lon": 0.0, "fusion_lat": 0.0, "lon": -76.9515835, "bike_id": "3f151e30b0eb6dafdad3551d02027337", "lat": 39.08439466666667, "is_reserved": 0, "type": "electric_bike"}, {"rental_uris": {"ios": "https://dc.lft.to/lastmile_qr_scan", "android": "https://dc.lft.to/lastmile_qr_scan"}, "name": "63b92806b36b2d477acab0017e90b918", "is_disabled": 0, "fusion_lon": 0.0, "fusion_lat": 0.0, "lon": -77.02440783333333, "bike_id": "63b92806b36b2d477acab0017e90b918", "lat": 38.897367, "is_reserved": 0, "type": "electric_scooter"}, {"rental_uris": {"ios": "https://dc.lft.to/lastmile_qr_scan", "android": "https://dc.lft.to/lastmile_qr_scan"}, "name": "395912f9eadd9fa6be87d6791ff713e3", "is_disabled": 0, "fusion_lon": 0.0, "fusion_lat": 0.0, "lon": -77.02205916666666, "bike_id": "395912f9eadd9fa6be87d6791ff713e3", "lat": 38.914018666666664, "is_reserved": 0, "type": "electric_scooter"}, {"rental_uris": {"ios": "https://dc.lft.to/lastmile_qr_scan", "android": "https://dc.lft.to/lastmile_qr_scan"}, "name": "0c9c840478153aa2f3bac697b9231f0e", "is_disabled": 0, "fusion_lon": 0.0, "fusion_lat": 0.0, "lon": -77.00570233333333, "bike_id": "0c9c840478153aa2f3bac697b9231f0e", "lat": 38.885056666666664, "is_reserved": 0, "type": "electric_scooter"}, {"rental_uris": {"ios": "https://dc.lft.to/lastmile_qr_scan", "android": "https://dc.lft.to/lastmile_qr_scan"}, "name": "bd89fa29908bfc9d1804833ba26b00b5", "is_disabled": 0, "fusion_lon": 0.0, "fusion_lat": 0.0, "lon": -77.01954933333333, "bike_id": "bd89fa29908bfc9d1804833ba26b00b5", "lat": 38.92251133333333, "is_reserved": 0, "type": "electric_scooter"}, {"rental_uris": {"ios": "https://dc.lft.to/lastmile_qr_scan", "android": "https://dc.lft.to/lastmile_qr_scan"}, "name": "495b2f407d89a4d3275ca0a7f982be16", "is_disabled": 0, "fusion_lon": 0.0, "fusion_lat": 0.0, "lon": -77.04220633333334, "bike_id": "495b2f407d89a4d3275ca0a7f982be16", "lat": 38.9230835, "is_reserved": 0, "type": "electric_scooter"}, {"rental_uris": {"ios": "https://dc.lft.to/lastmile_qr_scan", "android": "https://dc.lft.to/lastmile_qr_scan"}, "name": "bb5453caf0c5ca54888ca6cf27d5a56e", "is_disabled": 0, "fusion_lon": 0.0, "fusion_lat": 0.0, "lon": -76.99487516666667, "bike_id": "bb5453caf0c5ca54888ca6cf27d5a56e", "lat": 38.86218383333333, "is_reserved": 0, "type": "electric_scooter"}, {"rental_uris": {"ios": "https://dc.lft.to/lastmile_qr_scan", "android": "https://dc.lft.to/lastmile_qr_scan"}, "name": "7a7c3ff022c9b5cd9527ae2558fdbe9c", "is_disabled": 0, "fusion_lon": 0.0, "fusion_lat": 0.0, "lon": -77.03281933333334, "bike_id": "7a7c3ff022c9b5cd9527ae2558fdbe9c", "lat": 38.91609783333333, "is_reserved": 0, "type": "electric_scooter"}, {"rental_uris": {"ios": "https://dc.lft.to/lastmile_qr_scan", "android": "https://dc.lft.to/lastmile_qr_scan"}, "name": "f8f7a1191454bbbee8b0bbb0cdf7ad75", "is_disabled": 0, "fusion_lon": 0.0, "fusion_lat": 0.0, "lon": -77.0415555, "bike_id": "f8f7a1191454bbbee8b0bbb0cdf7ad75", "lat": 38.908016, "is_reserved": 0, "type": "electric_scooter"}, {"rental_uris": {"ios": "https://dc.lft.to/lastmile_qr_scan", "android": "https://dc.lft.to/lastmile_qr_scan"}, "name": "4a22145233cd01028127f956209ab348", "is_disabled": 0, "fusion_lon": 0.0, "fusion_lat": 0.0, "lon": -76.9913955, "bike_id": "4a22145233cd01028127f956209ab348", "lat": 38.908705499999996, "is_reserved": 0, "type": "electric_scooter"}, {"rental_uris": {"ios": "https://dc.lft.to/lastmile_qr_scan", "android": "https://dc.lft.to/lastmile_qr_scan"}, "name": "158566353c874fb844acb3afd4837cbd", "is_disabled": 0, "fusion_lon": 0.0, "fusion_lat": 0.0, "lon": -77.02209566666667, "bike_id": "158566353c874fb844acb3afd4837cbd", "lat": 38.9031785, "is_reserved": 0, "type": "electric_scooter"}, {"rental_uris": {"ios": "https://dc.lft.to/lastmile_qr_scan", "android": "https://dc.lft.to/lastmile_qr_scan"}, "name": "e8e766e0a0b1490ea3e81dcc61b6bee0", "is_disabled": 0, "fusion_lon": 0.0, "fusion_lat": 0.0, "lon": -77.05181333333333, "bike_id": "e8e766e0a0b1490ea3e81dcc61b6bee0", "lat": 38.92424666666667, "is_reserved": 0, "type": "electric_scooter"}, {"rental_uris": {"ios": "https://dc.lft.to/lastmile_qr_scan", "android": "https://dc.lft.to/lastmile_qr_scan"}, "name": "2fb22d2e9feb250bb1c083091912baa8", "is_disabled": 0, "fusion_lon": 0.0, "fusion_lat": 0.0, "lon": -77.0060645, "bike_id": "2fb22d2e9feb250bb1c083091912baa8", "lat": 38.90635983333333, "is_reserved": 0, "type": "electric_scooter"}, {"rental_uris": {"ios": "https://dc.lft.to/lastmile_qr_scan", "android": "https://dc.lft.to/lastmile_qr_scan"}, "name": "cb536cbdff8a100a45d02979fe61795c", "is_disabled": 0, "fusion_lon": 0.0, "fusion_lat": 0.0, "lon": -77.052341, "bike_id": "cb536cbdff8a100a45d02979fe61795c", "lat": 38.9246635, "is_reserved": 0, "type": "electric_scooter"}, {"rental_uris": {"ios": "https://dc.lft.to/lastmile_qr_scan", "android": "https://dc.lft.to/lastmile_qr_scan"}, "name": "fe855aaf30024237dd71b3eeee24415b", "is_disabled": 0, "fusion_lon": 0.0, "fusion_lat": 0.0, "lon": -76.9472205, "bike_id": "fe855aaf30024237dd71b3eeee24415b", "lat": 38.983794, "is_reserved": 0, "type": "electric_bike"}, {"rental_uris": {"ios": "https://dc.lft.to/lastmile_qr_scan", "android": "https://dc.lft.to/lastmile_qr_scan"}, "name": "13a64f9434490282fa6e7d9321723158", "is_disabled": 0, "fusion_lon": 0.0, "fusion_lat": 0.0, "lon": -77.0134045, "bike_id": "13a64f9434490282fa6e7d9321723158", "lat": 38.926440166666666, "is_reserved": 0, "type": "electric_scooter"}, {"rental_uris": {"ios": "https://dc.lft.to/lastmile_qr_scan", "android": "https://dc.lft.to/lastmile_qr_scan"}, "name": "6811f50163c00cf62c2b07dda1e3e67d", "is_disabled": 0, "fusion_lon": 0.0, "fusion_lat": 0.0, "lon": -77.09553066666666, "bike_id": "6811f50163c00cf62c2b07dda1e3e67d", "lat": 38.989640333333334, "is_reserved": 0, "type": "electric_bike"}, {"rental_uris": {"ios": "https://dc.lft.to/lastmile_qr_scan", "android": "https://dc.lft.to/lastmile_qr_scan"}, "name": "62ae357a8d35ab00a7f3041f64a9e27f", "is_disabled": 0, "fusion_lon": 0.0, "fusion_lat": 0.0, "lon": -77.001338, "bike_id": "62ae357a8d35ab00a7f3041f64a9e27f", "lat": 38.8737335, "is_reserved": 0, "type": "electric_scooter"}, {"rental_uris": {"ios": "https://dc.lft.to/lastmile_qr_scan", "android": "https://dc.lft.to/lastmile_qr_scan"}, "name": "bb0d4978b0fac9a8220537d8c10ae2f8", "is_disabled": 0, "fusion_lon": 0.0, "fusion_lat": 0.0, "lon": -77.01114433333333, "bike_id": "bb0d4978b0fac9a8220537d8c10ae2f8", "lat": 38.894814833333335, "is_reserved": 0, "type": "electric_scooter"}, {"rental_uris": {"ios": "https://dc.lft.to/lastmile_qr_scan", "android": "https://dc.lft.to/lastmile_qr_scan"}, "name": "312086fe916dc2c65b5a100b528d80cb", "is_disabled": 0, "fusion_lon": 0.0, "fusion_lat": 0.0, "lon": -77.03365183333334, "bike_id": "312086fe916dc2c65b5a100b528d80cb", "lat": 38.9214665, "is_reserved": 0, "type": "electric_scooter"}, {"rental_uris": {"ios": "https://dc.lft.to/lastmile_qr_scan", "android": "https://dc.lft.to/lastmile_qr_scan"}, "name": "670cec8ffb10d19002016a7f84fe3d9d", "is_disabled": 0, "fusion_lon": 0.0, "fusion_lat": 0.0, "lon": -77.00678333333333, "bike_id": "670cec8ffb10d19002016a7f84fe3d9d", "lat": 38.89590466666667, "is_reserved": 0, "type": "electric_scooter"}, {"rental_uris": {"ios": "https://dc.lft.to/lastmile_qr_scan", "android": "https://dc.lft.to/lastmile_qr_scan"}, "name": "d91112f19de2a484451348606de819df", "is_disabled": 0, "fusion_lon": 0.0, "fusion_lat": 0.0, "lon": -77.07165566666667, "bike_id": "d91112f19de2a484451348606de819df", "lat": 38.9077725, "is_reserved": 0, "type": "electric_scooter"}, {"rental_uris": {"ios": "https://dc.lft.to/lastmile_qr_scan", "android": "https://dc.lft.to/lastmile_qr_scan"}, "name": "da3c6e648a4521798920c0aec33aa6a8", "is_disabled": 0, "fusion_lon": 0.0, "fusion_lat": 0.0, "lon": -77.09102783333333, "bike_id": "da3c6e648a4521798920c0aec33aa6a8", "lat": 38.930987, "is_reserved": 0, "type": "electric_scooter"}, {"rental_uris": {"ios": "https://dc.lft.to/lastmile_qr_scan", "android": "https://dc.lft.to/lastmile_qr_scan"}, "name": "5a567777c387e4a7b6dac4ca4abd4d9f", "is_disabled": 0, "fusion_lon": 0.0, "fusion_lat": 0.0, "lon": -76.94667966666667, "bike_id": "5a567777c387e4a7b6dac4ca4abd4d9f", "lat": 38.898705, "is_reserved": 0, "type": "electric_scooter"}, {"rental_uris": {"ios": "https://dc.lft.to/lastmile_qr_scan", "android": "https://dc.lft.to/lastmile_qr_scan"}, "name": "5c25829f96f38981366e2ee382ca5929", "is_disabled": 0, "fusion_lon": 0.0, "fusion_lat": 0.0, "lon": -77.02576766666667, "bike_id": "5c25829f96f38981366e2ee382ca5929", "lat": 38.8873035, "is_reserved": 0, "type": "electric_scooter"}, {"rental_uris": {"ios": "https://dc.lft.to/lastmile_qr_scan", "android": "https://dc.lft.to/lastmile_qr_scan"}, "name": "6e4f8d6529c203ca506a81183e416bf9", "is_disabled": 0, "fusion_lon": 0.0, "fusion_lat": 0.0, "lon": -77.01445816666667, "bike_id": "6e4f8d6529c203ca506a81183e416bf9", "lat": 38.91317133333333, "is_reserved": 0, "type": "electric_scooter"}, {"rental_uris": {"ios": "https://dc.lft.to/lastmile_qr_scan", "android": "https://dc.lft.to/lastmile_qr_scan"}, "name": "c5aa4c5efa1441f4a9e0eb169efa07d2", "is_disabled": 0, "fusion_lon": 0.0, "fusion_lat": 0.0, "lon": -77.04464116666666, "bike_id": "c5aa4c5efa1441f4a9e0eb169efa07d2", "lat": 38.9012785, "is_reserved": 0, "type": "electric_scooter"}, {"rental_uris": {"ios": "https://dc.lft.to/lastmile_qr_scan", "android": "https://dc.lft.to/lastmile_qr_scan"}, "name": "911e584d52fc5f51f3f8e78da9cfded0", "is_disabled": 0, "fusion_lon": 0.0, "fusion_lat": 0.0, "lon": -77.015395, "bike_id": "911e584d52fc5f51f3f8e78da9cfded0", "lat": 38.891905333333334, "is_reserved": 0, "type": "electric_scooter"}, {"rental_uris": {"ios": "https://dc.lft.to/lastmile_qr_scan", "android": "https://dc.lft.to/lastmile_qr_scan"}, "name": "8ca2adc7db594e45901428efcb33edfd", "is_disabled": 0, "fusion_lon": 0.0, "fusion_lat": 0.0, "lon": -77.039469, "bike_id": "8ca2adc7db594e45901428efcb33edfd", "lat": 38.89891683333333, "is_reserved": 0, "type": "electric_scooter"}, {"rental_uris": {"ios": "https://dc.lft.to/lastmile_qr_scan", "android": "https://dc.lft.to/lastmile_qr_scan"}, "name": "35572587a29968ab5acf6973032d9bad", "is_disabled": 0, "fusion_lon": 0.0, "fusion_lat": 0.0, "lon": -77.02932283333334, "bike_id": "35572587a29968ab5acf6973032d9bad", "lat": 38.942767, "is_reserved": 0, "type": "electric_scooter"}, {"rental_uris": {"ios": "https://dc.lft.to/lastmile_qr_scan", "android": "https://dc.lft.to/lastmile_qr_scan"}, "name": "ed22a4112212d88f864ee9fda0a8bbdb", "is_disabled": 0, "fusion_lon": 0.0, "fusion_lat": 0.0, "lon": -77.007307, "bike_id": "ed22a4112212d88f864ee9fda0a8bbdb", "lat": 38.884903, "is_reserved": 0, "type": "electric_scooter"}, {"rental_uris": {"ios": "https://dc.lft.to/lastmile_qr_scan", "android": "https://dc.lft.to/lastmile_qr_scan"}, "name": "34dfe0a0a6fa1966b7fc000f9315f5ec", "is_disabled": 0, "fusion_lon": 0.0, "fusion_lat": 0.0, "lon": -77.0014595, "bike_id": "34dfe0a0a6fa1966b7fc000f9315f5ec", "lat": 38.8674905, "is_reserved": 0, "type": "electric_scooter"}, {"rental_uris": {"ios": "https://dc.lft.to/lastmile_qr_scan", "android": "https://dc.lft.to/lastmile_qr_scan"}, "name": "30f4288e0d331c643d884f83e831be7b", "is_disabled": 0, "fusion_lon": 0.0, "fusion_lat": 0.0, "lon": -77.068411, "bike_id": "30f4288e0d331c643d884f83e831be7b", "lat": 38.917219833333334, "is_reserved": 0, "type": "electric_scooter"}, {"rental_uris": {"ios": "https://dc.lft.to/lastmile_qr_scan", "android": "https://dc.lft.to/lastmile_qr_scan"}, "name": "538468577b248632eb9885cce93b4ced", "is_disabled": 0, "fusion_lon": 0.0, "fusion_lat": 0.0, "lon": -77.044522, "bike_id": "538468577b248632eb9885cce93b4ced", "lat": 38.90125483333333, "is_reserved": 0, "type": "electric_scooter"}, {"rental_uris": {"ios": "https://dc.lft.to/lastmile_qr_scan", "android": "https://dc.lft.to/lastmile_qr_scan"}, "name": "c72fb24ff5d21cf37fee9c774ef28f67", "is_disabled": 0, "fusion_lon": 0.0, "fusion_lat": 0.0, "lon": -77.03198583333334, "bike_id": "c72fb24ff5d21cf37fee9c774ef28f67", "lat": 38.930509666666666, "is_reserved": 0, "type": "electric_scooter"}, {"rental_uris": {"ios": "https://dc.lft.to/lastmile_qr_scan", "android": "https://dc.lft.to/lastmile_qr_scan"}, "name": "e40cc82758bfb2e819dc9f09e2b2859c", "is_disabled": 0, "fusion_lon": 0.0, "fusion_lat": 0.0, "lon": -76.95062483333334, "bike_id": "e40cc82758bfb2e819dc9f09e2b2859c", "lat": 39.08509566666667, "is_reserved": 0, "type": "electric_bike"}, {"rental_uris": {"ios": "https://dc.lft.to/lastmile_qr_scan", "android": "https://dc.lft.to/lastmile_qr_scan"}, "name": "158269c4c9162bfc5019dfef32d22496", "is_disabled": 0, "fusion_lon": 0.0, "fusion_lat": 0.0, "lon": -77.00602233333333, "bike_id": "158269c4c9162bfc5019dfef32d22496", "lat": 38.90573116666667, "is_reserved": 0, "type": "electric_scooter"}, {"rental_uris": {"ios": "https://dc.lft.to/lastmile_qr_scan", "android": "https://dc.lft.to/lastmile_qr_scan"}, "name": "f8dd033a9e94c592ad50ae1c4312c1cd", "is_disabled": 0, "fusion_lon": 0.0, "fusion_lat": 0.0, "lon": -77.01802333333333, "bike_id": "f8dd033a9e94c592ad50ae1c4312c1cd", "lat": 38.92139533333334, "is_reserved": 0, "type": "electric_scooter"}, {"rental_uris": {"ios": "https://dc.lft.to/lastmile_qr_scan", "android": "https://dc.lft.to/lastmile_qr_scan"}, "name": "4f47c20646891c694c12e81fa9b6ab50", "is_disabled": 0, "fusion_lon": 0.0, "fusion_lat": 0.0, "lon": -77.02019433333334, "bike_id": "4f47c20646891c694c12e81fa9b6ab50", "lat": 38.89500183333333, "is_reserved": 0, "type": "electric_scooter"}, {"rental_uris": {"ios": "https://dc.lft.to/lastmile_qr_scan", "android": "https://dc.lft.to/lastmile_qr_scan"}, "name": "20b8065bd1e338fd7eaf0ac10cafde23", "is_disabled": 0, "fusion_lon": 0.0, "fusion_lat": 0.0, "lon": -77.18310183333334, "bike_id": "20b8065bd1e338fd7eaf0ac10cafde23", "lat": 38.89074216666667, "is_reserved": 0, "type": "electric_bike"}, {"rental_uris": {"ios": "https://dc.lft.to/lastmile_qr_scan", "android": "https://dc.lft.to/lastmile_qr_scan"}, "name": "26450df63744d0c61bd886c965905e23", "is_disabled": 0, "fusion_lon": 0.0, "fusion_lat": 0.0, "lon": -77.028982, "bike_id": "26450df63744d0c61bd886c965905e23", "lat": 38.923151, "is_reserved": 0, "type": "electric_scooter"}, {"rental_uris": {"ios": "https://dc.lft.to/lastmile_qr_scan", "android": "https://dc.lft.to/lastmile_qr_scan"}, "name": "1028f9b4e2a06af2746b73cdc808475b", "is_disabled": 0, "fusion_lon": 0.0, "fusion_lat": 0.0, "lon": -77.019992, "bike_id": "1028f9b4e2a06af2746b73cdc808475b", "lat": 38.89969466666667, "is_reserved": 0, "type": "electric_scooter"}, {"rental_uris": {"ios": "https://dc.lft.to/lastmile_qr_scan", "android": "https://dc.lft.to/lastmile_qr_scan"}, "name": "3b456ebeeba1ac359a176733e6a48f4e", "is_disabled": 0, "fusion_lon": 0.0, "fusion_lat": 0.0, "lon": -77.01530666666666, "bike_id": "3b456ebeeba1ac359a176733e6a48f4e", "lat": 38.887322, "is_reserved": 0, "type": "electric_scooter"}, {"rental_uris": {"ios": "https://dc.lft.to/lastmile_qr_scan", "android": "https://dc.lft.to/lastmile_qr_scan"}, "name": "d3a6f38c70e52ac7b563873b8c8168ee", "is_disabled": 0, "fusion_lon": 0.0, "fusion_lat": 0.0, "lon": -77.02797233333334, "bike_id": "d3a6f38c70e52ac7b563873b8c8168ee", "lat": 38.89223883333333, "is_reserved": 0, "type": "electric_scooter"}, {"rental_uris": {"ios": "https://dc.lft.to/lastmile_qr_scan", "android": "https://dc.lft.to/lastmile_qr_scan"}, "name": "c854526ecc75cded1b6223825857b360", "is_disabled": 0, "fusion_lon": 0.0, "fusion_lat": 0.0, "lon": -76.97351733333333, "bike_id": "c854526ecc75cded1b6223825857b360", "lat": 38.865555666666666, "is_reserved": 0, "type": "electric_bike"}, {"rental_uris": {"ios": "https://dc.lft.to/lastmile_qr_scan", "android": "https://dc.lft.to/lastmile_qr_scan"}, "name": "55dbc34e1a86ca01cbf1bb37a6d8e3e9", "is_disabled": 0, "fusion_lon": 0.0, "fusion_lat": 0.0, "lon": -77.01364383333333, "bike_id": "55dbc34e1a86ca01cbf1bb37a6d8e3e9", "lat": 38.928809, "is_reserved": 0, "type": "electric_scooter"}, {"rental_uris": {"ios": "https://dc.lft.to/lastmile_qr_scan", "android": "https://dc.lft.to/lastmile_qr_scan"}, "name": "6935d8b15ca1280e92fc8097a14668b1", "is_disabled": 0, "fusion_lon": 0.0, "fusion_lat": 0.0, "lon": -77.03845016666666, "bike_id": "6935d8b15ca1280e92fc8097a14668b1", "lat": 38.916600333333335, "is_reserved": 0, "type": "electric_scooter"}, {"rental_uris": {"ios": "https://dc.lft.to/lastmile_qr_scan", "android": "https://dc.lft.to/lastmile_qr_scan"}, "name": "c5d9d47923731ee1317c3684b7b07cce", "is_disabled": 0, "fusion_lon": 0.0, "fusion_lat": 0.0, "lon": -77.0221585, "bike_id": "c5d9d47923731ee1317c3684b7b07cce", "lat": 38.924684666666664, "is_reserved": 0, "type": "electric_scooter"}, {"rental_uris": {"ios": "https://dc.lft.to/lastmile_qr_scan", "android": "https://dc.lft.to/lastmile_qr_scan"}, "name": "9317ffcdf626102ffd117bb2a3b1e3d0", "is_disabled": 0, "fusion_lon": 0.0, "fusion_lat": 0.0, "lon": -77.23334183333333, "bike_id": "9317ffcdf626102ffd117bb2a3b1e3d0", "lat": 38.87274416666666, "is_reserved": 0, "type": "electric_bike"}, {"rental_uris": {"ios": "https://dc.lft.to/lastmile_qr_scan", "android": "https://dc.lft.to/lastmile_qr_scan"}, "name": "fb2357485f3a2e3621d0abb8a9644e20", "is_disabled": 0, "fusion_lon": 0.0, "fusion_lat": 0.0, "lon": -77.09351316666667, "bike_id": "fb2357485f3a2e3621d0abb8a9644e20", "lat": 38.83788766666667, "is_reserved": 0, "type": "electric_bike"}, {"rental_uris": {"ios": "https://dc.lft.to/lastmile_qr_scan", "android": "https://dc.lft.to/lastmile_qr_scan"}, "name": "a55004977602b092d3c87bbd94ea57a5", "is_disabled": 0, "fusion_lon": 0.0, "fusion_lat": 0.0, "lon": -77.04008383333333, "bike_id": "a55004977602b092d3c87bbd94ea57a5", "lat": 38.91003933333333, "is_reserved": 0, "type": "electric_scooter"}, {"rental_uris": {"ios": "https://dc.lft.to/lastmile_qr_scan", "android": "https://dc.lft.to/lastmile_qr_scan"}, "name": "8fe0a93927bc752f8c175f49e60ceca0", "is_disabled": 0, "fusion_lon": 0.0, "fusion_lat": 0.0, "lon": -77.01387616666666, "bike_id": "8fe0a93927bc752f8c175f49e60ceca0", "lat": 38.878952166666664, "is_reserved": 0, "type": "electric_scooter"}, {"rental_uris": {"ios": "https://dc.lft.to/lastmile_qr_scan", "android": "https://dc.lft.to/lastmile_qr_scan"}, "name": "ad0535cf0c98a1fb83e42fa26fe6585e", "is_disabled": 0, "fusion_lon": 0.0, "fusion_lat": 0.0, "lon": -77.03663966666667, "bike_id": "ad0535cf0c98a1fb83e42fa26fe6585e", "lat": 38.9029905, "is_reserved": 0, "type": "electric_scooter"}, {"rental_uris": {"ios": "https://dc.lft.to/lastmile_qr_scan", "android": "https://dc.lft.to/lastmile_qr_scan"}, "name": "676b6ecb33a065c7a4a4a926091da484", "is_disabled": 0, "fusion_lon": 0.0, "fusion_lat": 0.0, "lon": -76.98839783333334, "bike_id": "676b6ecb33a065c7a4a4a926091da484", "lat": 38.8919695, "is_reserved": 0, "type": "electric_scooter"}, {"rental_uris": {"ios": "https://dc.lft.to/lastmile_qr_scan", "android": "https://dc.lft.to/lastmile_qr_scan"}, "name": "8df21e6b2e35a57dd8f192d2876a0dc3", "is_disabled": 0, "fusion_lon": 0.0, "fusion_lat": 0.0, "lon": -77.01810166666667, "bike_id": "8df21e6b2e35a57dd8f192d2876a0dc3", "lat": 38.919359, "is_reserved": 0, "type": "electric_scooter"}, {"rental_uris": {"ios": "https://dc.lft.to/lastmile_qr_scan", "android": "https://dc.lft.to/lastmile_qr_scan"}, "name": "9645776c3b588b71a9f992247e70dd1a", "is_disabled": 0, "fusion_lon": 0.0, "fusion_lat": 0.0, "lon": -77.02608416666666, "bike_id": "9645776c3b588b71a9f992247e70dd1a", "lat": 38.902597666666665, "is_reserved": 0, "type": "electric_scooter"}, {"rental_uris": {"ios": "https://dc.lft.to/lastmile_qr_scan", "android": "https://dc.lft.to/lastmile_qr_scan"}, "name": "ef38d33d48a7b43612d57f76a14312e5", "is_disabled": 0, "fusion_lon": 0.0, "fusion_lat": 0.0, "lon": -77.05251633333333, "bike_id": "ef38d33d48a7b43612d57f76a14312e5", "lat": 38.92493866666667, "is_reserved": 0, "type": "electric_scooter"}, {"rental_uris": {"ios": "https://dc.lft.to/lastmile_qr_scan", "android": "https://dc.lft.to/lastmile_qr_scan"}, "name": "f581b038a2373aea30bbfd8fc73ae5ac", "is_disabled": 0, "fusion_lon": 0.0, "fusion_lat": 0.0, "lon": -76.977374, "bike_id": "f581b038a2373aea30bbfd8fc73ae5ac", "lat": 38.864908, "is_reserved": 0, "type": "electric_bike"}, {"rental_uris": {"ios": "https://dc.lft.to/lastmile_qr_scan", "android": "https://dc.lft.to/lastmile_qr_scan"}, "name": "0f20cd2c2eeee60985344f44904eaae0", "is_disabled": 0, "fusion_lon": 0.0, "fusion_lat": 0.0, "lon": -77.01590083333333, "bike_id": "0f20cd2c2eeee60985344f44904eaae0", "lat": 38.885155166666664, "is_reserved": 0, "type": "electric_scooter"}, {"rental_uris": {"ios": "https://dc.lft.to/lastmile_qr_scan", "android": "https://dc.lft.to/lastmile_qr_scan"}, "name": "a269a6d1f04ea4eef2b4f7f9a6faf960", "is_disabled": 0, "fusion_lon": 0.0, "fusion_lat": 0.0, "lon": -77.00138216666667, "bike_id": "a269a6d1f04ea4eef2b4f7f9a6faf960", "lat": 38.88431216666667, "is_reserved": 0, "type": "electric_scooter"}, {"rental_uris": {"ios": "https://dc.lft.to/lastmile_qr_scan", "android": "https://dc.lft.to/lastmile_qr_scan"}, "name": "f3aba5685fb571746437ef94eece1b57", "is_disabled": 0, "fusion_lon": 0.0, "fusion_lat": 0.0, "lon": -76.99148083333333, "bike_id": "f3aba5685fb571746437ef94eece1b57", "lat": 38.891622166666664, "is_reserved": 0, "type": "electric_scooter"}, {"rental_uris": {"ios": "https://dc.lft.to/lastmile_qr_scan", "android": "https://dc.lft.to/lastmile_qr_scan"}, "name": "5cd3b21ab5f8abbde8467cd4743c6dc3", "is_disabled": 0, "fusion_lon": 0.0, "fusion_lat": 0.0, "lon": -77.00933666666667, "bike_id": "5cd3b21ab5f8abbde8467cd4743c6dc3", "lat": 38.913388, "is_reserved": 0, "type": "electric_scooter"}, {"rental_uris": {"ios": "https://dc.lft.to/lastmile_qr_scan", "android": "https://dc.lft.to/lastmile_qr_scan"}, "name": "ed4f4d1f5fb7570c1ac732c5244aa7b2", "is_disabled": 0, "fusion_lon": 0.0, "fusion_lat": 0.0, "lon": -76.99789366666667, "bike_id": "ed4f4d1f5fb7570c1ac732c5244aa7b2", "lat": 38.998293333333336, "is_reserved": 0, "type": "electric_bike"}, {"rental_uris": {"ios": "https://dc.lft.to/lastmile_qr_scan", "android": "https://dc.lft.to/lastmile_qr_scan"}, "name": "1a28235efb5abbc4ba4ba03b0c0dd250", "is_disabled": 0, "fusion_lon": 0.0, "fusion_lat": 0.0, "lon": -77.0122055, "bike_id": "1a28235efb5abbc4ba4ba03b0c0dd250", "lat": 38.915381833333335, "is_reserved": 0, "type": "electric_scooter"}, {"rental_uris": {"ios": "https://dc.lft.to/lastmile_qr_scan", "android": "https://dc.lft.to/lastmile_qr_scan"}, "name": "1ae4f5479b80eeb5be06314f4f079f02", "is_disabled": 0, "fusion_lon": 0.0, "fusion_lat": 0.0, "lon": -77.02178716666667, "bike_id": "1ae4f5479b80eeb5be06314f4f079f02", "lat": 38.9249515, "is_reserved": 0, "type": "electric_scooter"}, {"rental_uris": {"ios": "https://dc.lft.to/lastmile_qr_scan", "android": "https://dc.lft.to/lastmile_qr_scan"}, "name": "9d1d31494af238a2d744c7abb487d624", "is_disabled": 0, "fusion_lon": 0.0, "fusion_lat": 0.0, "lon": -76.9860155, "bike_id": "9d1d31494af238a2d744c7abb487d624", "lat": 38.906499, "is_reserved": 0, "type": "electric_scooter"}, {"rental_uris": {"ios": "https://dc.lft.to/lastmile_qr_scan", "android": "https://dc.lft.to/lastmile_qr_scan"}, "name": "9e4e6de94e8646077cdd78fe624ba6fd", "is_disabled": 0, "fusion_lon": 0.0, "fusion_lat": 0.0, "lon": -77.02963116666666, "bike_id": "9e4e6de94e8646077cdd78fe624ba6fd", "lat": 38.926078, "is_reserved": 0, "type": "electric_scooter"}, {"rental_uris": {"ios": "https://dc.lft.to/lastmile_qr_scan", "android": "https://dc.lft.to/lastmile_qr_scan"}, "name": "da64da2c5156fed048c82433db870ad9", "is_disabled": 0, "fusion_lon": 0.0, "fusion_lat": 0.0, "lon": -77.03284366666666, "bike_id": "da64da2c5156fed048c82433db870ad9", "lat": 38.89896916666667, "is_reserved": 0, "type": "electric_scooter"}, {"rental_uris": {"ios": "https://dc.lft.to/lastmile_qr_scan", "android": "https://dc.lft.to/lastmile_qr_scan"}, "name": "ea29b757c7c5758ec0bcc610b2e30c4b", "is_disabled": 0, "fusion_lon": 0.0, "fusion_lat": 0.0, "lon": -77.03284333333333, "bike_id": "ea29b757c7c5758ec0bcc610b2e30c4b", "lat": 38.940592, "is_reserved": 0, "type": "electric_scooter"}, {"rental_uris": {"ios": "https://dc.lft.to/lastmile_qr_scan", "android": "https://dc.lft.to/lastmile_qr_scan"}, "name": "df4e6904afc24d706f6b784a7fc5d96d", "is_disabled": 0, "fusion_lon": 0.0, "fusion_lat": 0.0, "lon": -77.019535, "bike_id": "df4e6904afc24d706f6b784a7fc5d96d", "lat": 38.9232415, "is_reserved": 0, "type": "electric_scooter"}, {"rental_uris": {"ios": "https://dc.lft.to/lastmile_qr_scan", "android": "https://dc.lft.to/lastmile_qr_scan"}, "name": "5bbdc53a0754089d542e583e4a299bde", "is_disabled": 0, "fusion_lon": 0.0, "fusion_lat": 0.0, "lon": -77.0218145, "bike_id": "5bbdc53a0754089d542e583e4a299bde", "lat": 38.901135333333336, "is_reserved": 0, "type": "electric_scooter"}, {"rental_uris": {"ios": "https://dc.lft.to/lastmile_qr_scan", "android": "https://dc.lft.to/lastmile_qr_scan"}, "name": "2ce2d563517e8dc8f4ff51053ddc1b37", "is_disabled": 0, "fusion_lon": 0.0, "fusion_lat": 0.0, "lon": -76.9837685, "bike_id": "2ce2d563517e8dc8f4ff51053ddc1b37", "lat": 38.906493833333336, "is_reserved": 0, "type": "electric_scooter"}, {"rental_uris": {"ios": "https://dc.lft.to/lastmile_qr_scan", "android": "https://dc.lft.to/lastmile_qr_scan"}, "name": "d690bf46014322b89df59e1b7d03fa57", "is_disabled": 0, "fusion_lon": 0.0, "fusion_lat": 0.0, "lon": -77.04131116666667, "bike_id": "d690bf46014322b89df59e1b7d03fa57", "lat": 38.92113533333333, "is_reserved": 0, "type": "electric_scooter"}, {"rental_uris": {"ios": "https://dc.lft.to/lastmile_qr_scan", "android": "https://dc.lft.to/lastmile_qr_scan"}, "name": "dbf288ee50c0899d7579ee0f14bebdf8", "is_disabled": 0, "fusion_lon": 0.0, "fusion_lat": 0.0, "lon": -77.02034783333333, "bike_id": "dbf288ee50c0899d7579ee0f14bebdf8", "lat": 38.9242875, "is_reserved": 0, "type": "electric_scooter"}, {"rental_uris": {"ios": "https://dc.lft.to/lastmile_qr_scan", "android": "https://dc.lft.to/lastmile_qr_scan"}, "name": "628ac104d140d6b79b07a0bf95e2e1a1", "is_disabled": 0, "fusion_lon": 0.0, "fusion_lat": 0.0, "lon": -77.00610883333333, "bike_id": "628ac104d140d6b79b07a0bf95e2e1a1", "lat": 38.87543633333333, "is_reserved": 0, "type": "electric_scooter"}, {"rental_uris": {"ios": "https://dc.lft.to/lastmile_qr_scan", "android": "https://dc.lft.to/lastmile_qr_scan"}, "name": "90d2145cdc8c765763304d52a1d4ea4f", "is_disabled": 0, "fusion_lon": 0.0, "fusion_lat": 0.0, "lon": -77.019519, "bike_id": "90d2145cdc8c765763304d52a1d4ea4f", "lat": 38.92424483333333, "is_reserved": 0, "type": "electric_scooter"}, {"rental_uris": {"ios": "https://dc.lft.to/lastmile_qr_scan", "android": "https://dc.lft.to/lastmile_qr_scan"}, "name": "5dad163c539e6a884e4c37a6abf1fb31", "is_disabled": 0, "fusion_lon": 0.0, "fusion_lat": 0.0, "lon": -77.02447216666667, "bike_id": "5dad163c539e6a884e4c37a6abf1fb31", "lat": 38.94976483333333, "is_reserved": 0, "type": "electric_scooter"}, {"rental_uris": {"ios": "https://dc.lft.to/lastmile_qr_scan", "android": "https://dc.lft.to/lastmile_qr_scan"}, "name": "28cac1e683f1ef4a6cd055d9b331c535", "is_disabled": 0, "fusion_lon": 0.0, "fusion_lat": 0.0, "lon": -76.98203766666667, "bike_id": "28cac1e683f1ef4a6cd055d9b331c535", "lat": 38.9850515, "is_reserved": 0, "type": "electric_bike"}, {"rental_uris": {"ios": "https://dc.lft.to/lastmile_qr_scan", "android": "https://dc.lft.to/lastmile_qr_scan"}, "name": "e6e5ab7f284d68d0bf08603c3928f760", "is_disabled": 0, "fusion_lon": 0.0, "fusion_lat": 0.0, "lon": -77.0321355, "bike_id": "e6e5ab7f284d68d0bf08603c3928f760", "lat": 38.92220833333333, "is_reserved": 0, "type": "electric_scooter"}, {"rental_uris": {"ios": "https://dc.lft.to/lastmile_qr_scan", "android": "https://dc.lft.to/lastmile_qr_scan"}, "name": "5b0ffcd280ad40e08c80a0e984d9dde1", "is_disabled": 0, "fusion_lon": 0.0, "fusion_lat": 0.0, "lon": -77.0371, "bike_id": "5b0ffcd280ad40e08c80a0e984d9dde1", "lat": 38.92647866666667, "is_reserved": 0, "type": "electric_scooter"}, {"rental_uris": {"ios": "https://dc.lft.to/lastmile_qr_scan", "android": "https://dc.lft.to/lastmile_qr_scan"}, "name": "3c2f5768de8a5e1fc006e4b483ac9f88", "is_disabled": 0, "fusion_lon": 0.0, "fusion_lat": 0.0, "lon": -76.99048783333333, "bike_id": "3c2f5768de8a5e1fc006e4b483ac9f88", "lat": 38.93819333333333, "is_reserved": 0, "type": "electric_scooter"}, {"rental_uris": {"ios": "https://dc.lft.to/lastmile_qr_scan", "android": "https://dc.lft.to/lastmile_qr_scan"}, "name": "841fa9777375253e9a44c5c1fcfcbf1d", "is_disabled": 0, "fusion_lon": 0.0, "fusion_lat": 0.0, "lon": -77.02644316666667, "bike_id": "841fa9777375253e9a44c5c1fcfcbf1d", "lat": 38.9041515, "is_reserved": 0, "type": "electric_scooter"}, {"rental_uris": {"ios": "https://dc.lft.to/lastmile_qr_scan", "android": "https://dc.lft.to/lastmile_qr_scan"}, "name": "187db3ff5897b69101d450545f7b2e0b", "is_disabled": 0, "fusion_lon": 0.0, "fusion_lat": 0.0, "lon": -76.9991365, "bike_id": "187db3ff5897b69101d450545f7b2e0b", "lat": 38.924596333333334, "is_reserved": 0, "type": "electric_scooter"}, {"rental_uris": {"ios": "https://dc.lft.to/lastmile_qr_scan", "android": "https://dc.lft.to/lastmile_qr_scan"}, "name": "bd669cd64e2b4e5b1c6b72236686ee3e", "is_disabled": 0, "fusion_lon": 0.0, "fusion_lat": 0.0, "lon": -77.0308685, "bike_id": "bd669cd64e2b4e5b1c6b72236686ee3e", "lat": 38.900190333333335, "is_reserved": 0, "type": "electric_scooter"}, {"rental_uris": {"ios": "https://dc.lft.to/lastmile_qr_scan", "android": "https://dc.lft.to/lastmile_qr_scan"}, "name": "062dd0ad325f3c8e0d1d4d0e3202489f", "is_disabled": 0, "fusion_lon": 0.0, "fusion_lat": 0.0, "lon": -77.01746183333333, "bike_id": "062dd0ad325f3c8e0d1d4d0e3202489f", "lat": 38.9023275, "is_reserved": 0, "type": "electric_scooter"}, {"rental_uris": {"ios": "https://dc.lft.to/lastmile_qr_scan", "android": "https://dc.lft.to/lastmile_qr_scan"}, "name": "20dfaa7680d2382120a54ee452f91558", "is_disabled": 0, "fusion_lon": 0.0, "fusion_lat": 0.0, "lon": -77.04808033333333, "bike_id": "20dfaa7680d2382120a54ee452f91558", "lat": 38.9020765, "is_reserved": 0, "type": "electric_scooter"}, {"rental_uris": {"ios": "https://dc.lft.to/lastmile_qr_scan", "android": "https://dc.lft.to/lastmile_qr_scan"}, "name": "ada5616ed7bcbc183d546d2baf667112", "is_disabled": 0, "fusion_lon": 0.0, "fusion_lat": 0.0, "lon": -76.98037866666667, "bike_id": "ada5616ed7bcbc183d546d2baf667112", "lat": 38.889702, "is_reserved": 0, "type": "electric_scooter"}, {"rental_uris": {"ios": "https://dc.lft.to/lastmile_qr_scan", "android": "https://dc.lft.to/lastmile_qr_scan"}, "name": "17217e01ec1b7fb21df51b5ab63e1255", "is_disabled": 0, "fusion_lon": 0.0, "fusion_lat": 0.0, "lon": -77.022816, "bike_id": "17217e01ec1b7fb21df51b5ab63e1255", "lat": 38.914387, "is_reserved": 0, "type": "electric_scooter"}, {"rental_uris": {"ios": "https://dc.lft.to/lastmile_qr_scan", "android": "https://dc.lft.to/lastmile_qr_scan"}, "name": "0a6e2bbee958d9a1770adb1383d22a35", "is_disabled": 0, "fusion_lon": 0.0, "fusion_lat": 0.0, "lon": -77.03426716666667, "bike_id": "0a6e2bbee958d9a1770adb1383d22a35", "lat": 38.90259483333333, "is_reserved": 0, "type": "electric_scooter"}, {"rental_uris": {"ios": "https://dc.lft.to/lastmile_qr_scan", "android": "https://dc.lft.to/lastmile_qr_scan"}, "name": "817cae639c5f752a51cdb0ca55865dbc", "is_disabled": 0, "fusion_lon": 0.0, "fusion_lat": 0.0, "lon": -76.94465083333333, "bike_id": "817cae639c5f752a51cdb0ca55865dbc", "lat": 38.89023516666666, "is_reserved": 0, "type": "electric_scooter"}, {"rental_uris": {"ios": "https://dc.lft.to/lastmile_qr_scan", "android": "https://dc.lft.to/lastmile_qr_scan"}, "name": "2283eaf849cb0baf805fdd5a7b8d83e5", "is_disabled": 0, "fusion_lon": 0.0, "fusion_lat": 0.0, "lon": -77.01601283333333, "bike_id": "2283eaf849cb0baf805fdd5a7b8d83e5", "lat": 38.89182533333334, "is_reserved": 0, "type": "electric_scooter"}, {"rental_uris": {"ios": "https://dc.lft.to/lastmile_qr_scan", "android": "https://dc.lft.to/lastmile_qr_scan"}, "name": "11b4489b1f32d069bccb460b9a54e2ba", "is_disabled": 0, "fusion_lon": 0.0, "fusion_lat": 0.0, "lon": -77.00286833333334, "bike_id": "11b4489b1f32d069bccb460b9a54e2ba", "lat": 38.893555, "is_reserved": 0, "type": "electric_scooter"}, {"rental_uris": {"ios": "https://dc.lft.to/lastmile_qr_scan", "android": "https://dc.lft.to/lastmile_qr_scan"}, "name": "a056c1fe76a58e9ba67df64eb134280d", "is_disabled": 0, "fusion_lon": 0.0, "fusion_lat": 0.0, "lon": -77.029611, "bike_id": "a056c1fe76a58e9ba67df64eb134280d", "lat": 38.898896, "is_reserved": 0, "type": "electric_scooter"}, {"rental_uris": {"ios": "https://dc.lft.to/lastmile_qr_scan", "android": "https://dc.lft.to/lastmile_qr_scan"}, "name": "d8c643343e1d13da3d37f995cc560032", "is_disabled": 0, "fusion_lon": 0.0, "fusion_lat": 0.0, "lon": -76.998709, "bike_id": "d8c643343e1d13da3d37f995cc560032", "lat": 38.90026666666667, "is_reserved": 0, "type": "electric_scooter"}, {"rental_uris": {"ios": "https://dc.lft.to/lastmile_qr_scan", "android": "https://dc.lft.to/lastmile_qr_scan"}, "name": "66fc22a7664a27db280a6831d5f83b33", "is_disabled": 0, "fusion_lon": 0.0, "fusion_lat": 0.0, "lon": -77.01993133333333, "bike_id": "66fc22a7664a27db280a6831d5f83b33", "lat": 38.885869, "is_reserved": 0, "type": "electric_scooter"}, {"rental_uris": {"ios": "https://dc.lft.to/lastmile_qr_scan", "android": "https://dc.lft.to/lastmile_qr_scan"}, "name": "d4eca2e3e794f7f1fae86510741827fc", "is_disabled": 0, "fusion_lon": 0.0, "fusion_lat": 0.0, "lon": -77.01938066666666, "bike_id": "d4eca2e3e794f7f1fae86510741827fc", "lat": 38.93257883333333, "is_reserved": 0, "type": "electric_scooter"}, {"rental_uris": {"ios": "https://dc.lft.to/lastmile_qr_scan", "android": "https://dc.lft.to/lastmile_qr_scan"}, "name": "1509c5068086f9543ae76f6737f9a31e", "is_disabled": 0, "fusion_lon": 0.0, "fusion_lat": 0.0, "lon": -77.03333416666666, "bike_id": "1509c5068086f9543ae76f6737f9a31e", "lat": 38.90011666666667, "is_reserved": 0, "type": "electric_scooter"}, {"rental_uris": {"ios": "https://dc.lft.to/lastmile_qr_scan", "android": "https://dc.lft.to/lastmile_qr_scan"}, "name": "3caefaea447ee8eaf3eab1863869f998", "is_disabled": 0, "fusion_lon": 0.0, "fusion_lat": 0.0, "lon": -77.084078, "bike_id": "3caefaea447ee8eaf3eab1863869f998", "lat": 38.83297116666667, "is_reserved": 0, "type": "electric_bike"}, {"rental_uris": {"ios": "https://dc.lft.to/lastmile_qr_scan", "android": "https://dc.lft.to/lastmile_qr_scan"}, "name": "0842b7f93ae72f5b832f7389198e1712", "is_disabled": 0, "fusion_lon": 0.0, "fusion_lat": 0.0, "lon": -77.03775416666667, "bike_id": "0842b7f93ae72f5b832f7389198e1712", "lat": 38.91869666666667, "is_reserved": 0, "type": "electric_scooter"}, {"rental_uris": {"ios": "https://dc.lft.to/lastmile_qr_scan", "android": "https://dc.lft.to/lastmile_qr_scan"}, "name": "ad2cd558d9920cbc66686c99173818dc", "is_disabled": 0, "fusion_lon": 0.0, "fusion_lat": 0.0, "lon": -77.05237533333333, "bike_id": "ad2cd558d9920cbc66686c99173818dc", "lat": 38.92465133333334, "is_reserved": 0, "type": "electric_scooter"}, {"rental_uris": {"ios": "https://dc.lft.to/lastmile_qr_scan", "android": "https://dc.lft.to/lastmile_qr_scan"}, "name": "8dc60ca18be6a5c542637b150805d8e9", "is_disabled": 0, "fusion_lon": 0.0, "fusion_lat": 0.0, "lon": -77.02306816666666, "bike_id": "8dc60ca18be6a5c542637b150805d8e9", "lat": 38.93203616666667, "is_reserved": 0, "type": "electric_scooter"}, {"rental_uris": {"ios": "https://dc.lft.to/lastmile_qr_scan", "android": "https://dc.lft.to/lastmile_qr_scan"}, "name": "81d8716a03d32a1bfc5bc7fdee1ade19", "is_disabled": 0, "fusion_lon": 0.0, "fusion_lat": 0.0, "lon": -76.9856855, "bike_id": "81d8716a03d32a1bfc5bc7fdee1ade19", "lat": 38.91273566666667, "is_reserved": 0, "type": "electric_scooter"}, {"rental_uris": {"ios": "https://dc.lft.to/lastmile_qr_scan", "android": "https://dc.lft.to/lastmile_qr_scan"}, "name": "d980ed2cee6283dd5681d0cbc2cdaf8b", "is_disabled": 0, "fusion_lon": 0.0, "fusion_lat": 0.0, "lon": -77.03259983333334, "bike_id": "d980ed2cee6283dd5681d0cbc2cdaf8b", "lat": 38.897212, "is_reserved": 0, "type": "electric_scooter"}, {"rental_uris": {"ios": "https://dc.lft.to/lastmile_qr_scan", "android": "https://dc.lft.to/lastmile_qr_scan"}, "name": "73e27ace742cc094b5b5814474fc0f79", "is_disabled": 0, "fusion_lon": 0.0, "fusion_lat": 0.0, "lon": -77.03152233333333, "bike_id": "73e27ace742cc094b5b5814474fc0f79", "lat": 38.94176383333333, "is_reserved": 0, "type": "electric_scooter"}, {"rental_uris": {"ios": "https://dc.lft.to/lastmile_qr_scan", "android": "https://dc.lft.to/lastmile_qr_scan"}, "name": "8fdd3418caf80f30c85f9111f9fcfbe6", "is_disabled": 0, "fusion_lon": 0.0, "fusion_lat": 0.0, "lon": -76.96821883333334, "bike_id": "8fdd3418caf80f30c85f9111f9fcfbe6", "lat": 38.95528916666667, "is_reserved": 0, "type": "electric_bike"}, {"rental_uris": {"ios": "https://dc.lft.to/lastmile_qr_scan", "android": "https://dc.lft.to/lastmile_qr_scan"}, "name": "c7141e65edfccb29f1209f8ac0d0c186", "is_disabled": 0, "fusion_lon": 0.0, "fusion_lat": 0.0, "lon": -77.03318716666666, "bike_id": "c7141e65edfccb29f1209f8ac0d0c186", "lat": 38.938882166666666, "is_reserved": 0, "type": "electric_scooter"}, {"rental_uris": {"ios": "https://dc.lft.to/lastmile_qr_scan", "android": "https://dc.lft.to/lastmile_qr_scan"}, "name": "be18a494d5e06a4ed79a79f7dca5b003", "is_disabled": 0, "fusion_lon": 0.0, "fusion_lat": 0.0, "lon": -77.03328983333333, "bike_id": "be18a494d5e06a4ed79a79f7dca5b003", "lat": 38.89633233333333, "is_reserved": 0, "type": "electric_scooter"}, {"rental_uris": {"ios": "https://dc.lft.to/lastmile_qr_scan", "android": "https://dc.lft.to/lastmile_qr_scan"}, "name": "7cc27ba49abeb52a5511957628e9456d", "is_disabled": 0, "fusion_lon": 0.0, "fusion_lat": 0.0, "lon": -77.0453445, "bike_id": "7cc27ba49abeb52a5511957628e9456d", "lat": 38.9120245, "is_reserved": 0, "type": "electric_scooter"}, {"rental_uris": {"ios": "https://dc.lft.to/lastmile_qr_scan", "android": "https://dc.lft.to/lastmile_qr_scan"}, "name": "2d329a248200e57ebf55903a8cfbad10", "is_disabled": 0, "fusion_lon": 0.0, "fusion_lat": 0.0, "lon": -77.021881, "bike_id": "2d329a248200e57ebf55903a8cfbad10", "lat": 38.911319166666665, "is_reserved": 0, "type": "electric_scooter"}, {"rental_uris": {"ios": "https://dc.lft.to/lastmile_qr_scan", "android": "https://dc.lft.to/lastmile_qr_scan"}, "name": "98d80d6dc0342a789e6937912b2121b2", "is_disabled": 0, "fusion_lon": 0.0, "fusion_lat": 0.0, "lon": -77.01695716666667, "bike_id": "98d80d6dc0342a789e6937912b2121b2", "lat": 38.906434, "is_reserved": 0, "type": "electric_scooter"}, {"rental_uris": {"ios": "https://dc.lft.to/lastmile_qr_scan", "android": "https://dc.lft.to/lastmile_qr_scan"}, "name": "e04877946c8ad71df59d886fce716510", "is_disabled": 0, "fusion_lon": 0.0, "fusion_lat": 0.0, "lon": -77.0644885, "bike_id": "e04877946c8ad71df59d886fce716510", "lat": 38.94877733333333, "is_reserved": 0, "type": "electric_scooter"}, {"rental_uris": {"ios": "https://dc.lft.to/lastmile_qr_scan", "android": "https://dc.lft.to/lastmile_qr_scan"}, "name": "7865348777cc70f7cbce6aa2d872a535", "is_disabled": 0, "fusion_lon": 0.0, "fusion_lat": 0.0, "lon": -76.92500566666666, "bike_id": "7865348777cc70f7cbce6aa2d872a535", "lat": 38.88601366666666, "is_reserved": 0, "type": "electric_scooter"}, {"rental_uris": {"ios": "https://dc.lft.to/lastmile_qr_scan", "android": "https://dc.lft.to/lastmile_qr_scan"}, "name": "855faeb6673ed1d9d21700b517adbce1", "is_disabled": 0, "fusion_lon": 0.0, "fusion_lat": 0.0, "lon": -77.01946416666667, "bike_id": "855faeb6673ed1d9d21700b517adbce1", "lat": 38.92416866666667, "is_reserved": 0, "type": "electric_scooter"}, {"rental_uris": {"ios": "https://dc.lft.to/lastmile_qr_scan", "android": "https://dc.lft.to/lastmile_qr_scan"}, "name": "0fc53791dcc195d55dab902c1e7d60d2", "is_disabled": 0, "fusion_lon": 0.0, "fusion_lat": 0.0, "lon": -77.04264983333333, "bike_id": "0fc53791dcc195d55dab902c1e7d60d2", "lat": 38.91298533333333, "is_reserved": 0, "type": "electric_scooter"}, {"rental_uris": {"ios": "https://dc.lft.to/lastmile_qr_scan", "android": "https://dc.lft.to/lastmile_qr_scan"}, "name": "afe75cb411733779a54c1d896c123d89", "is_disabled": 0, "fusion_lon": 0.0, "fusion_lat": 0.0, "lon": -77.0091265, "bike_id": "afe75cb411733779a54c1d896c123d89", "lat": 38.898937333333336, "is_reserved": 0, "type": "electric_scooter"}, {"rental_uris": {"ios": "https://dc.lft.to/lastmile_qr_scan", "android": "https://dc.lft.to/lastmile_qr_scan"}, "name": "5109efbb588cdac095ce1e782c31ee17", "is_disabled": 0, "fusion_lon": 0.0, "fusion_lat": 0.0, "lon": -77.02379633333334, "bike_id": "5109efbb588cdac095ce1e782c31ee17", "lat": 38.95272216666667, "is_reserved": 0, "type": "electric_scooter"}, {"rental_uris": {"ios": "https://dc.lft.to/lastmile_qr_scan", "android": "https://dc.lft.to/lastmile_qr_scan"}, "name": "15edb25f1eefb43a19a688294ca8f888", "is_disabled": 0, "fusion_lon": 0.0, "fusion_lat": 0.0, "lon": -77.003323, "bike_id": "15edb25f1eefb43a19a688294ca8f888", "lat": 38.89212416666667, "is_reserved": 0, "type": "electric_scooter"}, {"rental_uris": {"ios": "https://dc.lft.to/lastmile_qr_scan", "android": "https://dc.lft.to/lastmile_qr_scan"}, "name": "eaf2bf27194a174f7995d47dfc0e08b3", "is_disabled": 0, "fusion_lon": 0.0, "fusion_lat": 0.0, "lon": -77.0186195, "bike_id": "eaf2bf27194a174f7995d47dfc0e08b3", "lat": 38.92139266666667, "is_reserved": 0, "type": "electric_scooter"}, {"rental_uris": {"ios": "https://dc.lft.to/lastmile_qr_scan", "android": "https://dc.lft.to/lastmile_qr_scan"}, "name": "12f072dcfae2973d5c837e2c961ea5bd", "is_disabled": 0, "fusion_lon": 0.0, "fusion_lat": 0.0, "lon": -77.03320333333333, "bike_id": "12f072dcfae2973d5c837e2c961ea5bd", "lat": 38.90390466666667, "is_reserved": 0, "type": "electric_scooter"}, {"rental_uris": {"ios": "https://dc.lft.to/lastmile_qr_scan", "android": "https://dc.lft.to/lastmile_qr_scan"}, "name": "6dfd5db1c546bd192a96a91ff0779efa", "is_disabled": 0, "fusion_lon": 0.0, "fusion_lat": 0.0, "lon": -77.02953483333333, "bike_id": "6dfd5db1c546bd192a96a91ff0779efa", "lat": 38.923798166666664, "is_reserved": 0, "type": "electric_scooter"}, {"rental_uris": {"ios": "https://dc.lft.to/lastmile_qr_scan", "android": "https://dc.lft.to/lastmile_qr_scan"}, "name": "e2f5a4d1e15126293af8f5acf11f0ac1", "is_disabled": 0, "fusion_lon": 0.0, "fusion_lat": 0.0, "lon": -77.01968233333334, "bike_id": "e2f5a4d1e15126293af8f5acf11f0ac1", "lat": 38.92326533333333, "is_reserved": 0, "type": "electric_scooter"}, {"rental_uris": {"ios": "https://dc.lft.to/lastmile_qr_scan", "android": "https://dc.lft.to/lastmile_qr_scan"}, "name": "21dadab8cc8c84e12e5ee9c057c00d72", "is_disabled": 0, "fusion_lon": 0.0, "fusion_lat": 0.0, "lon": -77.04560916666667, "bike_id": "21dadab8cc8c84e12e5ee9c057c00d72", "lat": 38.90235633333333, "is_reserved": 0, "type": "electric_scooter"}, {"rental_uris": {"ios": "https://dc.lft.to/lastmile_qr_scan", "android": "https://dc.lft.to/lastmile_qr_scan"}, "name": "009ff9a32cc3f7c44aa48723fa0101cd", "is_disabled": 0, "fusion_lon": 0.0, "fusion_lat": 0.0, "lon": -77.02344483333333, "bike_id": "009ff9a32cc3f7c44aa48723fa0101cd", "lat": 38.9306785, "is_reserved": 0, "type": "electric_scooter"}, {"rental_uris": {"ios": "https://dc.lft.to/lastmile_qr_scan", "android": "https://dc.lft.to/lastmile_qr_scan"}, "name": "1bc066f1da06e57c07009ffe03c26629", "is_disabled": 0, "fusion_lon": 0.0, "fusion_lat": 0.0, "lon": -77.0611275, "bike_id": "1bc066f1da06e57c07009ffe03c26629", "lat": 38.94365916666667, "is_reserved": 0, "type": "electric_scooter"}, {"rental_uris": {"ios": "https://dc.lft.to/lastmile_qr_scan", "android": "https://dc.lft.to/lastmile_qr_scan"}, "name": "3ebdb3850d2591941b1d178a3152bd46", "is_disabled": 0, "fusion_lon": 0.0, "fusion_lat": 0.0, "lon": -77.03189933333333, "bike_id": "3ebdb3850d2591941b1d178a3152bd46", "lat": 38.9185025, "is_reserved": 0, "type": "electric_scooter"}, {"rental_uris": {"ios": "https://dc.lft.to/lastmile_qr_scan", "android": "https://dc.lft.to/lastmile_qr_scan"}, "name": "06c8cb918c3e79d716df03395b80e7d1", "is_disabled": 0, "fusion_lon": 0.0, "fusion_lat": 0.0, "lon": -77.048854, "bike_id": "06c8cb918c3e79d716df03395b80e7d1", "lat": 38.898729833333334, "is_reserved": 0, "type": "electric_scooter"}, {"rental_uris": {"ios": "https://dc.lft.to/lastmile_qr_scan", "android": "https://dc.lft.to/lastmile_qr_scan"}, "name": "ea726901ebbf4909f46c2a1acbfa5217", "is_disabled": 0, "fusion_lon": 0.0, "fusion_lat": 0.0, "lon": -77.017362, "bike_id": "ea726901ebbf4909f46c2a1acbfa5217", "lat": 38.92039833333333, "is_reserved": 0, "type": "electric_scooter"}, {"rental_uris": {"ios": "https://dc.lft.to/lastmile_qr_scan", "android": "https://dc.lft.to/lastmile_qr_scan"}, "name": "22b79c49ba782019f23cf9b5ceb1cc1c", "is_disabled": 0, "fusion_lon": 0.0, "fusion_lat": 0.0, "lon": -77.0349365, "bike_id": "22b79c49ba782019f23cf9b5ceb1cc1c", "lat": 38.917067, "is_reserved": 0, "type": "electric_scooter"}, {"rental_uris": {"ios": "https://dc.lft.to/lastmile_qr_scan", "android": "https://dc.lft.to/lastmile_qr_scan"}, "name": "06809271601150987a4cc5a28e270155", "is_disabled": 0, "fusion_lon": 0.0, "fusion_lat": 0.0, "lon": -77.03183366666667, "bike_id": "06809271601150987a4cc5a28e270155", "lat": 38.929790833333335, "is_reserved": 0, "type": "electric_scooter"}, {"rental_uris": {"ios": "https://dc.lft.to/lastmile_qr_scan", "android": "https://dc.lft.to/lastmile_qr_scan"}, "name": "0225f34fce9fac952c46b145939d57c8", "is_disabled": 0, "fusion_lon": 0.0, "fusion_lat": 0.0, "lon": -77.06366783333333, "bike_id": "0225f34fce9fac952c46b145939d57c8", "lat": 38.92019633333334, "is_reserved": 0, "type": "electric_scooter"}, {"rental_uris": {"ios": "https://dc.lft.to/lastmile_qr_scan", "android": "https://dc.lft.to/lastmile_qr_scan"}, "name": "5950e5c8aa37bc26f7c27b45d535c7a0", "is_disabled": 0, "fusion_lon": 0.0, "fusion_lat": 0.0, "lon": -77.02753966666667, "bike_id": "5950e5c8aa37bc26f7c27b45d535c7a0", "lat": 38.900043, "is_reserved": 0, "type": "electric_scooter"}, {"rental_uris": {"ios": "https://dc.lft.to/lastmile_qr_scan", "android": "https://dc.lft.to/lastmile_qr_scan"}, "name": "771c26d7bf277869aae54adc2e12dc71", "is_disabled": 0, "fusion_lon": 0.0, "fusion_lat": 0.0, "lon": -77.02349633333333, "bike_id": "771c26d7bf277869aae54adc2e12dc71", "lat": 38.941978666666664, "is_reserved": 0, "type": "electric_scooter"}, {"rental_uris": {"ios": "https://dc.lft.to/lastmile_qr_scan", "android": "https://dc.lft.to/lastmile_qr_scan"}, "name": "82244f87b93aefe04550eb7d414d35d8", "is_disabled": 0, "fusion_lon": 0.0, "fusion_lat": 0.0, "lon": -77.025878, "bike_id": "82244f87b93aefe04550eb7d414d35d8", "lat": 38.91418816666667, "is_reserved": 0, "type": "electric_scooter"}, {"rental_uris": {"ios": "https://dc.lft.to/lastmile_qr_scan", "android": "https://dc.lft.to/lastmile_qr_scan"}, "name": "5e3674c8b5021b677b445dfc865e3a88", "is_disabled": 0, "fusion_lon": 0.0, "fusion_lat": 0.0, "lon": -77.05961383333333, "bike_id": "5e3674c8b5021b677b445dfc865e3a88", "lat": 38.93768016666667, "is_reserved": 0, "type": "electric_scooter"}, {"rental_uris": {"ios": "https://dc.lft.to/lastmile_qr_scan", "android": "https://dc.lft.to/lastmile_qr_scan"}, "name": "7d08ddac0bd55a140c093b02389e41bf", "is_disabled": 0, "fusion_lon": 0.0, "fusion_lat": 0.0, "lon": -77.04417516666666, "bike_id": "7d08ddac0bd55a140c093b02389e41bf", "lat": 38.91765433333333, "is_reserved": 0, "type": "electric_scooter"}, {"rental_uris": {"ios": "https://dc.lft.to/lastmile_qr_scan", "android": "https://dc.lft.to/lastmile_qr_scan"}, "name": "10badd9a14772fcaac14595427828351", "is_disabled": 0, "fusion_lon": 0.0, "fusion_lat": 0.0, "lon": -77.02408966666667, "bike_id": "10badd9a14772fcaac14595427828351", "lat": 38.94185083333333, "is_reserved": 0, "type": "electric_scooter"}, {"rental_uris": {"ios": "https://dc.lft.to/lastmile_qr_scan", "android": "https://dc.lft.to/lastmile_qr_scan"}, "name": "aecb84d741344e74165025c3ea8679a7", "is_disabled": 0, "fusion_lon": 0.0, "fusion_lat": 0.0, "lon": -76.9488615, "bike_id": "aecb84d741344e74165025c3ea8679a7", "lat": 38.89512083333334, "is_reserved": 0, "type": "electric_scooter"}, {"rental_uris": {"ios": "https://dc.lft.to/lastmile_qr_scan", "android": "https://dc.lft.to/lastmile_qr_scan"}, "name": "32139a3e46a19701e57f66ed4f8c7314", "is_disabled": 0, "fusion_lon": 0.0, "fusion_lat": 0.0, "lon": -77.0229875, "bike_id": "32139a3e46a19701e57f66ed4f8c7314", "lat": 38.9592225, "is_reserved": 0, "type": "electric_scooter"}, {"rental_uris": {"ios": "https://dc.lft.to/lastmile_qr_scan", "android": "https://dc.lft.to/lastmile_qr_scan"}, "name": "a7a1a9cec37b5fa2c01d695e5462e9e1", "is_disabled": 0, "fusion_lon": 0.0, "fusion_lat": 0.0, "lon": -77.14872483333333, "bike_id": "a7a1a9cec37b5fa2c01d695e5462e9e1", "lat": 38.877395, "is_reserved": 0, "type": "electric_bike"}, {"rental_uris": {"ios": "https://dc.lft.to/lastmile_qr_scan", "android": "https://dc.lft.to/lastmile_qr_scan"}, "name": "c8d2dbb4488af913d1bf91c5cf555d48", "is_disabled": 0, "fusion_lon": 0.0, "fusion_lat": 0.0, "lon": -77.0365295, "bike_id": "c8d2dbb4488af913d1bf91c5cf555d48", "lat": 38.915736333333335, "is_reserved": 0, "type": "electric_scooter"}, {"rental_uris": {"ios": "https://dc.lft.to/lastmile_qr_scan", "android": "https://dc.lft.to/lastmile_qr_scan"}, "name": "0f2ed93d008172cf2683be190eab1031", "is_disabled": 0, "fusion_lon": 0.0, "fusion_lat": 0.0, "lon": -77.01704533333333, "bike_id": "0f2ed93d008172cf2683be190eab1031", "lat": 38.90754533333333, "is_reserved": 0, "type": "electric_scooter"}, {"rental_uris": {"ios": "https://dc.lft.to/lastmile_qr_scan", "android": "https://dc.lft.to/lastmile_qr_scan"}, "name": "a329ca5118afb75f9233ab66a4f3bf91", "is_disabled": 0, "fusion_lon": 0.0, "fusion_lat": 0.0, "lon": -77.07487783333333, "bike_id": "a329ca5118afb75f9233ab66a4f3bf91", "lat": 38.9119965, "is_reserved": 0, "type": "electric_scooter"}, {"rental_uris": {"ios": "https://dc.lft.to/lastmile_qr_scan", "android": "https://dc.lft.to/lastmile_qr_scan"}, "name": "b8747d1c329556b57fb63840c57c9fe0", "is_disabled": 0, "fusion_lon": 0.0, "fusion_lat": 0.0, "lon": -77.00330033333333, "bike_id": "b8747d1c329556b57fb63840c57c9fe0", "lat": 38.8936305, "is_reserved": 0, "type": "electric_scooter"}, {"rental_uris": {"ios": "https://dc.lft.to/lastmile_qr_scan", "android": "https://dc.lft.to/lastmile_qr_scan"}, "name": "982c600b46275ccb609857568d908155", "is_disabled": 0, "fusion_lon": 0.0, "fusion_lat": 0.0, "lon": -77.02261966666667, "bike_id": "982c600b46275ccb609857568d908155", "lat": 38.8961145, "is_reserved": 0, "type": "electric_scooter"}, {"rental_uris": {"ios": "https://dc.lft.to/lastmile_qr_scan", "android": "https://dc.lft.to/lastmile_qr_scan"}, "name": "b7d61838d60e131cc844153d3dfdd224", "is_disabled": 0, "fusion_lon": 0.0, "fusion_lat": 0.0, "lon": -77.02721633333333, "bike_id": "b7d61838d60e131cc844153d3dfdd224", "lat": 38.9038805, "is_reserved": 0, "type": "electric_scooter"}, {"rental_uris": {"ios": "https://dc.lft.to/lastmile_qr_scan", "android": "https://dc.lft.to/lastmile_qr_scan"}, "name": "ec855b8bda4e932eaeb33ac15261cb30", "is_disabled": 0, "fusion_lon": 0.0, "fusion_lat": 0.0, "lon": -76.99097066666667, "bike_id": "ec855b8bda4e932eaeb33ac15261cb30", "lat": 38.8047985, "is_reserved": 0, "type": "electric_bike"}, {"rental_uris": {"ios": "https://dc.lft.to/lastmile_qr_scan", "android": "https://dc.lft.to/lastmile_qr_scan"}, "name": "7393f875142a5449c1d69365b5b508ca", "is_disabled": 0, "fusion_lon": 0.0, "fusion_lat": 0.0, "lon": -77.04021066666667, "bike_id": "7393f875142a5449c1d69365b5b508ca", "lat": 38.9218705, "is_reserved": 0, "type": "electric_scooter"}, {"rental_uris": {"ios": "https://dc.lft.to/lastmile_qr_scan", "android": "https://dc.lft.to/lastmile_qr_scan"}, "name": "e063ad485fc59085b7f3d5c917e12c63", "is_disabled": 0, "fusion_lon": 0.0, "fusion_lat": 0.0, "lon": -77.02447366666667, "bike_id": "e063ad485fc59085b7f3d5c917e12c63", "lat": 38.92053516666667, "is_reserved": 0, "type": "electric_scooter"}, {"rental_uris": {"ios": "https://dc.lft.to/lastmile_qr_scan", "android": "https://dc.lft.to/lastmile_qr_scan"}, "name": "fd161a5e140eedf264eda0b35a1204ab", "is_disabled": 0, "fusion_lon": 0.0, "fusion_lat": 0.0, "lon": -77.01852533333333, "bike_id": "fd161a5e140eedf264eda0b35a1204ab", "lat": 38.9488465, "is_reserved": 0, "type": "electric_scooter"}, {"rental_uris": {"ios": "https://dc.lft.to/lastmile_qr_scan", "android": "https://dc.lft.to/lastmile_qr_scan"}, "name": "302386ca3f46aa4c709837b10b91afb1", "is_disabled": 0, "fusion_lon": 0.0, "fusion_lat": 0.0, "lon": -77.05309083333333, "bike_id": "302386ca3f46aa4c709837b10b91afb1", "lat": 38.91413083333333, "is_reserved": 0, "type": "electric_bike"}, {"rental_uris": {"ios": "https://dc.lft.to/lastmile_qr_scan", "android": "https://dc.lft.to/lastmile_qr_scan"}, "name": "55ff7d940111c29f855ea50ffe541d24", "is_disabled": 0, "fusion_lon": 0.0, "fusion_lat": 0.0, "lon": -77.038436, "bike_id": "55ff7d940111c29f855ea50ffe541d24", "lat": 38.903286666666666, "is_reserved": 0, "type": "electric_scooter"}, {"rental_uris": {"ios": "https://dc.lft.to/lastmile_qr_scan", "android": "https://dc.lft.to/lastmile_qr_scan"}, "name": "be52316acb7e05acfdd0e73831886c90", "is_disabled": 0, "fusion_lon": 0.0, "fusion_lat": 0.0, "lon": -77.08024266666666, "bike_id": "be52316acb7e05acfdd0e73831886c90", "lat": 38.9577215, "is_reserved": 0, "type": "electric_bike"}, {"rental_uris": {"ios": "https://dc.lft.to/lastmile_qr_scan", "android": "https://dc.lft.to/lastmile_qr_scan"}, "name": "f29202329b24ed8be022323d0a3420bc", "is_disabled": 0, "fusion_lon": 0.0, "fusion_lat": 0.0, "lon": -77.02894933333333, "bike_id": "f29202329b24ed8be022323d0a3420bc", "lat": 38.925692166666664, "is_reserved": 0, "type": "electric_scooter"}, {"rental_uris": {"ios": "https://dc.lft.to/lastmile_qr_scan", "android": "https://dc.lft.to/lastmile_qr_scan"}, "name": "d3306f82a0a9dcab161c0cc0020e8451", "is_disabled": 0, "fusion_lon": 0.0, "fusion_lat": 0.0, "lon": -77.0396885, "bike_id": "d3306f82a0a9dcab161c0cc0020e8451", "lat": 38.924563666666664, "is_reserved": 0, "type": "electric_scooter"}, {"rental_uris": {"ios": "https://dc.lft.to/lastmile_qr_scan", "android": "https://dc.lft.to/lastmile_qr_scan"}, "name": "085b0ca5a4b2e4f16729b92e2710ef50", "is_disabled": 0, "fusion_lon": 0.0, "fusion_lat": 0.0, "lon": -77.045029, "bike_id": "085b0ca5a4b2e4f16729b92e2710ef50", "lat": 38.9111375, "is_reserved": 0, "type": "electric_scooter"}, {"rental_uris": {"ios": "https://dc.lft.to/lastmile_qr_scan", "android": "https://dc.lft.to/lastmile_qr_scan"}, "name": "ce0a5e7200a8641340db3446fd5241e4", "is_disabled": 0, "fusion_lon": 0.0, "fusion_lat": 0.0, "lon": -77.04347533333333, "bike_id": "ce0a5e7200a8641340db3446fd5241e4", "lat": 38.90413983333333, "is_reserved": 0, "type": "electric_scooter"}, {"rental_uris": {"ios": "https://dc.lft.to/lastmile_qr_scan", "android": "https://dc.lft.to/lastmile_qr_scan"}, "name": "32ef4050bec8d919d2297984f7c69e1a", "is_disabled": 0, "fusion_lon": 0.0, "fusion_lat": 0.0, "lon": -76.92943716666667, "bike_id": "32ef4050bec8d919d2297984f7c69e1a", "lat": 38.90348133333333, "is_reserved": 0, "type": "electric_scooter"}, {"rental_uris": {"ios": "https://dc.lft.to/lastmile_qr_scan", "android": "https://dc.lft.to/lastmile_qr_scan"}, "name": "d55a2e8a59d010d727bbb574e1c115bf", "is_disabled": 0, "fusion_lon": 0.0, "fusion_lat": 0.0, "lon": -77.03424566666666, "bike_id": "d55a2e8a59d010d727bbb574e1c115bf", "lat": 38.919277666666666, "is_reserved": 0, "type": "electric_scooter"}, {"rental_uris": {"ios": "https://dc.lft.to/lastmile_qr_scan", "android": "https://dc.lft.to/lastmile_qr_scan"}, "name": "4d1c5de0aa14105a4c6f2cb933ed48f1", "is_disabled": 0, "fusion_lon": 0.0, "fusion_lat": 0.0, "lon": -77.04020533333333, "bike_id": "4d1c5de0aa14105a4c6f2cb933ed48f1", "lat": 38.88968233333333, "is_reserved": 0, "type": "electric_scooter"}, {"rental_uris": {"ios": "https://dc.lft.to/lastmile_qr_scan", "android": "https://dc.lft.to/lastmile_qr_scan"}, "name": "e11f84cfe487c9ed10616f73bf5a88ad", "is_disabled": 0, "fusion_lon": 0.0, "fusion_lat": 0.0, "lon": -77.03488983333334, "bike_id": "e11f84cfe487c9ed10616f73bf5a88ad", "lat": 38.905617666666664, "is_reserved": 0, "type": "electric_scooter"}, {"rental_uris": {"ios": "https://dc.lft.to/lastmile_qr_scan", "android": "https://dc.lft.to/lastmile_qr_scan"}, "name": "1b47c833d9c0c13c63eb4e3a63de1189", "is_disabled": 0, "fusion_lon": 0.0, "fusion_lat": 0.0, "lon": -76.99409866666667, "bike_id": "1b47c833d9c0c13c63eb4e3a63de1189", "lat": 38.87785066666667, "is_reserved": 0, "type": "electric_scooter"}, {"rental_uris": {"ios": "https://dc.lft.to/lastmile_qr_scan", "android": "https://dc.lft.to/lastmile_qr_scan"}, "name": "31b9f1bd30bf7e4bf2d89ee13d417637", "is_disabled": 0, "fusion_lon": 0.0, "fusion_lat": 0.0, "lon": -77.066029, "bike_id": "31b9f1bd30bf7e4bf2d89ee13d417637", "lat": 38.90984483333333, "is_reserved": 0, "type": "electric_scooter"}, {"rental_uris": {"ios": "https://dc.lft.to/lastmile_qr_scan", "android": "https://dc.lft.to/lastmile_qr_scan"}, "name": "7ab3ae575cee20ba2aafd3f312707709", "is_disabled": 0, "fusion_lon": 0.0, "fusion_lat": 0.0, "lon": -77.04332666666667, "bike_id": "7ab3ae575cee20ba2aafd3f312707709", "lat": 38.901793, "is_reserved": 0, "type": "electric_scooter"}, {"rental_uris": {"ios": "https://dc.lft.to/lastmile_qr_scan", "android": "https://dc.lft.to/lastmile_qr_scan"}, "name": "9d658235f38c7e6100e3002c2cb663ef", "is_disabled": 0, "fusion_lon": 0.0, "fusion_lat": 0.0, "lon": -77.05029733333333, "bike_id": "9d658235f38c7e6100e3002c2cb663ef", "lat": 38.911168, "is_reserved": 0, "type": "electric_scooter"}, {"rental_uris": {"ios": "https://dc.lft.to/lastmile_qr_scan", "android": "https://dc.lft.to/lastmile_qr_scan"}, "name": "e55dbac1116ed845aa3ecdeec0a149f1", "is_disabled": 0, "fusion_lon": 0.0, "fusion_lat": 0.0, "lon": -77.0588835, "bike_id": "e55dbac1116ed845aa3ecdeec0a149f1", "lat": 38.936021, "is_reserved": 0, "type": "electric_scooter"}, {"rental_uris": {"ios": "https://dc.lft.to/lastmile_qr_scan", "android": "https://dc.lft.to/lastmile_qr_scan"}, "name": "3b04b92f062736f8c56d94561d88ab5b", "is_disabled": 0, "fusion_lon": 0.0, "fusion_lat": 0.0, "lon": -77.0416665, "bike_id": "3b04b92f062736f8c56d94561d88ab5b", "lat": 38.918146166666666, "is_reserved": 0, "type": "electric_scooter"}, {"rental_uris": {"ios": "https://dc.lft.to/lastmile_qr_scan", "android": "https://dc.lft.to/lastmile_qr_scan"}, "name": "fc6c8712e53ee883384143bba2ce5d0d", "is_disabled": 0, "fusion_lon": 0.0, "fusion_lat": 0.0, "lon": -77.04426566666666, "bike_id": "fc6c8712e53ee883384143bba2ce5d0d", "lat": 38.91541566666667, "is_reserved": 0, "type": "electric_scooter"}, {"rental_uris": {"ios": "https://dc.lft.to/lastmile_qr_scan", "android": "https://dc.lft.to/lastmile_qr_scan"}, "name": "4f0da9ba64ef59705a324afcb39adbfc", "is_disabled": 0, "fusion_lon": 0.0, "fusion_lat": 0.0, "lon": -76.99147166666667, "bike_id": "4f0da9ba64ef59705a324afcb39adbfc", "lat": 38.90032983333333, "is_reserved": 0, "type": "electric_scooter"}, {"rental_uris": {"ios": "https://dc.lft.to/lastmile_qr_scan", "android": "https://dc.lft.to/lastmile_qr_scan"}, "name": "29625844a62361fcd4b895d60694aa98", "is_disabled": 0, "fusion_lon": 0.0, "fusion_lat": 0.0, "lon": -77.05110666666667, "bike_id": "29625844a62361fcd4b895d60694aa98", "lat": 38.9064705, "is_reserved": 0, "type": "electric_scooter"}, {"rental_uris": {"ios": "https://dc.lft.to/lastmile_qr_scan", "android": "https://dc.lft.to/lastmile_qr_scan"}, "name": "1ad0a250d6f23b0d4f084c99cd07ce89", "is_disabled": 0, "fusion_lon": 0.0, "fusion_lat": 0.0, "lon": -77.0307585, "bike_id": "1ad0a250d6f23b0d4f084c99cd07ce89", "lat": 38.89987633333333, "is_reserved": 0, "type": "electric_scooter"}, {"rental_uris": {"ios": "https://dc.lft.to/lastmile_qr_scan", "android": "https://dc.lft.to/lastmile_qr_scan"}, "name": "36cae20ad3684178a93d6c02f3a39aec", "is_disabled": 0, "fusion_lon": 0.0, "fusion_lat": 0.0, "lon": -77.0028685, "bike_id": "36cae20ad3684178a93d6c02f3a39aec", "lat": 38.8768645, "is_reserved": 0, "type": "electric_scooter"}, {"rental_uris": {"ios": "https://dc.lft.to/lastmile_qr_scan", "android": "https://dc.lft.to/lastmile_qr_scan"}, "name": "b52f57bccea142d243c4c16bcd33dc28", "is_disabled": 0, "fusion_lon": 0.0, "fusion_lat": 0.0, "lon": -76.98379716666666, "bike_id": "b52f57bccea142d243c4c16bcd33dc28", "lat": 38.86026733333333, "is_reserved": 0, "type": "electric_scooter"}, {"rental_uris": {"ios": "https://dc.lft.to/lastmile_qr_scan", "android": "https://dc.lft.to/lastmile_qr_scan"}, "name": "426139e7c1a2177e4eeffe75cf4fb7ed", "is_disabled": 0, "fusion_lon": 0.0, "fusion_lat": 0.0, "lon": -77.04497766666667, "bike_id": "426139e7c1a2177e4eeffe75cf4fb7ed", "lat": 38.897188166666666, "is_reserved": 0, "type": "electric_scooter"}, {"rental_uris": {"ios": "https://dc.lft.to/lastmile_qr_scan", "android": "https://dc.lft.to/lastmile_qr_scan"}, "name": "a27bdc506da8904c1810cab30b471a6d", "is_disabled": 0, "fusion_lon": 0.0, "fusion_lat": 0.0, "lon": -77.0067455, "bike_id": "a27bdc506da8904c1810cab30b471a6d", "lat": 38.94512116666667, "is_reserved": 0, "type": "electric_bike"}, {"rental_uris": {"ios": "https://dc.lft.to/lastmile_qr_scan", "android": "https://dc.lft.to/lastmile_qr_scan"}, "name": "42095299b26bb450ddaaf11482e80cab", "is_disabled": 0, "fusion_lon": 0.0, "fusion_lat": 0.0, "lon": -77.02960916666666, "bike_id": "42095299b26bb450ddaaf11482e80cab", "lat": 38.92748666666667, "is_reserved": 0, "type": "electric_scooter"}, {"rental_uris": {"ios": "https://dc.lft.to/lastmile_qr_scan", "android": "https://dc.lft.to/lastmile_qr_scan"}, "name": "5dcd88d3dd06e59f33d48bc5bd74276e", "is_disabled": 0, "fusion_lon": 0.0, "fusion_lat": 0.0, "lon": -76.9972885, "bike_id": "5dcd88d3dd06e59f33d48bc5bd74276e", "lat": 38.89615033333333, "is_reserved": 0, "type": "electric_scooter"}, {"rental_uris": {"ios": "https://dc.lft.to/lastmile_qr_scan", "android": "https://dc.lft.to/lastmile_qr_scan"},