{"data": {"bikes": [{"rental_uris": {"ios": "https://dc.lft.to/lastmile_qr_scan", "android": "https://dc.lft.to/lastmile_qr_scan"}, "lon": -77.01179983333333, "type": "electric_scooter", "fusion_lat": 0.0, "lat": 38.90031483333333, "name": "e6b9133c385d46be3c9ef2fac2b42778", "fusion_lon": 0.0, "bike_id": "e6b9133c385d46be3c9ef2fac2b42778", "is_disabled": 0, "is_reserved": 0}, {"rental_uris": {"ios": "https://dc.lft.to/lastmile_qr_scan", "android": "https://dc.lft.to/lastmile_qr_scan"}, "lon": -77.05350783333333, "type": "electric_scooter", "fusion_lat": 0.0, "lat": 38.90259966666667, "name": "2e7ea15447cdb329905c2a14ad1b07f9", "fusion_lon": 0.0, "bike_id": "2e7ea15447cdb329905c2a14ad1b07f9", "is_disabled": 0, "is_reserved": 0}, {"rental_uris": {"ios": "https://dc.lft.to/lastmile_qr_scan", "android": "https://dc.lft.to/lastmile_qr_scan"}, "lon": -77.020399, "type": "electric_scooter", "fusion_lat": 0.0, "lat": 38.902423666666664, "name": "20890a2c54b757a9beddcf3856b40ec9", "fusion_lon": 0.0, "bike_id": "20890a2c54b757a9beddcf3856b40ec9", "is_disabled": 0, "is_reserved": 0}, {"rental_uris": {"ios": "https://dc.lft.to/lastmile_qr_scan", "android": "https://dc.lft.to/lastmile_qr_scan"}, "lon": -76.98160083333333, "type": "electric_scooter", "fusion_lat": 0.0, "lat": 38.900060333333336, "name": "76c41646a7189313ae086329df5d930f", "fusion_lon": 0.0, "bike_id": "76c41646a7189313ae086329df5d930f", "is_disabled": 0, "is_reserved": 0}, {"rental_uris": {"ios": "https://dc.lft.to/lastmile_qr_scan", "android": "https://dc.lft.to/lastmile_qr_scan"}, "lon": -76.93160833333333, "type": "electric_scooter", "fusion_lat": 0.0, "lat": 38.89873133333333, "name": "de5aee64502f43d5875f7e8a69b0506f", "fusion_lon": 0.0, "bike_id": "de5aee64502f43d5875f7e8a69b0506f", "is_disabled": 0, "is_reserved": 0}, {"rental_uris": {"ios": "https://dc.lft.to/lastmile_qr_scan", "android": "https://dc.lft.to/lastmile_qr_scan"}, "lon": -77.05004566666666, "type": "electric_scooter", "fusion_lat": 0.0, "lat": 38.89226033333333, "name": "3b00d9753de0dd1a72c9d3fd93e92e04", "fusion_lon": 0.0, "bike_id": "3b00d9753de0dd1a72c9d3fd93e92e04", "is_disabled": 0, "is_reserved": 0}, {"rental_uris": {"ios": "https://dc.lft.to/lastmile_qr_scan", "android": "https://dc.lft.to/lastmile_qr_scan"}, "lon": -76.9630175, "type": "electric_bike", "fusion_lat": 0.0, "lat": 38.927065, "name": "1d3a84bac60f1b8d0a8dd372e70b05d4", "fusion_lon": 0.0, "bike_id": "1d3a84bac60f1b8d0a8dd372e70b05d4", "is_disabled": 0, "is_reserved": 0}, {"rental_uris": {"ios": "https://dc.lft.to/lastmile_qr_scan", "android": "https://dc.lft.to/lastmile_qr_scan"}, "lon": -77.019356, "type": "electric_scooter", "fusion_lat": 0.0, "lat": 38.9085795, "name": "4beae981782213b2101dbb23f8b7eb87", "fusion_lon": 0.0, "bike_id": "4beae981782213b2101dbb23f8b7eb87", "is_disabled": 0, "is_reserved": 0}, {"rental_uris": {"ios": "https://dc.lft.to/lastmile_qr_scan", "android": "https://dc.lft.to/lastmile_qr_scan"}, "lon": -77.0175985, "type": "electric_scooter", "fusion_lat": 0.0, "lat": 38.87731483333334, "name": "c3f20877c3b5075b7f0265603707c689", "fusion_lon": 0.0, "bike_id": "c3f20877c3b5075b7f0265603707c689", "is_disabled": 0, "is_reserved": 0}, {"rental_uris": {"ios": "https://dc.lft.to/lastmile_qr_scan", "android": "https://dc.lft.to/lastmile_qr_scan"}, "lon": -77.01438, "type": "electric_scooter", "fusion_lat": 0.0, "lat": 38.92988866666666, "name": "03616f277871e9a122e2831f2d82527c", "fusion_lon": 0.0, "bike_id": "03616f277871e9a122e2831f2d82527c", "is_disabled": 0, "is_reserved": 0}, {"rental_uris": {"ios": "https://dc.lft.to/lastmile_qr_scan", "android": "https://dc.lft.to/lastmile_qr_scan"}, "lon": -77.05000416666667, "type": "electric_scooter", "fusion_lat": 0.0, "lat": 38.90429116666667, "name": "1760f01b6ec4377c32e66a25ccccd410", "fusion_lon": 0.0, "bike_id": "1760f01b6ec4377c32e66a25ccccd410", "is_disabled": 0, "is_reserved": 0}, {"rental_uris": {"ios": "https://dc.lft.to/lastmile_qr_scan", "android": "https://dc.lft.to/lastmile_qr_scan"}, "lon": -77.03232466666667, "type": "electric_scooter", "fusion_lat": 0.0, "lat": 38.89744966666667, "name": "bd0945aa092b1e47e3c4288afeadcc16", "fusion_lon": 0.0, "bike_id": "bd0945aa092b1e47e3c4288afeadcc16", "is_disabled": 0, "is_reserved": 0}, {"rental_uris": {"ios": "https://dc.lft.to/lastmile_qr_scan", "android": "https://dc.lft.to/lastmile_qr_scan"}, "lon": -76.96549949999999, "type": "electric_bike", "fusion_lat": 0.0, "lat": 38.950973166666664, "name": "8969158b9dbc8f0665301daa0b4ecf68", "fusion_lon": 0.0, "bike_id": "8969158b9dbc8f0665301daa0b4ecf68", "is_disabled": 0, "is_reserved": 0}, {"rental_uris": {"ios": "https://dc.lft.to/lastmile_qr_scan", "android": "https://dc.lft.to/lastmile_qr_scan"}, "lon": -76.99544816666666, "type": "electric_scooter", "fusion_lat": 0.0, "lat": 38.885975333333334, "name": "c7ba1450c598a7ebffb0f2e92560aaef", "fusion_lon": 0.0, "bike_id": "c7ba1450c598a7ebffb0f2e92560aaef", "is_disabled": 0, "is_reserved": 0}, {"rental_uris": {"ios": "https://dc.lft.to/lastmile_qr_scan", "android": "https://dc.lft.to/lastmile_qr_scan"}, "lon": -77.05165766666667, "type": "electric_scooter", "fusion_lat": 0.0, "lat": 38.897706166666666, "name": "6b054433a769af9f1e388659553a3ede", "fusion_lon": 0.0, "bike_id": "6b054433a769af9f1e388659553a3ede", "is_disabled": 0, "is_reserved": 0}, {"rental_uris": {"ios": "https://dc.lft.to/lastmile_qr_scan", "android": "https://dc.lft.to/lastmile_qr_scan"}, "lon": -76.979441, "type": "electric_scooter", "fusion_lat": 0.0, "lat": 38.9023895, "name": "2cee1e40970f75adc8427ca3730bc80e", "fusion_lon": 0.0, "bike_id": "2cee1e40970f75adc8427ca3730bc80e", "is_disabled": 0, "is_reserved": 0}, {"rental_uris": {"ios": "https://dc.lft.to/lastmile_qr_scan", "android": "https://dc.lft.to/lastmile_qr_scan"}, "lon": -77.0434765, "type": "electric_scooter", "fusion_lat": 0.0, "lat": 38.90844033333333, "name": "762aee784d17a880c3eebafe4a0eabd7", "fusion_lon": 0.0, "bike_id": "762aee784d17a880c3eebafe4a0eabd7", "is_disabled": 0, "is_reserved": 0}, {"rental_uris": {"ios": "https://dc.lft.to/lastmile_qr_scan", "android": "https://dc.lft.to/lastmile_qr_scan"}, "lon": -77.020879, "type": "electric_scooter", "fusion_lat": 0.0, "lat": 38.931141333333336, "name": "9be9a2d373120737968ae23041b5d717", "fusion_lon": 0.0, "bike_id": "9be9a2d373120737968ae23041b5d717", "is_disabled": 0, "is_reserved": 0}, {"rental_uris": {"ios": "https://dc.lft.to/lastmile_qr_scan", "android": "https://dc.lft.to/lastmile_qr_scan"}, "lon": -77.09672866666666, "type": "electric_scooter", "fusion_lat": 0.0, "lat": 38.9176005, "name": "e5bebcebabb31de3b4212d0b40823f00", "fusion_lon": 0.0, "bike_id": "e5bebcebabb31de3b4212d0b40823f00", "is_disabled": 0, "is_reserved": 0}, {"rental_uris": {"ios": "https://dc.lft.to/lastmile_qr_scan", "android": "https://dc.lft.to/lastmile_qr_scan"}, "lon": -77.04259833333333, "type": "electric_scooter", "fusion_lat": 0.0, "lat": 38.92055783333333, "name": "7723bfab7874d2bcf1f5343d40923c37", "fusion_lon": 0.0, "bike_id": "7723bfab7874d2bcf1f5343d40923c37", "is_disabled": 0, "is_reserved": 0}, {"rental_uris": {"ios": "https://dc.lft.to/lastmile_qr_scan", "android": "https://dc.lft.to/lastmile_qr_scan"}, "lon": -77.02310033333333, "type": "electric_scooter", "fusion_lat": 0.0, "lat": 38.909557666666664, "name": "352b6f6ea8982de0d684f6a1e1567964", "fusion_lon": 0.0, "bike_id": "352b6f6ea8982de0d684f6a1e1567964", "is_disabled": 0, "is_reserved": 0}, {"rental_uris": {"ios": "https://dc.lft.to/lastmile_qr_scan", "android": "https://dc.lft.to/lastmile_qr_scan"}, "lon": -77.04318, "type": "electric_scooter", "fusion_lat": 0.0, "lat": 38.892218666666665, "name": "12fbc9ba1e8f257005645d5d2b78dacb", "fusion_lon": 0.0, "bike_id": "12fbc9ba1e8f257005645d5d2b78dacb", "is_disabled": 0, "is_reserved": 0}, {"rental_uris": {"ios": "https://dc.lft.to/lastmile_qr_scan", "android": "https://dc.lft.to/lastmile_qr_scan"}, "lon": -76.98556966666666, "type": "electric_scooter", "fusion_lat": 0.0, "lat": 38.89952866666667, "name": "8da3ae3ac971a478f5f850baa39d3ae0", "fusion_lon": 0.0, "bike_id": "8da3ae3ac971a478f5f850baa39d3ae0", "is_disabled": 0, "is_reserved": 0}, {"rental_uris": {"ios": "https://dc.lft.to/lastmile_qr_scan", "android": "https://dc.lft.to/lastmile_qr_scan"}, "lon": -76.9888565, "type": "electric_scooter", "fusion_lat": 0.0, "lat": 38.86656133333334, "name": "c35e1cc3286ed6715ef4ac3af91767a1", "fusion_lon": 0.0, "bike_id": "c35e1cc3286ed6715ef4ac3af91767a1", "is_disabled": 0, "is_reserved": 0}, {"rental_uris": {"ios": "https://dc.lft.to/lastmile_qr_scan", "android": "https://dc.lft.to/lastmile_qr_scan"}, "lon": -77.034482, "type": "electric_scooter", "fusion_lat": 0.0, "lat": 38.90990383333333, "name": "09fc4277aec9ad5a9c7e22cd37420cb8", "fusion_lon": 0.0, "bike_id": "09fc4277aec9ad5a9c7e22cd37420cb8", "is_disabled": 0, "is_reserved": 0}, {"rental_uris": {"ios": "https://dc.lft.to/lastmile_qr_scan", "android": "https://dc.lft.to/lastmile_qr_scan"}, "lon": -77.003362, "type": "electric_scooter", "fusion_lat": 0.0, "lat": 38.8935255, "name": "b59fee3418c63de77d021e6fb24a8f47", "fusion_lon": 0.0, "bike_id": "b59fee3418c63de77d021e6fb24a8f47", "is_disabled": 0, "is_reserved": 0}, {"rental_uris": {"ios": "https://dc.lft.to/lastmile_qr_scan", "android": "https://dc.lft.to/lastmile_qr_scan"}, "lon": -77.02354233333334, "type": "electric_scooter", "fusion_lat": 0.0, "lat": 38.93384483333333, "name": "2f129d1f59f527503ca1528072b712ab", "fusion_lon": 0.0, "bike_id": "2f129d1f59f527503ca1528072b712ab", "is_disabled": 0, "is_reserved": 0}, {"rental_uris": {"ios": "https://dc.lft.to/lastmile_qr_scan", "android": "https://dc.lft.to/lastmile_qr_scan"}, "lon": -77.01384616666667, "type": "electric_scooter", "fusion_lat": 0.0, "lat": 38.912557666666665, "name": "aa777480168924e97eade6febb6bbe4b", "fusion_lon": 0.0, "bike_id": "aa777480168924e97eade6febb6bbe4b", "is_disabled": 0, "is_reserved": 0}, {"rental_uris": {"ios": "https://dc.lft.to/lastmile_qr_scan", "android": "https://dc.lft.to/lastmile_qr_scan"}, "lon": -77.0271445, "type": "electric_scooter", "fusion_lat": 0.0, "lat": 38.8814545, "name": "5cabffa2b0ce2b65cfd2f14c9c691505", "fusion_lon": 0.0, "bike_id": "5cabffa2b0ce2b65cfd2f14c9c691505", "is_disabled": 0, "is_reserved": 0}, {"rental_uris": {"ios": "https://dc.lft.to/lastmile_qr_scan", "android": "https://dc.lft.to/lastmile_qr_scan"}, "lon": -77.01440883333333, "type": "electric_scooter", "fusion_lat": 0.0, "lat": 38.9196835, "name": "75019fd0eb60d4bd753071e27666d4b1", "fusion_lon": 0.0, "bike_id": "75019fd0eb60d4bd753071e27666d4b1", "is_disabled": 0, "is_reserved": 0}, {"rental_uris": {"ios": "https://dc.lft.to/lastmile_qr_scan", "android": "https://dc.lft.to/lastmile_qr_scan"}, "lon": -76.93614783333334, "type": "electric_bike", "fusion_lat": 0.0, "lat": 38.9706655, "name": "7e461a57203e757fbf6f2631b92785e4", "fusion_lon": 0.0, "bike_id": "7e461a57203e757fbf6f2631b92785e4", "is_disabled": 0, "is_reserved": 0}, {"rental_uris": {"ios": "https://dc.lft.to/lastmile_qr_scan", "android": "https://dc.lft.to/lastmile_qr_scan"}, "lon": -77.02974883333333, "type": "electric_scooter", "fusion_lat": 0.0, "lat": 38.895660666666664, "name": "7b7a19a2539f8eff853bea763384996b", "fusion_lon": 0.0, "bike_id": "7b7a19a2539f8eff853bea763384996b", "is_disabled": 0, "is_reserved": 0}, {"rental_uris": {"ios": "https://dc.lft.to/lastmile_qr_scan", "android": "https://dc.lft.to/lastmile_qr_scan"}, "lon": -77.07898916666667, "type": "electric_bike", "fusion_lat": 0.0, "lat": 38.839314333333334, "name": "8583003d2f658727d16b882657ff4cc6", "fusion_lon": 0.0, "bike_id": "8583003d2f658727d16b882657ff4cc6", "is_disabled": 0, "is_reserved": 0}, {"rental_uris": {"ios": "https://dc.lft.to/lastmile_qr_scan", "android": "https://dc.lft.to/lastmile_qr_scan"}, "lon": -77.1192765, "type": "electric_bike", "fusion_lat": 0.0, "lat": 38.841012, "name": "1f7f6beb0dc02c61c537108d9e08e62e", "fusion_lon": 0.0, "bike_id": "1f7f6beb0dc02c61c537108d9e08e62e", "is_disabled": 0, "is_reserved": 0}, {"rental_uris": {"ios": "https://dc.lft.to/lastmile_qr_scan", "android": "https://dc.lft.to/lastmile_qr_scan"}, "lon": -76.98084866666667, "type": "electric_bike", "fusion_lat": 0.0, "lat": 38.90285466666667, "name": "b1b00c4d8f1b7e043b28b6fb358a5e2e", "fusion_lon": 0.0, "bike_id": "b1b00c4d8f1b7e043b28b6fb358a5e2e", "is_disabled": 0, "is_reserved": 0}, {"rental_uris": {"ios": "https://dc.lft.to/lastmile_qr_scan", "android": "https://dc.lft.to/lastmile_qr_scan"}, "lon": -77.03994783333333, "type": "electric_scooter", "fusion_lat": 0.0, "lat": 38.90035016666667, "name": "f99d14c995a144870f22eec788b772c6", "fusion_lon": 0.0, "bike_id": "f99d14c995a144870f22eec788b772c6", "is_disabled": 0, "is_reserved": 0}, {"rental_uris": {"ios": "https://dc.lft.to/lastmile_qr_scan", "android": "https://dc.lft.to/lastmile_qr_scan"}, "lon": -77.0073995, "type": "electric_scooter", "fusion_lat": 0.0, "lat": 38.955161833333335, "name": "bf67a7776aa94dc04afb4cf7ee4da7e0", "fusion_lon": 0.0, "bike_id": "bf67a7776aa94dc04afb4cf7ee4da7e0", "is_disabled": 0, "is_reserved": 0}, {"rental_uris": {"ios": "https://dc.lft.to/lastmile_qr_scan", "android": "https://dc.lft.to/lastmile_qr_scan"}, "lon": -76.99005233333334, "type": "electric_scooter", "fusion_lat": 0.0, "lat": 38.8650095, "name": "1c1ca90184b3d203a5a607e66b902e99", "fusion_lon": 0.0, "bike_id": "1c1ca90184b3d203a5a607e66b902e99", "is_disabled": 0, "is_reserved": 0}, {"rental_uris": {"ios": "https://dc.lft.to/lastmile_qr_scan", "android": "https://dc.lft.to/lastmile_qr_scan"}, "lon": -77.0021515, "type": "electric_scooter", "fusion_lat": 0.0, "lat": 38.90215416666667, "name": "6ba5674fcf6d86adc8f83e1d0d686667", "fusion_lon": 0.0, "bike_id": "6ba5674fcf6d86adc8f83e1d0d686667", "is_disabled": 0, "is_reserved": 0}, {"rental_uris": {"ios": "https://dc.lft.to/lastmile_qr_scan", "android": "https://dc.lft.to/lastmile_qr_scan"}, "lon": -77.03217466666666, "type": "electric_scooter", "fusion_lat": 0.0, "lat": 38.9126755, "name": "8b73cd7a66dcdc1110cc737f7c130c06", "fusion_lon": 0.0, "bike_id": "8b73cd7a66dcdc1110cc737f7c130c06", "is_disabled": 0, "is_reserved": 0}, {"rental_uris": {"ios": "https://dc.lft.to/lastmile_qr_scan", "android": "https://dc.lft.to/lastmile_qr_scan"}, "lon": -77.0488025, "type": "electric_scooter", "fusion_lat": 0.0, "lat": 38.90365283333333, "name": "d3a9ed5b43a352f52a5f6d06341875b8", "fusion_lon": 0.0, "bike_id": "d3a9ed5b43a352f52a5f6d06341875b8", "is_disabled": 0, "is_reserved": 0}, {"rental_uris": {"ios": "https://dc.lft.to/lastmile_qr_scan", "android": "https://dc.lft.to/lastmile_qr_scan"}, "lon": -76.98418166666667, "type": "electric_scooter", "fusion_lat": 0.0, "lat": 38.859657166666665, "name": "4c8f919acaf48c8877c954ea68fadad1", "fusion_lon": 0.0, "bike_id": "4c8f919acaf48c8877c954ea68fadad1", "is_disabled": 0, "is_reserved": 0}, {"rental_uris": {"ios": "https://dc.lft.to/lastmile_qr_scan", "android": "https://dc.lft.to/lastmile_qr_scan"}, "lon": -77.041736, "type": "electric_scooter", "fusion_lat": 0.0, "lat": 38.9170115, "name": "30371e5ba652ccae26791e2a6a673b00", "fusion_lon": 0.0, "bike_id": "30371e5ba652ccae26791e2a6a673b00", "is_disabled": 0, "is_reserved": 0}, {"rental_uris": {"ios": "https://dc.lft.to/lastmile_qr_scan", "android": "https://dc.lft.to/lastmile_qr_scan"}, "lon": -77.02952483333334, "type": "electric_scooter", "fusion_lat": 0.0, "lat": 38.915835666666666, "name": "c8b544060a9f05f2228724db24f7393e", "fusion_lon": 0.0, "bike_id": "c8b544060a9f05f2228724db24f7393e", "is_disabled": 0, "is_reserved": 0}, {"rental_uris": {"ios": "https://dc.lft.to/lastmile_qr_scan", "android": "https://dc.lft.to/lastmile_qr_scan"}, "lon": -77.031835, "type": "electric_scooter", "fusion_lat": 0.0, "lat": 38.9181955, "name": "2221d6b768a7ecde2af9a8662a6b6ac2", "fusion_lon": 0.0, "bike_id": "2221d6b768a7ecde2af9a8662a6b6ac2", "is_disabled": 0, "is_reserved": 0}, {"rental_uris": {"ios": "https://dc.lft.to/lastmile_qr_scan", "android": "https://dc.lft.to/lastmile_qr_scan"}, "lon": -77.02300966666667, "type": "electric_scooter", "fusion_lat": 0.0, "lat": 38.9128325, "name": "c0d6420b547c41623aab0faa60501671", "fusion_lon": 0.0, "bike_id": "c0d6420b547c41623aab0faa60501671", "is_disabled": 0, "is_reserved": 0}, {"rental_uris": {"ios": "https://dc.lft.to/lastmile_qr_scan", "android": "https://dc.lft.to/lastmile_qr_scan"}, "lon": -77.03225283333333, "type": "electric_scooter", "fusion_lat": 0.0, "lat": 38.918172, "name": "f99a51b01e0318bff53019f05b64d718", "fusion_lon": 0.0, "bike_id": "f99a51b01e0318bff53019f05b64d718", "is_disabled": 0, "is_reserved": 0}, {"rental_uris": {"ios": "https://dc.lft.to/lastmile_qr_scan", "android": "https://dc.lft.to/lastmile_qr_scan"}, "lon": -77.00283116666667, "type": "electric_scooter", "fusion_lat": 0.0, "lat": 38.897408, "name": "ea99e93c690a56826962d4d2e4ecbd5d", "fusion_lon": 0.0, "bike_id": "ea99e93c690a56826962d4d2e4ecbd5d", "is_disabled": 0, "is_reserved": 0}, {"rental_uris": {"ios": "https://dc.lft.to/lastmile_qr_scan", "android": "https://dc.lft.to/lastmile_qr_scan"}, "lon": -77.10507283333334, "type": "electric_bike", "fusion_lat": 0.0, "lat": 38.928444166666665, "name": "d85877f65aa49dac3b7e8349cd0475f8", "fusion_lon": 0.0, "bike_id": "d85877f65aa49dac3b7e8349cd0475f8", "is_disabled": 0, "is_reserved": 0}, {"rental_uris": {"ios": "https://dc.lft.to/lastmile_qr_scan", "android": "https://dc.lft.to/lastmile_qr_scan"}, "lon": -77.0894265, "type": "electric_bike", "fusion_lat": 0.0, "lat": 38.8410595, "name": "239f06dc7367a4eb0d6b15d6994a96f9", "fusion_lon": 0.0, "bike_id": "239f06dc7367a4eb0d6b15d6994a96f9", "is_disabled": 0, "is_reserved": 0}, {"rental_uris": {"ios": "https://dc.lft.to/lastmile_qr_scan", "android": "https://dc.lft.to/lastmile_qr_scan"}, "lon": -77.0513325, "type": "electric_scooter", "fusion_lat": 0.0, "lat": 38.905428666666666, "name": "c5ab12f687f338e1235da80d21a5b0a7", "fusion_lon": 0.0, "bike_id": "c5ab12f687f338e1235da80d21a5b0a7", "is_disabled": 0, "is_reserved": 0}, {"rental_uris": {"ios": "https://dc.lft.to/lastmile_qr_scan", "android": "https://dc.lft.to/lastmile_qr_scan"}, "lon": -77.02653633333334, "type": "electric_scooter", "fusion_lat": 0.0, "lat": 38.8922435, "name": "3b88d55c13441d691028aff94638ef2b", "fusion_lon": 0.0, "bike_id": "3b88d55c13441d691028aff94638ef2b", "is_disabled": 0, "is_reserved": 0}, {"rental_uris": {"ios": "https://dc.lft.to/lastmile_qr_scan", "android": "https://dc.lft.to/lastmile_qr_scan"}, "lon": -77.006739, "type": "electric_scooter", "fusion_lat": 0.0, "lat": 38.90039733333333, "name": "4aed6ccbc17dce6df7cf157ec42f21ad", "fusion_lon": 0.0, "bike_id": "4aed6ccbc17dce6df7cf157ec42f21ad", "is_disabled": 0, "is_reserved": 0}, {"rental_uris": {"ios": "https://dc.lft.to/lastmile_qr_scan", "android": "https://dc.lft.to/lastmile_qr_scan"}, "lon": -77.053583, "type": "electric_scooter", "fusion_lat": 0.0, "lat": 38.927134333333335, "name": "b151b3abfd36bb0c73f3d4c4777fb5a2", "fusion_lon": 0.0, "bike_id": "b151b3abfd36bb0c73f3d4c4777fb5a2", "is_disabled": 0, "is_reserved": 0}, {"rental_uris": {"ios": "https://dc.lft.to/lastmile_qr_scan", "android": "https://dc.lft.to/lastmile_qr_scan"}, "lon": -77.02403016666666, "type": "electric_scooter", "fusion_lat": 0.0, "lat": 38.915973666666666, "name": "8d5192b2b3dbc16a6b53a8b4951e9c65", "fusion_lon": 0.0, "bike_id": "8d5192b2b3dbc16a6b53a8b4951e9c65", "is_disabled": 0, "is_reserved": 0}, {"rental_uris": {"ios": "https://dc.lft.to/lastmile_qr_scan", "android": "https://dc.lft.to/lastmile_qr_scan"}, "lon": -76.995033, "type": "electric_scooter", "fusion_lat": 0.0, "lat": 38.8849105, "name": "2201fef07343a0968db7c4b5a6a33006", "fusion_lon": 0.0, "bike_id": "2201fef07343a0968db7c4b5a6a33006", "is_disabled": 0, "is_reserved": 0}, {"rental_uris": {"ios": "https://dc.lft.to/lastmile_qr_scan", "android": "https://dc.lft.to/lastmile_qr_scan"}, "lon": -77.07689016666667, "type": "electric_bike", "fusion_lat": 0.0, "lat": 38.831928833333336, "name": "4f38e919d709edb4d553f1992b37e101", "fusion_lon": 0.0, "bike_id": "4f38e919d709edb4d553f1992b37e101", "is_disabled": 0, "is_reserved": 0}, {"rental_uris": {"ios": "https://dc.lft.to/lastmile_qr_scan", "android": "https://dc.lft.to/lastmile_qr_scan"}, "lon": -77.050045, "type": "electric_scooter", "fusion_lat": 0.0, "lat": 38.89894133333333, "name": "cb6a0a3a8efac6766ecee30bb590f093", "fusion_lon": 0.0, "bike_id": "cb6a0a3a8efac6766ecee30bb590f093", "is_disabled": 0, "is_reserved": 0}, {"rental_uris": {"ios": "https://dc.lft.to/lastmile_qr_scan", "android": "https://dc.lft.to/lastmile_qr_scan"}, "lon": -77.02912566666667, "type": "electric_scooter", "fusion_lat": 0.0, "lat": 38.89843916666667, "name": "6689c1462378e51cb426a7861dc3421b", "fusion_lon": 0.0, "bike_id": "6689c1462378e51cb426a7861dc3421b", "is_disabled": 0, "is_reserved": 0}, {"rental_uris": {"ios": "https://dc.lft.to/lastmile_qr_scan", "android": "https://dc.lft.to/lastmile_qr_scan"}, "lon": -77.11222733333334, "type": "electric_bike", "fusion_lat": 0.0, "lat": 38.828728, "name": "80a896b497d1b292407b046a83c37a27", "fusion_lon": 0.0, "bike_id": "80a896b497d1b292407b046a83c37a27", "is_disabled": 0, "is_reserved": 0}, {"rental_uris": {"ios": "https://dc.lft.to/lastmile_qr_scan", "android": "https://dc.lft.to/lastmile_qr_scan"}, "lon": -77.04804933333334, "type": "electric_scooter", "fusion_lat": 0.0, "lat": 38.892188833333336, "name": "79bd1e291e5b5e2e9501433918fa21ed", "fusion_lon": 0.0, "bike_id": "79bd1e291e5b5e2e9501433918fa21ed", "is_disabled": 0, "is_reserved": 0}, {"rental_uris": {"ios": "https://dc.lft.to/lastmile_qr_scan", "android": "https://dc.lft.to/lastmile_qr_scan"}, "lon": -77.027215, "type": "electric_scooter", "fusion_lat": 0.0, "lat": 38.918182333333334, "name": "3b494df33d757b98aca7f2f1fdb8cc30", "fusion_lon": 0.0, "bike_id": "3b494df33d757b98aca7f2f1fdb8cc30", "is_disabled": 0, "is_reserved": 0}, {"rental_uris": {"ios": "https://dc.lft.to/lastmile_qr_scan", "android": "https://dc.lft.to/lastmile_qr_scan"}, "lon": -76.9354635, "type": "electric_bike", "fusion_lat": 0.0, "lat": 38.95560033333334, "name": "e46ea1cecc09d4929f5f4f3cc31f98b2", "fusion_lon": 0.0, "bike_id": "e46ea1cecc09d4929f5f4f3cc31f98b2", "is_disabled": 0, "is_reserved": 0}, {"rental_uris": {"ios": "https://dc.lft.to/lastmile_qr_scan", "android": "https://dc.lft.to/lastmile_qr_scan"}, "lon": -77.047612, "type": "electric_scooter", "fusion_lat": 0.0, "lat": 38.902212, "name": "0ff99cbbeb39e177979ed3e35bb3d0f8", "fusion_lon": 0.0, "bike_id": "0ff99cbbeb39e177979ed3e35bb3d0f8", "is_disabled": 0, "is_reserved": 0}, {"rental_uris": {"ios": "https://dc.lft.to/lastmile_qr_scan", "android": "https://dc.lft.to/lastmile_qr_scan"}, "lon": -77.11199283333333, "type": "electric_bike", "fusion_lat": 0.0, "lat": 38.81304316666667, "name": "33502ee77dd09dc3af6469dd828af75c", "fusion_lon": 0.0, "bike_id": "33502ee77dd09dc3af6469dd828af75c", "is_disabled": 0, "is_reserved": 0}, {"rental_uris": {"ios": "https://dc.lft.to/lastmile_qr_scan", "android": "https://dc.lft.to/lastmile_qr_scan"}, "lon": -77.03263566666666, "type": "electric_scooter", "fusion_lat": 0.0, "lat": 38.92937766666667, "name": "0ee9069afdb801bcc3de1c259d53d80a", "fusion_lon": 0.0, "bike_id": "0ee9069afdb801bcc3de1c259d53d80a", "is_disabled": 0, "is_reserved": 0}, {"rental_uris": {"ios": "https://dc.lft.to/lastmile_qr_scan", "android": "https://dc.lft.to/lastmile_qr_scan"}, "lon": -77.122633, "type": "electric_bike", "fusion_lat": 0.0, "lat": 38.89181633333333, "name": "64b0f734957e0795639da41cc7c4077a", "fusion_lon": 0.0, "bike_id": "64b0f734957e0795639da41cc7c4077a", "is_disabled": 0, "is_reserved": 0}, {"rental_uris": {"ios": "https://dc.lft.to/lastmile_qr_scan", "android": "https://dc.lft.to/lastmile_qr_scan"}, "lon": -76.9575705, "type": "electric_scooter", "fusion_lat": 0.0, "lat": 38.88428866666667, "name": "5a34159da0e2013d6c0522a22da471d1", "fusion_lon": 0.0, "bike_id": "5a34159da0e2013d6c0522a22da471d1", "is_disabled": 0, "is_reserved": 0}, {"rental_uris": {"ios": "https://dc.lft.to/lastmile_qr_scan", "android": "https://dc.lft.to/lastmile_qr_scan"}, "lon": -77.03308416666667, "type": "electric_scooter", "fusion_lat": 0.0, "lat": 38.90036516666667, "name": "04b297b1c1b3ff72f474f579635c0162", "fusion_lon": 0.0, "bike_id": "04b297b1c1b3ff72f474f579635c0162", "is_disabled": 0, "is_reserved": 0}, {"rental_uris": {"ios": "https://dc.lft.to/lastmile_qr_scan", "android": "https://dc.lft.to/lastmile_qr_scan"}, "lon": -76.94441683333334, "type": "electric_bike", "fusion_lat": 0.0, "lat": 38.90293716666667, "name": "7bd7a270231d52b950fa8d0876d382ad", "fusion_lon": 0.0, "bike_id": "7bd7a270231d52b950fa8d0876d382ad", "is_disabled": 0, "is_reserved": 0}, {"rental_uris": {"ios": "https://dc.lft.to/lastmile_qr_scan", "android": "https://dc.lft.to/lastmile_qr_scan"}, "lon": -76.97709216666667, "type": "electric_scooter", "fusion_lat": 0.0, "lat": 38.89891266666667, "name": "7c0a87861d2de39ee0e5727ff58da1e5", "fusion_lon": 0.0, "bike_id": "7c0a87861d2de39ee0e5727ff58da1e5", "is_disabled": 0, "is_reserved": 0}, {"rental_uris": {"ios": "https://dc.lft.to/lastmile_qr_scan", "android": "https://dc.lft.to/lastmile_qr_scan"}, "lon": -77.01816883333333, "type": "electric_scooter", "fusion_lat": 0.0, "lat": 38.9194365, "name": "20647540a41225f29021c1af3e485b25", "fusion_lon": 0.0, "bike_id": "20647540a41225f29021c1af3e485b25", "is_disabled": 0, "is_reserved": 0}, {"rental_uris": {"ios": "https://dc.lft.to/lastmile_qr_scan", "android": "https://dc.lft.to/lastmile_qr_scan"}, "lon": -76.97219133333333, "type": "electric_bike", "fusion_lat": 0.0, "lat": 38.84472683333333, "name": "402ef1ec01ee740dc0326a002c3ebb76", "fusion_lon": 0.0, "bike_id": "402ef1ec01ee740dc0326a002c3ebb76", "is_disabled": 0, "is_reserved": 0}, {"rental_uris": {"ios": "https://dc.lft.to/lastmile_qr_scan", "android": "https://dc.lft.to/lastmile_qr_scan"}, "lon": -77.0318565, "type": "electric_scooter", "fusion_lat": 0.0, "lat": 38.910957833333335, "name": "d9804fbcccb9d5a8b09ffdf63fd85add", "fusion_lon": 0.0, "bike_id": "d9804fbcccb9d5a8b09ffdf63fd85add", "is_disabled": 0, "is_reserved": 0}, {"rental_uris": {"ios": "https://dc.lft.to/lastmile_qr_scan", "android": "https://dc.lft.to/lastmile_qr_scan"}, "lon": -77.02502183333333, "type": "electric_scooter", "fusion_lat": 0.0, "lat": 38.90319, "name": "9135c5e4520a01b0c0cfe2ea76ff7ee8", "fusion_lon": 0.0, "bike_id": "9135c5e4520a01b0c0cfe2ea76ff7ee8", "is_disabled": 0, "is_reserved": 0}, {"rental_uris": {"ios": "https://dc.lft.to/lastmile_qr_scan", "android": "https://dc.lft.to/lastmile_qr_scan"}, "lon": -77.0333605, "type": "electric_scooter", "fusion_lat": 0.0, "lat": 38.892303166666665, "name": "6b7f434a24ab32a306aed9955c9e05aa", "fusion_lon": 0.0, "bike_id": "6b7f434a24ab32a306aed9955c9e05aa", "is_disabled": 0, "is_reserved": 0}, {"rental_uris": {"ios": "https://dc.lft.to/lastmile_qr_scan", "android": "https://dc.lft.to/lastmile_qr_scan"}, "lon": -77.05885016666667, "type": "electric_scooter", "fusion_lat": 0.0, "lat": 38.93635233333333, "name": "73ba0d6ddcbbdc9302bbd0197231eda8", "fusion_lon": 0.0, "bike_id": "73ba0d6ddcbbdc9302bbd0197231eda8", "is_disabled": 0, "is_reserved": 0}, {"rental_uris": {"ios": "https://dc.lft.to/lastmile_qr_scan", "android": "https://dc.lft.to/lastmile_qr_scan"}, "lon": -77.06949566666667, "type": "electric_bike", "fusion_lat": 0.0, "lat": 38.99038516666667, "name": "2991c2d1f017d8836876c08531f8d526", "fusion_lon": 0.0, "bike_id": "2991c2d1f017d8836876c08531f8d526", "is_disabled": 0, "is_reserved": 0}, {"rental_uris": {"ios": "https://dc.lft.to/lastmile_qr_scan", "android": "https://dc.lft.to/lastmile_qr_scan"}, "lon": -77.02695816666666, "type": "electric_scooter", "fusion_lat": 0.0, "lat": 38.906669, "name": "8a02c27d7176ca2dc7a0c25a051309cd", "fusion_lon": 0.0, "bike_id": "8a02c27d7176ca2dc7a0c25a051309cd", "is_disabled": 0, "is_reserved": 0}, {"rental_uris": {"ios": "https://dc.lft.to/lastmile_qr_scan", "android": "https://dc.lft.to/lastmile_qr_scan"}, "lon": -77.02157383333333, "type": "electric_scooter", "fusion_lat": 0.0, "lat": 38.9259675, "name": "d4973f49d0ea875a865f9f4b9ef8cdea", "fusion_lon": 0.0, "bike_id": "d4973f49d0ea875a865f9f4b9ef8cdea", "is_disabled": 0, "is_reserved": 0}, {"rental_uris": {"ios": "https://dc.lft.to/lastmile_qr_scan", "android": "https://dc.lft.to/lastmile_qr_scan"}, "lon": -77.00208666666667, "type": "electric_scooter", "fusion_lat": 0.0, "lat": 38.90069533333333, "name": "c25e9b67acd044e74407a3a95930362e", "fusion_lon": 0.0, "bike_id": "c25e9b67acd044e74407a3a95930362e", "is_disabled": 0, "is_reserved": 0}, {"rental_uris": {"ios": "https://dc.lft.to/lastmile_qr_scan", "android": "https://dc.lft.to/lastmile_qr_scan"}, "lon": -77.00748333333334, "type": "electric_scooter", "fusion_lat": 0.0, "lat": 38.8764935, "name": "ba8621083ff0312430d8be43d2333269", "fusion_lon": 0.0, "bike_id": "ba8621083ff0312430d8be43d2333269", "is_disabled": 0, "is_reserved": 0}, {"rental_uris": {"ios": "https://dc.lft.to/lastmile_qr_scan", "android": "https://dc.lft.to/lastmile_qr_scan"}, "lon": -77.03567983333333, "type": "electric_scooter", "fusion_lat": 0.0, "lat": 38.91812433333333, "name": "f0230dd99305e599a989ea79376957cf", "fusion_lon": 0.0, "bike_id": "f0230dd99305e599a989ea79376957cf", "is_disabled": 0, "is_reserved": 0}, {"rental_uris": {"ios": "https://dc.lft.to/lastmile_qr_scan", "android": "https://dc.lft.to/lastmile_qr_scan"}, "lon": -77.04173883333333, "type": "electric_scooter", "fusion_lat": 0.0, "lat": 38.919356, "name": "3b98052e57e1e24ab7f35931ac1fe51e", "fusion_lon": 0.0, "bike_id": "3b98052e57e1e24ab7f35931ac1fe51e", "is_disabled": 0, "is_reserved": 0}, {"rental_uris": {"ios": "https://dc.lft.to/lastmile_qr_scan", "android": "https://dc.lft.to/lastmile_qr_scan"}, "lon": -77.042442, "type": "electric_scooter", "fusion_lat": 0.0, "lat": 38.92222116666667, "name": "d9647845c165885dc4b04835d85765f8", "fusion_lon": 0.0, "bike_id": "d9647845c165885dc4b04835d85765f8", "is_disabled": 0, "is_reserved": 0}, {"rental_uris": {"ios": "https://dc.lft.to/lastmile_qr_scan", "android": "https://dc.lft.to/lastmile_qr_scan"}, "lon": -77.031813, "type": "electric_scooter", "fusion_lat": 0.0, "lat": 38.8870225, "name": "388bd735206f40410ebd0336faab0564", "fusion_lon": 0.0, "bike_id": "388bd735206f40410ebd0336faab0564", "is_disabled": 0, "is_reserved": 0}, {"rental_uris": {"ios": "https://dc.lft.to/lastmile_qr_scan", "android": "https://dc.lft.to/lastmile_qr_scan"}, "lon": -77.02383833333333, "type": "electric_scooter", "fusion_lat": 0.0, "lat": 38.95241383333333, "name": "e12322fff768e29962592f469110416a", "fusion_lon": 0.0, "bike_id": "e12322fff768e29962592f469110416a", "is_disabled": 0, "is_reserved": 0}, {"rental_uris": {"ios": "https://dc.lft.to/lastmile_qr_scan", "android": "https://dc.lft.to/lastmile_qr_scan"}, "lon": -77.03305666666667, "type": "electric_scooter", "fusion_lat": 0.0, "lat": 38.9264435, "name": "2e699f1af225df846cbf98cf629b44b5", "fusion_lon": 0.0, "bike_id": "2e699f1af225df846cbf98cf629b44b5", "is_disabled": 0, "is_reserved": 0}, {"rental_uris": {"ios": "https://dc.lft.to/lastmile_qr_scan", "android": "https://dc.lft.to/lastmile_qr_scan"}, "lon": -77.01347183333333, "type": "electric_scooter", "fusion_lat": 0.0, "lat": 38.94189883333333, "name": "3f1b8e42d4449eb626959ca999621846", "fusion_lon": 0.0, "bike_id": "3f1b8e42d4449eb626959ca999621846", "is_disabled": 0, "is_reserved": 0}, {"rental_uris": {"ios": "https://dc.lft.to/lastmile_qr_scan", "android": "https://dc.lft.to/lastmile_qr_scan"}, "lon": -77.0241445, "type": "electric_scooter", "fusion_lat": 0.0, "lat": 38.892277166666666, "name": "f46407c5c078a9ad2cb8154c140c76d0", "fusion_lon": 0.0, "bike_id": "f46407c5c078a9ad2cb8154c140c76d0", "is_disabled": 0, "is_reserved": 0}, {"rental_uris": {"ios": "https://dc.lft.to/lastmile_qr_scan", "android": "https://dc.lft.to/lastmile_qr_scan"}, "lon": -77.008115, "type": "electric_scooter", "fusion_lat": 0.0, "lat": 38.87739033333333, "name": "c792c9c453c06ff853e0e8f17ff1abdf", "fusion_lon": 0.0, "bike_id": "c792c9c453c06ff853e0e8f17ff1abdf", "is_disabled": 0, "is_reserved": 0}, {"rental_uris": {"ios": "https://dc.lft.to/lastmile_qr_scan", "android": "https://dc.lft.to/lastmile_qr_scan"}, "lon": -77.0318325, "type": "electric_scooter", "fusion_lat": 0.0, "lat": 38.9191495, "name": "f359b1f1ee71f3673cdd804a5478320b", "fusion_lon": 0.0, "bike_id": "f359b1f1ee71f3673cdd804a5478320b", "is_disabled": 0, "is_reserved": 0}, {"rental_uris": {"ios": "https://dc.lft.to/lastmile_qr_scan", "android": "https://dc.lft.to/lastmile_qr_scan"}, "lon": -76.97673633333333, "type": "electric_scooter", "fusion_lat": 0.0, "lat": 38.898768833333335, "name": "984a6b533aab118212524084755373fa", "fusion_lon": 0.0, "bike_id": "984a6b533aab118212524084755373fa", "is_disabled": 0, "is_reserved": 0}, {"rental_uris": {"ios": "https://dc.lft.to/lastmile_qr_scan", "android": "https://dc.lft.to/lastmile_qr_scan"}, "lon": -77.020157, "type": "electric_scooter", "fusion_lat": 0.0, "lat": 38.892185833333336, "name": "57d8575915dd9f3621862c76e5eafbc8", "fusion_lon": 0.0, "bike_id": "57d8575915dd9f3621862c76e5eafbc8", "is_disabled": 0, "is_reserved": 0}, {"rental_uris": {"ios": "https://dc.lft.to/lastmile_qr_scan", "android": "https://dc.lft.to/lastmile_qr_scan"}, "lon": -76.947638, "type": "electric_scooter", "fusion_lat": 0.0, "lat": 38.90050983333333, "name": "7b6842adfb0e6bcd8d57982a16a2aae4", "fusion_lon": 0.0, "bike_id": "7b6842adfb0e6bcd8d57982a16a2aae4", "is_disabled": 0, "is_reserved": 0}, {"rental_uris": {"ios": "https://dc.lft.to/lastmile_qr_scan", "android": "https://dc.lft.to/lastmile_qr_scan"}, "lon": -77.03215766666666, "type": "electric_scooter", "fusion_lat": 0.0, "lat": 38.962354500000004, "name": "a1ca793789a4786a3edf5d1346f0e2df", "fusion_lon": 0.0, "bike_id": "a1ca793789a4786a3edf5d1346f0e2df", "is_disabled": 0, "is_reserved": 0}, {"rental_uris": {"ios": "https://dc.lft.to/lastmile_qr_scan", "android": "https://dc.lft.to/lastmile_qr_scan"}, "lon": -77.0490425, "type": "electric_bike", "fusion_lat": 0.0, "lat": 38.8749145, "name": "4a92553e8bb5fff60c0ce1d3bebee85e", "fusion_lon": 0.0, "bike_id": "4a92553e8bb5fff60c0ce1d3bebee85e", "is_disabled": 0, "is_reserved": 0}, {"rental_uris": {"ios": "https://dc.lft.to/lastmile_qr_scan", "android": "https://dc.lft.to/lastmile_qr_scan"}, "lon": -77.02319033333333, "type": "electric_scooter", "fusion_lat": 0.0, "lat": 38.91684633333333, "name": "0745d64e3f63205e58bc789382951e2a", "fusion_lon": 0.0, "bike_id": "0745d64e3f63205e58bc789382951e2a", "is_disabled": 0, "is_reserved": 0}, {"rental_uris": {"ios": "https://dc.lft.to/lastmile_qr_scan", "android": "https://dc.lft.to/lastmile_qr_scan"}, "lon": -77.03472516666666, "type": "electric_scooter", "fusion_lat": 0.0, "lat": 38.929888166666665, "name": "645d0acf9bdef6f33d326dcab2403fa6", "fusion_lon": 0.0, "bike_id": "645d0acf9bdef6f33d326dcab2403fa6", "is_disabled": 0, "is_reserved": 0}, {"rental_uris": {"ios": "https://dc.lft.to/lastmile_qr_scan", "android": "https://dc.lft.to/lastmile_qr_scan"}, "lon": -76.99046066666666, "type": "electric_scooter", "fusion_lat": 0.0, "lat": 38.901369, "name": "c7c55a5d51d452e27b9917c7af114505", "fusion_lon": 0.0, "bike_id": "c7c55a5d51d452e27b9917c7af114505", "is_disabled": 0, "is_reserved": 0}, {"rental_uris": {"ios": "https://dc.lft.to/lastmile_qr_scan", "android": "https://dc.lft.to/lastmile_qr_scan"}, "lon": -77.06277566666667, "type": "electric_scooter", "fusion_lat": 0.0, "lat": 38.90681083333333, "name": "cbfd45b666da959408d83f09838bc976", "fusion_lon": 0.0, "bike_id": "cbfd45b666da959408d83f09838bc976", "is_disabled": 0, "is_reserved": 0}, {"rental_uris": {"ios": "https://dc.lft.to/lastmile_qr_scan", "android": "https://dc.lft.to/lastmile_qr_scan"}, "lon": -77.02189683333333, "type": "electric_scooter", "fusion_lat": 0.0, "lat": 38.91036166666667, "name": "e422a7248c4aeffe1284ce0ca7b6c45a", "fusion_lon": 0.0, "bike_id": "e422a7248c4aeffe1284ce0ca7b6c45a", "is_disabled": 0, "is_reserved": 0}, {"rental_uris": {"ios": "https://dc.lft.to/lastmile_qr_scan", "android": "https://dc.lft.to/lastmile_qr_scan"}, "lon": -76.9865905, "type": "electric_scooter", "fusion_lat": 0.0, "lat": 38.85803466666667, "name": "a42071575ea3275e8f55b14c70488509", "fusion_lon": 0.0, "bike_id": "a42071575ea3275e8f55b14c70488509", "is_disabled": 0, "is_reserved": 0}, {"rental_uris": {"ios": "https://dc.lft.to/lastmile_qr_scan", "android": "https://dc.lft.to/lastmile_qr_scan"}, "lon": -76.94652033333334, "type": "electric_scooter", "fusion_lat": 0.0, "lat": 38.8982275, "name": "d3639995cb908dbcc2c9172124d356dd", "fusion_lon": 0.0, "bike_id": "d3639995cb908dbcc2c9172124d356dd", "is_disabled": 0, "is_reserved": 0}, {"rental_uris": {"ios": "https://dc.lft.to/lastmile_qr_scan", "android": "https://dc.lft.to/lastmile_qr_scan"}, "lon": -77.00354516666667, "type": "electric_scooter", "fusion_lat": 0.0, "lat": 38.897733833333334, "name": "7ff422f174b6d7c1599637260e751177", "fusion_lon": 0.0, "bike_id": "7ff422f174b6d7c1599637260e751177", "is_disabled": 0, "is_reserved": 0}, {"rental_uris": {"ios": "https://dc.lft.to/lastmile_qr_scan", "android": "https://dc.lft.to/lastmile_qr_scan"}, "lon": -76.98656816666667, "type": "electric_scooter", "fusion_lat": 0.0, "lat": 38.85802483333333, "name": "082be0c7b31a4ad190d3e239d293ef30", "fusion_lon": 0.0, "bike_id": "082be0c7b31a4ad190d3e239d293ef30", "is_disabled": 0, "is_reserved": 0}, {"rental_uris": {"ios": "https://dc.lft.to/lastmile_qr_scan", "android": "https://dc.lft.to/lastmile_qr_scan"}, "lon": -77.10033566666667, "type": "electric_bike", "fusion_lat": 0.0, "lat": 38.990592166666666, "name": "0d80658efe9a5ee56bc8943a16c8eda8", "fusion_lon": 0.0, "bike_id": "0d80658efe9a5ee56bc8943a16c8eda8", "is_disabled": 0, "is_reserved": 0}, {"rental_uris": {"ios": "https://dc.lft.to/lastmile_qr_scan", "android": "https://dc.lft.to/lastmile_qr_scan"}, "lon": -76.98571633333333, "type": "electric_scooter", "fusion_lat": 0.0, "lat": 38.898858, "name": "3a950003add9d7d7892824247d6d2e05", "fusion_lon": 0.0, "bike_id": "3a950003add9d7d7892824247d6d2e05", "is_disabled": 0, "is_reserved": 0}, {"rental_uris": {"ios": "https://dc.lft.to/lastmile_qr_scan", "android": "https://dc.lft.to/lastmile_qr_scan"}, "lon": -76.99949183333334, "type": "electric_scooter", "fusion_lat": 0.0, "lat": 38.84289833333333, "name": "50eecb5fe282efc07323905bef2402db", "fusion_lon": 0.0, "bike_id": "50eecb5fe282efc07323905bef2402db", "is_disabled": 0, "is_reserved": 0}, {"rental_uris": {"ios": "https://dc.lft.to/lastmile_qr_scan", "android": "https://dc.lft.to/lastmile_qr_scan"}, "lon": -77.01910466666666, "type": "electric_scooter", "fusion_lat": 0.0, "lat": 38.90237033333333, "name": "daf49b115d6a104e972065e07ade5423", "fusion_lon": 0.0, "bike_id": "daf49b115d6a104e972065e07ade5423", "is_disabled": 0, "is_reserved": 0}, {"rental_uris": {"ios": "https://dc.lft.to/lastmile_qr_scan", "android": "https://dc.lft.to/lastmile_qr_scan"}, "lon": -77.0317965, "type": "electric_scooter", "fusion_lat": 0.0, "lat": 38.91827216666667, "name": "c8585b08ede50579686e69b5c9de6b3f", "fusion_lon": 0.0, "bike_id": "c8585b08ede50579686e69b5c9de6b3f", "is_disabled": 0, "is_reserved": 0}, {"rental_uris": {"ios": "https://dc.lft.to/lastmile_qr_scan", "android": "https://dc.lft.to/lastmile_qr_scan"}, "lon": -77.00660966666666, "type": "electric_scooter", "fusion_lat": 0.0, "lat": 38.874657, "name": "c71707a859db356b93c37127210277e1", "fusion_lon": 0.0, "bike_id": "c71707a859db356b93c37127210277e1", "is_disabled": 0, "is_reserved": 0}, {"rental_uris": {"ios": "https://dc.lft.to/lastmile_qr_scan", "android": "https://dc.lft.to/lastmile_qr_scan"}, "lon": -77.02978133333333, "type": "electric_scooter", "fusion_lat": 0.0, "lat": 38.96228133333334, "name": "3f0fae3645d06939e1e358b9bef7e747", "fusion_lon": 0.0, "bike_id": "3f0fae3645d06939e1e358b9bef7e747", "is_disabled": 0, "is_reserved": 0}, {"rental_uris": {"ios": "https://dc.lft.to/lastmile_qr_scan", "android": "https://dc.lft.to/lastmile_qr_scan"}, "lon": -77.00730883333334, "type": "electric_scooter", "fusion_lat": 0.0, "lat": 38.8849225, "name": "5843e56dc02e06533bc67cd07a5ffdc5", "fusion_lon": 0.0, "bike_id": "5843e56dc02e06533bc67cd07a5ffdc5", "is_disabled": 0, "is_reserved": 0}, {"rental_uris": {"ios": "https://dc.lft.to/lastmile_qr_scan", "android": "https://dc.lft.to/lastmile_qr_scan"}, "lon": -77.04108366666667, "type": "electric_scooter", "fusion_lat": 0.0, "lat": 38.9184855, "name": "7f6d434c180a16bc569d5eed68b6989e", "fusion_lon": 0.0, "bike_id": "7f6d434c180a16bc569d5eed68b6989e", "is_disabled": 0, "is_reserved": 0}, {"rental_uris": {"ios": "https://dc.lft.to/lastmile_qr_scan", "android": "https://dc.lft.to/lastmile_qr_scan"}, "lon": -77.02880383333333, "type": "electric_scooter", "fusion_lat": 0.0, "lat": 38.92378566666667, "name": "066b375d3f4c0374c35ee2c945ff69dd", "fusion_lon": 0.0, "bike_id": "066b375d3f4c0374c35ee2c945ff69dd", "is_disabled": 0, "is_reserved": 0}, {"rental_uris": {"ios": "https://dc.lft.to/lastmile_qr_scan", "android": "https://dc.lft.to/lastmile_qr_scan"}, "lon": -76.9954965, "type": "electric_scooter", "fusion_lat": 0.0, "lat": 38.900285833333335, "name": "2cb47bfd5b8a30ddbb2d5c781f6824c4", "fusion_lon": 0.0, "bike_id": "2cb47bfd5b8a30ddbb2d5c781f6824c4", "is_disabled": 0, "is_reserved": 0}, {"rental_uris": {"ios": "https://dc.lft.to/lastmile_qr_scan", "android": "https://dc.lft.to/lastmile_qr_scan"}, "lon": -77.1784525, "type": "electric_bike", "fusion_lat": 0.0, "lat": 39.089001333333336, "name": "97d5431a240e4713603a8b20802f9374", "fusion_lon": 0.0, "bike_id": "97d5431a240e4713603a8b20802f9374", "is_disabled": 0, "is_reserved": 0}, {"rental_uris": {"ios": "https://dc.lft.to/lastmile_qr_scan", "android": "https://dc.lft.to/lastmile_qr_scan"}, "lon": -77.026467, "type": "electric_scooter", "fusion_lat": 0.0, "lat": 38.892156666666665, "name": "571ac511474137ac1df218d42ff67ba5", "fusion_lon": 0.0, "bike_id": "571ac511474137ac1df218d42ff67ba5", "is_disabled": 0, "is_reserved": 0}, {"rental_uris": {"ios": "https://dc.lft.to/lastmile_qr_scan", "android": "https://dc.lft.to/lastmile_qr_scan"}, "lon": -77.034725, "type": "electric_scooter", "fusion_lat": 0.0, "lat": 38.934403833333334, "name": "e77aa31893bfc8530c027e4db7c4e23f", "fusion_lon": 0.0, "bike_id": "e77aa31893bfc8530c027e4db7c4e23f", "is_disabled": 0, "is_reserved": 0}, {"rental_uris": {"ios": "https://dc.lft.to/lastmile_qr_scan", "android": "https://dc.lft.to/lastmile_qr_scan"}, "lon": -77.085426, "type": "electric_bike", "fusion_lat": 0.0, "lat": 38.85621316666667, "name": "469359c6b247a2a1dabae5478893cc8b", "fusion_lon": 0.0, "bike_id": "469359c6b247a2a1dabae5478893cc8b", "is_disabled": 0, "is_reserved": 0}, {"rental_uris": {"ios": "https://dc.lft.to/lastmile_qr_scan", "android": "https://dc.lft.to/lastmile_qr_scan"}, "lon": -77.04028866666667, "type": "electric_scooter", "fusion_lat": 0.0, "lat": 38.92440466666667, "name": "5ef44bd848e078b4a621317f5daa3171", "fusion_lon": 0.0, "bike_id": "5ef44bd848e078b4a621317f5daa3171", "is_disabled": 0, "is_reserved": 0}, {"rental_uris": {"ios": "https://dc.lft.to/lastmile_qr_scan", "android": "https://dc.lft.to/lastmile_qr_scan"}, "lon": -77.0468525, "type": "electric_scooter", "fusion_lat": 0.0, "lat": 38.905315333333334, "name": "60ea388d7d6a549b22a7276890ef85c9", "fusion_lon": 0.0, "bike_id": "60ea388d7d6a549b22a7276890ef85c9", "is_disabled": 0, "is_reserved": 0}, {"rental_uris": {"ios": "https://dc.lft.to/lastmile_qr_scan", "android": "https://dc.lft.to/lastmile_qr_scan"}, "lon": -77.03184116666667, "type": "electric_scooter", "fusion_lat": 0.0, "lat": 38.91794016666667, "name": "664218231c009b06c3fd9556f49600d2", "fusion_lon": 0.0, "bike_id": "664218231c009b06c3fd9556f49600d2", "is_disabled": 0, "is_reserved": 0}, {"rental_uris": {"ios": "https://dc.lft.to/lastmile_qr_scan", "android": "https://dc.lft.to/lastmile_qr_scan"}, "lon": -77.07478883333333, "type": "electric_scooter", "fusion_lat": 0.0, "lat": 38.96036866666667, "name": "8eecb7a5b9fa36efebf2595fae7df9c3", "fusion_lon": 0.0, "bike_id": "8eecb7a5b9fa36efebf2595fae7df9c3", "is_disabled": 0, "is_reserved": 0}, {"rental_uris": {"ios": "https://dc.lft.to/lastmile_qr_scan", "android": "https://dc.lft.to/lastmile_qr_scan"}, "lon": -77.01382016666666, "type": "electric_scooter", "fusion_lat": 0.0, "lat": 38.91942, "name": "eabcba0887a96f011e61449edae0a57d", "fusion_lon": 0.0, "bike_id": "eabcba0887a96f011e61449edae0a57d", "is_disabled": 0, "is_reserved": 0}, {"rental_uris": {"ios": "https://dc.lft.to/lastmile_qr_scan", "android": "https://dc.lft.to/lastmile_qr_scan"}, "lon": -77.07270466666667, "type": "electric_scooter", "fusion_lat": 0.0, "lat": 38.934756166666666, "name": "1bfb8fc8e4ba3e222ba8c872552ff459", "fusion_lon": 0.0, "bike_id": "1bfb8fc8e4ba3e222ba8c872552ff459", "is_disabled": 0, "is_reserved": 0}, {"rental_uris": {"ios": "https://dc.lft.to/lastmile_qr_scan", "android": "https://dc.lft.to/lastmile_qr_scan"}, "lon": -77.023444, "type": "electric_scooter", "fusion_lat": 0.0, "lat": 38.96202433333333, "name": "f56bc1163089038afb49a366d65de529", "fusion_lon": 0.0, "bike_id": "f56bc1163089038afb49a366d65de529", "is_disabled": 0, "is_reserved": 0}, {"rental_uris": {"ios": "https://dc.lft.to/lastmile_qr_scan", "android": "https://dc.lft.to/lastmile_qr_scan"}, "lon": -77.046538, "type": "electric_scooter", "fusion_lat": 0.0, "lat": 38.912705333333335, "name": "4a5e530fcf4c26c3ce868eb0ddbe3296", "fusion_lon": 0.0, "bike_id": "4a5e530fcf4c26c3ce868eb0ddbe3296", "is_disabled": 0, "is_reserved": 0}, {"rental_uris": {"ios": "https://dc.lft.to/lastmile_qr_scan", "android": "https://dc.lft.to/lastmile_qr_scan"}, "lon": -77.0119025, "type": "electric_scooter", "fusion_lat": 0.0, "lat": 38.90040483333333, "name": "0ab448f07bdecea2ab6da3d34ca3b342", "fusion_lon": 0.0, "bike_id": "0ab448f07bdecea2ab6da3d34ca3b342", "is_disabled": 0, "is_reserved": 0}, {"rental_uris": {"ios": "https://dc.lft.to/lastmile_qr_scan", "android": "https://dc.lft.to/lastmile_qr_scan"}, "lon": -77.00531033333333, "type": "electric_scooter", "fusion_lat": 0.0, "lat": 38.92898916666667, "name": "ce00d6696d8b697f770783a9eb185a7d", "fusion_lon": 0.0, "bike_id": "ce00d6696d8b697f770783a9eb185a7d", "is_disabled": 0, "is_reserved": 0}, {"rental_uris": {"ios": "https://dc.lft.to/lastmile_qr_scan", "android": "https://dc.lft.to/lastmile_qr_scan"}, "lon": -77.07249066666667, "type": "electric_scooter", "fusion_lat": 0.0, "lat": 38.9338715, "name": "3c2dfee03c4019828fad4193ad1bda91", "fusion_lon": 0.0, "bike_id": "3c2dfee03c4019828fad4193ad1bda91", "is_disabled": 0, "is_reserved": 0}, {"rental_uris": {"ios": "https://dc.lft.to/lastmile_qr_scan", "android": "https://dc.lft.to/lastmile_qr_scan"}, "lon": -77.064158, "type": "electric_scooter", "fusion_lat": 0.0, "lat": 38.909092666666666, "name": "534393946de0e5be5e9b3292df7594f4", "fusion_lon": 0.0, "bike_id": "534393946de0e5be5e9b3292df7594f4", "is_disabled": 0, "is_reserved": 0}, {"rental_uris": {"ios": "https://dc.lft.to/lastmile_qr_scan", "android": "https://dc.lft.to/lastmile_qr_scan"}, "lon": -77.0564, "type": "electric_scooter", "fusion_lat": 0.0, "lat": 38.927534, "name": "75b1e5b08e4892554a86a6827005fe93", "fusion_lon": 0.0, "bike_id": "75b1e5b08e4892554a86a6827005fe93", "is_disabled": 0, "is_reserved": 0}, {"rental_uris": {"ios": "https://dc.lft.to/lastmile_qr_scan", "android": "https://dc.lft.to/lastmile_qr_scan"}, "lon": -76.99555433333333, "type": "electric_scooter", "fusion_lat": 0.0, "lat": 38.86232366666667, "name": "89e0abe8c599f4b38edb74d732b09b76", "fusion_lon": 0.0, "bike_id": "89e0abe8c599f4b38edb74d732b09b76", "is_disabled": 0, "is_reserved": 0}, {"rental_uris": {"ios": "https://dc.lft.to/lastmile_qr_scan", "android": "https://dc.lft.to/lastmile_qr_scan"}, "lon": -76.98310633333334, "type": "electric_scooter", "fusion_lat": 0.0, "lat": 38.89965183333333, "name": "65c4134a966ac20e5cf258115800763e", "fusion_lon": 0.0, "bike_id": "65c4134a966ac20e5cf258115800763e", "is_disabled": 0, "is_reserved": 0}, {"rental_uris": {"ios": "https://dc.lft.to/lastmile_qr_scan", "android": "https://dc.lft.to/lastmile_qr_scan"}, "lon": -77.01990383333333, "type": "electric_scooter", "fusion_lat": 0.0, "lat": 38.937802, "name": "4e3d17a6083ea93bbd1773db376b54e9", "fusion_lon": 0.0, "bike_id": "4e3d17a6083ea93bbd1773db376b54e9", "is_disabled": 0, "is_reserved": 0}, {"rental_uris": {"ios": "https://dc.lft.to/lastmile_qr_scan", "android": "https://dc.lft.to/lastmile_qr_scan"}, "lon": -77.0347085, "type": "electric_scooter", "fusion_lat": 0.0, "lat": 38.93436466666667, "name": "2537ece76575460ad2e7605dc447aadc", "fusion_lon": 0.0, "bike_id": "2537ece76575460ad2e7605dc447aadc", "is_disabled": 0, "is_reserved": 0}, {"rental_uris": {"ios": "https://dc.lft.to/lastmile_qr_scan", "android": "https://dc.lft.to/lastmile_qr_scan"}, "lon": -77.028001, "type": "electric_scooter", "fusion_lat": 0.0, "lat": 38.92968166666667, "name": "7b820fc07ed2d40cd33e5185f69b9ddf", "fusion_lon": 0.0, "bike_id": "7b820fc07ed2d40cd33e5185f69b9ddf", "is_disabled": 0, "is_reserved": 0}, {"rental_uris": {"ios": "https://dc.lft.to/lastmile_qr_scan", "android": "https://dc.lft.to/lastmile_qr_scan"}, "lon": -77.0404645, "type": "electric_scooter", "fusion_lat": 0.0, "lat": 38.90605933333333, "name": "64e9ed19204f51075f1d99af45ab1f5a", "fusion_lon": 0.0, "bike_id": "64e9ed19204f51075f1d99af45ab1f5a", "is_disabled": 0, "is_reserved": 0}, {"rental_uris": {"ios": "https://dc.lft.to/lastmile_qr_scan", "android": "https://dc.lft.to/lastmile_qr_scan"}, "lon": -76.98997316666667, "type": "electric_scooter", "fusion_lat": 0.0, "lat": 38.903832666666666, "name": "bb6413b13bfada86341724785f2db9de", "fusion_lon": 0.0, "bike_id": "bb6413b13bfada86341724785f2db9de", "is_disabled": 0, "is_reserved": 0}, {"rental_uris": {"ios": "https://dc.lft.to/lastmile_qr_scan", "android": "https://dc.lft.to/lastmile_qr_scan"}, "lon": -76.9984055, "type": "electric_scooter", "fusion_lat": 0.0, "lat": 38.90031533333333, "name": "a54354cc4785b951ae947389a94f48a2", "fusion_lon": 0.0, "bike_id": "a54354cc4785b951ae947389a94f48a2", "is_disabled": 0, "is_reserved": 0}, {"rental_uris": {"ios": "https://dc.lft.to/lastmile_qr_scan", "android": "https://dc.lft.to/lastmile_qr_scan"}, "lon": -77.0101955, "type": "electric_scooter", "fusion_lat": 0.0, "lat": 38.91810666666667, "name": "2a271a8253d39de45fe6997682779de5", "fusion_lon": 0.0, "bike_id": "2a271a8253d39de45fe6997682779de5", "is_disabled": 0, "is_reserved": 0}, {"rental_uris": {"ios": "https://dc.lft.to/lastmile_qr_scan", "android": "https://dc.lft.to/lastmile_qr_scan"}, "lon": -77.04284616666666, "type": "electric_scooter", "fusion_lat": 0.0, "lat": 38.90646866666667, "name": "20f311d2a0fcd4effcc63a63bf6cab27", "fusion_lon": 0.0, "bike_id": "20f311d2a0fcd4effcc63a63bf6cab27", "is_disabled": 0, "is_reserved": 0}, {"rental_uris": {"ios": "https://dc.lft.to/lastmile_qr_scan", "android": "https://dc.lft.to/lastmile_qr_scan"}, "lon": -76.95757433333333, "type": "electric_scooter", "fusion_lat": 0.0, "lat": 38.88429933333333, "name": "31a4c3658ae8802105bab57c06c6e052", "fusion_lon": 0.0, "bike_id": "31a4c3658ae8802105bab57c06c6e052", "is_disabled": 0, "is_reserved": 0}, {"rental_uris": {"ios": "https://dc.lft.to/lastmile_qr_scan", "android": "https://dc.lft.to/lastmile_qr_scan"}, "lon": -76.93793483333333, "type": "electric_scooter", "fusion_lat": 0.0, "lat": 38.890807, "name": "27773f395e566d36c4c74cd9e101cc50", "fusion_lon": 0.0, "bike_id": "27773f395e566d36c4c74cd9e101cc50", "is_disabled": 0, "is_reserved": 0}, {"rental_uris": {"ios": "https://dc.lft.to/lastmile_qr_scan", "android": "https://dc.lft.to/lastmile_qr_scan"}, "lon": -77.0352775, "type": "electric_scooter", "fusion_lat": 0.0, "lat": 38.9148655, "name": "0b4c43ee8c7f60316d83b1ab103558de", "fusion_lon": 0.0, "bike_id": "0b4c43ee8c7f60316d83b1ab103558de", "is_disabled": 0, "is_reserved": 0}, {"rental_uris": {"ios": "https://dc.lft.to/lastmile_qr_scan", "android": "https://dc.lft.to/lastmile_qr_scan"}, "lon": -77.0228565, "type": "electric_scooter", "fusion_lat": 0.0, "lat": 38.91676016666667, "name": "a2f528030449c8f31f5ce4425bd4fddf", "fusion_lon": 0.0, "bike_id": "a2f528030449c8f31f5ce4425bd4fddf", "is_disabled": 0, "is_reserved": 0}, {"rental_uris": {"ios": "https://dc.lft.to/lastmile_qr_scan", "android": "https://dc.lft.to/lastmile_qr_scan"}, "lon": -76.96507, "type": "electric_scooter", "fusion_lat": 0.0, "lat": 38.8764545, "name": "fc08bd7f2ac20cefcd43a55042e9c598", "fusion_lon": 0.0, "bike_id": "fc08bd7f2ac20cefcd43a55042e9c598", "is_disabled": 0, "is_reserved": 0}, {"rental_uris": {"ios": "https://dc.lft.to/lastmile_qr_scan", "android": "https://dc.lft.to/lastmile_qr_scan"}, "lon": -77.1526795, "type": "electric_bike", "fusion_lat": 0.0, "lat": 39.105634333333334, "name": "979c3da1278dcd9c7ce97cb4c5bc5190", "fusion_lon": 0.0, "bike_id": "979c3da1278dcd9c7ce97cb4c5bc5190", "is_disabled": 0, "is_reserved": 0}, {"rental_uris": {"ios": "https://dc.lft.to/lastmile_qr_scan", "android": "https://dc.lft.to/lastmile_qr_scan"}, "lon": -77.043336, "type": "electric_scooter", "fusion_lat": 0.0, "lat": 38.9089005, "name": "5cffc77be74773d86a481579570024e4", "fusion_lon": 0.0, "bike_id": "5cffc77be74773d86a481579570024e4", "is_disabled": 0, "is_reserved": 0}, {"rental_uris": {"ios": "https://dc.lft.to/lastmile_qr_scan", "android": "https://dc.lft.to/lastmile_qr_scan"}, "lon": -77.03521166666667, "type": "electric_scooter", "fusion_lat": 0.0, "lat": 38.918360666666665, "name": "48c450667656402eef7e62ca0831284d", "fusion_lon": 0.0, "bike_id": "48c450667656402eef7e62ca0831284d", "is_disabled": 0, "is_reserved": 0}, {"rental_uris": {"ios": "https://dc.lft.to/lastmile_qr_scan", "android": "https://dc.lft.to/lastmile_qr_scan"}, "lon": -76.983316, "type": "electric_scooter", "fusion_lat": 0.0, "lat": 38.861697, "name": "330ee95f40daaede05000336dabd818f", "fusion_lon": 0.0, "bike_id": "330ee95f40daaede05000336dabd818f", "is_disabled": 0, "is_reserved": 0}, {"rental_uris": {"ios": "https://dc.lft.to/lastmile_qr_scan", "android": "https://dc.lft.to/lastmile_qr_scan"}, "lon": -77.0230435, "type": "electric_scooter", "fusion_lat": 0.0, "lat": 38.91624816666667, "name": "d4ace94ba02c3a4b9568f3cd18799d6e", "fusion_lon": 0.0, "bike_id": "d4ace94ba02c3a4b9568f3cd18799d6e", "is_disabled": 0, "is_reserved": 0}, {"rental_uris": {"ios": "https://dc.lft.to/lastmile_qr_scan", "android": "https://dc.lft.to/lastmile_qr_scan"}, "lon": -77.02844183333333, "type": "electric_scooter", "fusion_lat": 0.0, "lat": 38.94259133333333, "name": "b320f92452d020efb0fe182749b32851", "fusion_lon": 0.0, "bike_id": "b320f92452d020efb0fe182749b32851", "is_disabled": 0, "is_reserved": 0}, {"rental_uris": {"ios": "https://dc.lft.to/lastmile_qr_scan", "android": "https://dc.lft.to/lastmile_qr_scan"}, "lon": -76.9988135, "type": "electric_scooter", "fusion_lat": 0.0, "lat": 38.907528666666664, "name": "179d5b293544d0c34c691f79a275b885", "fusion_lon": 0.0, "bike_id": "179d5b293544d0c34c691f79a275b885", "is_disabled": 0, "is_reserved": 0}, {"rental_uris": {"ios": "https://dc.lft.to/lastmile_qr_scan", "android": "https://dc.lft.to/lastmile_qr_scan"}, "lon": -77.04162583333333, "type": "electric_scooter", "fusion_lat": 0.0, "lat": 38.90841866666667, "name": "5ca24bd30af08428ced1563d8fca485b", "fusion_lon": 0.0, "bike_id": "5ca24bd30af08428ced1563d8fca485b", "is_disabled": 0, "is_reserved": 0}, {"rental_uris": {"ios": "https://dc.lft.to/lastmile_qr_scan", "android": "https://dc.lft.to/lastmile_qr_scan"}, "lon": -76.99489166666666, "type": "electric_scooter", "fusion_lat": 0.0, "lat": 38.862402833333334, "name": "892b629215bb3e467b7f04819aacb33b", "fusion_lon": 0.0, "bike_id": "892b629215bb3e467b7f04819aacb33b", "is_disabled": 0, "is_reserved": 0}, {"rental_uris": {"ios": "https://dc.lft.to/lastmile_qr_scan", "android": "https://dc.lft.to/lastmile_qr_scan"}, "lon": -77.00578016666667, "type": "electric_scooter", "fusion_lat": 0.0, "lat": 38.88602383333333, "name": "ca644311b596bcd826eef2038aa458f6", "fusion_lon": 0.0, "bike_id": "ca644311b596bcd826eef2038aa458f6", "is_disabled": 0, "is_reserved": 0}, {"rental_uris": {"ios": "https://dc.lft.to/lastmile_qr_scan", "android": "https://dc.lft.to/lastmile_qr_scan"}, "lon": -76.9317575, "type": "electric_scooter", "fusion_lat": 0.0, "lat": 38.89884216666667, "name": "1b6bea859eb2cbd79a304cf5ec868c0c", "fusion_lon": 0.0, "bike_id": "1b6bea859eb2cbd79a304cf5ec868c0c", "is_disabled": 0, "is_reserved": 0}, {"rental_uris": {"ios": "https://dc.lft.to/lastmile_qr_scan", "android": "https://dc.lft.to/lastmile_qr_scan"}, "lon": -77.3531315, "type": "electric_bike", "fusion_lat": 0.0, "lat": 38.94996316666667, "name": "e204c9fc92d3a56d8c70f60a39f7e894", "fusion_lon": 0.0, "bike_id": "e204c9fc92d3a56d8c70f60a39f7e894", "is_disabled": 0, "is_reserved": 0}, {"rental_uris": {"ios": "https://dc.lft.to/lastmile_qr_scan", "android": "https://dc.lft.to/lastmile_qr_scan"}, "lon": -77.02966133333334, "type": "electric_scooter", "fusion_lat": 0.0, "lat": 38.906192833333336, "name": "8ee5e1d90041f4f852acb5bd048a327f", "fusion_lon": 0.0, "bike_id": "8ee5e1d90041f4f852acb5bd048a327f", "is_disabled": 0, "is_reserved": 0}, {"rental_uris": {"ios": "https://dc.lft.to/lastmile_qr_scan", "android": "https://dc.lft.to/lastmile_qr_scan"}, "lon": -77.043627, "type": "electric_scooter", "fusion_lat": 0.0, "lat": 38.903783, "name": "b40818a3ea1627ef2ba9fe96fa4f0261", "fusion_lon": 0.0, "bike_id": "b40818a3ea1627ef2ba9fe96fa4f0261", "is_disabled": 0, "is_reserved": 0}, {"rental_uris": {"ios": "https://dc.lft.to/lastmile_qr_scan", "android": "https://dc.lft.to/lastmile_qr_scan"}, "lon": -76.9759705, "type": "electric_scooter", "fusion_lat": 0.0, "lat": 38.90329066666666, "name": "91ea148e34ac0dc4ce9d50daaf101a1b", "fusion_lon": 0.0, "bike_id": "91ea148e34ac0dc4ce9d50daaf101a1b", "is_disabled": 0, "is_reserved": 0}, {"rental_uris": {"ios": "https://dc.lft.to/lastmile_qr_scan", "android": "https://dc.lft.to/lastmile_qr_scan"}, "lon": -76.94625166666667, "type": "electric_bike", "fusion_lat": 0.0, "lat": 38.83230183333333, "name": "15e7e999879baad0c9ad2fcff39a264e", "fusion_lon": 0.0, "bike_id": "15e7e999879baad0c9ad2fcff39a264e", "is_disabled": 0, "is_reserved": 0}, {"rental_uris": {"ios": "https://dc.lft.to/lastmile_qr_scan", "android": "https://dc.lft.to/lastmile_qr_scan"}, "lon": -77.04147033333334, "type": "electric_scooter", "fusion_lat": 0.0, "lat": 38.917078, "name": "d000164e07310dab0ac6ba6fe2c8b6fa", "fusion_lon": 0.0, "bike_id": "d000164e07310dab0ac6ba6fe2c8b6fa", "is_disabled": 0, "is_reserved": 0}, {"rental_uris": {"ios": "https://dc.lft.to/lastmile_qr_scan", "android": "https://dc.lft.to/lastmile_qr_scan"}, "lon": -77.02399066666666, "type": "electric_scooter", "fusion_lat": 0.0, "lat": 38.915916833333334, "name": "3c56b3b583ab036bb1f140466fc42701", "fusion_lon": 0.0, "bike_id": "3c56b3b583ab036bb1f140466fc42701", "is_disabled": 0, "is_reserved": 0}, {"rental_uris": {"ios": "https://dc.lft.to/lastmile_qr_scan", "android": "https://dc.lft.to/lastmile_qr_scan"}, "lon": -77.00054083333333, "type": "electric_scooter", "fusion_lat": 0.0, "lat": 38.908877833333335, "name": "1334f43f339710be10c730de93c6eeb9", "fusion_lon": 0.0, "bike_id": "1334f43f339710be10c730de93c6eeb9", "is_disabled": 0, "is_reserved": 0}, {"rental_uris": {"ios": "https://dc.lft.to/lastmile_qr_scan", "android": "https://dc.lft.to/lastmile_qr_scan"}, "lon": -77.02707533333333, "type": "electric_scooter", "fusion_lat": 0.0, "lat": 38.8813695, "name": "c41e967ec9cf9ecd3de5f35bdd21d66c", "fusion_lon": 0.0, "bike_id": "c41e967ec9cf9ecd3de5f35bdd21d66c", "is_disabled": 0, "is_reserved": 0}, {"rental_uris": {"ios": "https://dc.lft.to/lastmile_qr_scan", "android": "https://dc.lft.to/lastmile_qr_scan"}, "lon": -77.04031416666666, "type": "electric_scooter", "fusion_lat": 0.0, "lat": 38.903697333333334, "name": "92342856859cf9e25c2c5a31b8db10ff", "fusion_lon": 0.0, "bike_id": "92342856859cf9e25c2c5a31b8db10ff", "is_disabled": 0, "is_reserved": 0}, {"rental_uris": {"ios": "https://dc.lft.to/lastmile_qr_scan", "android": "https://dc.lft.to/lastmile_qr_scan"}, "lon": -77.04367016666667, "type": "electric_scooter", "fusion_lat": 0.0, "lat": 38.93327216666667, "name": "c03bdb36421f26cece571db99393936d", "fusion_lon": 0.0, "bike_id": "c03bdb36421f26cece571db99393936d", "is_disabled": 0, "is_reserved": 0}, {"rental_uris": {"ios": "https://dc.lft.to/lastmile_qr_scan", "android": "https://dc.lft.to/lastmile_qr_scan"}, "lon": -77.0396225, "type": "electric_scooter", "fusion_lat": 0.0, "lat": 38.91357883333333, "name": "8401f6aa6029c2f2f22b8bc34ee50a13", "fusion_lon": 0.0, "bike_id": "8401f6aa6029c2f2f22b8bc34ee50a13", "is_disabled": 0, "is_reserved": 0}, {"rental_uris": {"ios": "https://dc.lft.to/lastmile_qr_scan", "android": "https://dc.lft.to/lastmile_qr_scan"}, "lon": -77.02617183333334, "type": "electric_scooter", "fusion_lat": 0.0, "lat": 38.88567716666667, "name": "aed4ccb00975908ad46b815e68a021b6", "fusion_lon": 0.0, "bike_id": "aed4ccb00975908ad46b815e68a021b6", "is_disabled": 0, "is_reserved": 0}, {"rental_uris": {"ios": "https://dc.lft.to/lastmile_qr_scan", "android": "https://dc.lft.to/lastmile_qr_scan"}, "lon": -77.00936933333334, "type": "electric_scooter", "fusion_lat": 0.0, "lat": 38.8762765, "name": "e3ea5eb9757b45a27a1e3e928984ec2b", "fusion_lon": 0.0, "bike_id": "e3ea5eb9757b45a27a1e3e928984ec2b", "is_disabled": 0, "is_reserved": 0}, {"rental_uris": {"ios": "https://dc.lft.to/lastmile_qr_scan", "android": "https://dc.lft.to/lastmile_qr_scan"}, "lon": -76.99563533333334, "type": "electric_scooter", "fusion_lat": 0.0, "lat": 38.928716, "name": "7898543e8111f72235628c976e9ab9d9", "fusion_lon": 0.0, "bike_id": "7898543e8111f72235628c976e9ab9d9", "is_disabled": 0, "is_reserved": 0}, {"rental_uris": {"ios": "https://dc.lft.to/lastmile_qr_scan", "android": "https://dc.lft.to/lastmile_qr_scan"}, "lon": -77.02399666666666, "type": "electric_scooter", "fusion_lat": 0.0, "lat": 38.901047, "name": "07bd86daaffc9d70f85efb5fffc8a439", "fusion_lon": 0.0, "bike_id": "07bd86daaffc9d70f85efb5fffc8a439", "is_disabled": 0, "is_reserved": 0}, {"rental_uris": {"ios": "https://dc.lft.to/lastmile_qr_scan", "android": "https://dc.lft.to/lastmile_qr_scan"}, "lon": -77.03537866666667, "type": "electric_scooter", "fusion_lat": 0.0, "lat": 38.924264666666666, "name": "d89829967acb68df07bb07e8e8ed938b", "fusion_lon": 0.0, "bike_id": "d89829967acb68df07bb07e8e8ed938b", "is_disabled": 0, "is_reserved": 0}, {"rental_uris": {"ios": "https://dc.lft.to/lastmile_qr_scan", "android": "https://dc.lft.to/lastmile_qr_scan"}, "lon": -76.93875283333334, "type": "electric_scooter", "fusion_lat": 0.0, "lat": 38.90087166666667, "name": "4623ce0467c3bf8380a933eee67f39e5", "fusion_lon": 0.0, "bike_id": "4623ce0467c3bf8380a933eee67f39e5", "is_disabled": 0, "is_reserved": 0}, {"rental_uris": {"ios": "https://dc.lft.to/lastmile_qr_scan", "android": "https://dc.lft.to/lastmile_qr_scan"}, "lon": -77.024218, "type": "electric_scooter", "fusion_lat": 0.0, "lat": 38.8952725, "name": "826c9123980847143f797e1d1770073b", "fusion_lon": 0.0, "bike_id": "826c9123980847143f797e1d1770073b", "is_disabled": 0, "is_reserved": 0}, {"rental_uris": {"ios": "https://dc.lft.to/lastmile_qr_scan", "android": "https://dc.lft.to/lastmile_qr_scan"}, "lon": -77.02686266666667, "type": "electric_scooter", "fusion_lat": 0.0, "lat": 38.89216966666667, "name": "1cefe6a1b8a5503b857cc5f6b86bfd59", "fusion_lon": 0.0, "bike_id": "1cefe6a1b8a5503b857cc5f6b86bfd59", "is_disabled": 0, "is_reserved": 0}, {"rental_uris": {"ios": "https://dc.lft.to/lastmile_qr_scan", "android": "https://dc.lft.to/lastmile_qr_scan"}, "lon": -76.98656316666667, "type": "electric_scooter", "fusion_lat": 0.0, "lat": 38.858064, "name": "28c96627c24217004b857ae37c3de7d2", "fusion_lon": 0.0, "bike_id": "28c96627c24217004b857ae37c3de7d2", "is_disabled": 0, "is_reserved": 0}, {"rental_uris": {"ios": "https://dc.lft.to/lastmile_qr_scan", "android": "https://dc.lft.to/lastmile_qr_scan"}, "lon": -76.99672683333333, "type": "electric_scooter", "fusion_lat": 0.0, "lat": 38.910166333333336, "name": "b2cba9b2acf29ce7f58848e949426fcc", "fusion_lon": 0.0, "bike_id": "b2cba9b2acf29ce7f58848e949426fcc", "is_disabled": 0, "is_reserved": 0}, {"rental_uris": {"ios": "https://dc.lft.to/lastmile_qr_scan", "android": "https://dc.lft.to/lastmile_qr_scan"}, "lon": -77.02707233333334, "type": "electric_scooter", "fusion_lat": 0.0, "lat": 38.91797716666667, "name": "03beb5d96147357e8d8aa45965e4501c", "fusion_lon": 0.0, "bike_id": "03beb5d96147357e8d8aa45965e4501c", "is_disabled": 0, "is_reserved": 0}, {"rental_uris": {"ios": "https://dc.lft.to/lastmile_qr_scan", "android": "https://dc.lft.to/lastmile_qr_scan"}, "lon": -77.007154, "type": "electric_scooter", "fusion_lat": 0.0, "lat": 38.91340016666667, "name": "a9b4f28cb17a1c7f01994fc5a08c2dfd", "fusion_lon": 0.0, "bike_id": "a9b4f28cb17a1c7f01994fc5a08c2dfd", "is_disabled": 0, "is_reserved": 0}, {"rental_uris": {"ios": "https://dc.lft.to/lastmile_qr_scan", "android": "https://dc.lft.to/lastmile_qr_scan"}, "lon": -77.05266116666667, "type": "electric_scooter", "fusion_lat": 0.0, "lat": 38.91013233333334, "name": "ab2fe2f32d724334bc1a1b866a1d3a9c", "fusion_lon": 0.0, "bike_id": "ab2fe2f32d724334bc1a1b866a1d3a9c", "is_disabled": 0, "is_reserved": 0}, {"rental_uris": {"ios": "https://dc.lft.to/lastmile_qr_scan", "android": "https://dc.lft.to/lastmile_qr_scan"}, "lon": -76.9300015, "type": "electric_bike", "fusion_lat": 0.0, "lat": 38.887949166666665, "name": "27da07b08f9b67120c27721ff80313bd", "fusion_lon": 0.0, "bike_id": "27da07b08f9b67120c27721ff80313bd", "is_disabled": 0, "is_reserved": 0}, {"rental_uris": {"ios": "https://dc.lft.to/lastmile_qr_scan", "android": "https://dc.lft.to/lastmile_qr_scan"}, "lon": -77.015981, "type": "electric_scooter", "fusion_lat": 0.0, "lat": 38.89617666666667, "name": "ad1c63894097b7a40af3d6bceecc96df", "fusion_lon": 0.0, "bike_id": "ad1c63894097b7a40af3d6bceecc96df", "is_disabled": 0, "is_reserved": 0}, {"rental_uris": {"ios": "https://dc.lft.to/lastmile_qr_scan", "android": "https://dc.lft.to/lastmile_qr_scan"}, "lon": -77.0493005, "type": "electric_scooter", "fusion_lat": 0.0, "lat": 38.89606666666667, "name": "aee5c8c028a87f12e2dd0c1da5870fca", "fusion_lon": 0.0, "bike_id": "aee5c8c028a87f12e2dd0c1da5870fca", "is_disabled": 0, "is_reserved": 0}, {"rental_uris": {"ios": "https://dc.lft.to/lastmile_qr_scan", "android": "https://dc.lft.to/lastmile_qr_scan"}, "lon": -77.0144185, "type": "electric_scooter", "fusion_lat": 0.0, "lat": 38.905714833333334, "name": "c6cdfeb116c826c496cb9a8e70b8443b", "fusion_lon": 0.0, "bike_id": "c6cdfeb116c826c496cb9a8e70b8443b", "is_disabled": 0, "is_reserved": 0}, {"rental_uris": {"ios": "https://dc.lft.to/lastmile_qr_scan", "android": "https://dc.lft.to/lastmile_qr_scan"}, "lon": -76.93737666666667, "type": "electric_scooter", "fusion_lat": 0.0, "lat": 38.890113, "name": "abf049a36b74f24346b58c5f551d2683", "fusion_lon": 0.0, "bike_id": "abf049a36b74f24346b58c5f551d2683", "is_disabled": 0, "is_reserved": 0}, {"rental_uris": {"ios": "https://dc.lft.to/lastmile_qr_scan", "android": "https://dc.lft.to/lastmile_qr_scan"}, "lon": -77.07950016666666, "type": "electric_scooter", "fusion_lat": 0.0, "lat": 38.948682833333336, "name": "df6a9198e861de2976ce82aa9f261139", "fusion_lon": 0.0, "bike_id": "df6a9198e861de2976ce82aa9f261139", "is_disabled": 0, "is_reserved": 0}, {"rental_uris": {"ios": "https://dc.lft.to/lastmile_qr_scan", "android": "https://dc.lft.to/lastmile_qr_scan"}, "lon": -77.03421283333333, "type": "electric_scooter", "fusion_lat": 0.0, "lat": 38.91923833333333, "name": "eac16671adff0943979df55f5ede6bd8", "fusion_lon": 0.0, "bike_id": "eac16671adff0943979df55f5ede6bd8", "is_disabled": 0, "is_reserved": 0}, {"rental_uris": {"ios": "https://dc.lft.to/lastmile_qr_scan", "android": "https://dc.lft.to/lastmile_qr_scan"}, "lon": -77.02205216666667, "type": "electric_scooter", "fusion_lat": 0.0, "lat": 38.91543333333333, "name": "b616fca3ad6616fc5cac0eebbbcc8a3f", "fusion_lon": 0.0, "bike_id": "b616fca3ad6616fc5cac0eebbbcc8a3f", "is_disabled": 0, "is_reserved": 0}, {"rental_uris": {"ios": "https://dc.lft.to/lastmile_qr_scan", "android": "https://dc.lft.to/lastmile_qr_scan"}, "lon": -77.04426083333334, "type": "electric_scooter", "fusion_lat": 0.0, "lat": 38.921247, "name": "aa4c955c917b6a089bdc2e6bbb89840b", "fusion_lon": 0.0, "bike_id": "aa4c955c917b6a089bdc2e6bbb89840b", "is_disabled": 0, "is_reserved": 0}, {"rental_uris": {"ios": "https://dc.lft.to/lastmile_qr_scan", "android": "https://dc.lft.to/lastmile_qr_scan"}, "lon": -77.02649333333333, "type": "electric_scooter", "fusion_lat": 0.0, "lat": 38.892177, "name": "4ac4741bf94c785fe151a1872d82949d", "fusion_lon": 0.0, "bike_id": "4ac4741bf94c785fe151a1872d82949d", "is_disabled": 0, "is_reserved": 0}, {"rental_uris": {"ios": "https://dc.lft.to/lastmile_qr_scan", "android": "https://dc.lft.to/lastmile_qr_scan"}, "lon": -76.99490233333333, "type": "electric_scooter", "fusion_lat": 0.0, "lat": 38.932004, "name": "9a6476382d934f595373bf6885b7243b", "fusion_lon": 0.0, "bike_id": "9a6476382d934f595373bf6885b7243b", "is_disabled": 0, "is_reserved": 0}, {"rental_uris": {"ios": "https://dc.lft.to/lastmile_qr_scan", "android": "https://dc.lft.to/lastmile_qr_scan"}, "lon": -77.03029066666667, "type": "electric_scooter", "fusion_lat": 0.0, "lat": 38.897466, "name": "e7db1aad73dd60f2557c32aa38210354", "fusion_lon": 0.0, "bike_id": "e7db1aad73dd60f2557c32aa38210354", "is_disabled": 0, "is_reserved": 0}, {"rental_uris": {"ios": "https://dc.lft.to/lastmile_qr_scan", "android": "https://dc.lft.to/lastmile_qr_scan"}, "lon": -76.93830166666666, "type": "electric_scooter", "fusion_lat": 0.0, "lat": 38.8975775, "name": "c8725c9967a48a06dcd6677134e2cf7d", "fusion_lon": 0.0, "bike_id": "c8725c9967a48a06dcd6677134e2cf7d", "is_disabled": 0, "is_reserved": 0}, {"rental_uris": {"ios": "https://dc.lft.to/lastmile_qr_scan", "android": "https://dc.lft.to/lastmile_qr_scan"}, "lon": -76.965079, "type": "electric_scooter", "fusion_lat": 0.0, "lat": 38.87638966666667, "name": "393eb226c541650d4aa9ffd177cfbf78", "fusion_lon": 0.0, "bike_id": "393eb226c541650d4aa9ffd177cfbf78", "is_disabled": 0, "is_reserved": 0}, {"rental_uris": {"ios": "https://dc.lft.to/lastmile_qr_scan", "android": "https://dc.lft.to/lastmile_qr_scan"}, "lon": -77.0011355, "type": "electric_scooter", "fusion_lat": 0.0, "lat": 38.8943595, "name": "42166e32a6d318951d6aa91640692b09", "fusion_lon": 0.0, "bike_id": "42166e32a6d318951d6aa91640692b09", "is_disabled": 0, "is_reserved": 0}, {"rental_uris": {"ios": "https://dc.lft.to/lastmile_qr_scan", "android": "https://dc.lft.to/lastmile_qr_scan"}, "lon": -77.02313483333333, "type": "electric_scooter", "fusion_lat": 0.0, "lat": 38.916809, "name": "65ca46f03317c40ce13b476616f63cc2", "fusion_lon": 0.0, "bike_id": "65ca46f03317c40ce13b476616f63cc2", "is_disabled": 0, "is_reserved": 0}, {"rental_uris": {"ios": "https://dc.lft.to/lastmile_qr_scan", "android": "https://dc.lft.to/lastmile_qr_scan"}, "lon": -77.02972283333334, "type": "electric_scooter", "fusion_lat": 0.0, "lat": 38.9104155, "name": "7b07863e9b4f6e01e6ec9873f7f77e56", "fusion_lon": 0.0, "bike_id": "7b07863e9b4f6e01e6ec9873f7f77e56", "is_disabled": 0, "is_reserved": 0}, {"rental_uris": {"ios": "https://dc.lft.to/lastmile_qr_scan", "android": "https://dc.lft.to/lastmile_qr_scan"}, "lon": -76.99554533333334, "type": "electric_scooter", "fusion_lat": 0.0, "lat": 38.901241166666665, "name": "98f5b70a2b9a766ae825a9389ad1feb8", "fusion_lon": 0.0, "bike_id": "98f5b70a2b9a766ae825a9389ad1feb8", "is_disabled": 0, "is_reserved": 0}, {"rental_uris": {"ios": "https://dc.lft.to/lastmile_qr_scan", "android": "https://dc.lft.to/lastmile_qr_scan"}, "lon": -76.94215716666666, "type": "electric_scooter", "fusion_lat": 0.0, "lat": 38.89673333333333, "name": "36b38bc10cd4bab62e17ba0685e2c003", "fusion_lon": 0.0, "bike_id": "36b38bc10cd4bab62e17ba0685e2c003", "is_disabled": 0, "is_reserved": 0}, {"rental_uris": {"ios": "https://dc.lft.to/lastmile_qr_scan", "android": "https://dc.lft.to/lastmile_qr_scan"}, "lon": -76.95000183333333, "type": "electric_scooter", "fusion_lat": 0.0, "lat": 38.89373166666667, "name": "1cf2a34478132f952e99155d81d71384", "fusion_lon": 0.0, "bike_id": "1cf2a34478132f952e99155d81d71384", "is_disabled": 0, "is_reserved": 0}, {"rental_uris": {"ios": "https://dc.lft.to/lastmile_qr_scan", "android": "https://dc.lft.to/lastmile_qr_scan"}, "lon": -77.02851883333334, "type": "electric_scooter", "fusion_lat": 0.0, "lat": 38.923695, "name": "589a01bcf6422072c7be3eb9dd3cae68", "fusion_lon": 0.0, "bike_id": "589a01bcf6422072c7be3eb9dd3cae68", "is_disabled": 0, "is_reserved": 0}, {"rental_uris": {"ios": "https://dc.lft.to/lastmile_qr_scan", "android": "https://dc.lft.to/lastmile_qr_scan"}, "lon": -76.9322775, "type": "electric_bike", "fusion_lat": 0.0, "lat": 38.86595833333333, "name": "df8ca393f99527a40e5c5e70a1cacec3", "fusion_lon": 0.0, "bike_id": "df8ca393f99527a40e5c5e70a1cacec3", "is_disabled": 0, "is_reserved": 0}, {"rental_uris": {"ios": "https://dc.lft.to/lastmile_qr_scan", "android": "https://dc.lft.to/lastmile_qr_scan"}, "lon": -76.97291966666667, "type": "electric_scooter", "fusion_lat": 0.0, "lat": 38.903351, "name": "4002dbb77da1da9c513158632041b6b9", "fusion_lon": 0.0, "bike_id": "4002dbb77da1da9c513158632041b6b9", "is_disabled": 0, "is_reserved": 0}, {"rental_uris": {"ios": "https://dc.lft.to/lastmile_qr_scan", "android": "https://dc.lft.to/lastmile_qr_scan"}, "lon": -77.050039, "type": "electric_scooter", "fusion_lat": 0.0, "lat": 38.892292833333336, "name": "2ef31e6a5e3db103fb8f895749c72799", "fusion_lon": 0.0, "bike_id": "2ef31e6a5e3db103fb8f895749c72799", "is_disabled": 0, "is_reserved": 0}, {"rental_uris": {"ios": "https://dc.lft.to/lastmile_qr_scan", "android": "https://dc.lft.to/lastmile_qr_scan"}, "lon": -77.05474916666667, "type": "electric_scooter", "fusion_lat": 0.0, "lat": 38.89389333333333, "name": "a98416727619a657795337c6fee778ce", "fusion_lon": 0.0, "bike_id": "a98416727619a657795337c6fee778ce", "is_disabled": 0, "is_reserved": 0}, {"rental_uris": {"ios": "https://dc.lft.to/lastmile_qr_scan", "android": "https://dc.lft.to/lastmile_qr_scan"}, "lon": -77.12959533333333, "type": "electric_bike", "fusion_lat": 0.0, "lat": 38.85211016666667, "name": "43e2095e18578d1cf578feebdf52bd57", "fusion_lon": 0.0, "bike_id": "43e2095e18578d1cf578feebdf52bd57", "is_disabled": 0, "is_reserved": 0}, {"rental_uris": {"ios": "https://dc.lft.to/lastmile_qr_scan", "android": "https://dc.lft.to/lastmile_qr_scan"}, "lon": -77.09207266666667, "type": "electric_scooter", "fusion_lat": 0.0, "lat": 38.941293, "name": "43a95424f191553ff3b1511572617ebb", "fusion_lon": 0.0, "bike_id": "43a95424f191553ff3b1511572617ebb", "is_disabled": 0, "is_reserved": 0}, {"rental_uris": {"ios": "https://dc.lft.to/lastmile_qr_scan", "android": "https://dc.lft.to/lastmile_qr_scan"}, "lon": -76.99509783333333, "type": "electric_scooter", "fusion_lat": 0.0, "lat": 38.88594116666667, "name": "e9d7b95a5a9f215a3451b93a8f70d2f2", "fusion_lon": 0.0, "bike_id": "e9d7b95a5a9f215a3451b93a8f70d2f2", "is_disabled": 0, "is_reserved": 0}, {"rental_uris": {"ios": "https://dc.lft.to/lastmile_qr_scan", "android": "https://dc.lft.to/lastmile_qr_scan"}, "lon": -77.00727483333333, "type": "electric_scooter", "fusion_lat": 0.0, "lat": 38.879090166666664, "name": "bc926fc55edaef1682771d02c3f86408", "fusion_lon": 0.0, "bike_id": "bc926fc55edaef1682771d02c3f86408", "is_disabled": 0, "is_reserved": 0}, {"rental_uris": {"ios": "https://dc.lft.to/lastmile_qr_scan", "android": "https://dc.lft.to/lastmile_qr_scan"}, "lon": -76.96850583333334, "type": "electric_scooter", "fusion_lat": 0.0, "lat": 38.87464966666667, "name": "afdfa5a6df5319752e0cc846ee913b91", "fusion_lon": 0.0, "bike_id": "afdfa5a6df5319752e0cc846ee913b91", "is_disabled": 0, "is_reserved": 0}, {"rental_uris": {"ios": "https://dc.lft.to/lastmile_qr_scan", "android": "https://dc.lft.to/lastmile_qr_scan"}, "lon": -77.02959016666667, "type": "electric_scooter", "fusion_lat": 0.0, "lat": 38.92274583333333, "name": "f812f6153c09a3aa1fa567fd4c6a75ab", "fusion_lon": 0.0, "bike_id": "f812f6153c09a3aa1fa567fd4c6a75ab", "is_disabled": 0, "is_reserved": 0}, {"rental_uris": {"ios": "https://dc.lft.to/lastmile_qr_scan", "android": "https://dc.lft.to/lastmile_qr_scan"}, "lon": -76.99698933333333, "type": "electric_scooter", "fusion_lat": 0.0, "lat": 38.9007245, "name": "0cda02285dbcbedfe026ff0b0bbb172a", "fusion_lon": 0.0, "bike_id": "0cda02285dbcbedfe026ff0b0bbb172a", "is_disabled": 0, "is_reserved": 0}, {"rental_uris": {"ios": "https://dc.lft.to/lastmile_qr_scan", "android": "https://dc.lft.to/lastmile_qr_scan"}, "lon": -77.02605583333333, "type": "electric_bike", "fusion_lat": 0.0, "lat": 38.9625945, "name": "4d34a296378a09d721a37c166e3c3aae", "fusion_lon": 0.0, "bike_id": "4d34a296378a09d721a37c166e3c3aae", "is_disabled": 0, "is_reserved": 0}, {"rental_uris": {"ios": "https://dc.lft.to/lastmile_qr_scan", "android": "https://dc.lft.to/lastmile_qr_scan"}, "lon": -77.034171, "type": "electric_scooter", "fusion_lat": 0.0, "lat": 38.91923533333333, "name": "64526b74b35a5ba211ecc07e04b72178", "fusion_lon": 0.0, "bike_id": "64526b74b35a5ba211ecc07e04b72178", "is_disabled": 0, "is_reserved": 0}, {"rental_uris": {"ios": "https://dc.lft.to/lastmile_qr_scan", "android": "https://dc.lft.to/lastmile_qr_scan"}, "lon": -77.01791433333334, "type": "electric_scooter", "fusion_lat": 0.0, "lat": 38.90416283333333, "name": "e218b192801cbf7a70a8463946f4c300", "fusion_lon": 0.0, "bike_id": "e218b192801cbf7a70a8463946f4c300", "is_disabled": 0, "is_reserved": 0}, {"rental_uris": {"ios": "https://dc.lft.to/lastmile_qr_scan", "android": "https://dc.lft.to/lastmile_qr_scan"}, "lon": -77.04676233333333, "type": "electric_scooter", "fusion_lat": 0.0, "lat": 38.90954033333333, "name": "dfbc667f0f14975c39088a7c0e3e9a46", "fusion_lon": 0.0, "bike_id": "dfbc667f0f14975c39088a7c0e3e9a46", "is_disabled": 0, "is_reserved": 0}, {"rental_uris": {"ios": "https://dc.lft.to/lastmile_qr_scan", "android": "https://dc.lft.to/lastmile_qr_scan"}, "lon": -76.93367983333333, "type": "electric_scooter", "fusion_lat": 0.0, "lat": 38.899209666666664, "name": "d931435046a914c60608a90ce6c07643", "fusion_lon": 0.0, "bike_id": "d931435046a914c60608a90ce6c07643", "is_disabled": 0, "is_reserved": 0}, {"rental_uris": {"ios": "https://dc.lft.to/lastmile_qr_scan", "android": "https://dc.lft.to/lastmile_qr_scan"}, "lon": -77.02464383333333, "type": "electric_scooter", "fusion_lat": 0.0, "lat": 38.9170275, "name": "0cae4c1e7a3a64674132ba24e1fcc321", "fusion_lon": 0.0, "bike_id": "0cae4c1e7a3a64674132ba24e1fcc321", "is_disabled": 0, "is_reserved": 0}, {"rental_uris": {"ios": "https://dc.lft.to/lastmile_qr_scan", "android": "https://dc.lft.to/lastmile_qr_scan"}, "lon": -77.04761166666667, "type": "electric_scooter", "fusion_lat": 0.0, "lat": 38.90721766666667, "name": "eef44d018ab845f65fa9cbf091ebd3d2", "fusion_lon": 0.0, "bike_id": "eef44d018ab845f65fa9cbf091ebd3d2", "is_disabled": 0, "is_reserved": 0}, {"rental_uris": {"ios": "https://dc.lft.to/lastmile_qr_scan", "android": "https://dc.lft.to/lastmile_qr_scan"}, "lon": -76.99891266666667, "type": "electric_scooter", "fusion_lat": 0.0, "lat": 38.909493166666664, "name": "e3a135fcf37561766614a506423ae61c", "fusion_lon": 0.0, "bike_id": "e3a135fcf37561766614a506423ae61c", "is_disabled": 0, "is_reserved": 0}, {"rental_uris": {"ios": "https://dc.lft.to/lastmile_qr_scan", "android": "https://dc.lft.to/lastmile_qr_scan"}, "lon": -77.00596216666666, "type": "electric_scooter", "fusion_lat": 0.0, "lat": 38.90654516666667, "name": "d2a80a69f056c1d092ad8fbc6eb06149", "fusion_lon": 0.0, "bike_id": "d2a80a69f056c1d092ad8fbc6eb06149", "is_disabled": 0, "is_reserved": 0}, {"rental_uris": {"ios": "https://dc.lft.to/lastmile_qr_scan", "android": "https://dc.lft.to/lastmile_qr_scan"}, "lon": -76.99508866666666, "type": "electric_scooter", "fusion_lat": 0.0, "lat": 38.88303766666667, "name": "d6863c2c38700db85ce4ce70edd2c070", "fusion_lon": 0.0, "bike_id": "d6863c2c38700db85ce4ce70edd2c070", "is_disabled": 0, "is_reserved": 0}, {"rental_uris": {"ios": "https://dc.lft.to/lastmile_qr_scan", "android": "https://dc.lft.to/lastmile_qr_scan"}, "lon": -76.93192116666667, "type": "electric_scooter", "fusion_lat": 0.0, "lat": 38.88990966666667, "name": "d8f17852fa9bd1f252e39b541628d58c", "fusion_lon": 0.0, "bike_id": "d8f17852fa9bd1f252e39b541628d58c", "is_disabled": 0, "is_reserved": 0}, {"rental_uris": {"ios": "https://dc.lft.to/lastmile_qr_scan", "android": "https://dc.lft.to/lastmile_qr_scan"}, "lon": -77.0636785, "type": "electric_scooter", "fusion_lat": 0.0, "lat": 38.909251833333336, "name": "9e8cf2ff794fb4dbd2a42cb30ba81a94", "fusion_lon": 0.0, "bike_id": "9e8cf2ff794fb4dbd2a42cb30ba81a94", "is_disabled": 0, "is_reserved": 0}, {"rental_uris": {"ios": "https://dc.lft.to/lastmile_qr_scan", "android": "https://dc.lft.to/lastmile_qr_scan"}, "lon": -77.0060095, "type": "electric_scooter", "fusion_lat": 0.0, "lat": 38.906479, "name": "b003b2ebac94383447c3f87ec6a7f985", "fusion_lon": 0.0, "bike_id": "b003b2ebac94383447c3f87ec6a7f985", "is_disabled": 0, "is_reserved": 0}, {"rental_uris": {"ios": "https://dc.lft.to/lastmile_qr_scan", "android": "https://dc.lft.to/lastmile_qr_scan"}, "lon": -77.04508533333333, "type": "electric_scooter", "fusion_lat": 0.0, "lat": 38.9003815, "name": "3929a6f29549218e1413d1f032cef3d2", "fusion_lon": 0.0, "bike_id": "3929a6f29549218e1413d1f032cef3d2", "is_disabled": 0, "is_reserved": 0}, {"rental_uris": {"ios": "https://dc.lft.to/lastmile_qr_scan", "android": "https://dc.lft.to/lastmile_qr_scan"}, "lon": -77.02702366666666, "type": "electric_scooter", "fusion_lat": 0.0, "lat": 38.9066745, "name": "03db9d5da3417ff0d099b0683fc53fa3", "fusion_lon": 0.0, "bike_id": "03db9d5da3417ff0d099b0683fc53fa3", "is_disabled": 0, "is_reserved": 0}, {"rental_uris": {"ios": "https://dc.lft.to/lastmile_qr_scan", "android": "https://dc.lft.to/lastmile_qr_scan"}, "lon": -77.0344795, "type": "electric_scooter", "fusion_lat": 0.0, "lat": 38.91840916666666, "name": "f0e4f9b1b83d9d4b1735add96db4ea7a", "fusion_lon": 0.0, "bike_id": "f0e4f9b1b83d9d4b1735add96db4ea7a", "is_disabled": 0, "is_reserved": 0}, {"rental_uris": {"ios": "https://dc.lft.to/lastmile_qr_scan", "android": "https://dc.lft.to/lastmile_qr_scan"}, "lon": -77.0919965, "type": "electric_scooter", "fusion_lat": 0.0, "lat": 38.917116666666665, "name": "35c87301e8399884b3856a7343e75b41", "fusion_lon": 0.0, "bike_id": "35c87301e8399884b3856a7343e75b41", "is_disabled": 0, "is_reserved": 0}, {"rental_uris": {"ios": "https://dc.lft.to/lastmile_qr_scan", "android": "https://dc.lft.to/lastmile_qr_scan"}, "lon": -76.99522083333333, "type": "electric_scooter", "fusion_lat": 0.0, "lat": 38.86251766666667, "name": "624f91e455619607fb6c56471854ab9b", "fusion_lon": 0.0, "bike_id": "624f91e455619607fb6c56471854ab9b", "is_disabled": 0, "is_reserved": 0}, {"rental_uris": {"ios": "https://dc.lft.to/lastmile_qr_scan", "android": "https://dc.lft.to/lastmile_qr_scan"}, "lon": -77.036569, "type": "electric_scooter", "fusion_lat": 0.0, "lat": 38.91718616666667, "name": "8c27b27254077d6890c15ab38be11ae4", "fusion_lon": 0.0, "bike_id": "8c27b27254077d6890c15ab38be11ae4", "is_disabled": 0, "is_reserved": 0}, {"rental_uris": {"ios": "https://dc.lft.to/lastmile_qr_scan", "android": "https://dc.lft.to/lastmile_qr_scan"}, "lon": -77.014442, "type": "electric_scooter", "fusion_lat": 0.0, "lat": 38.92986966666667, "name": "2c630fa0a925eea5987408454551fbd4", "fusion_lon": 0.0, "bike_id": "2c630fa0a925eea5987408454551fbd4", "is_disabled": 0, "is_reserved": 0}, {"rental_uris": {"ios": "https://dc.lft.to/lastmile_qr_scan", "android": "https://dc.lft.to/lastmile_qr_scan"}, "lon": -77.028364, "type": "electric_scooter", "fusion_lat": 0.0, "lat": 38.887673, "name": "b2713ff3f089e2ddf42cd354c1de49ff", "fusion_lon": 0.0, "bike_id": "b2713ff3f089e2ddf42cd354c1de49ff", "is_disabled": 0, "is_reserved": 0}, {"rental_uris": {"ios": "https://dc.lft.to/lastmile_qr_scan", "android": "https://dc.lft.to/lastmile_qr_scan"}, "lon": -77.01300483333333, "type": "electric_scooter", "fusion_lat": 0.0, "lat": 38.95638483333333, "name": "b58cd56773dfd48cff040a48277886b4", "fusion_lon": 0.0, "bike_id": "b58cd56773dfd48cff040a48277886b4", "is_disabled": 0, "is_reserved": 0}, {"rental_uris": {"ios": "https://dc.lft.to/lastmile_qr_scan", "android": "https://dc.lft.to/lastmile_qr_scan"}, "lon": -77.03632016666667, "type": "electric_scooter", "fusion_lat": 0.0, "lat": 38.956407166666665, "name": "36bb40013052a1f6d66b3f0043f93811", "fusion_lon": 0.0, "bike_id": "36bb40013052a1f6d66b3f0043f93811", "is_disabled": 0, "is_reserved": 0}, {"rental_uris": {"ios": "https://dc.lft.to/lastmile_qr_scan", "android": "https://dc.lft.to/lastmile_qr_scan"}, "lon": -77.02006466666667, "type": "electric_scooter", "fusion_lat": 0.0, "lat": 38.9026465, "name": "1d1a9699e723830fef27e7949a216907", "fusion_lon": 0.0, "bike_id": "1d1a9699e723830fef27e7949a216907", "is_disabled": 0, "is_reserved": 0}, {"rental_uris": {"ios": "https://dc.lft.to/lastmile_qr_scan", "android": "https://dc.lft.to/lastmile_qr_scan"}, "lon": -77.01737983333334, "type": "electric_scooter", "fusion_lat": 0.0, "lat": 38.974739, "name": "62421d01518ce21fffe628375d720e59", "fusion_lon": 0.0, "bike_id": "62421d01518ce21fffe628375d720e59", "is_disabled": 0, "is_reserved": 0}, {"rental_uris": {"ios": "https://dc.lft.to/lastmile_qr_scan", "android": "https://dc.lft.to/lastmile_qr_scan"}, "lon": -77.04395116666667, "type": "electric_bike", "fusion_lat": 0.0, "lat": 38.929437666666665, "name": "c1cbdd1c5c1f4dbb6b70522b6d636e53", "fusion_lon": 0.0, "bike_id": "c1cbdd1c5c1f4dbb6b70522b6d636e53", "is_disabled": 0, "is_reserved": 0}, {"rental_uris": {"ios": "https://dc.lft.to/lastmile_qr_scan", "android": "https://dc.lft.to/lastmile_qr_scan"}, "lon": -77.03763633333334, "type": "electric_scooter", "fusion_lat": 0.0, "lat": 38.929121, "name": "4e895a8ca76191b27cb0ee07325623e2", "fusion_lon": 0.0, "bike_id": "4e895a8ca76191b27cb0ee07325623e2", "is_disabled": 0, "is_reserved": 0}, {"rental_uris": {"ios": "https://dc.lft.to/lastmile_qr_scan", "android": "https://dc.lft.to/lastmile_qr_scan"}, "lon": -76.973314, "type": "electric_bike", "fusion_lat": 0.0, "lat": 38.85061316666667, "name": "44742f6f4fe68dc478109261bbc9d258", "fusion_lon": 0.0, "bike_id": "44742f6f4fe68dc478109261bbc9d258", "is_disabled": 0, "is_reserved": 0}, {"rental_uris": {"ios": "https://dc.lft.to/lastmile_qr_scan", "android": "https://dc.lft.to/lastmile_qr_scan"}, "lon": -77.04544166666666, "type": "electric_scooter", "fusion_lat": 0.0, "lat": 38.919404, "name": "8e1dfe4256441ad15f300b0194efbbb7", "fusion_lon": 0.0, "bike_id": "8e1dfe4256441ad15f300b0194efbbb7", "is_disabled": 0, "is_reserved": 0}, {"rental_uris": {"ios": "https://dc.lft.to/lastmile_qr_scan", "android": "https://dc.lft.to/lastmile_qr_scan"}, "lon": -77.032247, "type": "electric_scooter", "fusion_lat": 0.0, "lat": 38.918144166666664, "name": "46124e1e2327aff9980b33aa1b8d2558", "fusion_lon": 0.0, "bike_id": "46124e1e2327aff9980b33aa1b8d2558", "is_disabled": 0, "is_reserved": 0}, {"rental_uris": {"ios": "https://dc.lft.to/lastmile_qr_scan", "android": "https://dc.lft.to/lastmile_qr_scan"}, "lon": -77.02958833333334, "type": "electric_bike", "fusion_lat": 0.0, "lat": 38.89946033333333, "name": "cb175b5d1cf1240c5f3e05ea0a97a7a4", "fusion_lon": 0.0, "bike_id": "cb175b5d1cf1240c5f3e05ea0a97a7a4", "is_disabled": 0, "is_reserved": 0}, {"rental_uris": {"ios": "https://dc.lft.to/lastmile_qr_scan", "android": "https://dc.lft.to/lastmile_qr_scan"}, "lon": -77.036386, "type": "electric_scooter", "fusion_lat": 0.0, "lat": 38.92345733333333, "name": "0056ee617f1e22bf2893317acddea0b9", "fusion_lon": 0.0, "bike_id": "0056ee617f1e22bf2893317acddea0b9", "is_disabled": 0, "is_reserved": 0}, {"rental_uris": {"ios": "https://dc.lft.to/lastmile_qr_scan", "android": "https://dc.lft.to/lastmile_qr_scan"}, "lon": -77.00890566666666, "type": "electric_scooter", "fusion_lat": 0.0, "lat": 38.9230945, "name": "213d1eb3d3d72514f248217b77b71b6c", "fusion_lon": 0.0, "bike_id": "213d1eb3d3d72514f248217b77b71b6c", "is_disabled": 0, "is_reserved": 0}, {"rental_uris": {"ios": "https://dc.lft.to/lastmile_qr_scan", "android": "https://dc.lft.to/lastmile_qr_scan"}, "lon": -77.02227133333334, "type": "electric_scooter", "fusion_lat": 0.0, "lat": 38.88742116666667, "name": "88c2f0d895bf27e4a455cf09de54fd23", "fusion_lon": 0.0, "bike_id": "88c2f0d895bf27e4a455cf09de54fd23", "is_disabled": 0, "is_reserved": 0}, {"rental_uris": {"ios": "https://dc.lft.to/lastmile_qr_scan", "android": "https://dc.lft.to/lastmile_qr_scan"}, "lon": -77.06095833333333, "type": "electric_scooter", "fusion_lat": 0.0, "lat": 38.91217533333333, "name": "5eb3fa6a43b21e6cf7e59fbf8b6aaeb8", "fusion_lon": 0.0, "bike_id": "5eb3fa6a43b21e6cf7e59fbf8b6aaeb8", "is_disabled": 0, "is_reserved": 0}, {"rental_uris": {"ios": "https://dc.lft.to/lastmile_qr_scan", "android": "https://dc.lft.to/lastmile_qr_scan"}, "lon": -77.03962783333333, "type": "electric_scooter", "fusion_lat": 0.0, "lat": 38.90261733333333, "name": "da1ac6187d972126a9065f2f62082309", "fusion_lon": 0.0, "bike_id": "da1ac6187d972126a9065f2f62082309", "is_disabled": 0, "is_reserved": 0}, {"rental_uris": {"ios": "https://dc.lft.to/lastmile_qr_scan", "android": "https://dc.lft.to/lastmile_qr_scan"}, "lon": -77.05277883333333, "type": "electric_scooter", "fusion_lat": 0.0, "lat": 38.910181, "name": "2239fca3d5f8ff9e6ea4843d77d1e43d", "fusion_lon": 0.0, "bike_id": "2239fca3d5f8ff9e6ea4843d77d1e43d", "is_disabled": 0, "is_reserved": 0}, {"rental_uris": {"ios": "https://dc.lft.to/lastmile_qr_scan", "android": "https://dc.lft.to/lastmile_qr_scan"}, "lon": -76.99557, "type": "electric_scooter", "fusion_lat": 0.0, "lat": 38.92306833333333, "name": "8fdf9facadf16a7237482603487b0cae", "fusion_lon": 0.0, "bike_id": "8fdf9facadf16a7237482603487b0cae", "is_disabled": 0, "is_reserved": 0}, {"rental_uris": {"ios": "https://dc.lft.to/lastmile_qr_scan", "android": "https://dc.lft.to/lastmile_qr_scan"}, "lon": -77.03178733333333, "type": "electric_scooter", "fusion_lat": 0.0, "lat": 38.8870455, "name": "b3e8109b3843cd0174490be1a46df2da", "fusion_lon": 0.0, "bike_id": "b3e8109b3843cd0174490be1a46df2da", "is_disabled": 0, "is_reserved": 0}, {"rental_uris": {"ios": "https://dc.lft.to/lastmile_qr_scan", "android": "https://dc.lft.to/lastmile_qr_scan"}, "lon": -77.03080166666666, "type": "electric_scooter", "fusion_lat": 0.0, "lat": 38.911868, "name": "cd944fa5aaf728e03379b0363f4c7a9a", "fusion_lon": 0.0, "bike_id": "cd944fa5aaf728e03379b0363f4c7a9a", "is_disabled": 0, "is_reserved": 0}, {"rental_uris": {"ios": "https://dc.lft.to/lastmile_qr_scan", "android": "https://dc.lft.to/lastmile_qr_scan"}, "lon": -77.0575745, "type": "electric_scooter", "fusion_lat": 0.0, "lat": 38.934154666666664, "name": "7fe690a4da4e4c03e6abeaa7735afe7a", "fusion_lon": 0.0, "bike_id": "7fe690a4da4e4c03e6abeaa7735afe7a", "is_disabled": 0, "is_reserved": 0}, {"rental_uris": {"ios": "https://dc.lft.to/lastmile_qr_scan", "android": "https://dc.lft.to/lastmile_qr_scan"}, "lon": -77.04812133333333, "type": "electric_scooter", "fusion_lat": 0.0, "lat": 38.903789333333336, "name": "50aea3216518cf6664d595030a4b32da", "fusion_lon": 0.0, "bike_id": "50aea3216518cf6664d595030a4b32da", "is_disabled": 0, "is_reserved": 0}, {"rental_uris": {"ios": "https://dc.lft.to/lastmile_qr_scan", "android": "https://dc.lft.to/lastmile_qr_scan"}, "lon": -77.04588033333333, "type": "electric_scooter", "fusion_lat": 0.0, "lat": 38.91716533333334, "name": "6f52f731939c344cba71f9c49ac424d2", "fusion_lon": 0.0, "bike_id": "6f52f731939c344cba71f9c49ac424d2", "is_disabled": 0, "is_reserved": 0}, {"rental_uris": {"ios": "https://dc.lft.to/lastmile_qr_scan", "android": "https://dc.lft.to/lastmile_qr_scan"}, "lon": -76.999152, "type": "electric_scooter", "fusion_lat": 0.0, "lat": 38.90936133333334, "name": "734d962e85a7e0ddc29e2cbcf07a5c1c", "fusion_lon": 0.0, "bike_id": "734d962e85a7e0ddc29e2cbcf07a5c1c", "is_disabled": 0, "is_reserved": 0}, {"rental_uris": {"ios": "https://dc.lft.to/lastmile_qr_scan", "android": "https://dc.lft.to/lastmile_qr_scan"}, "lon": -77.03455033333333, "type": "electric_scooter", "fusion_lat": 0.0, "lat": 38.90860816666667, "name": "f1165de5dcdc86c7f233963d54760491", "fusion_lon": 0.0, "bike_id": "f1165de5dcdc86c7f233963d54760491", "is_disabled": 0, "is_reserved": 0}, {"rental_uris": {"ios": "https://dc.lft.to/lastmile_qr_scan", "android": "https://dc.lft.to/lastmile_qr_scan"}, "lon": -77.031885, "type": "electric_scooter", "fusion_lat": 0.0, "lat": 38.913301, "name": "0005455181c10f4672b4f8d65e804dc1", "fusion_lon": 0.0, "bike_id": "0005455181c10f4672b4f8d65e804dc1", "is_disabled": 0, "is_reserved": 0}, {"rental_uris": {"ios": "https://dc.lft.to/lastmile_qr_scan", "android": "https://dc.lft.to/lastmile_qr_scan"}, "lon": -77.01967, "type": "electric_scooter", "fusion_lat": 0.0, "lat": 38.931883, "name": "d7c2da8d53fe9d3a6659f3c4db150d58", "fusion_lon": 0.0, "bike_id": "d7c2da8d53fe9d3a6659f3c4db150d58", "is_disabled": 0, "is_reserved": 0}, {"rental_uris": {"ios": "https://dc.lft.to/lastmile_qr_scan", "android": "https://dc.lft.to/lastmile_qr_scan"}, "lon": -77.03193516666667, "type": "electric_scooter", "fusion_lat": 0.0, "lat": 38.918571, "name": "d83c4974fd9a79f2d90ef06b2e460508", "fusion_lon": 0.0, "bike_id": "d83c4974fd9a79f2d90ef06b2e460508", "is_disabled": 0, "is_reserved": 0}, {"rental_uris": {"ios": "https://dc.lft.to/lastmile_qr_scan", "android": "https://dc.lft.to/lastmile_qr_scan"}, "lon": -77.02387333333333, "type": "electric_scooter", "fusion_lat": 0.0, "lat": 38.9058115, "name": "2637c093ea938dede99c0369550070a5", "fusion_lon": 0.0, "bike_id": "2637c093ea938dede99c0369550070a5", "is_disabled": 0, "is_reserved": 0}, {"rental_uris": {"ios": "https://dc.lft.to/lastmile_qr_scan", "android": "https://dc.lft.to/lastmile_qr_scan"}, "lon": -77.06716, "type": "electric_scooter", "fusion_lat": 0.0, "lat": 38.91066083333333, "name": "b4cb5f999f4de9412c33005c310f6a7e", "fusion_lon": 0.0, "bike_id": "b4cb5f999f4de9412c33005c310f6a7e", "is_disabled": 0, "is_reserved": 0}, {"rental_uris": {"ios": "https://dc.lft.to/lastmile_qr_scan", "android": "https://dc.lft.to/lastmile_qr_scan"}, "lon": -77.11526983333333, "type": "electric_bike", "fusion_lat": 0.0, "lat": 38.854907, "name": "95f7f5397b8c01f8d75ea71829889a1e", "fusion_lon": 0.0, "bike_id": "95f7f5397b8c01f8d75ea71829889a1e", "is_disabled": 0, "is_reserved": 0}, {"rental_uris": {"ios": "https://dc.lft.to/lastmile_qr_scan", "android": "https://dc.lft.to/lastmile_qr_scan"}, "lon": -77.0424145, "type": "electric_scooter", "fusion_lat": 0.0, "lat": 38.922773, "name": "a33acf3e89fa21a8eb7942be7ef0c4c2", "fusion_lon": 0.0, "bike_id": "a33acf3e89fa21a8eb7942be7ef0c4c2", "is_disabled": 0, "is_reserved": 0}, {"rental_uris": {"ios": "https://dc.lft.to/lastmile_qr_scan", "android": "https://dc.lft.to/lastmile_qr_scan"}, "lon": -77.04491433333334, "type": "electric_scooter", "fusion_lat": 0.0, "lat": 38.91584116666667, "name": "bc9f70fd96fbbe196214ca5ff937b97c", "fusion_lon": 0.0, "bike_id": "bc9f70fd96fbbe196214ca5ff937b97c", "is_disabled": 0, "is_reserved": 0}, {"rental_uris": {"ios": "https://dc.lft.to/lastmile_qr_scan", "android": "https://dc.lft.to/lastmile_qr_scan"}, "lon": -77.028537, "type": "electric_scooter", "fusion_lat": 0.0, "lat": 38.893528833333335, "name": "ab8cfc518bccb160024e501f1d6eb199", "fusion_lon": 0.0, "bike_id": "ab8cfc518bccb160024e501f1d6eb199", "is_disabled": 0, "is_reserved": 0}, {"rental_uris": {"ios": "https://dc.lft.to/lastmile_qr_scan", "android": "https://dc.lft.to/lastmile_qr_scan"}, "lon": -77.03346916666666, "type": "electric_scooter", "fusion_lat": 0.0, "lat": 38.90123366666667, "name": "fd6f55ec26592161a2006d34f0bc8bf1", "fusion_lon": 0.0, "bike_id": "fd6f55ec26592161a2006d34f0bc8bf1", "is_disabled": 0, "is_reserved": 0}, {"rental_uris": {"ios": "https://dc.lft.to/lastmile_qr_scan", "android": "https://dc.lft.to/lastmile_qr_scan"}, "lon": -76.95818316666667, "type": "electric_scooter", "fusion_lat": 0.0, "lat": 38.89056566666667, "name": "60acac2bae66fe842b4201d49b052600", "fusion_lon": 0.0, "bike_id": "60acac2bae66fe842b4201d49b052600", "is_disabled": 0, "is_reserved": 0}, {"rental_uris": {"ios": "https://dc.lft.to/lastmile_qr_scan", "android": "https://dc.lft.to/lastmile_qr_scan"}, "lon": -77.02633166666666, "type": "electric_scooter", "fusion_lat": 0.0, "lat": 38.89628716666667, "name": "4620f51e916bae5544a8ae5830508fcb", "fusion_lon": 0.0, "bike_id": "4620f51e916bae5544a8ae5830508fcb", "is_disabled": 0, "is_reserved": 0}, {"rental_uris": {"ios": "https://dc.lft.to/lastmile_qr_scan", "android": "https://dc.lft.to/lastmile_qr_scan"}, "lon": -77.03770233333333, "type": "electric_bike", "fusion_lat": 0.0, "lat": 38.91683483333333, "name": "1d603bf5b8772486f23d57b8b0e50363", "fusion_lon": 0.0, "bike_id": "1d603bf5b8772486f23d57b8b0e50363", "is_disabled": 0, "is_reserved": 0}, {"rental_uris": {"ios": "https://dc.lft.to/lastmile_qr_scan", "android": "https://dc.lft.to/lastmile_qr_scan"}, "lon": -77.04490333333334, "type": "electric_scooter", "fusion_lat": 0.0, "lat": 38.904140166666664, "name": "f7310d342a1e25525ddd15fbddabf3e5", "fusion_lon": 0.0, "bike_id": "f7310d342a1e25525ddd15fbddabf3e5", "is_disabled": 0, "is_reserved": 0}, {"rental_uris": {"ios": "https://dc.lft.to/lastmile_qr_scan", "android": "https://dc.lft.to/lastmile_qr_scan"}, "lon": -77.09523733333333, "type": "electric_bike", "fusion_lat": 0.0, "lat": 38.83807983333333, "name": "93340fd2a85dc54125d74cef1b9811d9", "fusion_lon": 0.0, "bike_id": "93340fd2a85dc54125d74cef1b9811d9", "is_disabled": 0, "is_reserved": 0}, {"rental_uris": {"ios": "https://dc.lft.to/lastmile_qr_scan", "android": "https://dc.lft.to/lastmile_qr_scan"}, "lon": -77.0382315, "type": "electric_scooter", "fusion_lat": 0.0, "lat": 38.92048283333333, "name": "163b4bc1e829d2eff941e88e51a8e8cf", "fusion_lon": 0.0, "bike_id": "163b4bc1e829d2eff941e88e51a8e8cf", "is_disabled": 0, "is_reserved": 0}, {"rental_uris": {"ios": "https://dc.lft.to/lastmile_qr_scan", "android": "https://dc.lft.to/lastmile_qr_scan"}, "lon": -77.03260833333333, "type": "electric_scooter", "fusion_lat": 0.0, "lat": 38.91809833333333, "name": "f141364e1ebc822fb5bd3291a5be6702", "fusion_lon": 0.0, "bike_id": "f141364e1ebc822fb5bd3291a5be6702", "is_disabled": 0, "is_reserved": 0}, {"rental_uris": {"ios": "https://dc.lft.to/lastmile_qr_scan", "android": "https://dc.lft.to/lastmile_qr_scan"}, "lon": -76.98621333333334, "type": "electric_scooter", "fusion_lat": 0.0, "lat": 38.868181, "name": "c57712f60ea48245faa7980e7fa25cf0", "fusion_lon": 0.0, "bike_id": "c57712f60ea48245faa7980e7fa25cf0", "is_disabled": 0, "is_reserved": 0}, {"rental_uris": {"ios": "https://dc.lft.to/lastmile_qr_scan", "android": "https://dc.lft.to/lastmile_qr_scan"}, "lon": -77.0558825, "type": "electric_scooter", "fusion_lat": 0.0, "lat": 38.9278035, "name": "ba63f6dad4ac4a8bf58125e67d0f0765", "fusion_lon": 0.0, "bike_id": "ba63f6dad4ac4a8bf58125e67d0f0765", "is_disabled": 0, "is_reserved": 0}, {"rental_uris": {"ios": "https://dc.lft.to/lastmile_qr_scan", "android": "https://dc.lft.to/lastmile_qr_scan"}, "lon": -77.03173633333333, "type": "electric_scooter", "fusion_lat": 0.0, "lat": 38.91743866666667, "name": "35c79b58e12e784fa6594ff752fb4ea5", "fusion_lon": 0.0, "bike_id": "35c79b58e12e784fa6594ff752fb4ea5", "is_disabled": 0, "is_reserved": 0}, {"rental_uris": {"ios": "https://dc.lft.to/lastmile_qr_scan", "android": "https://dc.lft.to/lastmile_qr_scan"},