{"data": {"bikes": [{"fusion_lon": 0.0, "bike_id": "91cba871c749a3a7db21bdecdd7ce076", "is_disabled": 0, "is_reserved": 0, "lat": 38.92121916666667, "name": "91cba871c749a3a7db21bdecdd7ce076", "rental_uris": {"ios": "https://dc.lft.to/lastmile_qr_scan", "android": "https://dc.lft.to/lastmile_qr_scan"}, "type": "electric_scooter", "fusion_lat": 0.0, "lon": -77.0121215}, {"fusion_lon": 0.0, "bike_id": "6b93bdff755805f0d90b38635429f8fd", "is_disabled": 0, "is_reserved": 0, "lat": 38.93081016666667, "name": "6b93bdff755805f0d90b38635429f8fd", "rental_uris": {"ios": "https://dc.lft.to/lastmile_qr_scan", "android": "https://dc.lft.to/lastmile_qr_scan"}, "type": "electric_scooter", "fusion_lat": 0.0, "lon": -77.027954}, {"fusion_lon": 0.0, "bike_id": "9d1d12734dde4122644ec4291d0d71ab", "is_disabled": 0, "is_reserved": 0, "lat": 38.91048083333333, "name": "9d1d12734dde4122644ec4291d0d71ab", "rental_uris": {"ios": "https://dc.lft.to/lastmile_qr_scan", "android": "https://dc.lft.to/lastmile_qr_scan"}, "type": "electric_scooter", "fusion_lat": 0.0, "lon": -77.027639}, {"fusion_lon": 0.0, "bike_id": "e59a17cec15a3af5a3d5eeb230e0a324", "is_disabled": 0, "is_reserved": 0, "lat": 38.90201583333333, "name": "e59a17cec15a3af5a3d5eeb230e0a324", "rental_uris": {"ios": "https://dc.lft.to/lastmile_qr_scan", "android": "https://dc.lft.to/lastmile_qr_scan"}, "type": "electric_scooter", "fusion_lat": 0.0, "lon": -77.04813483333334}, {"fusion_lon": 0.0, "bike_id": "afe231d0b5d9ffc2fe7518e92cdfea3e", "is_disabled": 0, "is_reserved": 0, "lat": 38.8996055, "name": "afe231d0b5d9ffc2fe7518e92cdfea3e", "rental_uris": {"ios": "https://dc.lft.to/lastmile_qr_scan", "android": "https://dc.lft.to/lastmile_qr_scan"}, "type": "electric_scooter", "fusion_lat": 0.0, "lon": -77.02573983333333}, {"fusion_lon": 0.0, "bike_id": "5edace8e6358373da154652cf53cb74c", "is_disabled": 0, "is_reserved": 0, "lat": 38.929177, "name": "5edace8e6358373da154652cf53cb74c", "rental_uris": {"ios": "https://dc.lft.to/lastmile_qr_scan", "android": "https://dc.lft.to/lastmile_qr_scan"}, "type": "electric_scooter", "fusion_lat": 0.0, "lon": -77.02347666666667}, {"fusion_lon": 0.0, "bike_id": "e1425c777d5c0d883867c9ae8a5a94c5", "is_disabled": 0, "is_reserved": 0, "lat": 38.91712783333333, "name": "e1425c777d5c0d883867c9ae8a5a94c5", "rental_uris": {"ios": "https://dc.lft.to/lastmile_qr_scan", "android": "https://dc.lft.to/lastmile_qr_scan"}, "type": "electric_scooter", "fusion_lat": 0.0, "lon": -77.03862983333333}, {"fusion_lon": 0.0, "bike_id": "20b01014887157da629a6a72773da5d1", "is_disabled": 0, "is_reserved": 0, "lat": 38.904082333333335, "name": "20b01014887157da629a6a72773da5d1", "rental_uris": {"ios": "https://dc.lft.to/lastmile_qr_scan", "android": "https://dc.lft.to/lastmile_qr_scan"}, "type": "electric_scooter", "fusion_lat": 0.0, "lon": -77.025136}, {"fusion_lon": 0.0, "bike_id": "dacdc2343615404e38b90c2661148373", "is_disabled": 0, "is_reserved": 0, "lat": 38.92097483333333, "name": "dacdc2343615404e38b90c2661148373", "rental_uris": {"ios": "https://dc.lft.to/lastmile_qr_scan", "android": "https://dc.lft.to/lastmile_qr_scan"}, "type": "electric_scooter", "fusion_lat": 0.0, "lon": -77.03177083333334}, {"fusion_lon": 0.0, "bike_id": "bce48f4e90a12b19f41b61c0a4acd632", "is_disabled": 0, "is_reserved": 0, "lat": 38.921020166666665, "name": "bce48f4e90a12b19f41b61c0a4acd632", "rental_uris": {"ios": "https://dc.lft.to/lastmile_qr_scan", "android": "https://dc.lft.to/lastmile_qr_scan"}, "type": "electric_scooter", "fusion_lat": 0.0, "lon": -76.99914233333334}, {"fusion_lon": 0.0, "bike_id": "423ff117f5cfe01a96f23076bdc44029", "is_disabled": 0, "is_reserved": 0, "lat": 38.921391166666666, "name": "423ff117f5cfe01a96f23076bdc44029", "rental_uris": {"ios": "https://dc.lft.to/lastmile_qr_scan", "android": "https://dc.lft.to/lastmile_qr_scan"}, "type": "electric_scooter", "fusion_lat": 0.0, "lon": -77.0178485}, {"fusion_lon": 0.0, "bike_id": "822e097828cb8ea6646998dd5565d8eb", "is_disabled": 0, "is_reserved": 0, "lat": 38.9248095, "name": "822e097828cb8ea6646998dd5565d8eb", "rental_uris": {"ios": "https://dc.lft.to/lastmile_qr_scan", "android": "https://dc.lft.to/lastmile_qr_scan"}, "type": "electric_scooter", "fusion_lat": 0.0, "lon": -77.00890183333334}, {"fusion_lon": 0.0, "bike_id": "671e5ae8fc12790995a867110a215ef8", "is_disabled": 0, "is_reserved": 0, "lat": 38.93961316666667, "name": "671e5ae8fc12790995a867110a215ef8", "rental_uris": {"ios": "https://dc.lft.to/lastmile_qr_scan", "android": "https://dc.lft.to/lastmile_qr_scan"}, "type": "electric_scooter", "fusion_lat": 0.0, "lon": -77.07243983333333}, {"fusion_lon": 0.0, "bike_id": "4425170012544b915270f0c6d7a6aa1e", "is_disabled": 0, "is_reserved": 0, "lat": 38.87653, "name": "4425170012544b915270f0c6d7a6aa1e", "rental_uris": {"ios": "https://dc.lft.to/lastmile_qr_scan", "android": "https://dc.lft.to/lastmile_qr_scan"}, "type": "electric_scooter", "fusion_lat": 0.0, "lon": -77.00053083333333}, {"fusion_lon": 0.0, "bike_id": "645b8e3b86ed0103a718de7c7ddacd89", "is_disabled": 0, "is_reserved": 0, "lat": 38.924871333333336, "name": "645b8e3b86ed0103a718de7c7ddacd89", "rental_uris": {"ios": "https://dc.lft.to/lastmile_qr_scan", "android": "https://dc.lft.to/lastmile_qr_scan"}, "type": "electric_scooter", "fusion_lat": 0.0, "lon": -77.0214365}, {"fusion_lon": 0.0, "bike_id": "3ff399ea3d0b2a2b5e9c9cc53d287410", "is_disabled": 0, "is_reserved": 0, "lat": 38.90959, "name": "3ff399ea3d0b2a2b5e9c9cc53d287410", "rental_uris": {"ios": "https://dc.lft.to/lastmile_qr_scan", "android": "https://dc.lft.to/lastmile_qr_scan"}, "type": "electric_scooter", "fusion_lat": 0.0, "lon": -77.011819}, {"fusion_lon": 0.0, "bike_id": "f7552567ce7fdcfa0f37449e3c401142", "is_disabled": 0, "is_reserved": 0, "lat": 38.90165183333333, "name": "f7552567ce7fdcfa0f37449e3c401142", "rental_uris": {"ios": "https://dc.lft.to/lastmile_qr_scan", "android": "https://dc.lft.to/lastmile_qr_scan"}, "type": "electric_scooter", "fusion_lat": 0.0, "lon": -77.051283}, {"fusion_lon": 0.0, "bike_id": "2d04bb82001916f79a83580c10fe6546", "is_disabled": 0, "is_reserved": 0, "lat": 38.92622083333333, "name": "2d04bb82001916f79a83580c10fe6546", "rental_uris": {"ios": "https://dc.lft.to/lastmile_qr_scan", "android": "https://dc.lft.to/lastmile_qr_scan"}, "type": "electric_scooter", "fusion_lat": 0.0, "lon": -77.07720216666667}, {"fusion_lon": 0.0, "bike_id": "b26b09d4f617d376f8c2d2a8259e1955", "is_disabled": 0, "is_reserved": 0, "lat": 38.90057766666666, "name": "b26b09d4f617d376f8c2d2a8259e1955", "rental_uris": {"ios": "https://dc.lft.to/lastmile_qr_scan", "android": "https://dc.lft.to/lastmile_qr_scan"}, "type": "electric_scooter", "fusion_lat": 0.0, "lon": -77.0454925}, {"fusion_lon": 0.0, "bike_id": "ed5cf737f339d90f4aaec199bb8bf910", "is_disabled": 0, "is_reserved": 0, "lat": 38.912580166666665, "name": "ed5cf737f339d90f4aaec199bb8bf910", "rental_uris": {"ios": "https://dc.lft.to/lastmile_qr_scan", "android": "https://dc.lft.to/lastmile_qr_scan"}, "type": "electric_scooter", "fusion_lat": 0.0, "lon": -77.0445035}, {"fusion_lon": 0.0, "bike_id": "11b0980b54b8c45c48c9c29728a22392", "is_disabled": 0, "is_reserved": 0, "lat": 38.93253133333333, "name": "11b0980b54b8c45c48c9c29728a22392", "rental_uris": {"ios": "https://dc.lft.to/lastmile_qr_scan", "android": "https://dc.lft.to/lastmile_qr_scan"}, "type": "electric_scooter", "fusion_lat": 0.0, "lon": -77.0328135}, {"fusion_lon": 0.0, "bike_id": "175a56d23cf8dada32be1a73594292fa", "is_disabled": 0, "is_reserved": 0, "lat": 38.90843516666666, "name": "175a56d23cf8dada32be1a73594292fa", "rental_uris": {"ios": "https://dc.lft.to/lastmile_qr_scan", "android": "https://dc.lft.to/lastmile_qr_scan"}, "type": "electric_scooter", "fusion_lat": 0.0, "lon": -77.06374583333333}, {"fusion_lon": 0.0, "bike_id": "53c184e3c818c63979c1578e28a0ce2c", "is_disabled": 0, "is_reserved": 0, "lat": 38.907850333333336, "name": "53c184e3c818c63979c1578e28a0ce2c", "rental_uris": {"ios": "https://dc.lft.to/lastmile_qr_scan", "android": "https://dc.lft.to/lastmile_qr_scan"}, "type": "electric_bike", "fusion_lat": 0.0, "lon": -77.08168033333334}, {"fusion_lon": 0.0, "bike_id": "76c6ac3c36f560983c8c0ff400ef41b0", "is_disabled": 0, "is_reserved": 0, "lat": 38.9306255, "name": "76c6ac3c36f560983c8c0ff400ef41b0", "rental_uris": {"ios": "https://dc.lft.to/lastmile_qr_scan", "android": "https://dc.lft.to/lastmile_qr_scan"}, "type": "electric_scooter", "fusion_lat": 0.0, "lon": -77.02322716666667}, {"fusion_lon": 0.0, "bike_id": "41c48d7819579477a3d8a79b702bd70f", "is_disabled": 0, "is_reserved": 0, "lat": 38.93935416666667, "name": "41c48d7819579477a3d8a79b702bd70f", "rental_uris": {"ios": "https://dc.lft.to/lastmile_qr_scan", "android": "https://dc.lft.to/lastmile_qr_scan"}, "type": "electric_scooter", "fusion_lat": 0.0, "lon": -77.0605625}, {"fusion_lon": 0.0, "bike_id": "69559ffb311ebce44ed7ce6bfd17178e", "is_disabled": 0, "is_reserved": 0, "lat": 38.903786833333335, "name": "69559ffb311ebce44ed7ce6bfd17178e", "rental_uris": {"ios": "https://dc.lft.to/lastmile_qr_scan", "android": "https://dc.lft.to/lastmile_qr_scan"}, "type": "electric_scooter", "fusion_lat": 0.0, "lon": -77.02716466666666}, {"fusion_lon": 0.0, "bike_id": "36d0c37709f54cf9c9e4a82d620b3d68", "is_disabled": 0, "is_reserved": 0, "lat": 38.91571366666667, "name": "36d0c37709f54cf9c9e4a82d620b3d68", "rental_uris": {"ios": "https://dc.lft.to/lastmile_qr_scan", "android": "https://dc.lft.to/lastmile_qr_scan"}, "type": "electric_scooter", "fusion_lat": 0.0, "lon": -77.03193633333333}, {"fusion_lon": 0.0, "bike_id": "c222b6f5bc41479a1ad074921e60cc42", "is_disabled": 0, "is_reserved": 0, "lat": 38.926824, "name": "c222b6f5bc41479a1ad074921e60cc42", "rental_uris": {"ios": "https://dc.lft.to/lastmile_qr_scan", "android": "https://dc.lft.to/lastmile_qr_scan"}, "type": "electric_scooter", "fusion_lat": 0.0, "lon": -77.0257985}, {"fusion_lon": 0.0, "bike_id": "6572d6383678728240ab0fd38c3180e0", "is_disabled": 0, "is_reserved": 0, "lat": 38.934937833333336, "name": "6572d6383678728240ab0fd38c3180e0", "rental_uris": {"ios": "https://dc.lft.to/lastmile_qr_scan", "android": "https://dc.lft.to/lastmile_qr_scan"}, "type": "electric_scooter", "fusion_lat": 0.0, "lon": -77.0365735}, {"fusion_lon": 0.0, "bike_id": "403ca8adc9100c806fe5e28044d3002e", "is_disabled": 0, "is_reserved": 0, "lat": 38.909620333333336, "name": "403ca8adc9100c806fe5e28044d3002e", "rental_uris": {"ios": "https://dc.lft.to/lastmile_qr_scan", "android": "https://dc.lft.to/lastmile_qr_scan"}, "type": "electric_scooter", "fusion_lat": 0.0, "lon": -77.02416916666667}, {"fusion_lon": 0.0, "bike_id": "fef8732d0b1da49c49921b756409e521", "is_disabled": 0, "is_reserved": 0, "lat": 38.93271766666667, "name": "fef8732d0b1da49c49921b756409e521", "rental_uris": {"ios": "https://dc.lft.to/lastmile_qr_scan", "android": "https://dc.lft.to/lastmile_qr_scan"}, "type": "electric_scooter", "fusion_lat": 0.0, "lon": -77.01918633333334}, {"fusion_lon": 0.0, "bike_id": "cd03ff65d20eea7e6152ec3f5856ca6c", "is_disabled": 0, "is_reserved": 0, "lat": 38.928756, "name": "cd03ff65d20eea7e6152ec3f5856ca6c", "rental_uris": {"ios": "https://dc.lft.to/lastmile_qr_scan", "android": "https://dc.lft.to/lastmile_qr_scan"}, "type": "electric_scooter", "fusion_lat": 0.0, "lon": -77.03687216666667}, {"fusion_lon": 0.0, "bike_id": "00fba0bb3d29163665ce2643226bc7bc", "is_disabled": 0, "is_reserved": 0, "lat": 38.89717066666667, "name": "00fba0bb3d29163665ce2643226bc7bc", "rental_uris": {"ios": "https://dc.lft.to/lastmile_qr_scan", "android": "https://dc.lft.to/lastmile_qr_scan"}, "type": "electric_scooter", "fusion_lat": 0.0, "lon": -77.00796116666666}, {"fusion_lon": 0.0, "bike_id": "747b9ac306d33c39498442b8714b7318", "is_disabled": 0, "is_reserved": 0, "lat": 38.961570333333334, "name": "747b9ac306d33c39498442b8714b7318", "rental_uris": {"ios": "https://dc.lft.to/lastmile_qr_scan", "android": "https://dc.lft.to/lastmile_qr_scan"}, "type": "electric_bike", "fusion_lat": 0.0, "lon": -77.03247616666667}, {"fusion_lon": 0.0, "bike_id": "7b14b19ba05a9328cbbddae473c53a89", "is_disabled": 0, "is_reserved": 0, "lat": 38.919297666666665, "name": "7b14b19ba05a9328cbbddae473c53a89", "rental_uris": {"ios": "https://dc.lft.to/lastmile_qr_scan", "android": "https://dc.lft.to/lastmile_qr_scan"}, "type": "electric_scooter", "fusion_lat": 0.0, "lon": -77.080646}, {"fusion_lon": 0.0, "bike_id": "70fdf8c006c2ac4e4cf48bc4d5de8ea2", "is_disabled": 0, "is_reserved": 0, "lat": 38.899793, "name": "70fdf8c006c2ac4e4cf48bc4d5de8ea2", "rental_uris": {"ios": "https://dc.lft.to/lastmile_qr_scan", "android": "https://dc.lft.to/lastmile_qr_scan"}, "type": "electric_scooter", "fusion_lat": 0.0, "lon": -77.04193416666666}, {"fusion_lon": 0.0, "bike_id": "64cffe4ff2127e230743b5535765dc6f", "is_disabled": 0, "is_reserved": 0, "lat": 38.915972, "name": "64cffe4ff2127e230743b5535765dc6f", "rental_uris": {"ios": "https://dc.lft.to/lastmile_qr_scan", "android": "https://dc.lft.to/lastmile_qr_scan"}, "type": "electric_scooter", "fusion_lat": 0.0, "lon": -77.032054}, {"fusion_lon": 0.0, "bike_id": "5391a11040629f8271818eaaef3505b6", "is_disabled": 0, "is_reserved": 0, "lat": 38.925337166666665, "name": "5391a11040629f8271818eaaef3505b6", "rental_uris": {"ios": "https://dc.lft.to/lastmile_qr_scan", "android": "https://dc.lft.to/lastmile_qr_scan"}, "type": "electric_scooter", "fusion_lat": 0.0, "lon": -77.03442016666666}, {"fusion_lon": 0.0, "bike_id": "b92c6e2cc67abcac5c216577e7be9e69", "is_disabled": 0, "is_reserved": 0, "lat": 38.89545716666667, "name": "b92c6e2cc67abcac5c216577e7be9e69", "rental_uris": {"ios": "https://dc.lft.to/lastmile_qr_scan", "android": "https://dc.lft.to/lastmile_qr_scan"}, "type": "electric_scooter", "fusion_lat": 0.0, "lon": -76.98338583333333}, {"fusion_lon": 0.0, "bike_id": "0261c96df32a05494c777d94af6570c2", "is_disabled": 0, "is_reserved": 0, "lat": 38.952160666666664, "name": "0261c96df32a05494c777d94af6570c2", "rental_uris": {"ios": "https://dc.lft.to/lastmile_qr_scan", "android": "https://dc.lft.to/lastmile_qr_scan"}, "type": "electric_bike", "fusion_lat": 0.0, "lon": -77.06783433333334}, {"fusion_lon": 0.0, "bike_id": "29e2bfd56098b3cf85a72325054186f2", "is_disabled": 0, "is_reserved": 0, "lat": 38.92243583333333, "name": "29e2bfd56098b3cf85a72325054186f2", "rental_uris": {"ios": "https://dc.lft.to/lastmile_qr_scan", "android": "https://dc.lft.to/lastmile_qr_scan"}, "type": "electric_scooter", "fusion_lat": 0.0, "lon": -77.03665583333333}, {"fusion_lon": 0.0, "bike_id": "ddca8b0992cb11a1353b48518371ece4", "is_disabled": 0, "is_reserved": 0, "lat": 38.920646166666664, "name": "ddca8b0992cb11a1353b48518371ece4", "rental_uris": {"ios": "https://dc.lft.to/lastmile_qr_scan", "android": "https://dc.lft.to/lastmile_qr_scan"}, "type": "electric_scooter", "fusion_lat": 0.0, "lon": -77.04193616666667}, {"fusion_lon": 0.0, "bike_id": "7a51edf59e985a72f9086aa14c1feace", "is_disabled": 0, "is_reserved": 0, "lat": 38.917836333333334, "name": "7a51edf59e985a72f9086aa14c1feace", "rental_uris": {"ios": "https://dc.lft.to/lastmile_qr_scan", "android": "https://dc.lft.to/lastmile_qr_scan"}, "type": "electric_scooter", "fusion_lat": 0.0, "lon": -77.0230975}, {"fusion_lon": 0.0, "bike_id": "4a06c02e49580e41d40777cbdd8cdef9", "is_disabled": 0, "is_reserved": 0, "lat": 38.8754975, "name": "4a06c02e49580e41d40777cbdd8cdef9", "rental_uris": {"ios": "https://dc.lft.to/lastmile_qr_scan", "android": "https://dc.lft.to/lastmile_qr_scan"}, "type": "electric_scooter", "fusion_lat": 0.0, "lon": -77.00536933333333}, {"fusion_lon": 0.0, "bike_id": "f13b0619eac0e4cd9bcea01bf708b2fb", "is_disabled": 0, "is_reserved": 0, "lat": 38.8950925, "name": "f13b0619eac0e4cd9bcea01bf708b2fb", "rental_uris": {"ios": "https://dc.lft.to/lastmile_qr_scan", "android": "https://dc.lft.to/lastmile_qr_scan"}, "type": "electric_scooter", "fusion_lat": 0.0, "lon": -76.94883683333333}, {"fusion_lon": 0.0, "bike_id": "40bad4a61cc8e34864697baf50a86290", "is_disabled": 0, "is_reserved": 0, "lat": 38.995012833333334, "name": "40bad4a61cc8e34864697baf50a86290", "rental_uris": {"ios": "https://dc.lft.to/lastmile_qr_scan", "android": "https://dc.lft.to/lastmile_qr_scan"}, "type": "electric_bike", "fusion_lat": 0.0, "lon": -77.00133466666666}, {"fusion_lon": 0.0, "bike_id": "6643710f08d71cc279bea4fe53f0eae1", "is_disabled": 0, "is_reserved": 0, "lat": 38.92201266666667, "name": "6643710f08d71cc279bea4fe53f0eae1", "rental_uris": {"ios": "https://dc.lft.to/lastmile_qr_scan", "android": "https://dc.lft.to/lastmile_qr_scan"}, "type": "electric_scooter", "fusion_lat": 0.0, "lon": -77.01849}, {"fusion_lon": 0.0, "bike_id": "893cf386482b9690d8d4e2a8113fd231", "is_disabled": 0, "is_reserved": 0, "lat": 38.93518133333333, "name": "893cf386482b9690d8d4e2a8113fd231", "rental_uris": {"ios": "https://dc.lft.to/lastmile_qr_scan", "android": "https://dc.lft.to/lastmile_qr_scan"}, "type": "electric_bike", "fusion_lat": 0.0, "lon": -76.983534}, {"fusion_lon": 0.0, "bike_id": "84499f89b7e9b470031c52bf71943fcc", "is_disabled": 0, "is_reserved": 0, "lat": 38.929642666666666, "name": "84499f89b7e9b470031c52bf71943fcc", "rental_uris": {"ios": "https://dc.lft.to/lastmile_qr_scan", "android": "https://dc.lft.to/lastmile_qr_scan"}, "type": "electric_scooter", "fusion_lat": 0.0, "lon": -77.03159866666667}, {"fusion_lon": 0.0, "bike_id": "c161a600a73e50475563a17d3fbd468e", "is_disabled": 0, "is_reserved": 0, "lat": 38.901842, "name": "c161a600a73e50475563a17d3fbd468e", "rental_uris": {"ios": "https://dc.lft.to/lastmile_qr_scan", "android": "https://dc.lft.to/lastmile_qr_scan"}, "type": "electric_scooter", "fusion_lat": 0.0, "lon": -76.97674233333333}, {"fusion_lon": 0.0, "bike_id": "49abd39db2d4d38729710d809b9a3d72", "is_disabled": 0, "is_reserved": 0, "lat": 38.94332683333333, "name": "49abd39db2d4d38729710d809b9a3d72", "rental_uris": {"ios": "https://dc.lft.to/lastmile_qr_scan", "android": "https://dc.lft.to/lastmile_qr_scan"}, "type": "electric_scooter", "fusion_lat": 0.0, "lon": -77.03258566666666}, {"fusion_lon": 0.0, "bike_id": "b11856230a41084db5dbd54304f3e2b8", "is_disabled": 0, "is_reserved": 0, "lat": 38.924317, "name": "b11856230a41084db5dbd54304f3e2b8", "rental_uris": {"ios": "https://dc.lft.to/lastmile_qr_scan", "android": "https://dc.lft.to/lastmile_qr_scan"}, "type": "electric_scooter", "fusion_lat": 0.0, "lon": -77.04050066666667}, {"fusion_lon": 0.0, "bike_id": "51469af85d22f4c40572d1ba1419901f", "is_disabled": 0, "is_reserved": 0, "lat": 38.887139833333336, "name": "51469af85d22f4c40572d1ba1419901f", "rental_uris": {"ios": "https://dc.lft.to/lastmile_qr_scan", "android": "https://dc.lft.to/lastmile_qr_scan"}, "type": "electric_scooter", "fusion_lat": 0.0, "lon": -76.98383833333334}, {"fusion_lon": 0.0, "bike_id": "64dd91f4313f08d060a9597eb738f5c6", "is_disabled": 0, "is_reserved": 0, "lat": 38.920100833333336, "name": "64dd91f4313f08d060a9597eb738f5c6", "rental_uris": {"ios": "https://dc.lft.to/lastmile_qr_scan", "android": "https://dc.lft.to/lastmile_qr_scan"}, "type": "electric_scooter", "fusion_lat": 0.0, "lon": -77.0213025}, {"fusion_lon": 0.0, "bike_id": "8559490783c43dcb1c995e15e3d57595", "is_disabled": 0, "is_reserved": 0, "lat": 38.922788833333335, "name": "8559490783c43dcb1c995e15e3d57595", "rental_uris": {"ios": "https://dc.lft.to/lastmile_qr_scan", "android": "https://dc.lft.to/lastmile_qr_scan"}, "type": "electric_scooter", "fusion_lat": 0.0, "lon": -77.02132466666667}, {"fusion_lon": 0.0, "bike_id": "4e1ea6cbba17724d3a939ddfe04d01e6", "is_disabled": 0, "is_reserved": 0, "lat": 38.900595, "name": "4e1ea6cbba17724d3a939ddfe04d01e6", "rental_uris": {"ios": "https://dc.lft.to/lastmile_qr_scan", "android": "https://dc.lft.to/lastmile_qr_scan"}, "type": "electric_scooter", "fusion_lat": 0.0, "lon": -77.04594216666666}, {"fusion_lon": 0.0, "bike_id": "3364e5d024b7670528b26178f2f8e93e", "is_disabled": 0, "is_reserved": 0, "lat": 38.881912, "name": "3364e5d024b7670528b26178f2f8e93e", "rental_uris": {"ios": "https://dc.lft.to/lastmile_qr_scan", "android": "https://dc.lft.to/lastmile_qr_scan"}, "type": "electric_scooter", "fusion_lat": 0.0, "lon": -77.02095216666666}, {"fusion_lon": 0.0, "bike_id": "bd9d6c92cf745d05f82d74147d470fb7", "is_disabled": 0, "is_reserved": 0, "lat": 38.9171075, "name": "bd9d6c92cf745d05f82d74147d470fb7", "rental_uris": {"ios": "https://dc.lft.to/lastmile_qr_scan", "android": "https://dc.lft.to/lastmile_qr_scan"}, "type": "electric_scooter", "fusion_lat": 0.0, "lon": -77.09220466666666}, {"fusion_lon": 0.0, "bike_id": "07b0eba7bdd9e092c94cc380bce71bf0", "is_disabled": 0, "is_reserved": 0, "lat": 38.92244216666667, "name": "07b0eba7bdd9e092c94cc380bce71bf0", "rental_uris": {"ios": "https://dc.lft.to/lastmile_qr_scan", "android": "https://dc.lft.to/lastmile_qr_scan"}, "type": "electric_scooter", "fusion_lat": 0.0, "lon": -77.0083195}, {"fusion_lon": 0.0, "bike_id": "ee5f9684fbca2e7674e0e7d5f6193da0", "is_disabled": 0, "is_reserved": 0, "lat": 38.91817233333333, "name": "ee5f9684fbca2e7674e0e7d5f6193da0", "rental_uris": {"ios": "https://dc.lft.to/lastmile_qr_scan", "android": "https://dc.lft.to/lastmile_qr_scan"}, "type": "electric_scooter", "fusion_lat": 0.0, "lon": -77.0247735}, {"fusion_lon": 0.0, "bike_id": "5766bdc2ad36fd271152d71b5ba76f34", "is_disabled": 0, "is_reserved": 0, "lat": 38.90284616666667, "name": "5766bdc2ad36fd271152d71b5ba76f34", "rental_uris": {"ios": "https://dc.lft.to/lastmile_qr_scan", "android": "https://dc.lft.to/lastmile_qr_scan"}, "type": "electric_scooter", "fusion_lat": 0.0, "lon": -77.046891}, {"fusion_lon": 0.0, "bike_id": "0613dbffa9db0b671148480ad578f52f", "is_disabled": 0, "is_reserved": 0, "lat": 38.90232066666667, "name": "0613dbffa9db0b671148480ad578f52f", "rental_uris": {"ios": "https://dc.lft.to/lastmile_qr_scan", "android": "https://dc.lft.to/lastmile_qr_scan"}, "type": "electric_scooter", "fusion_lat": 0.0, "lon": -77.045635}, {"fusion_lon": 0.0, "bike_id": "cb2d2a923e1fe17edf49444011e788a8", "is_disabled": 0, "is_reserved": 0, "lat": 38.92640516666667, "name": "cb2d2a923e1fe17edf49444011e788a8", "rental_uris": {"ios": "https://dc.lft.to/lastmile_qr_scan", "android": "https://dc.lft.to/lastmile_qr_scan"}, "type": "electric_scooter", "fusion_lat": 0.0, "lon": -77.03695883333333}, {"fusion_lon": 0.0, "bike_id": "e84dddeb8c64f26e030bf4371f93a5c7", "is_disabled": 0, "is_reserved": 0, "lat": 38.90863516666667, "name": "e84dddeb8c64f26e030bf4371f93a5c7", "rental_uris": {"ios": "https://dc.lft.to/lastmile_qr_scan", "android": "https://dc.lft.to/lastmile_qr_scan"}, "type": "electric_scooter", "fusion_lat": 0.0, "lon": -77.01838116666667}, {"fusion_lon": 0.0, "bike_id": "31e1e8474cb6bdd73f60018169392194", "is_disabled": 0, "is_reserved": 0, "lat": 38.89497183333334, "name": "31e1e8474cb6bdd73f60018169392194", "rental_uris": {"ios": "https://dc.lft.to/lastmile_qr_scan", "android": "https://dc.lft.to/lastmile_qr_scan"}, "type": "electric_scooter", "fusion_lat": 0.0, "lon": -77.05509716666667}, {"fusion_lon": 0.0, "bike_id": "05f61a8f32b9e9fab56675c17df5a01e", "is_disabled": 0, "is_reserved": 0, "lat": 38.881442166666666, "name": "05f61a8f32b9e9fab56675c17df5a01e", "rental_uris": {"ios": "https://dc.lft.to/lastmile_qr_scan", "android": "https://dc.lft.to/lastmile_qr_scan"}, "type": "electric_bike", "fusion_lat": 0.0, "lon": -77.01295683333333}, {"fusion_lon": 0.0, "bike_id": "ed5a3a4f45cba37944f65e6afe20e3fb", "is_disabled": 0, "is_reserved": 0, "lat": 38.95358016666667, "name": "ed5a3a4f45cba37944f65e6afe20e3fb", "rental_uris": {"ios": "https://dc.lft.to/lastmile_qr_scan", "android": "https://dc.lft.to/lastmile_qr_scan"}, "type": "electric_bike", "fusion_lat": 0.0, "lon": -76.98096016666666}, {"fusion_lon": 0.0, "bike_id": "768f3bc13da02bdc5a9cd89679ab9f85", "is_disabled": 0, "is_reserved": 0, "lat": 38.892458166666664, "name": "768f3bc13da02bdc5a9cd89679ab9f85", "rental_uris": {"ios": "https://dc.lft.to/lastmile_qr_scan", "android": "https://dc.lft.to/lastmile_qr_scan"}, "type": "electric_scooter", "fusion_lat": 0.0, "lon": -77.0318745}, {"fusion_lon": 0.0, "bike_id": "7f5343b3005841a87953f52570fb328e", "is_disabled": 0, "is_reserved": 0, "lat": 38.8916215, "name": "7f5343b3005841a87953f52570fb328e", "rental_uris": {"ios": "https://dc.lft.to/lastmile_qr_scan", "android": "https://dc.lft.to/lastmile_qr_scan"}, "type": "electric_scooter", "fusion_lat": 0.0, "lon": -76.99146566666667}, {"fusion_lon": 0.0, "bike_id": "7558d84af3ffa10d5014f115c7f625d8", "is_disabled": 0, "is_reserved": 0, "lat": 38.91883083333333, "name": "7558d84af3ffa10d5014f115c7f625d8", "rental_uris": {"ios": "https://dc.lft.to/lastmile_qr_scan", "android": "https://dc.lft.to/lastmile_qr_scan"}, "type": "electric_bike", "fusion_lat": 0.0, "lon": -77.01623016666667}, {"fusion_lon": 0.0, "bike_id": "a8eaac375623c390ac69ce7386ccc136", "is_disabled": 0, "is_reserved": 0, "lat": 38.9199945, "name": "a8eaac375623c390ac69ce7386ccc136", "rental_uris": {"ios": "https://dc.lft.to/lastmile_qr_scan", "android": "https://dc.lft.to/lastmile_qr_scan"}, "type": "electric_scooter", "fusion_lat": 0.0, "lon": -77.02169466666666}, {"fusion_lon": 0.0, "bike_id": "58d8cde212dd46b106454fc52809b3f0", "is_disabled": 0, "is_reserved": 0, "lat": 38.89853083333333, "name": "58d8cde212dd46b106454fc52809b3f0", "rental_uris": {"ios": "https://dc.lft.to/lastmile_qr_scan", "android": "https://dc.lft.to/lastmile_qr_scan"}, "type": "electric_scooter", "fusion_lat": 0.0, "lon": -76.932106}, {"fusion_lon": 0.0, "bike_id": "fa16bfb2cbb39b1202d08bd5ec476d22", "is_disabled": 0, "is_reserved": 0, "lat": 38.8824985, "name": "fa16bfb2cbb39b1202d08bd5ec476d22", "rental_uris": {"ios": "https://dc.lft.to/lastmile_qr_scan", "android": "https://dc.lft.to/lastmile_qr_scan"}, "type": "electric_scooter", "fusion_lat": 0.0, "lon": -76.93330033333334}, {"fusion_lon": 0.0, "bike_id": "9af5495b5c33606c323fdfe425972cc8", "is_disabled": 0, "is_reserved": 0, "lat": 38.9187065, "name": "9af5495b5c33606c323fdfe425972cc8", "rental_uris": {"ios": "https://dc.lft.to/lastmile_qr_scan", "android": "https://dc.lft.to/lastmile_qr_scan"}, "type": "electric_scooter", "fusion_lat": 0.0, "lon": -77.0415745}, {"fusion_lon": 0.0, "bike_id": "4708b623ac3ecaf84342af187ee50d8e", "is_disabled": 0, "is_reserved": 0, "lat": 38.928431833333335, "name": "4708b623ac3ecaf84342af187ee50d8e", "rental_uris": {"ios": "https://dc.lft.to/lastmile_qr_scan", "android": "https://dc.lft.to/lastmile_qr_scan"}, "type": "electric_scooter", "fusion_lat": 0.0, "lon": -77.01388816666666}, {"fusion_lon": 0.0, "bike_id": "73274f233bb43530b1d3523496b56557", "is_disabled": 0, "is_reserved": 0, "lat": 38.92962966666666, "name": "73274f233bb43530b1d3523496b56557", "rental_uris": {"ios": "https://dc.lft.to/lastmile_qr_scan", "android": "https://dc.lft.to/lastmile_qr_scan"}, "type": "electric_scooter", "fusion_lat": 0.0, "lon": -77.01637883333333}, {"fusion_lon": 0.0, "bike_id": "eb1b12522a30a8a27caad9bbc8ac2006", "is_disabled": 0, "is_reserved": 0, "lat": 38.904326, "name": "eb1b12522a30a8a27caad9bbc8ac2006", "rental_uris": {"ios": "https://dc.lft.to/lastmile_qr_scan", "android": "https://dc.lft.to/lastmile_qr_scan"}, "type": "electric_scooter", "fusion_lat": 0.0, "lon": -77.05325916666666}, {"fusion_lon": 0.0, "bike_id": "24c94e6a2b9a4ee90862dc58467243fd", "is_disabled": 0, "is_reserved": 0, "lat": 38.920171333333336, "name": "24c94e6a2b9a4ee90862dc58467243fd", "rental_uris": {"ios": "https://dc.lft.to/lastmile_qr_scan", "android": "https://dc.lft.to/lastmile_qr_scan"}, "type": "electric_scooter", "fusion_lat": 0.0, "lon": -77.0238445}, {"fusion_lon": 0.0, "bike_id": "1f47d0a9c9d4fdb319aacd84bb925eac", "is_disabled": 0, "is_reserved": 0, "lat": 38.89617766666667, "name": "1f47d0a9c9d4fdb319aacd84bb925eac", "rental_uris": {"ios": "https://dc.lft.to/lastmile_qr_scan", "android": "https://dc.lft.to/lastmile_qr_scan"}, "type": "electric_scooter", "fusion_lat": 0.0, "lon": -76.99846683333334}, {"fusion_lon": 0.0, "bike_id": "1b29744696ef679539f8b9c4fc88c8e3", "is_disabled": 0, "is_reserved": 0, "lat": 38.893818333333336, "name": "1b29744696ef679539f8b9c4fc88c8e3", "rental_uris": {"ios": "https://dc.lft.to/lastmile_qr_scan", "android": "https://dc.lft.to/lastmile_qr_scan"}, "type": "electric_scooter", "fusion_lat": 0.0, "lon": -77.02053716666667}, {"fusion_lon": 0.0, "bike_id": "6b9d9397e0fb2d18d9453b4b4f8fc32d", "is_disabled": 0, "is_reserved": 0, "lat": 38.898458, "name": "6b9d9397e0fb2d18d9453b4b4f8fc32d", "rental_uris": {"ios": "https://dc.lft.to/lastmile_qr_scan", "android": "https://dc.lft.to/lastmile_qr_scan"}, "type": "electric_scooter", "fusion_lat": 0.0, "lon": -77.02277416666666}, {"fusion_lon": 0.0, "bike_id": "b0efd54787b7a5165dbe8308ce3ad559", "is_disabled": 0, "is_reserved": 0, "lat": 38.93587633333333, "name": "b0efd54787b7a5165dbe8308ce3ad559", "rental_uris": {"ios": "https://dc.lft.to/lastmile_qr_scan", "android": "https://dc.lft.to/lastmile_qr_scan"}, "type": "electric_scooter", "fusion_lat": 0.0, "lon": -77.07436766666666}, {"fusion_lon": 0.0, "bike_id": "df0190334f051a375b30c5adb0cd32d5", "is_disabled": 0, "is_reserved": 0, "lat": 38.86253983333334, "name": "df0190334f051a375b30c5adb0cd32d5", "rental_uris": {"ios": "https://dc.lft.to/lastmile_qr_scan", "android": "https://dc.lft.to/lastmile_qr_scan"}, "type": "electric_scooter", "fusion_lat": 0.0, "lon": -76.995043}, {"fusion_lon": 0.0, "bike_id": "0c111ff4b9d5d88fa362ac7769610523", "is_disabled": 0, "is_reserved": 0, "lat": 38.9134065, "name": "0c111ff4b9d5d88fa362ac7769610523", "rental_uris": {"ios": "https://dc.lft.to/lastmile_qr_scan", "android": "https://dc.lft.to/lastmile_qr_scan"}, "type": "electric_scooter", "fusion_lat": 0.0, "lon": -77.00330516666666}, {"fusion_lon": 0.0, "bike_id": "fe38f66a7892151f604ecf70b4dcd365", "is_disabled": 0, "is_reserved": 0, "lat": 38.899847, "name": "fe38f66a7892151f604ecf70b4dcd365", "rental_uris": {"ios": "https://dc.lft.to/lastmile_qr_scan", "android": "https://dc.lft.to/lastmile_qr_scan"}, "type": "electric_scooter", "fusion_lat": 0.0, "lon": -77.02620433333334}, {"fusion_lon": 0.0, "bike_id": "6f1d7af4ce48feaa8a0c52a4cdc6f74a", "is_disabled": 0, "is_reserved": 0, "lat": 38.930568, "name": "6f1d7af4ce48feaa8a0c52a4cdc6f74a", "rental_uris": {"ios": "https://dc.lft.to/lastmile_qr_scan", "android": "https://dc.lft.to/lastmile_qr_scan"}, "type": "electric_scooter", "fusion_lat": 0.0, "lon": -77.02324283333333}, {"fusion_lon": 0.0, "bike_id": "b04f7b5e3088bbef98be1f5bdb4c52f1", "is_disabled": 0, "is_reserved": 0, "lat": 38.90388016666667, "name": "b04f7b5e3088bbef98be1f5bdb4c52f1", "rental_uris": {"ios": "https://dc.lft.to/lastmile_qr_scan", "android": "https://dc.lft.to/lastmile_qr_scan"}, "type": "electric_scooter", "fusion_lat": 0.0, "lon": -77.048187}, {"fusion_lon": 0.0, "bike_id": "d60f33952726efc480fc34138056a6c4", "is_disabled": 0, "is_reserved": 0, "lat": 38.92880533333334, "name": "d60f33952726efc480fc34138056a6c4", "rental_uris": {"ios": "https://dc.lft.to/lastmile_qr_scan", "android": "https://dc.lft.to/lastmile_qr_scan"}, "type": "electric_scooter", "fusion_lat": 0.0, "lon": -77.01361466666667}, {"fusion_lon": 0.0, "bike_id": "b20d8ed7e2094ae8fa0f2470c571afc6", "is_disabled": 0, "is_reserved": 0, "lat": 38.91544316666667, "name": "b20d8ed7e2094ae8fa0f2470c571afc6", "rental_uris": {"ios": "https://dc.lft.to/lastmile_qr_scan", "android": "https://dc.lft.to/lastmile_qr_scan"}, "type": "electric_scooter", "fusion_lat": 0.0, "lon": -77.0442305}, {"fusion_lon": 0.0, "bike_id": "ca2f46cfd91c96c354bcb4d4810fd26d", "is_disabled": 0, "is_reserved": 0, "lat": 38.932002833333335, "name": "ca2f46cfd91c96c354bcb4d4810fd26d", "rental_uris": {"ios": "https://dc.lft.to/lastmile_qr_scan", "android": "https://dc.lft.to/lastmile_qr_scan"}, "type": "electric_scooter", "fusion_lat": 0.0, "lon": -77.01875166666666}, {"fusion_lon": 0.0, "bike_id": "83e37bff73a8925a47855c0ace454143", "is_disabled": 0, "is_reserved": 0, "lat": 38.92451883333333, "name": "83e37bff73a8925a47855c0ace454143", "rental_uris": {"ios": "https://dc.lft.to/lastmile_qr_scan", "android": "https://dc.lft.to/lastmile_qr_scan"}, "type": "electric_scooter", "fusion_lat": 0.0, "lon": -77.02036633333333}, {"fusion_lon": 0.0, "bike_id": "7f9d8a495a71f681b5d61441e0efbd73", "is_disabled": 0, "is_reserved": 0, "lat": 38.90180216666667, "name": "7f9d8a495a71f681b5d61441e0efbd73", "rental_uris": {"ios": "https://dc.lft.to/lastmile_qr_scan", "android": "https://dc.lft.to/lastmile_qr_scan"}, "type": "electric_scooter", "fusion_lat": 0.0, "lon": -77.04830566666666}, {"fusion_lon": 0.0, "bike_id": "c239dd369cc82b90e40a562585eae829", "is_disabled": 0, "is_reserved": 0, "lat": 38.890331333333336, "name": "c239dd369cc82b90e40a562585eae829", "rental_uris": {"ios": "https://dc.lft.to/lastmile_qr_scan", "android": "https://dc.lft.to/lastmile_qr_scan"}, "type": "electric_scooter", "fusion_lat": 0.0, "lon": -76.94463616666667}, {"fusion_lon": 0.0, "bike_id": "435ed54197e0bc11d3e37691e1da4490", "is_disabled": 0, "is_reserved": 0, "lat": 38.926195666666665, "name": "435ed54197e0bc11d3e37691e1da4490", "rental_uris": {"ios": "https://dc.lft.to/lastmile_qr_scan", "android": "https://dc.lft.to/lastmile_qr_scan"}, "type": "electric_scooter", "fusion_lat": 0.0, "lon": -77.0216335}, {"fusion_lon": 0.0, "bike_id": "1d0e168332a6a6bf2cf42bb9088d31f4", "is_disabled": 0, "is_reserved": 0, "lat": 38.9157065, "name": "1d0e168332a6a6bf2cf42bb9088d31f4", "rental_uris": {"ios": "https://dc.lft.to/lastmile_qr_scan", "android": "https://dc.lft.to/lastmile_qr_scan"}, "type": "electric_scooter", "fusion_lat": 0.0, "lon": -77.0199155}, {"fusion_lon": 0.0, "bike_id": "71e289f2cd3979b9b9dcd6d5cadca5c4", "is_disabled": 0, "is_reserved": 0, "lat": 38.91193366666667, "name": "71e289f2cd3979b9b9dcd6d5cadca5c4", "rental_uris": {"ios": "https://dc.lft.to/lastmile_qr_scan", "android": "https://dc.lft.to/lastmile_qr_scan"}, "type": "electric_scooter", "fusion_lat": 0.0, "lon": -77.04038316666667}, {"fusion_lon": 0.0, "bike_id": "4f9f4288f4dbe262b77a339167c93b34", "is_disabled": 0, "is_reserved": 0, "lat": 38.92160716666667, "name": "4f9f4288f4dbe262b77a339167c93b34", "rental_uris": {"ios": "https://dc.lft.to/lastmile_qr_scan", "android": "https://dc.lft.to/lastmile_qr_scan"}, "type": "electric_scooter", "fusion_lat": 0.0, "lon": -77.0435535}, {"fusion_lon": 0.0, "bike_id": "bcdea947ed12c2bcad052cf83364ea98", "is_disabled": 0, "is_reserved": 0, "lat": 38.934103666666665, "name": "bcdea947ed12c2bcad052cf83364ea98", "rental_uris": {"ios": "https://dc.lft.to/lastmile_qr_scan", "android": "https://dc.lft.to/lastmile_qr_scan"}, "type": "electric_scooter", "fusion_lat": 0.0, "lon": -77.04548483333333}, {"fusion_lon": 0.0, "bike_id": "e5f9e1501ba06dbcce7ac0de3af6f7a0", "is_disabled": 0, "is_reserved": 0, "lat": 38.877936, "name": "e5f9e1501ba06dbcce7ac0de3af6f7a0", "rental_uris": {"ios": "https://dc.lft.to/lastmile_qr_scan", "android": "https://dc.lft.to/lastmile_qr_scan"}, "type": "electric_scooter", "fusion_lat": 0.0, "lon": -77.00119816666667}, {"fusion_lon": 0.0, "bike_id": "1293a526427516ab2fe174d6bbfeedce", "is_disabled": 0, "is_reserved": 0, "lat": 38.9204765, "name": "1293a526427516ab2fe174d6bbfeedce", "rental_uris": {"ios": "https://dc.lft.to/lastmile_qr_scan", "android": "https://dc.lft.to/lastmile_qr_scan"}, "type": "electric_scooter", "fusion_lat": 0.0, "lon": -77.04190516666667}, {"fusion_lon": 0.0, "bike_id": "57369c928c18e18d595fe6f96718e892", "is_disabled": 0, "is_reserved": 0, "lat": 38.90893466666667, "name": "57369c928c18e18d595fe6f96718e892", "rental_uris": {"ios": "https://dc.lft.to/lastmile_qr_scan", "android": "https://dc.lft.to/lastmile_qr_scan"}, "type": "electric_bike", "fusion_lat": 0.0, "lon": -76.92488416666667}, {"fusion_lon": 0.0, "bike_id": "17a230d4646167832970e3b9a8dc508b", "is_disabled": 0, "is_reserved": 0, "lat": 38.91354, "name": "17a230d4646167832970e3b9a8dc508b", "rental_uris": {"ios": "https://dc.lft.to/lastmile_qr_scan", "android": "https://dc.lft.to/lastmile_qr_scan"}, "type": "electric_scooter", "fusion_lat": 0.0, "lon": -76.97140983333334}, {"fusion_lon": 0.0, "bike_id": "9ead704234faebb84d59e243ae4fa02f", "is_disabled": 0, "is_reserved": 0, "lat": 38.918208166666666, "name": "9ead704234faebb84d59e243ae4fa02f", "rental_uris": {"ios": "https://dc.lft.to/lastmile_qr_scan", "android": "https://dc.lft.to/lastmile_qr_scan"}, "type": "electric_scooter", "fusion_lat": 0.0, "lon": -77.02930316666666}, {"fusion_lon": 0.0, "bike_id": "40dfee21c138c2e30ee729d238d0c8ab", "is_disabled": 0, "is_reserved": 0, "lat": 38.869407833333334, "name": "40dfee21c138c2e30ee729d238d0c8ab", "rental_uris": {"ios": "https://dc.lft.to/lastmile_qr_scan", "android": "https://dc.lft.to/lastmile_qr_scan"}, "type": "electric_scooter", "fusion_lat": 0.0, "lon": -76.97743466666667}, {"fusion_lon": 0.0, "bike_id": "afed9fa3ceb477c18e60567015c7e125", "is_disabled": 0, "is_reserved": 0, "lat": 38.907790166666665, "name": "afed9fa3ceb477c18e60567015c7e125", "rental_uris": {"ios": "https://dc.lft.to/lastmile_qr_scan", "android": "https://dc.lft.to/lastmile_qr_scan"}, "type": "electric_scooter", "fusion_lat": 0.0, "lon": -76.998618}, {"fusion_lon": 0.0, "bike_id": "3d362a58924deaff97cbdf6b8ec6bbea", "is_disabled": 0, "is_reserved": 0, "lat": 38.90614383333333, "name": "3d362a58924deaff97cbdf6b8ec6bbea", "rental_uris": {"ios": "https://dc.lft.to/lastmile_qr_scan", "android": "https://dc.lft.to/lastmile_qr_scan"}, "type": "electric_scooter", "fusion_lat": 0.0, "lon": -77.05648733333334}, {"fusion_lon": 0.0, "bike_id": "664759123399e3f7ac94501cfefd48c6", "is_disabled": 0, "is_reserved": 0, "lat": 38.914878, "name": "664759123399e3f7ac94501cfefd48c6", "rental_uris": {"ios": "https://dc.lft.to/lastmile_qr_scan", "android": "https://dc.lft.to/lastmile_qr_scan"}, "type": "electric_scooter", "fusion_lat": 0.0, "lon": -77.03660016666667}, {"fusion_lon": 0.0, "bike_id": "39fe12c7abb41c2892587d0a45b26005", "is_disabled": 0, "is_reserved": 0, "lat": 38.924596333333334, "name": "39fe12c7abb41c2892587d0a45b26005", "rental_uris": {"ios": "https://dc.lft.to/lastmile_qr_scan", "android": "https://dc.lft.to/lastmile_qr_scan"}, "type": "electric_scooter", "fusion_lat": 0.0, "lon": -77.03290416666667}, {"fusion_lon": 0.0, "bike_id": "6c284bdf5b0a5d1037d7d948b0e91175", "is_disabled": 0, "is_reserved": 0, "lat": 38.91705966666667, "name": "6c284bdf5b0a5d1037d7d948b0e91175", "rental_uris": {"ios": "https://dc.lft.to/lastmile_qr_scan", "android": "https://dc.lft.to/lastmile_qr_scan"}, "type": "electric_scooter", "fusion_lat": 0.0, "lon": -77.010433}, {"fusion_lon": 0.0, "bike_id": "94338b3f1af77e22be2892543eca0c17", "is_disabled": 0, "is_reserved": 0, "lat": 38.924223833333336, "name": "94338b3f1af77e22be2892543eca0c17", "rental_uris": {"ios": "https://dc.lft.to/lastmile_qr_scan", "android": "https://dc.lft.to/lastmile_qr_scan"}, "type": "electric_scooter", "fusion_lat": 0.0, "lon": -77.0200975}, {"fusion_lon": 0.0, "bike_id": "a89f287b3030a5c88e821d3c0519596c", "is_disabled": 0, "is_reserved": 0, "lat": 38.89737566666667, "name": "a89f287b3030a5c88e821d3c0519596c", "rental_uris": {"ios": "https://dc.lft.to/lastmile_qr_scan", "android": "https://dc.lft.to/lastmile_qr_scan"}, "type": "electric_scooter", "fusion_lat": 0.0, "lon": -77.02708716666666}, {"fusion_lon": 0.0, "bike_id": "b98f58e15809ecfadef24a9362f11ff6", "is_disabled": 0, "is_reserved": 0, "lat": 38.85446733333333, "name": "b98f58e15809ecfadef24a9362f11ff6", "rental_uris": {"ios": "https://dc.lft.to/lastmile_qr_scan", "android": "https://dc.lft.to/lastmile_qr_scan"}, "type": "electric_scooter", "fusion_lat": 0.0, "lon": -76.986121}, {"fusion_lon": 0.0, "bike_id": "a8eda7caaf9b5c4fd77120232ca88206", "is_disabled": 0, "is_reserved": 0, "lat": 38.92422966666667, "name": "a8eda7caaf9b5c4fd77120232ca88206", "rental_uris": {"ios": "https://dc.lft.to/lastmile_qr_scan", "android": "https://dc.lft.to/lastmile_qr_scan"}, "type": "electric_scooter", "fusion_lat": 0.0, "lon": -77.020145}, {"fusion_lon": 0.0, "bike_id": "c39c8938c120252a7149786dbc2c8efd", "is_disabled": 0, "is_reserved": 0, "lat": 38.93289633333333, "name": "c39c8938c120252a7149786dbc2c8efd", "rental_uris": {"ios": "https://dc.lft.to/lastmile_qr_scan", "android": "https://dc.lft.to/lastmile_qr_scan"}, "type": "electric_scooter", "fusion_lat": 0.0, "lon": -76.98647866666667}, {"fusion_lon": 0.0, "bike_id": "de9b173f3dd7305c7608425201d51144", "is_disabled": 0, "is_reserved": 0, "lat": 38.91921166666667, "name": "de9b173f3dd7305c7608425201d51144", "rental_uris": {"ios": "https://dc.lft.to/lastmile_qr_scan", "android": "https://dc.lft.to/lastmile_qr_scan"}, "type": "electric_scooter", "fusion_lat": 0.0, "lon": -77.034186}, {"fusion_lon": 0.0, "bike_id": "20204b0de5a0b1a2975820303a238a05", "is_disabled": 0, "is_reserved": 0, "lat": 38.974427666666664, "name": "20204b0de5a0b1a2975820303a238a05", "rental_uris": {"ios": "https://dc.lft.to/lastmile_qr_scan", "android": "https://dc.lft.to/lastmile_qr_scan"}, "type": "electric_bike", "fusion_lat": 0.0, "lon": -77.09617733333333}, {"fusion_lon": 0.0, "bike_id": "6b3678ce1f06da1e59a1308971fe610d", "is_disabled": 0, "is_reserved": 0, "lat": 38.936864, "name": "6b3678ce1f06da1e59a1308971fe610d", "rental_uris": {"ios": "https://dc.lft.to/lastmile_qr_scan", "android": "https://dc.lft.to/lastmile_qr_scan"}, "type": "electric_scooter", "fusion_lat": 0.0, "lon": -77.08431416666667}, {"fusion_lon": 0.0, "bike_id": "d1573cb04bb25089a4e3b7f3ab1d108b", "is_disabled": 0, "is_reserved": 0, "lat": 38.884378833333336, "name": "d1573cb04bb25089a4e3b7f3ab1d108b", "rental_uris": {"ios": "https://dc.lft.to/lastmile_qr_scan", "android": "https://dc.lft.to/lastmile_qr_scan"}, "type": "electric_scooter", "fusion_lat": 0.0, "lon": -77.0304285}, {"fusion_lon": 0.0, "bike_id": "2a331f009d4c203ebf83576be1f6f526", "is_disabled": 0, "is_reserved": 0, "lat": 38.9048155, "name": "2a331f009d4c203ebf83576be1f6f526", "rental_uris": {"ios": "https://dc.lft.to/lastmile_qr_scan", "android": "https://dc.lft.to/lastmile_qr_scan"}, "type": "electric_scooter", "fusion_lat": 0.0, "lon": -77.03547133333333}, {"fusion_lon": 0.0, "bike_id": "631869603ddb13b9c86c964b23d9a069", "is_disabled": 0, "is_reserved": 0, "lat": 38.9015715, "name": "631869603ddb13b9c86c964b23d9a069", "rental_uris": {"ios": "https://dc.lft.to/lastmile_qr_scan", "android": "https://dc.lft.to/lastmile_qr_scan"}, "type": "electric_scooter", "fusion_lat": 0.0, "lon": -76.98640833333333}, {"fusion_lon": 0.0, "bike_id": "a98b9b5e69aa0f83207edec5b894c55d", "is_disabled": 0, "is_reserved": 0, "lat": 38.8762895, "name": "a98b9b5e69aa0f83207edec5b894c55d", "rental_uris": {"ios": "https://dc.lft.to/lastmile_qr_scan", "android": "https://dc.lft.to/lastmile_qr_scan"}, "type": "electric_scooter", "fusion_lat": 0.0, "lon": -77.007347}, {"fusion_lon": 0.0, "bike_id": "d5b04297259864fa004e7e06841eaa9f", "is_disabled": 0, "is_reserved": 0, "lat": 38.87470866666666, "name": "d5b04297259864fa004e7e06841eaa9f", "rental_uris": {"ios": "https://dc.lft.to/lastmile_qr_scan", "android": "https://dc.lft.to/lastmile_qr_scan"}, "type": "electric_scooter", "fusion_lat": 0.0, "lon": -77.00517466666666}, {"fusion_lon": 0.0, "bike_id": "383082378fedff341d3cc08f340dcd01", "is_disabled": 0, "is_reserved": 0, "lat": 38.883286166666664, "name": "383082378fedff341d3cc08f340dcd01", "rental_uris": {"ios": "https://dc.lft.to/lastmile_qr_scan", "android": "https://dc.lft.to/lastmile_qr_scan"}, "type": "electric_scooter", "fusion_lat": 0.0, "lon": -77.015073}, {"fusion_lon": 0.0, "bike_id": "4b29f76ec8a29732a132ce946bdc3990", "is_disabled": 0, "is_reserved": 0, "lat": 38.910416166666664, "name": "4b29f76ec8a29732a132ce946bdc3990", "rental_uris": {"ios": "https://dc.lft.to/lastmile_qr_scan", "android": "https://dc.lft.to/lastmile_qr_scan"}, "type": "electric_scooter", "fusion_lat": 0.0, "lon": -77.013786}, {"fusion_lon": 0.0, "bike_id": "a73ceaea0bdb6bc576c9ba9f3d053c89", "is_disabled": 0, "is_reserved": 0, "lat": 38.8960165, "name": "a73ceaea0bdb6bc576c9ba9f3d053c89", "rental_uris": {"ios": "https://dc.lft.to/lastmile_qr_scan", "android": "https://dc.lft.to/lastmile_qr_scan"}, "type": "electric_scooter", "fusion_lat": 0.0, "lon": -77.02210166666667}, {"fusion_lon": 0.0, "bike_id": "32e6e72d1bde3052b020366c2e31256c", "is_disabled": 0, "is_reserved": 0, "lat": 38.91941883333333, "name": "32e6e72d1bde3052b020366c2e31256c", "rental_uris": {"ios": "https://dc.lft.to/lastmile_qr_scan", "android": "https://dc.lft.to/lastmile_qr_scan"}, "type": "electric_scooter", "fusion_lat": 0.0, "lon": -77.04799466666667}, {"fusion_lon": 0.0, "bike_id": "1e82c321ea47dd2248f4e74aff10a976", "is_disabled": 0, "is_reserved": 0, "lat": 38.91110166666667, "name": "1e82c321ea47dd2248f4e74aff10a976", "rental_uris": {"ios": "https://dc.lft.to/lastmile_qr_scan", "android": "https://dc.lft.to/lastmile_qr_scan"}, "type": "electric_scooter", "fusion_lat": 0.0, "lon": -77.02101266666666}, {"fusion_lon": 0.0, "bike_id": "d7ba299c3a7fefb2df98e63fe1044180", "is_disabled": 0, "is_reserved": 0, "lat": 38.90955183333333, "name": "d7ba299c3a7fefb2df98e63fe1044180", "rental_uris": {"ios": "https://dc.lft.to/lastmile_qr_scan", "android": "https://dc.lft.to/lastmile_qr_scan"}, "type": "electric_scooter", "fusion_lat": 0.0, "lon": -77.012755}, {"fusion_lon": 0.0, "bike_id": "5198df229a4b91765df795b0183a21ad", "is_disabled": 0, "is_reserved": 0, "lat": 38.9243275, "name": "5198df229a4b91765df795b0183a21ad", "rental_uris": {"ios": "https://dc.lft.to/lastmile_qr_scan", "android": "https://dc.lft.to/lastmile_qr_scan"}, "type": "electric_scooter", "fusion_lat": 0.0, "lon": -77.04046466666667}, {"fusion_lon": 0.0, "bike_id": "30ad838f54c08ab17177dd92eb41272c", "is_disabled": 0, "is_reserved": 0, "lat": 38.8381345, "name": "30ad838f54c08ab17177dd92eb41272c", "rental_uris": {"ios": "https://dc.lft.to/lastmile_qr_scan", "android": "https://dc.lft.to/lastmile_qr_scan"}, "type": "electric_bike", "fusion_lat": 0.0, "lon": -77.09521016666666}, {"fusion_lon": 0.0, "bike_id": "2c680cd6ba731844ad8d1458051c18bd", "is_disabled": 0, "is_reserved": 0, "lat": 38.91983283333333, "name": "2c680cd6ba731844ad8d1458051c18bd", "rental_uris": {"ios": "https://dc.lft.to/lastmile_qr_scan", "android": "https://dc.lft.to/lastmile_qr_scan"}, "type": "electric_scooter", "fusion_lat": 0.0, "lon": -77.02365716666667}, {"fusion_lon": 0.0, "bike_id": "e6f13cfa1a66b5ed6d5a53ab5d32b034", "is_disabled": 0, "is_reserved": 0, "lat": 38.90602533333333, "name": "e6f13cfa1a66b5ed6d5a53ab5d32b034", "rental_uris": {"ios": "https://dc.lft.to/lastmile_qr_scan", "android": "https://dc.lft.to/lastmile_qr_scan"}, "type": "electric_scooter", "fusion_lat": 0.0, "lon": -77.07384616666667}, {"fusion_lon": 0.0, "bike_id": "e968137267420c9b15d0cd480477b7fb", "is_disabled": 0, "is_reserved": 0, "lat": 38.931044666666665, "name": "e968137267420c9b15d0cd480477b7fb", "rental_uris": {"ios": "https://dc.lft.to/lastmile_qr_scan", "android": "https://dc.lft.to/lastmile_qr_scan"}, "type": "electric_scooter", "fusion_lat": 0.0, "lon": -77.02665366666666}, {"fusion_lon": 0.0, "bike_id": "a2b5d637f27e158c2afe3ea8098b2a3a", "is_disabled": 0, "is_reserved": 0, "lat": 38.888635, "name": "a2b5d637f27e158c2afe3ea8098b2a3a", "rental_uris": {"ios": "https://dc.lft.to/lastmile_qr_scan", "android": "https://dc.lft.to/lastmile_qr_scan"}, "type": "electric_scooter", "fusion_lat": 0.0, "lon": -77.00184633333333}, {"fusion_lon": 0.0, "bike_id": "b5303e4bf56535b22e8a13535cdd2e37", "is_disabled": 0, "is_reserved": 0, "lat": 38.91273283333334, "name": "b5303e4bf56535b22e8a13535cdd2e37", "rental_uris": {"ios": "https://dc.lft.to/lastmile_qr_scan", "android": "https://dc.lft.to/lastmile_qr_scan"}, "type": "electric_scooter", "fusion_lat": 0.0, "lon": -77.038734}, {"fusion_lon": 0.0, "bike_id": "60b57106b7b5091bd482511e74ed8010", "is_disabled": 0, "is_reserved": 0, "lat": 38.905478, "name": "60b57106b7b5091bd482511e74ed8010", "rental_uris": {"ios": "https://dc.lft.to/lastmile_qr_scan", "android": "https://dc.lft.to/lastmile_qr_scan"}, "type": "electric_scooter", "fusion_lat": 0.0, "lon": -77.02207783333333}, {"fusion_lon": 0.0, "bike_id": "fb3fab2658a203ac95f1a2493b0606cc", "is_disabled": 0, "is_reserved": 0, "lat": 38.897421666666666, "name": "fb3fab2658a203ac95f1a2493b0606cc", "rental_uris": {"ios": "https://dc.lft.to/lastmile_qr_scan", "android": "https://dc.lft.to/lastmile_qr_scan"}, "type": "electric_scooter", "fusion_lat": 0.0, "lon": -77.04948383333333}, {"fusion_lon": 0.0, "bike_id": "7948187e483698662683dadab43ef36e", "is_disabled": 0, "is_reserved": 0, "lat": 38.911761, "name": "7948187e483698662683dadab43ef36e", "rental_uris": {"ios": "https://dc.lft.to/lastmile_qr_scan", "android": "https://dc.lft.to/lastmile_qr_scan"}, "type": "electric_scooter", "fusion_lat": 0.0, "lon": -77.029582}, {"fusion_lon": 0.0, "bike_id": "9ba40209dfd1d96f9f9a5e7106a66e99", "is_disabled": 0, "is_reserved": 0, "lat": 38.937181, "name": "9ba40209dfd1d96f9f9a5e7106a66e99", "rental_uris": {"ios": "https://dc.lft.to/lastmile_qr_scan", "android": "https://dc.lft.to/lastmile_qr_scan"}, "type": "electric_scooter", "fusion_lat": 0.0, "lon": -77.02417616666666}, {"fusion_lon": 0.0, "bike_id": "0705f16629ecd36fb46d88ac202571c8", "is_disabled": 0, "is_reserved": 0, "lat": 38.91494566666667, "name": "0705f16629ecd36fb46d88ac202571c8", "rental_uris": {"ios": "https://dc.lft.to/lastmile_qr_scan", "android": "https://dc.lft.to/lastmile_qr_scan"}, "type": "electric_scooter", "fusion_lat": 0.0, "lon": -77.03822466666666}, {"fusion_lon": 0.0, "bike_id": "fc10a1a4d5d1b4fb5f07b7a21a8a6916", "is_disabled": 0, "is_reserved": 0, "lat": 38.945736833333335, "name": "fc10a1a4d5d1b4fb5f07b7a21a8a6916", "rental_uris": {"ios": "https://dc.lft.to/lastmile_qr_scan", "android": "https://dc.lft.to/lastmile_qr_scan"}, "type": "electric_bike", "fusion_lat": 0.0, "lon": -76.9811605}, {"fusion_lon": 0.0, "bike_id": "e6973d8065b5e9e794f4c036c5b24734", "is_disabled": 0, "is_reserved": 0, "lat": 38.90032716666666, "name": "e6973d8065b5e9e794f4c036c5b24734", "rental_uris": {"ios": "https://dc.lft.to/lastmile_qr_scan", "android": "https://dc.lft.to/lastmile_qr_scan"}, "type": "electric_scooter", "fusion_lat": 0.0, "lon": -77.01996666666666}, {"fusion_lon": 0.0, "bike_id": "abd563390c56f613d39d55b6bc69abed", "is_disabled": 0, "is_reserved": 0, "lat": 38.988874333333335, "name": "abd563390c56f613d39d55b6bc69abed", "rental_uris": {"ios": "https://dc.lft.to/lastmile_qr_scan", "android": "https://dc.lft.to/lastmile_qr_scan"}, "type": "electric_bike", "fusion_lat": 0.0, "lon": -76.9880395}, {"fusion_lon": 0.0, "bike_id": "5bc3e54d048174cc1ca4af247832af5b", "is_disabled": 0, "is_reserved": 0, "lat": 38.89719783333334, "name": "5bc3e54d048174cc1ca4af247832af5b", "rental_uris": {"ios": "https://dc.lft.to/lastmile_qr_scan", "android": "https://dc.lft.to/lastmile_qr_scan"}, "type": "electric_scooter", "fusion_lat": 0.0, "lon": -77.00803933333333}, {"fusion_lon": 0.0, "bike_id": "da83e54eb84902e2d18c26e1d34273f5", "is_disabled": 0, "is_reserved": 0, "lat": 38.9319145, "name": "da83e54eb84902e2d18c26e1d34273f5", "rental_uris": {"ios": "https://dc.lft.to/lastmile_qr_scan", "android": "https://dc.lft.to/lastmile_qr_scan"}, "type": "electric_scooter", "fusion_lat": 0.0, "lon": -77.02568583333333}, {"fusion_lon": 0.0, "bike_id": "6fc694359517033e5b5790d8c744d232", "is_disabled": 0, "is_reserved": 0, "lat": 38.92252, "name": "6fc694359517033e5b5790d8c744d232", "rental_uris": {"ios": "https://dc.lft.to/lastmile_qr_scan", "android": "https://dc.lft.to/lastmile_qr_scan"}, "type": "electric_scooter", "fusion_lat": 0.0, "lon": -77.019488}, {"fusion_lon": 0.0, "bike_id": "84c2178e1e971fd990ce24b97a355547", "is_disabled": 0, "is_reserved": 0, "lat": 38.90727283333333, "name": "84c2178e1e971fd990ce24b97a355547", "rental_uris": {"ios": "https://dc.lft.to/lastmile_qr_scan", "android": "https://dc.lft.to/lastmile_qr_scan"}, "type": "electric_scooter", "fusion_lat": 0.0, "lon": -77.00795216666667}, {"fusion_lon": 0.0, "bike_id": "8772a4e90082c223a7c5102bef7b186a", "is_disabled": 0, "is_reserved": 0, "lat": 38.90835116666667, "name": "8772a4e90082c223a7c5102bef7b186a", "rental_uris": {"ios": "https://dc.lft.to/lastmile_qr_scan", "android": "https://dc.lft.to/lastmile_qr_scan"}, "type": "electric_scooter", "fusion_lat": 0.0, "lon": -77.03301616666667}, {"fusion_lon": 0.0, "bike_id": "fbcf07aaec4fe28f991090744a0cf4f0", "is_disabled": 0, "is_reserved": 0, "lat": 38.9234, "name": "fbcf07aaec4fe28f991090744a0cf4f0", "rental_uris": {"ios": "https://dc.lft.to/lastmile_qr_scan", "android": "https://dc.lft.to/lastmile_qr_scan"}, "type": "electric_scooter", "fusion_lat": 0.0, "lon": -77.05622366666667}, {"fusion_lon": 0.0, "bike_id": "a3a5b25f2bb06f118391a8476ece5d42", "is_disabled": 0, "is_reserved": 0, "lat": 38.89780316666667, "name": "a3a5b25f2bb06f118391a8476ece5d42", "rental_uris": {"ios": "https://dc.lft.to/lastmile_qr_scan", "android": "https://dc.lft.to/lastmile_qr_scan"}, "type": "electric_scooter", "fusion_lat": 0.0, "lon": -77.01191116666666}, {"fusion_lon": 0.0, "bike_id": "242277a4f1bcc1cdbf22d50ab19e794c", "is_disabled": 0, "is_reserved": 0, "lat": 38.96789866666667, "name": "242277a4f1bcc1cdbf22d50ab19e794c", "rental_uris": {"ios": "https://dc.lft.to/lastmile_qr_scan", "android": "https://dc.lft.to/lastmile_qr_scan"}, "type": "electric_scooter", "fusion_lat": 0.0, "lon": -77.0244045}, {"fusion_lon": 0.0, "bike_id": "6c860910d9822e3a7ba276ebfbeac7d3", "is_disabled": 0, "is_reserved": 0, "lat": 38.8955685, "name": "6c860910d9822e3a7ba276ebfbeac7d3", "rental_uris": {"ios": "https://dc.lft.to/lastmile_qr_scan", "android": "https://dc.lft.to/lastmile_qr_scan"}, "type": "electric_scooter", "fusion_lat": 0.0, "lon": -77.0091675}, {"fusion_lon": 0.0, "bike_id": "445f09af35510755ce25cd9221ae5c7e", "is_disabled": 0, "is_reserved": 0, "lat": 38.887747166666664, "name": "445f09af35510755ce25cd9221ae5c7e", "rental_uris": {"ios": "https://dc.lft.to/lastmile_qr_scan", "android": "https://dc.lft.to/lastmile_qr_scan"}, "type": "electric_scooter", "fusion_lat": 0.0, "lon": -76.93263166666667}, {"fusion_lon": 0.0, "bike_id": "dca658dfd8defa09567f45bf5c232fe5", "is_disabled": 0, "is_reserved": 0, "lat": 38.91328816666667, "name": "dca658dfd8defa09567f45bf5c232fe5", "rental_uris": {"ios": "https://dc.lft.to/lastmile_qr_scan", "android": "https://dc.lft.to/lastmile_qr_scan"}, "type": "electric_scooter", "fusion_lat": 0.0, "lon": -77.043473}, {"fusion_lon": 0.0, "bike_id": "2339b0eea8e154b7c86e643a36643a45", "is_disabled": 0, "is_reserved": 0, "lat": 38.92171583333333, "name": "2339b0eea8e154b7c86e643a36643a45", "rental_uris": {"ios": "https://dc.lft.to/lastmile_qr_scan", "android": "https://dc.lft.to/lastmile_qr_scan"}, "type": "electric_scooter", "fusion_lat": 0.0, "lon": -77.04024433333333}, {"fusion_lon": 0.0, "bike_id": "2d9176ef2d1e89ea90684d35f2fb976c", "is_disabled": 0, "is_reserved": 0, "lat": 38.92287566666667, "name": "2d9176ef2d1e89ea90684d35f2fb976c", "rental_uris": {"ios": "https://dc.lft.to/lastmile_qr_scan", "android": "https://dc.lft.to/lastmile_qr_scan"}, "type": "electric_scooter", "fusion_lat": 0.0, "lon": -77.03657733333333}, {"fusion_lon": 0.0, "bike_id": "1f432399b2d2ffe7a8501ce3c29ce1f2", "is_disabled": 0, "is_reserved": 0, "lat": 38.89255333333333, "name": "1f432399b2d2ffe7a8501ce3c29ce1f2", "rental_uris": {"ios": "https://dc.lft.to/lastmile_qr_scan", "android": "https://dc.lft.to/lastmile_qr_scan"}, "type": "electric_scooter", "fusion_lat": 0.0, "lon": -77.0450745}, {"fusion_lon": 0.0, "bike_id": "7144318a4ae6c8da8fce5fb88a83e2d6", "is_disabled": 0, "is_reserved": 0, "lat": 38.917750166666664, "name": "7144318a4ae6c8da8fce5fb88a83e2d6", "rental_uris": {"ios": "https://dc.lft.to/lastmile_qr_scan", "android": "https://dc.lft.to/lastmile_qr_scan"}, "type": "electric_scooter", "fusion_lat": 0.0, "lon": -77.04751283333333}, {"fusion_lon": 0.0, "bike_id": "1efa3d70076d4ecbcd90a537dd53700a", "is_disabled": 0, "is_reserved": 0, "lat": 38.8996175, "name": "1efa3d70076d4ecbcd90a537dd53700a", "rental_uris": {"ios": "https://dc.lft.to/lastmile_qr_scan", "android": "https://dc.lft.to/lastmile_qr_scan"}, "type": "electric_scooter", "fusion_lat": 0.0, "lon": -77.04509266666666}, {"fusion_lon": 0.0, "bike_id": "b6c1731f9593c54445d3f4e40f51e2cc", "is_disabled": 0, "is_reserved": 0, "lat": 38.91379116666667, "name": "b6c1731f9593c54445d3f4e40f51e2cc", "rental_uris": {"ios": "https://dc.lft.to/lastmile_qr_scan", "android": "https://dc.lft.to/lastmile_qr_scan"}, "type": "electric_scooter", "fusion_lat": 0.0, "lon": -77.02054}, {"fusion_lon": 0.0, "bike_id": "8437bc07e9a7c1a4a87bde791be0fa79", "is_disabled": 0, "is_reserved": 0, "lat": 38.94637783333334, "name": "8437bc07e9a7c1a4a87bde791be0fa79", "rental_uris": {"ios": "https://dc.lft.to/lastmile_qr_scan", "android": "https://dc.lft.to/lastmile_qr_scan"}, "type": "electric_bike", "fusion_lat": 0.0, "lon": -76.993088}, {"fusion_lon": 0.0, "bike_id": "a5b4fdaa5264460cca3134f829b3a4f9", "is_disabled": 0, "is_reserved": 0, "lat": 38.96490033333333, "name": "a5b4fdaa5264460cca3134f829b3a4f9", "rental_uris": {"ios": "https://dc.lft.to/lastmile_qr_scan", "android": "https://dc.lft.to/lastmile_qr_scan"}, "type": "electric_bike", "fusion_lat": 0.0, "lon": -77.02858866666666}, {"fusion_lon": 0.0, "bike_id": "45119f03dbc17421a4372e15468ee2e8", "is_disabled": 0, "is_reserved": 0, "lat": 38.91115533333333, "name": "45119f03dbc17421a4372e15468ee2e8", "rental_uris": {"ios": "https://dc.lft.to/lastmile_qr_scan", "android": "https://dc.lft.to/lastmile_qr_scan"}, "type": "electric_scooter", "fusion_lat": 0.0, "lon": -77.02234366666667}, {"fusion_lon": 0.0, "bike_id": "fca3a038e1c001186db12c0496c9294a", "is_disabled": 0, "is_reserved": 0, "lat": 38.80441016666666, "name": "fca3a038e1c001186db12c0496c9294a", "rental_uris": {"ios": "https://dc.lft.to/lastmile_qr_scan", "android": "https://dc.lft.to/lastmile_qr_scan"}, "type": "electric_bike", "fusion_lat": 0.0, "lon": -77.06084683333333}, {"fusion_lon": 0.0, "bike_id": "5b8e540b991c43f9a9a5e80007055048", "is_disabled": 0, "is_reserved": 0, "lat": 38.92367933333333, "name": "5b8e540b991c43f9a9a5e80007055048", "rental_uris": {"ios": "https://dc.lft.to/lastmile_qr_scan", "android": "https://dc.lft.to/lastmile_qr_scan"}, "type": "electric_scooter", "fusion_lat": 0.0, "lon": -77.019568}, {"fusion_lon": 0.0, "bike_id": "fc873da3bdff6e50204c418d0e917b20", "is_disabled": 0, "is_reserved": 0, "lat": 38.90352766666667, "name": "fc873da3bdff6e50204c418d0e917b20", "rental_uris": {"ios": "https://dc.lft.to/lastmile_qr_scan", "android": "https://dc.lft.to/lastmile_qr_scan"}, "type": "electric_scooter", "fusion_lat": 0.0, "lon": -77.04936133333334}, {"fusion_lon": 0.0, "bike_id": "4cffe1269ae058b6d8634a77f3c8b454", "is_disabled": 0, "is_reserved": 0, "lat": 38.919223333333335, "name": "4cffe1269ae058b6d8634a77f3c8b454", "rental_uris": {"ios": "https://dc.lft.to/lastmile_qr_scan", "android": "https://dc.lft.to/lastmile_qr_scan"}, "type": "electric_scooter", "fusion_lat": 0.0, "lon": -77.03418716666667}, {"fusion_lon": 0.0, "bike_id": "28057c7f1949add65563b2e40f7ca70c", "is_disabled": 0, "is_reserved": 0, "lat": 38.923437166666666, "name": "28057c7f1949add65563b2e40f7ca70c", "rental_uris": {"ios": "https://dc.lft.to/lastmile_qr_scan", "android": "https://dc.lft.to/lastmile_qr_scan"}, "type": "electric_scooter", "fusion_lat": 0.0, "lon": -77.0213395}, {"fusion_lon": 0.0, "bike_id": "f0217e139110ab4f1e50e66ae1fb36d6", "is_disabled": 0, "is_reserved": 0, "lat": 38.9213255, "name": "f0217e139110ab4f1e50e66ae1fb36d6", "rental_uris": {"ios": "https://dc.lft.to/lastmile_qr_scan", "android": "https://dc.lft.to/lastmile_qr_scan"}, "type": "electric_scooter", "fusion_lat": 0.0, "lon": -77.0207915}, {"fusion_lon": 0.0, "bike_id": "657ae43267950e0766d80ceac57c2131", "is_disabled": 0, "is_reserved": 0, "lat": 38.899765, "name": "657ae43267950e0766d80ceac57c2131", "rental_uris": {"ios": "https://dc.lft.to/lastmile_qr_scan", "android": "https://dc.lft.to/lastmile_qr_scan"}, "type": "electric_scooter", "fusion_lat": 0.0, "lon": -76.99490216666666}, {"fusion_lon": 0.0, "bike_id": "8c8351242d294c538d8b9ef041211f21", "is_disabled": 0, "is_reserved": 0, "lat": 38.87763566666667, "name": "8c8351242d294c538d8b9ef041211f21", "rental_uris": {"ios": "https://dc.lft.to/lastmile_qr_scan", "android": "https://dc.lft.to/lastmile_qr_scan"}, "type": "electric_scooter", "fusion_lat": 0.0, "lon": -77.0188385}, {"fusion_lon": 0.0, "bike_id": "3ce9a3b5685c8d6053d67175b84dc081", "is_disabled": 0, "is_reserved": 0, "lat": 38.907509833333336, "name": "3ce9a3b5685c8d6053d67175b84dc081", "rental_uris": {"ios": "https://dc.lft.to/lastmile_qr_scan", "android": "https://dc.lft.to/lastmile_qr_scan"}, "type": "electric_bike", "fusion_lat": 0.0, "lon": -77.00304783333333}, {"fusion_lon": 0.0, "bike_id": "26bcb558333d0b1475776e35cac26b71", "is_disabled": 0, "is_reserved": 0, "lat": 38.91913783333333, "name": "26bcb558333d0b1475776e35cac26b71", "rental_uris": {"ios": "https://dc.lft.to/lastmile_qr_scan", "android": "https://dc.lft.to/lastmile_qr_scan"}, "type": "electric_scooter", "fusion_lat": 0.0, "lon": -77.04626766666667}, {"fusion_lon": 0.0, "bike_id": "0424d1df04715f5d29eac16f74a65cea", "is_disabled": 0, "is_reserved": 0, "lat": 38.966962333333335, "name": "0424d1df04715f5d29eac16f74a65cea", "rental_uris": {"ios": "https://dc.lft.to/lastmile_qr_scan", "android": "https://dc.lft.to/lastmile_qr_scan"}, "type": "electric_scooter", "fusion_lat": 0.0, "lon": -77.03399783333333}, {"fusion_lon": 0.0, "bike_id": "a1b25c481dca4504d220504c5efd2c7f", "is_disabled": 0, "is_reserved": 0, "lat": 38.881841, "name": "a1b25c481dca4504d220504c5efd2c7f", "rental_uris": {"ios": "https://dc.lft.to/lastmile_qr_scan", "android": "https://dc.lft.to/lastmile_qr_scan"}, "type": "electric_scooter", "fusion_lat": 0.0, "lon": -77.01745566666666}, {"fusion_lon": 0.0, "bike_id": "2b27cdc4a11c0faf6ba52f914113ffcc", "is_disabled": 0, "is_reserved": 0, "lat": 38.90169233333334, "name": "2b27cdc4a11c0faf6ba52f914113ffcc", "rental_uris": {"ios": "https://dc.lft.to/lastmile_qr_scan", "android": "https://dc.lft.to/lastmile_qr_scan"}, "type": "electric_scooter", "fusion_lat": 0.0, "lon": -77.05129816666667}, {"fusion_lon": 0.0, "bike_id": "645ed871ba60ae1cdd80bc0577fa87e6", "is_disabled": 0, "is_reserved": 0, "lat": 38.911147666666665, "name": "645ed871ba60ae1cdd80bc0577fa87e6", "rental_uris": {"ios": "https://dc.lft.to/lastmile_qr_scan", "android": "https://dc.lft.to/lastmile_qr_scan"}, "type": "electric_scooter", "fusion_lat": 0.0, "lon": -77.01151433333334}, {"fusion_lon": 0.0, "bike_id": "f6514b33b8954b1af673cf3645400287", "is_disabled": 0, "is_reserved": 0, "lat": 38.967792333333335, "name": "f6514b33b8954b1af673cf3645400287", "rental_uris": {"ios": "https://dc.lft.to/lastmile_qr_scan", "android": "https://dc.lft.to/lastmile_qr_scan"}, "type": "electric_bike", "fusion_lat": 0.0, "lon": -76.99656883333333}, {"fusion_lon": 0.0, "bike_id": "c0727630fea5c975b7fed9ae88cb6d77", "is_disabled": 0, "is_reserved": 0, "lat": 38.911119666666664, "name": "c0727630fea5c975b7fed9ae88cb6d77", "rental_uris": {"ios": "https://dc.lft.to/lastmile_qr_scan", "android": "https://dc.lft.to/lastmile_qr_scan"}, "type": "electric_scooter", "fusion_lat": 0.0, "lon": -77.03827816666667}, {"fusion_lon": 0.0, "bike_id": "40bef260327aa2102760b16485e2eb8d", "is_disabled": 0, "is_reserved": 0, "lat": 38.9426715, "name": "40bef260327aa2102760b16485e2eb8d", "rental_uris": {"ios": "https://dc.lft.to/lastmile_qr_scan", "android": "https://dc.lft.to/lastmile_qr_scan"}, "type": "electric_scooter", "fusion_lat": 0.0, "lon": -77.02979283333333}, {"fusion_lon": 0.0, "bike_id": "21e3ea47f8da196c6083142654ebfd61", "is_disabled": 0, "is_reserved": 0, "lat": 38.92759083333333, "name": "21e3ea47f8da196c6083142654ebfd61", "rental_uris": {"ios": "https://dc.lft.to/lastmile_qr_scan", "android": "https://dc.lft.to/lastmile_qr_scan"}, "type": "electric_scooter", "fusion_lat": 0.0, "lon": -77.032978}, {"fusion_lon": 0.0, "bike_id": "331ff7f2f65d16c92f6a9570c68446d9", "is_disabled": 0, "is_reserved": 0, "lat": 38.9247815, "name": "331ff7f2f65d16c92f6a9570c68446d9", "rental_uris": {"ios": "https://dc.lft.to/lastmile_qr_scan", "android": "https://dc.lft.to/lastmile_qr_scan"}, "type": "electric_scooter", "fusion_lat": 0.0, "lon": -77.026674}, {"fusion_lon": 0.0, "bike_id": "8aed76be532d449f2bd52b18c74a75d9", "is_disabled": 0, "is_reserved": 0, "lat": 38.918824, "name": "8aed76be532d449f2bd52b18c74a75d9", "rental_uris": {"ios": "https://dc.lft.to/lastmile_qr_scan", "android": "https://dc.lft.to/lastmile_qr_scan"}, "type": "electric_scooter", "fusion_lat": 0.0, "lon": -77.04475716666667}, {"fusion_lon": 0.0, "bike_id": "abf3abaf82e08843588c807698e84fc2", "is_disabled": 0, "is_reserved": 0, "lat": 38.87454316666667, "name": "abf3abaf82e08843588c807698e84fc2", "rental_uris": {"ios": "https://dc.lft.to/lastmile_qr_scan", "android": "https://dc.lft.to/lastmile_qr_scan"}, "type": "electric_scooter", "fusion_lat": 0.0, "lon": -77.00066316666667}, {"fusion_lon": 0.0, "bike_id": "3cdf92e3e307796065e9af4998b916f7", "is_disabled": 0, "is_reserved": 0, "lat": 38.908219, "name": "3cdf92e3e307796065e9af4998b916f7", "rental_uris": {"ios": "https://dc.lft.to/lastmile_qr_scan", "android": "https://dc.lft.to/lastmile_qr_scan"}, "type": "electric_scooter", "fusion_lat": 0.0, "lon": -77.031953}, {"fusion_lon": 0.0, "bike_id": "48907a30e2b7c3b2b3646fc7d6058935", "is_disabled": 0, "is_reserved": 0, "lat": 38.874662666666666, "name": "48907a30e2b7c3b2b3646fc7d6058935", "rental_uris": {"ios": "https://dc.lft.to/lastmile_qr_scan", "android": "https://dc.lft.to/lastmile_qr_scan"}, "type": "electric_scooter", "fusion_lat": 0.0, "lon": -77.01572016666667}, {"fusion_lon": 0.0, "bike_id": "04ce666193c9b7de5f3f4dff48375643", "is_disabled": 0, "is_reserved": 0, "lat": 38.92161466666667, "name": "04ce666193c9b7de5f3f4dff48375643", "rental_uris": {"ios": "https://dc.lft.to/lastmile_qr_scan", "android": "https://dc.lft.to/lastmile_qr_scan"}, "type": "electric_scooter", "fusion_lat": 0.0, "lon": -77.031971}, {"fusion_lon": 0.0, "bike_id": "7f632a831f49ac57ce9adfcda3dc1184", "is_disabled": 0, "is_reserved": 0, "lat": 38.936445166666665, "name": "7f632a831f49ac57ce9adfcda3dc1184", "rental_uris": {"ios": "https://dc.lft.to/lastmile_qr_scan", "android": "https://dc.lft.to/lastmile_qr_scan"}, "type": "electric_scooter", "fusion_lat": 0.0, "lon": -77.0200405}, {"fusion_lon": 0.0, "bike_id": "fcdd3212a14bd41077cd721fda94c60c", "is_disabled": 0, "is_reserved": 0, "lat": 38.9040465, "name": "fcdd3212a14bd41077cd721fda94c60c", "rental_uris": {"ios": "https://dc.lft.to/lastmile_qr_scan", "android": "https://dc.lft.to/lastmile_qr_scan"}, "type": "electric_scooter", "fusion_lat": 0.0, "lon": -77.02055033333333}, {"fusion_lon": 0.0, "bike_id": "11ada07be2be058d9b5fb0f4fe4e8986", "is_disabled": 0, "is_reserved": 0, "lat": 38.9663205, "name": "11ada07be2be058d9b5fb0f4fe4e8986", "rental_uris": {"ios": "https://dc.lft.to/lastmile_qr_scan", "android": "https://dc.lft.to/lastmile_qr_scan"}, "type": "electric_scooter", "fusion_lat": 0.0, "lon": -77.02746883333333}, {"fusion_lon": 0.0, "bike_id": "db81949547a5b7f1c4f730a4631dfb43", "is_disabled": 0, "is_reserved": 0, "lat": 38.905665666666664, "name": "db81949547a5b7f1c4f730a4631dfb43", "rental_uris": {"ios": "https://dc.lft.to/lastmile_qr_scan", "android": "https://dc.lft.to/lastmile_qr_scan"}, "type": "electric_scooter", "fusion_lat": 0.0, "lon": -77.04331333333333}, {"fusion_lon": 0.0, "bike_id": "5ffbde568e596d7ea45aa55ecba78d65", "is_disabled": 0, "is_reserved": 0, "lat": 38.897919333333334, "name": "5ffbde568e596d7ea45aa55ecba78d65", "rental_uris": {"ios": "https://dc.lft.to/lastmile_qr_scan", "android": "https://dc.lft.to/lastmile_qr_scan"}, "type": "electric_scooter", "fusion_lat": 0.0, "lon": -77.0497165}, {"fusion_lon": 0.0, "bike_id": "d648cf7bfe19a6370c259fce45258655", "is_disabled": 0, "is_reserved": 0, "lat": 38.91696533333333, "name": "d648cf7bfe19a6370c259fce45258655", "rental_uris": {"ios": "https://dc.lft.to/lastmile_qr_scan", "android": "https://dc.lft.to/lastmile_qr_scan"}, "type": "electric_scooter", "fusion_lat": 0.0, "lon": -77.03497783333333}, {"fusion_lon": 0.0, "bike_id": "2af30103a7f9fc3a2bd84470ce7afb3f", "is_disabled": 0, "is_reserved": 0, "lat": 38.92082816666667, "name": "2af30103a7f9fc3a2bd84470ce7afb3f", "rental_uris": {"ios": "https://dc.lft.to/lastmile_qr_scan", "android": "https://dc.lft.to/lastmile_qr_scan"}, "type": "electric_scooter", "fusion_lat": 0.0, "lon": -77.03879533333334}, {"fusion_lon": 0.0, "bike_id": "a19156364a857a1ffbd5ae25a4466149", "is_disabled": 0, "is_reserved": 0, "lat": 38.9195585, "name": "a19156364a857a1ffbd5ae25a4466149", "rental_uris": {"ios": "https://dc.lft.to/lastmile_qr_scan", "android": "https://dc.lft.to/lastmile_qr_scan"}, "type": "electric_scooter", "fusion_lat": 0.0, "lon": -77.01387933333334}, {"fusion_lon": 0.0, "bike_id": "9b8af7024f2f3797ae013fbd1a9ae548", "is_disabled": 0, "is_reserved": 0, "lat": 38.901022833333336, "name": "9b8af7024f2f3797ae013fbd1a9ae548", "rental_uris": {"ios": "https://dc.lft.to/lastmile_qr_scan", "android": "https://dc.lft.to/lastmile_qr_scan"}, "type": "electric_scooter", "fusion_lat": 0.0, "lon": -77.01617583333334}, {"fusion_lon": 0.0, "bike_id": "030c5d0b7ed7d2d82c16f85a79ba3774", "is_disabled": 0, "is_reserved": 0, "lat": 38.942711, "name": "030c5d0b7ed7d2d82c16f85a79ba3774", "rental_uris": {"ios": "https://dc.lft.to/lastmile_qr_scan", "android": "https://dc.lft.to/lastmile_qr_scan"}, "type": "electric_scooter", "fusion_lat": 0.0, "lon": -77.0294305}, {"fusion_lon": 0.0, "bike_id": "5230e805c1948c585f70cffbabdd1f38", "is_disabled": 0, "is_reserved": 0, "lat": 38.94350016666667, "name": "5230e805c1948c585f70cffbabdd1f38", "rental_uris": {"ios": "https://dc.lft.to/lastmile_qr_scan", "android": "https://dc.lft.to/lastmile_qr_scan"}, "type": "electric_scooter", "fusion_lat": 0.0, "lon": -77.02602366666666}, {"fusion_lon": 0.0, "bike_id": "ded616cddb4efa2cb84e872124aefc67", "is_disabled": 0, "is_reserved": 0, "lat": 38.92715966666667, "name": "ded616cddb4efa2cb84e872124aefc67", "rental_uris": {"ios": "https://dc.lft.to/lastmile_qr_scan", "android": "https://dc.lft.to/lastmile_qr_scan"}, "type": "electric_scooter", "fusion_lat": 0.0, "lon": -77.02104783333333}, {"fusion_lon": 0.0, "bike_id": "8cee2c57be66acd158ca270516cfcbbc", "is_disabled": 0, "is_reserved": 0, "lat": 38.925057, "name": "8cee2c57be66acd158ca270516cfcbbc", "rental_uris": {"ios": "https://dc.lft.to/lastmile_qr_scan", "android": "https://dc.lft.to/lastmile_qr_scan"}, "type": "electric_scooter", "fusion_lat": 0.0, "lon": -77.02162483333333}, {"fusion_lon": 0.0, "bike_id": "b261cc98b4ec2b82df5bcdaab067accf", "is_disabled": 0, "is_reserved": 0, "lat": 38.90969166666667, "name": "b261cc98b4ec2b82df5bcdaab067accf", "rental_uris": {"ios": "https://dc.lft.to/lastmile_qr_scan", "android": "https://dc.lft.to/lastmile_qr_scan"}, "type": "electric_scooter", "fusion_lat": 0.0, "lon": -77.0335325}, {"fusion_lon": 0.0, "bike_id": "3f586d88fcdde985d60f545738534964", "is_disabled": 0, "is_reserved": 0, "lat": 38.92234466666667, "name": "3f586d88fcdde985d60f545738534964", "rental_uris": {"ios": "https://dc.lft.to/lastmile_qr_scan", "android": "https://dc.lft.to/lastmile_qr_scan"}, "type": "electric_scooter", "fusion_lat": 0.0, "lon": -77.028279}, {"fusion_lon": 0.0, "bike_id": "42db2d2c4f2f6dcf22a16e49690c25c6", "is_disabled": 0, "is_reserved": 0, "lat": 38.9008125, "name": "42db2d2c4f2f6dcf22a16e49690c25c6", "rental_uris": {"ios": "https://dc.lft.to/lastmile_qr_scan", "android": "https://dc.lft.to/lastmile_qr_scan"}, "type": "electric_scooter", "fusion_lat": 0.0, "lon": -77.04759616666666}, {"fusion_lon": 0.0, "bike_id": "d9f8ed88c1083dc18db611fb7aa887a2", "is_disabled": 0, "is_reserved": 0, "lat": 38.897265, "name": "d9f8ed88c1083dc18db611fb7aa887a2", "rental_uris": {"ios": "https://dc.lft.to/lastmile_qr_scan", "android": "https://dc.lft.to/lastmile_qr_scan"}, "type": "electric_scooter", "fusion_lat": 0.0, "lon": -76.99462983333333}, {"fusion_lon": 0.0, "bike_id": "a592e18f94acae1b68c799f04e09c18f", "is_disabled": 0, "is_reserved": 0, "lat": 38.87671916666667, "name": "a592e18f94acae1b68c799f04e09c18f", "rental_uris": {"ios": "https://dc.lft.to/lastmile_qr_scan", "android": "https://dc.lft.to/lastmile_qr_scan"}, "type": "electric_scooter", "fusion_lat": 0.0, "lon": -77.01937483333333}, {"fusion_lon": 0.0, "bike_id": "d27a86597eaa0ae7f6c63fec50998843", "is_disabled": 0, "is_reserved": 0, "lat": 38.9048705, "name": "d27a86597eaa0ae7f6c63fec50998843", "rental_uris": {"ios": "https://dc.lft.to/lastmile_qr_scan", "android": "https://dc.lft.to/lastmile_qr_scan"}, "type": "electric_scooter", "fusion_lat": 0.0, "lon": -76.94964583333334}, {"fusion_lon": 0.0, "bike_id": "4f171744017a7a68a766dce6961e359f", "is_disabled": 0, "is_reserved": 0, "lat": 38.91806833333333, "name": "4f171744017a7a68a766dce6961e359f", "rental_uris": {"ios": "https://dc.lft.to/lastmile_qr_scan", "android": "https://dc.lft.to/lastmile_qr_scan"}, "type": "electric_scooter", "fusion_lat": 0.0, "lon": -77.03437566666666}, {"fusion_lon": 0.0, "bike_id": "bbd78e1b718064cef006d68580834c33", "is_disabled": 0, "is_reserved": 0, "lat": 38.90963083333333, "name": "bbd78e1b718064cef006d68580834c33", "rental_uris": {"ios": "https://dc.lft.to/lastmile_qr_scan", "android": "https://dc.lft.to/lastmile_qr_scan"}, "type": "electric_scooter", "fusion_lat": 0.0, "lon": -77.02416516666666}, {"fusion_lon": 0.0, "bike_id": "6b7943e5a3172e1922608e1dde0d55e2", "is_disabled": 0, "is_reserved": 0, "lat": 38.908704666666665, "name": "6b7943e5a3172e1922608e1dde0d55e2", "rental_uris": {"ios": "https://dc.lft.to/lastmile_qr_scan", "android": "https://dc.lft.to/lastmile_qr_scan"}, "type": "electric_scooter", "fusion_lat": 0.0, "lon": -77.07165466666666}, {"fusion_lon": 0.0, "bike_id": "849c5468406c13cc061ef7210bd85ca7", "is_disabled": 0, "is_reserved": 0, "lat": 38.88027783333333, "name": "849c5468406c13cc061ef7210bd85ca7", "rental_uris": {"ios": "https://dc.lft.to/lastmile_qr_scan", "android": "https://dc.lft.to/lastmile_qr_scan"}, "type": "electric_bike", "fusion_lat": 0.0, "lon": -76.917237}, {"fusion_lon": 0.0, "bike_id": "973b670d59f0db23b8d5490297dfa0f5", "is_disabled": 0, "is_reserved": 0, "lat": 38.920518333333334, "name": "973b670d59f0db23b8d5490297dfa0f5", "rental_uris": {"ios": "https://dc.lft.to/lastmile_qr_scan", "android": "https://dc.lft.to/lastmile_qr_scan"}, "type": "electric_scooter", "fusion_lat": 0.0, "lon": -77.041876}, {"fusion_lon": 0.0, "bike_id": "eb2ee700721727dcd239f9aea900e2ea", "is_disabled": 0, "is_reserved": 0, "lat": 38.93746683333333, "name": "eb2ee700721727dcd239f9aea900e2ea", "rental_uris": {"ios": "https://dc.lft.to/lastmile_qr_scan", "android": "https://dc.lft.to/lastmile_qr_scan"}, "type": "electric_scooter", "fusion_lat": 0.0, "lon": -77.07359133333334}, {"fusion_lon": 0.0, "bike_id": "eac7be1ceb9667b4cf581d5560cbc354", "is_disabled": 0, "is_reserved": 0, "lat": 38.92736466666667, "name": "eac7be1ceb9667b4cf581d5560cbc354", "rental_uris": {"ios": "https://dc.lft.to/lastmile_qr_scan", "android": "https://dc.lft.to/lastmile_qr_scan"}, "type": "electric_bike", "fusion_lat": 0.0, "lon": -76.99364966666667}, {"fusion_lon": 0.0, "bike_id": "99ddc72a6e124848ebf0a54d941c4f82", "is_disabled": 0, "is_reserved": 0, "lat": 38.888763, "name": "99ddc72a6e124848ebf0a54d941c4f82", "rental_uris": {"ios": "https://dc.lft.to/lastmile_qr_scan", "android": "https://dc.lft.to/lastmile_qr_scan"}, "type": "electric_scooter", "fusion_lat": 0.0, "lon": -76.99031066666667}, {"fusion_lon": 0.0, "bike_id": "0c835a0231604a28974ae6bc23ed3dab", "is_disabled": 0, "is_reserved": 0, "lat": 38.91485516666667, "name": "0c835a0231604a28974ae6bc23ed3dab", "rental_uris": {"ios": "https://dc.lft.to/lastmile_qr_scan", "android": "https://dc.lft.to/lastmile_qr_scan"}, "type": "electric_scooter", "fusion_lat": 0.0, "lon": -77.02185216666666}, {"fusion_lon": 0.0, "bike_id": "337866957b0ca5dd8978b72c5af419b5", "is_disabled": 0, "is_reserved": 0, "lat": 38.9064055, "name": "337866957b0ca5dd8978b72c5af419b5", "rental_uris": {"ios": "https://dc.lft.to/lastmile_qr_scan", "android": "https://dc.lft.to/lastmile_qr_scan"}, "type": "electric_scooter", "fusion_lat": 0.0, "lon": -76.99487966666666}, {"fusion_lon": 0.0, "bike_id": "b80cb0f6b6f1c9fe3b80a9b80dcbddb3", "is_disabled": 0, "is_reserved": 0, "lat": 38.93145366666667, "name": "b80cb0f6b6f1c9fe3b80a9b80dcbddb3", "rental_uris": {"ios": "https://dc.lft.to/lastmile_qr_scan", "android": "https://dc.lft.to/lastmile_qr_scan"}, "type": "electric_scooter", "fusion_lat": 0.0, "lon": -77.07841966666666}, {"fusion_lon": 0.0, "bike_id": "84163527e5b86ca87a272b185e438753", "is_disabled": 0, "is_reserved": 0, "lat": 38.91547716666667, "name": "84163527e5b86ca87a272b185e438753", "rental_uris": {"ios": "https://dc.lft.to/lastmile_qr_scan", "android": "https://dc.lft.to/lastmile_qr_scan"}, "type": "electric_scooter", "fusion_lat": 0.0, "lon": -76.98506883333333}, {"fusion_lon": 0.0, "bike_id": "9fd5413ef5a22b1f134acb0d76d6c17d", "is_disabled": 0, "is_reserved": 0, "lat": 38.907600333333335, "name": "9fd5413ef5a22b1f134acb0d76d6c17d", "rental_uris": {"ios": "https://dc.lft.to/lastmile_qr_scan", "android": "https://dc.lft.to/lastmile_qr_scan"}, "type": "electric_scooter", "fusion_lat": 0.0, "lon": -77.04534733333334}, {"fusion_lon": 0.0, "bike_id": "6bf8b6dbe09be52596f006aaf4768ed7", "is_disabled": 0, "is_reserved": 0, "lat": 38.923336166666665, "name": "6bf8b6dbe09be52596f006aaf4768ed7", "rental_uris": {"ios": "https://dc.lft.to/lastmile_qr_scan", "android": "https://dc.lft.to/lastmile_qr_scan"}, "type": "electric_scooter", "fusion_lat": 0.0, "lon": -77.0205095}, {"fusion_lon": 0.0, "bike_id": "2a8b8f52657c71194407d0ab41001a0e", "is_disabled": 0, "is_reserved": 0, "lat": 38.90075733333333, "name": "2a8b8f52657c71194407d0ab41001a0e", "rental_uris": {"ios": "https://dc.lft.to/lastmile_qr_scan", "android": "https://dc.lft.to/lastmile_qr_scan"}, "type": "electric_scooter", "fusion_lat": 0.0, "lon": -77.050502}, {"fusion_lon": 0.0, "bike_id": "12b55780e65b34895f07b3b5f07482fd", "is_disabled": 0, "is_reserved": 0, "lat": 38.893352, "name": "12b55780e65b34895f07b3b5f07482fd", "rental_uris": {"ios": "https://dc.lft.to/lastmile_qr_scan", "android": "https://dc.lft.to/lastmile_qr_scan"}, "type": "electric_scooter", "fusion_lat": 0.0, "lon": -76.95056266666667}, {"fusion_lon": 0.0, "bike_id": "95af16ddc03e82aef220b2cbf1ad8eb9", "is_disabled": 0, "is_reserved": 0, "lat": 38.913418166666666, "name": "95af16ddc03e82aef220b2cbf1ad8eb9", "rental_uris": {"ios": "https://dc.lft.to/lastmile_qr_scan", "android": "https://dc.lft.to/lastmile_qr_scan"}, "type": "electric_scooter", "fusion_lat": 0.0, "lon": -77.025816}, {"fusion_lon": 0.0, "bike_id": "9090fe10452512f637e9362d14333b62", "is_disabled": 0, "is_reserved": 0, "lat": 38.90324066666667, "name": "9090fe10452512f637e9362d14333b62", "rental_uris": {"ios": "https://dc.lft.to/lastmile_qr_scan", "android": "https://dc.lft.to/lastmile_qr_scan"}, "type": "electric_scooter", "fusion_lat": 0.0, "lon": -77.03649733333333}, {"fusion_lon": 0.0, "bike_id": "403ced50385616929b87a8ab928f123d", "is_disabled": 0, "is_reserved": 0, "lat": 38.911576, "name": "403ced50385616929b87a8ab928f123d", "rental_uris": {"ios": "https://dc.lft.to/lastmile_qr_scan", "android": "https://dc.lft.to/lastmile_qr_scan"}, "type": "electric_scooter", "fusion_lat": 0.0, "lon": -77.01995383333333}, {"fusion_lon": 0.0, "bike_id": "5cab5f3e1043d06d75e96c65b6cab7bc", "is_disabled": 0, "is_reserved": 0, "lat": 38.921763166666665, "name": "5cab5f3e1043d06d75e96c65b6cab7bc", "rental_uris": {"ios": "https://dc.lft.to/lastmile_qr_scan", "android": "https://dc.lft.to/lastmile_qr_scan"}, "type": "electric_scooter", "fusion_lat": 0.0, "lon": -77.02672933333334}, {"fusion_lon": 0.0, "bike_id": "3d057c7b05cf3028b2c2b0a8e4ce58aa", "is_disabled": 0, "is_reserved": 0, "lat": 38.99865033333333, "name": "3d057c7b05cf3028b2c2b0a8e4ce58aa", "rental_uris": {"ios": "https://dc.lft.to/lastmile_qr_scan", "android": "https://dc.lft.to/lastmile_qr_scan"}, "type": "electric_bike", "fusion_lat": 0.0, "lon": -77.00385883333334}, {"fusion_lon": 0.0, "bike_id": "d4f4e8144568f154fcc6908d865a1d56", "is_disabled": 0, "is_reserved": 0, "lat": 38.90787983333333, "name": "d4f4e8144568f154fcc6908d865a1d56", "rental_uris": {"ios": "https://dc.lft.to/lastmile_qr_scan", "android": "https://dc.lft.to/lastmile_qr_scan"}, "type": "electric_scooter", "fusion_lat": 0.0, "lon": -77.0724485}, {"fusion_lon": 0.0, "bike_id": "9b81068af593958f0f5df6082f12a29c", "is_disabled": 0, "is_reserved": 0, "lat": 38.89219216666667, "name": "9b81068af593958f0f5df6082f12a29c", "rental_uris": {"ios": "https://dc.lft.to/lastmile_qr_scan", "android": "https://dc.lft.to/lastmile_qr_scan"}, "type": "electric_scooter", "fusion_lat": 0.0, "lon": -77.02541433333333}, {"fusion_lon": 0.0, "bike_id": "111687f6f8491533faf4a75bf2eb789b", "is_disabled": 0, "is_reserved": 0, "lat": 38.92494966666667, "name": "111687f6f8491533faf4a75bf2eb789b", "rental_uris": {"ios": "https://dc.lft.to/lastmile_qr_scan", "android": "https://dc.lft.to/lastmile_qr_scan"}, "type": "electric_scooter", "fusion_lat": 0.0, "lon": -77.043429}, {"fusion_lon": 0.0, "bike_id": "f7774e94c0c62883da352c090b02655c", "is_disabled": 0, "is_reserved": 0, "lat": 38.905467333333334, "name": "f7774e94c0c62883da352c090b02655c", "rental_uris": {"ios": "https://dc.lft.to/lastmile_qr_scan", "android": "https://dc.lft.to/lastmile_qr_scan"}, "type": "electric_scooter", "fusion_lat": 0.0, "lon": -76.98648816666666}, {"fusion_lon": 0.0, "bike_id": "587a87e39a99c9be0ab0390f61404d95", "is_disabled": 0, "is_reserved": 0, "lat": 38.92367216666667, "name": "587a87e39a99c9be0ab0390f61404d95", "rental_uris": {"ios": "https://dc.lft.to/lastmile_qr_scan", "android": "https://dc.lft.to/lastmile_qr_scan"}, "type": "electric_scooter", "fusion_lat": 0.0, "lon": -77.01958133333333}, {"fusion_lon": 0.0, "bike_id": "285d54122735ed9a4532f79b9dbcf59a", "is_disabled": 0, "is_reserved": 0, "lat": 38.893317833333334, "name": "285d54122735ed9a4532f79b9dbcf59a", "rental_uris": {"ios": "https://dc.lft.to/lastmile_qr_scan", "android": "https://dc.lft.to/lastmile_qr_scan"}, "type": "electric_scooter", "fusion_lat": 0.0, "lon": -77.0337735}, {"fusion_lon": 0.0, "bike_id": "42930ba81cdc3ccbad1a6e1f089908a6", "is_disabled": 0, "is_reserved": 0, "lat": 38.913713, "name": "42930ba81cdc3ccbad1a6e1f089908a6", "rental_uris": {"ios": "https://dc.lft.to/lastmile_qr_scan", "android": "https://dc.lft.to/lastmile_qr_scan"}, "type": "electric_scooter", "fusion_lat": 0.0, "lon": -77.00819316666667}, {"fusion_lon": 0.0, "bike_id": "4367f96c3007353b362349ccb43838d7", "is_disabled": 0, "is_reserved": 0, "lat": 38.901801166666665, "name": "4367f96c3007353b362349ccb43838d7", "rental_uris": {"ios": "https://dc.lft.to/lastmile_qr_scan", "android": "https://dc.lft.to/lastmile_qr_scan"}, "type": "electric_scooter", "fusion_lat": 0.0, "lon": -77.02488683333333}, {"fusion_lon": 0.0, "bike_id": "64c2284eb5ef533367a74d3c9b6677e3", "is_disabled": 0, "is_reserved": 0, "lat": 38.89625366666667, "name": "64c2284eb5ef533367a74d3c9b6677e3", "rental_uris": {"ios": "https://dc.lft.to/lastmile_qr_scan", "android": "https://dc.lft.to/lastmile_qr_scan"}, "type": "electric_scooter", "fusion_lat": 0.0, "lon": -77.00353216666667}, {"fusion_lon": 0.0, "bike_id": "5f31edd314edf1515721495c05576e63", "is_disabled": 0, "is_reserved": 0, "lat": 38.93557416666667, "name": "5f31edd314edf1515721495c05576e63", "rental_uris": {"ios": "https://dc.lft.to/lastmile_qr_scan", "android": "https://dc.lft.to/lastmile_qr_scan"}, "type": "electric_scooter", "fusion_lat": 0.0, "lon": -77.025061}, {"fusion_lon": 0.0, "bike_id": "5b9f68e08d33326f3ec7e2e79b2c7886", "is_disabled": 0, "is_reserved": 0, "lat": 38.9295455, "name": "5b9f68e08d33326f3ec7e2e79b2c7886", "rental_uris": {"ios": "https://dc.lft.to/lastmile_qr_scan", "android": "https://dc.lft.to/lastmile_qr_scan"}, "type": "electric_scooter", "fusion_lat": 0.0, "lon": -77.05510133333334}, {"fusion_lon": 0.0, "bike_id": "db8021bda37d1d34cf6be190b3a21f46", "is_disabled": 0, "is_reserved": 0, "lat": 38.97477083333333, "name": "db8021bda37d1d34cf6be190b3a21f46", "rental_uris": {"ios": "https://dc.lft.to/lastmile_qr_scan", "android": "https://dc.lft.to/lastmile_qr_scan"}, "type": "electric_bike", "fusion_lat": 0.0, "lon": -76.98673533333333}, {"fusion_lon": 0.0, "bike_id": "248491dc1cc7f9f69bc34b7d6bc81c8a", "is_disabled": 0, "is_reserved": 0, "lat": 38.9133005, "name": "248491dc1cc7f9f69bc34b7d6bc81c8a", "rental_uris": {"ios": "https://dc.lft.to/lastmile_qr_scan", "android": "https://dc.lft.to/lastmile_qr_scan"}, "type": "electric_scooter", "fusion_lat": 0.0, "lon": -77.02198883333334}, {"fusion_lon": 0.0, "bike_id": "09cd6ad4d774a4ee5533bf3e5bc8dc96", "is_disabled": 0, "is_reserved": 0, "lat": 38.8050715, "name": "09cd6ad4d774a4ee5533bf3e5bc8dc96", "rental_uris": {"ios": "https://dc.lft.to/lastmile_qr_scan", "android": "https://dc.lft.to/lastmile_qr_scan"}, "type": "electric_bike", "fusion_lat": 0.0, "lon": -77.04814516666667}, {"fusion_lon": 0.0, "bike_id": "5b4053ef4b9c9cc30775214f36649e7f", "is_disabled": 0, "is_reserved": 0, "lat": 38.9279335, "name": "5b4053ef4b9c9cc30775214f36649e7f", "rental_uris": {"ios": "https://dc.lft.to/lastmile_qr_scan", "android": "https://dc.lft.to/lastmile_qr_scan"}, "type": "electric_scooter", "fusion_lat": 0.0, "lon": -77.036218}, {"fusion_lon": 0.0, "bike_id": "d77e848a5836abcf1d4149476a25e20f", "is_disabled": 0, "is_reserved": 0, "lat": 38.893799333333334, "name": "d77e848a5836abcf1d4149476a25e20f", "rental_uris": {"ios": "https://dc.lft.to/lastmile_qr_scan", "android": "https://dc.lft.to/lastmile_qr_scan"}, "type": "electric_scooter", "fusion_lat": 0.0, "lon": -77.02453933333334}, {"fusion_lon": 0.0, "bike_id": "9cee845b217f7ed4e33baafd2acbb74a", "is_disabled": 0, "is_reserved": 0, "lat": 38.92150083333333, "name": "9cee845b217f7ed4e33baafd2acbb74a", "rental_uris": {"ios": "https://dc.lft.to/lastmile_qr_scan", "android": "https://dc.lft.to/lastmile_qr_scan"}, "type": "electric_scooter", "fusion_lat": 0.0, "lon": -77.02081816666667}, {"fusion_lon": 0.0, "bike_id": "12c9b71e9c2a621536a6732b1f8a7658", "is_disabled": 0, "is_reserved": 0, "lat": 38.927972833333335, "name": "12c9b71e9c2a621536a6732b1f8a7658", "rental_uris": {"ios": "https://dc.lft.to/lastmile_qr_scan", "android": "https://dc.lft.to/lastmile_qr_scan"}, "type": "electric_scooter", "fusion_lat": 0.0, "lon": -77.02597966666667}, {"fusion_lon": 0.0, "bike_id": "e9f3b13a023b7a177877af5cd4be0880", "is_disabled": 0, "is_reserved": 0, "lat": 39.022982166666665, "name": "e9f3b13a023b7a177877af5cd4be0880", "rental_uris": {"ios": "https://dc.lft.to/lastmile_qr_scan", "android": "https://dc.lft.to/lastmile_qr_scan"}, "type": "electric_bike", "fusion_lat": 0.0, "lon": -77.02108416666667}, {"fusion_lon": 0.0, "bike_id": "dcc6c9c9524d88354d2e7d6a8a4f0ce2", "is_disabled": 0, "is_reserved": 0, "lat": 38.904409666666666, "name": "dcc6c9c9524d88354d2e7d6a8a4f0ce2", "rental_uris": {"ios": "https://dc.lft.to/lastmile_qr_scan", "android": "https://dc.lft.to/lastmile_qr_scan"}, "type": "electric_scooter", "fusion_lat": 0.0, "lon": -77.028396}, {"fusion_lon": 0.0, "bike_id": "df9a29f2e7a139b4397d97b334017689", "is_disabled": 0, "is_reserved": 0, "lat": 38.89426533333334, "name": "df9a29f2e7a139b4397d97b334017689", "rental_uris": {"ios": "https://dc.lft.to/lastmile_qr_scan", "android": "https://dc.lft.to/lastmile_qr_scan"}, "type": "electric_bike", "fusion_lat": 0.0, "lon": -77.09443633333333}, {"fusion_lon": 0.0, "bike_id": "5cfe9478dd8cbc8eab35b02d6905787e", "is_disabled": 0, "is_reserved": 0, "lat": 38.91710233333333, "name": "5cfe9478dd8cbc8eab35b02d6905787e", "rental_uris": {"ios": "https://dc.lft.to/lastmile_qr_scan", "android": "https://dc.lft.to/lastmile_qr_scan"}, "type": "electric_scooter", "fusion_lat": 0.0, "lon": -77.02416016666666}, {"fusion_lon": 0.0, "bike_id": "dc938901eb0d5974149acf9fc739b16b", "is_disabled": 0, "is_reserved": 0, "lat": 38.901925, "name": "dc938901eb0d5974149acf9fc739b16b", "rental_uris": {"ios": "https://dc.lft.to/lastmile_qr_scan", "android": "https://dc.lft.to/lastmile_qr_scan"}, "type": "electric_scooter", "fusion_lat": 0.0, "lon": -76.97678}, {"fusion_lon": 0.0, "bike_id": "2252c26e2e2635bc5436f71534e70a5c", "is_disabled": 0, "is_reserved": 0, "lat": 38.8729085, "name": "2252c26e2e2635bc5436f71534e70a5c", "rental_uris": {"ios": "https://dc.lft.to/lastmile_qr_scan", "android": "https://dc.lft.to/lastmile_qr_scan"}, "type": "electric_scooter", "fusion_lat": 0.0, "lon": -77.00989916666667}, {"fusion_lon": 0.0, "bike_id": "1a40c59d92531edf321f6dd8033a3f5e", "is_disabled": 0, "is_reserved": 0, "lat": 38.92676433333333, "name": "1a40c59d92531edf321f6dd8033a3f5e", "rental_uris": {"ios": "https://dc.lft.to/lastmile_qr_scan", "android": "https://dc.lft.to/lastmile_qr_scan"}, "type": "electric_scooter", "fusion_lat": 0.0, "lon": -77.01514133333333}, {"fusion_lon": 0.0, "bike_id": "7fcec88ee38b44121f72854455421adb", "is_disabled": 0, "is_reserved": 0, "lat": 38.9309695, "name": "7fcec88ee38b44121f72854455421adb", "rental_uris": {"ios": "https://dc.lft.to/lastmile_qr_scan", "android": "https://dc.lft.to/lastmile_qr_scan"}, "type": "electric_scooter", "fusion_lat": 0.0, "lon": -77.0255155}, {"fusion_lon": 0.0, "bike_id": "b4d74d11bad383b74dad11ead90219c8", "is_disabled": 0, "is_reserved": 0, "lat": 38.927897, "name": "b4d74d11bad383b74dad11ead90219c8", "rental_uris": {"ios": "https://dc.lft.to/lastmile_qr_scan", "android": "https://dc.lft.to/lastmile_qr_scan"}, "type": "electric_scooter", "fusion_lat": 0.0, "lon": -77.01409583333333}, {"fusion_lon": 0.0, "bike_id": "2b396cccad14bb8c2249e75c971aef58", "is_disabled": 0, "is_reserved": 0, "lat": 39.034739, "name": "2b396cccad14bb8c2249e75c971aef58", "rental_uris": {"ios": "https://dc.lft.to/lastmile_qr_scan", "android": "https://dc.lft.to/lastmile_qr_scan"}, "type": "electric_bike", "fusion_lat": 0.0, "lon": -77.04102716666667}, {"fusion_lon": 0.0, "bike_id": "b668be377d8743f8e7b922ee8f611d4d", "is_disabled": 0, "is_reserved": 0, "lat": 38.93344066666667, "name": "b668be377d8743f8e7b922ee8f611d4d", "rental_uris": {"ios": "https://dc.lft.to/lastmile_qr_scan", "android": "https://dc.lft.to/lastmile_qr_scan"}, "type": "electric_scooter", "fusion_lat": 0.0, "lon": -77.05719233333333}, {"fusion_lon": 0.0, "bike_id": "c5e87f2eb6dfbd5abe881d14a91026b1", "is_disabled": 0, "is_reserved": 0, "lat": 38.92743466666667, "name": "c5e87f2eb6dfbd5abe881d14a91026b1", "rental_uris": {"ios": "https://dc.lft.to/lastmile_qr_scan", "android": "https://dc.lft.to/lastmile_qr_scan"}, "type": "electric_scooter", "fusion_lat": 0.0, "lon": -77.03562433333333}, {"fusion_lon": 0.0, "bike_id": "b54146d0597a4de311d485e195ee0193", "is_disabled": 0, "is_reserved": 0, "lat": 38.9002975, "name": "b54146d0597a4de311d485e195ee0193", "rental_uris": {"ios": "https://dc.lft.to/lastmile_qr_scan", "android": "https://dc.lft.to/lastmile_qr_scan"}, "type": "electric_scooter", "fusion_lat": 0.0, "lon": -76.9884495}, {"fusion_lon": 0.0, "bike_id": "b2c5f47727d2fc01567663d0bb4f31ec", "is_disabled": 0, "is_reserved": 0, "lat": 38.895101333333336, "name": "b2c5f47727d2fc01567663d0bb4f31ec", "rental_uris": {"ios": "https://dc.lft.to/lastmile_qr_scan", "android": "https://dc.lft.to/lastmile_qr_scan"}, "type": "electric_scooter", "fusion_lat": 0.0, "lon": -76.94884466666667}, {"fusion_lon": 0.0, "bike_id": "7b7fa5b7a9904bc238e3441037f67e99", "is_disabled": 0, "is_reserved": 0, "lat": 38.90027166666667, "name": "7b7fa5b7a9904bc238e3441037f67e99", "rental_uris": {"ios": "https://dc.lft.to/lastmile_qr_scan", "android": "https://dc.lft.to/lastmile_qr_scan"}, "type": "electric_scooter", "fusion_lat": 0.0, "lon": -76.9884825}, {"fusion_lon": 0.0, "bike_id": "b17a116d3047d882a035e46d651a10cd", "is_disabled": 0, "is_reserved": 0, "lat": 38.9126925, "name": "b17a116d3047d882a035e46d651a10cd", "rental_uris": {"ios": "https://dc.lft.to/lastmile_qr_scan", "android": "https://dc.lft.to/lastmile_qr_scan"}, "type": "electric_scooter", "fusion_lat": 0.0, "lon": -77.0222675}, {"fusion_lon": 0.0, "bike_id": "47fec3b0b1bcee4c2b4684e6f8f72934", "is_disabled": 0, "is_reserved": 0, "lat": 38.931845833333334, "name": "47fec3b0b1bcee4c2b4684e6f8f72934", "rental_uris": {"ios": "https://dc.lft.to/lastmile_qr_scan", "android": "https://dc.lft.to/lastmile_qr_scan"}, "type": "electric_scooter", "fusion_lat": 0.0, "lon": -77.038482}, {"fusion_lon": 0.0, "bike_id": "9e8d7525b14b5993b8f25fe214548835", "is_disabled": 0, "is_reserved": 0, "lat": 38.899467666666666, "name": "9e8d7525b14b5993b8f25fe214548835", "rental_uris": {"ios": "https://dc.lft.to/lastmile_qr_scan", "android": "https://dc.lft.to/lastmile_qr_scan"}, "type": "electric_scooter", "fusion_lat": 0.0, "lon": -76.93760116666667}, {"fusion_lon": 0.0, "bike_id": "42cc86049230c94e982cdfb4ceaf3f9b", "is_disabled": 0, "is_reserved": 0, "lat": 38.9232675, "name": "42cc86049230c94e982cdfb4ceaf3f9b", "rental_uris": {"ios": "https://dc.lft.to/lastmile_qr_scan", "android": "https://dc.lft.to/lastmile_qr_scan"}, "type": "electric_scooter", "fusion_lat": 0.0, "lon": -77.02897733333333}, {"fusion_lon": 0.0, "bike_id": "b3be90ccc75b118850bbf94fb24bb85e", "is_disabled": 0, "is_reserved": 0, "lat": 38.893365333333335, "name": "b3be90ccc75b118850bbf94fb24bb85e", "rental_uris": {"ios": "https://dc.lft.to/lastmile_qr_scan", "android": "https://dc.lft.to/lastmile_qr_scan"}, "type": "electric_scooter", "fusion_lat": 0.0, "lon": -76.99379733333333}, {"fusion_lon": 0.0, "bike_id": "02efc321031512f7153649ef4edc8619", "is_disabled": 0, "is_reserved": 0, "lat": 38.88008516666667, "name": "02efc321031512f7153649ef4edc8619", "rental_uris": {"ios": "https://dc.lft.to/lastmile_qr_scan", "android": "https://dc.lft.to/lastmile_qr_scan"}, "type": "electric_scooter", "fusion_lat": 0.0, "lon": -76.9983515}, {"fusion_lon": 0.0, "bike_id": "7f623ecfefc87a26900a76276f1eacb0", "is_disabled": 0, "is_reserved": 0, "lat": 38.902390833333335, "name": "7f623ecfefc87a26900a76276f1eacb0", "rental_uris": {"ios": "https://dc.lft.to/lastmile_qr_scan", "android": "https://dc.lft.to/lastmile_qr_scan"}, "type": "electric_scooter", "fusion_lat": 0.0, "lon": -77.05118166666666}, {"fusion_lon": 0.0, "bike_id": "640fe27e082a611bb83fe015d47aa833", "is_disabled": 0, "is_reserved": 0, "lat": 38.930184833333335, "name": "640fe27e082a611bb83fe015d47aa833", "rental_uris": {"ios": "https://dc.lft.to/lastmile_qr_scan", "android": "https://dc.lft.to/lastmile_qr_scan"}, "type": "electric_scooter", "fusion_lat": 0.0, "lon": -77.01259466666667}, {"fusion_lon": 0.0, "bike_id": "fe3ed86c205f86bd9f0bab5d960e1cfe", "is_disabled": 0, "is_reserved": 0, "lat": 38.90578416666666, "name": "fe3ed86c205f86bd9f0bab5d960e1cfe", "rental_uris": {"ios": "https://dc.lft.to/lastmile_qr_scan", "android": "https://dc.lft.to/lastmile_qr_scan"}, "type": "electric_scooter", "fusion_lat": 0.0, "lon": -77.02992133333333}, {"fusion_lon": 0.0, "bike_id": "605d58e67fbf86e5cb7c3ec04ef83ec7", "is_disabled": 0, "is_reserved": 0, "lat": 38.923716166666665, "name": "605d58e67fbf86e5cb7c3ec04ef83ec7", "rental_uris": {"ios": "https://dc.lft.to/lastmile_qr_scan", "android": "https://dc.lft.to/lastmile_qr_scan"}, "type": "electric_scooter", "fusion_lat": 0.0, "lon": -77.02137716666667}, {"fusion_lon": 0.0, "bike_id": "b9702a5a2324eb56eed609eba4eff96f", "is_disabled": 0, "is_reserved": 0, "lat": 38.908800666666664, "name": "b9702a5a2324eb56eed609eba4eff96f", "rental_uris": {"ios": "https://dc.lft.to/lastmile_qr_scan", "android": "https://dc.lft.to/lastmile_qr_scan"}, "type": "electric_scooter", "fusion_lat": 0.0, "lon": -77.043475}, {"fusion_lon": 0.0, "bike_id": "35472ae6652f50bfbae844624b879b11", "is_disabled": 0, "is_reserved": 0, "lat": 38.90686316666667, "name": "35472ae6652f50bfbae844624b879b11", "rental_uris": {"ios": "https://dc.lft.to/lastmile_qr_scan", "android": "https://dc.lft.to/lastmile_qr_scan"}, "type": "electric_scooter", "fusion_lat": 0.0, "lon": -77.07187483333334}, {"fusion_lon": 0.0, "bike_id": "d3b16e976ff8eb5a27e531510e1afc79", "is_disabled": 0, "is_reserved": 0, "lat": 38.83871416666667, "name": "d3b16e976ff8eb5a27e531510e1afc79", "rental_uris": {"ios": "https://dc.lft.to/lastmile_qr_scan", "android": "https://dc.lft.to/lastmile_qr_scan"}, "type": "electric_bike", "fusion_lat": 0.0, "lon": -76.99703116666667}, {"fusion_lon": 0.0, "bike_id": "ce363d3c462ecb69096b806d8738a027", "is_disabled": 0, "is_reserved": 0, "lat": 38.924321166666665, "name": "ce363d3c462ecb69096b806d8738a027", "rental_uris": {"ios": "https://dc.lft.to/lastmile_qr_scan", "android": "https://dc.lft.to/lastmile_qr_scan"}, "type": "electric_scooter", "fusion_lat": 0.0, "lon": -77.022494}, {"fusion_lon": 0.0, "bike_id": "210a17824117073303e2ce36f11b48b4", "is_disabled": 0, "is_reserved": 0, "lat": 38.93251566666667, "name": "210a17824117073303e2ce36f11b48b4", "rental_uris": {"ios": "https://dc.lft.to/lastmile_qr_scan", "android": "https://dc.lft.to/lastmile_qr_scan"}, "type": "electric_scooter", "fusion_lat": 0.0, "lon": -77.03280533333333}, {"fusion_lon": 0.0, "bike_id": "371de510468464abd0809d8ebe7a73c1", "is_disabled": 0, "is_reserved": 0, "lat": 38.876585666666664, "name": "371de510468464abd0809d8ebe7a73c1", "rental_uris": {"ios": "https://dc.lft.to/lastmile_qr_scan", "android": "https://dc.lft.to/lastmile_qr_scan"}, "type": "electric_scooter", "fusion_lat": 0.0, "lon": -77.00806933333334}, {"fusion_lon": 0.0, "bike_id": "3f894ad306b7d358d5d390f2d62e7c90", "is_disabled": 0, "is_reserved": 0, "lat": 38.930231166666665, "name": "3f894ad306b7d358d5d390f2d62e7c90", "rental_uris": {"ios": "https://dc.lft.to/lastmile_qr_scan", "android": "https://dc.lft.to/lastmile_qr_scan"}, "type": "electric_scooter", "fusion_lat": 0.0, "lon": -77.03804633333333}, {"fusion_lon": 0.0, "bike_id": "4270e4c0213a783656aebbcadbad7054", "is_disabled": 0, "is_reserved": 0, "lat": 38.906525333333335, "name": "4270e4c0213a783656aebbcadbad7054", "rental_uris": {"ios": "https://dc.lft.to/lastmile_qr_scan", "android": "https://dc.lft.to/lastmile_qr_scan"}, "type": "electric_scooter", "fusion_lat": 0.0, "lon": -77.0345755}, {"fusion_lon": 0.0, "bike_id": "232646483ae243e3bc7a69587b2f0c42", "is_disabled": 0, "is_reserved": 0, "lat": 38.903779666666665, "name": "232646483ae243e3bc7a69587b2f0c42", "rental_uris": {"ios": "https://dc.lft.to/lastmile_qr_scan", "android": "https://dc.lft.to/lastmile_qr_scan"}, "type": "electric_bike", "fusion_lat": 0.0, "lon": -76.93759033333333}, {"fusion_lon": 0.0, "bike_id": "a1996990b838e7c4da2b85f0f55a784d", "is_disabled": 0, "is_reserved": 0, "lat": 38.9264105, "name": "a1996990b838e7c4da2b85f0f55a784d", "rental_uris": {"ios": "https://dc.lft.to/lastmile_qr_scan", "android": "https://dc.lft.to/lastmile_qr_scan"}, "type": "electric_scooter", "fusion_lat": 0.0, "lon": -77.02170583333333}, {"fusion_lon": 0.0, "bike_id": "1ce187430c950b110d2b4bde0809f8c3", "is_disabled": 0, "is_reserved": 0, "lat": 38.90895033333334, "name": "1ce187430c950b110d2b4bde0809f8c3", "rental_uris": {"ios": "https://dc.lft.to/lastmile_qr_scan", "android": "https://dc.lft.to/lastmile_qr_scan"}, "type": "electric_scooter", "fusion_lat": 0.0, "lon": -77.00288216666667}, {"fusion_lon": 0.0, "bike_id": "7b69d470f7af10b1aceb19239c09fe8c", "is_disabled": 0, "is_reserved": 0, "lat": 38.920626166666665, "name": "7b69d470f7af10b1aceb19239c09fe8c", "rental_uris": {"ios": "https://dc.lft.to/lastmile_qr_scan", "android": "https://dc.lft.to/lastmile_qr_scan"}, "type": "electric_scooter", "fusion_lat": 0.0, "lon": -77.02560316666667},