{"data": {"bikes": [{"is_reserved": 0, "type": "electric_scooter", "bike_id": "1d2199e0e07d7acf14c92d695fef6dc8", "lat": 38.937811333333336, "lon": -77.07452483333333, "rental_uris": {"android": "https://dc.lft.to/lastmile_qr_scan", "ios": "https://dc.lft.to/lastmile_qr_scan"}, "is_disabled": 0, "fusion_lat": 0.0, "name": "1d2199e0e07d7acf14c92d695fef6dc8", "fusion_lon": 0.0}, {"is_reserved": 0, "type": "electric_scooter", "bike_id": "0ff83578340f1932c0c40c33272af7f0", "lat": 38.887459, "lon": -77.01741516666667, "rental_uris": {"android": "https://dc.lft.to/lastmile_qr_scan", "ios": "https://dc.lft.to/lastmile_qr_scan"}, "is_disabled": 0, "fusion_lat": 0.0, "name": "0ff83578340f1932c0c40c33272af7f0", "fusion_lon": 0.0}, {"is_reserved": 0, "type": "electric_scooter", "bike_id": "d967509a8d08c83f08de55cb1dda901d", "lat": 38.901144, "lon": -77.05997733333334, "rental_uris": {"android": "https://dc.lft.to/lastmile_qr_scan", "ios": "https://dc.lft.to/lastmile_qr_scan"}, "is_disabled": 0, "fusion_lat": 0.0, "name": "d967509a8d08c83f08de55cb1dda901d", "fusion_lon": 0.0}, {"is_reserved": 0, "type": "electric_scooter", "bike_id": "a457a2f033484bf71aae975d42dcef54", "lat": 38.912507166666664, "lon": -77.0385055, "rental_uris": {"android": "https://dc.lft.to/lastmile_qr_scan", "ios": "https://dc.lft.to/lastmile_qr_scan"}, "is_disabled": 0, "fusion_lat": 0.0, "name": "a457a2f033484bf71aae975d42dcef54", "fusion_lon": 0.0}, {"is_reserved": 0, "type": "electric_scooter", "bike_id": "e3e87c92a826e4f0f7392e5bc1aa1689", "lat": 38.905564, "lon": -76.99778016666667, "rental_uris": {"android": "https://dc.lft.to/lastmile_qr_scan", "ios": "https://dc.lft.to/lastmile_qr_scan"}, "is_disabled": 0, "fusion_lat": 0.0, "name": "e3e87c92a826e4f0f7392e5bc1aa1689", "fusion_lon": 0.0}, {"is_reserved": 0, "type": "electric_scooter", "bike_id": "7f02cccee2d8e29a9e7af69a912ef3f8", "lat": 38.90457933333333, "lon": -77.00347, "rental_uris": {"android": "https://dc.lft.to/lastmile_qr_scan", "ios": "https://dc.lft.to/lastmile_qr_scan"}, "is_disabled": 0, "fusion_lat": 0.0, "name": "7f02cccee2d8e29a9e7af69a912ef3f8", "fusion_lon": 0.0}, {"is_reserved": 0, "type": "electric_scooter", "bike_id": "e2bfd199f3a62a25790796fc4148f537", "lat": 38.924494, "lon": -77.02032316666667, "rental_uris": {"android": "https://dc.lft.to/lastmile_qr_scan", "ios": "https://dc.lft.to/lastmile_qr_scan"}, "is_disabled": 0, "fusion_lat": 0.0, "name": "e2bfd199f3a62a25790796fc4148f537", "fusion_lon": 0.0}, {"is_reserved": 0, "type": "electric_scooter", "bike_id": "3624a4b4829d0c3a8d494acddab35ee1", "lat": 38.90078116666667, "lon": -77.01616733333333, "rental_uris": {"android": "https://dc.lft.to/lastmile_qr_scan", "ios": "https://dc.lft.to/lastmile_qr_scan"}, "is_disabled": 0, "fusion_lat": 0.0, "name": "3624a4b4829d0c3a8d494acddab35ee1", "fusion_lon": 0.0}, {"is_reserved": 0, "type": "electric_bike", "bike_id": "f40df7e8afe0fb81aa924e53f26319e9", "lat": 38.916313333333335, "lon": -77.0414045, "rental_uris": {"android": "https://dc.lft.to/lastmile_qr_scan", "ios": "https://dc.lft.to/lastmile_qr_scan"}, "is_disabled": 0, "fusion_lat": 0.0, "name": "f40df7e8afe0fb81aa924e53f26319e9", "fusion_lon": 0.0}, {"is_reserved": 0, "type": "electric_scooter", "bike_id": "490cc0785cf2a40cffd730cfb0b715ab", "lat": 38.906529, "lon": -77.01428633333333, "rental_uris": {"android": "https://dc.lft.to/lastmile_qr_scan", "ios": "https://dc.lft.to/lastmile_qr_scan"}, "is_disabled": 0, "fusion_lat": 0.0, "name": "490cc0785cf2a40cffd730cfb0b715ab", "fusion_lon": 0.0}, {"is_reserved": 0, "type": "electric_bike", "bike_id": "cb2404b72e9ca8e13ef876e8e68905ca", "lat": 38.955993666666664, "lon": -76.99534816666667, "rental_uris": {"android": "https://dc.lft.to/lastmile_qr_scan", "ios": "https://dc.lft.to/lastmile_qr_scan"}, "is_disabled": 0, "fusion_lat": 0.0, "name": "cb2404b72e9ca8e13ef876e8e68905ca", "fusion_lon": 0.0}, {"is_reserved": 0, "type": "electric_scooter", "bike_id": "f80b476823380445e103754653eea2e4", "lat": 38.86714966666667, "lon": -76.980709, "rental_uris": {"android": "https://dc.lft.to/lastmile_qr_scan", "ios": "https://dc.lft.to/lastmile_qr_scan"}, "is_disabled": 0, "fusion_lat": 0.0, "name": "f80b476823380445e103754653eea2e4", "fusion_lon": 0.0}, {"is_reserved": 0, "type": "electric_scooter", "bike_id": "b77bd229d3cda4203843b3ccd64ef329", "lat": 38.9195535, "lon": -77.043648, "rental_uris": {"android": "https://dc.lft.to/lastmile_qr_scan", "ios": "https://dc.lft.to/lastmile_qr_scan"}, "is_disabled": 0, "fusion_lat": 0.0, "name": "b77bd229d3cda4203843b3ccd64ef329", "fusion_lon": 0.0}, {"is_reserved": 0, "type": "electric_scooter", "bike_id": "3ae0783fde9834585fb36cae8f41806d", "lat": 38.91108216666667, "lon": -77.02082466666667, "rental_uris": {"android": "https://dc.lft.to/lastmile_qr_scan", "ios": "https://dc.lft.to/lastmile_qr_scan"}, "is_disabled": 0, "fusion_lat": 0.0, "name": "3ae0783fde9834585fb36cae8f41806d", "fusion_lon": 0.0}, {"is_reserved": 0, "type": "electric_scooter", "bike_id": "0c5743046317014dee4074df08ca930d", "lat": 38.8974975, "lon": -77.026941, "rental_uris": {"android": "https://dc.lft.to/lastmile_qr_scan", "ios": "https://dc.lft.to/lastmile_qr_scan"}, "is_disabled": 0, "fusion_lat": 0.0, "name": "0c5743046317014dee4074df08ca930d", "fusion_lon": 0.0}, {"is_reserved": 0, "type": "electric_scooter", "bike_id": "c2b604113472cf673dede34ad860868f", "lat": 38.892223333333334, "lon": -77.02310016666667, "rental_uris": {"android": "https://dc.lft.to/lastmile_qr_scan", "ios": "https://dc.lft.to/lastmile_qr_scan"}, "is_disabled": 0, "fusion_lat": 0.0, "name": "c2b604113472cf673dede34ad860868f", "fusion_lon": 0.0}, {"is_reserved": 0, "type": "electric_scooter", "bike_id": "30dad8cbb0ff251eb0210a68d9a7c679", "lat": 38.906404, "lon": -77.01796016666667, "rental_uris": {"android": "https://dc.lft.to/lastmile_qr_scan", "ios": "https://dc.lft.to/lastmile_qr_scan"}, "is_disabled": 0, "fusion_lat": 0.0, "name": "30dad8cbb0ff251eb0210a68d9a7c679", "fusion_lon": 0.0}, {"is_reserved": 0, "type": "electric_scooter", "bike_id": "f7d7a7bafca5e681ee2534bece8fd043", "lat": 38.898117666666664, "lon": -76.9969185, "rental_uris": {"android": "https://dc.lft.to/lastmile_qr_scan", "ios": "https://dc.lft.to/lastmile_qr_scan"}, "is_disabled": 0, "fusion_lat": 0.0, "name": "f7d7a7bafca5e681ee2534bece8fd043", "fusion_lon": 0.0}, {"is_reserved": 0, "type": "electric_scooter", "bike_id": "9af3486bd11290a2ebec053c4bc969e5", "lat": 38.8876205, "lon": -76.983203, "rental_uris": {"android": "https://dc.lft.to/lastmile_qr_scan", "ios": "https://dc.lft.to/lastmile_qr_scan"}, "is_disabled": 0, "fusion_lat": 0.0, "name": "9af3486bd11290a2ebec053c4bc969e5", "fusion_lon": 0.0}, {"is_reserved": 0, "type": "electric_bike", "bike_id": "6e6020b7be504a65c1920a86df87833c", "lat": 38.8959, "lon": -76.9068945, "rental_uris": {"android": "https://dc.lft.to/lastmile_qr_scan", "ios": "https://dc.lft.to/lastmile_qr_scan"}, "is_disabled": 0, "fusion_lat": 0.0, "name": "6e6020b7be504a65c1920a86df87833c", "fusion_lon": 0.0}, {"is_reserved": 0, "type": "electric_scooter", "bike_id": "ac6bd85fd948be933ac8928cbad47311", "lat": 38.86593416666667, "lon": -76.97463866666666, "rental_uris": {"android": "https://dc.lft.to/lastmile_qr_scan", "ios": "https://dc.lft.to/lastmile_qr_scan"}, "is_disabled": 0, "fusion_lat": 0.0, "name": "ac6bd85fd948be933ac8928cbad47311", "fusion_lon": 0.0}, {"is_reserved": 0, "type": "electric_scooter", "bike_id": "991f641292af1322de8cb267961cdf6a", "lat": 38.901337166666664, "lon": -77.00069866666666, "rental_uris": {"android": "https://dc.lft.to/lastmile_qr_scan", "ios": "https://dc.lft.to/lastmile_qr_scan"}, "is_disabled": 0, "fusion_lat": 0.0, "name": "991f641292af1322de8cb267961cdf6a", "fusion_lon": 0.0}, {"is_reserved": 0, "type": "electric_scooter", "bike_id": "9f05b16940271fe0decb65ba794da14f", "lat": 38.919403833333334, "lon": -77.01879666666666, "rental_uris": {"android": "https://dc.lft.to/lastmile_qr_scan", "ios": "https://dc.lft.to/lastmile_qr_scan"}, "is_disabled": 0, "fusion_lat": 0.0, "name": "9f05b16940271fe0decb65ba794da14f", "fusion_lon": 0.0}, {"is_reserved": 0, "type": "electric_scooter", "bike_id": "4b60d1331ca96f1cd598485491ae94fe", "lat": 38.919468, "lon": -77.0134915, "rental_uris": {"android": "https://dc.lft.to/lastmile_qr_scan", "ios": "https://dc.lft.to/lastmile_qr_scan"}, "is_disabled": 0, "fusion_lat": 0.0, "name": "4b60d1331ca96f1cd598485491ae94fe", "fusion_lon": 0.0}, {"is_reserved": 0, "type": "electric_scooter", "bike_id": "0a10bf1dcba6742c4bc6a3121107775e", "lat": 38.923593333333336, "lon": -77.0518675, "rental_uris": {"android": "https://dc.lft.to/lastmile_qr_scan", "ios": "https://dc.lft.to/lastmile_qr_scan"}, "is_disabled": 0, "fusion_lat": 0.0, "name": "0a10bf1dcba6742c4bc6a3121107775e", "fusion_lon": 0.0}, {"is_reserved": 0, "type": "electric_scooter", "bike_id": "b9d8ffbd2df0321d09a560292dfbc147", "lat": 38.91983483333333, "lon": -77.04159733333333, "rental_uris": {"android": "https://dc.lft.to/lastmile_qr_scan", "ios": "https://dc.lft.to/lastmile_qr_scan"}, "is_disabled": 0, "fusion_lat": 0.0, "name": "b9d8ffbd2df0321d09a560292dfbc147", "fusion_lon": 0.0}, {"is_reserved": 0, "type": "electric_scooter", "bike_id": "82588b8c3475071fcffae9c33fe258c8", "lat": 38.89726116666667, "lon": -77.0216915, "rental_uris": {"android": "https://dc.lft.to/lastmile_qr_scan", "ios": "https://dc.lft.to/lastmile_qr_scan"}, "is_disabled": 0, "fusion_lat": 0.0, "name": "82588b8c3475071fcffae9c33fe258c8", "fusion_lon": 0.0}, {"is_reserved": 0, "type": "electric_scooter", "bike_id": "29b74cb79f2fd57e184fb243dfdc2050", "lat": 38.88532433333334, "lon": -76.99610483333333, "rental_uris": {"android": "https://dc.lft.to/lastmile_qr_scan", "ios": "https://dc.lft.to/lastmile_qr_scan"}, "is_disabled": 0, "fusion_lat": 0.0, "name": "29b74cb79f2fd57e184fb243dfdc2050", "fusion_lon": 0.0}, {"is_reserved": 0, "type": "electric_scooter", "bike_id": "375e6750dcd9e65b508e7da7d9889022", "lat": 38.8922855, "lon": -77.0500055, "rental_uris": {"android": "https://dc.lft.to/lastmile_qr_scan", "ios": "https://dc.lft.to/lastmile_qr_scan"}, "is_disabled": 0, "fusion_lat": 0.0, "name": "375e6750dcd9e65b508e7da7d9889022", "fusion_lon": 0.0}, {"is_reserved": 0, "type": "electric_scooter", "bike_id": "1a98702d7edd5f15b350cec6929c1ea8", "lat": 38.915531, "lon": -77.033287, "rental_uris": {"android": "https://dc.lft.to/lastmile_qr_scan", "ios": "https://dc.lft.to/lastmile_qr_scan"}, "is_disabled": 0, "fusion_lat": 0.0, "name": "1a98702d7edd5f15b350cec6929c1ea8", "fusion_lon": 0.0}, {"is_reserved": 0, "type": "electric_scooter", "bike_id": "1964592981969f69a56858d68e06eae5", "lat": 38.9067795, "lon": -77.06257266666667, "rental_uris": {"android": "https://dc.lft.to/lastmile_qr_scan", "ios": "https://dc.lft.to/lastmile_qr_scan"}, "is_disabled": 0, "fusion_lat": 0.0, "name": "1964592981969f69a56858d68e06eae5", "fusion_lon": 0.0}, {"is_reserved": 0, "type": "electric_scooter", "bike_id": "cb6d0cc946239df1430d152875dfb55c", "lat": 38.9008165, "lon": -77.04875583333333, "rental_uris": {"android": "https://dc.lft.to/lastmile_qr_scan", "ios": "https://dc.lft.to/lastmile_qr_scan"}, "is_disabled": 0, "fusion_lat": 0.0, "name": "cb6d0cc946239df1430d152875dfb55c", "fusion_lon": 0.0}, {"is_reserved": 0, "type": "electric_scooter", "bike_id": "d38b57e764650383e5676a96e9e58b67", "lat": 38.916229333333334, "lon": -77.04542733333334, "rental_uris": {"android": "https://dc.lft.to/lastmile_qr_scan", "ios": "https://dc.lft.to/lastmile_qr_scan"}, "is_disabled": 0, "fusion_lat": 0.0, "name": "d38b57e764650383e5676a96e9e58b67", "fusion_lon": 0.0}, {"is_reserved": 0, "type": "electric_scooter", "bike_id": "63921c429f3cdbb9c530c638680a9094", "lat": 38.906549, "lon": -77.00932483333334, "rental_uris": {"android": "https://dc.lft.to/lastmile_qr_scan", "ios": "https://dc.lft.to/lastmile_qr_scan"}, "is_disabled": 0, "fusion_lat": 0.0, "name": "63921c429f3cdbb9c530c638680a9094", "fusion_lon": 0.0}, {"is_reserved": 0, "type": "electric_scooter", "bike_id": "63671d41456e00f76dd9b000221418bb", "lat": 38.927468, "lon": -77.02454766666666, "rental_uris": {"android": "https://dc.lft.to/lastmile_qr_scan", "ios": "https://dc.lft.to/lastmile_qr_scan"}, "is_disabled": 0, "fusion_lat": 0.0, "name": "63671d41456e00f76dd9b000221418bb", "fusion_lon": 0.0}, {"is_reserved": 0, "type": "electric_scooter", "bike_id": "ed185a1cf27eda9a1f0aab4c97fdad87", "lat": 38.94078716666667, "lon": -77.0550015, "rental_uris": {"android": "https://dc.lft.to/lastmile_qr_scan", "ios": "https://dc.lft.to/lastmile_qr_scan"}, "is_disabled": 0, "fusion_lat": 0.0, "name": "ed185a1cf27eda9a1f0aab4c97fdad87", "fusion_lon": 0.0}, {"is_reserved": 0, "type": "electric_scooter", "bike_id": "557e4dc65506897fcd57ff2bc620ce40", "lat": 38.92836166666667, "lon": -77.05515383333334, "rental_uris": {"android": "https://dc.lft.to/lastmile_qr_scan", "ios": "https://dc.lft.to/lastmile_qr_scan"}, "is_disabled": 0, "fusion_lat": 0.0, "name": "557e4dc65506897fcd57ff2bc620ce40", "fusion_lon": 0.0}, {"is_reserved": 0, "type": "electric_scooter", "bike_id": "0c0286db114ef7e8965ba7a4379caed7", "lat": 38.94223683333333, "lon": -77.0715155, "rental_uris": {"android": "https://dc.lft.to/lastmile_qr_scan", "ios": "https://dc.lft.to/lastmile_qr_scan"}, "is_disabled": 0, "fusion_lat": 0.0, "name": "0c0286db114ef7e8965ba7a4379caed7", "fusion_lon": 0.0}, {"is_reserved": 0, "type": "electric_scooter", "bike_id": "3c3df54df03e3367981b9148c4988889", "lat": 38.8773945, "lon": -77.006215, "rental_uris": {"android": "https://dc.lft.to/lastmile_qr_scan", "ios": "https://dc.lft.to/lastmile_qr_scan"}, "is_disabled": 0, "fusion_lat": 0.0, "name": "3c3df54df03e3367981b9148c4988889", "fusion_lon": 0.0}, {"is_reserved": 0, "type": "electric_scooter", "bike_id": "dffb676a06c182848e37ee2c965ef045", "lat": 38.910492833333336, "lon": -77.021865, "rental_uris": {"android": "https://dc.lft.to/lastmile_qr_scan", "ios": "https://dc.lft.to/lastmile_qr_scan"}, "is_disabled": 0, "fusion_lat": 0.0, "name": "dffb676a06c182848e37ee2c965ef045", "fusion_lon": 0.0}, {"is_reserved": 0, "type": "electric_scooter", "bike_id": "975d039ecc6192f08d12e5005c4f1404", "lat": 38.89978516666667, "lon": -77.02215433333333, "rental_uris": {"android": "https://dc.lft.to/lastmile_qr_scan", "ios": "https://dc.lft.to/lastmile_qr_scan"}, "is_disabled": 0, "fusion_lat": 0.0, "name": "975d039ecc6192f08d12e5005c4f1404", "fusion_lon": 0.0}, {"is_reserved": 0, "type": "electric_scooter", "bike_id": "a4dbe073862fd3ad6a10547ecfe756ac", "lat": 38.9221905, "lon": -77.043346, "rental_uris": {"android": "https://dc.lft.to/lastmile_qr_scan", "ios": "https://dc.lft.to/lastmile_qr_scan"}, "is_disabled": 0, "fusion_lat": 0.0, "name": "a4dbe073862fd3ad6a10547ecfe756ac", "fusion_lon": 0.0}, {"is_reserved": 0, "type": "electric_scooter", "bike_id": "ed87996c698ba0927892fc8c4c4b8c13", "lat": 38.898755333333334, "lon": -76.9318335, "rental_uris": {"android": "https://dc.lft.to/lastmile_qr_scan", "ios": "https://dc.lft.to/lastmile_qr_scan"}, "is_disabled": 0, "fusion_lat": 0.0, "name": "ed87996c698ba0927892fc8c4c4b8c13", "fusion_lon": 0.0}, {"is_reserved": 0, "type": "electric_scooter", "bike_id": "a7de21e61417c99bb3207e41cdfd6a10", "lat": 38.907813, "lon": -77.01073516666666, "rental_uris": {"android": "https://dc.lft.to/lastmile_qr_scan", "ios": "https://dc.lft.to/lastmile_qr_scan"}, "is_disabled": 0, "fusion_lat": 0.0, "name": "a7de21e61417c99bb3207e41cdfd6a10", "fusion_lon": 0.0}, {"is_reserved": 0, "type": "electric_scooter", "bike_id": "aca8694ed0cf97ed91afcb9f60421184", "lat": 38.89531133333333, "lon": -77.01103316666666, "rental_uris": {"android": "https://dc.lft.to/lastmile_qr_scan", "ios": "https://dc.lft.to/lastmile_qr_scan"}, "is_disabled": 0, "fusion_lat": 0.0, "name": "aca8694ed0cf97ed91afcb9f60421184", "fusion_lon": 0.0}, {"is_reserved": 0, "type": "electric_scooter", "bike_id": "256a34c6be7aa75f0e07086d11a3debf", "lat": 38.94510783333333, "lon": -77.033605, "rental_uris": {"android": "https://dc.lft.to/lastmile_qr_scan", "ios": "https://dc.lft.to/lastmile_qr_scan"}, "is_disabled": 0, "fusion_lat": 0.0, "name": "256a34c6be7aa75f0e07086d11a3debf", "fusion_lon": 0.0}, {"is_reserved": 0, "type": "electric_scooter", "bike_id": "9963e2de5722789899dc3956dec9ae39", "lat": 38.910206333333335, "lon": -77.04464783333333, "rental_uris": {"android": "https://dc.lft.to/lastmile_qr_scan", "ios": "https://dc.lft.to/lastmile_qr_scan"}, "is_disabled": 0, "fusion_lat": 0.0, "name": "9963e2de5722789899dc3956dec9ae39", "fusion_lon": 0.0}, {"is_reserved": 0, "type": "electric_scooter", "bike_id": "f5daac3ca652a0dd5d7ed9eb943c34f2", "lat": 38.91805266666667, "lon": -77.02494933333334, "rental_uris": {"android": "https://dc.lft.to/lastmile_qr_scan", "ios": "https://dc.lft.to/lastmile_qr_scan"}, "is_disabled": 0, "fusion_lat": 0.0, "name": "f5daac3ca652a0dd5d7ed9eb943c34f2", "fusion_lon": 0.0}, {"is_reserved": 0, "type": "electric_scooter", "bike_id": "35b0643d9411b273e672aa2d4d6fa066", "lat": 38.91362266666667, "lon": -77.01999983333333, "rental_uris": {"android": "https://dc.lft.to/lastmile_qr_scan", "ios": "https://dc.lft.to/lastmile_qr_scan"}, "is_disabled": 0, "fusion_lat": 0.0, "name": "35b0643d9411b273e672aa2d4d6fa066", "fusion_lon": 0.0}, {"is_reserved": 0, "type": "electric_bike", "bike_id": "7321d7884743a84c04c4a108538e2b17", "lat": 38.97487483333333, "lon": -77.01814783333333, "rental_uris": {"android": "https://dc.lft.to/lastmile_qr_scan", "ios": "https://dc.lft.to/lastmile_qr_scan"}, "is_disabled": 0, "fusion_lat": 0.0, "name": "7321d7884743a84c04c4a108538e2b17", "fusion_lon": 0.0}, {"is_reserved": 0, "type": "electric_scooter", "bike_id": "a597888e7b45a53a984673983a299be3", "lat": 38.899002, "lon": -77.0407265, "rental_uris": {"android": "https://dc.lft.to/lastmile_qr_scan", "ios": "https://dc.lft.to/lastmile_qr_scan"}, "is_disabled": 0, "fusion_lat": 0.0, "name": "a597888e7b45a53a984673983a299be3", "fusion_lon": 0.0}, {"is_reserved": 0, "type": "electric_scooter", "bike_id": "ccd43bbf4785ffcedb7ae2298f4c4136", "lat": 38.91899633333333, "lon": -77.0320115, "rental_uris": {"android": "https://dc.lft.to/lastmile_qr_scan", "ios": "https://dc.lft.to/lastmile_qr_scan"}, "is_disabled": 0, "fusion_lat": 0.0, "name": "ccd43bbf4785ffcedb7ae2298f4c4136", "fusion_lon": 0.0}, {"is_reserved": 0, "type": "electric_scooter", "bike_id": "6c87f449b6dc69b04af59aea675ef33c", "lat": 38.905067333333335, "lon": -76.99177733333333, "rental_uris": {"android": "https://dc.lft.to/lastmile_qr_scan", "ios": "https://dc.lft.to/lastmile_qr_scan"}, "is_disabled": 0, "fusion_lat": 0.0, "name": "6c87f449b6dc69b04af59aea675ef33c", "fusion_lon": 0.0}, {"is_reserved": 0, "type": "electric_scooter", "bike_id": "440444776614b7e9d30485aa5f8a6731", "lat": 38.904964166666666, "lon": -77.0568215, "rental_uris": {"android": "https://dc.lft.to/lastmile_qr_scan", "ios": "https://dc.lft.to/lastmile_qr_scan"}, "is_disabled": 0, "fusion_lat": 0.0, "name": "440444776614b7e9d30485aa5f8a6731", "fusion_lon": 0.0}, {"is_reserved": 0, "type": "electric_scooter", "bike_id": "4cfd33e842d9559dfb115db7ae463170", "lat": 38.87119766666667, "lon": -77.0075785, "rental_uris": {"android": "https://dc.lft.to/lastmile_qr_scan", "ios": "https://dc.lft.to/lastmile_qr_scan"}, "is_disabled": 0, "fusion_lat": 0.0, "name": "4cfd33e842d9559dfb115db7ae463170", "fusion_lon": 0.0}, {"is_reserved": 0, "type": "electric_scooter", "bike_id": "810ef2ee152e1e4593a500624495e59e", "lat": 38.894637333333336, "lon": -77.003466, "rental_uris": {"android": "https://dc.lft.to/lastmile_qr_scan", "ios": "https://dc.lft.to/lastmile_qr_scan"}, "is_disabled": 0, "fusion_lat": 0.0, "name": "810ef2ee152e1e4593a500624495e59e", "fusion_lon": 0.0}, {"is_reserved": 0, "type": "electric_scooter", "bike_id": "b1949a41aed85f222a13172d00db494a", "lat": 38.921088166666664, "lon": -77.030099, "rental_uris": {"android": "https://dc.lft.to/lastmile_qr_scan", "ios": "https://dc.lft.to/lastmile_qr_scan"}, "is_disabled": 0, "fusion_lat": 0.0, "name": "b1949a41aed85f222a13172d00db494a", "fusion_lon": 0.0}, {"is_reserved": 0, "type": "electric_scooter", "bike_id": "d90e739421f855cc3fcc05f317abe748", "lat": 38.897165, "lon": -77.028992, "rental_uris": {"android": "https://dc.lft.to/lastmile_qr_scan", "ios": "https://dc.lft.to/lastmile_qr_scan"}, "is_disabled": 0, "fusion_lat": 0.0, "name": "d90e739421f855cc3fcc05f317abe748", "fusion_lon": 0.0}, {"is_reserved": 0, "type": "electric_scooter", "bike_id": "6e4a445f3014bad97794d949880027ec", "lat": 38.92081866666667, "lon": -77.023031, "rental_uris": {"android": "https://dc.lft.to/lastmile_qr_scan", "ios": "https://dc.lft.to/lastmile_qr_scan"}, "is_disabled": 0, "fusion_lat": 0.0, "name": "6e4a445f3014bad97794d949880027ec", "fusion_lon": 0.0}, {"is_reserved": 0, "type": "electric_scooter", "bike_id": "c0bc83b391e445e6fd060c58f69360e1", "lat": 38.946583, "lon": -77.03282733333333, "rental_uris": {"android": "https://dc.lft.to/lastmile_qr_scan", "ios": "https://dc.lft.to/lastmile_qr_scan"}, "is_disabled": 0, "fusion_lat": 0.0, "name": "c0bc83b391e445e6fd060c58f69360e1", "fusion_lon": 0.0}, {"is_reserved": 0, "type": "electric_scooter", "bike_id": "0d68792107eb3c928282061c40d02790", "lat": 38.91213533333333, "lon": -77.04561716666667, "rental_uris": {"android": "https://dc.lft.to/lastmile_qr_scan", "ios": "https://dc.lft.to/lastmile_qr_scan"}, "is_disabled": 0, "fusion_lat": 0.0, "name": "0d68792107eb3c928282061c40d02790", "fusion_lon": 0.0}, {"is_reserved": 0, "type": "electric_scooter", "bike_id": "62e693551b9f7f89a9514c4ad7403645", "lat": 38.917037666666666, "lon": -77.03156, "rental_uris": {"android": "https://dc.lft.to/lastmile_qr_scan", "ios": "https://dc.lft.to/lastmile_qr_scan"}, "is_disabled": 0, "fusion_lat": 0.0, "name": "62e693551b9f7f89a9514c4ad7403645", "fusion_lon": 0.0}, {"is_reserved": 0, "type": "electric_scooter", "bike_id": "a78361559d6d33f14e13a4fcefcb7e6d", "lat": 38.927578, "lon": -77.0688675, "rental_uris": {"android": "https://dc.lft.to/lastmile_qr_scan", "ios": "https://dc.lft.to/lastmile_qr_scan"}, "is_disabled": 0, "fusion_lat": 0.0, "name": "a78361559d6d33f14e13a4fcefcb7e6d", "fusion_lon": 0.0}, {"is_reserved": 0, "type": "electric_scooter", "bike_id": "5922d51e5e8b8bc49cb27cd39e2cb56f", "lat": 38.938917333333336, "lon": -77.033145, "rental_uris": {"android": "https://dc.lft.to/lastmile_qr_scan", "ios": "https://dc.lft.to/lastmile_qr_scan"}, "is_disabled": 0, "fusion_lat": 0.0, "name": "5922d51e5e8b8bc49cb27cd39e2cb56f", "fusion_lon": 0.0}, {"is_reserved": 0, "type": "electric_scooter", "bike_id": "9e142db0f89f68fa182d43cd959d86d8", "lat": 38.8995855, "lon": -77.02687233333333, "rental_uris": {"android": "https://dc.lft.to/lastmile_qr_scan", "ios": "https://dc.lft.to/lastmile_qr_scan"}, "is_disabled": 0, "fusion_lat": 0.0, "name": "9e142db0f89f68fa182d43cd959d86d8", "fusion_lon": 0.0}, {"is_reserved": 0, "type": "electric_scooter", "bike_id": "9c2f0da0696b3a269e3cb7190b97dd9e", "lat": 38.90290916666667, "lon": -77.002326, "rental_uris": {"android": "https://dc.lft.to/lastmile_qr_scan", "ios": "https://dc.lft.to/lastmile_qr_scan"}, "is_disabled": 0, "fusion_lat": 0.0, "name": "9c2f0da0696b3a269e3cb7190b97dd9e", "fusion_lon": 0.0}, {"is_reserved": 0, "type": "electric_scooter", "bike_id": "bfe5b0926bd8e26ea871a72c8869a0ff", "lat": 38.899095833333334, "lon": -76.93368333333333, "rental_uris": {"android": "https://dc.lft.to/lastmile_qr_scan", "ios": "https://dc.lft.to/lastmile_qr_scan"}, "is_disabled": 0, "fusion_lat": 0.0, "name": "bfe5b0926bd8e26ea871a72c8869a0ff", "fusion_lon": 0.0}, {"is_reserved": 0, "type": "electric_scooter", "bike_id": "68d80c005346b3de66b4bee62ee09148", "lat": 38.9159035, "lon": -77.02200266666667, "rental_uris": {"android": "https://dc.lft.to/lastmile_qr_scan", "ios": "https://dc.lft.to/lastmile_qr_scan"}, "is_disabled": 0, "fusion_lat": 0.0, "name": "68d80c005346b3de66b4bee62ee09148", "fusion_lon": 0.0}, {"is_reserved": 0, "type": "electric_scooter", "bike_id": "ecb75fb20b2de9dbdabcfe7a96da9495", "lat": 38.90030983333333, "lon": -76.9914445, "rental_uris": {"android": "https://dc.lft.to/lastmile_qr_scan", "ios": "https://dc.lft.to/lastmile_qr_scan"}, "is_disabled": 0, "fusion_lat": 0.0, "name": "ecb75fb20b2de9dbdabcfe7a96da9495", "fusion_lon": 0.0}, {"is_reserved": 0, "type": "electric_scooter", "bike_id": "d3526283333489ad586627dda2f2996b", "lat": 38.90738066666667, "lon": -76.99981366666667, "rental_uris": {"android": "https://dc.lft.to/lastmile_qr_scan", "ios": "https://dc.lft.to/lastmile_qr_scan"}, "is_disabled": 0, "fusion_lat": 0.0, "name": "d3526283333489ad586627dda2f2996b", "fusion_lon": 0.0}, {"is_reserved": 0, "type": "electric_scooter", "bike_id": "00836c8c076afc61c2a9fe4446604fb4", "lat": 38.93094133333334, "lon": -77.0236515, "rental_uris": {"android": "https://dc.lft.to/lastmile_qr_scan", "ios": "https://dc.lft.to/lastmile_qr_scan"}, "is_disabled": 0, "fusion_lat": 0.0, "name": "00836c8c076afc61c2a9fe4446604fb4", "fusion_lon": 0.0}, {"is_reserved": 0, "type": "electric_scooter", "bike_id": "f88d153277df29ae3b712b503e2363d5", "lat": 38.951830666666666, "lon": -77.02613466666666, "rental_uris": {"android": "https://dc.lft.to/lastmile_qr_scan", "ios": "https://dc.lft.to/lastmile_qr_scan"}, "is_disabled": 0, "fusion_lat": 0.0, "name": "f88d153277df29ae3b712b503e2363d5", "fusion_lon": 0.0}, {"is_reserved": 0, "type": "electric_scooter", "bike_id": "2cce0581dbbaf89f588a3405c98cfb2b", "lat": 38.905477166666664, "lon": -77.00602866666667, "rental_uris": {"android": "https://dc.lft.to/lastmile_qr_scan", "ios": "https://dc.lft.to/lastmile_qr_scan"}, "is_disabled": 0, "fusion_lat": 0.0, "name": "2cce0581dbbaf89f588a3405c98cfb2b", "fusion_lon": 0.0}, {"is_reserved": 0, "type": "electric_scooter", "bike_id": "b8ea96634c79befa343349dd1443db69", "lat": 38.90468033333333, "lon": -77.0261215, "rental_uris": {"android": "https://dc.lft.to/lastmile_qr_scan", "ios": "https://dc.lft.to/lastmile_qr_scan"}, "is_disabled": 0, "fusion_lat": 0.0, "name": "b8ea96634c79befa343349dd1443db69", "fusion_lon": 0.0}, {"is_reserved": 0, "type": "electric_bike", "bike_id": "0f7aec6e157722187e95f22aecf07dff", "lat": 38.995578333333334, "lon": -77.074435, "rental_uris": {"android": "https://dc.lft.to/lastmile_qr_scan", "ios": "https://dc.lft.to/lastmile_qr_scan"}, "is_disabled": 0, "fusion_lat": 0.0, "name": "0f7aec6e157722187e95f22aecf07dff", "fusion_lon": 0.0}, {"is_reserved": 0, "type": "electric_scooter", "bike_id": "7fc473eb41f35123b25aeed2de61ea49", "lat": 38.9239755, "lon": -77.05039616666667, "rental_uris": {"android": "https://dc.lft.to/lastmile_qr_scan", "ios": "https://dc.lft.to/lastmile_qr_scan"}, "is_disabled": 0, "fusion_lat": 0.0, "name": "7fc473eb41f35123b25aeed2de61ea49", "fusion_lon": 0.0}, {"is_reserved": 0, "type": "electric_scooter", "bike_id": "27b5369d5a4ff445bf6fc2faf80fb462", "lat": 38.95268033333333, "lon": -77.0239925, "rental_uris": {"android": "https://dc.lft.to/lastmile_qr_scan", "ios": "https://dc.lft.to/lastmile_qr_scan"}, "is_disabled": 0, "fusion_lat": 0.0, "name": "27b5369d5a4ff445bf6fc2faf80fb462", "fusion_lon": 0.0}, {"is_reserved": 0, "type": "electric_scooter", "bike_id": "476fd651a5f1219d84b501ea1803f993", "lat": 38.926028, "lon": -77.03943866666667, "rental_uris": {"android": "https://dc.lft.to/lastmile_qr_scan", "ios": "https://dc.lft.to/lastmile_qr_scan"}, "is_disabled": 0, "fusion_lat": 0.0, "name": "476fd651a5f1219d84b501ea1803f993", "fusion_lon": 0.0}, {"is_reserved": 0, "type": "electric_scooter", "bike_id": "009014c7d368248815c74aa5329da08e", "lat": 38.960347666666664, "lon": -77.0715445, "rental_uris": {"android": "https://dc.lft.to/lastmile_qr_scan", "ios": "https://dc.lft.to/lastmile_qr_scan"}, "is_disabled": 0, "fusion_lat": 0.0, "name": "009014c7d368248815c74aa5329da08e", "fusion_lon": 0.0}, {"is_reserved": 0, "type": "electric_scooter", "bike_id": "f527210843fd444862224e52ba0dca67", "lat": 38.9335525, "lon": -77.0342495, "rental_uris": {"android": "https://dc.lft.to/lastmile_qr_scan", "ios": "https://dc.lft.to/lastmile_qr_scan"}, "is_disabled": 0, "fusion_lat": 0.0, "name": "f527210843fd444862224e52ba0dca67", "fusion_lon": 0.0}, {"is_reserved": 0, "type": "electric_bike", "bike_id": "d6f7ab8f1d8b717df4f16edf2e56cae0", "lat": 38.83629666666667, "lon": -77.002873, "rental_uris": {"android": "https://dc.lft.to/lastmile_qr_scan", "ios": "https://dc.lft.to/lastmile_qr_scan"}, "is_disabled": 0, "fusion_lat": 0.0, "name": "d6f7ab8f1d8b717df4f16edf2e56cae0", "fusion_lon": 0.0}, {"is_reserved": 0, "type": "electric_scooter", "bike_id": "6a0b3194448e6004a0aa16643391729b", "lat": 38.922240333333335, "lon": -77.04242916666666, "rental_uris": {"android": "https://dc.lft.to/lastmile_qr_scan", "ios": "https://dc.lft.to/lastmile_qr_scan"}, "is_disabled": 0, "fusion_lat": 0.0, "name": "6a0b3194448e6004a0aa16643391729b", "fusion_lon": 0.0}, {"is_reserved": 0, "type": "electric_scooter", "bike_id": "0aaecff584420ac7bdd54e345670e737", "lat": 38.919136333333334, "lon": -77.04795566666667, "rental_uris": {"android": "https://dc.lft.to/lastmile_qr_scan", "ios": "https://dc.lft.to/lastmile_qr_scan"}, "is_disabled": 0, "fusion_lat": 0.0, "name": "0aaecff584420ac7bdd54e345670e737", "fusion_lon": 0.0}, {"is_reserved": 0, "type": "electric_bike", "bike_id": "da57b9d4ea13650e99c54ab20f1f5e35", "lat": 38.90449916666667, "lon": -77.032652, "rental_uris": {"android": "https://dc.lft.to/lastmile_qr_scan", "ios": "https://dc.lft.to/lastmile_qr_scan"}, "is_disabled": 0, "fusion_lat": 0.0, "name": "da57b9d4ea13650e99c54ab20f1f5e35", "fusion_lon": 0.0}, {"is_reserved": 0, "type": "electric_scooter", "bike_id": "ac67fdc22ba748d8e2b4d19eac427ce8", "lat": 38.909797, "lon": -77.06458266666667, "rental_uris": {"android": "https://dc.lft.to/lastmile_qr_scan", "ios": "https://dc.lft.to/lastmile_qr_scan"}, "is_disabled": 0, "fusion_lat": 0.0, "name": "ac67fdc22ba748d8e2b4d19eac427ce8", "fusion_lon": 0.0}, {"is_reserved": 0, "type": "electric_scooter", "bike_id": "7728313f671b1595cef222f880e47678", "lat": 38.881556, "lon": -77.02765666666667, "rental_uris": {"android": "https://dc.lft.to/lastmile_qr_scan", "ios": "https://dc.lft.to/lastmile_qr_scan"}, "is_disabled": 0, "fusion_lat": 0.0, "name": "7728313f671b1595cef222f880e47678", "fusion_lon": 0.0}, {"is_reserved": 0, "type": "electric_scooter", "bike_id": "6819a84a6d4681f36d3c1f18fec126d9", "lat": 38.9312975, "lon": -77.02301016666667, "rental_uris": {"android": "https://dc.lft.to/lastmile_qr_scan", "ios": "https://dc.lft.to/lastmile_qr_scan"}, "is_disabled": 0, "fusion_lat": 0.0, "name": "6819a84a6d4681f36d3c1f18fec126d9", "fusion_lon": 0.0}, {"is_reserved": 0, "type": "electric_scooter", "bike_id": "92ca328cc60fb4c60a5bab61dab90de9", "lat": 38.92310666666667, "lon": -77.04221216666667, "rental_uris": {"android": "https://dc.lft.to/lastmile_qr_scan", "ios": "https://dc.lft.to/lastmile_qr_scan"}, "is_disabled": 0, "fusion_lat": 0.0, "name": "92ca328cc60fb4c60a5bab61dab90de9", "fusion_lon": 0.0}, {"is_reserved": 0, "type": "electric_scooter", "bike_id": "f56b20429f07c8e5a6c15d29f84a7365", "lat": 38.907946333333335, "lon": -76.99694583333333, "rental_uris": {"android": "https://dc.lft.to/lastmile_qr_scan", "ios": "https://dc.lft.to/lastmile_qr_scan"}, "is_disabled": 0, "fusion_lat": 0.0, "name": "f56b20429f07c8e5a6c15d29f84a7365", "fusion_lon": 0.0}, {"is_reserved": 0, "type": "electric_scooter", "bike_id": "6db5d5cdb27b6e6fc7979c078b686747", "lat": 38.9035175, "lon": -77.02572933333333, "rental_uris": {"android": "https://dc.lft.to/lastmile_qr_scan", "ios": "https://dc.lft.to/lastmile_qr_scan"}, "is_disabled": 0, "fusion_lat": 0.0, "name": "6db5d5cdb27b6e6fc7979c078b686747", "fusion_lon": 0.0}, {"is_reserved": 0, "type": "electric_scooter", "bike_id": "4b82cf2e245a581c8602245145012054", "lat": 38.9177545, "lon": -77.047515, "rental_uris": {"android": "https://dc.lft.to/lastmile_qr_scan", "ios": "https://dc.lft.to/lastmile_qr_scan"}, "is_disabled": 0, "fusion_lat": 0.0, "name": "4b82cf2e245a581c8602245145012054", "fusion_lon": 0.0}, {"is_reserved": 0, "type": "electric_scooter", "bike_id": "e3977a88202f78504166f0db941c7c27", "lat": 38.9304545, "lon": -77.0296225, "rental_uris": {"android": "https://dc.lft.to/lastmile_qr_scan", "ios": "https://dc.lft.to/lastmile_qr_scan"}, "is_disabled": 0, "fusion_lat": 0.0, "name": "e3977a88202f78504166f0db941c7c27", "fusion_lon": 0.0}, {"is_reserved": 0, "type": "electric_scooter", "bike_id": "76f46eefd13f989660c37f8a1337f1fd", "lat": 38.916976, "lon": -77.03742, "rental_uris": {"android": "https://dc.lft.to/lastmile_qr_scan", "ios": "https://dc.lft.to/lastmile_qr_scan"}, "is_disabled": 0, "fusion_lat": 0.0, "name": "76f46eefd13f989660c37f8a1337f1fd", "fusion_lon": 0.0}, {"is_reserved": 0, "type": "electric_scooter", "bike_id": "5ecf736b181c4ebc30ec157998850602", "lat": 38.92012866666666, "lon": -77.0322975, "rental_uris": {"android": "https://dc.lft.to/lastmile_qr_scan", "ios": "https://dc.lft.to/lastmile_qr_scan"}, "is_disabled": 0, "fusion_lat": 0.0, "name": "5ecf736b181c4ebc30ec157998850602", "fusion_lon": 0.0}, {"is_reserved": 0, "type": "electric_scooter", "bike_id": "5bf81177f6eddf309df6e2baa792f72a", "lat": 38.89835716666666, "lon": -77.02466383333334, "rental_uris": {"android": "https://dc.lft.to/lastmile_qr_scan", "ios": "https://dc.lft.to/lastmile_qr_scan"}, "is_disabled": 0, "fusion_lat": 0.0, "name": "5bf81177f6eddf309df6e2baa792f72a", "fusion_lon": 0.0}, {"is_reserved": 0, "type": "electric_scooter", "bike_id": "448c37b4c1320665e5ee2c593f1ff4b0", "lat": 38.922973, "lon": -77.04215916666666, "rental_uris": {"android": "https://dc.lft.to/lastmile_qr_scan", "ios": "https://dc.lft.to/lastmile_qr_scan"}, "is_disabled": 0, "fusion_lat": 0.0, "name": "448c37b4c1320665e5ee2c593f1ff4b0", "fusion_lon": 0.0}, {"is_reserved": 0, "type": "electric_scooter", "bike_id": "e63c45ad59be1ae376299f508a32f89d", "lat": 38.900359, "lon": -76.99633666666666, "rental_uris": {"android": "https://dc.lft.to/lastmile_qr_scan", "ios": "https://dc.lft.to/lastmile_qr_scan"}, "is_disabled": 0, "fusion_lat": 0.0, "name": "e63c45ad59be1ae376299f508a32f89d", "fusion_lon": 0.0}, {"is_reserved": 0, "type": "electric_scooter", "bike_id": "2d0ac4ee520bd65500145db6b6a30eee", "lat": 38.900393666666666, "lon": -76.98841183333333, "rental_uris": {"android": "https://dc.lft.to/lastmile_qr_scan", "ios": "https://dc.lft.to/lastmile_qr_scan"}, "is_disabled": 0, "fusion_lat": 0.0, "name": "2d0ac4ee520bd65500145db6b6a30eee", "fusion_lon": 0.0}, {"is_reserved": 0, "type": "electric_scooter", "bike_id": "c5cbe733227c79e67456a7c5e15c716d", "lat": 38.92898133333333, "lon": -77.0221065, "rental_uris": {"android": "https://dc.lft.to/lastmile_qr_scan", "ios": "https://dc.lft.to/lastmile_qr_scan"}, "is_disabled": 0, "fusion_lat": 0.0, "name": "c5cbe733227c79e67456a7c5e15c716d", "fusion_lon": 0.0}, {"is_reserved": 0, "type": "electric_scooter", "bike_id": "34782877a80b88bd015261441688a6dc", "lat": 38.9200265, "lon": -76.98504183333333, "rental_uris": {"android": "https://dc.lft.to/lastmile_qr_scan", "ios": "https://dc.lft.to/lastmile_qr_scan"}, "is_disabled": 0, "fusion_lat": 0.0, "name": "34782877a80b88bd015261441688a6dc", "fusion_lon": 0.0}, {"is_reserved": 0, "type": "electric_scooter", "bike_id": "8cb89ce07695b664a0663ea5baafce67", "lat": 38.92027066666667, "lon": -77.037341, "rental_uris": {"android": "https://dc.lft.to/lastmile_qr_scan", "ios": "https://dc.lft.to/lastmile_qr_scan"}, "is_disabled": 0, "fusion_lat": 0.0, "name": "8cb89ce07695b664a0663ea5baafce67", "fusion_lon": 0.0}, {"is_reserved": 0, "type": "electric_scooter", "bike_id": "ce827022feda7b1033134a3d5944fc2e", "lat": 38.9420165, "lon": -77.02518333333333, "rental_uris": {"android": "https://dc.lft.to/lastmile_qr_scan", "ios": "https://dc.lft.to/lastmile_qr_scan"}, "is_disabled": 0, "fusion_lat": 0.0, "name": "ce827022feda7b1033134a3d5944fc2e", "fusion_lon": 0.0}, {"is_reserved": 0, "type": "electric_scooter", "bike_id": "27e49ace4e0275ff1b58b88d838d5f71", "lat": 38.905587833333335, "lon": -77.005163, "rental_uris": {"android": "https://dc.lft.to/lastmile_qr_scan", "ios": "https://dc.lft.to/lastmile_qr_scan"}, "is_disabled": 0, "fusion_lat": 0.0, "name": "27e49ace4e0275ff1b58b88d838d5f71", "fusion_lon": 0.0}, {"is_reserved": 0, "type": "electric_scooter", "bike_id": "900aba4d95152af27c24aa24371ec2c2", "lat": 38.92416583333333, "lon": -77.0354455, "rental_uris": {"android": "https://dc.lft.to/lastmile_qr_scan", "ios": "https://dc.lft.to/lastmile_qr_scan"}, "is_disabled": 0, "fusion_lat": 0.0, "name": "900aba4d95152af27c24aa24371ec2c2", "fusion_lon": 0.0}, {"is_reserved": 0, "type": "electric_bike", "bike_id": "2cbb95d0571b001dde5927137b409531", "lat": 38.991023, "lon": -76.8815395, "rental_uris": {"android": "https://dc.lft.to/lastmile_qr_scan", "ios": "https://dc.lft.to/lastmile_qr_scan"}, "is_disabled": 0, "fusion_lat": 0.0, "name": "2cbb95d0571b001dde5927137b409531", "fusion_lon": 0.0}, {"is_reserved": 0, "type": "electric_bike", "bike_id": "f21ac42f1e9540730dd3187f81ef1573", "lat": 38.8432675, "lon": -76.9973455, "rental_uris": {"android": "https://dc.lft.to/lastmile_qr_scan", "ios": "https://dc.lft.to/lastmile_qr_scan"}, "is_disabled": 0, "fusion_lat": 0.0, "name": "f21ac42f1e9540730dd3187f81ef1573", "fusion_lon": 0.0}, {"is_reserved": 0, "type": "electric_scooter", "bike_id": "0202900a8e5c660aa1d030bb5242dfcb", "lat": 38.92605066666667, "lon": -77.051798, "rental_uris": {"android": "https://dc.lft.to/lastmile_qr_scan", "ios": "https://dc.lft.to/lastmile_qr_scan"}, "is_disabled": 0, "fusion_lat": 0.0, "name": "0202900a8e5c660aa1d030bb5242dfcb", "fusion_lon": 0.0}, {"is_reserved": 0, "type": "electric_bike", "bike_id": "fb71282cb9b6d15fcfdab17cdc601dfe", "lat": 38.870826, "lon": -77.01197216666667, "rental_uris": {"android": "https://dc.lft.to/lastmile_qr_scan", "ios": "https://dc.lft.to/lastmile_qr_scan"}, "is_disabled": 0, "fusion_lat": 0.0, "name": "fb71282cb9b6d15fcfdab17cdc601dfe", "fusion_lon": 0.0}, {"is_reserved": 0, "type": "electric_scooter", "bike_id": "7f66cbbcffd8bef7f8df5c05ec812032", "lat": 38.91696366666667, "lon": -77.0324015, "rental_uris": {"android": "https://dc.lft.to/lastmile_qr_scan", "ios": "https://dc.lft.to/lastmile_qr_scan"}, "is_disabled": 0, "fusion_lat": 0.0, "name": "7f66cbbcffd8bef7f8df5c05ec812032", "fusion_lon": 0.0}, {"is_reserved": 0, "type": "electric_scooter", "bike_id": "1edaa13e460f4f6664f9adf23f86fd8e", "lat": 38.908312, "lon": -76.98716066666667, "rental_uris": {"android": "https://dc.lft.to/lastmile_qr_scan", "ios": "https://dc.lft.to/lastmile_qr_scan"}, "is_disabled": 0, "fusion_lat": 0.0, "name": "1edaa13e460f4f6664f9adf23f86fd8e", "fusion_lon": 0.0}, {"is_reserved": 0, "type": "electric_scooter", "bike_id": "e7188691235c75c0881a0a116bba15e8", "lat": 38.893512333333334, "lon": -77.03213966666667, "rental_uris": {"android": "https://dc.lft.to/lastmile_qr_scan", "ios": "https://dc.lft.to/lastmile_qr_scan"}, "is_disabled": 0, "fusion_lat": 0.0, "name": "e7188691235c75c0881a0a116bba15e8", "fusion_lon": 0.0}, {"is_reserved": 0, "type": "electric_scooter", "bike_id": "3a79bb09737733c3040372a4be97c7f1", "lat": 38.88610633333333, "lon": -77.00410183333334, "rental_uris": {"android": "https://dc.lft.to/lastmile_qr_scan", "ios": "https://dc.lft.to/lastmile_qr_scan"}, "is_disabled": 0, "fusion_lat": 0.0, "name": "3a79bb09737733c3040372a4be97c7f1", "fusion_lon": 0.0}, {"is_reserved": 0, "type": "electric_scooter", "bike_id": "d1e9ff4b698dbe6603ff3b86cbb49800", "lat": 38.886218666666664, "lon": -77.01529916666667, "rental_uris": {"android": "https://dc.lft.to/lastmile_qr_scan", "ios": "https://dc.lft.to/lastmile_qr_scan"}, "is_disabled": 0, "fusion_lat": 0.0, "name": "d1e9ff4b698dbe6603ff3b86cbb49800", "fusion_lon": 0.0}, {"is_reserved": 0, "type": "electric_bike", "bike_id": "41f8c6c835e6057555cf89192bb4d61a", "lat": 38.892537833333336, "lon": -76.97052233333334, "rental_uris": {"android": "https://dc.lft.to/lastmile_qr_scan", "ios": "https://dc.lft.to/lastmile_qr_scan"}, "is_disabled": 0, "fusion_lat": 0.0, "name": "41f8c6c835e6057555cf89192bb4d61a", "fusion_lon": 0.0}, {"is_reserved": 0, "type": "electric_scooter", "bike_id": "99e4149b7bfddebf9f6813dc2e6602f5", "lat": 38.9248715, "lon": -77.03194616666667, "rental_uris": {"android": "https://dc.lft.to/lastmile_qr_scan", "ios": "https://dc.lft.to/lastmile_qr_scan"}, "is_disabled": 0, "fusion_lat": 0.0, "name": "99e4149b7bfddebf9f6813dc2e6602f5", "fusion_lon": 0.0}, {"is_reserved": 0, "type": "electric_scooter", "bike_id": "db6185ccce65a5f47df36b874fa76223", "lat": 38.90550483333333, "lon": -77.03250766666666, "rental_uris": {"android": "https://dc.lft.to/lastmile_qr_scan", "ios": "https://dc.lft.to/lastmile_qr_scan"}, "is_disabled": 0, "fusion_lat": 0.0, "name": "db6185ccce65a5f47df36b874fa76223", "fusion_lon": 0.0}, {"is_reserved": 0, "type": "electric_scooter", "bike_id": "17a37485ece4daf52a0361872c4de654", "lat": 38.911811666666665, "lon": -77.019986, "rental_uris": {"android": "https://dc.lft.to/lastmile_qr_scan", "ios": "https://dc.lft.to/lastmile_qr_scan"}, "is_disabled": 0, "fusion_lat": 0.0, "name": "17a37485ece4daf52a0361872c4de654", "fusion_lon": 0.0}, {"is_reserved": 0, "type": "electric_scooter", "bike_id": "86af9865317386a639ceb0bca841aef4", "lat": 38.922718333333336, "lon": -77.03669383333333, "rental_uris": {"android": "https://dc.lft.to/lastmile_qr_scan", "ios": "https://dc.lft.to/lastmile_qr_scan"}, "is_disabled": 0, "fusion_lat": 0.0, "name": "86af9865317386a639ceb0bca841aef4", "fusion_lon": 0.0}, {"is_reserved": 0, "type": "electric_scooter", "bike_id": "e8f39f57a5d890c01a53e04f804a3f02", "lat": 38.915289666666666, "lon": -77.01995316666667, "rental_uris": {"android": "https://dc.lft.to/lastmile_qr_scan", "ios": "https://dc.lft.to/lastmile_qr_scan"}, "is_disabled": 0, "fusion_lat": 0.0, "name": "e8f39f57a5d890c01a53e04f804a3f02", "fusion_lon": 0.0}, {"is_reserved": 0, "type": "electric_scooter", "bike_id": "d3519aac0cc4f42fe9613ba7bb0b8f0f", "lat": 38.8997205, "lon": -76.99034016666667, "rental_uris": {"android": "https://dc.lft.to/lastmile_qr_scan", "ios": "https://dc.lft.to/lastmile_qr_scan"}, "is_disabled": 0, "fusion_lat": 0.0, "name": "d3519aac0cc4f42fe9613ba7bb0b8f0f", "fusion_lon": 0.0}, {"is_reserved": 0, "type": "electric_scooter", "bike_id": "b8e24e0edcb65d692a03e48d19d63aba", "lat": 38.9218105, "lon": -77.01038866666667, "rental_uris": {"android": "https://dc.lft.to/lastmile_qr_scan", "ios": "https://dc.lft.to/lastmile_qr_scan"}, "is_disabled": 0, "fusion_lat": 0.0, "name": "b8e24e0edcb65d692a03e48d19d63aba", "fusion_lon": 0.0}, {"is_reserved": 0, "type": "electric_scooter", "bike_id": "6301eb2ea11fbc9bf76dd872f3ec1d3e", "lat": 38.904372, "lon": -77.06020866666667, "rental_uris": {"android": "https://dc.lft.to/lastmile_qr_scan", "ios": "https://dc.lft.to/lastmile_qr_scan"}, "is_disabled": 0, "fusion_lat": 0.0, "name": "6301eb2ea11fbc9bf76dd872f3ec1d3e", "fusion_lon": 0.0}, {"is_reserved": 0, "type": "electric_scooter", "bike_id": "02308b42e70d8c2950c8d2bf9c5ace2c", "lat": 38.922639333333336, "lon": -77.04199766666666, "rental_uris": {"android": "https://dc.lft.to/lastmile_qr_scan", "ios": "https://dc.lft.to/lastmile_qr_scan"}, "is_disabled": 0, "fusion_lat": 0.0, "name": "02308b42e70d8c2950c8d2bf9c5ace2c", "fusion_lon": 0.0}, {"is_reserved": 0, "type": "electric_scooter", "bike_id": "aa0996debb10ffcbcff01105a8ffbc33", "lat": 38.88658266666667, "lon": -77.00211266666666, "rental_uris": {"android": "https://dc.lft.to/lastmile_qr_scan", "ios": "https://dc.lft.to/lastmile_qr_scan"}, "is_disabled": 0, "fusion_lat": 0.0, "name": "aa0996debb10ffcbcff01105a8ffbc33", "fusion_lon": 0.0}, {"is_reserved": 0, "type": "electric_scooter", "bike_id": "ce4b9a1c0c3cbc7ca7da6f23af953d4e", "lat": 38.91706933333333, "lon": -77.0241145, "rental_uris": {"android": "https://dc.lft.to/lastmile_qr_scan", "ios": "https://dc.lft.to/lastmile_qr_scan"}, "is_disabled": 0, "fusion_lat": 0.0, "name": "ce4b9a1c0c3cbc7ca7da6f23af953d4e", "fusion_lon": 0.0}, {"is_reserved": 0, "type": "electric_scooter", "bike_id": "fa1f46c462472f8f0eb140054b84b84a", "lat": 38.90145866666667, "lon": -77.02179016666666, "rental_uris": {"android": "https://dc.lft.to/lastmile_qr_scan", "ios": "https://dc.lft.to/lastmile_qr_scan"}, "is_disabled": 0, "fusion_lat": 0.0, "name": "fa1f46c462472f8f0eb140054b84b84a", "fusion_lon": 0.0}, {"is_reserved": 0, "type": "electric_scooter", "bike_id": "112edf5a50f0b6ba160a03bd147d7b57", "lat": 38.912208, "lon": -77.06581433333334, "rental_uris": {"android": "https://dc.lft.to/lastmile_qr_scan", "ios": "https://dc.lft.to/lastmile_qr_scan"}, "is_disabled": 0, "fusion_lat": 0.0, "name": "112edf5a50f0b6ba160a03bd147d7b57", "fusion_lon": 0.0}, {"is_reserved": 0, "type": "electric_scooter", "bike_id": "27fdb743b7bb4b84dba5dcfb66ffd4c6", "lat": 38.935300833333336, "lon": -77.05823833333334, "rental_uris": {"android": "https://dc.lft.to/lastmile_qr_scan", "ios": "https://dc.lft.to/lastmile_qr_scan"}, "is_disabled": 0, "fusion_lat": 0.0, "name": "27fdb743b7bb4b84dba5dcfb66ffd4c6", "fusion_lon": 0.0}, {"is_reserved": 0, "type": "electric_scooter", "bike_id": "7ad8c438ca3e397424865ff9dc126af2", "lat": 38.90282783333333, "lon": -77.03673283333333, "rental_uris": {"android": "https://dc.lft.to/lastmile_qr_scan", "ios": "https://dc.lft.to/lastmile_qr_scan"}, "is_disabled": 0, "fusion_lat": 0.0, "name": "7ad8c438ca3e397424865ff9dc126af2", "fusion_lon": 0.0}, {"is_reserved": 0, "type": "electric_scooter", "bike_id": "b08877a67ca82d3786a9ab8554a72ed0", "lat": 38.883041666666664, "lon": -76.948544, "rental_uris": {"android": "https://dc.lft.to/lastmile_qr_scan", "ios": "https://dc.lft.to/lastmile_qr_scan"}, "is_disabled": 0, "fusion_lat": 0.0, "name": "b08877a67ca82d3786a9ab8554a72ed0", "fusion_lon": 0.0}, {"is_reserved": 0, "type": "electric_scooter", "bike_id": "6142fafe1bfa2a458805f6bb4796e7b4", "lat": 38.92379283333333, "lon": -77.02885983333333, "rental_uris": {"android": "https://dc.lft.to/lastmile_qr_scan", "ios": "https://dc.lft.to/lastmile_qr_scan"}, "is_disabled": 0, "fusion_lat": 0.0, "name": "6142fafe1bfa2a458805f6bb4796e7b4", "fusion_lon": 0.0}, {"is_reserved": 0, "type": "electric_scooter", "bike_id": "6647c959f348a6aa0383eb5b48ddea00", "lat": 38.9304545, "lon": -77.077742, "rental_uris": {"android": "https://dc.lft.to/lastmile_qr_scan", "ios": "https://dc.lft.to/lastmile_qr_scan"}, "is_disabled": 0, "fusion_lat": 0.0, "name": "6647c959f348a6aa0383eb5b48ddea00", "fusion_lon": 0.0}, {"is_reserved": 0, "type": "electric_scooter", "bike_id": "a3711ccaba7a6cdd199c12ae0a7cba67", "lat": 38.89913966666667, "lon": -77.00345733333333, "rental_uris": {"android": "https://dc.lft.to/lastmile_qr_scan", "ios": "https://dc.lft.to/lastmile_qr_scan"}, "is_disabled": 0, "fusion_lat": 0.0, "name": "a3711ccaba7a6cdd199c12ae0a7cba67", "fusion_lon": 0.0}, {"is_reserved": 0, "type": "electric_scooter", "bike_id": "c12f3688883a12e664fba7755e8ff683", "lat": 38.91003583333333, "lon": -76.99412633333333, "rental_uris": {"android": "https://dc.lft.to/lastmile_qr_scan", "ios": "https://dc.lft.to/lastmile_qr_scan"}, "is_disabled": 0, "fusion_lat": 0.0, "name": "c12f3688883a12e664fba7755e8ff683", "fusion_lon": 0.0}, {"is_reserved": 0, "type": "electric_scooter", "bike_id": "66ec5da6f83f5ec765d3293e8a080d87", "lat": 38.90390583333333, "lon": -77.05079966666666, "rental_uris": {"android": "https://dc.lft.to/lastmile_qr_scan", "ios": "https://dc.lft.to/lastmile_qr_scan"}, "is_disabled": 0, "fusion_lat": 0.0, "name": "66ec5da6f83f5ec765d3293e8a080d87", "fusion_lon": 0.0}, {"is_reserved": 0, "type": "electric_scooter", "bike_id": "ac7b90f33cf8fd34742f8290536f9afe", "lat": 38.8747045, "lon": -77.00545383333333, "rental_uris": {"android": "https://dc.lft.to/lastmile_qr_scan", "ios": "https://dc.lft.to/lastmile_qr_scan"}, "is_disabled": 0, "fusion_lat": 0.0, "name": "ac7b90f33cf8fd34742f8290536f9afe", "fusion_lon": 0.0}, {"is_reserved": 0, "type": "electric_scooter", "bike_id": "e7af9c36e0eaac8a7a54f534aee09beb", "lat": 38.887724666666664, "lon": -76.991606, "rental_uris": {"android": "https://dc.lft.to/lastmile_qr_scan", "ios": "https://dc.lft.to/lastmile_qr_scan"}, "is_disabled": 0, "fusion_lat": 0.0, "name": "e7af9c36e0eaac8a7a54f534aee09beb", "fusion_lon": 0.0}, {"is_reserved": 0, "type": "electric_scooter", "bike_id": "84490661f51783cc258bceacf59927ea", "lat": 38.901117666666664, "lon": -77.06000466666667, "rental_uris": {"android": "https://dc.lft.to/lastmile_qr_scan", "ios": "https://dc.lft.to/lastmile_qr_scan"}, "is_disabled": 0, "fusion_lat": 0.0, "name": "84490661f51783cc258bceacf59927ea", "fusion_lon": 0.0}, {"is_reserved": 0, "type": "electric_scooter", "bike_id": "71674f69323cc827dbd7cee052fd7dfd", "lat": 38.89861283333333, "lon": -76.94699016666667, "rental_uris": {"android": "https://dc.lft.to/lastmile_qr_scan", "ios": "https://dc.lft.to/lastmile_qr_scan"}, "is_disabled": 0, "fusion_lat": 0.0, "name": "71674f69323cc827dbd7cee052fd7dfd", "fusion_lon": 0.0}, {"is_reserved": 0, "type": "electric_scooter", "bike_id": "d7f40de5e5fe279cf9262ab6cb9f0473", "lat": 38.89616083333333, "lon": -76.9966765, "rental_uris": {"android": "https://dc.lft.to/lastmile_qr_scan", "ios": "https://dc.lft.to/lastmile_qr_scan"}, "is_disabled": 0, "fusion_lat": 0.0, "name": "d7f40de5e5fe279cf9262ab6cb9f0473", "fusion_lon": 0.0}, {"is_reserved": 0, "type": "electric_scooter", "bike_id": "b60264ea23ddce24a5f8135e83ed62ff", "lat": 38.9243585, "lon": -77.05212516666667, "rental_uris": {"android": "https://dc.lft.to/lastmile_qr_scan", "ios": "https://dc.lft.to/lastmile_qr_scan"}, "is_disabled": 0, "fusion_lat": 0.0, "name": "b60264ea23ddce24a5f8135e83ed62ff", "fusion_lon": 0.0}, {"is_reserved": 0, "type": "electric_scooter", "bike_id": "e1c7eb1f7eca34a2edeeee74e5213bba", "lat": 38.87940666666667, "lon": -77.01660516666666, "rental_uris": {"android": "https://dc.lft.to/lastmile_qr_scan", "ios": "https://dc.lft.to/lastmile_qr_scan"}, "is_disabled": 0, "fusion_lat": 0.0, "name": "e1c7eb1f7eca34a2edeeee74e5213bba", "fusion_lon": 0.0}, {"is_reserved": 0, "type": "electric_bike", "bike_id": "7f100c24de5f79067e8cb8b9aa78dda1", "lat": 38.84115716666667, "lon": -77.08944, "rental_uris": {"android": "https://dc.lft.to/lastmile_qr_scan", "ios": "https://dc.lft.to/lastmile_qr_scan"}, "is_disabled": 0, "fusion_lat": 0.0, "name": "7f100c24de5f79067e8cb8b9aa78dda1", "fusion_lon": 0.0}, {"is_reserved": 0, "type": "electric_scooter", "bike_id": "865fcfcf054eb375f7e82f93f6ed3a80", "lat": 38.9140475, "lon": -77.04472366666667, "rental_uris": {"android": "https://dc.lft.to/lastmile_qr_scan", "ios": "https://dc.lft.to/lastmile_qr_scan"}, "is_disabled": 0, "fusion_lat": 0.0, "name": "865fcfcf054eb375f7e82f93f6ed3a80", "fusion_lon": 0.0}, {"is_reserved": 0, "type": "electric_scooter", "bike_id": "dce4ff0fa8ae0b0f4bc32ddc4e056035", "lat": 38.9078785, "lon": -77.02816616666667, "rental_uris": {"android": "https://dc.lft.to/lastmile_qr_scan", "ios": "https://dc.lft.to/lastmile_qr_scan"}, "is_disabled": 0, "fusion_lat": 0.0, "name": "dce4ff0fa8ae0b0f4bc32ddc4e056035", "fusion_lon": 0.0}, {"is_reserved": 0, "type": "electric_bike", "bike_id": "3a9a9fadb097477ec9f05502beee1a79", "lat": 38.9586915, "lon": -76.97051883333333, "rental_uris": {"android": "https://dc.lft.to/lastmile_qr_scan", "ios": "https://dc.lft.to/lastmile_qr_scan"}, "is_disabled": 0, "fusion_lat": 0.0, "name": "3a9a9fadb097477ec9f05502beee1a79", "fusion_lon": 0.0}, {"is_reserved": 0, "type": "electric_scooter", "bike_id": "55cdf60c71c5f8b05ee0fd036aaf5679", "lat": 38.90112933333333, "lon": -77.03198366666666, "rental_uris": {"android": "https://dc.lft.to/lastmile_qr_scan", "ios": "https://dc.lft.to/lastmile_qr_scan"}, "is_disabled": 0, "fusion_lat": 0.0, "name": "55cdf60c71c5f8b05ee0fd036aaf5679", "fusion_lon": 0.0}, {"is_reserved": 0, "type": "electric_bike", "bike_id": "19ea919a3ad7c4a231a5a900842e4c34", "lat": 38.9456205, "lon": -76.958398, "rental_uris": {"android": "https://dc.lft.to/lastmile_qr_scan", "ios": "https://dc.lft.to/lastmile_qr_scan"}, "is_disabled": 0, "fusion_lat": 0.0, "name": "19ea919a3ad7c4a231a5a900842e4c34", "fusion_lon": 0.0}, {"is_reserved": 0, "type": "electric_scooter", "bike_id": "58e2e791c96eaedffcb38e2de6d845b0", "lat": 38.90197166666667, "lon": -77.05118333333333, "rental_uris": {"android": "https://dc.lft.to/lastmile_qr_scan", "ios": "https://dc.lft.to/lastmile_qr_scan"}, "is_disabled": 0, "fusion_lat": 0.0, "name": "58e2e791c96eaedffcb38e2de6d845b0", "fusion_lon": 0.0}, {"is_reserved": 0, "type": "electric_bike", "bike_id": "146c45f44efd39a8242f1bc99d1a7f54", "lat": 38.91860533333333, "lon": -76.960866, "rental_uris": {"android": "https://dc.lft.to/lastmile_qr_scan", "ios": "https://dc.lft.to/lastmile_qr_scan"}, "is_disabled": 0, "fusion_lat": 0.0, "name": "146c45f44efd39a8242f1bc99d1a7f54", "fusion_lon": 0.0}, {"is_reserved": 0, "type": "electric_scooter", "bike_id": "8fdac26d2f7f6bbd5ba381255ad49b4e", "lat": 38.889871, "lon": -77.00075016666666, "rental_uris": {"android": "https://dc.lft.to/lastmile_qr_scan", "ios": "https://dc.lft.to/lastmile_qr_scan"}, "is_disabled": 0, "fusion_lat": 0.0, "name": "8fdac26d2f7f6bbd5ba381255ad49b4e", "fusion_lon": 0.0}, {"is_reserved": 0, "type": "electric_scooter", "bike_id": "aba07765b7b45931384172e663da15d1", "lat": 38.89737083333333, "lon": -77.02014733333333, "rental_uris": {"android": "https://dc.lft.to/lastmile_qr_scan", "ios": "https://dc.lft.to/lastmile_qr_scan"}, "is_disabled": 0, "fusion_lat": 0.0, "name": "aba07765b7b45931384172e663da15d1", "fusion_lon": 0.0}, {"is_reserved": 0, "type": "electric_scooter", "bike_id": "7e6af2a430378f05681e0028d0853146", "lat": 38.912688833333334, "lon": -77.03713533333334, "rental_uris": {"android": "https://dc.lft.to/lastmile_qr_scan", "ios": "https://dc.lft.to/lastmile_qr_scan"}, "is_disabled": 0, "fusion_lat": 0.0, "name": "7e6af2a430378f05681e0028d0853146", "fusion_lon": 0.0}, {"is_reserved": 0, "type": "electric_scooter", "bike_id": "b9034d537ff34739f13129be71918d81", "lat": 38.92084883333333, "lon": -77.01371883333333, "rental_uris": {"android": "https://dc.lft.to/lastmile_qr_scan", "ios": "https://dc.lft.to/lastmile_qr_scan"}, "is_disabled": 0, "fusion_lat": 0.0, "name": "b9034d537ff34739f13129be71918d81", "fusion_lon": 0.0}, {"is_reserved": 0, "type": "electric_scooter", "bike_id": "ca129bccb7e80588fd5f839967677c18", "lat": 38.8935765, "lon": -77.02828083333333, "rental_uris": {"android": "https://dc.lft.to/lastmile_qr_scan", "ios": "https://dc.lft.to/lastmile_qr_scan"}, "is_disabled": 0, "fusion_lat": 0.0, "name": "ca129bccb7e80588fd5f839967677c18", "fusion_lon": 0.0}, {"is_reserved": 0, "type": "electric_scooter", "bike_id": "b46853a3f7f867368dd7bf259c276365", "lat": 38.90401083333333, "lon": -77.06776466666666, "rental_uris": {"android": "https://dc.lft.to/lastmile_qr_scan", "ios": "https://dc.lft.to/lastmile_qr_scan"}, "is_disabled": 0, "fusion_lat": 0.0, "name": "b46853a3f7f867368dd7bf259c276365", "fusion_lon": 0.0}, {"is_reserved": 0, "type": "electric_scooter", "bike_id": "8c50ac6157d9f5889cb970eb9b710b03", "lat": 38.92310666666667, "lon": -77.04125416666666, "rental_uris": {"android": "https://dc.lft.to/lastmile_qr_scan", "ios": "https://dc.lft.to/lastmile_qr_scan"}, "is_disabled": 0, "fusion_lat": 0.0, "name": "8c50ac6157d9f5889cb970eb9b710b03", "fusion_lon": 0.0}, {"is_reserved": 0, "type": "electric_scooter", "bike_id": "b5ef0ee1a8a63a539e5bfcfac15d7ff3", "lat": 38.92569016666667, "lon": -76.99503866666667, "rental_uris": {"android": "https://dc.lft.to/lastmile_qr_scan", "ios": "https://dc.lft.to/lastmile_qr_scan"}, "is_disabled": 0, "fusion_lat": 0.0, "name": "b5ef0ee1a8a63a539e5bfcfac15d7ff3", "fusion_lon": 0.0}, {"is_reserved": 0, "type": "electric_scooter", "bike_id": "d72ffa9429b7cd60cfb51eddd7130a43", "lat": 38.90173333333333, "lon": -77.02197966666667, "rental_uris": {"android": "https://dc.lft.to/lastmile_qr_scan", "ios": "https://dc.lft.to/lastmile_qr_scan"}, "is_disabled": 0, "fusion_lat": 0.0, "name": "d72ffa9429b7cd60cfb51eddd7130a43", "fusion_lon": 0.0}, {"is_reserved": 0, "type": "electric_scooter", "bike_id": "69e498946a3d8e892d88483ec8912f1e", "lat": 38.92902016666667, "lon": -77.03279216666667, "rental_uris": {"android": "https://dc.lft.to/lastmile_qr_scan", "ios": "https://dc.lft.to/lastmile_qr_scan"}, "is_disabled": 0, "fusion_lat": 0.0, "name": "69e498946a3d8e892d88483ec8912f1e", "fusion_lon": 0.0}, {"is_reserved": 0, "type": "electric_scooter", "bike_id": "9b98b17b2e0af4ddff1fba93920a9263", "lat": 38.87845983333333, "lon": -77.00883816666666, "rental_uris": {"android": "https://dc.lft.to/lastmile_qr_scan", "ios": "https://dc.lft.to/lastmile_qr_scan"}, "is_disabled": 0, "fusion_lat": 0.0, "name": "9b98b17b2e0af4ddff1fba93920a9263", "fusion_lon": 0.0}, {"is_reserved": 0, "type": "electric_scooter", "bike_id": "c9225efebbc991c80edb388c001c4d80", "lat": 38.892298333333336, "lon": -77.04871583333333, "rental_uris": {"android": "https://dc.lft.to/lastmile_qr_scan", "ios": "https://dc.lft.to/lastmile_qr_scan"}, "is_disabled": 0, "fusion_lat": 0.0, "name": "c9225efebbc991c80edb388c001c4d80", "fusion_lon": 0.0}, {"is_reserved": 0, "type": "electric_scooter", "bike_id": "e77bd18f13f5cf91d37d3463e027cd33", "lat": 38.900334666666666, "lon": -76.98852133333334, "rental_uris": {"android": "https://dc.lft.to/lastmile_qr_scan", "ios": "https://dc.lft.to/lastmile_qr_scan"}, "is_disabled": 0, "fusion_lat": 0.0, "name": "e77bd18f13f5cf91d37d3463e027cd33", "fusion_lon": 0.0}, {"is_reserved": 0, "type": "electric_scooter", "bike_id": "65a82b9f8f62cb869d4712224825db71", "lat": 38.899503833333334, "lon": -77.0264335, "rental_uris": {"android": "https://dc.lft.to/lastmile_qr_scan", "ios": "https://dc.lft.to/lastmile_qr_scan"}, "is_disabled": 0, "fusion_lat": 0.0, "name": "65a82b9f8f62cb869d4712224825db71", "fusion_lon": 0.0}, {"is_reserved": 0, "type": "electric_scooter", "bike_id": "f5f907f43a6ffe690705067240fb823a", "lat": 38.92177783333333, "lon": -76.99628416666667, "rental_uris": {"android": "https://dc.lft.to/lastmile_qr_scan", "ios": "https://dc.lft.to/lastmile_qr_scan"}, "is_disabled": 0, "fusion_lat": 0.0, "name": "f5f907f43a6ffe690705067240fb823a", "fusion_lon": 0.0}, {"is_reserved": 0, "type": "electric_scooter", "bike_id": "61bdd0f0fe5c21e45dd7db6a6bc0c39d", "lat": 38.905636, "lon": -76.98145, "rental_uris": {"android": "https://dc.lft.to/lastmile_qr_scan", "ios": "https://dc.lft.to/lastmile_qr_scan"}, "is_disabled": 0, "fusion_lat": 0.0, "name": "61bdd0f0fe5c21e45dd7db6a6bc0c39d", "fusion_lon": 0.0}, {"is_reserved": 0, "type": "electric_bike", "bike_id": "5083dc16e54a54dc5e920f848494ff3b", "lat": 38.84941033333333, "lon": -77.11752466666667, "rental_uris": {"android": "https://dc.lft.to/lastmile_qr_scan", "ios": "https://dc.lft.to/lastmile_qr_scan"}, "is_disabled": 0, "fusion_lat": 0.0, "name": "5083dc16e54a54dc5e920f848494ff3b", "fusion_lon": 0.0}, {"is_reserved": 0, "type": "electric_scooter", "bike_id": "fe677390f1b1853e906356fd6898415c", "lat": 38.905694833333335, "lon": -77.04165533333334, "rental_uris": {"android": "https://dc.lft.to/lastmile_qr_scan", "ios": "https://dc.lft.to/lastmile_qr_scan"}, "is_disabled": 0, "fusion_lat": 0.0, "name": "fe677390f1b1853e906356fd6898415c", "fusion_lon": 0.0}, {"is_reserved": 0, "type": "electric_scooter", "bike_id": "28198da5ee7dd85ceb90642e3be73381", "lat": 38.9186, "lon": -77.0451705, "rental_uris": {"android": "https://dc.lft.to/lastmile_qr_scan", "ios": "https://dc.lft.to/lastmile_qr_scan"}, "is_disabled": 0, "fusion_lat": 0.0, "name": "28198da5ee7dd85ceb90642e3be73381", "fusion_lon": 0.0}, {"is_reserved": 0, "type": "electric_scooter", "bike_id": "8d16a180dea53d976fec1a847909ad12", "lat": 38.92420516666667, "lon": -77.02006216666666, "rental_uris": {"android": "https://dc.lft.to/lastmile_qr_scan", "ios": "https://dc.lft.to/lastmile_qr_scan"}, "is_disabled": 0, "fusion_lat": 0.0, "name": "8d16a180dea53d976fec1a847909ad12", "fusion_lon": 0.0}, {"is_reserved": 0, "type": "electric_scooter", "bike_id": "836ff11be8390c5ce502eac5711fef90", "lat": 38.88686233333333, "lon": -76.99022783333334, "rental_uris": {"android": "https://dc.lft.to/lastmile_qr_scan", "ios": "https://dc.lft.to/lastmile_qr_scan"}, "is_disabled": 0, "fusion_lat": 0.0, "name": "836ff11be8390c5ce502eac5711fef90", "fusion_lon": 0.0}, {"is_reserved": 0, "type": "electric_scooter", "bike_id": "d471a805e43380757e9d8e3c676a2d4c", "lat": 38.921367833333335, "lon": -77.01221266666667, "rental_uris": {"android": "https://dc.lft.to/lastmile_qr_scan", "ios": "https://dc.lft.to/lastmile_qr_scan"}, "is_disabled": 0, "fusion_lat": 0.0, "name": "d471a805e43380757e9d8e3c676a2d4c", "fusion_lon": 0.0}, {"is_reserved": 0, "type": "electric_scooter", "bike_id": "f17a94d8b3e42e2930ac13683bd9198d", "lat": 38.9071605, "lon": -77.04470533333334, "rental_uris": {"android": "https://dc.lft.to/lastmile_qr_scan", "ios": "https://dc.lft.to/lastmile_qr_scan"}, "is_disabled": 0, "fusion_lat": 0.0, "name": "f17a94d8b3e42e2930ac13683bd9198d", "fusion_lon": 0.0}, {"is_reserved": 0, "type": "electric_scooter", "bike_id": "4c7dec9e0583ce25002a84804eaadd38", "lat": 38.903690833333336, "lon": -77.01633, "rental_uris": {"android": "https://dc.lft.to/lastmile_qr_scan", "ios": "https://dc.lft.to/lastmile_qr_scan"}, "is_disabled": 0, "fusion_lat": 0.0, "name": "4c7dec9e0583ce25002a84804eaadd38", "fusion_lon": 0.0}, {"is_reserved": 0, "type": "electric_scooter", "bike_id": "e27ff4bb316541db9ea4c5be6e697fe2", "lat": 38.887698, "lon": -76.93264283333333, "rental_uris": {"android": "https://dc.lft.to/lastmile_qr_scan", "ios": "https://dc.lft.to/lastmile_qr_scan"}, "is_disabled": 0, "fusion_lat": 0.0, "name": "e27ff4bb316541db9ea4c5be6e697fe2", "fusion_lon": 0.0}, {"is_reserved": 0, "type": "electric_scooter", "bike_id": "ce7a935762b61bdbc52044b4b5699ec6", "lat": 38.93177716666667, "lon": -77.02631133333334, "rental_uris": {"android": "https://dc.lft.to/lastmile_qr_scan", "ios": "https://dc.lft.to/lastmile_qr_scan"}, "is_disabled": 0, "fusion_lat": 0.0, "name": "ce7a935762b61bdbc52044b4b5699ec6", "fusion_lon": 0.0}, {"is_reserved": 0, "type": "electric_scooter", "bike_id": "796b508adc9584810e3a1aee2117c105", "lat": 38.9170125, "lon": -77.03240416666667, "rental_uris": {"android": "https://dc.lft.to/lastmile_qr_scan", "ios": "https://dc.lft.to/lastmile_qr_scan"}, "is_disabled": 0, "fusion_lat": 0.0, "name": "796b508adc9584810e3a1aee2117c105", "fusion_lon": 0.0}, {"is_reserved": 0, "type": "electric_scooter", "bike_id": "6a221289f3ef7b1f977b07b8e1001c6f", "lat": 38.9170415, "lon": -77.0340325, "rental_uris": {"android": "https://dc.lft.to/lastmile_qr_scan", "ios": "https://dc.lft.to/lastmile_qr_scan"}, "is_disabled": 0, "fusion_lat": 0.0, "name": "6a221289f3ef7b1f977b07b8e1001c6f", "fusion_lon": 0.0}, {"is_reserved": 0, "type": "electric_scooter", "bike_id": "7ef51a577caf84aba51d6397a818a84c", "lat": 38.930483833333334, "lon": -77.02338166666667, "rental_uris": {"android": "https://dc.lft.to/lastmile_qr_scan", "ios": "https://dc.lft.to/lastmile_qr_scan"}, "is_disabled": 0, "fusion_lat": 0.0, "name": "7ef51a577caf84aba51d6397a818a84c", "fusion_lon": 0.0}, {"is_reserved": 0, "type": "electric_scooter", "bike_id": "e4bc9934fd97193f9aa7438074572747", "lat": 38.900606833333335, "lon": -77.044137, "rental_uris": {"android": "https://dc.lft.to/lastmile_qr_scan", "ios": "https://dc.lft.to/lastmile_qr_scan"}, "is_disabled": 0, "fusion_lat": 0.0, "name": "e4bc9934fd97193f9aa7438074572747", "fusion_lon": 0.0}, {"is_reserved": 0, "type": "electric_scooter", "bike_id": "cbaab25de604776f511825d2cd74d48e", "lat": 38.91001383333333, "lon": -77.04009733333334, "rental_uris": {"android": "https://dc.lft.to/lastmile_qr_scan", "ios": "https://dc.lft.to/lastmile_qr_scan"}, "is_disabled": 0, "fusion_lat": 0.0, "name": "cbaab25de604776f511825d2cd74d48e", "fusion_lon": 0.0}, {"is_reserved": 0, "type": "electric_scooter", "bike_id": "b7e7f5f57944723391421818fdc472b1", "lat": 38.89761333333333, "lon": -77.00195833333333, "rental_uris": {"android": "https://dc.lft.to/lastmile_qr_scan", "ios": "https://dc.lft.to/lastmile_qr_scan"}, "is_disabled": 0, "fusion_lat": 0.0, "name": "b7e7f5f57944723391421818fdc472b1", "fusion_lon": 0.0}, {"is_reserved": 0, "type": "electric_scooter", "bike_id": "ab71ec8ab5dff18598794c450a70a336", "lat": 38.91766466666667, "lon": -77.04061616666667, "rental_uris": {"android": "https://dc.lft.to/lastmile_qr_scan", "ios": "https://dc.lft.to/lastmile_qr_scan"}, "is_disabled": 0, "fusion_lat": 0.0, "name": "ab71ec8ab5dff18598794c450a70a336", "fusion_lon": 0.0}, {"is_reserved": 0, "type": "electric_scooter", "bike_id": "4e7aeacab8ca6372afc7df993b740c21", "lat": 38.8806185, "lon": -77.02558016666667, "rental_uris": {"android": "https://dc.lft.to/lastmile_qr_scan", "ios": "https://dc.lft.to/lastmile_qr_scan"}, "is_disabled": 0, "fusion_lat": 0.0, "name": "4e7aeacab8ca6372afc7df993b740c21", "fusion_lon": 0.0}, {"is_reserved": 0, "type": "electric_scooter", "bike_id": "a58e4597bcf3a732bb52f33fe05a4131", "lat": 38.894801, "lon": -76.99559916666666, "rental_uris": {"android": "https://dc.lft.to/lastmile_qr_scan", "ios": "https://dc.lft.to/lastmile_qr_scan"}, "is_disabled": 0, "fusion_lat": 0.0, "name": "a58e4597bcf3a732bb52f33fe05a4131", "fusion_lon": 0.0}, {"is_reserved": 0, "type": "electric_scooter", "bike_id": "860a616a156a4eb2da760544949fe458", "lat": 38.9034955, "lon": -77.02805016666667, "rental_uris": {"android": "https://dc.lft.to/lastmile_qr_scan", "ios": "https://dc.lft.to/lastmile_qr_scan"}, "is_disabled": 0, "fusion_lat": 0.0, "name": "860a616a156a4eb2da760544949fe458", "fusion_lon": 0.0}, {"is_reserved": 0, "type": "electric_scooter", "bike_id": "e9a4b11c61b7384be1d4ef9ae3a410e0", "lat": 38.898368166666664, "lon": -77.0281515, "rental_uris": {"android": "https://dc.lft.to/lastmile_qr_scan", "ios": "https://dc.lft.to/lastmile_qr_scan"}, "is_disabled": 0, "fusion_lat": 0.0, "name": "e9a4b11c61b7384be1d4ef9ae3a410e0", "fusion_lon": 0.0}, {"is_reserved": 0, "type": "electric_scooter", "bike_id": "40afb1ca4cb2d33a80d74fe5a16f789c", "lat": 38.903934, "lon": -77.0532065, "rental_uris": {"android": "https://dc.lft.to/lastmile_qr_scan", "ios": "https://dc.lft.to/lastmile_qr_scan"}, "is_disabled": 0, "fusion_lat": 0.0, "name": "40afb1ca4cb2d33a80d74fe5a16f789c", "fusion_lon": 0.0}, {"is_reserved": 0, "type": "electric_scooter", "bike_id": "d231c6321f2de5513e95c2dc8f2fd4ec", "lat": 38.90149016666667, "lon": -77.0217995, "rental_uris": {"android": "https://dc.lft.to/lastmile_qr_scan", "ios": "https://dc.lft.to/lastmile_qr_scan"}, "is_disabled": 0, "fusion_lat": 0.0, "name": "d231c6321f2de5513e95c2dc8f2fd4ec", "fusion_lon": 0.0}, {"is_reserved": 0, "type": "electric_scooter", "bike_id": "56250e4573a54c5131d4e3f0d4c558b1", "lat": 38.90681566666667, "lon": -77.06283366666666, "rental_uris": {"android": "https://dc.lft.to/lastmile_qr_scan", "ios": "https://dc.lft.to/lastmile_qr_scan"}, "is_disabled": 0, "fusion_lat": 0.0, "name": "56250e4573a54c5131d4e3f0d4c558b1", "fusion_lon": 0.0}, {"is_reserved": 0, "type": "electric_scooter", "bike_id": "96bdefd6bb51cd46b87d28bdce6c1555", "lat": 38.92247883333334, "lon": -77.02881833333333, "rental_uris": {"android": "https://dc.lft.to/lastmile_qr_scan", "ios": "https://dc.lft.to/lastmile_qr_scan"}, "is_disabled": 0, "fusion_lat": 0.0, "name": "96bdefd6bb51cd46b87d28bdce6c1555", "fusion_lon": 0.0}, {"is_reserved": 0, "type": "electric_scooter", "bike_id": "529f01253ef3b6dad9d3532a803af088", "lat": 38.90174433333333, "lon": -76.92892266666667, "rental_uris": {"android": "https://dc.lft.to/lastmile_qr_scan", "ios": "https://dc.lft.to/lastmile_qr_scan"}, "is_disabled": 0, "fusion_lat": 0.0, "name": "529f01253ef3b6dad9d3532a803af088", "fusion_lon": 0.0}, {"is_reserved": 0, "type": "electric_scooter", "bike_id": "2afc8bf652b17495f65111a560228ff3", "lat": 38.92432633333333, "lon": -77.0223855, "rental_uris": {"android": "https://dc.lft.to/lastmile_qr_scan", "ios": "https://dc.lft.to/lastmile_qr_scan"}, "is_disabled": 0, "fusion_lat": 0.0, "name": "2afc8bf652b17495f65111a560228ff3", "fusion_lon": 0.0}, {"is_reserved": 0, "type": "electric_scooter", "bike_id": "a6a3ac3946adfb10c8c6f09135d9bab3", "lat": 38.90028, "lon": -76.99604016666666, "rental_uris": {"android": "https://dc.lft.to/lastmile_qr_scan", "ios": "https://dc.lft.to/lastmile_qr_scan"}, "is_disabled": 0, "fusion_lat": 0.0, "name": "a6a3ac3946adfb10c8c6f09135d9bab3", "fusion_lon": 0.0}, {"is_reserved": 0, "type": "electric_bike", "bike_id": "477382bc6a00df1d7ad0c850683dbd0c", "lat": 38.80729733333333, "lon": -76.99256783333334, "rental_uris": {"android": "https://dc.lft.to/lastmile_qr_scan", "ios": "https://dc.lft.to/lastmile_qr_scan"}, "is_disabled": 0, "fusion_lat": 0.0, "name": "477382bc6a00df1d7ad0c850683dbd0c", "fusion_lon": 0.0}, {"is_reserved": 0, "type": "electric_scooter", "bike_id": "406204f69babb1121915a6eac40f251f", "lat": 38.90553966666667, "lon": -77.05701866666666, "rental_uris": {"android": "https://dc.lft.to/lastmile_qr_scan", "ios": "https://dc.lft.to/lastmile_qr_scan"}, "is_disabled": 0, "fusion_lat": 0.0, "name": "406204f69babb1121915a6eac40f251f", "fusion_lon": 0.0}, {"is_reserved": 0, "type": "electric_scooter", "bike_id": "7e2cb28b25843ef14f0d6276021354af", "lat": 38.897124833333336, "lon": -77.05362866666667, "rental_uris": {"android": "https://dc.lft.to/lastmile_qr_scan", "ios": "https://dc.lft.to/lastmile_qr_scan"}, "is_disabled": 0, "fusion_lat": 0.0, "name": "7e2cb28b25843ef14f0d6276021354af", "fusion_lon": 0.0}, {"is_reserved": 0, "type": "electric_scooter", "bike_id": "eb52e04355fab23b7389a433e238443c", "lat": 38.872090166666666, "lon": -77.01546866666666, "rental_uris": {"android": "https://dc.lft.to/lastmile_qr_scan", "ios": "https://dc.lft.to/lastmile_qr_scan"}, "is_disabled": 0, "fusion_lat": 0.0, "name": "eb52e04355fab23b7389a433e238443c", "fusion_lon": 0.0}, {"is_reserved": 0, "type": "electric_scooter", "bike_id": "3a7db10afca05341657d68c87ec3c5d7", "lat": 38.89895466666667, "lon": -77.003614, "rental_uris": {"android": "https://dc.lft.to/lastmile_qr_scan", "ios": "https://dc.lft.to/lastmile_qr_scan"}, "is_disabled": 0, "fusion_lat": 0.0, "name": "3a7db10afca05341657d68c87ec3c5d7", "fusion_lon": 0.0}, {"is_reserved": 0, "type": "electric_bike", "bike_id": "4061be44f97f7002cb38f75c070ba71d", "lat": 38.95857566666667, "lon": -76.986138, "rental_uris": {"android": "https://dc.lft.to/lastmile_qr_scan", "ios": "https://dc.lft.to/lastmile_qr_scan"}, "is_disabled": 0, "fusion_lat": 0.0, "name": "4061be44f97f7002cb38f75c070ba71d", "fusion_lon": 0.0}, {"is_reserved": 0, "type": "electric_scooter", "bike_id": "c33da98e4f1133946363ec6a09afec7a", "lat": 38.89804433333333, "lon": -76.99504616666667, "rental_uris": {"android": "https://dc.lft.to/lastmile_qr_scan", "ios": "https://dc.lft.to/lastmile_qr_scan"}, "is_disabled": 0, "fusion_lat": 0.0, "name": "c33da98e4f1133946363ec6a09afec7a", "fusion_lon": 0.0}, {"is_reserved": 0, "type": "electric_scooter", "bike_id": "1003effc240372b19a760ea4d7649e82", "lat": 38.903533833333334, "lon": -77.03521283333333, "rental_uris": {"android": "https://dc.lft.to/lastmile_qr_scan", "ios": "https://dc.lft.to/lastmile_qr_scan"}, "is_disabled": 0, "fusion_lat": 0.0, "name": "1003effc240372b19a760ea4d7649e82", "fusion_lon": 0.0}, {"is_reserved": 0, "type": "electric_scooter", "bike_id": "8cf155f2e77b671c6f567b4187187ca8", "lat": 38.910886166666664, "lon": -77.0384185, "rental_uris": {"android": "https://dc.lft.to/lastmile_qr_scan", "ios": "https://dc.lft.to/lastmile_qr_scan"}, "is_disabled": 0, "fusion_lat": 0.0, "name": "8cf155f2e77b671c6f567b4187187ca8", "fusion_lon": 0.0}, {"is_reserved": 0, "type": "electric_scooter", "bike_id": "a26c7c3af4ae12677e2ffcb85758cfbc", "lat": 38.924374, "lon": -77.02033016666667, "rental_uris": {"android": "https://dc.lft.to/lastmile_qr_scan", "ios": "https://dc.lft.to/lastmile_qr_scan"}, "is_disabled": 0, "fusion_lat": 0.0, "name": "a26c7c3af4ae12677e2ffcb85758cfbc", "fusion_lon": 0.0}, {"is_reserved": 0, "type": "electric_scooter", "bike_id": "cac331e1128da9cd839426fdc20248af", "lat": 38.91024783333334, "lon": -77.03445416666666, "rental_uris": {"android": "https://dc.lft.to/lastmile_qr_scan", "ios": "https://dc.lft.to/lastmile_qr_scan"}, "is_disabled": 0, "fusion_lat": 0.0, "name": "cac331e1128da9cd839426fdc20248af", "fusion_lon": 0.0}, {"is_reserved": 0, "type": "electric_scooter", "bike_id": "afd2b69c006a0691205b8a22f8212f2a", "lat": 38.9183215, "lon": -77.04170766666667, "rental_uris": {"android": "https://dc.lft.to/lastmile_qr_scan", "ios": "https://dc.lft.to/lastmile_qr_scan"}, "is_disabled": 0, "fusion_lat": 0.0, "name": "afd2b69c006a0691205b8a22f8212f2a", "fusion_lon": 0.0}, {"is_reserved": 0, "type": "electric_scooter", "bike_id": "31fe6c59011f5392ac0b4788fb826a1b", "lat": 38.91043483333333, "lon": -77.0371345, "rental_uris": {"android": "https://dc.lft.to/lastmile_qr_scan", "ios": "https://dc.lft.to/lastmile_qr_scan"}, "is_disabled": 0, "fusion_lat": 0.0, "name": "31fe6c59011f5392ac0b4788fb826a1b", "fusion_lon": 0.0}, {"is_reserved": 0, "type": "electric_scooter", "bike_id": "0bd2e85c8b72f5681e817d146636dd10", "lat": 38.92925316666667, "lon": -77.02006766666666, "rental_uris": {"android": "https://dc.lft.to/lastmile_qr_scan", "ios": "https://dc.lft.to/lastmile_qr_scan"}, "is_disabled": 0, "fusion_lat": 0.0, "name": "0bd2e85c8b72f5681e817d146636dd10", "fusion_lon": 0.0}, {"is_reserved": 0, "type": "electric_scooter", "bike_id": "24c188f6b00f2e64aa87be167beccec6", "lat": 38.925620333333335, "lon": -76.970026, "rental_uris": {"android": "https://dc.lft.to/lastmile_qr_scan", "ios": "https://dc.lft.to/lastmile_qr_scan"}, "is_disabled": 0, "fusion_lat": 0.0, "name": "24c188f6b00f2e64aa87be167beccec6", "fusion_lon": 0.0}, {"is_reserved": 0, "type": "electric_scooter", "bike_id": "8bb12b2d1ffacf50f6f5824a10e5b7db", "lat": 38.903543, "lon": -77.03200716666667, "rental_uris": {"android": "https://dc.lft.to/lastmile_qr_scan", "ios": "https://dc.lft.to/lastmile_qr_scan"}, "is_disabled": 0, "fusion_lat": 0.0, "name": "8bb12b2d1ffacf50f6f5824a10e5b7db", "fusion_lon": 0.0}, {"is_reserved": 0, "type": "electric_scooter", "bike_id": "401e181fbcb8fb73d8825dc47f76b588", "lat": 38.90434316666666, "lon": -77.02843966666667, "rental_uris": {"android": "https://dc.lft.to/lastmile_qr_scan", "ios": "https://dc.lft.to/lastmile_qr_scan"}, "is_disabled": 0, "fusion_lat": 0.0, "name": "401e181fbcb8fb73d8825dc47f76b588", "fusion_lon": 0.0}, {"is_reserved": 0, "type": "electric_scooter", "bike_id": "0d26c4cac60f10767fb9db0b319db819", "lat": 38.906844166666666, "lon": -77.03629483333333, "rental_uris": {"android": "https://dc.lft.to/lastmile_qr_scan", "ios": "https://dc.lft.to/lastmile_qr_scan"}, "is_disabled": 0, "fusion_lat": 0.0, "name": "0d26c4cac60f10767fb9db0b319db819", "fusion_lon": 0.0}, {"is_reserved": 0, "type": "electric_scooter", "bike_id": "437c48897b7d2e1aa237491e420c0dd8", "lat": 38.9302565, "lon": -77.0334915, "rental_uris": {"android": "https://dc.lft.to/lastmile_qr_scan", "ios": "https://dc.lft.to/lastmile_qr_scan"}, "is_disabled": 0, "fusion_lat": 0.0, "name": "437c48897b7d2e1aa237491e420c0dd8", "fusion_lon": 0.0}, {"is_reserved": 0, "type": "electric_scooter", "bike_id": "1b8ec54a61b57cb389875bf09dab5498", "lat": 38.91412033333334, "lon": -77.04463633333333, "rental_uris": {"android": "https://dc.lft.to/lastmile_qr_scan", "ios": "https://dc.lft.to/lastmile_qr_scan"}, "is_disabled": 0, "fusion_lat": 0.0, "name": "1b8ec54a61b57cb389875bf09dab5498", "fusion_lon": 0.0}, {"is_reserved": 0, "type": "electric_bike", "bike_id": "3decdeaaf3f3baa0ea685aeacbb65399", "lat": 38.98175366666667, "lon": -76.98210466666667, "rental_uris": {"android": "https://dc.lft.to/lastmile_qr_scan", "ios": "https://dc.lft.to/lastmile_qr_scan"}, "is_disabled": 0, "fusion_lat": 0.0, "name": "3decdeaaf3f3baa0ea685aeacbb65399", "fusion_lon": 0.0}, {"is_reserved": 0, "type": "electric_scooter", "bike_id": "a5ef92a60690f44c560ce82d55d7ed31", "lat": 38.91983483333333, "lon": -77.0325765, "rental_uris": {"android": "https://dc.lft.to/lastmile_qr_scan", "ios": "https://dc.lft.to/lastmile_qr_scan"}, "is_disabled": 0, "fusion_lat": 0.0, "name": "a5ef92a60690f44c560ce82d55d7ed31", "fusion_lon": 0.0}, {"is_reserved": 0, "type": "electric_scooter", "bike_id": "bab437f5d32ade55965726e3c16d12b8", "lat": 38.901094, "lon": -77.03375033333333, "rental_uris": {"android": "https://dc.lft.to/lastmile_qr_scan", "ios": "https://dc.lft.to/lastmile_qr_scan"}, "is_disabled": 0, "fusion_lat": 0.0, "name": "bab437f5d32ade55965726e3c16d12b8", "fusion_lon": 0.0}, {"is_reserved": 0, "type": "electric_scooter", "bike_id": "68d4a3736ce348051e40c259f979403e", "lat": 38.9179135, "lon": -77.026996, "rental_uris": {"android": "https://dc.lft.to/lastmile_qr_scan", "ios": "https://dc.lft.to/lastmile_qr_scan"}, "is_disabled": 0, "fusion_lat": 0.0, "name": "68d4a3736ce348051e40c259f979403e", "fusion_lon": 0.0}, {"is_reserved": 0, "type": "electric_scooter", "bike_id": "57c88b3ca20ff27dc9138c522c7905f8", "lat": 38.896224333333336, "lon": -76.9569075, "rental_uris": {"android": "https://dc.lft.to/lastmile_qr_scan", "ios": "https://dc.lft.to/lastmile_qr_scan"}, "is_disabled": 0, "fusion_lat": 0.0, "name": "57c88b3ca20ff27dc9138c522c7905f8", "fusion_lon": 0.0}, {"is_reserved": 0, "type": "electric_scooter", "bike_id": "1efb3063fb9d1640e4c3935cd5da7736", "lat": 38.92449283333333, "lon": -77.02036, "rental_uris": {"android": "https://dc.lft.to/lastmile_qr_scan", "ios": "https://dc.lft.to/lastmile_qr_scan"}, "is_disabled": 0, "fusion_lat": 0.0, "name": "1efb3063fb9d1640e4c3935cd5da7736", "fusion_lon": 0.0}, {"is_reserved": 0, "type": "electric_scooter", "bike_id": "14aae635e121c5405e30d6b03ec0e6ca", "lat": 38.90877866666666, "lon": -77.076363, "rental_uris": {"android": "https://dc.lft.to/lastmile_qr_scan", "ios": "https://dc.lft.to/lastmile_qr_scan"}, "is_disabled": 0, "fusion_lat": 0.0, "name": "14aae635e121c5405e30d6b03ec0e6ca", "fusion_lon": 0.0}, {"is_reserved": 0, "type": "electric_scooter", "bike_id": "c0af5f645064e6bbd1504efcf7ec8e75", "lat": 38.916360833333336, "lon": -77.002023, "rental_uris": {"android": "https://dc.lft.to/lastmile_qr_scan", "ios": "https://dc.lft.to/lastmile_qr_scan"}, "is_disabled": 0, "fusion_lat": 0.0, "name": "c0af5f645064e6bbd1504efcf7ec8e75", "fusion_lon": 0.0}, {"is_reserved": 0, "type": "electric_scooter", "bike_id": "6b21af53610f39fd8548f1400161e51f", "lat": 38.9332885, "lon": -77.02915233333333, "rental_uris": {"android": "https://dc.lft.to/lastmile_qr_scan", "ios": "https://dc.lft.to/lastmile_qr_scan"}, "is_disabled": 0, "fusion_lat": 0.0, "name": "6b21af53610f39fd8548f1400161e51f", "fusion_lon": 0.0}, {"is_reserved": 0, "type": "electric_scooter", "bike_id": "a32993a926236a78f49ad0a11d64d9b6", "lat": 38.93021316666667, "lon": -77.023408, "rental_uris": {"android": "https://dc.lft.to/lastmile_qr_scan", "ios": "https://dc.lft.to/lastmile_qr_scan"}, "is_disabled": 0, "fusion_lat": 0.0, "name": "a32993a926236a78f49ad0a11d64d9b6", "fusion_lon": 0.0}, {"is_reserved": 0, "type": "electric_scooter", "bike_id": "1df5b7bf1dc9c2431449146c3bbd3767", "lat": 38.90553416666667, "lon": -77.03251466666667, "rental_uris": {"android": "https://dc.lft.to/lastmile_qr_scan", "ios": "https://dc.lft.to/lastmile_qr_scan"}, "is_disabled": 0, "fusion_lat": 0.0, "name": "1df5b7bf1dc9c2431449146c3bbd3767", "fusion_lon": 0.0}, {"is_reserved": 0, "type": "electric_scooter", "bike_id": "323c4a3594748c4a1b57efbfe28598a6", "lat": 38.898454666666666, "lon": -77.02214866666667, "rental_uris": {"android": "https://dc.lft.to/lastmile_qr_scan", "ios": "https://dc.lft.to/lastmile_qr_scan"}, "is_disabled": 0, "fusion_lat": 0.0, "name": "323c4a3594748c4a1b57efbfe28598a6", "fusion_lon": 0.0}, {"is_reserved": 0, "type": "electric_scooter", "bike_id": "e5c768a0bfd44e25409c3c57f0b75f1d", "lat": 38.919169333333336, "lon": -77.04805416666666, "rental_uris": {"android": "https://dc.lft.to/lastmile_qr_scan", "ios": "https://dc.lft.to/lastmile_qr_scan"}, "is_disabled": 0, "fusion_lat": 0.0, "name": "e5c768a0bfd44e25409c3c57f0b75f1d", "fusion_lon": 0.0}, {"is_reserved": 0, "type": "electric_scooter", "bike_id": "4ebb272b2bb25e0d6f0b09db1ce3cc8d", "lat": 38.90726216666667, "lon": -77.04796783333333, "rental_uris": {"android": "https://dc.lft.to/lastmile_qr_scan", "ios": "https://dc.lft.to/lastmile_qr_scan"}, "is_disabled": 0, "fusion_lat": 0.0, "name": "4ebb272b2bb25e0d6f0b09db1ce3cc8d", "fusion_lon": 0.0}, {"is_reserved": 0, "type": "electric_scooter", "bike_id": "2bb6f53c0b30f672a609664a971dae9b", "lat": 38.9236195, "lon": -77.0513275, "rental_uris": {"android": "https://dc.lft.to/lastmile_qr_scan", "ios": "https://dc.lft.to/lastmile_qr_scan"}, "is_disabled": 0, "fusion_lat": 0.0, "name": "2bb6f53c0b30f672a609664a971dae9b", "fusion_lon": 0.0}, {"is_reserved": 0, "type": "electric_scooter", "bike_id": "af2cfd241aa918ff38b1e0033585aba0", "lat": 38.900153333333336, "lon": -77.00041433333334, "rental_uris": {"android": "https://dc.lft.to/lastmile_qr_scan", "ios": "https://dc.lft.to/lastmile_qr_scan"}, "is_disabled": 0, "fusion_lat": 0.0, "name": "af2cfd241aa918ff38b1e0033585aba0", "fusion_lon": 0.0}, {"is_reserved": 0, "type": "electric_scooter", "bike_id": "84f1497a6a01a771533c7a3775374eb5", "lat": 38.91006133333333, "lon": -77.04421733333334, "rental_uris": {"android": "https://dc.lft.to/lastmile_qr_scan", "ios": "https://dc.lft.to/lastmile_qr_scan"}, "is_disabled": 0, "fusion_lat": 0.0, "name": "84f1497a6a01a771533c7a3775374eb5", "fusion_lon": 0.0}, {"is_reserved": 0, "type": "electric_scooter", "bike_id": "428c17e7ad290692262853853f1880f8", "lat": 38.91686133333333, "lon": -77.04142683333333, "rental_uris": {"android": "https://dc.lft.to/lastmile_qr_scan", "ios": "https://dc.lft.to/lastmile_qr_scan"}, "is_disabled": 0, "fusion_lat": 0.0, "name": "428c17e7ad290692262853853f1880f8", "fusion_lon": 0.0}, {"is_reserved": 0, "type": "electric_scooter", "bike_id": "6825b7ed72ba5655ac31650e6c780aa2", "lat": 38.89783416666667, "lon": -77.04782283333333, "rental_uris": {"android": "https://dc.lft.to/lastmile_qr_scan", "ios": "https://dc.lft.to/lastmile_qr_scan"}, "is_disabled": 0, "fusion_lat": 0.0, "name": "6825b7ed72ba5655ac31650e6c780aa2", "fusion_lon": 0.0}, {"is_reserved": 0, "type": "electric_scooter", "bike_id": "01b2d9875a55023f9f331e5d881072e0", "lat": 38.921987, "lon": -77.020339, "rental_uris": {"android": "https://dc.lft.to/lastmile_qr_scan", "ios": "https://dc.lft.to/lastmile_qr_scan"}, "is_disabled": 0, "fusion_lat": 0.0, "name": "01b2d9875a55023f9f331e5d881072e0", "fusion_lon": 0.0}, {"is_reserved": 0, "type": "electric_scooter", "bike_id": "8dae4cf959ce41921134816faa65a4ab", "lat": 38.903795, "lon": -77.03677916666666, "rental_uris": {"android": "https://dc.lft.to/lastmile_qr_scan", "ios": "https://dc.lft.to/lastmile_qr_scan"}, "is_disabled": 0, "fusion_lat": 0.0, "name": "8dae4cf959ce41921134816faa65a4ab", "fusion_lon": 0.0}, {"is_reserved": 0, "type": "electric_scooter", "bike_id": "f9a5d1b076c93d212bd4ae22edb12e52", "lat": 38.91017983333333, "lon": -76.9936995, "rental_uris": {"android": "https://dc.lft.to/lastmile_qr_scan", "ios": "https://dc.lft.to/lastmile_qr_scan"}, "is_disabled": 0, "fusion_lat": 0.0, "name": "f9a5d1b076c93d212bd4ae22edb12e52", "fusion_lon": 0.0}, {"is_reserved": 0, "type": "electric_scooter", "bike_id": "91de37f19e78a290a737d4b91fe4a8b5", "lat": 38.917005333333336, "lon": -77.01199066666666, "rental_uris": {"android": "https://dc.lft.to/lastmile_qr_scan", "ios": "https://dc.lft.to/lastmile_qr_scan"}, "is_disabled": 0, "fusion_lat": 0.0, "name": "91de37f19e78a290a737d4b91fe4a8b5", "fusion_lon": 0.0}, {"is_reserved": 0, "type": "electric_scooter", "bike_id": "d3200efa6d39fcfb04bb01c7262bbe28", "lat": 38.89218866666667, "lon": -77.02310116666666, "rental_uris": {"android": "https://dc.lft.to/lastmile_qr_scan", "ios": "https://dc.lft.to/lastmile_qr_scan"}, "is_disabled": 0, "fusion_lat": 0.0, "name": "d3200efa6d39fcfb04bb01c7262bbe28", "fusion_lon": 0.0}, {"is_reserved": 0, "type": "electric_scooter", "bike_id": "880f811c609c3d57853c459aa9ede480", "lat": 38.894132666666664, "lon": -77.02149733333333, "rental_uris": {"android": "https://dc.lft.to/lastmile_qr_scan", "ios": "https://dc.lft.to/lastmile_qr_scan"}, "is_disabled": 0, "fusion_lat": 0.0, "name": "880f811c609c3d57853c459aa9ede480", "fusion_lon": 0.0}, {"is_reserved": 0, "type": "electric_scooter", "bike_id": "7205c90597970845b212565e9928214b", "lat": 38.8747145, "lon": -77.00337933333333, "rental_uris": {"android": "https://dc.lft.to/lastmile_qr_scan", "ios": "https://dc.lft.to/lastmile_qr_scan"}, "is_disabled": 0, "fusion_lat": 0.0, "name": "7205c90597970845b212565e9928214b", "fusion_lon": 0.0}, {"is_reserved": 0, "type": "electric_scooter", "bike_id": "223ddfeabbd79e60dd49d4a283248ae8", "lat": 38.87172433333333, "lon": -77.0062665, "rental_uris": {"android": "https://dc.lft.to/lastmile_qr_scan", "ios": "https://dc.lft.to/lastmile_qr_scan"}, "is_disabled": 0, "fusion_lat": 0.0, "name": "223ddfeabbd79e60dd49d4a283248ae8", "fusion_lon": 0.0}, {"is_reserved": 0, "type": "electric_scooter", "bike_id": "e389e87b063b86df7f593591b4dd6c1c", "lat": 38.913450166666664, "lon": -77.0320625, "rental_uris": {"android": "https://dc.lft.to/lastmile_qr_scan", "ios": "https://dc.lft.to/lastmile_qr_scan"}, "is_disabled": 0, "fusion_lat": 0.0, "name": "e389e87b063b86df7f593591b4dd6c1c", "fusion_lon": 0.0}, {"is_reserved": 0, "type": "electric_scooter", "bike_id": "04f657a323fec7a5b41664fc47112e79", "lat": 38.914753166666664, "lon": -77.018275, "rental_uris": {"android": "https://dc.lft.to/lastmile_qr_scan", "ios": "https://dc.lft.to/lastmile_qr_scan"}, "is_disabled": 0, "fusion_lat": 0.0, "name": "04f657a323fec7a5b41664fc47112e79", "fusion_lon": 0.0}, {"is_reserved": 0, "type": "electric_scooter", "bike_id": "a2984dca474a8c8d429fae051e1bb037", "lat": 38.876222166666665, "lon": -77.0124825, "rental_uris": {"android": "https://dc.lft.to/lastmile_qr_scan", "ios": "https://dc.lft.to/lastmile_qr_scan"}, "is_disabled": 0, "fusion_lat": 0.0, "name": "a2984dca474a8c8d429fae051e1bb037", "fusion_lon": 0.0}, {"is_reserved": 0, "type": "electric_bike", "bike_id": "fcbda9dbdcda6238d4e4630e36950f74", "lat": 38.92762366666667, "lon": -77.045171, "rental_uris": {"android": "https://dc.lft.to/lastmile_qr_scan", "ios": "https://dc.lft.to/lastmile_qr_scan"}, "is_disabled": 0, "fusion_lat": 0.0, "name": "fcbda9dbdcda6238d4e4630e36950f74", "fusion_lon": 0.0}, {"is_reserved": 0, "type": "electric_bike", "bike_id": "04078ae4f4b10f09b0d26ac0fe7dfdcb", "lat": 38.838119166666665, "lon": -77.09525216666667, "rental_uris": {"android": "https://dc.lft.to/lastmile_qr_scan", "ios": "https://dc.lft.to/lastmile_qr_scan"}, "is_disabled": 0, "fusion_lat": 0.0, "name": "04078ae4f4b10f09b0d26ac0fe7dfdcb", "fusion_lon": 0.0}, {"is_reserved": 0, "type": "electric_scooter", "bike_id": "663ae9cd93905e770161768e040715dc", "lat": 38.940762, "lon": -77.02909633333333, "rental_uris": {"android": "https://dc.lft.to/lastmile_qr_scan", "ios": "https://dc.lft.to/lastmile_qr_scan"}, "is_disabled": 0, "fusion_lat": 0.0, "name": "663ae9cd93905e770161768e040715dc", "fusion_lon": 0.0}, {"is_reserved": 0, "type": "electric_scooter", "bike_id": "8179f7bcd69f31fd6306760a69fd175d", "lat": 38.905435833333335, "lon": -76.98465766666666, "rental_uris": {"android": "https://dc.lft.to/lastmile_qr_scan", "ios": "https://dc.lft.to/lastmile_qr_scan"}, "is_disabled": 0, "fusion_lat": 0.0, "name": "8179f7bcd69f31fd6306760a69fd175d", "fusion_lon": 0.0}, {"is_reserved": 0, "type": "electric_bike", "bike_id": "4b10b55525a2c621d4a5246caa990ded", "lat": 38.84559483333334, "lon": -76.97060166666667, "rental_uris": {"android": "https://dc.lft.to/lastmile_qr_scan", "ios": "https://dc.lft.to/lastmile_qr_scan"}, "is_disabled": 0, "fusion_lat": 0.0, "name": "4b10b55525a2c621d4a5246caa990ded", "fusion_lon": 0.0}, {"is_reserved": 0, "type": "electric_scooter", "bike_id": "6b78d85fe13a45c9b10518b0b6a70428", "lat": 38.882903166666665, "lon": -77.03134833333333, "rental_uris": {"android": "https://dc.lft.to/lastmile_qr_scan", "ios": "https://dc.lft.to/lastmile_qr_scan"}, "is_disabled": 0, "fusion_lat": 0.0, "name": "6b78d85fe13a45c9b10518b0b6a70428", "fusion_lon": 0.0}, {"is_reserved": 0, "type": "electric_scooter", "bike_id": "0f239c088ed050d7e826cc911d4d9dac", "lat": 38.9149455, "lon": -77.01218183333333, "rental_uris": {"android": "https://dc.lft.to/lastmile_qr_scan", "ios": "https://dc.lft.to/lastmile_qr_scan"}, "is_disabled": 0, "fusion_lat": 0.0, "name": "0f239c088ed050d7e826cc911d4d9dac", "fusion_lon": 0.0}, {"is_reserved": 0, "type": "electric_scooter", "bike_id": "ba0bd5ec0c7eab66eb9c278b393b46ac", "lat": 38.92423816666667, "lon": -77.02008366666666, "rental_uris": {"android": "https://dc.lft.to/lastmile_qr_scan", "ios": "https://dc.lft.to/lastmile_qr_scan"}, "is_disabled": 0, "fusion_lat": 0.0, "name": "ba0bd5ec0c7eab66eb9c278b393b46ac", "fusion_lon": 0.0}, {"is_reserved": 0, "type": "electric_scooter", "bike_id": "f87e851c6bea2e1c06c7273433db0411", "lat": 38.920601166666664, "lon": -76.992162, "rental_uris": {"android": "https://dc.lft.to/lastmile_qr_scan", "ios": "https://dc.lft.to/lastmile_qr_scan"}, "is_disabled": 0, "fusion_lat": 0.0, "name": "f87e851c6bea2e1c06c7273433db0411", "fusion_lon": 0.0}, {"is_reserved": 0, "type": "electric_bike", "bike_id": "fb79dede159624e054f0d083dc5af5c0", "lat": 38.887859, "lon": -76.92344233333333, "rental_uris": {"android": "https://dc.lft.to/lastmile_qr_scan", "ios": "https://dc.lft.to/lastmile_qr_scan"}, "is_disabled": 0, "fusion_lat": 0.0, "name": "fb79dede159624e054f0d083dc5af5c0", "fusion_lon": 0.0}, {"is_reserved": 0, "type": "electric_bike", "bike_id": "3dd764da0c9dd9cbbc61cee07fbeedd9", "lat": 38.921559333333335, "lon": -77.03867833333334, "rental_uris": {"android": "https://dc.lft.to/lastmile_qr_scan", "ios": "https://dc.lft.to/lastmile_qr_scan"}, "is_disabled": 0, "fusion_lat": 0.0, "name": "3dd764da0c9dd9cbbc61cee07fbeedd9", "fusion_lon": 0.0}, {"is_reserved": 0, "type": "electric_scooter", "bike_id": "1947d706fd255dfd8620caf9a33f032d", "lat": 38.87910266666667, "lon": -76.984651, "rental_uris": {"android": "https://dc.lft.to/lastmile_qr_scan", "ios": "https://dc.lft.to/lastmile_qr_scan"}, "is_disabled": 0, "fusion_lat": 0.0, "name": "1947d706fd255dfd8620caf9a33f032d", "fusion_lon": 0.0}, {"is_reserved": 0, "type": "electric_scooter", "bike_id": "9dc0a317fce8fcec0d3c7e4638d99090", "lat": 38.90865216666667, "lon": -77.03291933333334, "rental_uris": {"android": "https://dc.lft.to/lastmile_qr_scan", "ios": "https://dc.lft.to/lastmile_qr_scan"}, "is_disabled": 0, "fusion_lat": 0.0, "name": "9dc0a317fce8fcec0d3c7e4638d99090", "fusion_lon": 0.0}, {"is_reserved": 0, "type": "electric_scooter", "bike_id": "214ae6cd3f6ed63c5e9edbd8dc890aac", "lat": 38.89899116666667, "lon": -77.0034965, "rental_uris": {"android": "https://dc.lft.to/lastmile_qr_scan", "ios": "https://dc.lft.to/lastmile_qr_scan"}, "is_disabled": 0, "fusion_lat": 0.0, "name": "214ae6cd3f6ed63c5e9edbd8dc890aac", "fusion_lon": 0.0}, {"is_reserved": 0, "type": "electric_scooter", "bike_id": "8b42ddc55f33d3c8c8ab4efd2436d3fa", "lat": 38.8944205, "lon": -77.04325166666666, "rental_uris": {"android": "https://dc.lft.to/lastmile_qr_scan", "ios": "https://dc.lft.to/lastmile_qr_scan"}, "is_disabled": 0, "fusion_lat": 0.0, "name": "8b42ddc55f33d3c8c8ab4efd2436d3fa", "fusion_lon": 0.0}, {"is_reserved": 0, "type": "electric_scooter", "bike_id": "2ff1c57f8428ce3a798e67de64b8aeb3", "lat": 38.91332516666667, "lon": -77.04803466666667, "rental_uris": {"android": "https://dc.lft.to/lastmile_qr_scan", "ios": "https://dc.lft.to/lastmile_qr_scan"}, "is_disabled": 0, "fusion_lat": 0.0, "name": "2ff1c57f8428ce3a798e67de64b8aeb3", "fusion_lon": 0.0}, {"is_reserved": 0, "type": "electric_scooter", "bike_id": "21a64b8bea39e559bb091aeb2c2c5ea3", "lat": 38.90306133333333, "lon": -77.024196, "rental_uris": {"android": "https://dc.lft.to/lastmile_qr_scan", "ios": "https://dc.lft.to/lastmile_qr_scan"}, "is_disabled": 0, "fusion_lat": 0.0, "name": "21a64b8bea39e559bb091aeb2c2c5ea3", "fusion_lon": 0.0}, {"is_reserved": 0, "type": "electric_scooter", "bike_id": "de7b66de77d32c2642652ea3c666e0db", "lat": 38.923553166666665, "lon": -76.9908235, "rental_uris": {"android": "https://dc.lft.to/lastmile_qr_scan", "ios": "https://dc.lft.to/lastmile_qr_scan"}, "is_disabled": 0, "fusion_lat": 0.0, "name": "de7b66de77d32c2642652ea3c666e0db", "fusion_lon": 0.0}, {"is_reserved": 0, "type": "electric_scooter", "bike_id": "9c5a5da007c439a55820a19d79a8c39b", "lat": 38.9031525, "lon": -77.05336633333333, "rental_uris": {"android": "https://dc.lft.to/lastmile_qr_scan", "ios": "https://dc.lft.to/lastmile_qr_scan"}, "is_disabled": 0, "fusion_lat": 0.0, "name": "9c5a5da007c439a55820a19d79a8c39b", "fusion_lon": 0.0}, {"is_reserved": 0, "type": "electric_scooter", "bike_id": "136eb351a1b6e8bb0607f9d9a2a75ad8", "lat": 38.921152666666664, "lon": -77.0318585, "rental_uris": {"android": "https://dc.lft.to/lastmile_qr_scan", "ios": "https://dc.lft.to/lastmile_qr_scan"}, "is_disabled": 0, "fusion_lat": 0.0, "name": "136eb351a1b6e8bb0607f9d9a2a75ad8", "fusion_lon": 0.0}, {"is_reserved": 0, "type": "electric_scooter", "bike_id": "db67c0dea0f3a9a4325e97f4494fbecd", "lat": 38.929410833333336, "lon": -77.03760116666666, "rental_uris": {"android": "https://dc.lft.to/lastmile_qr_scan", "ios": "https://dc.lft.to/lastmile_qr_scan"}, "is_disabled": 0, "fusion_lat": 0.0, "name": "db67c0dea0f3a9a4325e97f4494fbecd", "fusion_lon": 0.0}, {"is_reserved": 0, "type": "electric_scooter", "bike_id": "ce8b492c0bb747958459ee200078a655", "lat": 38.88778583333333, "lon": -77.00339483333333, "rental_uris": {"android": "https://dc.lft.to/lastmile_qr_scan", "ios": "https://dc.lft.to/lastmile_qr_scan"}, "is_disabled": 0, "fusion_lat": 0.0, "name": "ce8b492c0bb747958459ee200078a655", "fusion_lon": 0.0}, {"is_reserved": 0, "type": "electric_scooter", "bike_id": "4c52b527d9e3505b6f6b4b1398ef48e1", "lat": 38.916215666666666, "lon": -77.0319475, "rental_uris": {"android": "https://dc.lft.to/lastmile_qr_scan", "ios": "https://dc.lft.to/lastmile_qr_scan"}, "is_disabled": 0, "fusion_lat": 0.0, "name": "4c52b527d9e3505b6f6b4b1398ef48e1", "fusion_lon": 0.0}, {"is_reserved": 0, "type": "electric_scooter", "bike_id": "e3425f81febc152fe2b5e293b7759710", "lat": 38.92480883333333, "lon": -77.02722533333333, "rental_uris": {"android": "https://dc.lft.to/lastmile_qr_scan", "ios": "https://dc.lft.to/lastmile_qr_scan"}, "is_disabled": 0, "fusion_lat": 0.0, "name": "e3425f81febc152fe2b5e293b7759710", "fusion_lon": 0.0}, {"is_reserved": 0, "type": "electric_scooter", "bike_id": "f651eafc4b7003d0025eb59798d7946b", "lat": 38.8995305, "lon": -77.027138, "rental_uris": {"android": "https://dc.lft.to/lastmile_qr_scan", "ios": "https://dc.lft.to/lastmile_qr_scan"}, "is_disabled": 0, "fusion_lat": 0.0, "name": "f651eafc4b7003d0025eb59798d7946b", "fusion_lon": 0.0}, {"is_reserved": 0, "type": "electric_bike", "bike_id": "14066988b0df6bb24f74234c4f5f49be", "lat": 38.9743825, "lon": -77.09596166666667, "rental_uris": {"android": "https://dc.lft.to/lastmile_qr_scan", "ios": "https://dc.lft.to/lastmile_qr_scan"}, "is_disabled": 0, "fusion_lat": 0.0, "name": "14066988b0df6bb24f74234c4f5f49be", "fusion_lon": 0.0}, {"is_reserved": 0, "type": "electric_scooter", "bike_id": "2a53ec5ac9a255821f51900869a8b48d", "lat": 38.907286166666665, "lon": -77.03040116666666, "rental_uris": {"android": "https://dc.lft.to/lastmile_qr_scan", "ios": "https://dc.lft.to/lastmile_qr_scan"}, "is_disabled": 0, "fusion_lat": 0.0, "name": "2a53ec5ac9a255821f51900869a8b48d", "fusion_lon": 0.0}, {"is_reserved": 0, "type": "electric_scooter", "bike_id": "cd18cd342a17bf1d31da94b86f6da28a", "lat": 38.886580333333335, "lon": -77.03388616666666, "rental_uris": {"android": "https://dc.lft.to/lastmile_qr_scan", "ios": "https://dc.lft.to/lastmile_qr_scan"}, "is_disabled": 0, "fusion_lat": 0.0, "name": "cd18cd342a17bf1d31da94b86f6da28a", "fusion_lon": 0.0}, {"is_reserved": 0, "type": "electric_scooter", "bike_id": "d87e2c10d139f3f5128ffd84d9ccbd38", "lat": 38.92019533333333, "lon": -77.01062, "rental_uris": {"android": "https://dc.lft.to/lastmile_qr_scan", "ios": "https://dc.lft.to/lastmile_qr_scan"}, "is_disabled": 0, "fusion_lat": 0.0, "name": "d87e2c10d139f3f5128ffd84d9ccbd38", "fusion_lon": 0.0}, {"is_reserved": 0, "type": "electric_scooter", "bike_id": "e0ec451374badfcf31dd0af71758dd59", "lat": 38.934642, "lon": -77.05809666666667, "rental_uris": {"android": "https://dc.lft.to/lastmile_qr_scan", "ios": "https://dc.lft.to/lastmile_qr_scan"}, "is_disabled": 0, "fusion_lat": 0.0, "name": "e0ec451374badfcf31dd0af71758dd59", "fusion_lon": 0.0}, {"is_reserved": 0, "type": "electric_scooter", "bike_id": "c2ef6e57daad16ea8242342af30b2767", "lat": 38.878169666666665, "lon": -77.02233983333333, "rental_uris": {"android": "https://dc.lft.to/lastmile_qr_scan", "ios": "https://dc.lft.to/lastmile_qr_scan"}, "is_disabled": 0, "fusion_lat": 0.0, "name": "c2ef6e57daad16ea8242342af30b2767", "fusion_lon": 0.0}, {"is_reserved": 0, "type": "electric_scooter", "bike_id": "69f7bfea17ff904be039c4bf4681633e", "lat": 38.923307666666666, "lon": -77.05393416666666, "rental_uris": {"android": "https://dc.lft.to/lastmile_qr_scan", "ios": "https://dc.lft.to/lastmile_qr_scan"}, "is_disabled": 0, "fusion_lat": 0.0, "name": "69f7bfea17ff904be039c4bf4681633e", "fusion_lon": 0.0}, {"is_reserved": 0, "type": "electric_scooter", "bike_id": "369be278226b4da19f4d6b9173d433f2", "lat": 38.876433166666665, "lon": -77.00735516666667, "rental_uris": {"android": "https://dc.lft.to/lastmile_qr_scan", "ios": "https://dc.lft.to/lastmile_qr_scan"}, "is_disabled": 0, "fusion_lat": 0.0, "name": "369be278226b4da19f4d6b9173d433f2", "fusion_lon": 0.0}, {"is_reserved": 0, "type": "electric_scooter", "bike_id": "17641041563d7ee63c12dab1cda5373c", "lat": 38.929955666666665, "lon": -77.03800866666667, "rental_uris": {"android": "https://dc.lft.to/lastmile_qr_scan", "ios": "https://dc.lft.to/lastmile_qr_scan"}, "is_disabled": 0, "fusion_lat": 0.0, "name": "17641041563d7ee63c12dab1cda5373c", "fusion_lon": 0.0}, {"is_reserved": 0, "type": "electric_scooter", "bike_id": "ff752594a88c0baef747ce68ac96767c", "lat": 38.90169316666667, "lon": -77.02485066666667, "rental_uris": {"android": "https://dc.lft.to/lastmile_qr_scan", "ios": "https://dc.lft.to/lastmile_qr_scan"}, "is_disabled": 0, "fusion_lat": 0.0, "name": "ff752594a88c0baef747ce68ac96767c", "fusion_lon": 0.0}, {"is_reserved": 0, "type": "electric_scooter", "bike_id": "08db958a540b6d34f26e0a0c528d9f36", "lat": 38.93088016666667, "lon": -77.03483533333333, "rental_uris": {"android": "https://dc.lft.to/lastmile_qr_scan", "ios": "https://dc.lft.to/lastmile_qr_scan"}, "is_disabled": 0, "fusion_lat": 0.0, "name": "08db958a540b6d34f26e0a0c528d9f36", "fusion_lon": 0.0}, {"is_reserved": 0, "type": "electric_scooter", "bike_id": "bbac9f76e2e0b28f66418fe0374de52e", "lat": 38.887687, "lon": -76.93262283333334, "rental_uris": {"android": "https://dc.lft.to/lastmile_qr_scan", "ios": "https://dc.lft.to/lastmile_qr_scan"}, "is_disabled": 0, "fusion_lat": 0.0, "name": "bbac9f76e2e0b28f66418fe0374de52e", "fusion_lon": 0.0}, {"is_reserved": 0, "type": "electric_scooter", "bike_id": "9bf18af74ab2dae0714cd16c9428bdec", "lat": 38.881256666666665, "lon": -77.01978866666667, "rental_uris": {"android": "https://dc.lft.to/lastmile_qr_scan", "ios": "https://dc.lft.to/lastmile_qr_scan"}, "is_disabled": 0, "fusion_lat": 0.0, "name": "9bf18af74ab2dae0714cd16c9428bdec", "fusion_lon": 0.0},