{"data": {"bikes": [{"type": "electric_scooter", "rental_uris": {"ios": "https://dc.lft.to/lastmile_qr_scan", "android": "https://dc.lft.to/lastmile_qr_scan"}, "lon": -76.98375333333334, "fusion_lon": 0.0, "is_disabled": 0, "lat": 38.86109583333333, "bike_id": "e8b3c845e9fe637ca861ba68816cf39c", "name": "e8b3c845e9fe637ca861ba68816cf39c", "is_reserved": 0, "fusion_lat": 0.0}, {"type": "electric_scooter", "rental_uris": {"ios": "https://dc.lft.to/lastmile_qr_scan", "android": "https://dc.lft.to/lastmile_qr_scan"}, "lon": -77.04038133333333, "fusion_lon": 0.0, "is_disabled": 0, "lat": 38.91854566666667, "bike_id": "628a60d29905dfc7423c30b98c5824ac", "name": "628a60d29905dfc7423c30b98c5824ac", "is_reserved": 0, "fusion_lat": 0.0}, {"type": "electric_scooter", "rental_uris": {"ios": "https://dc.lft.to/lastmile_qr_scan", "android": "https://dc.lft.to/lastmile_qr_scan"}, "lon": -77.02570283333333, "fusion_lon": 0.0, "is_disabled": 0, "lat": 38.914128166666664, "bike_id": "3bd45faceea739df9bc787d9a46a6b43", "name": "3bd45faceea739df9bc787d9a46a6b43", "is_reserved": 0, "fusion_lat": 0.0}, {"type": "electric_scooter", "rental_uris": {"ios": "https://dc.lft.to/lastmile_qr_scan", "android": "https://dc.lft.to/lastmile_qr_scan"}, "lon": -77.031745, "fusion_lon": 0.0, "is_disabled": 0, "lat": 38.91421666666667, "bike_id": "2530ca5f54e3ce993e8314a80304765e", "name": "2530ca5f54e3ce993e8314a80304765e", "is_reserved": 0, "fusion_lat": 0.0}, {"type": "electric_scooter", "rental_uris": {"ios": "https://dc.lft.to/lastmile_qr_scan", "android": "https://dc.lft.to/lastmile_qr_scan"}, "lon": -77.04411266666666, "fusion_lon": 0.0, "is_disabled": 0, "lat": 38.92449583333333, "bike_id": "9a8980f784badbd0455f7813411fae18", "name": "9a8980f784badbd0455f7813411fae18", "is_reserved": 0, "fusion_lat": 0.0}, {"type": "electric_scooter", "rental_uris": {"ios": "https://dc.lft.to/lastmile_qr_scan", "android": "https://dc.lft.to/lastmile_qr_scan"}, "lon": -76.972348, "fusion_lon": 0.0, "is_disabled": 0, "lat": 38.854630666666665, "bike_id": "f80bc0e93a27dc0d963fb090fc5518e6", "name": "f80bc0e93a27dc0d963fb090fc5518e6", "is_reserved": 0, "fusion_lat": 0.0}, {"type": "electric_scooter", "rental_uris": {"ios": "https://dc.lft.to/lastmile_qr_scan", "android": "https://dc.lft.to/lastmile_qr_scan"}, "lon": -76.99247316666667, "fusion_lon": 0.0, "is_disabled": 0, "lat": 38.863830666666665, "bike_id": "b99734d1b5063b78937a73ef89e06d8f", "name": "b99734d1b5063b78937a73ef89e06d8f", "is_reserved": 0, "fusion_lat": 0.0}, {"type": "electric_scooter", "rental_uris": {"ios": "https://dc.lft.to/lastmile_qr_scan", "android": "https://dc.lft.to/lastmile_qr_scan"}, "lon": -77.02392416666666, "fusion_lon": 0.0, "is_disabled": 0, "lat": 38.9061725, "bike_id": "7dcb31d41d685463992f54964b7a07af", "name": "7dcb31d41d685463992f54964b7a07af", "is_reserved": 0, "fusion_lat": 0.0}, {"type": "electric_scooter", "rental_uris": {"ios": "https://dc.lft.to/lastmile_qr_scan", "android": "https://dc.lft.to/lastmile_qr_scan"}, "lon": -77.0219275, "fusion_lon": 0.0, "is_disabled": 0, "lat": 38.91661216666667, "bike_id": "0e2b402f17011d1cc35e4257982b93ba", "name": "0e2b402f17011d1cc35e4257982b93ba", "is_reserved": 0, "fusion_lat": 0.0}, {"type": "electric_scooter", "rental_uris": {"ios": "https://dc.lft.to/lastmile_qr_scan", "android": "https://dc.lft.to/lastmile_qr_scan"}, "lon": -77.03816316666666, "fusion_lon": 0.0, "is_disabled": 0, "lat": 38.90959516666667, "bike_id": "6f34f24f66007073ce6230ee3ebd489d", "name": "6f34f24f66007073ce6230ee3ebd489d", "is_reserved": 0, "fusion_lat": 0.0}, {"type": "electric_scooter", "rental_uris": {"ios": "https://dc.lft.to/lastmile_qr_scan", "android": "https://dc.lft.to/lastmile_qr_scan"}, "lon": -77.02695566666667, "fusion_lon": 0.0, "is_disabled": 0, "lat": 38.91127383333333, "bike_id": "a709f41bc75b13bbe00a74a64c8e5120", "name": "a709f41bc75b13bbe00a74a64c8e5120", "is_reserved": 0, "fusion_lat": 0.0}, {"type": "electric_scooter", "rental_uris": {"ios": "https://dc.lft.to/lastmile_qr_scan", "android": "https://dc.lft.to/lastmile_qr_scan"}, "lon": -77.0269255, "fusion_lon": 0.0, "is_disabled": 0, "lat": 38.925921, "bike_id": "7a5f03d49d06223bd0014914aad2a61e", "name": "7a5f03d49d06223bd0014914aad2a61e", "is_reserved": 0, "fusion_lat": 0.0}, {"type": "electric_scooter", "rental_uris": {"ios": "https://dc.lft.to/lastmile_qr_scan", "android": "https://dc.lft.to/lastmile_qr_scan"}, "lon": -77.02195433333333, "fusion_lon": 0.0, "is_disabled": 0, "lat": 38.91842783333333, "bike_id": "1bf7e2e6673d390199696f98637aec70", "name": "1bf7e2e6673d390199696f98637aec70", "is_reserved": 0, "fusion_lat": 0.0}, {"type": "electric_scooter", "rental_uris": {"ios": "https://dc.lft.to/lastmile_qr_scan", "android": "https://dc.lft.to/lastmile_qr_scan"}, "lon": -77.04447416666666, "fusion_lon": 0.0, "is_disabled": 0, "lat": 38.92413716666667, "bike_id": "6f8b9b7b9362bdb9dc11cdaa6ae1e2c0", "name": "6f8b9b7b9362bdb9dc11cdaa6ae1e2c0", "is_reserved": 0, "fusion_lat": 0.0}, {"type": "electric_scooter", "rental_uris": {"ios": "https://dc.lft.to/lastmile_qr_scan", "android": "https://dc.lft.to/lastmile_qr_scan"}, "lon": -76.99229366666667, "fusion_lon": 0.0, "is_disabled": 0, "lat": 38.9036875, "bike_id": "b625766c20ad62a323379309ebe4340f", "name": "b625766c20ad62a323379309ebe4340f", "is_reserved": 0, "fusion_lat": 0.0}, {"type": "electric_scooter", "rental_uris": {"ios": "https://dc.lft.to/lastmile_qr_scan", "android": "https://dc.lft.to/lastmile_qr_scan"}, "lon": -77.072311, "fusion_lon": 0.0, "is_disabled": 0, "lat": 38.933556, "bike_id": "ac9bbf2bedfc2b21a9f9b538d9f2f918", "name": "ac9bbf2bedfc2b21a9f9b538d9f2f918", "is_reserved": 0, "fusion_lat": 0.0}, {"type": "electric_scooter", "rental_uris": {"ios": "https://dc.lft.to/lastmile_qr_scan", "android": "https://dc.lft.to/lastmile_qr_scan"}, "lon": -77.023877, "fusion_lon": 0.0, "is_disabled": 0, "lat": 38.897511, "bike_id": "fff7199098d5e4e6c20faa9e5e202dc2", "name": "fff7199098d5e4e6c20faa9e5e202dc2", "is_reserved": 0, "fusion_lat": 0.0}, {"type": "electric_scooter", "rental_uris": {"ios": "https://dc.lft.to/lastmile_qr_scan", "android": "https://dc.lft.to/lastmile_qr_scan"}, "lon": -77.00918883333334, "fusion_lon": 0.0, "is_disabled": 0, "lat": 38.89553566666667, "bike_id": "e9a08059d48be074ecfddf34793b7c10", "name": "e9a08059d48be074ecfddf34793b7c10", "is_reserved": 0, "fusion_lat": 0.0}, {"type": "electric_bike", "rental_uris": {"ios": "https://dc.lft.to/lastmile_qr_scan", "android": "https://dc.lft.to/lastmile_qr_scan"}, "lon": -76.9907115, "fusion_lon": 0.0, "is_disabled": 0, "lat": 38.89817033333333, "bike_id": "9c324ab2e8b7820a678aabb50012258a", "name": "9c324ab2e8b7820a678aabb50012258a", "is_reserved": 0, "fusion_lat": 0.0}, {"type": "electric_scooter", "rental_uris": {"ios": "https://dc.lft.to/lastmile_qr_scan", "android": "https://dc.lft.to/lastmile_qr_scan"}, "lon": -76.9960075, "fusion_lon": 0.0, "is_disabled": 0, "lat": 38.926118833333334, "bike_id": "1be96d54afb212e4f512391bc610f1b7", "name": "1be96d54afb212e4f512391bc610f1b7", "is_reserved": 0, "fusion_lat": 0.0}, {"type": "electric_scooter", "rental_uris": {"ios": "https://dc.lft.to/lastmile_qr_scan", "android": "https://dc.lft.to/lastmile_qr_scan"}, "lon": -77.043638, "fusion_lon": 0.0, "is_disabled": 0, "lat": 38.90521833333333, "bike_id": "bde42e5dc6c711704807ca0d3e6f7a36", "name": "bde42e5dc6c711704807ca0d3e6f7a36", "is_reserved": 0, "fusion_lat": 0.0}, {"type": "electric_scooter", "rental_uris": {"ios": "https://dc.lft.to/lastmile_qr_scan", "android": "https://dc.lft.to/lastmile_qr_scan"}, "lon": -77.0417665, "fusion_lon": 0.0, "is_disabled": 0, "lat": 38.9052865, "bike_id": "8ca6c77399cb01c74bc48e8f776d1658", "name": "8ca6c77399cb01c74bc48e8f776d1658", "is_reserved": 0, "fusion_lat": 0.0}, {"type": "electric_bike", "rental_uris": {"ios": "https://dc.lft.to/lastmile_qr_scan", "android": "https://dc.lft.to/lastmile_qr_scan"}, "lon": -76.98847133333334, "fusion_lon": 0.0, "is_disabled": 0, "lat": 38.84273483333333, "bike_id": "08ef6cafebcb81c0041c43a08d05a491", "name": "08ef6cafebcb81c0041c43a08d05a491", "is_reserved": 0, "fusion_lat": 0.0}, {"type": "electric_scooter", "rental_uris": {"ios": "https://dc.lft.to/lastmile_qr_scan", "android": "https://dc.lft.to/lastmile_qr_scan"}, "lon": -77.04176116666666, "fusion_lon": 0.0, "is_disabled": 0, "lat": 38.90530283333333, "bike_id": "853a57c51180250f98822f28a397183c", "name": "853a57c51180250f98822f28a397183c", "is_reserved": 0, "fusion_lat": 0.0}, {"type": "electric_scooter", "rental_uris": {"ios": "https://dc.lft.to/lastmile_qr_scan", "android": "https://dc.lft.to/lastmile_qr_scan"}, "lon": -77.00368766666666, "fusion_lon": 0.0, "is_disabled": 0, "lat": 38.882615, "bike_id": "89524a3220a9825e864334ebb85822b1", "name": "89524a3220a9825e864334ebb85822b1", "is_reserved": 0, "fusion_lat": 0.0}, {"type": "electric_scooter", "rental_uris": {"ios": "https://dc.lft.to/lastmile_qr_scan", "android": "https://dc.lft.to/lastmile_qr_scan"}, "lon": -76.95419433333333, "fusion_lon": 0.0, "is_disabled": 0, "lat": 38.88990183333333, "bike_id": "8634f008a008fe2557bcf3bf757e97c9", "name": "8634f008a008fe2557bcf3bf757e97c9", "is_reserved": 0, "fusion_lat": 0.0}, {"type": "electric_scooter", "rental_uris": {"ios": "https://dc.lft.to/lastmile_qr_scan", "android": "https://dc.lft.to/lastmile_qr_scan"}, "lon": -77.040006, "fusion_lon": 0.0, "is_disabled": 0, "lat": 38.91561316666667, "bike_id": "35a800d3e5490e09d23c583544541b67", "name": "35a800d3e5490e09d23c583544541b67", "is_reserved": 0, "fusion_lat": 0.0}, {"type": "electric_scooter", "rental_uris": {"ios": "https://dc.lft.to/lastmile_qr_scan", "android": "https://dc.lft.to/lastmile_qr_scan"}, "lon": -77.01938166666666, "fusion_lon": 0.0, "is_disabled": 0, "lat": 38.949283666666666, "bike_id": "fa0107680cc6eec00c701db96190f3c9", "name": "fa0107680cc6eec00c701db96190f3c9", "is_reserved": 0, "fusion_lat": 0.0}, {"type": "electric_scooter", "rental_uris": {"ios": "https://dc.lft.to/lastmile_qr_scan", "android": "https://dc.lft.to/lastmile_qr_scan"}, "lon": -77.03846133333333, "fusion_lon": 0.0, "is_disabled": 0, "lat": 38.91089066666667, "bike_id": "1087909374039527a9d78c45025c1b7f", "name": "1087909374039527a9d78c45025c1b7f", "is_reserved": 0, "fusion_lat": 0.0}, {"type": "electric_scooter", "rental_uris": {"ios": "https://dc.lft.to/lastmile_qr_scan", "android": "https://dc.lft.to/lastmile_qr_scan"}, "lon": -77.0320925, "fusion_lon": 0.0, "is_disabled": 0, "lat": 38.909492, "bike_id": "cbc85bf4697c83f607754d4c21208308", "name": "cbc85bf4697c83f607754d4c21208308", "is_reserved": 0, "fusion_lat": 0.0}, {"type": "electric_scooter", "rental_uris": {"ios": "https://dc.lft.to/lastmile_qr_scan", "android": "https://dc.lft.to/lastmile_qr_scan"}, "lon": -77.03922933333334, "fusion_lon": 0.0, "is_disabled": 0, "lat": 38.9210985, "bike_id": "2c845870c0b2dce41db0cbd3dc5c4f2a", "name": "2c845870c0b2dce41db0cbd3dc5c4f2a", "is_reserved": 0, "fusion_lat": 0.0}, {"type": "electric_scooter", "rental_uris": {"ios": "https://dc.lft.to/lastmile_qr_scan", "android": "https://dc.lft.to/lastmile_qr_scan"}, "lon": -77.02826816666666, "fusion_lon": 0.0, "is_disabled": 0, "lat": 38.89929633333333, "bike_id": "7f533221d57303c39cde8eab8b09cff0", "name": "7f533221d57303c39cde8eab8b09cff0", "is_reserved": 0, "fusion_lat": 0.0}, {"type": "electric_scooter", "rental_uris": {"ios": "https://dc.lft.to/lastmile_qr_scan", "android": "https://dc.lft.to/lastmile_qr_scan"}, "lon": -77.04141116666666, "fusion_lon": 0.0, "is_disabled": 0, "lat": 38.916853, "bike_id": "ccfffd4e74a7907f1144a408d6b45abe", "name": "ccfffd4e74a7907f1144a408d6b45abe", "is_reserved": 0, "fusion_lat": 0.0}, {"type": "electric_scooter", "rental_uris": {"ios": "https://dc.lft.to/lastmile_qr_scan", "android": "https://dc.lft.to/lastmile_qr_scan"}, "lon": -76.98695416666666, "fusion_lon": 0.0, "is_disabled": 0, "lat": 38.8662145, "bike_id": "f13097b6536c6d9b5b855f29872d7716", "name": "f13097b6536c6d9b5b855f29872d7716", "is_reserved": 0, "fusion_lat": 0.0}, {"type": "electric_bike", "rental_uris": {"ios": "https://dc.lft.to/lastmile_qr_scan", "android": "https://dc.lft.to/lastmile_qr_scan"}, "lon": -76.92500783333334, "fusion_lon": 0.0, "is_disabled": 0, "lat": 38.99996516666667, "bike_id": "90299805101e7ff1d37de8ada0ecbb7f", "name": "90299805101e7ff1d37de8ada0ecbb7f", "is_reserved": 0, "fusion_lat": 0.0}, {"type": "electric_scooter", "rental_uris": {"ios": "https://dc.lft.to/lastmile_qr_scan", "android": "https://dc.lft.to/lastmile_qr_scan"}, "lon": -77.020316, "fusion_lon": 0.0, "is_disabled": 0, "lat": 38.93189783333333, "bike_id": "aafff148968f36aead2128445d80b5e1", "name": "aafff148968f36aead2128445d80b5e1", "is_reserved": 0, "fusion_lat": 0.0}, {"type": "electric_scooter", "rental_uris": {"ios": "https://dc.lft.to/lastmile_qr_scan", "android": "https://dc.lft.to/lastmile_qr_scan"}, "lon": -77.03183833333334, "fusion_lon": 0.0, "is_disabled": 0, "lat": 38.91829766666667, "bike_id": "7411058f26b697f724b059a421ab7f9e", "name": "7411058f26b697f724b059a421ab7f9e", "is_reserved": 0, "fusion_lat": 0.0}, {"type": "electric_scooter", "rental_uris": {"ios": "https://dc.lft.to/lastmile_qr_scan", "android": "https://dc.lft.to/lastmile_qr_scan"}, "lon": -77.04173516666667, "fusion_lon": 0.0, "is_disabled": 0, "lat": 38.91837183333333, "bike_id": "0c643d75dcfee7dcb1fce889cdc6d0c3", "name": "0c643d75dcfee7dcb1fce889cdc6d0c3", "is_reserved": 0, "fusion_lat": 0.0}, {"type": "electric_scooter", "rental_uris": {"ios": "https://dc.lft.to/lastmile_qr_scan", "android": "https://dc.lft.to/lastmile_qr_scan"}, "lon": -77.0322745, "fusion_lon": 0.0, "is_disabled": 0, "lat": 38.892118333333336, "bike_id": "e022b8fc377712bfe8f09f2cd3a86d34", "name": "e022b8fc377712bfe8f09f2cd3a86d34", "is_reserved": 0, "fusion_lat": 0.0}, {"type": "electric_scooter", "rental_uris": {"ios": "https://dc.lft.to/lastmile_qr_scan", "android": "https://dc.lft.to/lastmile_qr_scan"}, "lon": -77.04531716666666, "fusion_lon": 0.0, "is_disabled": 0, "lat": 38.913286166666666, "bike_id": "93a67fc1cd09b15f1e87985d9551667b", "name": "93a67fc1cd09b15f1e87985d9551667b", "is_reserved": 0, "fusion_lat": 0.0}, {"type": "electric_scooter", "rental_uris": {"ios": "https://dc.lft.to/lastmile_qr_scan", "android": "https://dc.lft.to/lastmile_qr_scan"}, "lon": -77.05937183333333, "fusion_lon": 0.0, "is_disabled": 0, "lat": 38.90940966666667, "bike_id": "c03afb03b4be792f0eefa6b8c2ab00c5", "name": "c03afb03b4be792f0eefa6b8c2ab00c5", "is_reserved": 0, "fusion_lat": 0.0}, {"type": "electric_scooter", "rental_uris": {"ios": "https://dc.lft.to/lastmile_qr_scan", "android": "https://dc.lft.to/lastmile_qr_scan"}, "lon": -77.04552033333333, "fusion_lon": 0.0, "is_disabled": 0, "lat": 38.913383333333336, "bike_id": "1b040b05a6fd3561b1783536f0e6f38f", "name": "1b040b05a6fd3561b1783536f0e6f38f", "is_reserved": 0, "fusion_lat": 0.0}, {"type": "electric_scooter", "rental_uris": {"ios": "https://dc.lft.to/lastmile_qr_scan", "android": "https://dc.lft.to/lastmile_qr_scan"}, "lon": -77.03952483333333, "fusion_lon": 0.0, "is_disabled": 0, "lat": 38.908109833333334, "bike_id": "9239f07855afa21ee0b8228073ca3c2e", "name": "9239f07855afa21ee0b8228073ca3c2e", "is_reserved": 0, "fusion_lat": 0.0}, {"type": "electric_scooter", "rental_uris": {"ios": "https://dc.lft.to/lastmile_qr_scan", "android": "https://dc.lft.to/lastmile_qr_scan"}, "lon": -77.027944, "fusion_lon": 0.0, "is_disabled": 0, "lat": 38.93082966666667, "bike_id": "43fc1eb9f5edb1ef184df4b3c8bd6ed5", "name": "43fc1eb9f5edb1ef184df4b3c8bd6ed5", "is_reserved": 0, "fusion_lat": 0.0}, {"type": "electric_bike", "rental_uris": {"ios": "https://dc.lft.to/lastmile_qr_scan", "android": "https://dc.lft.to/lastmile_qr_scan"}, "lon": -77.03326866666667, "fusion_lon": 0.0, "is_disabled": 0, "lat": 38.92046533333333, "bike_id": "5f862c763f32d7802aad8ce209c2098c", "name": "5f862c763f32d7802aad8ce209c2098c", "is_reserved": 0, "fusion_lat": 0.0}, {"type": "electric_scooter", "rental_uris": {"ios": "https://dc.lft.to/lastmile_qr_scan", "android": "https://dc.lft.to/lastmile_qr_scan"}, "lon": -77.03207533333334, "fusion_lon": 0.0, "is_disabled": 0, "lat": 38.908891833333335, "bike_id": "02dfbbeec65d757fbd1cd25f6a97df93", "name": "02dfbbeec65d757fbd1cd25f6a97df93", "is_reserved": 0, "fusion_lat": 0.0}, {"type": "electric_scooter", "rental_uris": {"ios": "https://dc.lft.to/lastmile_qr_scan", "android": "https://dc.lft.to/lastmile_qr_scan"}, "lon": -77.04363466666666, "fusion_lon": 0.0, "is_disabled": 0, "lat": 38.92146366666667, "bike_id": "4b0ba62c8be26708e257a601d0cbcd38", "name": "4b0ba62c8be26708e257a601d0cbcd38", "is_reserved": 0, "fusion_lat": 0.0}, {"type": "electric_bike", "rental_uris": {"ios": "https://dc.lft.to/lastmile_qr_scan", "android": "https://dc.lft.to/lastmile_qr_scan"}, "lon": -77.0057125, "fusion_lon": 0.0, "is_disabled": 0, "lat": 38.839861, "bike_id": "ef7b415af2a848e4ae932c899c8dce90", "name": "ef7b415af2a848e4ae932c899c8dce90", "is_reserved": 0, "fusion_lat": 0.0}, {"type": "electric_bike", "rental_uris": {"ios": "https://dc.lft.to/lastmile_qr_scan", "android": "https://dc.lft.to/lastmile_qr_scan"}, "lon": -76.989443, "fusion_lon": 0.0, "is_disabled": 0, "lat": 38.867228, "bike_id": "3707e19526c63335b79b838560a54458", "name": "3707e19526c63335b79b838560a54458", "is_reserved": 0, "fusion_lat": 0.0}, {"type": "electric_scooter", "rental_uris": {"ios": "https://dc.lft.to/lastmile_qr_scan", "android": "https://dc.lft.to/lastmile_qr_scan"}, "lon": -77.031605, "fusion_lon": 0.0, "is_disabled": 0, "lat": 38.8921925, "bike_id": "7bfaf8924a56eab045f08a0c6e5a4054", "name": "7bfaf8924a56eab045f08a0c6e5a4054", "is_reserved": 0, "fusion_lat": 0.0}, {"type": "electric_scooter", "rental_uris": {"ios": "https://dc.lft.to/lastmile_qr_scan", "android": "https://dc.lft.to/lastmile_qr_scan"}, "lon": -77.02493033333333, "fusion_lon": 0.0, "is_disabled": 0, "lat": 38.918062, "bike_id": "567ac3c0a8f7b4cd63ae50edf66c7a1c", "name": "567ac3c0a8f7b4cd63ae50edf66c7a1c", "is_reserved": 0, "fusion_lat": 0.0}, {"type": "electric_scooter", "rental_uris": {"ios": "https://dc.lft.to/lastmile_qr_scan", "android": "https://dc.lft.to/lastmile_qr_scan"}, "lon": -77.03408716666667, "fusion_lon": 0.0, "is_disabled": 0, "lat": 38.92049733333333, "bike_id": "d6f99cd43a576a6934fdbabefc66bc09", "name": "d6f99cd43a576a6934fdbabefc66bc09", "is_reserved": 0, "fusion_lat": 0.0}, {"type": "electric_scooter", "rental_uris": {"ios": "https://dc.lft.to/lastmile_qr_scan", "android": "https://dc.lft.to/lastmile_qr_scan"}, "lon": -76.93342916666667, "fusion_lon": 0.0, "is_disabled": 0, "lat": 38.88812516666667, "bike_id": "785ce43b6157d58c2137881897560105", "name": "785ce43b6157d58c2137881897560105", "is_reserved": 0, "fusion_lat": 0.0}, {"type": "electric_scooter", "rental_uris": {"ios": "https://dc.lft.to/lastmile_qr_scan", "android": "https://dc.lft.to/lastmile_qr_scan"}, "lon": -77.04043816666666, "fusion_lon": 0.0, "is_disabled": 0, "lat": 38.899022, "bike_id": "93cf3d9ee27b7b04f49c0fc0c56362cb", "name": "93cf3d9ee27b7b04f49c0fc0c56362cb", "is_reserved": 0, "fusion_lat": 0.0}, {"type": "electric_scooter", "rental_uris": {"ios": "https://dc.lft.to/lastmile_qr_scan", "android": "https://dc.lft.to/lastmile_qr_scan"}, "lon": -77.0066895, "fusion_lon": 0.0, "is_disabled": 0, "lat": 38.899856666666665, "bike_id": "5e60a95493791ce67bb6c75d9a59fb57", "name": "5e60a95493791ce67bb6c75d9a59fb57", "is_reserved": 0, "fusion_lat": 0.0}, {"type": "electric_scooter", "rental_uris": {"ios": "https://dc.lft.to/lastmile_qr_scan", "android": "https://dc.lft.to/lastmile_qr_scan"}, "lon": -77.04168133333333, "fusion_lon": 0.0, "is_disabled": 0, "lat": 38.9175995, "bike_id": "862d865cea073063fde5fa8e0b2bacd2", "name": "862d865cea073063fde5fa8e0b2bacd2", "is_reserved": 0, "fusion_lat": 0.0}, {"type": "electric_scooter", "rental_uris": {"ios": "https://dc.lft.to/lastmile_qr_scan", "android": "https://dc.lft.to/lastmile_qr_scan"}, "lon": -77.03972683333333, "fusion_lon": 0.0, "is_disabled": 0, "lat": 38.898745166666664, "bike_id": "709809bc06aa18eabbb07aa70cbf486d", "name": "709809bc06aa18eabbb07aa70cbf486d", "is_reserved": 0, "fusion_lat": 0.0}, {"type": "electric_scooter", "rental_uris": {"ios": "https://dc.lft.to/lastmile_qr_scan", "android": "https://dc.lft.to/lastmile_qr_scan"}, "lon": -76.977303, "fusion_lon": 0.0, "is_disabled": 0, "lat": 38.895189, "bike_id": "8ddffabb0034826079fb0019d4e8a172", "name": "8ddffabb0034826079fb0019d4e8a172", "is_reserved": 0, "fusion_lat": 0.0}, {"type": "electric_bike", "rental_uris": {"ios": "https://dc.lft.to/lastmile_qr_scan", "android": "https://dc.lft.to/lastmile_qr_scan"}, "lon": -76.98363516666667, "fusion_lon": 0.0, "is_disabled": 0, "lat": 38.8943675, "bike_id": "5e93bf5dbb4b31ead8ea79f937c423dd", "name": "5e93bf5dbb4b31ead8ea79f937c423dd", "is_reserved": 0, "fusion_lat": 0.0}, {"type": "electric_bike", "rental_uris": {"ios": "https://dc.lft.to/lastmile_qr_scan", "android": "https://dc.lft.to/lastmile_qr_scan"}, "lon": -77.035169, "fusion_lon": 0.0, "is_disabled": 0, "lat": 38.96205, "bike_id": "f84b448d137c4679acd346720c104c13", "name": "f84b448d137c4679acd346720c104c13", "is_reserved": 0, "fusion_lat": 0.0}, {"type": "electric_bike", "rental_uris": {"ios": "https://dc.lft.to/lastmile_qr_scan", "android": "https://dc.lft.to/lastmile_qr_scan"}, "lon": -77.049199, "fusion_lon": 0.0, "is_disabled": 0, "lat": 38.813489, "bike_id": "ecb16296bae7ba1d35697692d15876c6", "name": "ecb16296bae7ba1d35697692d15876c6", "is_reserved": 0, "fusion_lat": 0.0}, {"type": "electric_scooter", "rental_uris": {"ios": "https://dc.lft.to/lastmile_qr_scan", "android": "https://dc.lft.to/lastmile_qr_scan"}, "lon": -77.0021575, "fusion_lon": 0.0, "is_disabled": 0, "lat": 38.9042715, "bike_id": "ab92ba7b4e9ec98aa07d60ceee3ce6d3", "name": "ab92ba7b4e9ec98aa07d60ceee3ce6d3", "is_reserved": 0, "fusion_lat": 0.0}, {"type": "electric_scooter", "rental_uris": {"ios": "https://dc.lft.to/lastmile_qr_scan", "android": "https://dc.lft.to/lastmile_qr_scan"}, "lon": -77.02407, "fusion_lon": 0.0, "is_disabled": 0, "lat": 38.917489333333336, "bike_id": "3540239f15c928ac9049d607da90b8b4", "name": "3540239f15c928ac9049d607da90b8b4", "is_reserved": 0, "fusion_lat": 0.0}, {"type": "electric_scooter", "rental_uris": {"ios": "https://dc.lft.to/lastmile_qr_scan", "android": "https://dc.lft.to/lastmile_qr_scan"}, "lon": -77.072759, "fusion_lon": 0.0, "is_disabled": 0, "lat": 38.93489566666667, "bike_id": "8b9b0bb4aec07aab69061de5d0261235", "name": "8b9b0bb4aec07aab69061de5d0261235", "is_reserved": 0, "fusion_lat": 0.0}, {"type": "electric_scooter", "rental_uris": {"ios": "https://dc.lft.to/lastmile_qr_scan", "android": "https://dc.lft.to/lastmile_qr_scan"}, "lon": -77.03828233333333, "fusion_lon": 0.0, "is_disabled": 0, "lat": 38.90965583333333, "bike_id": "ca2dbf69d539139fcecf61924c6b4f24", "name": "ca2dbf69d539139fcecf61924c6b4f24", "is_reserved": 0, "fusion_lat": 0.0}, {"type": "electric_scooter", "rental_uris": {"ios": "https://dc.lft.to/lastmile_qr_scan", "android": "https://dc.lft.to/lastmile_qr_scan"}, "lon": -77.03971333333334, "fusion_lon": 0.0, "is_disabled": 0, "lat": 38.898747166666666, "bike_id": "8500c6ae04b2aed41fc5286b4f98908c", "name": "8500c6ae04b2aed41fc5286b4f98908c", "is_reserved": 0, "fusion_lat": 0.0}, {"type": "electric_bike", "rental_uris": {"ios": "https://dc.lft.to/lastmile_qr_scan", "android": "https://dc.lft.to/lastmile_qr_scan"}, "lon": -77.04492716666667, "fusion_lon": 0.0, "is_disabled": 0, "lat": 38.8428725, "bike_id": "08c286367aed7a1fd9443503508028da", "name": "08c286367aed7a1fd9443503508028da", "is_reserved": 0, "fusion_lat": 0.0}, {"type": "electric_scooter", "rental_uris": {"ios": "https://dc.lft.to/lastmile_qr_scan", "android": "https://dc.lft.to/lastmile_qr_scan"}, "lon": -77.08288733333333, "fusion_lon": 0.0, "is_disabled": 0, "lat": 38.96094016666667, "bike_id": "d6a5c4057cbbab8b620672684ba672b8", "name": "d6a5c4057cbbab8b620672684ba672b8", "is_reserved": 0, "fusion_lat": 0.0}, {"type": "electric_scooter", "rental_uris": {"ios": "https://dc.lft.to/lastmile_qr_scan", "android": "https://dc.lft.to/lastmile_qr_scan"}, "lon": -77.03341066666667, "fusion_lon": 0.0, "is_disabled": 0, "lat": 38.903187333333335, "bike_id": "dd5e7ed003fccd9d83b3365f19b4601d", "name": "dd5e7ed003fccd9d83b3365f19b4601d", "is_reserved": 0, "fusion_lat": 0.0}, {"type": "electric_scooter", "rental_uris": {"ios": "https://dc.lft.to/lastmile_qr_scan", "android": "https://dc.lft.to/lastmile_qr_scan"}, "lon": -76.99853616666667, "fusion_lon": 0.0, "is_disabled": 0, "lat": 38.89999866666667, "bike_id": "e617c60918f735638164afe8bfde426e", "name": "e617c60918f735638164afe8bfde426e", "is_reserved": 0, "fusion_lat": 0.0}, {"type": "electric_scooter", "rental_uris": {"ios": "https://dc.lft.to/lastmile_qr_scan", "android": "https://dc.lft.to/lastmile_qr_scan"}, "lon": -77.02792166666667, "fusion_lon": 0.0, "is_disabled": 0, "lat": 38.961312166666666, "bike_id": "9376bcc2eb1f55432839a4167321483b", "name": "9376bcc2eb1f55432839a4167321483b", "is_reserved": 0, "fusion_lat": 0.0}, {"type": "electric_scooter", "rental_uris": {"ios": "https://dc.lft.to/lastmile_qr_scan", "android": "https://dc.lft.to/lastmile_qr_scan"}, "lon": -77.02142916666666, "fusion_lon": 0.0, "is_disabled": 0, "lat": 38.925906166666664, "bike_id": "ee3c27863196b5416269b023a5fec011", "name": "ee3c27863196b5416269b023a5fec011", "is_reserved": 0, "fusion_lat": 0.0}, {"type": "electric_bike", "rental_uris": {"ios": "https://dc.lft.to/lastmile_qr_scan", "android": "https://dc.lft.to/lastmile_qr_scan"}, "lon": -77.03216066666667, "fusion_lon": 0.0, "is_disabled": 0, "lat": 38.9155405, "bike_id": "24b57e98a806001383a88ca047f90369", "name": "24b57e98a806001383a88ca047f90369", "is_reserved": 0, "fusion_lat": 0.0}, {"type": "electric_scooter", "rental_uris": {"ios": "https://dc.lft.to/lastmile_qr_scan", "android": "https://dc.lft.to/lastmile_qr_scan"}, "lon": -77.03253766666667, "fusion_lon": 0.0, "is_disabled": 0, "lat": 38.9277705, "bike_id": "37c590c5be31cdef8d7c04f00bc80762", "name": "37c590c5be31cdef8d7c04f00bc80762", "is_reserved": 0, "fusion_lat": 0.0}, {"type": "electric_scooter", "rental_uris": {"ios": "https://dc.lft.to/lastmile_qr_scan", "android": "https://dc.lft.to/lastmile_qr_scan"}, "lon": -77.04130833333333, "fusion_lon": 0.0, "is_disabled": 0, "lat": 38.93402533333333, "bike_id": "6a9db0531d9861d4c8ea90d00493a87e", "name": "6a9db0531d9861d4c8ea90d00493a87e", "is_reserved": 0, "fusion_lat": 0.0}, {"type": "electric_scooter", "rental_uris": {"ios": "https://dc.lft.to/lastmile_qr_scan", "android": "https://dc.lft.to/lastmile_qr_scan"}, "lon": -77.03430366666667, "fusion_lon": 0.0, "is_disabled": 0, "lat": 38.907248333333335, "bike_id": "acc36dcff06569ff696c3f7c9737c884", "name": "acc36dcff06569ff696c3f7c9737c884", "is_reserved": 0, "fusion_lat": 0.0}, {"type": "electric_bike", "rental_uris": {"ios": "https://dc.lft.to/lastmile_qr_scan", "android": "https://dc.lft.to/lastmile_qr_scan"}, "lon": -76.97834616666667, "fusion_lon": 0.0, "is_disabled": 0, "lat": 38.8707075, "bike_id": "50086765a8d943b48a18c4dbd8dec0c2", "name": "50086765a8d943b48a18c4dbd8dec0c2", "is_reserved": 0, "fusion_lat": 0.0}, {"type": "electric_scooter", "rental_uris": {"ios": "https://dc.lft.to/lastmile_qr_scan", "android": "https://dc.lft.to/lastmile_qr_scan"}, "lon": -77.02230383333334, "fusion_lon": 0.0, "is_disabled": 0, "lat": 38.91252766666667, "bike_id": "c1a3af2f85fa6bdf181f2407eeec435e", "name": "c1a3af2f85fa6bdf181f2407eeec435e", "is_reserved": 0, "fusion_lat": 0.0}, {"type": "electric_scooter", "rental_uris": {"ios": "https://dc.lft.to/lastmile_qr_scan", "android": "https://dc.lft.to/lastmile_qr_scan"}, "lon": -77.0143355, "fusion_lon": 0.0, "is_disabled": 0, "lat": 38.914603, "bike_id": "75247b106d03e26da4b1ff5d11072811", "name": "75247b106d03e26da4b1ff5d11072811", "is_reserved": 0, "fusion_lat": 0.0}, {"type": "electric_bike", "rental_uris": {"ios": "https://dc.lft.to/lastmile_qr_scan", "android": "https://dc.lft.to/lastmile_qr_scan"}, "lon": -76.99018083333333, "fusion_lon": 0.0, "is_disabled": 0, "lat": 38.95479016666667, "bike_id": "fb54b920a02444d888426d67a3a17ab5", "name": "fb54b920a02444d888426d67a3a17ab5", "is_reserved": 0, "fusion_lat": 0.0}, {"type": "electric_scooter", "rental_uris": {"ios": "https://dc.lft.to/lastmile_qr_scan", "android": "https://dc.lft.to/lastmile_qr_scan"}, "lon": -76.98699866666666, "fusion_lon": 0.0, "is_disabled": 0, "lat": 38.90702916666667, "bike_id": "0556c53cd15e11dd38cfe0d6116cb34e", "name": "0556c53cd15e11dd38cfe0d6116cb34e", "is_reserved": 0, "fusion_lat": 0.0}, {"type": "electric_bike", "rental_uris": {"ios": "https://dc.lft.to/lastmile_qr_scan", "android": "https://dc.lft.to/lastmile_qr_scan"}, "lon": -76.9626195, "fusion_lon": 0.0, "is_disabled": 0, "lat": 38.882461, "bike_id": "74f85358d0aea84187988df222cc5ce7", "name": "74f85358d0aea84187988df222cc5ce7", "is_reserved": 0, "fusion_lat": 0.0}, {"type": "electric_scooter", "rental_uris": {"ios": "https://dc.lft.to/lastmile_qr_scan", "android": "https://dc.lft.to/lastmile_qr_scan"}, "lon": -76.95417016666667, "fusion_lon": 0.0, "is_disabled": 0, "lat": 38.8906375, "bike_id": "198cbbc4cf2fabe286fab82626b17de6", "name": "198cbbc4cf2fabe286fab82626b17de6", "is_reserved": 0, "fusion_lat": 0.0}, {"type": "electric_scooter", "rental_uris": {"ios": "https://dc.lft.to/lastmile_qr_scan", "android": "https://dc.lft.to/lastmile_qr_scan"}, "lon": -77.02967016666666, "fusion_lon": 0.0, "is_disabled": 0, "lat": 38.925881, "bike_id": "6866d3f5086d469b5a03a8cd84596392", "name": "6866d3f5086d469b5a03a8cd84596392", "is_reserved": 0, "fusion_lat": 0.0}, {"type": "electric_scooter", "rental_uris": {"ios": "https://dc.lft.to/lastmile_qr_scan", "android": "https://dc.lft.to/lastmile_qr_scan"}, "lon": -77.04388366666667, "fusion_lon": 0.0, "is_disabled": 0, "lat": 38.91073633333333, "bike_id": "b6a65af156491ab0b273fd2a5c5d305e", "name": "b6a65af156491ab0b273fd2a5c5d305e", "is_reserved": 0, "fusion_lat": 0.0}, {"type": "electric_scooter", "rental_uris": {"ios": "https://dc.lft.to/lastmile_qr_scan", "android": "https://dc.lft.to/lastmile_qr_scan"}, "lon": -77.0429375, "fusion_lon": 0.0, "is_disabled": 0, "lat": 38.90799766666667, "bike_id": "b80a8ce274ca2e922cb424b137a53e39", "name": "b80a8ce274ca2e922cb424b137a53e39", "is_reserved": 0, "fusion_lat": 0.0}, {"type": "electric_bike", "rental_uris": {"ios": "https://dc.lft.to/lastmile_qr_scan", "android": "https://dc.lft.to/lastmile_qr_scan"}, "lon": -76.94790883333333, "fusion_lon": 0.0, "is_disabled": 0, "lat": 38.89399733333333, "bike_id": "c42608432cad7acf7dbac975d1a65132", "name": "c42608432cad7acf7dbac975d1a65132", "is_reserved": 0, "fusion_lat": 0.0}, {"type": "electric_scooter", "rental_uris": {"ios": "https://dc.lft.to/lastmile_qr_scan", "android": "https://dc.lft.to/lastmile_qr_scan"}, "lon": -77.03966766666667, "fusion_lon": 0.0, "is_disabled": 0, "lat": 38.89631883333333, "bike_id": "f8fd17ca4d85952b68fc55b55ca83fc0", "name": "f8fd17ca4d85952b68fc55b55ca83fc0", "is_reserved": 0, "fusion_lat": 0.0}, {"type": "electric_scooter", "rental_uris": {"ios": "https://dc.lft.to/lastmile_qr_scan", "android": "https://dc.lft.to/lastmile_qr_scan"}, "lon": -76.991398, "fusion_lon": 0.0, "is_disabled": 0, "lat": 38.859547666666664, "bike_id": "9c1719551a3393dd631ab12f80285bb0", "name": "9c1719551a3393dd631ab12f80285bb0", "is_reserved": 0, "fusion_lat": 0.0}, {"type": "electric_scooter", "rental_uris": {"ios": "https://dc.lft.to/lastmile_qr_scan", "android": "https://dc.lft.to/lastmile_qr_scan"}, "lon": -77.03146833333334, "fusion_lon": 0.0, "is_disabled": 0, "lat": 38.927898, "bike_id": "b54075e9512b6475bfb456e1e44e4a50", "name": "b54075e9512b6475bfb456e1e44e4a50", "is_reserved": 0, "fusion_lat": 0.0}, {"type": "electric_scooter", "rental_uris": {"ios": "https://dc.lft.to/lastmile_qr_scan", "android": "https://dc.lft.to/lastmile_qr_scan"}, "lon": -77.019818, "fusion_lon": 0.0, "is_disabled": 0, "lat": 38.902375666666664, "bike_id": "d8309f759558bdcdb427de3559509eef", "name": "d8309f759558bdcdb427de3559509eef", "is_reserved": 0, "fusion_lat": 0.0}, {"type": "electric_scooter", "rental_uris": {"ios": "https://dc.lft.to/lastmile_qr_scan", "android": "https://dc.lft.to/lastmile_qr_scan"}, "lon": -77.043347, "fusion_lon": 0.0, "is_disabled": 0, "lat": 38.892256833333334, "bike_id": "38b82444536de143111728dc9af12726", "name": "38b82444536de143111728dc9af12726", "is_reserved": 0, "fusion_lat": 0.0}, {"type": "electric_scooter", "rental_uris": {"ios": "https://dc.lft.to/lastmile_qr_scan", "android": "https://dc.lft.to/lastmile_qr_scan"}, "lon": -76.99853166666666, "fusion_lon": 0.0, "is_disabled": 0, "lat": 38.90164866666667, "bike_id": "6a4b37b82a4a35b846348580a0f5e1e6", "name": "6a4b37b82a4a35b846348580a0f5e1e6", "is_reserved": 0, "fusion_lat": 0.0}, {"type": "electric_scooter", "rental_uris": {"ios": "https://dc.lft.to/lastmile_qr_scan", "android": "https://dc.lft.to/lastmile_qr_scan"}, "lon": -77.02179233333334, "fusion_lon": 0.0, "is_disabled": 0, "lat": 38.917429166666665, "bike_id": "fd46d936bc8e1ee4b17685c614087b10", "name": "fd46d936bc8e1ee4b17685c614087b10", "is_reserved": 0, "fusion_lat": 0.0}, {"type": "electric_scooter", "rental_uris": {"ios": "https://dc.lft.to/lastmile_qr_scan", "android": "https://dc.lft.to/lastmile_qr_scan"}, "lon": -77.04722083333333, "fusion_lon": 0.0, "is_disabled": 0, "lat": 38.922294666666666, "bike_id": "924c453f267adc79d158e391a6b6ffd5", "name": "924c453f267adc79d158e391a6b6ffd5", "is_reserved": 0, "fusion_lat": 0.0}, {"type": "electric_scooter", "rental_uris": {"ios": "https://dc.lft.to/lastmile_qr_scan", "android": "https://dc.lft.to/lastmile_qr_scan"}, "lon": -77.03664066666667, "fusion_lon": 0.0, "is_disabled": 0, "lat": 38.917250833333334, "bike_id": "bbe2925da2b0e46dc6408afe400305de", "name": "bbe2925da2b0e46dc6408afe400305de", "is_reserved": 0, "fusion_lat": 0.0}, {"type": "electric_scooter", "rental_uris": {"ios": "https://dc.lft.to/lastmile_qr_scan", "android": "https://dc.lft.to/lastmile_qr_scan"}, "lon": -77.045108, "fusion_lon": 0.0, "is_disabled": 0, "lat": 38.91282833333333, "bike_id": "6c56deacde2fc0a4a45bc2b8de94aae1", "name": "6c56deacde2fc0a4a45bc2b8de94aae1", "is_reserved": 0, "fusion_lat": 0.0}, {"type": "electric_scooter", "rental_uris": {"ios": "https://dc.lft.to/lastmile_qr_scan", "android": "https://dc.lft.to/lastmile_qr_scan"}, "lon": -77.0111325, "fusion_lon": 0.0, "is_disabled": 0, "lat": 38.903567, "bike_id": "1041cdf83c4466457946ff97f4107662", "name": "1041cdf83c4466457946ff97f4107662", "is_reserved": 0, "fusion_lat": 0.0}, {"type": "electric_scooter", "rental_uris": {"ios": "https://dc.lft.to/lastmile_qr_scan", "android": "https://dc.lft.to/lastmile_qr_scan"}, "lon": -77.021999, "fusion_lon": 0.0, "is_disabled": 0, "lat": 38.91129166666666, "bike_id": "b1213c5cc94d79e58e9e68bb94c3d457", "name": "b1213c5cc94d79e58e9e68bb94c3d457", "is_reserved": 0, "fusion_lat": 0.0}, {"type": "electric_bike", "rental_uris": {"ios": "https://dc.lft.to/lastmile_qr_scan", "android": "https://dc.lft.to/lastmile_qr_scan"}, "lon": -76.995712, "fusion_lon": 0.0, "is_disabled": 0, "lat": 38.88469116666667, "bike_id": "1e4f3acaec3ca0f904c2d779daa95d5d", "name": "1e4f3acaec3ca0f904c2d779daa95d5d", "is_reserved": 0, "fusion_lat": 0.0}, {"type": "electric_scooter", "rental_uris": {"ios": "https://dc.lft.to/lastmile_qr_scan", "android": "https://dc.lft.to/lastmile_qr_scan"}, "lon": -77.01140283333334, "fusion_lon": 0.0, "is_disabled": 0, "lat": 38.90639783333334, "bike_id": "fd7a866c93742b5bdcf23d482dfed633", "name": "fd7a866c93742b5bdcf23d482dfed633", "is_reserved": 0, "fusion_lat": 0.0}, {"type": "electric_scooter", "rental_uris": {"ios": "https://dc.lft.to/lastmile_qr_scan", "android": "https://dc.lft.to/lastmile_qr_scan"}, "lon": -77.05812666666667, "fusion_lon": 0.0, "is_disabled": 0, "lat": 38.902781, "bike_id": "caec873d7f7d69c67fc6e1814033c3f7", "name": "caec873d7f7d69c67fc6e1814033c3f7", "is_reserved": 0, "fusion_lat": 0.0}, {"type": "electric_scooter", "rental_uris": {"ios": "https://dc.lft.to/lastmile_qr_scan", "android": "https://dc.lft.to/lastmile_qr_scan"}, "lon": -77.0321115, "fusion_lon": 0.0, "is_disabled": 0, "lat": 38.91824233333333, "bike_id": "19b7df6c43e6ec4b298e1693a58b5d2a", "name": "19b7df6c43e6ec4b298e1693a58b5d2a", "is_reserved": 0, "fusion_lat": 0.0}, {"type": "electric_scooter", "rental_uris": {"ios": "https://dc.lft.to/lastmile_qr_scan", "android": "https://dc.lft.to/lastmile_qr_scan"}, "lon": -76.98359583333334, "fusion_lon": 0.0, "is_disabled": 0, "lat": 38.887469, "bike_id": "4d60bd38be8e7fd2a95d9b5482e9d6cb", "name": "4d60bd38be8e7fd2a95d9b5482e9d6cb", "is_reserved": 0, "fusion_lat": 0.0}, {"type": "electric_scooter", "rental_uris": {"ios": "https://dc.lft.to/lastmile_qr_scan", "android": "https://dc.lft.to/lastmile_qr_scan"}, "lon": -77.04028966666667, "fusion_lon": 0.0, "is_disabled": 0, "lat": 38.92444183333333, "bike_id": "68bbf0843d9a072a32397a4c9412406b", "name": "68bbf0843d9a072a32397a4c9412406b", "is_reserved": 0, "fusion_lat": 0.0}, {"type": "electric_scooter", "rental_uris": {"ios": "https://dc.lft.to/lastmile_qr_scan", "android": "https://dc.lft.to/lastmile_qr_scan"}, "lon": -76.98712566666667, "fusion_lon": 0.0, "is_disabled": 0, "lat": 38.866991, "bike_id": "ad3359a5444a6f4f74899e30662226d2", "name": "ad3359a5444a6f4f74899e30662226d2", "is_reserved": 0, "fusion_lat": 0.0}, {"type": "electric_bike", "rental_uris": {"ios": "https://dc.lft.to/lastmile_qr_scan", "android": "https://dc.lft.to/lastmile_qr_scan"}, "lon": -76.975839, "fusion_lon": 0.0, "is_disabled": 0, "lat": 38.840292, "bike_id": "dccf17562767620f7003101a44460fed", "name": "dccf17562767620f7003101a44460fed", "is_reserved": 0, "fusion_lat": 0.0}, {"type": "electric_scooter", "rental_uris": {"ios": "https://dc.lft.to/lastmile_qr_scan", "android": "https://dc.lft.to/lastmile_qr_scan"}, "lon": -77.0729885, "fusion_lon": 0.0, "is_disabled": 0, "lat": 38.93527533333334, "bike_id": "4b0f5e0e67a4693ace9fe27ae35a8764", "name": "4b0f5e0e67a4693ace9fe27ae35a8764", "is_reserved": 0, "fusion_lat": 0.0}, {"type": "electric_scooter", "rental_uris": {"ios": "https://dc.lft.to/lastmile_qr_scan", "android": "https://dc.lft.to/lastmile_qr_scan"}, "lon": -77.02706866666666, "fusion_lon": 0.0, "is_disabled": 0, "lat": 38.90076033333333, "bike_id": "39bfe9d030f862f0e9d468f2e221643b", "name": "39bfe9d030f862f0e9d468f2e221643b", "is_reserved": 0, "fusion_lat": 0.0}, {"type": "electric_scooter", "rental_uris": {"ios": "https://dc.lft.to/lastmile_qr_scan", "android": "https://dc.lft.to/lastmile_qr_scan"}, "lon": -76.98963433333333, "fusion_lon": 0.0, "is_disabled": 0, "lat": 38.9094475, "bike_id": "7a07c1e173621fc55dae7908eef4466c", "name": "7a07c1e173621fc55dae7908eef4466c", "is_reserved": 0, "fusion_lat": 0.0}, {"type": "electric_scooter", "rental_uris": {"ios": "https://dc.lft.to/lastmile_qr_scan", "android": "https://dc.lft.to/lastmile_qr_scan"}, "lon": -77.03387666666667, "fusion_lon": 0.0, "is_disabled": 0, "lat": 38.92457616666667, "bike_id": "6b8e37fe26964730eb07ccee424d0a39", "name": "6b8e37fe26964730eb07ccee424d0a39", "is_reserved": 0, "fusion_lat": 0.0}, {"type": "electric_scooter", "rental_uris": {"ios": "https://dc.lft.to/lastmile_qr_scan", "android": "https://dc.lft.to/lastmile_qr_scan"}, "lon": -77.01776983333333, "fusion_lon": 0.0, "is_disabled": 0, "lat": 38.887166, "bike_id": "e5f6be1d5e2dc2349d6c7c8cd5e9e834", "name": "e5f6be1d5e2dc2349d6c7c8cd5e9e834", "is_reserved": 0, "fusion_lat": 0.0}, {"type": "electric_scooter", "rental_uris": {"ios": "https://dc.lft.to/lastmile_qr_scan", "android": "https://dc.lft.to/lastmile_qr_scan"}, "lon": -77.03638133333334, "fusion_lon": 0.0, "is_disabled": 0, "lat": 38.930588, "bike_id": "007705ebd549d1a1c95b9102c91c4083", "name": "007705ebd549d1a1c95b9102c91c4083", "is_reserved": 0, "fusion_lat": 0.0}, {"type": "electric_scooter", "rental_uris": {"ios": "https://dc.lft.to/lastmile_qr_scan", "android": "https://dc.lft.to/lastmile_qr_scan"}, "lon": -76.951283, "fusion_lon": 0.0, "is_disabled": 0, "lat": 38.890328833333335, "bike_id": "93ec5d3cc9e010c57494e59bee6023af", "name": "93ec5d3cc9e010c57494e59bee6023af", "is_reserved": 0, "fusion_lat": 0.0}, {"type": "electric_scooter", "rental_uris": {"ios": "https://dc.lft.to/lastmile_qr_scan", "android": "https://dc.lft.to/lastmile_qr_scan"}, "lon": -77.00578583333333, "fusion_lon": 0.0, "is_disabled": 0, "lat": 38.88182716666667, "bike_id": "4d11bb263ff2d2ead17d5bed374bafe8", "name": "4d11bb263ff2d2ead17d5bed374bafe8", "is_reserved": 0, "fusion_lat": 0.0}, {"type": "electric_bike", "rental_uris": {"ios": "https://dc.lft.to/lastmile_qr_scan", "android": "https://dc.lft.to/lastmile_qr_scan"}, "lon": -77.11899316666667, "fusion_lon": 0.0, "is_disabled": 0, "lat": 39.07503216666667, "bike_id": "6ac8002ff0fdf1a7dca106e69b242b11", "name": "6ac8002ff0fdf1a7dca106e69b242b11", "is_reserved": 0, "fusion_lat": 0.0}, {"type": "electric_bike", "rental_uris": {"ios": "https://dc.lft.to/lastmile_qr_scan", "android": "https://dc.lft.to/lastmile_qr_scan"}, "lon": -77.039455, "fusion_lon": 0.0, "is_disabled": 0, "lat": 38.865045, "bike_id": "6b5391f3eb79f38eb92ba9766b832c28", "name": "6b5391f3eb79f38eb92ba9766b832c28", "is_reserved": 0, "fusion_lat": 0.0}, {"type": "electric_scooter", "rental_uris": {"ios": "https://dc.lft.to/lastmile_qr_scan", "android": "https://dc.lft.to/lastmile_qr_scan"}, "lon": -77.0372945, "fusion_lon": 0.0, "is_disabled": 0, "lat": 38.9307895, "bike_id": "66f674cb80907a131c93ebcc41c0d48d", "name": "66f674cb80907a131c93ebcc41c0d48d", "is_reserved": 0, "fusion_lat": 0.0}, {"type": "electric_scooter", "rental_uris": {"ios": "https://dc.lft.to/lastmile_qr_scan", "android": "https://dc.lft.to/lastmile_qr_scan"}, "lon": -77.04219066666667, "fusion_lon": 0.0, "is_disabled": 0, "lat": 38.92310966666667, "bike_id": "bf9778d7640362005d9f7ad912d46bd1", "name": "bf9778d7640362005d9f7ad912d46bd1", "is_reserved": 0, "fusion_lat": 0.0}, {"type": "electric_scooter", "rental_uris": {"ios": "https://dc.lft.to/lastmile_qr_scan", "android": "https://dc.lft.to/lastmile_qr_scan"}, "lon": -77.0232015, "fusion_lon": 0.0, "is_disabled": 0, "lat": 38.9168895, "bike_id": "dd8b3c0a757c73bcfb6a0ffab12fbb7f", "name": "dd8b3c0a757c73bcfb6a0ffab12fbb7f", "is_reserved": 0, "fusion_lat": 0.0}, {"type": "electric_scooter", "rental_uris": {"ios": "https://dc.lft.to/lastmile_qr_scan", "android": "https://dc.lft.to/lastmile_qr_scan"}, "lon": -77.03360466666666, "fusion_lon": 0.0, "is_disabled": 0, "lat": 38.88758266666667, "bike_id": "b064d104f033ef2ac4132fe3a9a7641f", "name": "b064d104f033ef2ac4132fe3a9a7641f", "is_reserved": 0, "fusion_lat": 0.0}, {"type": "electric_scooter", "rental_uris": {"ios": "https://dc.lft.to/lastmile_qr_scan", "android": "https://dc.lft.to/lastmile_qr_scan"}, "lon": -76.92620233333334, "fusion_lon": 0.0, "is_disabled": 0, "lat": 38.88458283333333, "bike_id": "0834dd9bd1efd5dd0c0e5499158612b1", "name": "0834dd9bd1efd5dd0c0e5499158612b1", "is_reserved": 0, "fusion_lat": 0.0}, {"type": "electric_scooter", "rental_uris": {"ios": "https://dc.lft.to/lastmile_qr_scan", "android": "https://dc.lft.to/lastmile_qr_scan"}, "lon": -77.03506516666667, "fusion_lon": 0.0, "is_disabled": 0, "lat": 38.921490166666665, "bike_id": "7735590a9566d76f34a931e82baa1d77", "name": "7735590a9566d76f34a931e82baa1d77", "is_reserved": 0, "fusion_lat": 0.0}, {"type": "electric_scooter", "rental_uris": {"ios": "https://dc.lft.to/lastmile_qr_scan", "android": "https://dc.lft.to/lastmile_qr_scan"}, "lon": -77.04027966666666, "fusion_lon": 0.0, "is_disabled": 0, "lat": 38.9216535, "bike_id": "d18e0235662a6152a4540639823cd543", "name": "d18e0235662a6152a4540639823cd543", "is_reserved": 0, "fusion_lat": 0.0}, {"type": "electric_scooter", "rental_uris": {"ios": "https://dc.lft.to/lastmile_qr_scan", "android": "https://dc.lft.to/lastmile_qr_scan"}, "lon": -76.99509166666667, "fusion_lon": 0.0, "is_disabled": 0, "lat": 38.894875666666664, "bike_id": "610a5883104e3b8cdd2dc731ca871bd9", "name": "610a5883104e3b8cdd2dc731ca871bd9", "is_reserved": 0, "fusion_lat": 0.0}, {"type": "electric_bike", "rental_uris": {"ios": "https://dc.lft.to/lastmile_qr_scan", "android": "https://dc.lft.to/lastmile_qr_scan"}, "lon": -76.93650266666667, "fusion_lon": 0.0, "is_disabled": 0, "lat": 38.871504, "bike_id": "57521ebe278a625fc5c74bc32b33b270", "name": "57521ebe278a625fc5c74bc32b33b270", "is_reserved": 0, "fusion_lat": 0.0}, {"type": "electric_scooter", "rental_uris": {"ios": "https://dc.lft.to/lastmile_qr_scan", "android": "https://dc.lft.to/lastmile_qr_scan"}, "lon": -77.02097833333333, "fusion_lon": 0.0, "is_disabled": 0, "lat": 38.931149833333336, "bike_id": "7c3cf993b8deb39ef1af059380ab669e", "name": "7c3cf993b8deb39ef1af059380ab669e", "is_reserved": 0, "fusion_lat": 0.0}, {"type": "electric_scooter", "rental_uris": {"ios": "https://dc.lft.to/lastmile_qr_scan", "android": "https://dc.lft.to/lastmile_qr_scan"}, "lon": -77.02777266666666, "fusion_lon": 0.0, "is_disabled": 0, "lat": 38.8922135, "bike_id": "585728e5193c30a54bf31a7e1959f299", "name": "585728e5193c30a54bf31a7e1959f299", "is_reserved": 0, "fusion_lat": 0.0}, {"type": "electric_scooter", "rental_uris": {"ios": "https://dc.lft.to/lastmile_qr_scan", "android": "https://dc.lft.to/lastmile_qr_scan"}, "lon": -77.03183966666667, "fusion_lon": 0.0, "is_disabled": 0, "lat": 38.9142865, "bike_id": "97e36ef514c1d96140199079b157e202", "name": "97e36ef514c1d96140199079b157e202", "is_reserved": 0, "fusion_lat": 0.0}, {"type": "electric_scooter", "rental_uris": {"ios": "https://dc.lft.to/lastmile_qr_scan", "android": "https://dc.lft.to/lastmile_qr_scan"}, "lon": -77.04543, "fusion_lon": 0.0, "is_disabled": 0, "lat": 38.918224333333335, "bike_id": "a4b87ead56837c2befc2ba7ad6cd223b", "name": "a4b87ead56837c2befc2ba7ad6cd223b", "is_reserved": 0, "fusion_lat": 0.0}, {"type": "electric_scooter", "rental_uris": {"ios": "https://dc.lft.to/lastmile_qr_scan", "android": "https://dc.lft.to/lastmile_qr_scan"}, "lon": -76.9660745, "fusion_lon": 0.0, "is_disabled": 0, "lat": 38.87386766666667, "bike_id": "f73649f43d66585cced3c4412ba70f89", "name": "f73649f43d66585cced3c4412ba70f89", "is_reserved": 0, "fusion_lat": 0.0}, {"type": "electric_scooter", "rental_uris": {"ios": "https://dc.lft.to/lastmile_qr_scan", "android": "https://dc.lft.to/lastmile_qr_scan"}, "lon": -77.04370916666667, "fusion_lon": 0.0, "is_disabled": 0, "lat": 38.92118516666667, "bike_id": "8f40f45ab5bb023151af3fe31606c8f6", "name": "8f40f45ab5bb023151af3fe31606c8f6", "is_reserved": 0, "fusion_lat": 0.0}, {"type": "electric_scooter", "rental_uris": {"ios": "https://dc.lft.to/lastmile_qr_scan", "android": "https://dc.lft.to/lastmile_qr_scan"}, "lon": -76.990362, "fusion_lon": 0.0, "is_disabled": 0, "lat": 38.8636525, "bike_id": "80cd40905461e26d80514c9b2ecfe6f5", "name": "80cd40905461e26d80514c9b2ecfe6f5", "is_reserved": 0, "fusion_lat": 0.0}, {"type": "electric_scooter", "rental_uris": {"ios": "https://dc.lft.to/lastmile_qr_scan", "android": "https://dc.lft.to/lastmile_qr_scan"}, "lon": -77.03795066666666, "fusion_lon": 0.0, "is_disabled": 0, "lat": 38.9262595, "bike_id": "e3fdded28f9d4812f51bb2fcc179355c", "name": "e3fdded28f9d4812f51bb2fcc179355c", "is_reserved": 0, "fusion_lat": 0.0}, {"type": "electric_scooter", "rental_uris": {"ios": "https://dc.lft.to/lastmile_qr_scan", "android": "https://dc.lft.to/lastmile_qr_scan"}, "lon": -77.02498016666667, "fusion_lon": 0.0, "is_disabled": 0, "lat": 38.91807583333333, "bike_id": "4fffa0095dfb690f7cad6e40b6a7746e", "name": "4fffa0095dfb690f7cad6e40b6a7746e", "is_reserved": 0, "fusion_lat": 0.0}, {"type": "electric_scooter", "rental_uris": {"ios": "https://dc.lft.to/lastmile_qr_scan", "android": "https://dc.lft.to/lastmile_qr_scan"}, "lon": -77.0454125, "fusion_lon": 0.0, "is_disabled": 0, "lat": 38.91328166666667, "bike_id": "3be6f844518a0fa39980fb406e708735", "name": "3be6f844518a0fa39980fb406e708735", "is_reserved": 0, "fusion_lat": 0.0}, {"type": "electric_scooter", "rental_uris": {"ios": "https://dc.lft.to/lastmile_qr_scan", "android": "https://dc.lft.to/lastmile_qr_scan"}, "lon": -77.01991933333333, "fusion_lon": 0.0, "is_disabled": 0, "lat": 38.89851183333333, "bike_id": "1a7a0e07f223d09d2308d96fa27a57c6", "name": "1a7a0e07f223d09d2308d96fa27a57c6", "is_reserved": 0, "fusion_lat": 0.0}, {"type": "electric_scooter", "rental_uris": {"ios": "https://dc.lft.to/lastmile_qr_scan", "android": "https://dc.lft.to/lastmile_qr_scan"}, "lon": -77.00926316666667, "fusion_lon": 0.0, "is_disabled": 0, "lat": 38.897738833333335, "bike_id": "90015a3c87e2a569169f8f6bd75f5545", "name": "90015a3c87e2a569169f8f6bd75f5545", "is_reserved": 0, "fusion_lat": 0.0}, {"type": "electric_scooter", "rental_uris": {"ios": "https://dc.lft.to/lastmile_qr_scan", "android": "https://dc.lft.to/lastmile_qr_scan"}, "lon": -77.01652766666666, "fusion_lon": 0.0, "is_disabled": 0, "lat": 38.91055466666667, "bike_id": "093bdc8a4bf2ae442b7542a1356b6958", "name": "093bdc8a4bf2ae442b7542a1356b6958", "is_reserved": 0, "fusion_lat": 0.0}, {"type": "electric_scooter", "rental_uris": {"ios": "https://dc.lft.to/lastmile_qr_scan", "android": "https://dc.lft.to/lastmile_qr_scan"}, "lon": -77.04345983333333, "fusion_lon": 0.0, "is_disabled": 0, "lat": 38.908026666666665, "bike_id": "b52035b92937024e8818eb76cf649f61", "name": "b52035b92937024e8818eb76cf649f61", "is_reserved": 0, "fusion_lat": 0.0}, {"type": "electric_scooter", "rental_uris": {"ios": "https://dc.lft.to/lastmile_qr_scan", "android": "https://dc.lft.to/lastmile_qr_scan"}, "lon": -77.02270566666667, "fusion_lon": 0.0, "is_disabled": 0, "lat": 38.916568, "bike_id": "3a8c5a1a5ba537fed2c7a92901ae3b5f", "name": "3a8c5a1a5ba537fed2c7a92901ae3b5f", "is_reserved": 0, "fusion_lat": 0.0}, {"type": "electric_scooter", "rental_uris": {"ios": "https://dc.lft.to/lastmile_qr_scan", "android": "https://dc.lft.to/lastmile_qr_scan"}, "lon": -77.03401883333333, "fusion_lon": 0.0, "is_disabled": 0, "lat": 38.931255666666665, "bike_id": "94137e65e9c8baef1faba32e91d82dac", "name": "94137e65e9c8baef1faba32e91d82dac", "is_reserved": 0, "fusion_lat": 0.0}, {"type": "electric_scooter", "rental_uris": {"ios": "https://dc.lft.to/lastmile_qr_scan", "android": "https://dc.lft.to/lastmile_qr_scan"}, "lon": -77.00683766666667, "fusion_lon": 0.0, "is_disabled": 0, "lat": 38.900033, "bike_id": "5424ce42624e0acc55bf7649b6b508e6", "name": "5424ce42624e0acc55bf7649b6b508e6", "is_reserved": 0, "fusion_lat": 0.0}, {"type": "electric_scooter", "rental_uris": {"ios": "https://dc.lft.to/lastmile_qr_scan", "android": "https://dc.lft.to/lastmile_qr_scan"}, "lon": -77.034155, "fusion_lon": 0.0, "is_disabled": 0, "lat": 38.9192515, "bike_id": "2540ce62013bf10bf30b537d1ddd2e88", "name": "2540ce62013bf10bf30b537d1ddd2e88", "is_reserved": 0, "fusion_lat": 0.0}, {"type": "electric_scooter", "rental_uris": {"ios": "https://dc.lft.to/lastmile_qr_scan", "android": "https://dc.lft.to/lastmile_qr_scan"}, "lon": -77.04003633333333, "fusion_lon": 0.0, "is_disabled": 0, "lat": 38.9078105, "bike_id": "643d8d193ec0f600415a630c8860b500", "name": "643d8d193ec0f600415a630c8860b500", "is_reserved": 0, "fusion_lat": 0.0}, {"type": "electric_bike", "rental_uris": {"ios": "https://dc.lft.to/lastmile_qr_scan", "android": "https://dc.lft.to/lastmile_qr_scan"}, "lon": -76.92482566666666, "fusion_lon": 0.0, "is_disabled": 0, "lat": 38.958869166666666, "bike_id": "373dfd24a68af37cac0919de56e4264c", "name": "373dfd24a68af37cac0919de56e4264c", "is_reserved": 0, "fusion_lat": 0.0}, {"type": "electric_scooter", "rental_uris": {"ios": "https://dc.lft.to/lastmile_qr_scan", "android": "https://dc.lft.to/lastmile_qr_scan"}, "lon": -77.0335835, "fusion_lon": 0.0, "is_disabled": 0, "lat": 38.887584, "bike_id": "ec9156fde35e37bca17ba0b93d5995be", "name": "ec9156fde35e37bca17ba0b93d5995be", "is_reserved": 0, "fusion_lat": 0.0}, {"type": "electric_bike", "rental_uris": {"ios": "https://dc.lft.to/lastmile_qr_scan", "android": "https://dc.lft.to/lastmile_qr_scan"}, "lon": -77.08520166666666, "fusion_lon": 0.0, "is_disabled": 0, "lat": 38.88571066666667, "bike_id": "b05bbe1f29906a0a7a951d3f793ed197", "name": "b05bbe1f29906a0a7a951d3f793ed197", "is_reserved": 0, "fusion_lat": 0.0}, {"type": "electric_scooter", "rental_uris": {"ios": "https://dc.lft.to/lastmile_qr_scan", "android": "https://dc.lft.to/lastmile_qr_scan"}, "lon": -76.9334235, "fusion_lon": 0.0, "is_disabled": 0, "lat": 38.899167, "bike_id": "752b3d61382683a96050837ef00c6148", "name": "752b3d61382683a96050837ef00c6148", "is_reserved": 0, "fusion_lat": 0.0}, {"type": "electric_scooter", "rental_uris": {"ios": "https://dc.lft.to/lastmile_qr_scan", "android": "https://dc.lft.to/lastmile_qr_scan"}, "lon": -77.02413483333333, "fusion_lon": 0.0, "is_disabled": 0, "lat": 38.9072925, "bike_id": "3c8fd2f5ef1e23d7668cafeb61b9cb40", "name": "3c8fd2f5ef1e23d7668cafeb61b9cb40", "is_reserved": 0, "fusion_lat": 0.0}, {"type": "electric_bike", "rental_uris": {"ios": "https://dc.lft.to/lastmile_qr_scan", "android": "https://dc.lft.to/lastmile_qr_scan"}, "lon": -76.98055016666666, "fusion_lon": 0.0, "is_disabled": 0, "lat": 38.9574055, "bike_id": "e4a8720f9402fc24169af0fb83a0ffd1", "name": "e4a8720f9402fc24169af0fb83a0ffd1", "is_reserved": 0, "fusion_lat": 0.0}, {"type": "electric_scooter", "rental_uris": {"ios": "https://dc.lft.to/lastmile_qr_scan", "android": "https://dc.lft.to/lastmile_qr_scan"}, "lon": -77.0401125, "fusion_lon": 0.0, "is_disabled": 0, "lat": 38.90998066666667, "bike_id": "f1e13c287705481c3e0f2db0b89b9c15", "name": "f1e13c287705481c3e0f2db0b89b9c15", "is_reserved": 0, "fusion_lat": 0.0}, {"type": "electric_scooter", "rental_uris": {"ios": "https://dc.lft.to/lastmile_qr_scan", "android": "https://dc.lft.to/lastmile_qr_scan"}, "lon": -77.04889333333334, "fusion_lon": 0.0, "is_disabled": 0, "lat": 38.896995833333335, "bike_id": "62e79de3200f5e0084a313b4697ec6b9", "name": "62e79de3200f5e0084a313b4697ec6b9", "is_reserved": 0, "fusion_lat": 0.0}, {"type": "electric_scooter", "rental_uris": {"ios": "https://dc.lft.to/lastmile_qr_scan", "android": "https://dc.lft.to/lastmile_qr_scan"}, "lon": -77.021781, "fusion_lon": 0.0, "is_disabled": 0, "lat": 38.917466833333336, "bike_id": "8f0160ec4dd14a083a318d4d87588066", "name": "8f0160ec4dd14a083a318d4d87588066", "is_reserved": 0, "fusion_lat": 0.0}, {"type": "electric_scooter", "rental_uris": {"ios": "https://dc.lft.to/lastmile_qr_scan", "android": "https://dc.lft.to/lastmile_qr_scan"}, "lon": -77.02412333333334, "fusion_lon": 0.0, "is_disabled": 0, "lat": 38.93106483333333, "bike_id": "a627151be6ae6c6bb28a9e220d05917f", "name": "a627151be6ae6c6bb28a9e220d05917f", "is_reserved": 0, "fusion_lat": 0.0}, {"type": "electric_scooter", "rental_uris": {"ios": "https://dc.lft.to/lastmile_qr_scan", "android": "https://dc.lft.to/lastmile_qr_scan"}, "lon": -77.010787, "fusion_lon": 0.0, "is_disabled": 0, "lat": 38.911924, "bike_id": "6d3990c45432524aec45e8cf7d079f92", "name": "6d3990c45432524aec45e8cf7d079f92", "is_reserved": 0, "fusion_lat": 0.0}, {"type": "electric_bike", "rental_uris": {"ios": "https://dc.lft.to/lastmile_qr_scan", "android": "https://dc.lft.to/lastmile_qr_scan"}, "lon": -76.97014616666667, "fusion_lon": 0.0, "is_disabled": 0, "lat": 38.86368566666667, "bike_id": "56b9725a1c7ab133d04760e5b67dc346", "name": "56b9725a1c7ab133d04760e5b67dc346", "is_reserved": 0, "fusion_lat": 0.0}, {"type": "electric_scooter", "rental_uris": {"ios": "https://dc.lft.to/lastmile_qr_scan", "android": "https://dc.lft.to/lastmile_qr_scan"}, "lon": -76.93356916666667, "fusion_lon": 0.0, "is_disabled": 0, "lat": 38.899009, "bike_id": "4a8c01659cbe5332bdb7ae5a160cd3aa", "name": "4a8c01659cbe5332bdb7ae5a160cd3aa", "is_reserved": 0, "fusion_lat": 0.0}, {"type": "electric_scooter", "rental_uris": {"ios": "https://dc.lft.to/lastmile_qr_scan", "android": "https://dc.lft.to/lastmile_qr_scan"}, "lon": -77.03206616666667, "fusion_lon": 0.0, "is_disabled": 0, "lat": 38.9137325, "bike_id": "9124cc96415d0c202b084eb56247729f", "name": "9124cc96415d0c202b084eb56247729f", "is_reserved": 0, "fusion_lat": 0.0}, {"type": "electric_scooter", "rental_uris": {"ios": "https://dc.lft.to/lastmile_qr_scan", "android": "https://dc.lft.to/lastmile_qr_scan"}, "lon": -77.001976, "fusion_lon": 0.0, "is_disabled": 0, "lat": 38.902389666666664, "bike_id": "ba37cfaa3946ce403539b6b5f21ba4b9", "name": "ba37cfaa3946ce403539b6b5f21ba4b9", "is_reserved": 0, "fusion_lat": 0.0}, {"type": "electric_scooter", "rental_uris": {"ios": "https://dc.lft.to/lastmile_qr_scan", "android": "https://dc.lft.to/lastmile_qr_scan"}, "lon": -77.03158933333333, "fusion_lon": 0.0, "is_disabled": 0, "lat": 38.91404416666666, "bike_id": "53ca7e33e57a7a6d03fdb4cd42584534", "name": "53ca7e33e57a7a6d03fdb4cd42584534", "is_reserved": 0, "fusion_lat": 0.0}, {"type": "electric_scooter", "rental_uris": {"ios": "https://dc.lft.to/lastmile_qr_scan", "android": "https://dc.lft.to/lastmile_qr_scan"}, "lon": -77.04278933333333, "fusion_lon": 0.0, "is_disabled": 0, "lat": 38.91029966666667, "bike_id": "1c6b1d9c624163f6475e1892669cada7", "name": "1c6b1d9c624163f6475e1892669cada7", "is_reserved": 0, "fusion_lat": 0.0}, {"type": "electric_scooter", "rental_uris": {"ios": "https://dc.lft.to/lastmile_qr_scan", "android": "https://dc.lft.to/lastmile_qr_scan"}, "lon": -77.04445516666667, "fusion_lon": 0.0, "is_disabled": 0, "lat": 38.930197, "bike_id": "fb38bea23c2c879cdaef025b572bf4a8", "name": "fb38bea23c2c879cdaef025b572bf4a8", "is_reserved": 0, "fusion_lat": 0.0}, {"type": "electric_scooter", "rental_uris": {"ios": "https://dc.lft.to/lastmile_qr_scan", "android": "https://dc.lft.to/lastmile_qr_scan"}, "lon": -77.03758883333333, "fusion_lon": 0.0, "is_disabled": 0, "lat": 38.9360715, "bike_id": "37a0cb541b3957473e956256b3cf7cc4", "name": "37a0cb541b3957473e956256b3cf7cc4", "is_reserved": 0, "fusion_lat": 0.0}, {"type": "electric_scooter", "rental_uris": {"ios": "https://dc.lft.to/lastmile_qr_scan", "android": "https://dc.lft.to/lastmile_qr_scan"}, "lon": -77.04418733333333, "fusion_lon": 0.0, "is_disabled": 0, "lat": 38.921375833333336, "bike_id": "6e30d6f56c61a4b30c89da07387f5083", "name": "6e30d6f56c61a4b30c89da07387f5083", "is_reserved": 0, "fusion_lat": 0.0}, {"type": "electric_scooter", "rental_uris": {"ios": "https://dc.lft.to/lastmile_qr_scan", "android": "https://dc.lft.to/lastmile_qr_scan"}, "lon": -77.02716866666667, "fusion_lon": 0.0, "is_disabled": 0, "lat": 38.905966166666666, "bike_id": "1d222f678502f7662657f3ecda9e40fd", "name": "1d222f678502f7662657f3ecda9e40fd", "is_reserved": 0, "fusion_lat": 0.0}, {"type": "electric_scooter", "rental_uris": {"ios": "https://dc.lft.to/lastmile_qr_scan", "android": "https://dc.lft.to/lastmile_qr_scan"}, "lon": -77.04620066666666, "fusion_lon": 0.0, "is_disabled": 0, "lat": 38.902766166666666, "bike_id": "67b07ba2974184d20dd2c100dd67162c", "name": "67b07ba2974184d20dd2c100dd67162c", "is_reserved": 0, "fusion_lat": 0.0}, {"type": "electric_bike", "rental_uris": {"ios": "https://dc.lft.to/lastmile_qr_scan", "android": "https://dc.lft.to/lastmile_qr_scan"}, "lon": -77.0492845, "fusion_lon": 0.0, "is_disabled": 0, "lat": 39.029323833333336, "bike_id": "8e07df50d18392b003605403562369d2", "name": "8e07df50d18392b003605403562369d2", "is_reserved": 0, "fusion_lat": 0.0}, {"type": "electric_scooter", "rental_uris": {"ios": "https://dc.lft.to/lastmile_qr_scan", "android": "https://dc.lft.to/lastmile_qr_scan"}, "lon": -77.043507, "fusion_lon": 0.0, "is_disabled": 0, "lat": 38.913484833333335, "bike_id": "1d3886800391d8bc880147c7c0e8e09d", "name": "1d3886800391d8bc880147c7c0e8e09d", "is_reserved": 0, "fusion_lat": 0.0}, {"type": "electric_bike", "rental_uris": {"ios": "https://dc.lft.to/lastmile_qr_scan", "android": "https://dc.lft.to/lastmile_qr_scan"}, "lon": -77.03901033333334, "fusion_lon": 0.0, "is_disabled": 0, "lat": 38.92329216666667, "bike_id": "f0887849548ab25e840a0a4710ffa6f3", "name": "f0887849548ab25e840a0a4710ffa6f3", "is_reserved": 0, "fusion_lat": 0.0}, {"type": "electric_scooter", "rental_uris": {"ios": "https://dc.lft.to/lastmile_qr_scan", "android": "https://dc.lft.to/lastmile_qr_scan"}, "lon": -77.038408, "fusion_lon": 0.0, "is_disabled": 0, "lat": 38.9311205, "bike_id": "f196698d8ac2c7cb85d365eb99794e7a", "name": "f196698d8ac2c7cb85d365eb99794e7a", "is_reserved": 0, "fusion_lat": 0.0}, {"type": "electric_scooter", "rental_uris": {"ios": "https://dc.lft.to/lastmile_qr_scan", "android": "https://dc.lft.to/lastmile_qr_scan"}, "lon": -77.040324, "fusion_lon": 0.0, "is_disabled": 0, "lat": 38.9244455, "bike_id": "8cc0ca801ee1cd69388fff8a74f3a596", "name": "8cc0ca801ee1cd69388fff8a74f3a596", "is_reserved": 0, "fusion_lat": 0.0}, {"type": "electric_scooter", "rental_uris": {"ios": "https://dc.lft.to/lastmile_qr_scan", "android": "https://dc.lft.to/lastmile_qr_scan"}, "lon": -76.95751466666667, "fusion_lon": 0.0, "is_disabled": 0, "lat": 38.8843215, "bike_id": "f7d456e494bbbdf5f9bb198da873668f", "name": "f7d456e494bbbdf5f9bb198da873668f", "is_reserved": 0, "fusion_lat": 0.0}, {"type": "electric_scooter", "rental_uris": {"ios": "https://dc.lft.to/lastmile_qr_scan", "android": "https://dc.lft.to/lastmile_qr_scan"}, "lon": -77.0228885, "fusion_lon": 0.0, "is_disabled": 0, "lat": 38.91670033333333, "bike_id": "a4e234090a31b7ee68fc0310e30e08c8", "name": "a4e234090a31b7ee68fc0310e30e08c8", "is_reserved": 0, "fusion_lat": 0.0}, {"type": "electric_scooter", "rental_uris": {"ios": "https://dc.lft.to/lastmile_qr_scan", "android": "https://dc.lft.to/lastmile_qr_scan"}, "lon": -77.02713466666667, "fusion_lon": 0.0, "is_disabled": 0, "lat": 38.90736866666667, "bike_id": "93bf537b0cdc32cc7282f9cea84a0864", "name": "93bf537b0cdc32cc7282f9cea84a0864", "is_reserved": 0, "fusion_lat": 0.0}, {"type": "electric_scooter", "rental_uris": {"ios": "https://dc.lft.to/lastmile_qr_scan", "android": "https://dc.lft.to/lastmile_qr_scan"}, "lon": -76.9883735, "fusion_lon": 0.0, "is_disabled": 0, "lat": 38.892522166666666, "bike_id": "4b72949363f212ba42fc1d7f6824b026", "name": "4b72949363f212ba42fc1d7f6824b026", "is_reserved": 0, "fusion_lat": 0.0}, {"type": "electric_scooter", "rental_uris": {"ios": "https://dc.lft.to/lastmile_qr_scan", "android": "https://dc.lft.to/lastmile_qr_scan"}, "lon": -77.0319915, "fusion_lon": 0.0, "is_disabled": 0, "lat": 38.8998815, "bike_id": "142a62c8f07b2a5cad4d5eb0a1479427", "name": "142a62c8f07b2a5cad4d5eb0a1479427", "is_reserved": 0, "fusion_lat": 0.0}, {"type": "electric_scooter", "rental_uris": {"ios": "https://dc.lft.to/lastmile_qr_scan", "android": "https://dc.lft.to/lastmile_qr_scan"}, "lon": -76.99776, "fusion_lon": 0.0, "is_disabled": 0, "lat": 38.844261, "bike_id": "ec54fb2a208a6770891811e04b31e2d9", "name": "ec54fb2a208a6770891811e04b31e2d9", "is_reserved": 0, "fusion_lat": 0.0}, {"type": "electric_scooter", "rental_uris": {"ios": "https://dc.lft.to/lastmile_qr_scan", "android": "https://dc.lft.to/lastmile_qr_scan"}, "lon": -77.01322183333333, "fusion_lon": 0.0, "is_disabled": 0, "lat": 38.906052833333334, "bike_id": "8f587c9afb23ee649b2fba73c074eb21", "name": "8f587c9afb23ee649b2fba73c074eb21", "is_reserved": 0, "fusion_lat": 0.0}, {"type": "electric_scooter", "rental_uris": {"ios": "https://dc.lft.to/lastmile_qr_scan", "android": "https://dc.lft.to/lastmile_qr_scan"}, "lon": -77.01915033333333, "fusion_lon": 0.0, "is_disabled": 0, "lat": 38.9236555, "bike_id": "c94574dc518c138d072bd3be8b89023b", "name": "c94574dc518c138d072bd3be8b89023b", "is_reserved": 0, "fusion_lat": 0.0}, {"type": "electric_scooter", "rental_uris": {"ios": "https://dc.lft.to/lastmile_qr_scan", "android": "https://dc.lft.to/lastmile_qr_scan"}, "lon": -77.04047516666667, "fusion_lon": 0.0, "is_disabled": 0, "lat": 38.9141405, "bike_id": "d70dd570368a7c1c18a3b620412eb315", "name": "d70dd570368a7c1c18a3b620412eb315", "is_reserved": 0, "fusion_lat": 0.0}, {"type": "electric_scooter", "rental_uris": {"ios": "https://dc.lft.to/lastmile_qr_scan", "android": "https://dc.lft.to/lastmile_qr_scan"}, "lon": -77.04041233333334, "fusion_lon": 0.0, "is_disabled": 0, "lat": 38.92357833333333, "bike_id": "ee1bd5f7756fa7c8631fe3da33ef72a2", "name": "ee1bd5f7756fa7c8631fe3da33ef72a2", "is_reserved": 0, "fusion_lat": 0.0}, {"type": "electric_scooter", "rental_uris": {"ios": "https://dc.lft.to/lastmile_qr_scan", "android": "https://dc.lft.to/lastmile_qr_scan"}, "lon": -77.04139916666666, "fusion_lon": 0.0, "is_disabled": 0, "lat": 38.93421266666667, "bike_id": "733dd78cf20ecb89438a763339f31e80", "name": "733dd78cf20ecb89438a763339f31e80", "is_reserved": 0, "fusion_lat": 0.0}, {"type": "electric_scooter", "rental_uris": {"ios": "https://dc.lft.to/lastmile_qr_scan", "android": "https://dc.lft.to/lastmile_qr_scan"}, "lon": -77.03232416666667, "fusion_lon": 0.0, "is_disabled": 0, "lat": 38.90967216666667, "bike_id": "aa7977c50a58d74c8d5dabff02138af8", "name": "aa7977c50a58d74c8d5dabff02138af8", "is_reserved": 0, "fusion_lat": 0.0}, {"type": "electric_scooter", "rental_uris": {"ios": "https://dc.lft.to/lastmile_qr_scan", "android": "https://dc.lft.to/lastmile_qr_scan"}, "lon": -77.02128383333333, "fusion_lon": 0.0, "is_disabled": 0, "lat": 38.88739266666666, "bike_id": "6bf7c0870b8419730ec7cd5a2836c53a", "name": "6bf7c0870b8419730ec7cd5a2836c53a", "is_reserved": 0, "fusion_lat": 0.0}, {"type": "electric_scooter", "rental_uris": {"ios": "https://dc.lft.to/lastmile_qr_scan", "android": "https://dc.lft.to/lastmile_qr_scan"}, "lon": -77.03206433333334, "fusion_lon": 0.0, "is_disabled": 0, "lat": 38.9028415, "bike_id": "c08ab5aa300cbbfa0bd302ca70f1caf9", "name": "c08ab5aa300cbbfa0bd302ca70f1caf9", "is_reserved": 0, "fusion_lat": 0.0}, {"type": "electric_scooter", "rental_uris": {"ios": "https://dc.lft.to/lastmile_qr_scan", "android": "https://dc.lft.to/lastmile_qr_scan"}, "lon": -76.9273385, "fusion_lon": 0.0, "is_disabled": 0, "lat": 38.899740333333334, "bike_id": "cad337b2c888073a857a03b3067f2749", "name": "cad337b2c888073a857a03b3067f2749", "is_reserved": 0, "fusion_lat": 0.0}, {"type": "electric_scooter", "rental_uris": {"ios": "https://dc.lft.to/lastmile_qr_scan", "android": "https://dc.lft.to/lastmile_qr_scan"}, "lon": -77.03292666666667, "fusion_lon": 0.0, "is_disabled": 0, "lat": 38.95642566666667, "bike_id": "b7ab0c2aaac4925eb8f41e76eacd4b93", "name": "b7ab0c2aaac4925eb8f41e76eacd4b93", "is_reserved": 0, "fusion_lat": 0.0}, {"type": "electric_scooter", "rental_uris": {"ios": "https://dc.lft.to/lastmile_qr_scan", "android": "https://dc.lft.to/lastmile_qr_scan"}, "lon": -76.9847885, "fusion_lon": 0.0, "is_disabled": 0, "lat": 38.9131485, "bike_id": "91e1af8b8d6731dca24b93c80e615652", "name": "91e1af8b8d6731dca24b93c80e615652", "is_reserved": 0, "fusion_lat": 0.0}, {"type": "electric_scooter", "rental_uris": {"ios": "https://dc.lft.to/lastmile_qr_scan", "android": "https://dc.lft.to/lastmile_qr_scan"}, "lon": -77.03095616666667, "fusion_lon": 0.0, "is_disabled": 0, "lat": 38.938597, "bike_id": "db6cd3cea47525a3274e5bcef0905fe8", "name": "db6cd3cea47525a3274e5bcef0905fe8", "is_reserved": 0, "fusion_lat": 0.0}, {"type": "electric_scooter", "rental_uris": {"ios": "https://dc.lft.to/lastmile_qr_scan", "android": "https://dc.lft.to/lastmile_qr_scan"}, "lon": -77.01164366666667, "fusion_lon": 0.0, "is_disabled": 0, "lat": 38.90031333333334, "bike_id": "57f22ea098f44c8b0985a308dccf38e2", "name": "57f22ea098f44c8b0985a308dccf38e2", "is_reserved": 0, "fusion_lat": 0.0}, {"type": "electric_scooter", "rental_uris": {"ios": "https://dc.lft.to/lastmile_qr_scan", "android": "https://dc.lft.to/lastmile_qr_scan"}, "lon": -77.00413, "fusion_lon": 0.0, "is_disabled": 0, "lat": 38.876643666666666, "bike_id": "9370339cc46f349e7db0ca2cfd2da028", "name": "9370339cc46f349e7db0ca2cfd2da028", "is_reserved": 0, "fusion_lat": 0.0}, {"type": "electric_scooter", "rental_uris": {"ios": "https://dc.lft.to/lastmile_qr_scan", "android": "https://dc.lft.to/lastmile_qr_scan"}, "lon": -77.0346145, "fusion_lon": 0.0, "is_disabled": 0, "lat": 38.908564166666665, "bike_id": "be91fb5c8279b3f337515ef1e437bf59", "name": "be91fb5c8279b3f337515ef1e437bf59", "is_reserved": 0, "fusion_lat": 0.0}, {"type": "electric_bike", "rental_uris": {"ios": "https://dc.lft.to/lastmile_qr_scan", "android": "https://dc.lft.to/lastmile_qr_scan"}, "lon": -77.0948605, "fusion_lon": 0.0, "is_disabled": 0, "lat": 39.03046766666667, "bike_id": "0f9102f80dcb12649ec220ef2e06cc4c", "name": "0f9102f80dcb12649ec220ef2e06cc4c", "is_reserved": 0, "fusion_lat": 0.0}, {"type": "electric_scooter", "rental_uris": {"ios": "https://dc.lft.to/lastmile_qr_scan", "android": "https://dc.lft.to/lastmile_qr_scan"}, "lon": -77.02201133333334, "fusion_lon": 0.0, "is_disabled": 0, "lat": 38.9112975, "bike_id": "b62f65e2c456bb03692255ba4b5b5cb2", "name": "b62f65e2c456bb03692255ba4b5b5cb2", "is_reserved": 0, "fusion_lat": 0.0}, {"type": "electric_scooter", "rental_uris": {"ios": "https://dc.lft.to/lastmile_qr_scan", "android": "https://dc.lft.to/lastmile_qr_scan"}, "lon": -76.948919, "fusion_lon": 0.0, "is_disabled": 0, "lat": 38.8952755, "bike_id": "8d29e1e4034136207df720c86cd16726", "name": "8d29e1e4034136207df720c86cd16726", "is_reserved": 0, "fusion_lat": 0.0}, {"type": "electric_bike", "rental_uris": {"ios": "https://dc.lft.to/lastmile_qr_scan", "android": "https://dc.lft.to/lastmile_qr_scan"}, "lon": -77.13101916666666, "fusion_lon": 0.0, "is_disabled": 0, "lat": 39.02429383333333, "bike_id": "e80762d4f23aeee3328a384b47526eac", "name": "e80762d4f23aeee3328a384b47526eac", "is_reserved": 0, "fusion_lat": 0.0}, {"type": "electric_scooter", "rental_uris": {"ios": "https://dc.lft.to/lastmile_qr_scan", "android": "https://dc.lft.to/lastmile_qr_scan"}, "lon": -77.01436283333334, "fusion_lon": 0.0, "is_disabled": 0, "lat": 38.9091175, "bike_id": "d509f6168a585ae562c6a65b00186db0", "name": "d509f6168a585ae562c6a65b00186db0", "is_reserved": 0, "fusion_lat": 0.0}, {"type": "electric_bike", "rental_uris": {"ios": "https://dc.lft.to/lastmile_qr_scan", "android": "https://dc.lft.to/lastmile_qr_scan"}, "lon": -76.904371, "fusion_lon": 0.0, "is_disabled": 0, "lat": 38.897669666666665, "bike_id": "de7251b5544eee3e2242ee67b6633399", "name": "de7251b5544eee3e2242ee67b6633399", "is_reserved": 0, "fusion_lat": 0.0}, {"type": "electric_scooter", "rental_uris": {"ios": "https://dc.lft.to/lastmile_qr_scan", "android": "https://dc.lft.to/lastmile_qr_scan"}, "lon": -77.02568883333333, "fusion_lon": 0.0, "is_disabled": 0, "lat": 38.91710783333333, "bike_id": "8a0efaa35d372033983389940ecdc321", "name": "8a0efaa35d372033983389940ecdc321", "is_reserved": 0, "fusion_lat": 0.0}, {"type": "electric_scooter", "rental_uris": {"ios": "https://dc.lft.to/lastmile_qr_scan", "android": "https://dc.lft.to/lastmile_qr_scan"}, "lon": -76.99844966666667, "fusion_lon": 0.0, "is_disabled": 0, "lat": 38.900036666666665, "bike_id": "1478a9492f0b3d661c153653148f90c2", "name": "1478a9492f0b3d661c153653148f90c2", "is_reserved": 0, "fusion_lat": 0.0}, {"type": "electric_scooter", "rental_uris": {"ios": "https://dc.lft.to/lastmile_qr_scan", "android": "https://dc.lft.to/lastmile_qr_scan"}, "lon": -77.04310966666667, "fusion_lon": 0.0, "is_disabled": 0, "lat": 38.911168, "bike_id": "40a2e0c34f96d4cc1f1e5ae41c329c94", "name": "40a2e0c34f96d4cc1f1e5ae41c329c94", "is_reserved": 0, "fusion_lat": 0.0}, {"type": "electric_scooter", "rental_uris": {"ios": "https://dc.lft.to/lastmile_qr_scan", "android": "https://dc.lft.to/lastmile_qr_scan"}, "lon": -76.9855905, "fusion_lon": 0.0, "is_disabled": 0, "lat": 38.88671933333333, "bike_id": "c72fc9118c17e04cde0b87285aea88e8", "name": "c72fc9118c17e04cde0b87285aea88e8", "is_reserved": 0, "fusion_lat": 0.0}, {"type": "electric_scooter", "rental_uris": {"ios": "https://dc.lft.to/lastmile_qr_scan", "android": "https://dc.lft.to/lastmile_qr_scan"}, "lon": -77.0249875, "fusion_lon": 0.0, "is_disabled": 0, "lat": 38.91941583333333, "bike_id": "46bcdeabcc8c684f26f4cf43b10e6692", "name": "46bcdeabcc8c684f26f4cf43b10e6692", "is_reserved": 0, "fusion_lat": 0.0}, {"type": "electric_scooter", "rental_uris": {"ios": "https://dc.lft.to/lastmile_qr_scan", "android": "https://dc.lft.to/lastmile_qr_scan"}, "lon": -77.032645, "fusion_lon": 0.0, "is_disabled": 0, "lat": 38.937927, "bike_id": "9f225b7eac2aac0c90978fd74ecee80c", "name": "9f225b7eac2aac0c90978fd74ecee80c", "is_reserved": 0, "fusion_lat": 0.0}, {"type": "electric_scooter", "rental_uris": {"ios": "https://dc.lft.to/lastmile_qr_scan", "android": "https://dc.lft.to/lastmile_qr_scan"}, "lon": -77.03349066666667, "fusion_lon": 0.0, "is_disabled": 0, "lat": 38.917065, "bike_id": "f3a15edd231ed066842dd7b4aa919678", "name": "f3a15edd231ed066842dd7b4aa919678", "is_reserved": 0, "fusion_lat": 0.0}, {"type": "electric_scooter", "rental_uris": {"ios": "https://dc.lft.to/lastmile_qr_scan", "android": "https://dc.lft.to/lastmile_qr_scan"}, "lon": -76.99531133333333, "fusion_lon": 0.0, "is_disabled": 0, "lat": 38.92660866666667, "bike_id": "d484088f13a2e6decd3c3e73ddaf6f04", "name": "d484088f13a2e6decd3c3e73ddaf6f04", "is_reserved": 0, "fusion_lat": 0.0}, {"type": "electric_scooter", "rental_uris": {"ios": "https://dc.lft.to/lastmile_qr_scan", "android": "https://dc.lft.to/lastmile_qr_scan"}, "lon": -77.0158935, "fusion_lon": 0.0, "is_disabled": 0, "lat": 38.92844016666667, "bike_id": "311ca382d8ebbbb723aa99f2561c7f44", "name": "311ca382d8ebbbb723aa99f2561c7f44", "is_reserved": 0, "fusion_lat": 0.0}, {"type": "electric_scooter", "rental_uris": {"ios": "https://dc.lft.to/lastmile_qr_scan", "android": "https://dc.lft.to/lastmile_qr_scan"}, "lon": -77.032637, "fusion_lon": 0.0, "is_disabled": 0, "lat": 38.93522683333333, "bike_id": "da8d6325d602cccf262c48b763643bb4", "name": "da8d6325d602cccf262c48b763643bb4", "is_reserved": 0, "fusion_lat": 0.0}, {"type": "electric_scooter", "rental_uris": {"ios": "https://dc.lft.to/lastmile_qr_scan", "android": "https://dc.lft.to/lastmile_qr_scan"}, "lon": -77.007361, "fusion_lon": 0.0, "is_disabled": 0, "lat": 38.87646083333333, "bike_id": "80cc62920783ea76549b107da55e65dc", "name": "80cc62920783ea76549b107da55e65dc", "is_reserved": 0, "fusion_lat": 0.0}, {"type": "electric_scooter", "rental_uris": {"ios": "https://dc.lft.to/lastmile_qr_scan", "android": "https://dc.lft.to/lastmile_qr_scan"}, "lon": -77.04356716666666, "fusion_lon": 0.0, "is_disabled": 0, "lat": 38.90834866666667, "bike_id": "166273410d30e774f540c32f934501c0", "name": "166273410d30e774f540c32f934501c0", "is_reserved": 0, "fusion_lat": 0.0}, {"type": "electric_scooter", "rental_uris": {"ios": "https://dc.lft.to/lastmile_qr_scan", "android": "https://dc.lft.to/lastmile_qr_scan"}, "lon": -77.04174233333333, "fusion_lon": 0.0, "is_disabled": 0, "lat": 38.91838966666667, "bike_id": "87f1ecba5b0f8256b775da6fff98fab2", "name": "87f1ecba5b0f8256b775da6fff98fab2", "is_reserved": 0, "fusion_lat": 0.0}, {"type": "electric_scooter", "rental_uris": {"ios": "https://dc.lft.to/lastmile_qr_scan", "android": "https://dc.lft.to/lastmile_qr_scan"}, "lon": -77.0575515, "fusion_lon": 0.0, "is_disabled": 0, "lat": 38.92572166666667, "bike_id": "12a7919969a8c57a18ede4ecc6c83667", "name": "12a7919969a8c57a18ede4ecc6c83667", "is_reserved": 0, "fusion_lat": 0.0}, {"type": "electric_scooter", "rental_uris": {"ios": "https://dc.lft.to/lastmile_qr_scan", "android": "https://dc.lft.to/lastmile_qr_scan"}, "lon": -77.00410116666667, "fusion_lon": 0.0, "is_disabled": 0, "lat": 38.87670333333333, "bike_id": "48725a238c771850a85e022bf3167510", "name": "48725a238c771850a85e022bf3167510", "is_reserved": 0, "fusion_lat": 0.0}, {"type": "electric_scooter", "rental_uris": {"ios": "https://dc.lft.to/lastmile_qr_scan", "android": "https://dc.lft.to/lastmile_qr_scan"}, "lon": -77.02587733333333, "fusion_lon": 0.0, "is_disabled": 0, "lat": 38.904114666666665, "bike_id": "a56b8f9be4c1f59f64fafd23615b2208", "name": "a56b8f9be4c1f59f64fafd23615b2208", "is_reserved": 0, "fusion_lat": 0.0}, {"type": "electric_bike", "rental_uris": {"ios": "https://dc.lft.to/lastmile_qr_scan", "android": "https://dc.lft.to/lastmile_qr_scan"}, "lon": -76.9388455, "fusion_lon": 0.0, "is_disabled": 0, "lat": 38.95639283333333, "bike_id": "f367aa93408f1db880dc86415a52e449", "name": "f367aa93408f1db880dc86415a52e449", "is_reserved": 0, "fusion_lat": 0.0}, {"type": "electric_bike", "rental_uris": {"ios": "https://dc.lft.to/lastmile_qr_scan", "android": "https://dc.lft.to/lastmile_qr_scan"}, "lon": -76.985553, "fusion_lon": 0.0, "is_disabled": 0, "lat": 38.852058166666666, "bike_id": "72561e0013924c592aabf984bb58544f", "name": "72561e0013924c592aabf984bb58544f", "is_reserved": 0, "fusion_lat": 0.0}, {"type": "electric_scooter", "rental_uris": {"ios": "https://dc.lft.to/lastmile_qr_scan", "android": "https://dc.lft.to/lastmile_qr_scan"}, "lon": -77.03161083333333, "fusion_lon": 0.0, "is_disabled": 0, "lat": 38.892199, "bike_id": "bc835358194e908274f4c87f3d8fb965", "name": "bc835358194e908274f4c87f3d8fb965", "is_reserved": 0, "fusion_lat": 0.0}, {"type": "electric_scooter", "rental_uris": {"ios": "https://dc.lft.to/lastmile_qr_scan", "android": "https://dc.lft.to/lastmile_qr_scan"}, "lon": -77.02162283333334, "fusion_lon": 0.0, "is_disabled": 0, "lat": 38.92615166666667, "bike_id": "9f4629c2fc44b9e323e863b4b4521cdf", "name": "9f4629c2fc44b9e323e863b4b4521cdf", "is_reserved": 0, "fusion_lat": 0.0}, {"type": "electric_scooter", "rental_uris": {"ios": "https://dc.lft.to/lastmile_qr_scan", "android": "https://dc.lft.to/lastmile_qr_scan"}, "lon": -77.073311, "fusion_lon": 0.0, "is_disabled": 0, "lat": 38.9249155, "bike_id": "fe11110e3f373df51bbf243ec43bfe5f", "name": "fe11110e3f373df51bbf243ec43bfe5f", "is_reserved": 0, "fusion_lat": 0.0}, {"type": "electric_scooter", "rental_uris": {"ios": "https://dc.lft.to/lastmile_qr_scan", "android": "https://dc.lft.to/lastmile_qr_scan"}, "lon": -77.02720083333334, "fusion_lon": 0.0, "is_disabled": 0, "lat": 38.95182466666667, "bike_id": "f9da0b96935a439cd222c28e8022b4d4", "name": "f9da0b96935a439cd222c28e8022b4d4", "is_reserved": 0, "fusion_lat": 0.0}, {"type": "electric_scooter", "rental_uris": {"ios": "https://dc.lft.to/lastmile_qr_scan", "android": "https://dc.lft.to/lastmile_qr_scan"}, "lon": -77.02205466666666, "fusion_lon": 0.0, "is_disabled": 0, "lat": 38.905234, "bike_id": "6802d9231d892e0c26aa5d67e24216dd", "name": "6802d9231d892e0c26aa5d67e24216dd", "is_reserved": 0, "fusion_lat": 0.0}, {"type": "electric_scooter", "rental_uris": {"ios": "https://dc.lft.to/lastmile_qr_scan", "android": "https://dc.lft.to/lastmile_qr_scan"}, "lon": -77.04045833333333, "fusion_lon": 0.0, "is_disabled": 0, "lat": 38.8989975, "bike_id": "c1af29078040a39ed04bd1a566972bfb", "name": "c1af29078040a39ed04bd1a566972bfb", "is_reserved": 0, "fusion_lat": 0.0}, {"type": "electric_scooter", "rental_uris": {"ios": "https://dc.lft.to/lastmile_qr_scan", "android": "https://dc.lft.to/lastmile_qr_scan"}, "lon": -77.03663866666666, "fusion_lon": 0.0, "is_disabled": 0, "lat": 38.917236833333334, "bike_id": "4751b0317d80c6a51098327289d15f13", "name": "4751b0317d80c6a51098327289d15f13", "is_reserved": 0, "fusion_lat": 0.0}, {"type": "electric_scooter", "rental_uris": {"ios": "https://dc.lft.to/lastmile_qr_scan", "android": "https://dc.lft.to/lastmile_qr_scan"}, "lon": -77.04196966666666, "fusion_lon": 0.0, "is_disabled": 0, "lat": 38.9205415, "bike_id": "5a0b89d9d05dcfb493739f9043e8d7e2", "name": "5a0b89d9d05dcfb493739f9043e8d7e2", "is_reserved": 0, "fusion_lat": 0.0}, {"type": "electric_scooter", "rental_uris": {"ios": "https://dc.lft.to/lastmile_qr_scan", "android": "https://dc.lft.to/lastmile_qr_scan"}, "lon": -77.003373, "fusion_lon": 0.0, "is_disabled": 0, "lat": 38.887421333333336, "bike_id": "8dea04a1d1b7d424d06408b2aab8fb29", "name": "8dea04a1d1b7d424d06408b2aab8fb29", "is_reserved": 0, "fusion_lat": 0.0}, {"type": "electric_scooter", "rental_uris": {"ios": "https://dc.lft.to/lastmile_qr_scan", "android": "https://dc.lft.to/lastmile_qr_scan"}, "lon": -77.039341, "fusion_lon": 0.0, "is_disabled": 0, "lat": 38.91558416666667, "bike_id": "422007bc306fa89c818eb48827811afb", "name": "422007bc306fa89c818eb48827811afb", "is_reserved": 0, "fusion_lat": 0.0}, {"type": "electric_scooter", "rental_uris": {"ios": "https://dc.lft.to/lastmile_qr_scan", "android": "https://dc.lft.to/lastmile_qr_scan"}, "lon": -77.04008983333334, "fusion_lon": 0.0, "is_disabled": 0, "lat": 38.924261333333334, "bike_id": "54b1e2947c7f60736719556071f5b92c", "name": "54b1e2947c7f60736719556071f5b92c", "is_reserved": 0, "fusion_lat": 0.0}, {"type": "electric_scooter", "rental_uris": {"ios": "https://dc.lft.to/lastmile_qr_scan", "android": "https://dc.lft.to/lastmile_qr_scan"}, "lon": -77.03198733333333, "fusion_lon": 0.0, "is_disabled": 0, "lat": 38.91762133333334, "bike_id": "7470d6ddbe57da8f877435548e738066", "name": "7470d6ddbe57da8f877435548e738066", "is_reserved": 0, "fusion_lat": 0.0}, {"type": "electric_scooter", "rental_uris": {"ios": "https://dc.lft.to/lastmile_qr_scan", "android": "https://dc.lft.to/lastmile_qr_scan"}, "lon": -76.999587, "fusion_lon": 0.0, "is_disabled": 0, "lat": 38.90867383333333, "bike_id": "d7fa070ab85404738812b1a1a22c2b9b", "name": "d7fa070ab85404738812b1a1a22c2b9b", "is_reserved": 0, "fusion_lat": 0.0}, {"type": "electric_scooter", "rental_uris": {"ios": "https://dc.lft.to/lastmile_qr_scan", "android": "https://dc.lft.to/lastmile_qr_scan"}, "lon": -77.04240766666666, "fusion_lon": 0.0, "is_disabled": 0, "lat": 38.92214583333333, "bike_id": "635cfbd020a1b7e2c8a4ac46506ce2d7", "name": "635cfbd020a1b7e2c8a4ac46506ce2d7", "is_reserved": 0, "fusion_lat": 0.0}, {"type": "electric_scooter", "rental_uris": {"ios": "https://dc.lft.to/lastmile_qr_scan", "android": "https://dc.lft.to/lastmile_qr_scan"}, "lon": -77.02403916666667, "fusion_lon": 0.0, "is_disabled": 0, "lat": 38.9175135, "bike_id": "e7feaa5363ed3994622cd9ebf47f8f8b", "name": "e7feaa5363ed3994622cd9ebf47f8f8b", "is_reserved": 0, "fusion_lat": 0.0}, {"type": "electric_scooter", "rental_uris": {"ios": "https://dc.lft.to/lastmile_qr_scan", "android": "https://dc.lft.to/lastmile_qr_scan"}, "lon": -77.04155416666667, "fusion_lon": 0.0, "is_disabled": 0, "lat": 38.918562333333334, "bike_id": "0897e2ab0fd273c7cd6539ea4500203d", "name": "0897e2ab0fd273c7cd6539ea4500203d", "is_reserved": 0, "fusion_lat": 0.0}, {"type": "electric_scooter", "rental_uris": {"ios": "https://dc.lft.to/lastmile_qr_scan", "android": "https://dc.lft.to/lastmile_qr_scan"}, "lon": -76.9850445, "fusion_lon": 0.0, "is_disabled": 0, "lat": 38.894741333333336, "bike_id": "19b66cfc0459a7e260e00cd56f879a77", "name": "19b66cfc0459a7e260e00cd56f879a77", "is_reserved": 0, "fusion_lat": 0.0}, {"type": "electric_scooter", "rental_uris": {"ios": "https://dc.lft.to/lastmile_qr_scan", "android": "https://dc.lft.to/lastmile_qr_scan"}, "lon": -77.04357016666667, "fusion_lon": 0.0, "is_disabled": 0, "lat": 38.90526766666667, "bike_id": "1c308995318b563a19a8f094b3173ba3", "name": "1c308995318b563a19a8f094b3173ba3", "is_reserved": 0, "fusion_lat": 0.0}, {"type": "electric_bike", "rental_uris": {"ios": "https://dc.lft.to/lastmile_qr_scan", "android": "https://dc.lft.to/lastmile_qr_scan"}, "lon": -77.041405, "fusion_lon": 0.0, "is_disabled": 0, "lat": 38.80501133333333, "bike_id": "2e7e89e2b52f65c48f61df7de77e63c9", "name": "2e7e89e2b52f65c48f61df7de77e63c9", "is_reserved": 0, "fusion_lat": 0.0}, {"type": "electric_bike", "rental_uris": {"ios": "https://dc.lft.to/lastmile_qr_scan", "android": "https://dc.lft.to/lastmile_qr_scan"}, "lon": -77.00205166666667, "fusion_lon": 0.0, "is_disabled": 0, "lat": 38.81936733333333, "bike_id": "f4d7e6cdcaaf4c74f249c1533e7435a3", "name": "f4d7e6cdcaaf4c74f249c1533e7435a3", "is_reserved": 0, "fusion_lat": 0.0}, {"type": "electric_scooter", "rental_uris": {"ios": "https://dc.lft.to/lastmile_qr_scan", "android": "https://dc.lft.to/lastmile_qr_scan"}, "lon": -77.0429385, "fusion_lon": 0.0, "is_disabled": 0, "lat": 38.922635166666666, "bike_id": "7288dc193343f07df1164b26ba9535e2", "name": "7288dc193343f07df1164b26ba9535e2", "is_reserved": 0, "fusion_lat": 0.0}, {"type": "electric_scooter", "rental_uris": {"ios": "https://dc.lft.to/lastmile_qr_scan", "android": "https://dc.lft.to/lastmile_qr_scan"}, "lon": -77.02611666666667, "fusion_lon": 0.0, "is_disabled": 0, "lat": 38.90613, "bike_id": "771727222c74eaceaaf77327356f1f57", "name": "771727222c74eaceaaf77327356f1f57", "is_reserved": 0, "fusion_lat": 0.0}, {"type": "electric_scooter", "rental_uris": {"ios": "https://dc.lft.to/lastmile_qr_scan", "android": "https://dc.lft.to/lastmile_qr_scan"}, "lon": -77.04842066666667, "fusion_lon": 0.0, "is_disabled": 0, "lat": 38.911825666666665, "bike_id": "f6e151e72677bbf4cc8e83115656ca0d", "name": "f6e151e72677bbf4cc8e83115656ca0d", "is_reserved": 0, "fusion_lat": 0.0}, {"type": "electric_scooter", "rental_uris": {"ios": "https://dc.lft.to/lastmile_qr_scan", "android": "https://dc.lft.to/lastmile_qr_scan"}, "lon": -77.03450616666667, "fusion_lon": 0.0, "is_disabled": 0, "lat": 38.9253805, "bike_id": "47ade20206628d0daf5c880bd966d479", "name": "47ade20206628d0daf5c880bd966d479", "is_reserved": 0, "fusion_lat": 0.0}, {"type": "electric_scooter", "rental_uris": {"ios": "https://dc.lft.to/lastmile_qr_scan", "android": "https://dc.lft.to/lastmile_qr_scan"}, "lon": -77.04419133333333, "fusion_lon": 0.0, "is_disabled": 0, "lat": 38.91356066666667, "bike_id": "64012a0e51f465b4bc68d33c5ff2702c", "name": "64012a0e51f465b4bc68d33c5ff2702c", "is_reserved": 0, "fusion_lat": 0.0}, {"type": "electric_bike", "rental_uris": {"ios": "https://dc.lft.to/lastmile_qr_scan", "android": "https://dc.lft.to/lastmile_qr_scan"}, "lon": -76.947197, "fusion_lon": 0.0, "is_disabled": 0, "lat": 38.861525666666665, "bike_id": "fa6b59d8846f78e48f2ab33dba7c6eff", "name": "fa6b59d8846f78e48f2ab33dba7c6eff", "is_reserved": 0, "fusion_lat": 0.0}, {"type": "electric_scooter", "rental_uris": {"ios": "https://dc.lft.to/lastmile_qr_scan", "android": "https://dc.lft.to/lastmile_qr_scan"}, "lon": -77.0219935, "fusion_lon": 0.0, "is_disabled": 0, "lat": 38.895012666666666, "bike_id": "8abc3d55b72e8befbf82bf3e13629161", "name": "8abc3d55b72e8befbf82bf3e13629161", "is_reserved": 0, "fusion_lat": 0.0}, {"type": "electric_bike", "rental_uris": {"ios": "https://dc.lft.to/lastmile_qr_scan", "android": "https://dc.lft.to/lastmile_qr_scan"}, "lon": -76.96061616666667, "fusion_lon": 0.0, "is_disabled": 0, "lat": 38.884010333333336, "bike_id": "e4c9753b989c383ea1950417e3e04699", "name": "e4c9753b989c383ea1950417e3e04699", "is_reserved": 0, "fusion_lat": 0.0}, {"type": "electric_scooter", "rental_uris": {"ios": "https://dc.lft.to/lastmile_qr_scan", "android": "https://dc.lft.to/lastmile_qr_scan"}, "lon": -77.04120083333333, "fusion_lon": 0.0, "is_disabled": 0, "lat": 38.899237, "bike_id": "0d00b7511f7ba18f69b13c3f6b1db80d", "name": "0d00b7511f7ba18f69b13c3f6b1db80d", "is_reserved": 0, "fusion_lat": 0.0}, {"type": "electric_scooter", "rental_uris": {"ios": "https://dc.lft.to/lastmile_qr_scan", "android": "https://dc.lft.to/lastmile_qr_scan"}, "lon": -77.0364185, "fusion_lon": 0.0, "is_disabled": 0, "lat": 38.90326566666667, "bike_id": "6c1fb0079037b407e87bc31069f4c021", "name": "6c1fb0079037b407e87bc31069f4c021", "is_reserved": 0, "fusion_lat": 0.0}, {"type": "electric_bike", "rental_uris": {"ios": "https://dc.lft.to/lastmile_qr_scan", "android": "https://dc.lft.to/lastmile_qr_scan"}, "lon": -77.03146566666666, "fusion_lon": 0.0, "is_disabled": 0, "lat": 38.994309333333334, "bike_id": "1d7cbeadc010c5bcdd29361baf9de92b", "name": "1d7cbeadc010c5bcdd29361baf9de92b", "is_reserved": 0, "fusion_lat": 0.0}, {"type": "electric_scooter", "rental_uris": {"ios": "https://dc.lft.to/lastmile_qr_scan", "android": "https://dc.lft.to/lastmile_qr_scan"}, "lon": -77.02181416666667, "fusion_lon": 0.0, "is_disabled": 0, "lat": 38.915668, "bike_id": "fa4c52d2e0837207093dae6aebe1ec81", "name": "fa4c52d2e0837207093dae6aebe1ec81", "is_reserved": 0, "fusion_lat": 0.0}, {"type": "electric_bike", "rental_uris": {"ios": "https://dc.lft.to/lastmile_qr_scan", "android": "https://dc.lft.to/lastmile_qr_scan"}, "lon": -76.95197766666666, "fusion_lon": 0.0, "is_disabled": 0, "lat": 38.93677, "bike_id": "1e78059ab0a46fd7714cbe7c8e81ea20", "name": "1e78059ab0a46fd7714cbe7c8e81ea20", "is_reserved": 0, "fusion_lat": 0.0}, {"type": "electric_bike", "rental_uris": {"ios": "https://dc.lft.to/lastmile_qr_scan", "android": "https://dc.lft.to/lastmile_qr_scan"}, "lon": -77.21650583333333, "fusion_lon": 0.0, "is_disabled": 0, "lat": 38.930111833333335, "bike_id": "358146b814aca04ec67c99f975c476f7", "name": "358146b814aca04ec67c99f975c476f7", "is_reserved": 0, "fusion_lat": 0.0}, {"type": "electric_scooter", "rental_uris": {"ios": "https://dc.lft.to/lastmile_qr_scan", "android": "https://dc.lft.to/lastmile_qr_scan"}, "lon": -77.00706883333334, "fusion_lon": 0.0, "is_disabled": 0, "lat": 38.90555633333334, "bike_id": "e009ba23bb155177a1ebffd9e058f903", "name": "e009ba23bb155177a1ebffd9e058f903", "is_reserved": 0, "fusion_lat": 0.0}, {"type": "electric_scooter", "rental_uris": {"ios": "https://dc.lft.to/lastmile_qr_scan", "android": "https://dc.lft.to/lastmile_qr_scan"}, "lon": -77.019405, "fusion_lon": 0.0, "is_disabled": 0, "lat": 38.94853716666667, "bike_id": "29d1142133d1a861854e55feadf31957", "name": "29d1142133d1a861854e55feadf31957", "is_reserved": 0, "fusion_lat": 0.0}, {"type": "electric_bike", "rental_uris": {"ios": "https://dc.lft.to/lastmile_qr_scan", "android": "https://dc.lft.to/lastmile_qr_scan"}, "lon": -76.97264883333334, "fusion_lon": 0.0, "is_disabled": 0, "lat": 38.919639, "bike_id": "abaa278ba0c641362eef1fa020e386e3", "name": "abaa278ba0c641362eef1fa020e386e3", "is_reserved": 0, "fusion_lat": 0.0}, {"type": "electric_bike", "rental_uris": {"ios": "https://dc.lft.to/lastmile_qr_scan", "android": "https://dc.lft.to/lastmile_qr_scan"}, "lon": -77.080198, "fusion_lon": 0.0, "is_disabled": 0, "lat": 38.949787666666666, "bike_id": "3d28a42e04f0bd5f93bc2d53cea5b753", "name": "3d28a42e04f0bd5f93bc2d53cea5b753", "is_reserved": 0, "fusion_lat": 0.0}, {"type": "electric_scooter", "rental_uris": {"ios": "https://dc.lft.to/lastmile_qr_scan", "android": "https://dc.lft.to/lastmile_qr_scan"}, "lon": -77.02427916666667, "fusion_lon": 0.0, "is_disabled": 0, "lat": 38.918519333333336, "bike_id": "96444ac1db80c7079f43d14b9cc572c8", "name": "96444ac1db80c7079f43d14b9cc572c8", "is_reserved": 0, "fusion_lat": 0.0}, {"type": "electric_scooter", "rental_uris": {"ios": "https://dc.lft.to/lastmile_qr_scan", "android": "https://dc.lft.to/lastmile_qr_scan"}, "lon": -77.0116505, "fusion_lon": 0.0, "is_disabled": 0, "lat": 38.90027333333333, "bike_id": "26e048a8cba07feb19a29ad93c635b5b", "name": "26e048a8cba07feb19a29ad93c635b5b", "is_reserved": 0, "fusion_lat": 0.0}, {"type": "electric_scooter", "rental_uris": {"ios": "https://dc.lft.to/lastmile_qr_scan", "android": "https://dc.lft.to/lastmile_qr_scan"}, "lon": -77.026194, "fusion_lon": 0.0, "is_disabled": 0, "lat": 38.94822833333333, "bike_id": "81448e419a389d091017dc33d013ab10", "name": "81448e419a389d091017dc33d013ab10", "is_reserved": 0, "fusion_lat": 0.0}, {"type": "electric_bike", "rental_uris": {"ios": "https://dc.lft.to/lastmile_qr_scan", "android": "https://dc.lft.to/lastmile_qr_scan"}, "lon": -77.11850283333334, "fusion_lon": 0.0, "is_disabled": 0, "lat": 38.877346, "bike_id": "3c3337c89bfba61c4d09681162ccfaa1", "name": "3c3337c89bfba61c4d09681162ccfaa1", "is_reserved": 0, "fusion_lat": 0.0}, {"type": "electric_scooter", "rental_uris": {"ios": "https://dc.lft.to/lastmile_qr_scan", "android": "https://dc.lft.to/lastmile_qr_scan"}, "lon": -76.976658, "fusion_lon": 0.0, "is_disabled": 0, "lat": 38.867476833333335, "bike_id": "3871d45f2451f4c1737f5830fc1f939d", "name": "3871d45f2451f4c1737f5830fc1f939d", "is_reserved": 0, "fusion_lat": 0.0}, {"type": "electric_scooter", "rental_uris": {"ios": "https://dc.lft.to/lastmile_qr_scan", "android": "https://dc.lft.to/lastmile_qr_scan"}, "lon": -77.01843166666667, "fusion_lon": 0.0, "is_disabled": 0, "lat": 38.9463175, "bike_id": "d378161649ac244a6e6ae850ed83e57f", "name": "d378161649ac244a6e6ae850ed83e57f", "is_reserved": 0, "fusion_lat": 0.0}, {"type": "electric_scooter", "rental_uris": {"ios": "https://dc.lft.to/lastmile_qr_scan", "android": "https://dc.lft.to/lastmile_qr_scan"}, "lon": -77.02761783333334, "fusion_lon": 0.0, "is_disabled": 0, "lat": 38.907288666666666, "bike_id": "05b6bb7e20fe34691e5d4dc5df574775", "name": "05b6bb7e20fe34691e5d4dc5df574775", "is_reserved": 0, "fusion_lat": 0.0}, {"type": "electric_bike", "rental_uris": {"ios": "https://dc.lft.to/lastmile_qr_scan", "android": "https://dc.lft.to/lastmile_qr_scan"}, "lon": -76.93546116666667, "fusion_lon": 0.0, "is_disabled": 0, "lat": 38.951866333333335, "bike_id": "e809f996848190e1ac477cdf536c28a1", "name": "e809f996848190e1ac477cdf536c28a1", "is_reserved": 0, "fusion_lat": 0.0}, {"type": "electric_scooter", "rental_uris": {"ios": "https://dc.lft.to/lastmile_qr_scan", "android": "https://dc.lft.to/lastmile_qr_scan"}, "lon": -77.03138816666667, "fusion_lon": 0.0, "is_disabled": 0, "lat": 38.89216183333333, "bike_id": "1926d985f50ce55615e20ed7d40164eb", "name": "1926d985f50ce55615e20ed7d40164eb", "is_reserved": 0, "fusion_lat": 0.0}, {"type": "electric_scooter", "rental_uris": {"ios": "https://dc.lft.to/lastmile_qr_scan", "android": "https://dc.lft.to/lastmile_qr_scan"}, "lon": -77.02766166666666, "fusion_lon": 0.0, "is_disabled": 0, "lat": 38.907323, "bike_id": "27e663cea5a20cfa279d31d2d25e35db", "name": "27e663cea5a20cfa279d31d2d25e35db", "is_reserved": 0, "fusion_lat": 0.0}, {"type": "electric_scooter", "rental_uris": {"ios": "https://dc.lft.to/lastmile_qr_scan", "android": "https://dc.lft.to/lastmile_qr_scan"}, "lon": -77.025919, "fusion_lon": 0.0, "is_disabled": 0, "lat": 38.904137666666664, "bike_id": "e43f51a41f436f9b28b87a457fa4a4b9", "name": "e43f51a41f436f9b28b87a457fa4a4b9", "is_reserved": 0, "fusion_lat": 0.0}, {"type": "electric_bike", "rental_uris": {"ios": "https://dc.lft.to/lastmile_qr_scan", "android": "https://dc.lft.to/lastmile_qr_scan"}, "lon": -77.05053816666667, "fusion_lon": 0.0, "is_disabled": 0, "lat": 38.924193833333334, "bike_id": "26239e53ef99afcd4cc82e438470c8a4", "name": "26239e53ef99afcd4cc82e438470c8a4", "is_reserved": 0, "fusion_lat": 0.0}, {"type": "electric_scooter", "rental_uris": {"ios": "https://dc.lft.to/lastmile_qr_scan", "android": "https://dc.lft.to/lastmile_qr_scan"}, "lon": -77.08023466666667, "fusion_lon": 0.0, "is_disabled": 0, "lat": 38.9092655, "bike_id": "6a1e977196e30a80acfd22d62bdf8621", "name": "6a1e977196e30a80acfd22d62bdf8621", "is_reserved": 0, "fusion_lat": 0.0}, {"type": "electric_scooter", "rental_uris": {"ios": "https://dc.lft.to/lastmile_qr_scan", "android": "https://dc.lft.to/lastmile_qr_scan"}, "lon": -77.037759, "fusion_lon": 0.0, "is_disabled": 0, "lat": 38.91698516666666, "bike_id": "14192df0a340bef7b415718bc5720640", "name": "14192df0a340bef7b415718bc5720640", "is_reserved": 0, "fusion_lat": 0.0}, {"type": "electric_scooter", "rental_uris": {"ios": "https://dc.lft.to/lastmile_qr_scan", "android": "https://dc.lft.to/lastmile_qr_scan"}, "lon": -77.04486233333333, "fusion_lon": 0.0, "is_disabled": 0, "lat": 38.919239833333336, "bike_id": "ad36e21d452ab5feae16be39bac4e9ca", "name": "ad36e21d452ab5feae16be39bac4e9ca", "is_reserved": 0, "fusion_lat": 0.0}, {"type": "electric_scooter", "rental_uris": {"ios": "https://dc.lft.to/lastmile_qr_scan", "android": "https://dc.lft.to/lastmile_qr_scan"}, "lon": -77.03999666666667, "fusion_lon": 0.0, "is_disabled": 0, "lat": 38.914138666666666, "bike_id": "b098071273df57b5b2acecacd20f6421", "name": "b098071273df57b5b2acecacd20f6421", "is_reserved": 0, "fusion_lat": 0.0}, {"type": "electric_scooter", "rental_uris": {"ios": "https://dc.lft.to/lastmile_qr_scan", "android": "https://dc.lft.to/lastmile_qr_scan"}, "lon": -76.9774595, "fusion_lon": 0.0, "is_disabled": 0, "lat": 38.86830666666667, "bike_id": "31a921ea7a27f7287ea639f8d3adce8f", "name": "31a921ea7a27f7287ea639f8d3adce8f", "is_reserved": 0, "fusion_lat": 0.0}, {"type": "electric_scooter", "rental_uris": {"ios": "https://dc.lft.to/lastmile_qr_scan", "android": "https://dc.lft.to/lastmile_qr_scan"}, "lon": -77.03960616666667, "fusion_lon": 0.0, "is_disabled": 0, "lat": 38.89244016666667, "bike_id": "d92d91ead3f88f167e9cf6823e210687", "name": "d92d91ead3f88f167e9cf6823e210687", "is_reserved": 0, "fusion_lat": 0.0}, {"type": "electric_bike", "rental_uris": {"ios": "https://dc.lft.to/lastmile_qr_scan", "android": "https://dc.lft.to/lastmile_qr_scan"}, "lon": -76.94533383333334, "fusion_lon": 0.0, "is_disabled": 0, "lat": 38.86460866666667, "bike_id": "f3f78740aad4a6d2ea6a3f560085f442", "name": "f3f78740aad4a6d2ea6a3f560085f442", "is_reserved": 0, "fusion_lat": 0.0}, {"type": "electric_bike", "rental_uris": {"ios": "https://dc.lft.to/lastmile_qr_scan", "android": "https://dc.lft.to/lastmile_qr_scan"}, "lon": -77.00294816666667, "fusion_lon": 0.0, "is_disabled": 0, "lat": 38.916159, "bike_id": "0f05821571b2df51400e53ef7e474014", "name": "0f05821571b2df51400e53ef7e474014", "is_reserved": 0, "fusion_lat": 0.0}, {"type": "electric_scooter", "rental_uris": {"ios": "https://dc.lft.to/lastmile_qr_scan", "android": "https://dc.lft.to/lastmile_qr_scan"}, "lon": -77.06123116666667, "fusion_lon": 0.0, "is_disabled": 0, "lat": 38.904787166666665, "bike_id": "e242ef302894f7718c107b52a3182332", "name": "e242ef302894f7718c107b52a3182332", "is_reserved": 0, "fusion_lat": 0.0}, {"type": "electric_scooter", "rental_uris": {"ios": "https://dc.lft.to/lastmile_qr_scan", "android": "https://dc.lft.to/lastmile_qr_scan"}, "lon": -77.0316775, "fusion_lon": 0.0, "is_disabled": 0, "lat": 38.89220816666667, "bike_id": "9a513a7480d040c8cd77b767225f0dd7", "name": "9a513a7480d040c8cd77b767225f0dd7", "is_reserved": 0, "fusion_lat": 0.0}, {"type": "electric_scooter", "rental_uris": {"ios": "https://dc.lft.to/lastmile_qr_scan", "android": "https://dc.lft.to/lastmile_qr_scan"}, "lon": -77.03929133333334, "fusion_lon": 0.0, "is_disabled": 0, "lat": 38.915614833333336, "bike_id": "2255b62e99ff04d8077286f4774866bb", "name": "2255b62e99ff04d8077286f4774866bb", "is_reserved": 0, "fusion_lat": 0.0}, {"type": "electric_scooter", "rental_uris": {"ios": "https://dc.lft.to/lastmile_qr_scan", "android": "https://dc.lft.to/lastmile_qr_scan"}, "lon": -77.03629733333334, "fusion_lon": 0.0, "is_disabled": 0, "lat": 38.937393, "bike_id": "0aeb9300e2f42adba132adf96e135523", "name": "0aeb9300e2f42adba132adf96e135523", "is_reserved": 0, "fusion_lat": 0.0}, {"type": "electric_scooter", "rental_uris": {"ios": "https://dc.lft.to/lastmile_qr_scan", "android": "https://dc.lft.to/lastmile_qr_scan"}, "lon": -77.0433465, "fusion_lon": 0.0, "is_disabled": 0, "lat": 38.911074, "bike_id": "06076b7ecc84c32b6f2c63ad8a8a6b2a", "name": "06076b7ecc84c32b6f2c63ad8a8a6b2a", "is_reserved": 0, "fusion_lat": 0.0}, {"type": "electric_scooter", "rental_uris": {"ios": "https://dc.lft.to/lastmile_qr_scan", "android": "https://dc.lft.to/lastmile_qr_scan"}, "lon": -77.02649366666667, "fusion_lon": 0.0, "is_disabled": 0, "lat": 38.924789833333335, "bike_id": "d57ffc2b07e711b9662ebbbe41c47cc6", "name": "d57ffc2b07e711b9662ebbbe41c47cc6", "is_reserved": 0, "fusion_lat": 0.0}, {"type": "electric_scooter", "rental_uris": {"ios": "https://dc.lft.to/lastmile_qr_scan", "android": "https://dc.lft.to/lastmile_qr_scan"}, "lon": -77.03196466666667, "fusion_lon": 0.0, "is_disabled": 0, "lat": 38.897904833333335, "bike_id": "4c6d2f63ebbea673466a9832284509c7", "name": "4c6d2f63ebbea673466a9832284509c7", "is_reserved": 0, "fusion_lat": 0.0}, {"type": "electric_scooter", "rental_uris": {"ios": "https://dc.lft.to/lastmile_qr_scan", "android": "https://dc.lft.to/lastmile_qr_scan"},