{"data": {"bikes": [{"is_reserved": 0, "type": "electric_scooter", "fusion_lat": 0.0, "is_disabled": 0, "rental_uris": {"ios": "https://dc.lft.to/lastmile_qr_scan", "android": "https://dc.lft.to/lastmile_qr_scan"}, "bike_id": "c9f7db9158e255236919b7c7baa1dc8b", "lat": 38.9568555, "name": "c9f7db9158e255236919b7c7baa1dc8b", "lon": -77.02233166666667, "fusion_lon": 0.0}, {"is_reserved": 0, "type": "electric_scooter", "fusion_lat": 0.0, "is_disabled": 0, "rental_uris": {"ios": "https://dc.lft.to/lastmile_qr_scan", "android": "https://dc.lft.to/lastmile_qr_scan"}, "bike_id": "a41dd5d6e5a7c576bebdf0dc4e2045cd", "lat": 38.901989, "name": "a41dd5d6e5a7c576bebdf0dc4e2045cd", "lon": -77.00208333333333, "fusion_lon": 0.0}, {"is_reserved": 0, "type": "electric_scooter", "fusion_lat": 0.0, "is_disabled": 0, "rental_uris": {"ios": "https://dc.lft.to/lastmile_qr_scan", "android": "https://dc.lft.to/lastmile_qr_scan"}, "bike_id": "7954834708d13ddd70acf721126ffd5d", "lat": 38.8907305, "name": "7954834708d13ddd70acf721126ffd5d", "lon": -76.9883595, "fusion_lon": 0.0}, {"is_reserved": 0, "type": "electric_scooter", "fusion_lat": 0.0, "is_disabled": 0, "rental_uris": {"ios": "https://dc.lft.to/lastmile_qr_scan", "android": "https://dc.lft.to/lastmile_qr_scan"}, "bike_id": "65250b322119d380b3302c713f390b8b", "lat": 38.88532566666667, "name": "65250b322119d380b3302c713f390b8b", "lon": -76.98054733333333, "fusion_lon": 0.0}, {"is_reserved": 0, "type": "electric_bike", "fusion_lat": 0.0, "is_disabled": 0, "rental_uris": {"ios": "https://dc.lft.to/lastmile_qr_scan", "android": "https://dc.lft.to/lastmile_qr_scan"}, "bike_id": "516887e84695c84c1255f0d5a64f30ba", "lat": 38.89619116666667, "name": "516887e84695c84c1255f0d5a64f30ba", "lon": -76.9074295, "fusion_lon": 0.0}, {"is_reserved": 0, "type": "electric_scooter", "fusion_lat": 0.0, "is_disabled": 0, "rental_uris": {"ios": "https://dc.lft.to/lastmile_qr_scan", "android": "https://dc.lft.to/lastmile_qr_scan"}, "bike_id": "6778b19749e0c2c007b9df025c6435eb", "lat": 38.91415816666667, "name": "6778b19749e0c2c007b9df025c6435eb", "lon": -77.031628, "fusion_lon": 0.0}, {"is_reserved": 0, "type": "electric_scooter", "fusion_lat": 0.0, "is_disabled": 0, "rental_uris": {"ios": "https://dc.lft.to/lastmile_qr_scan", "android": "https://dc.lft.to/lastmile_qr_scan"}, "bike_id": "509769cd4d83352d5b690589b64f15cc", "lat": 38.902497, "name": "509769cd4d83352d5b690589b64f15cc", "lon": -77.03462866666666, "fusion_lon": 0.0}, {"is_reserved": 0, "type": "electric_scooter", "fusion_lat": 0.0, "is_disabled": 0, "rental_uris": {"ios": "https://dc.lft.to/lastmile_qr_scan", "android": "https://dc.lft.to/lastmile_qr_scan"}, "bike_id": "a2786a12821909f45c2f757c4a13ef98", "lat": 38.9241225, "name": "a2786a12821909f45c2f757c4a13ef98", "lon": -77.0200495, "fusion_lon": 0.0}, {"is_reserved": 0, "type": "electric_scooter", "fusion_lat": 0.0, "is_disabled": 0, "rental_uris": {"ios": "https://dc.lft.to/lastmile_qr_scan", "android": "https://dc.lft.to/lastmile_qr_scan"}, "bike_id": "885d8cc56406b81960e2ec5a273afdd2", "lat": 38.921704166666665, "name": "885d8cc56406b81960e2ec5a273afdd2", "lon": -77.04018616666667, "fusion_lon": 0.0}, {"is_reserved": 0, "type": "electric_scooter", "fusion_lat": 0.0, "is_disabled": 0, "rental_uris": {"ios": "https://dc.lft.to/lastmile_qr_scan", "android": "https://dc.lft.to/lastmile_qr_scan"}, "bike_id": "89d30aa0cf01ddac3ba7227b741a90a8", "lat": 38.95751683333334, "name": "89d30aa0cf01ddac3ba7227b741a90a8", "lon": -77.02207166666666, "fusion_lon": 0.0}, {"is_reserved": 0, "type": "electric_scooter", "fusion_lat": 0.0, "is_disabled": 0, "rental_uris": {"ios": "https://dc.lft.to/lastmile_qr_scan", "android": "https://dc.lft.to/lastmile_qr_scan"}, "bike_id": "fcf5aca03d190c90432947520fa6d4b1", "lat": 38.905672, "name": "fcf5aca03d190c90432947520fa6d4b1", "lon": -77.03070316666667, "fusion_lon": 0.0}, {"is_reserved": 0, "type": "electric_scooter", "fusion_lat": 0.0, "is_disabled": 0, "rental_uris": {"ios": "https://dc.lft.to/lastmile_qr_scan", "android": "https://dc.lft.to/lastmile_qr_scan"}, "bike_id": "a21b84ca63b6ff4b3597905ce2f9283e", "lat": 38.900898166666664, "name": "a21b84ca63b6ff4b3597905ce2f9283e", "lon": -77.04770383333333, "fusion_lon": 0.0}, {"is_reserved": 0, "type": "electric_scooter", "fusion_lat": 0.0, "is_disabled": 0, "rental_uris": {"ios": "https://dc.lft.to/lastmile_qr_scan", "android": "https://dc.lft.to/lastmile_qr_scan"}, "bike_id": "85c246d93469b033d59d1399c506dad0", "lat": 38.885124166666664, "name": "85c246d93469b033d59d1399c506dad0", "lon": -76.92441633333334, "fusion_lon": 0.0}, {"is_reserved": 0, "type": "electric_scooter", "fusion_lat": 0.0, "is_disabled": 0, "rental_uris": {"ios": "https://dc.lft.to/lastmile_qr_scan", "android": "https://dc.lft.to/lastmile_qr_scan"}, "bike_id": "f81fc9ab3e2a7599a898be95be107321", "lat": 38.89779016666667, "name": "f81fc9ab3e2a7599a898be95be107321", "lon": -77.04780966666667, "fusion_lon": 0.0}, {"is_reserved": 0, "type": "electric_scooter", "fusion_lat": 0.0, "is_disabled": 0, "rental_uris": {"ios": "https://dc.lft.to/lastmile_qr_scan", "android": "https://dc.lft.to/lastmile_qr_scan"}, "bike_id": "1243ab06378c4fa61a82c7531528c46f", "lat": 38.8744585, "name": "1243ab06378c4fa61a82c7531528c46f", "lon": -77.00924333333333, "fusion_lon": 0.0}, {"is_reserved": 0, "type": "electric_scooter", "fusion_lat": 0.0, "is_disabled": 0, "rental_uris": {"ios": "https://dc.lft.to/lastmile_qr_scan", "android": "https://dc.lft.to/lastmile_qr_scan"}, "bike_id": "2c7db566d07ac856a2d4864fcbba6a1d", "lat": 38.96797566666667, "name": "2c7db566d07ac856a2d4864fcbba6a1d", "lon": -77.02429983333333, "fusion_lon": 0.0}, {"is_reserved": 0, "type": "electric_bike", "fusion_lat": 0.0, "is_disabled": 0, "rental_uris": {"ios": "https://dc.lft.to/lastmile_qr_scan", "android": "https://dc.lft.to/lastmile_qr_scan"}, "bike_id": "42eb480ec5b574e04c5904ec2ca7c324", "lat": 38.86553933333333, "name": "42eb480ec5b574e04c5904ec2ca7c324", "lon": -76.94151383333333, "fusion_lon": 0.0}, {"is_reserved": 0, "type": "electric_scooter", "fusion_lat": 0.0, "is_disabled": 0, "rental_uris": {"ios": "https://dc.lft.to/lastmile_qr_scan", "android": "https://dc.lft.to/lastmile_qr_scan"}, "bike_id": "75de7b1ceeefc79b38281fba8ddb34b8", "lat": 38.921783, "name": "75de7b1ceeefc79b38281fba8ddb34b8", "lon": -77.03839033333334, "fusion_lon": 0.0}, {"is_reserved": 0, "type": "electric_scooter", "fusion_lat": 0.0, "is_disabled": 0, "rental_uris": {"ios": "https://dc.lft.to/lastmile_qr_scan", "android": "https://dc.lft.to/lastmile_qr_scan"}, "bike_id": "6ee6edab24d738750a8c948a7519a026", "lat": 38.912513833333335, "name": "6ee6edab24d738750a8c948a7519a026", "lon": -76.98665433333333, "fusion_lon": 0.0}, {"is_reserved": 0, "type": "electric_bike", "fusion_lat": 0.0, "is_disabled": 0, "rental_uris": {"ios": "https://dc.lft.to/lastmile_qr_scan", "android": "https://dc.lft.to/lastmile_qr_scan"}, "bike_id": "511961b6b644bcbd759655e277c12eaf", "lat": 38.805175, "name": "511961b6b644bcbd759655e277c12eaf", "lon": -77.043413, "fusion_lon": 0.0}, {"is_reserved": 0, "type": "electric_bike", "fusion_lat": 0.0, "is_disabled": 0, "rental_uris": {"ios": "https://dc.lft.to/lastmile_qr_scan", "android": "https://dc.lft.to/lastmile_qr_scan"}, "bike_id": "f116a2b1527bb8d42a95f3d46eba2892", "lat": 38.94032966666666, "name": "f116a2b1527bb8d42a95f3d46eba2892", "lon": -76.97574983333334, "fusion_lon": 0.0}, {"is_reserved": 0, "type": "electric_scooter", "fusion_lat": 0.0, "is_disabled": 0, "rental_uris": {"ios": "https://dc.lft.to/lastmile_qr_scan", "android": "https://dc.lft.to/lastmile_qr_scan"}, "bike_id": "23ae9e2f39f74f2c68b168a0ebb4f4de", "lat": 38.89849666666667, "name": "23ae9e2f39f74f2c68b168a0ebb4f4de", "lon": -76.99145283333333, "fusion_lon": 0.0}, {"is_reserved": 0, "type": "electric_scooter", "fusion_lat": 0.0, "is_disabled": 0, "rental_uris": {"ios": "https://dc.lft.to/lastmile_qr_scan", "android": "https://dc.lft.to/lastmile_qr_scan"}, "bike_id": "9cab4a1b23d985cd91944995ec411aac", "lat": 38.916603333333335, "name": "9cab4a1b23d985cd91944995ec411aac", "lon": -77.043864, "fusion_lon": 0.0}, {"is_reserved": 0, "type": "electric_bike", "fusion_lat": 0.0, "is_disabled": 0, "rental_uris": {"ios": "https://dc.lft.to/lastmile_qr_scan", "android": "https://dc.lft.to/lastmile_qr_scan"}, "bike_id": "1cc1c51ae06947c35d3d8f067f7a6ce9", "lat": 38.80518433333334, "name": "1cc1c51ae06947c35d3d8f067f7a6ce9", "lon": -77.04342216666667, "fusion_lon": 0.0}, {"is_reserved": 0, "type": "electric_bike", "fusion_lat": 0.0, "is_disabled": 0, "rental_uris": {"ios": "https://dc.lft.to/lastmile_qr_scan", "android": "https://dc.lft.to/lastmile_qr_scan"}, "bike_id": "2414a0a5ff6c83e87739cf40c300aacb", "lat": 38.864932833333334, "name": "2414a0a5ff6c83e87739cf40c300aacb", "lon": -76.96983383333334, "fusion_lon": 0.0}, {"is_reserved": 0, "type": "electric_scooter", "fusion_lat": 0.0, "is_disabled": 0, "rental_uris": {"ios": "https://dc.lft.to/lastmile_qr_scan", "android": "https://dc.lft.to/lastmile_qr_scan"}, "bike_id": "6857a3cc0bb0f7c4edd45faaa8de13c6", "lat": 38.92865166666667, "name": "6857a3cc0bb0f7c4edd45faaa8de13c6", "lon": -77.01409916666667, "fusion_lon": 0.0}, {"is_reserved": 0, "type": "electric_scooter", "fusion_lat": 0.0, "is_disabled": 0, "rental_uris": {"ios": "https://dc.lft.to/lastmile_qr_scan", "android": "https://dc.lft.to/lastmile_qr_scan"}, "bike_id": "fd6cebbc8691d720d90aa38fdc5f3a09", "lat": 38.902780166666666, "name": "fd6cebbc8691d720d90aa38fdc5f3a09", "lon": -77.05920283333333, "fusion_lon": 0.0}, {"is_reserved": 0, "type": "electric_scooter", "fusion_lat": 0.0, "is_disabled": 0, "rental_uris": {"ios": "https://dc.lft.to/lastmile_qr_scan", "android": "https://dc.lft.to/lastmile_qr_scan"}, "bike_id": "53cb62e4902165b83f9878b862d4be40", "lat": 38.92089816666667, "name": "53cb62e4902165b83f9878b862d4be40", "lon": -77.0241135, "fusion_lon": 0.0}, {"is_reserved": 0, "type": "electric_scooter", "fusion_lat": 0.0, "is_disabled": 0, "rental_uris": {"ios": "https://dc.lft.to/lastmile_qr_scan", "android": "https://dc.lft.to/lastmile_qr_scan"}, "bike_id": "53fb677cfc0e1ba15e0f5453d5d56a1d", "lat": 38.87374066666667, "name": "53fb677cfc0e1ba15e0f5453d5d56a1d", "lon": -77.00130166666666, "fusion_lon": 0.0}, {"is_reserved": 0, "type": "electric_scooter", "fusion_lat": 0.0, "is_disabled": 0, "rental_uris": {"ios": "https://dc.lft.to/lastmile_qr_scan", "android": "https://dc.lft.to/lastmile_qr_scan"}, "bike_id": "dbf6b634e24859f2c1672d4921696e99", "lat": 38.9103525, "name": "dbf6b634e24859f2c1672d4921696e99", "lon": -76.9856215, "fusion_lon": 0.0}, {"is_reserved": 0, "type": "electric_scooter", "fusion_lat": 0.0, "is_disabled": 0, "rental_uris": {"ios": "https://dc.lft.to/lastmile_qr_scan", "android": "https://dc.lft.to/lastmile_qr_scan"}, "bike_id": "dba31bcd9b092fea3f780fc6cfe37d6e", "lat": 38.920972166666665, "name": "dba31bcd9b092fea3f780fc6cfe37d6e", "lon": -77.04705966666667, "fusion_lon": 0.0}, {"is_reserved": 0, "type": "electric_scooter", "fusion_lat": 0.0, "is_disabled": 0, "rental_uris": {"ios": "https://dc.lft.to/lastmile_qr_scan", "android": "https://dc.lft.to/lastmile_qr_scan"}, "bike_id": "0d066a019cdb1021289da7e1f6b1ec31", "lat": 38.8951345, "name": "0d066a019cdb1021289da7e1f6b1ec31", "lon": -77.02286416666666, "fusion_lon": 0.0}, {"is_reserved": 0, "type": "electric_scooter", "fusion_lat": 0.0, "is_disabled": 0, "rental_uris": {"ios": "https://dc.lft.to/lastmile_qr_scan", "android": "https://dc.lft.to/lastmile_qr_scan"}, "bike_id": "0bab0ffd2aa491659f84d56c7ba270a4", "lat": 38.87866183333333, "name": "0bab0ffd2aa491659f84d56c7ba270a4", "lon": -77.00699683333333, "fusion_lon": 0.0}, {"is_reserved": 0, "type": "electric_scooter", "fusion_lat": 0.0, "is_disabled": 0, "rental_uris": {"ios": "https://dc.lft.to/lastmile_qr_scan", "android": "https://dc.lft.to/lastmile_qr_scan"}, "bike_id": "853e92f5efd0382d94517ebea39c694b", "lat": 38.9474535, "name": "853e92f5efd0382d94517ebea39c694b", "lon": -77.01934666666666, "fusion_lon": 0.0}, {"is_reserved": 0, "type": "electric_scooter", "fusion_lat": 0.0, "is_disabled": 0, "rental_uris": {"ios": "https://dc.lft.to/lastmile_qr_scan", "android": "https://dc.lft.to/lastmile_qr_scan"}, "bike_id": "9b3af74e56ccbd78c0974161bd8b160c", "lat": 38.937172833333335, "name": "9b3af74e56ccbd78c0974161bd8b160c", "lon": -77.03629483333333, "fusion_lon": 0.0}, {"is_reserved": 0, "type": "electric_bike", "fusion_lat": 0.0, "is_disabled": 0, "rental_uris": {"ios": "https://dc.lft.to/lastmile_qr_scan", "android": "https://dc.lft.to/lastmile_qr_scan"}, "bike_id": "604c2254cbd75db040e3358163de5b87", "lat": 38.89083483333334, "name": "604c2254cbd75db040e3358163de5b87", "lon": -76.95467283333333, "fusion_lon": 0.0}, {"is_reserved": 0, "type": "electric_scooter", "fusion_lat": 0.0, "is_disabled": 0, "rental_uris": {"ios": "https://dc.lft.to/lastmile_qr_scan", "android": "https://dc.lft.to/lastmile_qr_scan"}, "bike_id": "071ad6f664fd04b4027dcbd2dd80f86a", "lat": 38.92871366666667, "name": "071ad6f664fd04b4027dcbd2dd80f86a", "lon": -77.03478266666667, "fusion_lon": 0.0}, {"is_reserved": 0, "type": "electric_scooter", "fusion_lat": 0.0, "is_disabled": 0, "rental_uris": {"ios": "https://dc.lft.to/lastmile_qr_scan", "android": "https://dc.lft.to/lastmile_qr_scan"}, "bike_id": "d194b357a173c82aa9788820f5015264", "lat": 38.956391833333335, "name": "d194b357a173c82aa9788820f5015264", "lon": -77.0362935, "fusion_lon": 0.0}, {"is_reserved": 0, "type": "electric_scooter", "fusion_lat": 0.0, "is_disabled": 0, "rental_uris": {"ios": "https://dc.lft.to/lastmile_qr_scan", "android": "https://dc.lft.to/lastmile_qr_scan"}, "bike_id": "92016492369dc915ede36ba1f4fa47bd", "lat": 38.9261285, "name": "92016492369dc915ede36ba1f4fa47bd", "lon": -77.02163483333334, "fusion_lon": 0.0}, {"is_reserved": 0, "type": "electric_scooter", "fusion_lat": 0.0, "is_disabled": 0, "rental_uris": {"ios": "https://dc.lft.to/lastmile_qr_scan", "android": "https://dc.lft.to/lastmile_qr_scan"}, "bike_id": "f119ef7c3096795655df9cb4feb7f990", "lat": 38.91259683333333, "name": "f119ef7c3096795655df9cb4feb7f990", "lon": -77.03860316666666, "fusion_lon": 0.0}, {"is_reserved": 0, "type": "electric_scooter", "fusion_lat": 0.0, "is_disabled": 0, "rental_uris": {"ios": "https://dc.lft.to/lastmile_qr_scan", "android": "https://dc.lft.to/lastmile_qr_scan"}, "bike_id": "a3cc3c4ec75bd7315fac9b2d5737bdf4", "lat": 38.90248866666667, "name": "a3cc3c4ec75bd7315fac9b2d5737bdf4", "lon": -77.00006216666667, "fusion_lon": 0.0}, {"is_reserved": 0, "type": "electric_scooter", "fusion_lat": 0.0, "is_disabled": 0, "rental_uris": {"ios": "https://dc.lft.to/lastmile_qr_scan", "android": "https://dc.lft.to/lastmile_qr_scan"}, "bike_id": "29ff3478e3ac6ab8ab635b8e1ddf31a7", "lat": 38.9299905, "name": "29ff3478e3ac6ab8ab635b8e1ddf31a7", "lon": -77.02169966666666, "fusion_lon": 0.0}, {"is_reserved": 0, "type": "electric_scooter", "fusion_lat": 0.0, "is_disabled": 0, "rental_uris": {"ios": "https://dc.lft.to/lastmile_qr_scan", "android": "https://dc.lft.to/lastmile_qr_scan"}, "bike_id": "2113229a6c2d4ae83acbf218c0f77d56", "lat": 38.909631166666664, "name": "2113229a6c2d4ae83acbf218c0f77d56", "lon": -77.03392266666667, "fusion_lon": 0.0}, {"is_reserved": 0, "type": "electric_bike", "fusion_lat": 0.0, "is_disabled": 0, "rental_uris": {"ios": "https://dc.lft.to/lastmile_qr_scan", "android": "https://dc.lft.to/lastmile_qr_scan"}, "bike_id": "7eb5d78b8daf3710255cd68b63943b11", "lat": 38.903908, "name": "7eb5d78b8daf3710255cd68b63943b11", "lon": -77.06306616666667, "fusion_lon": 0.0}, {"is_reserved": 0, "type": "electric_scooter", "fusion_lat": 0.0, "is_disabled": 0, "rental_uris": {"ios": "https://dc.lft.to/lastmile_qr_scan", "android": "https://dc.lft.to/lastmile_qr_scan"}, "bike_id": "f92b6bfd9a64896b3e34d1ec2dbfd506", "lat": 38.92197983333333, "name": "f92b6bfd9a64896b3e34d1ec2dbfd506", "lon": -76.99700566666667, "fusion_lon": 0.0}, {"is_reserved": 0, "type": "electric_bike", "fusion_lat": 0.0, "is_disabled": 0, "rental_uris": {"ios": "https://dc.lft.to/lastmile_qr_scan", "android": "https://dc.lft.to/lastmile_qr_scan"}, "bike_id": "e7cd9e36789ced69bcdc4c59376eb55b", "lat": 38.978515333333334, "name": "e7cd9e36789ced69bcdc4c59376eb55b", "lon": -77.0909785, "fusion_lon": 0.0}, {"is_reserved": 0, "type": "electric_bike", "fusion_lat": 0.0, "is_disabled": 0, "rental_uris": {"ios": "https://dc.lft.to/lastmile_qr_scan", "android": "https://dc.lft.to/lastmile_qr_scan"}, "bike_id": "154b8efd4cd049381273daf3990d951c", "lat": 39.02625416666667, "name": "154b8efd4cd049381273daf3990d951c", "lon": -77.03882466666667, "fusion_lon": 0.0}, {"is_reserved": 0, "type": "electric_scooter", "fusion_lat": 0.0, "is_disabled": 0, "rental_uris": {"ios": "https://dc.lft.to/lastmile_qr_scan", "android": "https://dc.lft.to/lastmile_qr_scan"}, "bike_id": "f9070c85606b0d80ef538a007cce8a80", "lat": 38.90044283333334, "name": "f9070c85606b0d80ef538a007cce8a80", "lon": -77.03465583333333, "fusion_lon": 0.0}, {"is_reserved": 0, "type": "electric_bike", "fusion_lat": 0.0, "is_disabled": 0, "rental_uris": {"ios": "https://dc.lft.to/lastmile_qr_scan", "android": "https://dc.lft.to/lastmile_qr_scan"}, "bike_id": "758bcd15271b6b8de17a2465f31c5bff", "lat": 38.9301245, "name": "758bcd15271b6b8de17a2465f31c5bff", "lon": -77.055519, "fusion_lon": 0.0}, {"is_reserved": 0, "type": "electric_scooter", "fusion_lat": 0.0, "is_disabled": 0, "rental_uris": {"ios": "https://dc.lft.to/lastmile_qr_scan", "android": "https://dc.lft.to/lastmile_qr_scan"}, "bike_id": "68eb6e54e3004d0b0cf7ce1eac96ff39", "lat": 38.90975016666667, "name": "68eb6e54e3004d0b0cf7ce1eac96ff39", "lon": -77.03366333333334, "fusion_lon": 0.0}, {"is_reserved": 0, "type": "electric_scooter", "fusion_lat": 0.0, "is_disabled": 0, "rental_uris": {"ios": "https://dc.lft.to/lastmile_qr_scan", "android": "https://dc.lft.to/lastmile_qr_scan"}, "bike_id": "4405cf780c21d962d9c2faef57dd726e", "lat": 38.938758166666666, "name": "4405cf780c21d962d9c2faef57dd726e", "lon": -77.02833416666667, "fusion_lon": 0.0}, {"is_reserved": 0, "type": "electric_scooter", "fusion_lat": 0.0, "is_disabled": 0, "rental_uris": {"ios": "https://dc.lft.to/lastmile_qr_scan", "android": "https://dc.lft.to/lastmile_qr_scan"}, "bike_id": "2f5e61b99ba942e426c2cb2b4a566aba", "lat": 38.9131245, "name": "2f5e61b99ba942e426c2cb2b4a566aba", "lon": -77.03207166666667, "fusion_lon": 0.0}, {"is_reserved": 0, "type": "electric_bike", "fusion_lat": 0.0, "is_disabled": 0, "rental_uris": {"ios": "https://dc.lft.to/lastmile_qr_scan", "android": "https://dc.lft.to/lastmile_qr_scan"}, "bike_id": "a270171238e72191f72b31258084df18", "lat": 38.858039833333336, "name": "a270171238e72191f72b31258084df18", "lon": -76.98740933333333, "fusion_lon": 0.0}, {"is_reserved": 0, "type": "electric_scooter", "fusion_lat": 0.0, "is_disabled": 0, "rental_uris": {"ios": "https://dc.lft.to/lastmile_qr_scan", "android": "https://dc.lft.to/lastmile_qr_scan"}, "bike_id": "a852435cc293841d5fb78905f43c8201", "lat": 38.885056166666665, "name": "a852435cc293841d5fb78905f43c8201", "lon": -76.9975265, "fusion_lon": 0.0}, {"is_reserved": 0, "type": "electric_scooter", "fusion_lat": 0.0, "is_disabled": 0, "rental_uris": {"ios": "https://dc.lft.to/lastmile_qr_scan", "android": "https://dc.lft.to/lastmile_qr_scan"}, "bike_id": "0fb12872d57dfb2e78a2504a75c7ae2e", "lat": 38.9232065, "name": "0fb12872d57dfb2e78a2504a75c7ae2e", "lon": -77.04316766666666, "fusion_lon": 0.0}, {"is_reserved": 0, "type": "electric_scooter", "fusion_lat": 0.0, "is_disabled": 0, "rental_uris": {"ios": "https://dc.lft.to/lastmile_qr_scan", "android": "https://dc.lft.to/lastmile_qr_scan"}, "bike_id": "d172e93f8bdefb900e079abda2866d38", "lat": 38.91557666666667, "name": "d172e93f8bdefb900e079abda2866d38", "lon": -77.05100216666666, "fusion_lon": 0.0}, {"is_reserved": 0, "type": "electric_scooter", "fusion_lat": 0.0, "is_disabled": 0, "rental_uris": {"ios": "https://dc.lft.to/lastmile_qr_scan", "android": "https://dc.lft.to/lastmile_qr_scan"}, "bike_id": "52ebb6a891352e9baeaa8e778930842c", "lat": 38.896138, "name": "52ebb6a891352e9baeaa8e778930842c", "lon": -77.04116483333334, "fusion_lon": 0.0}, {"is_reserved": 0, "type": "electric_scooter", "fusion_lat": 0.0, "is_disabled": 0, "rental_uris": {"ios": "https://dc.lft.to/lastmile_qr_scan", "android": "https://dc.lft.to/lastmile_qr_scan"}, "bike_id": "c7a6f39aa0a525fb3f36fff24fc85d92", "lat": 38.921057833333336, "name": "c7a6f39aa0a525fb3f36fff24fc85d92", "lon": -77.0411485, "fusion_lon": 0.0}, {"is_reserved": 0, "type": "electric_bike", "fusion_lat": 0.0, "is_disabled": 0, "rental_uris": {"ios": "https://dc.lft.to/lastmile_qr_scan", "android": "https://dc.lft.to/lastmile_qr_scan"}, "bike_id": "a696573c36516fb73f4b4788b5fda736", "lat": 38.846773666666664, "name": "a696573c36516fb73f4b4788b5fda736", "lon": -77.13928, "fusion_lon": 0.0}, {"is_reserved": 0, "type": "electric_scooter", "fusion_lat": 0.0, "is_disabled": 0, "rental_uris": {"ios": "https://dc.lft.to/lastmile_qr_scan", "android": "https://dc.lft.to/lastmile_qr_scan"}, "bike_id": "cd24d41e3792d79273591510deeaedd8", "lat": 38.9125805, "name": "cd24d41e3792d79273591510deeaedd8", "lon": -76.98350333333333, "fusion_lon": 0.0}, {"is_reserved": 0, "type": "electric_scooter", "fusion_lat": 0.0, "is_disabled": 0, "rental_uris": {"ios": "https://dc.lft.to/lastmile_qr_scan", "android": "https://dc.lft.to/lastmile_qr_scan"}, "bike_id": "3ab82116c4ee1cae032a3fee69b12e54", "lat": 38.87622116666667, "name": "3ab82116c4ee1cae032a3fee69b12e54", "lon": -77.00585483333333, "fusion_lon": 0.0}, {"is_reserved": 0, "type": "electric_scooter", "fusion_lat": 0.0, "is_disabled": 0, "rental_uris": {"ios": "https://dc.lft.to/lastmile_qr_scan", "android": "https://dc.lft.to/lastmile_qr_scan"}, "bike_id": "d44d1469cb5981e4243e3896dfcb3181", "lat": 38.87190733333333, "name": "d44d1469cb5981e4243e3896dfcb3181", "lon": -77.00587416666667, "fusion_lon": 0.0}, {"is_reserved": 0, "type": "electric_scooter", "fusion_lat": 0.0, "is_disabled": 0, "rental_uris": {"ios": "https://dc.lft.to/lastmile_qr_scan", "android": "https://dc.lft.to/lastmile_qr_scan"}, "bike_id": "dbf7ef82c8b439f101813b177aa00a48", "lat": 38.9358985, "name": "dbf7ef82c8b439f101813b177aa00a48", "lon": -77.074304, "fusion_lon": 0.0}, {"is_reserved": 0, "type": "electric_scooter", "fusion_lat": 0.0, "is_disabled": 0, "rental_uris": {"ios": "https://dc.lft.to/lastmile_qr_scan", "android": "https://dc.lft.to/lastmile_qr_scan"}, "bike_id": "6fcd73d91081b0889567dac8b0203f8a", "lat": 38.90561833333334, "name": "6fcd73d91081b0889567dac8b0203f8a", "lon": -77.0486725, "fusion_lon": 0.0}, {"is_reserved": 0, "type": "electric_scooter", "fusion_lat": 0.0, "is_disabled": 0, "rental_uris": {"ios": "https://dc.lft.to/lastmile_qr_scan", "android": "https://dc.lft.to/lastmile_qr_scan"}, "bike_id": "203aa734f6fd46ee418cbf65b9ec937a", "lat": 38.88315633333333, "name": "203aa734f6fd46ee418cbf65b9ec937a", "lon": -76.99489266666667, "fusion_lon": 0.0}, {"is_reserved": 0, "type": "electric_scooter", "fusion_lat": 0.0, "is_disabled": 0, "rental_uris": {"ios": "https://dc.lft.to/lastmile_qr_scan", "android": "https://dc.lft.to/lastmile_qr_scan"}, "bike_id": "fb8f0f462bd6be6c57e742d675c5d721", "lat": 38.893409, "name": "fb8f0f462bd6be6c57e742d675c5d721", "lon": -76.985589, "fusion_lon": 0.0}, {"is_reserved": 0, "type": "electric_scooter", "fusion_lat": 0.0, "is_disabled": 0, "rental_uris": {"ios": "https://dc.lft.to/lastmile_qr_scan", "android": "https://dc.lft.to/lastmile_qr_scan"}, "bike_id": "6ad526837450c41068b7b1e60addc2dd", "lat": 38.92798033333333, "name": "6ad526837450c41068b7b1e60addc2dd", "lon": -77.03704033333334, "fusion_lon": 0.0}, {"is_reserved": 0, "type": "electric_scooter", "fusion_lat": 0.0, "is_disabled": 0, "rental_uris": {"ios": "https://dc.lft.to/lastmile_qr_scan", "android": "https://dc.lft.to/lastmile_qr_scan"}, "bike_id": "ab562381c43255723b2b6d3ffbae4547", "lat": 38.900308333333335, "name": "ab562381c43255723b2b6d3ffbae4547", "lon": -77.00620433333333, "fusion_lon": 0.0}, {"is_reserved": 0, "type": "electric_scooter", "fusion_lat": 0.0, "is_disabled": 0, "rental_uris": {"ios": "https://dc.lft.to/lastmile_qr_scan", "android": "https://dc.lft.to/lastmile_qr_scan"}, "bike_id": "14539f57d7cc307b75f6e10e104748db", "lat": 38.918858666666665, "name": "14539f57d7cc307b75f6e10e104748db", "lon": -77.0356185, "fusion_lon": 0.0}, {"is_reserved": 0, "type": "electric_scooter", "fusion_lat": 0.0, "is_disabled": 0, "rental_uris": {"ios": "https://dc.lft.to/lastmile_qr_scan", "android": "https://dc.lft.to/lastmile_qr_scan"}, "bike_id": "39510874f8a7bf3ca5e7302996e84535", "lat": 38.9242865, "name": "39510874f8a7bf3ca5e7302996e84535", "lon": -77.04479083333334, "fusion_lon": 0.0}, {"is_reserved": 0, "type": "electric_scooter", "fusion_lat": 0.0, "is_disabled": 0, "rental_uris": {"ios": "https://dc.lft.to/lastmile_qr_scan", "android": "https://dc.lft.to/lastmile_qr_scan"}, "bike_id": "cb2a2a9759e8aa0b7d408c3dd6df7ee3", "lat": 38.924748666666666, "name": "cb2a2a9759e8aa0b7d408c3dd6df7ee3", "lon": -77.02715066666667, "fusion_lon": 0.0}, {"is_reserved": 0, "type": "electric_scooter", "fusion_lat": 0.0, "is_disabled": 0, "rental_uris": {"ios": "https://dc.lft.to/lastmile_qr_scan", "android": "https://dc.lft.to/lastmile_qr_scan"}, "bike_id": "a185929d557894f4fd06d1acb58e4c4a", "lat": 38.92317166666667, "name": "a185929d557894f4fd06d1acb58e4c4a", "lon": -77.02894616666667, "fusion_lon": 0.0}, {"is_reserved": 0, "type": "electric_scooter", "fusion_lat": 0.0, "is_disabled": 0, "rental_uris": {"ios": "https://dc.lft.to/lastmile_qr_scan", "android": "https://dc.lft.to/lastmile_qr_scan"}, "bike_id": "cf7255d1f5f30dc69133c1d54150a374", "lat": 38.9378345, "name": "cf7255d1f5f30dc69133c1d54150a374", "lon": -77.02309216666667, "fusion_lon": 0.0}, {"is_reserved": 0, "type": "electric_scooter", "fusion_lat": 0.0, "is_disabled": 0, "rental_uris": {"ios": "https://dc.lft.to/lastmile_qr_scan", "android": "https://dc.lft.to/lastmile_qr_scan"}, "bike_id": "d848d17ae2947f2cb758bae0f715e118", "lat": 38.92462116666667, "name": "d848d17ae2947f2cb758bae0f715e118", "lon": -77.07822766666666, "fusion_lon": 0.0}, {"is_reserved": 0, "type": "electric_scooter", "fusion_lat": 0.0, "is_disabled": 0, "rental_uris": {"ios": "https://dc.lft.to/lastmile_qr_scan", "android": "https://dc.lft.to/lastmile_qr_scan"}, "bike_id": "dc1a4c92d07c5bfd0e3e480009aff408", "lat": 38.90655433333333, "name": "dc1a4c92d07c5bfd0e3e480009aff408", "lon": -77.04558866666666, "fusion_lon": 0.0}, {"is_reserved": 0, "type": "electric_scooter", "fusion_lat": 0.0, "is_disabled": 0, "rental_uris": {"ios": "https://dc.lft.to/lastmile_qr_scan", "android": "https://dc.lft.to/lastmile_qr_scan"}, "bike_id": "b1545683b40c51569b76239f804f383a", "lat": 38.84276833333333, "name": "b1545683b40c51569b76239f804f383a", "lon": -76.9884275, "fusion_lon": 0.0}, {"is_reserved": 0, "type": "electric_scooter", "fusion_lat": 0.0, "is_disabled": 0, "rental_uris": {"ios": "https://dc.lft.to/lastmile_qr_scan", "android": "https://dc.lft.to/lastmile_qr_scan"}, "bike_id": "27dbbb74e2e40213b9acf2def808c2e1", "lat": 38.88303416666667, "name": "27dbbb74e2e40213b9acf2def808c2e1", "lon": -76.93482416666667, "fusion_lon": 0.0}, {"is_reserved": 0, "type": "electric_bike", "fusion_lat": 0.0, "is_disabled": 0, "rental_uris": {"ios": "https://dc.lft.to/lastmile_qr_scan", "android": "https://dc.lft.to/lastmile_qr_scan"}, "bike_id": "a924fef9c0c90a46872f6c65f376f184", "lat": 39.0064635, "name": "a924fef9c0c90a46872f6c65f376f184", "lon": -76.9002075, "fusion_lon": 0.0}, {"is_reserved": 0, "type": "electric_scooter", "fusion_lat": 0.0, "is_disabled": 0, "rental_uris": {"ios": "https://dc.lft.to/lastmile_qr_scan", "android": "https://dc.lft.to/lastmile_qr_scan"}, "bike_id": "242387376a0036846e12657c7201598f", "lat": 38.90524716666667, "name": "242387376a0036846e12657c7201598f", "lon": -77.0171285, "fusion_lon": 0.0}, {"is_reserved": 0, "type": "electric_scooter", "fusion_lat": 0.0, "is_disabled": 0, "rental_uris": {"ios": "https://dc.lft.to/lastmile_qr_scan", "android": "https://dc.lft.to/lastmile_qr_scan"}, "bike_id": "f471905f3f36df776b7c1446bc80ac46", "lat": 38.924185666666666, "name": "f471905f3f36df776b7c1446bc80ac46", "lon": -77.02010866666667, "fusion_lon": 0.0}, {"is_reserved": 0, "type": "electric_bike", "fusion_lat": 0.0, "is_disabled": 0, "rental_uris": {"ios": "https://dc.lft.to/lastmile_qr_scan", "android": "https://dc.lft.to/lastmile_qr_scan"}, "bike_id": "4fd7e5bc823e1f02166fd0f927487a55", "lat": 38.852451, "name": "4fd7e5bc823e1f02166fd0f927487a55", "lon": -77.11409883333333, "fusion_lon": 0.0}, {"is_reserved": 0, "type": "electric_scooter", "fusion_lat": 0.0, "is_disabled": 0, "rental_uris": {"ios": "https://dc.lft.to/lastmile_qr_scan", "android": "https://dc.lft.to/lastmile_qr_scan"}, "bike_id": "6517e3425970c2f89e5a15e3c95508ca", "lat": 38.90143366666667, "name": "6517e3425970c2f89e5a15e3c95508ca", "lon": -76.9298575, "fusion_lon": 0.0}, {"is_reserved": 0, "type": "electric_scooter", "fusion_lat": 0.0, "is_disabled": 0, "rental_uris": {"ios": "https://dc.lft.to/lastmile_qr_scan", "android": "https://dc.lft.to/lastmile_qr_scan"}, "bike_id": "61c74b1b266e3db7ebf3c3efca5aee62", "lat": 38.89515433333333, "name": "61c74b1b266e3db7ebf3c3efca5aee62", "lon": -77.02290783333333, "fusion_lon": 0.0}, {"is_reserved": 0, "type": "electric_scooter", "fusion_lat": 0.0, "is_disabled": 0, "rental_uris": {"ios": "https://dc.lft.to/lastmile_qr_scan", "android": "https://dc.lft.to/lastmile_qr_scan"}, "bike_id": "5c5616c7dd4f6934bbb415d36948cb69", "lat": 38.905401833333336, "name": "5c5616c7dd4f6934bbb415d36948cb69", "lon": -76.98643516666667, "fusion_lon": 0.0}, {"is_reserved": 0, "type": "electric_scooter", "fusion_lat": 0.0, "is_disabled": 0, "rental_uris": {"ios": "https://dc.lft.to/lastmile_qr_scan", "android": "https://dc.lft.to/lastmile_qr_scan"}, "bike_id": "b9c526c5260775136a3cf94d97578c78", "lat": 38.874738666666666, "name": "b9c526c5260775136a3cf94d97578c78", "lon": -77.00512766666667, "fusion_lon": 0.0}, {"is_reserved": 0, "type": "electric_bike", "fusion_lat": 0.0, "is_disabled": 0, "rental_uris": {"ios": "https://dc.lft.to/lastmile_qr_scan", "android": "https://dc.lft.to/lastmile_qr_scan"}, "bike_id": "578264d983c15871a8dd285ad186c8e6", "lat": 38.862599333333335, "name": "578264d983c15871a8dd285ad186c8e6", "lon": -76.9835335, "fusion_lon": 0.0}, {"is_reserved": 0, "type": "electric_scooter", "fusion_lat": 0.0, "is_disabled": 0, "rental_uris": {"ios": "https://dc.lft.to/lastmile_qr_scan", "android": "https://dc.lft.to/lastmile_qr_scan"}, "bike_id": "4eb61c2cb597dd99e160568b37e4dcad", "lat": 38.88358783333334, "name": "4eb61c2cb597dd99e160568b37e4dcad", "lon": -76.99504916666666, "fusion_lon": 0.0}, {"is_reserved": 0, "type": "electric_scooter", "fusion_lat": 0.0, "is_disabled": 0, "rental_uris": {"ios": "https://dc.lft.to/lastmile_qr_scan", "android": "https://dc.lft.to/lastmile_qr_scan"}, "bike_id": "0a7094be5170a15c5997d78310240922", "lat": 38.881817166666664, "name": "0a7094be5170a15c5997d78310240922", "lon": -77.00892466666667, "fusion_lon": 0.0}, {"is_reserved": 0, "type": "electric_scooter", "fusion_lat": 0.0, "is_disabled": 0, "rental_uris": {"ios": "https://dc.lft.to/lastmile_qr_scan", "android": "https://dc.lft.to/lastmile_qr_scan"}, "bike_id": "62e5af7326d0a76828b65ac24e2fd0e2", "lat": 38.9089815, "name": "62e5af7326d0a76828b65ac24e2fd0e2", "lon": -77.04382766666667, "fusion_lon": 0.0}, {"is_reserved": 0, "type": "electric_scooter", "fusion_lat": 0.0, "is_disabled": 0, "rental_uris": {"ios": "https://dc.lft.to/lastmile_qr_scan", "android": "https://dc.lft.to/lastmile_qr_scan"}, "bike_id": "32b9c1915f8d6fc2fcaea191a601d1c9", "lat": 38.923458333333336, "name": "32b9c1915f8d6fc2fcaea191a601d1c9", "lon": -76.9986965, "fusion_lon": 0.0}, {"is_reserved": 0, "type": "electric_scooter", "fusion_lat": 0.0, "is_disabled": 0, "rental_uris": {"ios": "https://dc.lft.to/lastmile_qr_scan", "android": "https://dc.lft.to/lastmile_qr_scan"}, "bike_id": "c90336a6d8ad50573577f10ff676aa9f", "lat": 38.94447533333334, "name": "c90336a6d8ad50573577f10ff676aa9f", "lon": -77.02908933333333, "fusion_lon": 0.0}, {"is_reserved": 0, "type": "electric_scooter", "fusion_lat": 0.0, "is_disabled": 0, "rental_uris": {"ios": "https://dc.lft.to/lastmile_qr_scan", "android": "https://dc.lft.to/lastmile_qr_scan"}, "bike_id": "54f16d6898081b943fba1f7419d7adec", "lat": 38.92265616666667, "name": "54f16d6898081b943fba1f7419d7adec", "lon": -77.03666283333334, "fusion_lon": 0.0}, {"is_reserved": 0, "type": "electric_scooter", "fusion_lat": 0.0, "is_disabled": 0, "rental_uris": {"ios": "https://dc.lft.to/lastmile_qr_scan", "android": "https://dc.lft.to/lastmile_qr_scan"}, "bike_id": "73f158619f6d4cc47d88128c8b2e9b5b", "lat": 38.88859033333333, "name": "73f158619f6d4cc47d88128c8b2e9b5b", "lon": -76.97905233333333, "fusion_lon": 0.0}, {"is_reserved": 0, "type": "electric_scooter", "fusion_lat": 0.0, "is_disabled": 0, "rental_uris": {"ios": "https://dc.lft.to/lastmile_qr_scan", "android": "https://dc.lft.to/lastmile_qr_scan"}, "bike_id": "1bf160f1538f82d6699bfca64e5b0420", "lat": 38.92923433333333, "name": "1bf160f1538f82d6699bfca64e5b0420", "lon": -77.026303, "fusion_lon": 0.0}, {"is_reserved": 0, "type": "electric_scooter", "fusion_lat": 0.0, "is_disabled": 0, "rental_uris": {"ios": "https://dc.lft.to/lastmile_qr_scan", "android": "https://dc.lft.to/lastmile_qr_scan"}, "bike_id": "4d3cbd2256007eab4ac8b6f47132ec6c", "lat": 38.87826183333333, "name": "4d3cbd2256007eab4ac8b6f47132ec6c", "lon": -77.00852116666667, "fusion_lon": 0.0}, {"is_reserved": 0, "type": "electric_scooter", "fusion_lat": 0.0, "is_disabled": 0, "rental_uris": {"ios": "https://dc.lft.to/lastmile_qr_scan", "android": "https://dc.lft.to/lastmile_qr_scan"}, "bike_id": "a2534da9d16b479d8734e4722cfe62cd", "lat": 38.900665833333335, "name": "a2534da9d16b479d8734e4722cfe62cd", "lon": -77.02596266666667, "fusion_lon": 0.0}, {"is_reserved": 0, "type": "electric_scooter", "fusion_lat": 0.0, "is_disabled": 0, "rental_uris": {"ios": "https://dc.lft.to/lastmile_qr_scan", "android": "https://dc.lft.to/lastmile_qr_scan"}, "bike_id": "f3e5beabb053f5781782dbbdea22e089", "lat": 38.915612333333335, "name": "f3e5beabb053f5781782dbbdea22e089", "lon": -77.04287266666667, "fusion_lon": 0.0}, {"is_reserved": 0, "type": "electric_bike", "fusion_lat": 0.0, "is_disabled": 0, "rental_uris": {"ios": "https://dc.lft.to/lastmile_qr_scan", "android": "https://dc.lft.to/lastmile_qr_scan"}, "bike_id": "c9710706e0ce4b4ef4c7cc2aaeb984ac", "lat": 38.9525075, "name": "c9710706e0ce4b4ef4c7cc2aaeb984ac", "lon": -77.0962485, "fusion_lon": 0.0}, {"is_reserved": 0, "type": "electric_scooter", "fusion_lat": 0.0, "is_disabled": 0, "rental_uris": {"ios": "https://dc.lft.to/lastmile_qr_scan", "android": "https://dc.lft.to/lastmile_qr_scan"}, "bike_id": "7e11b940f55499492c37ed51aaea07be", "lat": 38.902700833333334, "name": "7e11b940f55499492c37ed51aaea07be", "lon": -77.04522466666667, "fusion_lon": 0.0}, {"is_reserved": 0, "type": "electric_scooter", "fusion_lat": 0.0, "is_disabled": 0, "rental_uris": {"ios": "https://dc.lft.to/lastmile_qr_scan", "android": "https://dc.lft.to/lastmile_qr_scan"}, "bike_id": "e7ba46967ff8cbfe6760a8a820c5aae5", "lat": 38.92256533333333, "name": "e7ba46967ff8cbfe6760a8a820c5aae5", "lon": -77.02975633333334, "fusion_lon": 0.0}, {"is_reserved": 0, "type": "electric_bike", "fusion_lat": 0.0, "is_disabled": 0, "rental_uris": {"ios": "https://dc.lft.to/lastmile_qr_scan", "android": "https://dc.lft.to/lastmile_qr_scan"}, "bike_id": "be58588f260064a9e41f09900b63ab01", "lat": 38.9728565, "name": "be58588f260064a9e41f09900b63ab01", "lon": -77.03627133333333, "fusion_lon": 0.0}, {"is_reserved": 0, "type": "electric_bike", "fusion_lat": 0.0, "is_disabled": 0, "rental_uris": {"ios": "https://dc.lft.to/lastmile_qr_scan", "android": "https://dc.lft.to/lastmile_qr_scan"}, "bike_id": "316b2aa0636896d0586a24792c4c4290", "lat": 38.8429075, "name": "316b2aa0636896d0586a24792c4c4290", "lon": -77.06379166666666, "fusion_lon": 0.0}, {"is_reserved": 0, "type": "electric_scooter", "fusion_lat": 0.0, "is_disabled": 0, "rental_uris": {"ios": "https://dc.lft.to/lastmile_qr_scan", "android": "https://dc.lft.to/lastmile_qr_scan"}, "bike_id": "33a9120af24ea99416f540cba7477c08", "lat": 38.92659233333333, "name": "33a9120af24ea99416f540cba7477c08", "lon": -76.99297016666667, "fusion_lon": 0.0}, {"is_reserved": 0, "type": "electric_scooter", "fusion_lat": 0.0, "is_disabled": 0, "rental_uris": {"ios": "https://dc.lft.to/lastmile_qr_scan", "android": "https://dc.lft.to/lastmile_qr_scan"}, "bike_id": "16122121dbb168fbacf57d20a0391e6c", "lat": 38.917158, "name": "16122121dbb168fbacf57d20a0391e6c", "lon": -77.041564, "fusion_lon": 0.0}, {"is_reserved": 0, "type": "electric_scooter", "fusion_lat": 0.0, "is_disabled": 0, "rental_uris": {"ios": "https://dc.lft.to/lastmile_qr_scan", "android": "https://dc.lft.to/lastmile_qr_scan"}, "bike_id": "1be4e7f02ab60302c9a84d8b8e4634a4", "lat": 38.89360766666667, "name": "1be4e7f02ab60302c9a84d8b8e4634a4", "lon": -77.04476966666667, "fusion_lon": 0.0}, {"is_reserved": 0, "type": "electric_bike", "fusion_lat": 0.0, "is_disabled": 0, "rental_uris": {"ios": "https://dc.lft.to/lastmile_qr_scan", "android": "https://dc.lft.to/lastmile_qr_scan"}, "bike_id": "d00d02148310c17097a7aec2c0f34a35", "lat": 38.904014333333336, "name": "d00d02148310c17097a7aec2c0f34a35", "lon": -77.05125833333334, "fusion_lon": 0.0}, {"is_reserved": 0, "type": "electric_bike", "fusion_lat": 0.0, "is_disabled": 0, "rental_uris": {"ios": "https://dc.lft.to/lastmile_qr_scan", "android": "https://dc.lft.to/lastmile_qr_scan"}, "bike_id": "ade7bcd9fe9ac7e7db15be43d2b0822b", "lat": 38.94167766666666, "name": "ade7bcd9fe9ac7e7db15be43d2b0822b", "lon": -76.99404666666666, "fusion_lon": 0.0}, {"is_reserved": 0, "type": "electric_scooter", "fusion_lat": 0.0, "is_disabled": 0, "rental_uris": {"ios": "https://dc.lft.to/lastmile_qr_scan", "android": "https://dc.lft.to/lastmile_qr_scan"}, "bike_id": "629fd6845d1031c7ec70aa3eeb425cd3", "lat": 38.91465216666667, "name": "629fd6845d1031c7ec70aa3eeb425cd3", "lon": -77.0021225, "fusion_lon": 0.0}, {"is_reserved": 0, "type": "electric_scooter", "fusion_lat": 0.0, "is_disabled": 0, "rental_uris": {"ios": "https://dc.lft.to/lastmile_qr_scan", "android": "https://dc.lft.to/lastmile_qr_scan"}, "bike_id": "dfb6a0b8cababa46304251101539fdab", "lat": 38.95743816666667, "name": "dfb6a0b8cababa46304251101539fdab", "lon": -77.02321733333333, "fusion_lon": 0.0}, {"is_reserved": 0, "type": "electric_scooter", "fusion_lat": 0.0, "is_disabled": 0, "rental_uris": {"ios": "https://dc.lft.to/lastmile_qr_scan", "android": "https://dc.lft.to/lastmile_qr_scan"}, "bike_id": "7fee325d701862746236e936a2abdd2a", "lat": 38.9398115, "name": "7fee325d701862746236e936a2abdd2a", "lon": -77.0190995, "fusion_lon": 0.0}, {"is_reserved": 0, "type": "electric_bike", "fusion_lat": 0.0, "is_disabled": 0, "rental_uris": {"ios": "https://dc.lft.to/lastmile_qr_scan", "android": "https://dc.lft.to/lastmile_qr_scan"}, "bike_id": "e542a8c288d91761f30ba48d137cdc0e", "lat": 39.00451483333333, "name": "e542a8c288d91761f30ba48d137cdc0e", "lon": -76.90117766666667, "fusion_lon": 0.0}, {"is_reserved": 0, "type": "electric_scooter", "fusion_lat": 0.0, "is_disabled": 0, "rental_uris": {"ios": "https://dc.lft.to/lastmile_qr_scan", "android": "https://dc.lft.to/lastmile_qr_scan"}, "bike_id": "13cdad6f9588e62f924c49dfc70ef261", "lat": 38.926099, "name": "13cdad6f9588e62f924c49dfc70ef261", "lon": -77.006593, "fusion_lon": 0.0}, {"is_reserved": 0, "type": "electric_bike", "fusion_lat": 0.0, "is_disabled": 0, "rental_uris": {"ios": "https://dc.lft.to/lastmile_qr_scan", "android": "https://dc.lft.to/lastmile_qr_scan"}, "bike_id": "3346e8b0d40bf5161af7ea3af7fb0c0f", "lat": 38.90035816666666, "name": "3346e8b0d40bf5161af7ea3af7fb0c0f", "lon": -76.99031166666667, "fusion_lon": 0.0}, {"is_reserved": 0, "type": "electric_scooter", "fusion_lat": 0.0, "is_disabled": 0, "rental_uris": {"ios": "https://dc.lft.to/lastmile_qr_scan", "android": "https://dc.lft.to/lastmile_qr_scan"}, "bike_id": "61ef10e6af0a58e56f69cc79c8c4c124", "lat": 38.912596666666666, "name": "61ef10e6af0a58e56f69cc79c8c4c124", "lon": -77.0478945, "fusion_lon": 0.0}, {"is_reserved": 0, "type": "electric_scooter", "fusion_lat": 0.0, "is_disabled": 0, "rental_uris": {"ios": "https://dc.lft.to/lastmile_qr_scan", "android": "https://dc.lft.to/lastmile_qr_scan"}, "bike_id": "3c75f5534366ccac6ab7bb45a4757ebd", "lat": 38.87569233333333, "name": "3c75f5534366ccac6ab7bb45a4757ebd", "lon": -77.00600216666666, "fusion_lon": 0.0}, {"is_reserved": 0, "type": "electric_scooter", "fusion_lat": 0.0, "is_disabled": 0, "rental_uris": {"ios": "https://dc.lft.to/lastmile_qr_scan", "android": "https://dc.lft.to/lastmile_qr_scan"}, "bike_id": "5079cb4f70bd9d5fde8e8bb4b8f66bcc", "lat": 38.901734833333336, "name": "5079cb4f70bd9d5fde8e8bb4b8f66bcc", "lon": -77.00212716666667, "fusion_lon": 0.0}, {"is_reserved": 0, "type": "electric_scooter", "fusion_lat": 0.0, "is_disabled": 0, "rental_uris": {"ios": "https://dc.lft.to/lastmile_qr_scan", "android": "https://dc.lft.to/lastmile_qr_scan"}, "bike_id": "5473def2f870fa1f32c48234c4ef9189", "lat": 38.939684166666666, "name": "5473def2f870fa1f32c48234c4ef9189", "lon": -77.03253166666667, "fusion_lon": 0.0}, {"is_reserved": 0, "type": "electric_scooter", "fusion_lat": 0.0, "is_disabled": 0, "rental_uris": {"ios": "https://dc.lft.to/lastmile_qr_scan", "android": "https://dc.lft.to/lastmile_qr_scan"}, "bike_id": "6e63ee09d84e24c2d9073fe467d96f4a", "lat": 38.9261235, "name": "6e63ee09d84e24c2d9073fe467d96f4a", "lon": -77.0216165, "fusion_lon": 0.0}, {"is_reserved": 0, "type": "electric_scooter", "fusion_lat": 0.0, "is_disabled": 0, "rental_uris": {"ios": "https://dc.lft.to/lastmile_qr_scan", "android": "https://dc.lft.to/lastmile_qr_scan"}, "bike_id": "2e1a0fe63f42446a172ce80b535ea791", "lat": 38.90249, "name": "2e1a0fe63f42446a172ce80b535ea791", "lon": -77.04675716666667, "fusion_lon": 0.0}, {"is_reserved": 0, "type": "electric_scooter", "fusion_lat": 0.0, "is_disabled": 0, "rental_uris": {"ios": "https://dc.lft.to/lastmile_qr_scan", "android": "https://dc.lft.to/lastmile_qr_scan"}, "bike_id": "78eb3d1584d8e5066743ab425a6d0d68", "lat": 38.910348166666665, "name": "78eb3d1584d8e5066743ab425a6d0d68", "lon": -77.03801566666667, "fusion_lon": 0.0}, {"is_reserved": 0, "type": "electric_scooter", "fusion_lat": 0.0, "is_disabled": 0, "rental_uris": {"ios": "https://dc.lft.to/lastmile_qr_scan", "android": "https://dc.lft.to/lastmile_qr_scan"}, "bike_id": "cb505952dfc94a4514fa8776ac0d8cd3", "lat": 38.898187666666665, "name": "cb505952dfc94a4514fa8776ac0d8cd3", "lon": -77.00210383333334, "fusion_lon": 0.0}, {"is_reserved": 0, "type": "electric_scooter", "fusion_lat": 0.0, "is_disabled": 0, "rental_uris": {"ios": "https://dc.lft.to/lastmile_qr_scan", "android": "https://dc.lft.to/lastmile_qr_scan"}, "bike_id": "e21d93be02920dd3cc85aa4fc19a1bec", "lat": 38.9097755, "name": "e21d93be02920dd3cc85aa4fc19a1bec", "lon": -77.02281116666667, "fusion_lon": 0.0}, {"is_reserved": 0, "type": "electric_scooter", "fusion_lat": 0.0, "is_disabled": 0, "rental_uris": {"ios": "https://dc.lft.to/lastmile_qr_scan", "android": "https://dc.lft.to/lastmile_qr_scan"}, "bike_id": "076a511e638afe3a5ac3002bf32c981a", "lat": 38.90570666666667, "name": "076a511e638afe3a5ac3002bf32c981a", "lon": -77.038359, "fusion_lon": 0.0}, {"is_reserved": 0, "type": "electric_scooter", "fusion_lat": 0.0, "is_disabled": 0, "rental_uris": {"ios": "https://dc.lft.to/lastmile_qr_scan", "android": "https://dc.lft.to/lastmile_qr_scan"}, "bike_id": "c8d7e00dc8c1388e5b0a4243a1b51424", "lat": 38.89830366666666, "name": "c8d7e00dc8c1388e5b0a4243a1b51424", "lon": -77.029704, "fusion_lon": 0.0}, {"is_reserved": 0, "type": "electric_scooter", "fusion_lat": 0.0, "is_disabled": 0, "rental_uris": {"ios": "https://dc.lft.to/lastmile_qr_scan", "android": "https://dc.lft.to/lastmile_qr_scan"}, "bike_id": "5c6e536f30a524fe5f6687b5c612c29c", "lat": 38.91695583333333, "name": "5c6e536f30a524fe5f6687b5c612c29c", "lon": -77.05299183333334, "fusion_lon": 0.0}, {"is_reserved": 0, "type": "electric_scooter", "fusion_lat": 0.0, "is_disabled": 0, "rental_uris": {"ios": "https://dc.lft.to/lastmile_qr_scan", "android": "https://dc.lft.to/lastmile_qr_scan"}, "bike_id": "6055721cc34dff7f7a9efcf2e41d7538", "lat": 38.907746833333334, "name": "6055721cc34dff7f7a9efcf2e41d7538", "lon": -77.0716475, "fusion_lon": 0.0}, {"is_reserved": 0, "type": "electric_bike", "fusion_lat": 0.0, "is_disabled": 0, "rental_uris": {"ios": "https://dc.lft.to/lastmile_qr_scan", "android": "https://dc.lft.to/lastmile_qr_scan"}, "bike_id": "1d21c1a57f8c447a6916dc2ce824b581", "lat": 38.822059833333334, "name": "1d21c1a57f8c447a6916dc2ce824b581", "lon": -76.97707533333333, "fusion_lon": 0.0}, {"is_reserved": 0, "type": "electric_scooter", "fusion_lat": 0.0, "is_disabled": 0, "rental_uris": {"ios": "https://dc.lft.to/lastmile_qr_scan", "android": "https://dc.lft.to/lastmile_qr_scan"}, "bike_id": "06a9e7e29a41f5ff8ddaf735b9fcbc69", "lat": 38.915462, "name": "06a9e7e29a41f5ff8ddaf735b9fcbc69", "lon": -77.012698, "fusion_lon": 0.0}, {"is_reserved": 0, "type": "electric_scooter", "fusion_lat": 0.0, "is_disabled": 0, "rental_uris": {"ios": "https://dc.lft.to/lastmile_qr_scan", "android": "https://dc.lft.to/lastmile_qr_scan"}, "bike_id": "f2a9297b5500e04376c171cd58c22bd9", "lat": 38.8711225, "name": "f2a9297b5500e04376c171cd58c22bd9", "lon": -77.00744366666666, "fusion_lon": 0.0}, {"is_reserved": 0, "type": "electric_scooter", "fusion_lat": 0.0, "is_disabled": 0, "rental_uris": {"ios": "https://dc.lft.to/lastmile_qr_scan", "android": "https://dc.lft.to/lastmile_qr_scan"}, "bike_id": "29cb1f3f7a3eaf7b4c95cfed81ff0662", "lat": 38.93380533333333, "name": "29cb1f3f7a3eaf7b4c95cfed81ff0662", "lon": -77.07240066666667, "fusion_lon": 0.0}, {"is_reserved": 0, "type": "electric_scooter", "fusion_lat": 0.0, "is_disabled": 0, "rental_uris": {"ios": "https://dc.lft.to/lastmile_qr_scan", "android": "https://dc.lft.to/lastmile_qr_scan"}, "bike_id": "fd93496fadb8323734e51be6616002bf", "lat": 38.90074233333333, "name": "fd93496fadb8323734e51be6616002bf", "lon": -77.04824233333333, "fusion_lon": 0.0}, {"is_reserved": 0, "type": "electric_scooter", "fusion_lat": 0.0, "is_disabled": 0, "rental_uris": {"ios": "https://dc.lft.to/lastmile_qr_scan", "android": "https://dc.lft.to/lastmile_qr_scan"}, "bike_id": "7bc9b69a2abe75251ae7193e88a90c99", "lat": 38.944645333333334, "name": "7bc9b69a2abe75251ae7193e88a90c99", "lon": -77.00657633333333, "fusion_lon": 0.0}, {"is_reserved": 0, "type": "electric_scooter", "fusion_lat": 0.0, "is_disabled": 0, "rental_uris": {"ios": "https://dc.lft.to/lastmile_qr_scan", "android": "https://dc.lft.to/lastmile_qr_scan"}, "bike_id": "37d489d75d729c3dd281fb9e61520949", "lat": 38.90264283333333, "name": "37d489d75d729c3dd281fb9e61520949", "lon": -76.98980133333333, "fusion_lon": 0.0}, {"is_reserved": 0, "type": "electric_scooter", "fusion_lat": 0.0, "is_disabled": 0, "rental_uris": {"ios": "https://dc.lft.to/lastmile_qr_scan", "android": "https://dc.lft.to/lastmile_qr_scan"}, "bike_id": "5315a019ddfed251bd89765ffce10301", "lat": 38.92073216666667, "name": "5315a019ddfed251bd89765ffce10301", "lon": -77.02514916666667, "fusion_lon": 0.0}, {"is_reserved": 0, "type": "electric_scooter", "fusion_lat": 0.0, "is_disabled": 0, "rental_uris": {"ios": "https://dc.lft.to/lastmile_qr_scan", "android": "https://dc.lft.to/lastmile_qr_scan"}, "bike_id": "4d7b133dd318f205c4086c99dd5ac2cf", "lat": 38.912132666666665, "name": "4d7b133dd318f205c4086c99dd5ac2cf", "lon": -77.00662083333333, "fusion_lon": 0.0}, {"is_reserved": 0, "type": "electric_scooter", "fusion_lat": 0.0, "is_disabled": 0, "rental_uris": {"ios": "https://dc.lft.to/lastmile_qr_scan", "android": "https://dc.lft.to/lastmile_qr_scan"}, "bike_id": "11308eb2cb340c943b87ecce90810c92", "lat": 38.89980716666667, "name": "11308eb2cb340c943b87ecce90810c92", "lon": -77.02206983333333, "fusion_lon": 0.0}, {"is_reserved": 0, "type": "electric_scooter", "fusion_lat": 0.0, "is_disabled": 0, "rental_uris": {"ios": "https://dc.lft.to/lastmile_qr_scan", "android": "https://dc.lft.to/lastmile_qr_scan"}, "bike_id": "a49e250efa464d06a0e0f4e07aaad456", "lat": 38.9091405, "name": "a49e250efa464d06a0e0f4e07aaad456", "lon": -77.02292216666666, "fusion_lon": 0.0}, {"is_reserved": 0, "type": "electric_scooter", "fusion_lat": 0.0, "is_disabled": 0, "rental_uris": {"ios": "https://dc.lft.to/lastmile_qr_scan", "android": "https://dc.lft.to/lastmile_qr_scan"}, "bike_id": "989fedbb09390531ffe09be84fae2d00", "lat": 38.90154283333333, "name": "989fedbb09390531ffe09be84fae2d00", "lon": -77.029745, "fusion_lon": 0.0}, {"is_reserved": 0, "type": "electric_scooter", "fusion_lat": 0.0, "is_disabled": 0, "rental_uris": {"ios": "https://dc.lft.to/lastmile_qr_scan", "android": "https://dc.lft.to/lastmile_qr_scan"}, "bike_id": "a82654c127e7b3180e2840c71990114f", "lat": 38.857168, "name": "a82654c127e7b3180e2840c71990114f", "lon": -76.9809445, "fusion_lon": 0.0}, {"is_reserved": 0, "type": "electric_bike", "fusion_lat": 0.0, "is_disabled": 0, "rental_uris": {"ios": "https://dc.lft.to/lastmile_qr_scan", "android": "https://dc.lft.to/lastmile_qr_scan"}, "bike_id": "dfa86b2d53e3c8833e3f4eeed571b8ab", "lat": 38.928025833333336, "name": "dfa86b2d53e3c8833e3f4eeed571b8ab", "lon": -77.22943616666667, "fusion_lon": 0.0}, {"is_reserved": 0, "type": "electric_scooter", "fusion_lat": 0.0, "is_disabled": 0, "rental_uris": {"ios": "https://dc.lft.to/lastmile_qr_scan", "android": "https://dc.lft.to/lastmile_qr_scan"}, "bike_id": "58e45fdfee36826505a549f51ca7ce25", "lat": 38.916941333333334, "name": "58e45fdfee36826505a549f51ca7ce25", "lon": -77.05301, "fusion_lon": 0.0}, {"is_reserved": 0, "type": "electric_scooter", "fusion_lat": 0.0, "is_disabled": 0, "rental_uris": {"ios": "https://dc.lft.to/lastmile_qr_scan", "android": "https://dc.lft.to/lastmile_qr_scan"}, "bike_id": "d8dd4c25222dcbb98490ba08f7ba6743", "lat": 38.885415, "name": "d8dd4c25222dcbb98490ba08f7ba6743", "lon": -76.98540866666667, "fusion_lon": 0.0}, {"is_reserved": 0, "type": "electric_scooter", "fusion_lat": 0.0, "is_disabled": 0, "rental_uris": {"ios": "https://dc.lft.to/lastmile_qr_scan", "android": "https://dc.lft.to/lastmile_qr_scan"}, "bike_id": "d1635d67a0aa44239b07a8ebbfec8005", "lat": 38.92183133333333, "name": "d1635d67a0aa44239b07a8ebbfec8005", "lon": -77.02103183333334, "fusion_lon": 0.0}, {"is_reserved": 0, "type": "electric_scooter", "fusion_lat": 0.0, "is_disabled": 0, "rental_uris": {"ios": "https://dc.lft.to/lastmile_qr_scan", "android": "https://dc.lft.to/lastmile_qr_scan"}, "bike_id": "4136da8b6cf952aff6ff16510b014b40", "lat": 38.923648, "name": "4136da8b6cf952aff6ff16510b014b40", "lon": -77.01911183333333, "fusion_lon": 0.0}, {"is_reserved": 0, "type": "electric_scooter", "fusion_lat": 0.0, "is_disabled": 0, "rental_uris": {"ios": "https://dc.lft.to/lastmile_qr_scan", "android": "https://dc.lft.to/lastmile_qr_scan"}, "bike_id": "3536bd23dd52b5f8a17df089c21f2a82", "lat": 38.902612833333336, "name": "3536bd23dd52b5f8a17df089c21f2a82", "lon": -76.99384033333334, "fusion_lon": 0.0}, {"is_reserved": 0, "type": "electric_scooter", "fusion_lat": 0.0, "is_disabled": 0, "rental_uris": {"ios": "https://dc.lft.to/lastmile_qr_scan", "android": "https://dc.lft.to/lastmile_qr_scan"}, "bike_id": "ff61292a59c53bf0b985ac81b71de066", "lat": 38.901318333333336, "name": "ff61292a59c53bf0b985ac81b71de066", "lon": -77.00358983333334, "fusion_lon": 0.0}, {"is_reserved": 0, "type": "electric_scooter", "fusion_lat": 0.0, "is_disabled": 0, "rental_uris": {"ios": "https://dc.lft.to/lastmile_qr_scan", "android": "https://dc.lft.to/lastmile_qr_scan"}, "bike_id": "d89ab15d0951a730b6a781954b339c75", "lat": 38.898822833333334, "name": "d89ab15d0951a730b6a781954b339c75", "lon": -76.9317415, "fusion_lon": 0.0}, {"is_reserved": 0, "type": "electric_scooter", "fusion_lat": 0.0, "is_disabled": 0, "rental_uris": {"ios": "https://dc.lft.to/lastmile_qr_scan", "android": "https://dc.lft.to/lastmile_qr_scan"}, "bike_id": "510901308b9d1beae59550c3b26b26df", "lat": 38.964273166666665, "name": "510901308b9d1beae59550c3b26b26df", "lon": -77.07426433333333, "fusion_lon": 0.0}, {"is_reserved": 0, "type": "electric_scooter", "fusion_lat": 0.0, "is_disabled": 0, "rental_uris": {"ios": "https://dc.lft.to/lastmile_qr_scan", "android": "https://dc.lft.to/lastmile_qr_scan"}, "bike_id": "8a958ad090633d319e046b068989bc1d", "lat": 38.898048833333334, "name": "8a958ad090633d319e046b068989bc1d", "lon": -77.05204266666667, "fusion_lon": 0.0}, {"is_reserved": 0, "type": "electric_scooter", "fusion_lat": 0.0, "is_disabled": 0, "rental_uris": {"ios": "https://dc.lft.to/lastmile_qr_scan", "android": "https://dc.lft.to/lastmile_qr_scan"}, "bike_id": "bda688bb24bad868b19a5956a6e9bdae", "lat": 38.910914, "name": "bda688bb24bad868b19a5956a6e9bdae", "lon": -77.021999, "fusion_lon": 0.0}, {"is_reserved": 0, "type": "electric_bike", "fusion_lat": 0.0, "is_disabled": 0, "rental_uris": {"ios": "https://dc.lft.to/lastmile_qr_scan", "android": "https://dc.lft.to/lastmile_qr_scan"}, "bike_id": "6c8eb760adeb0c57f88179097d6a765a", "lat": 38.83413, "name": "6c8eb760adeb0c57f88179097d6a765a", "lon": -77.05001583333333, "fusion_lon": 0.0}, {"is_reserved": 0, "type": "electric_scooter", "fusion_lat": 0.0, "is_disabled": 0, "rental_uris": {"ios": "https://dc.lft.to/lastmile_qr_scan", "android": "https://dc.lft.to/lastmile_qr_scan"}, "bike_id": "9cd186a4719e75c73f5f2d61404f76ec", "lat": 38.8982645, "name": "9cd186a4719e75c73f5f2d61404f76ec", "lon": -77.0463915, "fusion_lon": 0.0}, {"is_reserved": 0, "type": "electric_scooter", "fusion_lat": 0.0, "is_disabled": 0, "rental_uris": {"ios": "https://dc.lft.to/lastmile_qr_scan", "android": "https://dc.lft.to/lastmile_qr_scan"}, "bike_id": "763ea60a580a385820937c1b2250a8d7", "lat": 38.93563866666667, "name": "763ea60a580a385820937c1b2250a8d7", "lon": -77.07368783333334, "fusion_lon": 0.0}, {"is_reserved": 0, "type": "electric_scooter", "fusion_lat": 0.0, "is_disabled": 0, "rental_uris": {"ios": "https://dc.lft.to/lastmile_qr_scan", "android": "https://dc.lft.to/lastmile_qr_scan"}, "bike_id": "20b9b5d5e4c44344347ea4298fa660ed", "lat": 38.91278283333333, "name": "20b9b5d5e4c44344347ea4298fa660ed", "lon": -77.04744866666667, "fusion_lon": 0.0}, {"is_reserved": 0, "type": "electric_bike", "fusion_lat": 0.0, "is_disabled": 0, "rental_uris": {"ios": "https://dc.lft.to/lastmile_qr_scan", "android": "https://dc.lft.to/lastmile_qr_scan"}, "bike_id": "af03c29240d5d1d057139e0c369d973d", "lat": 38.8866135, "name": "af03c29240d5d1d057139e0c369d973d", "lon": -77.16238266666667, "fusion_lon": 0.0}, {"is_reserved": 0, "type": "electric_scooter", "fusion_lat": 0.0, "is_disabled": 0, "rental_uris": {"ios": "https://dc.lft.to/lastmile_qr_scan", "android": "https://dc.lft.to/lastmile_qr_scan"}, "bike_id": "c7bbc38d3f0a85b2d3111c9ba29713db", "lat": 38.927474833333335, "name": "c7bbc38d3f0a85b2d3111c9ba29713db", "lon": -77.023737, "fusion_lon": 0.0}, {"is_reserved": 0, "type": "electric_scooter", "fusion_lat": 0.0, "is_disabled": 0, "rental_uris": {"ios": "https://dc.lft.to/lastmile_qr_scan", "android": "https://dc.lft.to/lastmile_qr_scan"}, "bike_id": "dd5093442bbf86aed9f2e56aac028418", "lat": 38.9009195, "name": "dd5093442bbf86aed9f2e56aac028418", "lon": -77.05012266666667, "fusion_lon": 0.0}, {"is_reserved": 0, "type": "electric_scooter", "fusion_lat": 0.0, "is_disabled": 0, "rental_uris": {"ios": "https://dc.lft.to/lastmile_qr_scan", "android": "https://dc.lft.to/lastmile_qr_scan"}, "bike_id": "93e69a63d6cffa016650faba574060a4", "lat": 38.934025, "name": "93e69a63d6cffa016650faba574060a4", "lon": -77.03271066666667, "fusion_lon": 0.0}, {"is_reserved": 0, "type": "electric_scooter", "fusion_lat": 0.0, "is_disabled": 0, "rental_uris": {"ios": "https://dc.lft.to/lastmile_qr_scan", "android": "https://dc.lft.to/lastmile_qr_scan"}, "bike_id": "825f93bc896e66c03e205695c3ab9547", "lat": 38.902414666666665, "name": "825f93bc896e66c03e205695c3ab9547", "lon": -76.990291, "fusion_lon": 0.0}, {"is_reserved": 0, "type": "electric_scooter", "fusion_lat": 0.0, "is_disabled": 0, "rental_uris": {"ios": "https://dc.lft.to/lastmile_qr_scan", "android": "https://dc.lft.to/lastmile_qr_scan"}, "bike_id": "538ff418c3480218952a1b3b4d10abbe", "lat": 38.90511216666667, "name": "538ff418c3480218952a1b3b4d10abbe", "lon": -76.99041416666667, "fusion_lon": 0.0}, {"is_reserved": 0, "type": "electric_scooter", "fusion_lat": 0.0, "is_disabled": 0, "rental_uris": {"ios": "https://dc.lft.to/lastmile_qr_scan", "android": "https://dc.lft.to/lastmile_qr_scan"}, "bike_id": "71c5536c50e4fa1d92e1f8b7ea6f3bfd", "lat": 38.967630166666666, "name": "71c5536c50e4fa1d92e1f8b7ea6f3bfd", "lon": -77.034217, "fusion_lon": 0.0}, {"is_reserved": 0, "type": "electric_bike", "fusion_lat": 0.0, "is_disabled": 0, "rental_uris": {"ios": "https://dc.lft.to/lastmile_qr_scan", "android": "https://dc.lft.to/lastmile_qr_scan"}, "bike_id": "905204e6451b8b995d82d039d6981112", "lat": 38.940995666666666, "name": "905204e6451b8b995d82d039d6981112", "lon": -76.95625633333333, "fusion_lon": 0.0}, {"is_reserved": 0, "type": "electric_scooter", "fusion_lat": 0.0, "is_disabled": 0, "rental_uris": {"ios": "https://dc.lft.to/lastmile_qr_scan", "android": "https://dc.lft.to/lastmile_qr_scan"}, "bike_id": "83f909de8d35eeec6806d69f9df9f617", "lat": 38.90863983333333, "name": "83f909de8d35eeec6806d69f9df9f617", "lon": -76.999567, "fusion_lon": 0.0}, {"is_reserved": 0, "type": "electric_scooter", "fusion_lat": 0.0, "is_disabled": 0, "rental_uris": {"ios": "https://dc.lft.to/lastmile_qr_scan", "android": "https://dc.lft.to/lastmile_qr_scan"}, "bike_id": "15d7423dd9d587a89d9c2f2ef84ae967", "lat": 38.900118, "name": "15d7423dd9d587a89d9c2f2ef84ae967", "lon": -77.00400966666666, "fusion_lon": 0.0}, {"is_reserved": 0, "type": "electric_scooter", "fusion_lat": 0.0, "is_disabled": 0, "rental_uris": {"ios": "https://dc.lft.to/lastmile_qr_scan", "android": "https://dc.lft.to/lastmile_qr_scan"}, "bike_id": "50de56a9e81c8abfb2343acd79dddbd7", "lat": 38.907369, "name": "50de56a9e81c8abfb2343acd79dddbd7", "lon": -77.068902, "fusion_lon": 0.0}, {"is_reserved": 0, "type": "electric_scooter", "fusion_lat": 0.0, "is_disabled": 0, "rental_uris": {"ios": "https://dc.lft.to/lastmile_qr_scan", "android": "https://dc.lft.to/lastmile_qr_scan"}, "bike_id": "30c9aecab46733d4263959f9a1b18489", "lat": 38.923081833333335, "name": "30c9aecab46733d4263959f9a1b18489", "lon": -77.0366015, "fusion_lon": 0.0}, {"is_reserved": 0, "type": "electric_bike", "fusion_lat": 0.0, "is_disabled": 0, "rental_uris": {"ios": "https://dc.lft.to/lastmile_qr_scan", "android": "https://dc.lft.to/lastmile_qr_scan"}, "bike_id": "8b29fba419008a30df5760e8f001eba5", "lat": 38.922921, "name": "8b29fba419008a30df5760e8f001eba5", "lon": -76.99771716666666, "fusion_lon": 0.0}, {"is_reserved": 0, "type": "electric_scooter", "fusion_lat": 0.0, "is_disabled": 0, "rental_uris": {"ios": "https://dc.lft.to/lastmile_qr_scan", "android": "https://dc.lft.to/lastmile_qr_scan"}, "bike_id": "6fc59402c180eda78045381e444c41e0", "lat": 38.89221033333333, "name": "6fc59402c180eda78045381e444c41e0", "lon": -77.02219633333333, "fusion_lon": 0.0}, {"is_reserved": 0, "type": "electric_scooter", "fusion_lat": 0.0, "is_disabled": 0, "rental_uris": {"ios": "https://dc.lft.to/lastmile_qr_scan", "android": "https://dc.lft.to/lastmile_qr_scan"}, "bike_id": "ca23deb69915ab83967f2dfc5c1c323e", "lat": 38.89447883333333, "name": "ca23deb69915ab83967f2dfc5c1c323e", "lon": -76.9772845, "fusion_lon": 0.0}, {"is_reserved": 0, "type": "electric_scooter", "fusion_lat": 0.0, "is_disabled": 0, "rental_uris": {"ios": "https://dc.lft.to/lastmile_qr_scan", "android": "https://dc.lft.to/lastmile_qr_scan"}, "bike_id": "52f7269d852a8b7221c689e0cd494481", "lat": 38.901869833333336, "name": "52f7269d852a8b7221c689e0cd494481", "lon": -76.999593, "fusion_lon": 0.0}, {"is_reserved": 0, "type": "electric_scooter", "fusion_lat": 0.0, "is_disabled": 0, "rental_uris": {"ios": "https://dc.lft.to/lastmile_qr_scan", "android": "https://dc.lft.to/lastmile_qr_scan"}, "bike_id": "1165b9cb55f329b67b244ae2fd66f5f0", "lat": 38.88486983333333, "name": "1165b9cb55f329b67b244ae2fd66f5f0", "lon": -77.02622433333333, "fusion_lon": 0.0}, {"is_reserved": 0, "type": "electric_bike", "fusion_lat": 0.0, "is_disabled": 0, "rental_uris": {"ios": "https://dc.lft.to/lastmile_qr_scan", "android": "https://dc.lft.to/lastmile_qr_scan"}, "bike_id": "56cb94a36672a80df62d0f3f898808e0", "lat": 38.83866016666666, "name": "56cb94a36672a80df62d0f3f898808e0", "lon": -76.99695516666667, "fusion_lon": 0.0}, {"is_reserved": 0, "type": "electric_scooter", "fusion_lat": 0.0, "is_disabled": 0, "rental_uris": {"ios": "https://dc.lft.to/lastmile_qr_scan", "android": "https://dc.lft.to/lastmile_qr_scan"}, "bike_id": "3cfb1b3cdd18f0968cd44c67ab058a2a", "lat": 38.91562366666667, "name": "3cfb1b3cdd18f0968cd44c67ab058a2a", "lon": -77.04096983333334, "fusion_lon": 0.0}, {"is_reserved": 0, "type": "electric_scooter", "fusion_lat": 0.0, "is_disabled": 0, "rental_uris": {"ios": "https://dc.lft.to/lastmile_qr_scan", "android": "https://dc.lft.to/lastmile_qr_scan"}, "bike_id": "7940cd73a27ae9770b2289e73197d60f", "lat": 38.883868, "name": "7940cd73a27ae9770b2289e73197d60f", "lon": -77.0302885, "fusion_lon": 0.0}, {"is_reserved": 0, "type": "electric_scooter", "fusion_lat": 0.0, "is_disabled": 0, "rental_uris": {"ios": "https://dc.lft.to/lastmile_qr_scan", "android": "https://dc.lft.to/lastmile_qr_scan"}, "bike_id": "dac578cb8eb6a4b175ed4a260c1fb9e2", "lat": 38.924643333333336, "name": "dac578cb8eb6a4b175ed4a260c1fb9e2", "lon": -77.05755033333334, "fusion_lon": 0.0}, {"is_reserved": 0, "type": "electric_scooter", "fusion_lat": 0.0, "is_disabled": 0, "rental_uris": {"ios": "https://dc.lft.to/lastmile_qr_scan", "android": "https://dc.lft.to/lastmile_qr_scan"}, "bike_id": "d0f34386f3fda8eb44617c8e81930965", "lat": 38.91814266666667, "name": "d0f34386f3fda8eb44617c8e81930965", "lon": -77.031308, "fusion_lon": 0.0}, {"is_reserved": 0, "type": "electric_bike", "fusion_lat": 0.0, "is_disabled": 0, "rental_uris": {"ios": "https://dc.lft.to/lastmile_qr_scan", "android": "https://dc.lft.to/lastmile_qr_scan"}, "bike_id": "5418f1013e51678c27f60b3401361edc", "lat": 38.90219416666667, "name": "5418f1013e51678c27f60b3401361edc", "lon": -76.93178033333334, "fusion_lon": 0.0}, {"is_reserved": 0, "type": "electric_scooter", "fusion_lat": 0.0, "is_disabled": 0, "rental_uris": {"ios": "https://dc.lft.to/lastmile_qr_scan", "android": "https://dc.lft.to/lastmile_qr_scan"}, "bike_id": "465e2164af5a317a6ed4fe81c501410d", "lat": 38.901706833333336, "name": "465e2164af5a317a6ed4fe81c501410d", "lon": -77.04860833333333, "fusion_lon": 0.0}, {"is_reserved": 0, "type": "electric_scooter", "fusion_lat": 0.0, "is_disabled": 0, "rental_uris": {"ios": "https://dc.lft.to/lastmile_qr_scan", "android": "https://dc.lft.to/lastmile_qr_scan"}, "bike_id": "b1b2c246484e21d1d9a73024a5a6ad77", "lat": 38.89782616666667, "name": "b1b2c246484e21d1d9a73024a5a6ad77", "lon": -76.970992, "fusion_lon": 0.0}, {"is_reserved": 0, "type": "electric_scooter", "fusion_lat": 0.0, "is_disabled": 0, "rental_uris": {"ios": "https://dc.lft.to/lastmile_qr_scan", "android": "https://dc.lft.to/lastmile_qr_scan"}, "bike_id": "7bd06392b6fb175b41120835a7f9041c", "lat": 38.9242615, "name": "7bd06392b6fb175b41120835a7f9041c", "lon": -77.04480416666667, "fusion_lon": 0.0}, {"is_reserved": 0, "type": "electric_scooter", "fusion_lat": 0.0, "is_disabled": 0, "rental_uris": {"ios": "https://dc.lft.to/lastmile_qr_scan", "android": "https://dc.lft.to/lastmile_qr_scan"}, "bike_id": "3dda90c722580fd4f5228d2c996848d2", "lat": 38.883587166666665, "name": "3dda90c722580fd4f5228d2c996848d2", "lon": -76.9279175, "fusion_lon": 0.0}, {"is_reserved": 0, "type": "electric_scooter", "fusion_lat": 0.0, "is_disabled": 0, "rental_uris": {"ios": "https://dc.lft.to/lastmile_qr_scan", "android": "https://dc.lft.to/lastmile_qr_scan"}, "bike_id": "caec77499ecd9545970d0e0c0f952de7", "lat": 38.90278883333333, "name": "caec77499ecd9545970d0e0c0f952de7", "lon": -77.03433283333334, "fusion_lon": 0.0}, {"is_reserved": 0, "type": "electric_scooter", "fusion_lat": 0.0, "is_disabled": 0, "rental_uris": {"ios": "https://dc.lft.to/lastmile_qr_scan", "android": "https://dc.lft.to/lastmile_qr_scan"}, "bike_id": "7bde465fafb5a4b4e70f75a5dba05a69", "lat": 38.912669, "name": "7bde465fafb5a4b4e70f75a5dba05a69", "lon": -77.03142616666666, "fusion_lon": 0.0}, {"is_reserved": 0, "type": "electric_scooter", "fusion_lat": 0.0, "is_disabled": 0, "rental_uris": {"ios": "https://dc.lft.to/lastmile_qr_scan", "android": "https://dc.lft.to/lastmile_qr_scan"}, "bike_id": "4b54bce33df707f9cac51d0447ed869e", "lat": 38.90259183333333, "name": "4b54bce33df707f9cac51d0447ed869e", "lon": -76.9284925, "fusion_lon": 0.0}, {"is_reserved": 0, "type": "electric_scooter", "fusion_lat": 0.0, "is_disabled": 0, "rental_uris": {"ios": "https://dc.lft.to/lastmile_qr_scan", "android": "https://dc.lft.to/lastmile_qr_scan"}, "bike_id": "87513f7b6a2faef75d895668edab691b", "lat": 38.9191415, "name": "87513f7b6a2faef75d895668edab691b", "lon": -77.04804816666666, "fusion_lon": 0.0}, {"is_reserved": 0, "type": "electric_scooter", "fusion_lat": 0.0, "is_disabled": 0, "rental_uris": {"ios": "https://dc.lft.to/lastmile_qr_scan", "android": "https://dc.lft.to/lastmile_qr_scan"}, "bike_id": "09c502b2cdd48ccf16818a06444d2b79", "lat": 38.87651116666667, "name": "09c502b2cdd48ccf16818a06444d2b79", "lon": -77.00815733333333, "fusion_lon": 0.0}, {"is_reserved": 0, "type": "electric_scooter", "fusion_lat": 0.0, "is_disabled": 0, "rental_uris": {"ios": "https://dc.lft.to/lastmile_qr_scan", "android": "https://dc.lft.to/lastmile_qr_scan"}, "bike_id": "74070ebb77f8cb5374906d2fb89d6f30", "lat": 38.892238666666664, "name": "74070ebb77f8cb5374906d2fb89d6f30", "lon": -77.04326, "fusion_lon": 0.0}, {"is_reserved": 0, "type": "electric_scooter", "fusion_lat": 0.0, "is_disabled": 0, "rental_uris": {"ios": "https://dc.lft.to/lastmile_qr_scan", "android": "https://dc.lft.to/lastmile_qr_scan"}, "bike_id": "6cd052084dc4f3e5d1ee9dfc46f2b5cc", "lat": 38.892221, "name": "6cd052084dc4f3e5d1ee9dfc46f2b5cc", "lon": -77.0445625, "fusion_lon": 0.0}, {"is_reserved": 0, "type": "electric_bike", "fusion_lat": 0.0, "is_disabled": 0, "rental_uris": {"ios": "https://dc.lft.to/lastmile_qr_scan", "android": "https://dc.lft.to/lastmile_qr_scan"}, "bike_id": "90dbf7940e245a31e49ef843878437b9", "lat": 38.973463, "name": "90dbf7940e245a31e49ef843878437b9", "lon": -77.01796383333334, "fusion_lon": 0.0}, {"is_reserved": 0, "type": "electric_scooter", "fusion_lat": 0.0, "is_disabled": 0, "rental_uris": {"ios": "https://dc.lft.to/lastmile_qr_scan", "android": "https://dc.lft.to/lastmile_qr_scan"}, "bike_id": "f795f7c4dcb943238708dce944f98541", "lat": 38.92861383333333, "name": "f795f7c4dcb943238708dce944f98541", "lon": -77.078887, "fusion_lon": 0.0}, {"is_reserved": 0, "type": "electric_scooter", "fusion_lat": 0.0, "is_disabled": 0, "rental_uris": {"ios": "https://dc.lft.to/lastmile_qr_scan", "android": "https://dc.lft.to/lastmile_qr_scan"}, "bike_id": "ec09bd5f2e9b270e5d1d962eac5c5166", "lat": 38.902708833333335, "name": "ec09bd5f2e9b270e5d1d962eac5c5166", "lon": -77.04696216666666, "fusion_lon": 0.0}, {"is_reserved": 0, "type": "electric_scooter", "fusion_lat": 0.0, "is_disabled": 0, "rental_uris": {"ios": "https://dc.lft.to/lastmile_qr_scan", "android": "https://dc.lft.to/lastmile_qr_scan"}, "bike_id": "545360584275b10b39307592450cf353", "lat": 38.888353333333335, "name": "545360584275b10b39307592450cf353", "lon": -77.04908033333334, "fusion_lon": 0.0}, {"is_reserved": 0, "type": "electric_scooter", "fusion_lat": 0.0, "is_disabled": 0, "rental_uris": {"ios": "https://dc.lft.to/lastmile_qr_scan", "android": "https://dc.lft.to/lastmile_qr_scan"}, "bike_id": "5eabe8553172acd011cbd113c7277add", "lat": 38.92568816666667, "name": "5eabe8553172acd011cbd113c7277add", "lon": -77.02275483333334, "fusion_lon": 0.0}, {"is_reserved": 0, "type": "electric_scooter", "fusion_lat": 0.0, "is_disabled": 0, "rental_uris": {"ios": "https://dc.lft.to/lastmile_qr_scan", "android": "https://dc.lft.to/lastmile_qr_scan"}, "bike_id": "b7f80092361de0e316478ec3c010198c", "lat": 38.925405, "name": "b7f80092361de0e316478ec3c010198c", "lon": -77.034718, "fusion_lon": 0.0}, {"is_reserved": 0, "type": "electric_scooter", "fusion_lat": 0.0, "is_disabled": 0, "rental_uris": {"ios": "https://dc.lft.to/lastmile_qr_scan", "android": "https://dc.lft.to/lastmile_qr_scan"}, "bike_id": "d00dee32f68dcf0718a4f693ceb552d7", "lat": 38.88624633333333, "name": "d00dee32f68dcf0718a4f693ceb552d7", "lon": -76.98708916666666, "fusion_lon": 0.0}, {"is_reserved": 0, "type": "electric_scooter", "fusion_lat": 0.0, "is_disabled": 0, "rental_uris": {"ios": "https://dc.lft.to/lastmile_qr_scan", "android": "https://dc.lft.to/lastmile_qr_scan"}, "bike_id": "f097c7c2683f738388898f98fb3123d9", "lat": 38.89231516666667, "name": "f097c7c2683f738388898f98fb3123d9", "lon": -77.02384066666667, "fusion_lon": 0.0}, {"is_reserved": 0, "type": "electric_scooter", "fusion_lat": 0.0, "is_disabled": 0, "rental_uris": {"ios": "https://dc.lft.to/lastmile_qr_scan", "android": "https://dc.lft.to/lastmile_qr_scan"}, "bike_id": "92c01a7434c5fee37123bce45cea3b4f", "lat": 38.9092535, "name": "92c01a7434c5fee37123bce45cea3b4f", "lon": -77.0487325, "fusion_lon": 0.0}, {"is_reserved": 0, "type": "electric_scooter", "fusion_lat": 0.0, "is_disabled": 0, "rental_uris": {"ios": "https://dc.lft.to/lastmile_qr_scan", "android": "https://dc.lft.to/lastmile_qr_scan"}, "bike_id": "23ebaecb32310bd012bf3dcfaa22982b", "lat": 38.941945, "name": "23ebaecb32310bd012bf3dcfaa22982b", "lon": -77.08827283333333, "fusion_lon": 0.0}, {"is_reserved": 0, "type": "electric_scooter", "fusion_lat": 0.0, "is_disabled": 0, "rental_uris": {"ios": "https://dc.lft.to/lastmile_qr_scan", "android": "https://dc.lft.to/lastmile_qr_scan"}, "bike_id": "daf9a31959e80e0a837062e5197eded3", "lat": 38.90561833333334, "name": "daf9a31959e80e0a837062e5197eded3", "lon": -77.04868116666667, "fusion_lon": 0.0}, {"is_reserved": 0, "type": "electric_scooter", "fusion_lat": 0.0, "is_disabled": 0, "rental_uris": {"ios": "https://dc.lft.to/lastmile_qr_scan", "android": "https://dc.lft.to/lastmile_qr_scan"}, "bike_id": "0b6765da5b08892f1eb517b89c7b141f", "lat": 38.91729433333333, "name": "0b6765da5b08892f1eb517b89c7b141f", "lon": -77.025017, "fusion_lon": 0.0}, {"is_reserved": 0, "type": "electric_scooter", "fusion_lat": 0.0, "is_disabled": 0, "rental_uris": {"ios": "https://dc.lft.to/lastmile_qr_scan", "android": "https://dc.lft.to/lastmile_qr_scan"}, "bike_id": "a9fd1890a00bf399182d0d6e4fc2f019", "lat": 38.9073985, "name": "a9fd1890a00bf399182d0d6e4fc2f019", "lon": -77.0397835, "fusion_lon": 0.0}, {"is_reserved": 0, "type": "electric_scooter", "fusion_lat": 0.0, "is_disabled": 0, "rental_uris": {"ios": "https://dc.lft.to/lastmile_qr_scan", "android": "https://dc.lft.to/lastmile_qr_scan"}, "bike_id": "f5a7652e5634cb095fc425cd9821ae9a", "lat": 38.90396916666667, "name": "f5a7652e5634cb095fc425cd9821ae9a", "lon": -76.98079516666667, "fusion_lon": 0.0}, {"is_reserved": 0, "type": "electric_scooter", "fusion_lat": 0.0, "is_disabled": 0, "rental_uris": {"ios": "https://dc.lft.to/lastmile_qr_scan", "android": "https://dc.lft.to/lastmile_qr_scan"}, "bike_id": "d0613266385f5a9b540b9b7268ba6d8f", "lat": 38.885758, "name": "d0613266385f5a9b540b9b7268ba6d8f", "lon": -77.01209866666666, "fusion_lon": 0.0}, {"is_reserved": 0, "type": "electric_scooter", "fusion_lat": 0.0, "is_disabled": 0, "rental_uris": {"ios": "https://dc.lft.to/lastmile_qr_scan", "android": "https://dc.lft.to/lastmile_qr_scan"}, "bike_id": "dd36398ca61142e64b51d4239911e07a", "lat": 38.908162, "name": "dd36398ca61142e64b51d4239911e07a", "lon": -77.08425883333334, "fusion_lon": 0.0}, {"is_reserved": 0, "type": "electric_scooter", "fusion_lat": 0.0, "is_disabled": 0, "rental_uris": {"ios": "https://dc.lft.to/lastmile_qr_scan", "android": "https://dc.lft.to/lastmile_qr_scan"}, "bike_id": "261c00746c4c8cdeefc8e9b892ffec99", "lat": 38.90726333333333, "name": "261c00746c4c8cdeefc8e9b892ffec99", "lon": -77.01135966666666, "fusion_lon": 0.0}, {"is_reserved": 0, "type": "electric_scooter", "fusion_lat": 0.0, "is_disabled": 0, "rental_uris": {"ios": "https://dc.lft.to/lastmile_qr_scan", "android": "https://dc.lft.to/lastmile_qr_scan"}, "bike_id": "cfc49eeb2fe4942beeccc4cfe3501b5c", "lat": 38.9006645, "name": "cfc49eeb2fe4942beeccc4cfe3501b5c", "lon": -77.02588066666667, "fusion_lon": 0.0}, {"is_reserved": 0, "type": "electric_scooter", "fusion_lat": 0.0, "is_disabled": 0, "rental_uris": {"ios": "https://dc.lft.to/lastmile_qr_scan", "android": "https://dc.lft.to/lastmile_qr_scan"}, "bike_id": "5244cc40f2c9fb75cc3276703e75d127", "lat": 38.93099633333333, "name": "5244cc40f2c9fb75cc3276703e75d127", "lon": -77.03807233333333, "fusion_lon": 0.0}, {"is_reserved": 0, "type": "electric_bike", "fusion_lat": 0.0, "is_disabled": 0, "rental_uris": {"ios": "https://dc.lft.to/lastmile_qr_scan", "android": "https://dc.lft.to/lastmile_qr_scan"}, "bike_id": "21e15ba6a3ff76c1182a7f2789ec77b9", "lat": 38.84619466666667, "name": "21e15ba6a3ff76c1182a7f2789ec77b9", "lon": -76.97838233333333, "fusion_lon": 0.0}, {"is_reserved": 0, "type": "electric_scooter", "fusion_lat": 0.0, "is_disabled": 0, "rental_uris": {"ios": "https://dc.lft.to/lastmile_qr_scan", "android": "https://dc.lft.to/lastmile_qr_scan"}, "bike_id": "fa12a5f53fb04f187c4d141820bcc6c3", "lat": 38.8874065, "name": "fa12a5f53fb04f187c4d141820bcc6c3", "lon": -77.03179683333333, "fusion_lon": 0.0}, {"is_reserved": 0, "type": "electric_scooter", "fusion_lat": 0.0, "is_disabled": 0, "rental_uris": {"ios": "https://dc.lft.to/lastmile_qr_scan", "android": "https://dc.lft.to/lastmile_qr_scan"}, "bike_id": "62467d2145cfc798cb50f070aa8eb076", "lat": 38.9137235, "name": "62467d2145cfc798cb50f070aa8eb076", "lon": -77.064351, "fusion_lon": 0.0}, {"is_reserved": 0, "type": "electric_scooter", "fusion_lat": 0.0, "is_disabled": 0, "rental_uris": {"ios": "https://dc.lft.to/lastmile_qr_scan", "android": "https://dc.lft.to/lastmile_qr_scan"}, "bike_id": "4eda732c783d43a73963adea3709c396", "lat": 38.88709333333333, "name": "4eda732c783d43a73963adea3709c396", "lon": -76.98348683333333, "fusion_lon": 0.0}, {"is_reserved": 0, "type": "electric_scooter", "fusion_lat": 0.0, "is_disabled": 0, "rental_uris": {"ios": "https://dc.lft.to/lastmile_qr_scan", "android": "https://dc.lft.to/lastmile_qr_scan"}, "bike_id": "f84217b3afbd849724409562ff0ba8b9", "lat": 38.92655333333333, "name": "f84217b3afbd849724409562ff0ba8b9", "lon": -77.024321, "fusion_lon": 0.0}, {"is_reserved": 0, "type": "electric_scooter", "fusion_lat": 0.0, "is_disabled": 0, "rental_uris": {"ios": "https://dc.lft.to/lastmile_qr_scan", "android": "https://dc.lft.to/lastmile_qr_scan"}, "bike_id": "e4e8f573658f9bbdce3fc2df92e1817b", "lat": 38.913308, "name": "e4e8f573658f9bbdce3fc2df92e1817b", "lon": -77.030439, "fusion_lon": 0.0}, {"is_reserved": 0, "type": "electric_scooter", "fusion_lat": 0.0, "is_disabled": 0, "rental_uris": {"ios": "https://dc.lft.to/lastmile_qr_scan", "android": "https://dc.lft.to/lastmile_qr_scan"}, "bike_id": "074f349876294df5f03c7cbea51439ab", "lat": 38.9213715, "name": "074f349876294df5f03c7cbea51439ab", "lon": -77.04570166666667, "fusion_lon": 0.0}, {"is_reserved": 0, "type": "electric_scooter", "fusion_lat": 0.0, "is_disabled": 0, "rental_uris": {"ios": "https://dc.lft.to/lastmile_qr_scan", "android": "https://dc.lft.to/lastmile_qr_scan"}, "bike_id": "50ef53673f75c1c8feec488b465f3130", "lat": 38.90628433333333, "name": "50ef53673f75c1c8feec488b465f3130", "lon": -77.02702816666667, "fusion_lon": 0.0}, {"is_reserved": 0, "type": "electric_scooter", "fusion_lat": 0.0, "is_disabled": 0, "rental_uris": {"ios": "https://dc.lft.to/lastmile_qr_scan", "android": "https://dc.lft.to/lastmile_qr_scan"}, "bike_id": "924e78c17f728bb03c4f41a7e1f2d9a6", "lat": 38.920505166666665, "name": "924e78c17f728bb03c4f41a7e1f2d9a6", "lon": -77.033813, "fusion_lon": 0.0}, {"is_reserved": 0, "type": "electric_scooter", "fusion_lat": 0.0, "is_disabled": 0, "rental_uris": {"ios": "https://dc.lft.to/lastmile_qr_scan", "android": "https://dc.lft.to/lastmile_qr_scan"}, "bike_id": "9ea50d24b592abe51c96e1e95feb4779", "lat": 38.918217, "name": "9ea50d24b592abe51c96e1e95feb4779", "lon": -77.01207266666667, "fusion_lon": 0.0}, {"is_reserved": 0, "type": "electric_scooter", "fusion_lat": 0.0, "is_disabled": 0, "rental_uris": {"ios": "https://dc.lft.to/lastmile_qr_scan", "android": "https://dc.lft.to/lastmile_qr_scan"}, "bike_id": "855ebc6d17b0b879bf5d61a4c0c056eb", "lat": 38.9227555, "name": "855ebc6d17b0b879bf5d61a4c0c056eb", "lon": -77.0423895, "fusion_lon": 0.0}, {"is_reserved": 0, "type": "electric_scooter", "fusion_lat": 0.0, "is_disabled": 0, "rental_uris": {"ios": "https://dc.lft.to/lastmile_qr_scan", "android": "https://dc.lft.to/lastmile_qr_scan"}, "bike_id": "2b76eec0eef539410a777e8d148f49f7", "lat": 38.92907866666667, "name": "2b76eec0eef539410a777e8d148f49f7", "lon": -77.03271416666666, "fusion_lon": 0.0}, {"is_reserved": 0, "type": "electric_scooter", "fusion_lat": 0.0, "is_disabled": 0, "rental_uris": {"ios": "https://dc.lft.to/lastmile_qr_scan", "android": "https://dc.lft.to/lastmile_qr_scan"}, "bike_id": "971548d7ab7603832842a9aff63f33a4", "lat": 38.92441433333333, "name": "971548d7ab7603832842a9aff63f33a4", "lon": -77.0213455, "fusion_lon": 0.0}, {"is_reserved": 0, "type": "electric_scooter", "fusion_lat": 0.0, "is_disabled": 0, "rental_uris": {"ios": "https://dc.lft.to/lastmile_qr_scan", "android": "https://dc.lft.to/lastmile_qr_scan"}, "bike_id": "0ae683d38c52c9e51bb90d4e66da9e24", "lat": 38.91700616666667, "name": "0ae683d38c52c9e51bb90d4e66da9e24", "lon": -77.02736366666667, "fusion_lon": 0.0}, {"is_reserved": 0, "type": "electric_scooter", "fusion_lat": 0.0, "is_disabled": 0, "rental_uris": {"ios": "https://dc.lft.to/lastmile_qr_scan", "android": "https://dc.lft.to/lastmile_qr_scan"}, "bike_id": "dcc92bdbb3a08ae64ab092c7a34fc8e7", "lat": 38.92413083333334, "name": "dcc92bdbb3a08ae64ab092c7a34fc8e7", "lon": -77.02035983333333, "fusion_lon": 0.0}, {"is_reserved": 0, "type": "electric_scooter", "fusion_lat": 0.0, "is_disabled": 0, "rental_uris": {"ios": "https://dc.lft.to/lastmile_qr_scan", "android": "https://dc.lft.to/lastmile_qr_scan"}, "bike_id": "b1cf5b346cee184b92dafa59afce685d", "lat": 38.92446316666667, "name": "b1cf5b346cee184b92dafa59afce685d", "lon": -77.02983983333333, "fusion_lon": 0.0}, {"is_reserved": 0, "type": "electric_scooter", "fusion_lat": 0.0, "is_disabled": 0, "rental_uris": {"ios": "https://dc.lft.to/lastmile_qr_scan", "android": "https://dc.lft.to/lastmile_qr_scan"}, "bike_id": "3fa7fe10c8816517a6d62ed042221f26", "lat": 38.95152516666667, "name": "3fa7fe10c8816517a6d62ed042221f26", "lon": -77.01867633333333, "fusion_lon": 0.0}, {"is_reserved": 0, "type": "electric_bike", "fusion_lat": 0.0, "is_disabled": 0, "rental_uris": {"ios": "https://dc.lft.to/lastmile_qr_scan", "android": "https://dc.lft.to/lastmile_qr_scan"}, "bike_id": "0775941afa7290b1abfb2a2d6f8c9e1b", "lat": 38.95185016666667, "name": "0775941afa7290b1abfb2a2d6f8c9e1b", "lon": -76.93548316666667, "fusion_lon": 0.0}, {"is_reserved": 0, "type": "electric_scooter", "fusion_lat": 0.0, "is_disabled": 0, "rental_uris": {"ios": "https://dc.lft.to/lastmile_qr_scan", "android": "https://dc.lft.to/lastmile_qr_scan"}, "bike_id": "613b309053e0eaaf30303d5c6b8567f1", "lat": 38.8923505, "name": "613b309053e0eaaf30303d5c6b8567f1", "lon": -76.999411, "fusion_lon": 0.0}, {"is_reserved": 0, "type": "electric_scooter", "fusion_lat": 0.0, "is_disabled": 0, "rental_uris": {"ios": "https://dc.lft.to/lastmile_qr_scan", "android": "https://dc.lft.to/lastmile_qr_scan"}, "bike_id": "d02106ad4e6a1d5aae74d6fe577dd03c", "lat": 38.9236495, "name": "d02106ad4e6a1d5aae74d6fe577dd03c", "lon": -77.02056466666667, "fusion_lon": 0.0}, {"is_reserved": 0, "type": "electric_bike", "fusion_lat": 0.0, "is_disabled": 0, "rental_uris": {"ios": "https://dc.lft.to/lastmile_qr_scan", "android": "https://dc.lft.to/lastmile_qr_scan"}, "bike_id": "043e944cb617339df546e00cc7c6441a", "lat": 38.9638145, "name": "043e944cb617339df546e00cc7c6441a", "lon": -77.01979333333334, "fusion_lon": 0.0}, {"is_reserved": 0, "type": "electric_scooter", "fusion_lat": 0.0, "is_disabled": 0, "rental_uris": {"ios": "https://dc.lft.to/lastmile_qr_scan", "android": "https://dc.lft.to/lastmile_qr_scan"}, "bike_id": "0dc525e15dd593b5b3b4aa4043e22229", "lat": 38.923496166666666, "name": "0dc525e15dd593b5b3b4aa4043e22229", "lon": -77.04029783333333, "fusion_lon": 0.0}, {"is_reserved": 0, "type": "electric_bike", "fusion_lat": 0.0, "is_disabled": 0, "rental_uris": {"ios": "https://dc.lft.to/lastmile_qr_scan", "android": "https://dc.lft.to/lastmile_qr_scan"}, "bike_id": "198ec8651c996141554dfe7fe3bd4827", "lat": 38.88635516666667, "name": "198ec8651c996141554dfe7fe3bd4827", "lon": -77.05793216666666, "fusion_lon": 0.0}, {"is_reserved": 0, "type": "electric_scooter", "fusion_lat": 0.0, "is_disabled": 0, "rental_uris": {"ios": "https://dc.lft.to/lastmile_qr_scan", "android": "https://dc.lft.to/lastmile_qr_scan"}, "bike_id": "e45ca0108b08f70b89f8b063104899a0", "lat": 38.929917333333336, "name": "e45ca0108b08f70b89f8b063104899a0", "lon": -77.03470483333334, "fusion_lon": 0.0}, {"is_reserved": 0, "type": "electric_scooter", "fusion_lat": 0.0, "is_disabled": 0, "rental_uris": {"ios": "https://dc.lft.to/lastmile_qr_scan", "android": "https://dc.lft.to/lastmile_qr_scan"}, "bike_id": "a8b234111a3ce75331be984fa083035e", "lat": 38.8954985, "name": "a8b234111a3ce75331be984fa083035e", "lon": -77.02688583333334, "fusion_lon": 0.0}, {"is_reserved": 0, "type": "electric_bike", "fusion_lat": 0.0, "is_disabled": 0, "rental_uris": {"ios": "https://dc.lft.to/lastmile_qr_scan", "android": "https://dc.lft.to/lastmile_qr_scan"}, "bike_id": "89d97a76fff4fd10f85da2950bc9f7dd", "lat": 38.88761683333333, "name": "89d97a76fff4fd10f85da2950bc9f7dd", "lon": -77.15656016666667, "fusion_lon": 0.0}, {"is_reserved": 0, "type": "electric_scooter", "fusion_lat": 0.0, "is_disabled": 0, "rental_uris": {"ios": "https://dc.lft.to/lastmile_qr_scan", "android": "https://dc.lft.to/lastmile_qr_scan"}, "bike_id": "d96ffc39f3c605559111bf74d02695be", "lat": 38.89613466666667, "name": "d96ffc39f3c605559111bf74d02695be", "lon": -77.0411675, "fusion_lon": 0.0}, {"is_reserved": 0, "type": "electric_bike", "fusion_lat": 0.0, "is_disabled": 0, "rental_uris": {"ios": "https://dc.lft.to/lastmile_qr_scan", "android": "https://dc.lft.to/lastmile_qr_scan"}, "bike_id": "59f59e40aee21b34fc5dd791d3283e05", "lat": 38.84692066666667, "name": "59f59e40aee21b34fc5dd791d3283e05", "lon": -76.980631, "fusion_lon": 0.0}, {"is_reserved": 0, "type": "electric_scooter", "fusion_lat": 0.0, "is_disabled": 0, "rental_uris": {"ios": "https://dc.lft.to/lastmile_qr_scan", "android": "https://dc.lft.to/lastmile_qr_scan"}, "bike_id": "cbcfe354741325a2a697756a2083e062", "lat": 38.89507016666667, "name": "cbcfe354741325a2a697756a2083e062", "lon": -77.02581033333334, "fusion_lon": 0.0}, {"is_reserved": 0, "type": "electric_scooter", "fusion_lat": 0.0, "is_disabled": 0, "rental_uris": {"ios": "https://dc.lft.to/lastmile_qr_scan", "android": "https://dc.lft.to/lastmile_qr_scan"}, "bike_id": "72dea8073baf2ca2a074bc8e18ca05a0", "lat": 38.87471816666667, "name": "72dea8073baf2ca2a074bc8e18ca05a0", "lon": -77.00517283333333, "fusion_lon": 0.0}, {"is_reserved": 0, "type": "electric_scooter", "fusion_lat": 0.0, "is_disabled": 0, "rental_uris": {"ios": "https://dc.lft.to/lastmile_qr_scan", "android": "https://dc.lft.to/lastmile_qr_scan"}, "bike_id": "cd5748cc3d386c8e46b047a876953097", "lat": 38.910547, "name": "cd5748cc3d386c8e46b047a876953097", "lon": -77.04401783333333, "fusion_lon": 0.0}, {"is_reserved": 0, "type": "electric_scooter", "fusion_lat": 0.0, "is_disabled": 0, "rental_uris": {"ios": "https://dc.lft.to/lastmile_qr_scan", "android": "https://dc.lft.to/lastmile_qr_scan"}, "bike_id": "d5ae72efb728f0fa7f302ae5353cd501", "lat": 38.936063, "name": "d5ae72efb728f0fa7f302ae5353cd501", "lon": -77.03879183333333, "fusion_lon": 0.0}, {"is_reserved": 0, "type": "electric_bike", "fusion_lat": 0.0, "is_disabled": 0, "rental_uris": {"ios": "https://dc.lft.to/lastmile_qr_scan", "android": "https://dc.lft.to/lastmile_qr_scan"}, "bike_id": "161f5b545812492168f19e4e9aef9726", "lat": 38.8972665, "name": "161f5b545812492168f19e4e9aef9726", "lon": -77.05524816666667, "fusion_lon": 0.0}, {"is_reserved": 0, "type": "electric_scooter", "fusion_lat": 0.0, "is_disabled": 0, "rental_uris": {"ios": "https://dc.lft.to/lastmile_qr_scan", "android": "https://dc.lft.to/lastmile_qr_scan"}, "bike_id": "25032816685b76dbd2d5d1eeb1423bef", "lat": 38.906136833333335, "name": "25032816685b76dbd2d5d1eeb1423bef", "lon": -77.05642733333333, "fusion_lon": 0.0}, {"is_reserved": 0, "type": "electric_scooter", "fusion_lat": 0.0, "is_disabled": 0, "rental_uris": {"ios": "https://dc.lft.to/lastmile_qr_scan", "android": "https://dc.lft.to/lastmile_qr_scan"}, "bike_id": "c19481ffc1cf3e6876891ef5598e2d7f", "lat": 38.93190216666667, "name": "c19481ffc1cf3e6876891ef5598e2d7f", "lon": -77.038974, "fusion_lon": 0.0}, {"is_reserved": 0, "type": "electric_scooter", "fusion_lat": 0.0, "is_disabled": 0, "rental_uris": {"ios": "https://dc.lft.to/lastmile_qr_scan", "android": "https://dc.lft.to/lastmile_qr_scan"}, "bike_id": "d63aba3ffc1a1d284fe95335e2bccf67", "lat": 38.91656316666667, "name": "d63aba3ffc1a1d284fe95335e2bccf67", "lon": -77.03857316666667, "fusion_lon": 0.0}, {"is_reserved": 0, "type": "electric_scooter", "fusion_lat": 0.0, "is_disabled": 0, "rental_uris": {"ios": "https://dc.lft.to/lastmile_qr_scan", "android": "https://dc.lft.to/lastmile_qr_scan"}, "bike_id": "fcfc8562103f9aec00742944a81b36e5", "lat": 38.9024205, "name": "fcfc8562103f9aec00742944a81b36e5", "lon": -77.02831316666666, "fusion_lon": 0.0}, {"is_reserved": 0, "type": "electric_scooter", "fusion_lat": 0.0, "is_disabled": 0, "rental_uris": {"ios": "https://dc.lft.to/lastmile_qr_scan", "android": "https://dc.lft.to/lastmile_qr_scan"}, "bike_id": "6803ee521cd215efe8dd4c4269985352", "lat": 38.910373666666665, "name": "6803ee521cd215efe8dd4c4269985352", "lon": -77.04373566666666, "fusion_lon": 0.0}, {"is_reserved": 0, "type": "electric_scooter", "fusion_lat": 0.0, "is_disabled": 0, "rental_uris": {"ios": "https://dc.lft.to/lastmile_qr_scan", "android": "https://dc.lft.to/lastmile_qr_scan"}, "bike_id": "b9d6addd70e51d2d87fa605916425aac", "lat": 38.91711866666667, "name": "b9d6addd70e51d2d87fa605916425aac", "lon": -77.00889866666667, "fusion_lon": 0.0}, {"is_reserved": 0, "type": "electric_scooter", "fusion_lat": 0.0, "is_disabled": 0, "rental_uris": {"ios": "https://dc.lft.to/lastmile_qr_scan", "android": "https://dc.lft.to/lastmile_qr_scan"}, "bike_id": "1ffe5a8a6b9ea9ade7b9cc31f5e80dc9", "lat": 38.91774316666667, "name": "1ffe5a8a6b9ea9ade7b9cc31f5e80dc9", "lon": -77.02110716666667, "fusion_lon": 0.0}, {"is_reserved": 0, "type": "electric_scooter", "fusion_lat": 0.0, "is_disabled": 0, "rental_uris": {"ios": "https://dc.lft.to/lastmile_qr_scan", "android": "https://dc.lft.to/lastmile_qr_scan"}, "bike_id": "640fdec150d336c4d32fc233e601eba6", "lat": 38.90243733333333, "name": "640fdec150d336c4d32fc233e601eba6", "lon": -77.028303, "fusion_lon": 0.0}, {"is_reserved": 0, "type": "electric_scooter", "fusion_lat": 0.0, "is_disabled": 0, "rental_uris": {"ios": "https://dc.lft.to/lastmile_qr_scan", "android": "https://dc.lft.to/lastmile_qr_scan"}, "bike_id": "63283088873456316ab8bf08ecb1ee30", "lat": 38.8804, "name": "63283088873456316ab8bf08ecb1ee30", "lon": -76.92718666666667, "fusion_lon": 0.0}, {"is_reserved": 0, "type": "electric_scooter", "fusion_lat": 0.0, "is_disabled": 0, "rental_uris": {"ios": "https://dc.lft.to/lastmile_qr_scan", "android": "https://dc.lft.to/lastmile_qr_scan"}, "bike_id": "10699f0307b3eb037856d600138ba7e4", "lat": 38.9012815, "name": "10699f0307b3eb037856d600138ba7e4", "lon": -77.00357166666667, "fusion_lon": 0.0}, {"is_reserved": 0, "type": "electric_scooter", "fusion_lat": 0.0, "is_disabled": 0, "rental_uris": {"ios": "https://dc.lft.to/lastmile_qr_scan", "android": "https://dc.lft.to/lastmile_qr_scan"}, "bike_id": "097476fbc8ad62d0c1e55d6aa91f2e7f", "lat": 38.89912233333333, "name": "097476fbc8ad62d0c1e55d6aa91f2e7f", "lon": -76.93385366666666, "fusion_lon": 0.0}, {"is_reserved": 0, "type": "electric_scooter", "fusion_lat": 0.0, "is_disabled": 0, "rental_uris": {"ios": "https://dc.lft.to/lastmile_qr_scan", "android": "https://dc.lft.to/lastmile_qr_scan"}, "bike_id": "900f4fddfad4b1c34d17c11485332184", "lat": 38.9168935, "name": "900f4fddfad4b1c34d17c11485332184", "lon": -77.03853233333334, "fusion_lon": 0.0}, {"is_reserved": 0, "type": "electric_scooter", "fusion_lat": 0.0, "is_disabled": 0, "rental_uris": {"ios": "https://dc.lft.to/lastmile_qr_scan", "android": "https://dc.lft.to/lastmile_qr_scan"}, "bike_id": "29527a013ffa38405711453c0f83da29", "lat": 38.922418666666665, "name": "29527a013ffa38405711453c0f83da29", "lon": -77.0366535, "fusion_lon": 0.0}, {"is_reserved": 0, "type": "electric_bike", "fusion_lat": 0.0, "is_disabled": 0, "rental_uris": {"ios": "https://dc.lft.to/lastmile_qr_scan", "android": "https://dc.lft.to/lastmile_qr_scan"}, "bike_id": "27239846e831bbdac5d6188d2a6326e2", "lat": 38.829264, "name": "27239846e831bbdac5d6188d2a6326e2", "lon": -77.068811, "fusion_lon": 0.0}, {"is_reserved": 0, "type": "electric_scooter", "fusion_lat": 0.0, "is_disabled": 0, "rental_uris": {"ios": "https://dc.lft.to/lastmile_qr_scan", "android": "https://dc.lft.to/lastmile_qr_scan"}, "bike_id": "5f8b9f40e475d67d6a46283a2b150091", "lat": 38.9119695, "name": "5f8b9f40e475d67d6a46283a2b150091", "lon": -77.03256833333333, "fusion_lon": 0.0}, {"is_reserved": 0, "type": "electric_scooter", "fusion_lat": 0.0, "is_disabled": 0, "rental_uris": {"ios": "https://dc.lft.to/lastmile_qr_scan", "android": "https://dc.lft.to/lastmile_qr_scan"}, "bike_id": "9eb000f4ad94ec5c8b4a73d51c22d7ad", "lat": 38.92710016666667, "name": "9eb000f4ad94ec5c8b4a73d51c22d7ad", "lon": -76.9607985, "fusion_lon": 0.0}, {"is_reserved": 0, "type": "electric_scooter", "fusion_lat": 0.0, "is_disabled": 0, "rental_uris": {"ios": "https://dc.lft.to/lastmile_qr_scan", "android": "https://dc.lft.to/lastmile_qr_scan"}, "bike_id": "c8add5ff66b7194c6f992cdb612b2f83", "lat": 38.88994683333333, "name": "c8add5ff66b7194c6f992cdb612b2f83", "lon": -76.98839683333334, "fusion_lon": 0.0}, {"is_reserved": 0, "type": "electric_scooter", "fusion_lat": 0.0, "is_disabled": 0, "rental_uris": {"ios": "https://dc.lft.to/lastmile_qr_scan", "android": "https://dc.lft.to/lastmile_qr_scan"}, "bike_id": "89d35b0f87f22dfac3e8ad260ea5cbe1", "lat": 38.89773683333333, "name": "89d35b0f87f22dfac3e8ad260ea5cbe1", "lon": -77.05037866666666, "fusion_lon": 0.0}, {"is_reserved": 0, "type": "electric_scooter", "fusion_lat": 0.0, "is_disabled": 0, "rental_uris": {"ios": "https://dc.lft.to/lastmile_qr_scan", "android": "https://dc.lft.to/lastmile_qr_scan"}, "bike_id": "e8364432154108da6ade4d3352691bf8", "lat": 38.892221666666664, "name": "e8364432154108da6ade4d3352691bf8", "lon": -77.025429, "fusion_lon": 0.0}, {"is_reserved": 0, "type": "electric_scooter", "fusion_lat": 0.0, "is_disabled": 0, "rental_uris": {"ios": "https://dc.lft.to/lastmile_qr_scan", "android": "https://dc.lft.to/lastmile_qr_scan"}, "bike_id": "356845a616cb4805fa41c832c3257dc5", "lat": 38.9019615, "name": "356845a616cb4805fa41c832c3257dc5", "lon": -77.00068716666667, "fusion_lon": 0.0}, {"is_reserved": 0, "type": "electric_scooter", "fusion_lat": 0.0, "is_disabled": 0, "rental_uris": {"ios": "https://dc.lft.to/lastmile_qr_scan", "android": "https://dc.lft.to/lastmile_qr_scan"}, "bike_id": "e5484a07c62fe1d905bf56d03906cb8c", "lat": 38.92495733333333, "name": "e5484a07c62fe1d905bf56d03906cb8c", "lon": -77.04333383333334, "fusion_lon": 0.0}, {"is_reserved": 0, "type": "electric_scooter", "fusion_lat": 0.0, "is_disabled": 0, "rental_uris": {"ios": "https://dc.lft.to/lastmile_qr_scan", "android": "https://dc.lft.to/lastmile_qr_scan"}, "bike_id": "76a2702790c2509f79595d16b8001f86", "lat": 38.88125816666667, "name": "76a2702790c2509f79595d16b8001f86", "lon": -77.0021245, "fusion_lon": 0.0}, {"is_reserved": 0, "type": "electric_scooter", "fusion_lat": 0.0, "is_disabled": 0, "rental_uris": {"ios": "https://dc.lft.to/lastmile_qr_scan", "android": "https://dc.lft.to/lastmile_qr_scan"}, "bike_id": "e527aa77ddda6c3dbef47cb9f2a2181a", "lat": 38.92887366666667, "name": "e527aa77ddda6c3dbef47cb9f2a2181a", "lon": -77.03732983333333, "fusion_lon": 0.0}, {"is_reserved": 0, "type": "electric_scooter", "fusion_lat": 0.0, "is_disabled": 0, "rental_uris": {"ios": "https://dc.lft.to/lastmile_qr_scan", "android": "https://dc.lft.to/lastmile_qr_scan"}, "bike_id": "32f94f0fdaa17d5465c657b21a0e8244", "lat": 38.89777733333333, "name": "32f94f0fdaa17d5465c657b21a0e8244", "lon": -77.03180816666666, "fusion_lon": 0.0}, {"is_reserved": 0, "type": "electric_scooter", "fusion_lat": 0.0, "is_disabled": 0, "rental_uris": {"ios": "https://dc.lft.to/lastmile_qr_scan", "android": "https://dc.lft.to/lastmile_qr_scan"}, "bike_id": "66880021a839f27a36cd071aa7bdcbb0", "lat": 38.87097116666666, "name": "66880021a839f27a36cd071aa7bdcbb0", "lon": -77.01232333333333, "fusion_lon": 0.0}, {"is_reserved": 0, "type": "electric_scooter", "fusion_lat": 0.0, "is_disabled": 0, "rental_uris": {"ios": "https://dc.lft.to/lastmile_qr_scan", "android": "https://dc.lft.to/lastmile_qr_scan"}, "bike_id": "5cda73d4aa486919d55fa94918bbf53a", "lat": 38.885095666666665, "name": "5cda73d4aa486919d55fa94918bbf53a", "lon": -77.0216085, "fusion_lon": 0.0}, {"is_reserved": 0, "type": "electric_scooter", "fusion_lat": 0.0, "is_disabled": 0, "rental_uris": {"ios": "https://dc.lft.to/lastmile_qr_scan", "android": "https://dc.lft.to/lastmile_qr_scan"}, "bike_id": "be1f5319f3fccf743b6c56d770847934", "lat": 38.90962433333333, "name": "be1f5319f3fccf743b6c56d770847934", "lon": -77.02307533333334, "fusion_lon": 0.0}, {"is_reserved": 0, "type": "electric_scooter", "fusion_lat": 0.0, "is_disabled": 0, "rental_uris": {"ios": "https://dc.lft.to/lastmile_qr_scan", "android": "https://dc.lft.to/lastmile_qr_scan"}, "bike_id": "9e086b0b8ada6345646fe34078cd204a", "lat": 38.89171183333333, "name": "9e086b0b8ada6345646fe34078cd204a", "lon": -77.01548983333333, "fusion_lon": 0.0}, {"is_reserved": 0, "type": "electric_scooter", "fusion_lat": 0.0, "is_disabled": 0, "rental_uris": {"ios": "https://dc.lft.to/lastmile_qr_scan", "android": "https://dc.lft.to/lastmile_qr_scan"}, "bike_id": "2e54dd77d8bad939bd24f5700a8d94f5", "lat": 38.924149, "name": "2e54dd77d8bad939bd24f5700a8d94f5", "lon": -77.0212685, "fusion_lon": 0.0}, {"is_reserved": 0, "type": "electric_scooter", "fusion_lat": 0.0, "is_disabled": 0, "rental_uris": {"ios": "https://dc.lft.to/lastmile_qr_scan", "android": "https://dc.lft.to/lastmile_qr_scan"}, "bike_id": "f628137f2074a24c5ede3f7699c0ab1a", "lat": 38.905309833333334, "name": "f628137f2074a24c5ede3f7699c0ab1a", "lon": -77.0587995, "fusion_lon": 0.0}, {"is_reserved": 0, "type": "electric_scooter", "fusion_lat": 0.0, "is_disabled": 0, "rental_uris": {"ios": "https://dc.lft.to/lastmile_qr_scan", "android": "https://dc.lft.to/lastmile_qr_scan"}, "bike_id": "937a6d01bb9e8b5148cf4190b223233a", "lat": 38.87921716666666, "name": "937a6d01bb9e8b5148cf4190b223233a", "lon": -77.02152233333334, "fusion_lon": 0.0}, {"is_reserved": 0, "type": "electric_scooter", "fusion_lat": 0.0, "is_disabled": 0, "rental_uris": {"ios": "https://dc.lft.to/lastmile_qr_scan", "android": "https://dc.lft.to/lastmile_qr_scan"}, "bike_id": "1f798fa2c3935dc620a754bccf7cffad", "lat": 38.95729883333333, "name": "1f798fa2c3935dc620a754bccf7cffad", "lon": -77.025693, "fusion_lon": 0.0}, {"is_reserved": 0, "type": "electric_bike", "fusion_lat": 0.0, "is_disabled": 0, "rental_uris": {"ios": "https://dc.lft.to/lastmile_qr_scan", "android": "https://dc.lft.to/lastmile_qr_scan"}, "bike_id": "e643e56b5e339673484bde06bf034607", "lat": 38.87953666666667, "name": "e643e56b5e339673484bde06bf034607", "lon": -76.9318795, "fusion_lon": 0.0}, {"is_reserved": 0, "type": "electric_bike", "fusion_lat": 0.0, "is_disabled": 0, "rental_uris": {"ios": "https://dc.lft.to/lastmile_qr_scan", "android": "https://dc.lft.to/lastmile_qr_scan"}, "bike_id": "343f692437175623672728cc4989ba38", "lat": 38.888734166666666, "name": "343f692437175623672728cc4989ba38", "lon": -76.95698983333334, "fusion_lon": 0.0}, {"is_reserved": 0, "type": "electric_scooter", "fusion_lat": 0.0, "is_disabled": 0, "rental_uris": {"ios": "https://dc.lft.to/lastmile_qr_scan", "android": "https://dc.lft.to/lastmile_qr_scan"}, "bike_id": "b72429e64902fdad550fe28a9ab92ffa", "lat": 38.91844183333333, "name": "b72429e64902fdad550fe28a9ab92ffa", "lon": -77.0229895, "fusion_lon": 0.0}, {"is_reserved": 0, "type": "electric_scooter", "fusion_lat": 0.0, "is_disabled": 0, "rental_uris": {"ios": "https://dc.lft.to/lastmile_qr_scan", "android": "https://dc.lft.to/lastmile_qr_scan"}, "bike_id": "c83f97cb664734ee224e6885884edec9", "lat": 38.898743833333334, "name": "c83f97cb664734ee224e6885884edec9", "lon": -77.00738883333334, "fusion_lon": 0.0}, {"is_reserved": 0, "type": "electric_scooter", "fusion_lat": 0.0, "is_disabled": 0, "rental_uris": {"ios": "https://dc.lft.to/lastmile_qr_scan", "android": "https://dc.lft.to/lastmile_qr_scan"}, "bike_id": "1ca9e5909adcb5271842d41786fb4b3e", "lat": 38.9061295, "name": "1ca9e5909adcb5271842d41786fb4b3e", "lon": -77.0034395, "fusion_lon": 0.0}, {"is_reserved": 0, "type": "electric_scooter", "fusion_lat": 0.0, "is_disabled": 0, "rental_uris": {"ios": "https://dc.lft.to/lastmile_qr_scan", "android": "https://dc.lft.to/lastmile_qr_scan"}, "bike_id": "5f10abaa4375e68444d975983668a634", "lat": 38.91746416666667, "name": "5f10abaa4375e68444d975983668a634", "lon": -77.04154, "fusion_lon": 0.0}, {"is_reserved": 0, "type": "electric_scooter", "fusion_lat": 0.0, "is_disabled": 0, "rental_uris": {"ios": "https://dc.lft.to/lastmile_qr_scan", "android": "https://dc.lft.to/lastmile_qr_scan"}, "bike_id": "c2775442c8f695f4905d3e41dac2c3a1", "lat": 38.927722833333334, "name": "c2775442c8f695f4905d3e41dac2c3a1", "lon": -77.02614233333334, "fusion_lon": 0.0}, {"is_reserved": 0, "type": "electric_scooter", "fusion_lat": 0.0, "is_disabled": 0, "rental_uris": {"ios": "https://dc.lft.to/lastmile_qr_scan", "android": "https://dc.lft.to/lastmile_qr_scan"}, "bike_id": "26a13021f1cbc6b57e32c705041a4e27", "lat": 38.901695, "name": "26a13021f1cbc6b57e32c705041a4e27", "lon": -77.00076333333334, "fusion_lon": 0.0}, {"is_reserved": 0, "type": "electric_scooter", "fusion_lat": 0.0, "is_disabled": 0, "rental_uris": {"ios": "https://dc.lft.to/lastmile_qr_scan", "android": "https://dc.lft.to/lastmile_qr_scan"}, "bike_id": "b206434c0307e8fe580372e70df0ea24", "lat": 38.87695033333333, "name": "b206434c0307e8fe580372e70df0ea24", "lon": -76.99625766666666, "fusion_lon": 0.0}, {"is_reserved": 0, "type": "electric_scooter", "fusion_lat": 0.0, "is_disabled": 0, "rental_uris": {"ios": "https://dc.lft.to/lastmile_qr_scan", "android": "https://dc.lft.to/lastmile_qr_scan"}, "bike_id": "57b6278eea8050e82948dd203630bf35", "lat": 38.917487333333334, "name": "57b6278eea8050e82948dd203630bf35", "lon": -77.027931, "fusion_lon": 0.0},