{"data": {"bikes": [{"name": "8daa6aece902cbb4f614d7cf27cbe6fb", "fusion_lat": 0.0, "fusion_lon": 0.0, "bike_id": "8daa6aece902cbb4f614d7cf27cbe6fb", "rental_uris": {"ios": "https://dc.lft.to/lastmile_qr_scan", "android": "https://dc.lft.to/lastmile_qr_scan"}, "type": "electric_scooter", "lat": 38.8861395, "is_disabled": 0, "lon": -76.99502150000001, "is_reserved": 0}, {"name": "ce9e167f0fcac0da9f740ba3f877c466", "fusion_lat": 0.0, "fusion_lon": 0.0, "bike_id": "ce9e167f0fcac0da9f740ba3f877c466", "rental_uris": {"ios": "https://dc.lft.to/lastmile_qr_scan", "android": "https://dc.lft.to/lastmile_qr_scan"}, "type": "electric_scooter", "lat": 38.838115333333334, "is_disabled": 0, "lon": -77.00435516666667, "is_reserved": 0}, {"name": "f75014a41faad0ccf5df2502892db01e", "fusion_lat": 0.0, "fusion_lon": 0.0, "bike_id": "f75014a41faad0ccf5df2502892db01e", "rental_uris": {"ios": "https://dc.lft.to/lastmile_qr_scan", "android": "https://dc.lft.to/lastmile_qr_scan"}, "type": "electric_scooter", "lat": 38.902609, "is_disabled": 0, "lon": -77.039687, "is_reserved": 0}, {"name": "26055acbd6422c600eada4460c4c1887", "fusion_lat": 0.0, "fusion_lon": 0.0, "bike_id": "26055acbd6422c600eada4460c4c1887", "rental_uris": {"ios": "https://dc.lft.to/lastmile_qr_scan", "android": "https://dc.lft.to/lastmile_qr_scan"}, "type": "electric_bike", "lat": 38.8814385, "is_disabled": 0, "lon": -77.114497, "is_reserved": 0}, {"name": "906b815bd7d552edd2a0d2f640a613db", "fusion_lat": 0.0, "fusion_lon": 0.0, "bike_id": "906b815bd7d552edd2a0d2f640a613db", "rental_uris": {"ios": "https://dc.lft.to/lastmile_qr_scan", "android": "https://dc.lft.to/lastmile_qr_scan"}, "type": "electric_scooter", "lat": 38.916285333333335, "is_disabled": 0, "lon": -77.03141, "is_reserved": 0}, {"name": "b33645d474de79c4887262f9bd7903e4", "fusion_lat": 0.0, "fusion_lon": 0.0, "bike_id": "b33645d474de79c4887262f9bd7903e4", "rental_uris": {"ios": "https://dc.lft.to/lastmile_qr_scan", "android": "https://dc.lft.to/lastmile_qr_scan"}, "type": "electric_scooter", "lat": 38.902434, "is_disabled": 0, "lon": -76.989716, "is_reserved": 0}, {"name": "586dcb0c04e879ba173bf07ad4bc6f6c", "fusion_lat": 0.0, "fusion_lon": 0.0, "bike_id": "586dcb0c04e879ba173bf07ad4bc6f6c", "rental_uris": {"ios": "https://dc.lft.to/lastmile_qr_scan", "android": "https://dc.lft.to/lastmile_qr_scan"}, "type": "electric_bike", "lat": 38.93499, "is_disabled": 0, "lon": -76.94946766666666, "is_reserved": 0}, {"name": "1341b8580b0fb3e939229103727ebead", "fusion_lat": 0.0, "fusion_lon": 0.0, "bike_id": "1341b8580b0fb3e939229103727ebead", "rental_uris": {"ios": "https://dc.lft.to/lastmile_qr_scan", "android": "https://dc.lft.to/lastmile_qr_scan"}, "type": "electric_scooter", "lat": 38.9129125, "is_disabled": 0, "lon": -77.02715266666667, "is_reserved": 0}, {"name": "a8a375028ac2318051f25eefb92d0330", "fusion_lat": 0.0, "fusion_lon": 0.0, "bike_id": "a8a375028ac2318051f25eefb92d0330", "rental_uris": {"ios": "https://dc.lft.to/lastmile_qr_scan", "android": "https://dc.lft.to/lastmile_qr_scan"}, "type": "electric_scooter", "lat": 38.8428685, "is_disabled": 0, "lon": -76.99959633333333, "is_reserved": 0}, {"name": "4aec2f7b309a54e6ae9e2e78a1e9de1c", "fusion_lat": 0.0, "fusion_lon": 0.0, "bike_id": "4aec2f7b309a54e6ae9e2e78a1e9de1c", "rental_uris": {"ios": "https://dc.lft.to/lastmile_qr_scan", "android": "https://dc.lft.to/lastmile_qr_scan"}, "type": "electric_scooter", "lat": 38.872298, "is_disabled": 0, "lon": -77.01632083333334, "is_reserved": 0}, {"name": "0a337b3615ee058dc02f6afb78f7264d", "fusion_lat": 0.0, "fusion_lon": 0.0, "bike_id": "0a337b3615ee058dc02f6afb78f7264d", "rental_uris": {"ios": "https://dc.lft.to/lastmile_qr_scan", "android": "https://dc.lft.to/lastmile_qr_scan"}, "type": "electric_scooter", "lat": 38.883005833333335, "is_disabled": 0, "lon": -76.94292116666666, "is_reserved": 0}, {"name": "ea697fd8f86f6ad49a17fde7499a6d28", "fusion_lat": 0.0, "fusion_lon": 0.0, "bike_id": "ea697fd8f86f6ad49a17fde7499a6d28", "rental_uris": {"ios": "https://dc.lft.to/lastmile_qr_scan", "android": "https://dc.lft.to/lastmile_qr_scan"}, "type": "electric_scooter", "lat": 38.918178, "is_disabled": 0, "lon": -77.01214483333334, "is_reserved": 0}, {"name": "223dbfc9b17d2346b8898bcd9ae35d99", "fusion_lat": 0.0, "fusion_lon": 0.0, "bike_id": "223dbfc9b17d2346b8898bcd9ae35d99", "rental_uris": {"ios": "https://dc.lft.to/lastmile_qr_scan", "android": "https://dc.lft.to/lastmile_qr_scan"}, "type": "electric_scooter", "lat": 38.89936983333333, "is_disabled": 0, "lon": -77.013116, "is_reserved": 0}, {"name": "1fbd3910a0720dc5185691c58a5e2a8d", "fusion_lat": 0.0, "fusion_lon": 0.0, "bike_id": "1fbd3910a0720dc5185691c58a5e2a8d", "rental_uris": {"ios": "https://dc.lft.to/lastmile_qr_scan", "android": "https://dc.lft.to/lastmile_qr_scan"}, "type": "electric_scooter", "lat": 38.89997233333333, "is_disabled": 0, "lon": -76.92229933333333, "is_reserved": 0}, {"name": "fe0af1b33a5ef589c41d29ee81d0b33b", "fusion_lat": 0.0, "fusion_lon": 0.0, "bike_id": "fe0af1b33a5ef589c41d29ee81d0b33b", "rental_uris": {"ios": "https://dc.lft.to/lastmile_qr_scan", "android": "https://dc.lft.to/lastmile_qr_scan"}, "type": "electric_scooter", "lat": 38.925734166666665, "is_disabled": 0, "lon": -76.994961, "is_reserved": 0}, {"name": "fdff5d1fff9340d2d4d7c2cfa8ae96e2", "fusion_lat": 0.0, "fusion_lon": 0.0, "bike_id": "fdff5d1fff9340d2d4d7c2cfa8ae96e2", "rental_uris": {"ios": "https://dc.lft.to/lastmile_qr_scan", "android": "https://dc.lft.to/lastmile_qr_scan"}, "type": "electric_scooter", "lat": 38.90610433333333, "is_disabled": 0, "lon": -77.00594616666666, "is_reserved": 0}, {"name": "ed0f106da5e145795980e9f78099f24d", "fusion_lat": 0.0, "fusion_lon": 0.0, "bike_id": "ed0f106da5e145795980e9f78099f24d", "rental_uris": {"ios": "https://dc.lft.to/lastmile_qr_scan", "android": "https://dc.lft.to/lastmile_qr_scan"}, "type": "electric_scooter", "lat": 38.899614666666665, "is_disabled": 0, "lon": -77.039503, "is_reserved": 0}, {"name": "f46a6a74f72435a939fca83b684a7daf", "fusion_lat": 0.0, "fusion_lon": 0.0, "bike_id": "f46a6a74f72435a939fca83b684a7daf", "rental_uris": {"ios": "https://dc.lft.to/lastmile_qr_scan", "android": "https://dc.lft.to/lastmile_qr_scan"}, "type": "electric_scooter", "lat": 38.91974033333334, "is_disabled": 0, "lon": -77.0443005, "is_reserved": 0}, {"name": "160f79ce7c263231d83a5351051705a6", "fusion_lat": 0.0, "fusion_lon": 0.0, "bike_id": "160f79ce7c263231d83a5351051705a6", "rental_uris": {"ios": "https://dc.lft.to/lastmile_qr_scan", "android": "https://dc.lft.to/lastmile_qr_scan"}, "type": "electric_scooter", "lat": 38.9241635, "is_disabled": 0, "lon": -77.05625233333333, "is_reserved": 0}, {"name": "c06c800e2188d555d50407a34578489b", "fusion_lat": 0.0, "fusion_lon": 0.0, "bike_id": "c06c800e2188d555d50407a34578489b", "rental_uris": {"ios": "https://dc.lft.to/lastmile_qr_scan", "android": "https://dc.lft.to/lastmile_qr_scan"}, "type": "electric_bike", "lat": 38.936883, "is_disabled": 0, "lon": -77.02697516666667, "is_reserved": 0}, {"name": "6ef6077b1d9b0ca5caec7b0b37e16357", "fusion_lat": 0.0, "fusion_lon": 0.0, "bike_id": "6ef6077b1d9b0ca5caec7b0b37e16357", "rental_uris": {"ios": "https://dc.lft.to/lastmile_qr_scan", "android": "https://dc.lft.to/lastmile_qr_scan"}, "type": "electric_bike", "lat": 38.902821333333335, "is_disabled": 0, "lon": -76.92937733333333, "is_reserved": 0}, {"name": "739556900f3205397a2a2207f0158374", "fusion_lat": 0.0, "fusion_lon": 0.0, "bike_id": "739556900f3205397a2a2207f0158374", "rental_uris": {"ios": "https://dc.lft.to/lastmile_qr_scan", "android": "https://dc.lft.to/lastmile_qr_scan"}, "type": "electric_scooter", "lat": 38.887351833333334, "is_disabled": 0, "lon": -77.015377, "is_reserved": 0}, {"name": "43ac8bfc4d2ee9d8074b4c0f7a385fb9", "fusion_lat": 0.0, "fusion_lon": 0.0, "bike_id": "43ac8bfc4d2ee9d8074b4c0f7a385fb9", "rental_uris": {"ios": "https://dc.lft.to/lastmile_qr_scan", "android": "https://dc.lft.to/lastmile_qr_scan"}, "type": "electric_scooter", "lat": 38.9096825, "is_disabled": 0, "lon": -77.03151566666666, "is_reserved": 0}, {"name": "2bb5da321bce0d863d220fccb377b273", "fusion_lat": 0.0, "fusion_lon": 0.0, "bike_id": "2bb5da321bce0d863d220fccb377b273", "rental_uris": {"ios": "https://dc.lft.to/lastmile_qr_scan", "android": "https://dc.lft.to/lastmile_qr_scan"}, "type": "electric_scooter", "lat": 38.9760675, "is_disabled": 0, "lon": -77.026652, "is_reserved": 0}, {"name": "06638f357134ca3b88c6cd2d9133d990", "fusion_lat": 0.0, "fusion_lon": 0.0, "bike_id": "06638f357134ca3b88c6cd2d9133d990", "rental_uris": {"ios": "https://dc.lft.to/lastmile_qr_scan", "android": "https://dc.lft.to/lastmile_qr_scan"}, "type": "electric_scooter", "lat": 38.8714305, "is_disabled": 0, "lon": -76.978951, "is_reserved": 0}, {"name": "6d1cc9f1a56be61b6181e25fcab3d414", "fusion_lat": 0.0, "fusion_lon": 0.0, "bike_id": "6d1cc9f1a56be61b6181e25fcab3d414", "rental_uris": {"ios": "https://dc.lft.to/lastmile_qr_scan", "android": "https://dc.lft.to/lastmile_qr_scan"}, "type": "electric_scooter", "lat": 38.93541283333333, "is_disabled": 0, "lon": -77.03100616666667, "is_reserved": 0}, {"name": "8e81214ec6e462a1345639dfa289f9b9", "fusion_lat": 0.0, "fusion_lon": 0.0, "bike_id": "8e81214ec6e462a1345639dfa289f9b9", "rental_uris": {"ios": "https://dc.lft.to/lastmile_qr_scan", "android": "https://dc.lft.to/lastmile_qr_scan"}, "type": "electric_scooter", "lat": 38.93881433333333, "is_disabled": 0, "lon": -77.024826, "is_reserved": 0}, {"name": "96a4e0eb06e0c9bb6b4e58c7cbcdb233", "fusion_lat": 0.0, "fusion_lon": 0.0, "bike_id": "96a4e0eb06e0c9bb6b4e58c7cbcdb233", "rental_uris": {"ios": "https://dc.lft.to/lastmile_qr_scan", "android": "https://dc.lft.to/lastmile_qr_scan"}, "type": "electric_scooter", "lat": 38.92362883333333, "is_disabled": 0, "lon": -77.03130416666667, "is_reserved": 0}, {"name": "cbdf89bf11bd0c1868fbaeca67389efe", "fusion_lat": 0.0, "fusion_lon": 0.0, "bike_id": "cbdf89bf11bd0c1868fbaeca67389efe", "rental_uris": {"ios": "https://dc.lft.to/lastmile_qr_scan", "android": "https://dc.lft.to/lastmile_qr_scan"}, "type": "electric_bike", "lat": 38.918563166666665, "is_disabled": 0, "lon": -76.9617965, "is_reserved": 0}, {"name": "abeac23885504c2faaeea966f07877c8", "fusion_lat": 0.0, "fusion_lon": 0.0, "bike_id": "abeac23885504c2faaeea966f07877c8", "rental_uris": {"ios": "https://dc.lft.to/lastmile_qr_scan", "android": "https://dc.lft.to/lastmile_qr_scan"}, "type": "electric_scooter", "lat": 38.89906883333333, "is_disabled": 0, "lon": -76.93386466666666, "is_reserved": 0}, {"name": "9b6eadaf4d096182e17bb3b4a059cf71", "fusion_lat": 0.0, "fusion_lon": 0.0, "bike_id": "9b6eadaf4d096182e17bb3b4a059cf71", "rental_uris": {"ios": "https://dc.lft.to/lastmile_qr_scan", "android": "https://dc.lft.to/lastmile_qr_scan"}, "type": "electric_scooter", "lat": 38.8865835, "is_disabled": 0, "lon": -77.033929, "is_reserved": 0}, {"name": "54e0fe216919ec5d761c04f625bb9357", "fusion_lat": 0.0, "fusion_lon": 0.0, "bike_id": "54e0fe216919ec5d761c04f625bb9357", "rental_uris": {"ios": "https://dc.lft.to/lastmile_qr_scan", "android": "https://dc.lft.to/lastmile_qr_scan"}, "type": "electric_scooter", "lat": 38.92051133333333, "is_disabled": 0, "lon": -76.9988105, "is_reserved": 0}, {"name": "0263e3d58e9a589c1d16e45100932ac2", "fusion_lat": 0.0, "fusion_lon": 0.0, "bike_id": "0263e3d58e9a589c1d16e45100932ac2", "rental_uris": {"ios": "https://dc.lft.to/lastmile_qr_scan", "android": "https://dc.lft.to/lastmile_qr_scan"}, "type": "electric_bike", "lat": 38.83689783333333, "is_disabled": 0, "lon": -77.00585783333334, "is_reserved": 0}, {"name": "a39d4ac6e1d75267d058b3b2adf8de7a", "fusion_lat": 0.0, "fusion_lon": 0.0, "bike_id": "a39d4ac6e1d75267d058b3b2adf8de7a", "rental_uris": {"ios": "https://dc.lft.to/lastmile_qr_scan", "android": "https://dc.lft.to/lastmile_qr_scan"}, "type": "electric_scooter", "lat": 38.915907, "is_disabled": 0, "lon": -77.02355383333334, "is_reserved": 0}, {"name": "d4f26d8ce33ee8a4ecd8b18c5f8b960c", "fusion_lat": 0.0, "fusion_lon": 0.0, "bike_id": "d4f26d8ce33ee8a4ecd8b18c5f8b960c", "rental_uris": {"ios": "https://dc.lft.to/lastmile_qr_scan", "android": "https://dc.lft.to/lastmile_qr_scan"}, "type": "electric_scooter", "lat": 38.88514133333334, "is_disabled": 0, "lon": -76.948246, "is_reserved": 0}, {"name": "041990a39ce466376f2474dcf2cc746d", "fusion_lat": 0.0, "fusion_lon": 0.0, "bike_id": "041990a39ce466376f2474dcf2cc746d", "rental_uris": {"ios": "https://dc.lft.to/lastmile_qr_scan", "android": "https://dc.lft.to/lastmile_qr_scan"}, "type": "electric_scooter", "lat": 38.91821866666667, "is_disabled": 0, "lon": -77.04534666666666, "is_reserved": 0}, {"name": "27db7d8dd35c7700c7352ba446a5122e", "fusion_lat": 0.0, "fusion_lon": 0.0, "bike_id": "27db7d8dd35c7700c7352ba446a5122e", "rental_uris": {"ios": "https://dc.lft.to/lastmile_qr_scan", "android": "https://dc.lft.to/lastmile_qr_scan"}, "type": "electric_scooter", "lat": 38.905720333333335, "is_disabled": 0, "lon": -77.022152, "is_reserved": 0}, {"name": "673a0202b1fac39108bd845bbca0039a", "fusion_lat": 0.0, "fusion_lon": 0.0, "bike_id": "673a0202b1fac39108bd845bbca0039a", "rental_uris": {"ios": "https://dc.lft.to/lastmile_qr_scan", "android": "https://dc.lft.to/lastmile_qr_scan"}, "type": "electric_scooter", "lat": 38.915817833333335, "is_disabled": 0, "lon": -77.02004483333333, "is_reserved": 0}, {"name": "32b3fc564946288025ada66f0801271e", "fusion_lat": 0.0, "fusion_lon": 0.0, "bike_id": "32b3fc564946288025ada66f0801271e", "rental_uris": {"ios": "https://dc.lft.to/lastmile_qr_scan", "android": "https://dc.lft.to/lastmile_qr_scan"}, "type": "electric_scooter", "lat": 38.8857935, "is_disabled": 0, "lon": -77.012277, "is_reserved": 0}, {"name": "330c67eaa03d7a744d7246e5a59757f5", "fusion_lat": 0.0, "fusion_lon": 0.0, "bike_id": "330c67eaa03d7a744d7246e5a59757f5", "rental_uris": {"ios": "https://dc.lft.to/lastmile_qr_scan", "android": "https://dc.lft.to/lastmile_qr_scan"}, "type": "electric_scooter", "lat": 38.910359166666666, "is_disabled": 0, "lon": -77.036318, "is_reserved": 0}, {"name": "bbe5eb7c694f93c9b20bb14c613763d6", "fusion_lat": 0.0, "fusion_lon": 0.0, "bike_id": "bbe5eb7c694f93c9b20bb14c613763d6", "rental_uris": {"ios": "https://dc.lft.to/lastmile_qr_scan", "android": "https://dc.lft.to/lastmile_qr_scan"}, "type": "electric_scooter", "lat": 38.89604383333333, "is_disabled": 0, "lon": -77.05439333333334, "is_reserved": 0}, {"name": "62d97a35d7d320b9431a997e2cfbfd1c", "fusion_lat": 0.0, "fusion_lon": 0.0, "bike_id": "62d97a35d7d320b9431a997e2cfbfd1c", "rental_uris": {"ios": "https://dc.lft.to/lastmile_qr_scan", "android": "https://dc.lft.to/lastmile_qr_scan"}, "type": "electric_scooter", "lat": 38.9159405, "is_disabled": 0, "lon": -77.02295683333334, "is_reserved": 0}, {"name": "3cac86e2b04c2886444be459533bc266", "fusion_lat": 0.0, "fusion_lon": 0.0, "bike_id": "3cac86e2b04c2886444be459533bc266", "rental_uris": {"ios": "https://dc.lft.to/lastmile_qr_scan", "android": "https://dc.lft.to/lastmile_qr_scan"}, "type": "electric_bike", "lat": 38.90326, "is_disabled": 0, "lon": -76.97536616666666, "is_reserved": 0}, {"name": "e77a047c52fc2915648df05ac381fa31", "fusion_lat": 0.0, "fusion_lon": 0.0, "bike_id": "e77a047c52fc2915648df05ac381fa31", "rental_uris": {"ios": "https://dc.lft.to/lastmile_qr_scan", "android": "https://dc.lft.to/lastmile_qr_scan"}, "type": "electric_scooter", "lat": 38.92841383333333, "is_disabled": 0, "lon": -77.03628983333333, "is_reserved": 0}, {"name": "946329301b424de2cdac10faa2843b81", "fusion_lat": 0.0, "fusion_lon": 0.0, "bike_id": "946329301b424de2cdac10faa2843b81", "rental_uris": {"ios": "https://dc.lft.to/lastmile_qr_scan", "android": "https://dc.lft.to/lastmile_qr_scan"}, "type": "electric_scooter", "lat": 38.9201485, "is_disabled": 0, "lon": -76.99559416666666, "is_reserved": 0}, {"name": "dd6f0220bc86623446a3c7a831e809ec", "fusion_lat": 0.0, "fusion_lon": 0.0, "bike_id": "dd6f0220bc86623446a3c7a831e809ec", "rental_uris": {"ios": "https://dc.lft.to/lastmile_qr_scan", "android": "https://dc.lft.to/lastmile_qr_scan"}, "type": "electric_scooter", "lat": 38.9108165, "is_disabled": 0, "lon": -77.00154883333333, "is_reserved": 0}, {"name": "9a23c1d2384a757f6ff86643c4162021", "fusion_lat": 0.0, "fusion_lon": 0.0, "bike_id": "9a23c1d2384a757f6ff86643c4162021", "rental_uris": {"ios": "https://dc.lft.to/lastmile_qr_scan", "android": "https://dc.lft.to/lastmile_qr_scan"}, "type": "electric_scooter", "lat": 38.91634216666667, "is_disabled": 0, "lon": -77.05068183333333, "is_reserved": 0}, {"name": "3f536985a0cb8075360a329a370fb134", "fusion_lat": 0.0, "fusion_lon": 0.0, "bike_id": "3f536985a0cb8075360a329a370fb134", "rental_uris": {"ios": "https://dc.lft.to/lastmile_qr_scan", "android": "https://dc.lft.to/lastmile_qr_scan"}, "type": "electric_scooter", "lat": 38.90135516666667, "is_disabled": 0, "lon": -77.0228285, "is_reserved": 0}, {"name": "e3196ace6c1f79bf27c4e2abfa52992f", "fusion_lat": 0.0, "fusion_lon": 0.0, "bike_id": "e3196ace6c1f79bf27c4e2abfa52992f", "rental_uris": {"ios": "https://dc.lft.to/lastmile_qr_scan", "android": "https://dc.lft.to/lastmile_qr_scan"}, "type": "electric_scooter", "lat": 38.9318865, "is_disabled": 0, "lon": -77.02833733333334, "is_reserved": 0}, {"name": "67af29b13ce642435ad81015cca4cf8d", "fusion_lat": 0.0, "fusion_lon": 0.0, "bike_id": "67af29b13ce642435ad81015cca4cf8d", "rental_uris": {"ios": "https://dc.lft.to/lastmile_qr_scan", "android": "https://dc.lft.to/lastmile_qr_scan"}, "type": "electric_bike", "lat": 38.9369185, "is_disabled": 0, "lon": -77.02699983333333, "is_reserved": 0}, {"name": "eeeec3c6924955711942f65150ca8daf", "fusion_lat": 0.0, "fusion_lon": 0.0, "bike_id": "eeeec3c6924955711942f65150ca8daf", "rental_uris": {"ios": "https://dc.lft.to/lastmile_qr_scan", "android": "https://dc.lft.to/lastmile_qr_scan"}, "type": "electric_scooter", "lat": 38.90600083333333, "is_disabled": 0, "lon": -77.07010466666667, "is_reserved": 0}, {"name": "c3a02bcf68e308bfe70d35c6559d9463", "fusion_lat": 0.0, "fusion_lon": 0.0, "bike_id": "c3a02bcf68e308bfe70d35c6559d9463", "rental_uris": {"ios": "https://dc.lft.to/lastmile_qr_scan", "android": "https://dc.lft.to/lastmile_qr_scan"}, "type": "electric_scooter", "lat": 38.90925333333333, "is_disabled": 0, "lon": -76.99219716666667, "is_reserved": 0}, {"name": "b542fe56938ab71f1c0d96753ba970c2", "fusion_lat": 0.0, "fusion_lon": 0.0, "bike_id": "b542fe56938ab71f1c0d96753ba970c2", "rental_uris": {"ios": "https://dc.lft.to/lastmile_qr_scan", "android": "https://dc.lft.to/lastmile_qr_scan"}, "type": "electric_scooter", "lat": 38.89779083333333, "is_disabled": 0, "lon": -76.97101316666667, "is_reserved": 0}, {"name": "27e151a8f7d10d35f4a89313ba0213cb", "fusion_lat": 0.0, "fusion_lon": 0.0, "bike_id": "27e151a8f7d10d35f4a89313ba0213cb", "rental_uris": {"ios": "https://dc.lft.to/lastmile_qr_scan", "android": "https://dc.lft.to/lastmile_qr_scan"}, "type": "electric_scooter", "lat": 38.89528816666667, "is_disabled": 0, "lon": -77.00344433333333, "is_reserved": 0}, {"name": "12514ce0412a059ff44906333dbafc45", "fusion_lat": 0.0, "fusion_lon": 0.0, "bike_id": "12514ce0412a059ff44906333dbafc45", "rental_uris": {"ios": "https://dc.lft.to/lastmile_qr_scan", "android": "https://dc.lft.to/lastmile_qr_scan"}, "type": "electric_scooter", "lat": 38.917459, "is_disabled": 0, "lon": -77.04773033333333, "is_reserved": 0}, {"name": "04b25edb971b3abd3217922c5d64b093", "fusion_lat": 0.0, "fusion_lon": 0.0, "bike_id": "04b25edb971b3abd3217922c5d64b093", "rental_uris": {"ios": "https://dc.lft.to/lastmile_qr_scan", "android": "https://dc.lft.to/lastmile_qr_scan"}, "type": "electric_scooter", "lat": 38.90072766666667, "is_disabled": 0, "lon": -77.03917766666666, "is_reserved": 0}, {"name": "1d8b8a48b723a57672098ce0980615e6", "fusion_lat": 0.0, "fusion_lon": 0.0, "bike_id": "1d8b8a48b723a57672098ce0980615e6", "rental_uris": {"ios": "https://dc.lft.to/lastmile_qr_scan", "android": "https://dc.lft.to/lastmile_qr_scan"}, "type": "electric_scooter", "lat": 38.897319833333334, "is_disabled": 0, "lon": -77.016055, "is_reserved": 0}, {"name": "d28c534be26fe3c530ef3fbe43173e6d", "fusion_lat": 0.0, "fusion_lon": 0.0, "bike_id": "d28c534be26fe3c530ef3fbe43173e6d", "rental_uris": {"ios": "https://dc.lft.to/lastmile_qr_scan", "android": "https://dc.lft.to/lastmile_qr_scan"}, "type": "electric_scooter", "lat": 38.918138, "is_disabled": 0, "lon": -77.02789666666666, "is_reserved": 0}, {"name": "76929d6570433a574451de24b58d7192", "fusion_lat": 0.0, "fusion_lon": 0.0, "bike_id": "76929d6570433a574451de24b58d7192", "rental_uris": {"ios": "https://dc.lft.to/lastmile_qr_scan", "android": "https://dc.lft.to/lastmile_qr_scan"}, "type": "electric_scooter", "lat": 38.8968085, "is_disabled": 0, "lon": -76.93537933333333, "is_reserved": 0}, {"name": "181c006ace9933aecd32217a011b8b2a", "fusion_lat": 0.0, "fusion_lon": 0.0, "bike_id": "181c006ace9933aecd32217a011b8b2a", "rental_uris": {"ios": "https://dc.lft.to/lastmile_qr_scan", "android": "https://dc.lft.to/lastmile_qr_scan"}, "type": "electric_scooter", "lat": 38.924235, "is_disabled": 0, "lon": -77.0201455, "is_reserved": 0}, {"name": "5cff551066c2a2a87bf75eca0d5b49a1", "fusion_lat": 0.0, "fusion_lon": 0.0, "bike_id": "5cff551066c2a2a87bf75eca0d5b49a1", "rental_uris": {"ios": "https://dc.lft.to/lastmile_qr_scan", "android": "https://dc.lft.to/lastmile_qr_scan"}, "type": "electric_scooter", "lat": 38.89793, "is_disabled": 0, "lon": -77.0395005, "is_reserved": 0}, {"name": "3870a771c7945eb91ab304ad8ff9db58", "fusion_lat": 0.0, "fusion_lon": 0.0, "bike_id": "3870a771c7945eb91ab304ad8ff9db58", "rental_uris": {"ios": "https://dc.lft.to/lastmile_qr_scan", "android": "https://dc.lft.to/lastmile_qr_scan"}, "type": "electric_scooter", "lat": 38.9137585, "is_disabled": 0, "lon": -77.0434585, "is_reserved": 0}, {"name": "f236af4e87f84efbcac1ba9a423a76d6", "fusion_lat": 0.0, "fusion_lon": 0.0, "bike_id": "f236af4e87f84efbcac1ba9a423a76d6", "rental_uris": {"ios": "https://dc.lft.to/lastmile_qr_scan", "android": "https://dc.lft.to/lastmile_qr_scan"}, "type": "electric_scooter", "lat": 38.89219833333333, "is_disabled": 0, "lon": -77.04189966666667, "is_reserved": 0}, {"name": "88364dd836fba54e3a4278bcbf8b0e14", "fusion_lat": 0.0, "fusion_lon": 0.0, "bike_id": "88364dd836fba54e3a4278bcbf8b0e14", "rental_uris": {"ios": "https://dc.lft.to/lastmile_qr_scan", "android": "https://dc.lft.to/lastmile_qr_scan"}, "type": "electric_scooter", "lat": 38.91699833333333, "is_disabled": 0, "lon": -77.02995916666667, "is_reserved": 0}, {"name": "bece8233dafb35a7a1f185fff6f78347", "fusion_lat": 0.0, "fusion_lon": 0.0, "bike_id": "bece8233dafb35a7a1f185fff6f78347", "rental_uris": {"ios": "https://dc.lft.to/lastmile_qr_scan", "android": "https://dc.lft.to/lastmile_qr_scan"}, "type": "electric_scooter", "lat": 38.909536, "is_disabled": 0, "lon": -77.0331585, "is_reserved": 0}, {"name": "53b7e2e0a7f3fd445874c246700c9a21", "fusion_lat": 0.0, "fusion_lon": 0.0, "bike_id": "53b7e2e0a7f3fd445874c246700c9a21", "rental_uris": {"ios": "https://dc.lft.to/lastmile_qr_scan", "android": "https://dc.lft.to/lastmile_qr_scan"}, "type": "electric_scooter", "lat": 38.9207455, "is_disabled": 0, "lon": -77.00057483333333, "is_reserved": 0}, {"name": "a7d6311f5b3a92ac4c116963b6301f62", "fusion_lat": 0.0, "fusion_lon": 0.0, "bike_id": "a7d6311f5b3a92ac4c116963b6301f62", "rental_uris": {"ios": "https://dc.lft.to/lastmile_qr_scan", "android": "https://dc.lft.to/lastmile_qr_scan"}, "type": "electric_scooter", "lat": 38.90093016666667, "is_disabled": 0, "lon": -77.0493735, "is_reserved": 0}, {"name": "8c236f879dc9fee882a701b88c091b5d", "fusion_lat": 0.0, "fusion_lon": 0.0, "bike_id": "8c236f879dc9fee882a701b88c091b5d", "rental_uris": {"ios": "https://dc.lft.to/lastmile_qr_scan", "android": "https://dc.lft.to/lastmile_qr_scan"}, "type": "electric_scooter", "lat": 38.916283, "is_disabled": 0, "lon": -77.0331365, "is_reserved": 0}, {"name": "65811123d6c00115645a0889a1dd4f10", "fusion_lat": 0.0, "fusion_lon": 0.0, "bike_id": "65811123d6c00115645a0889a1dd4f10", "rental_uris": {"ios": "https://dc.lft.to/lastmile_qr_scan", "android": "https://dc.lft.to/lastmile_qr_scan"}, "type": "electric_bike", "lat": 38.86975866666667, "is_disabled": 0, "lon": -77.13233633333333, "is_reserved": 0}, {"name": "6582b3b5aef024639642708867473f3c", "fusion_lat": 0.0, "fusion_lon": 0.0, "bike_id": "6582b3b5aef024639642708867473f3c", "rental_uris": {"ios": "https://dc.lft.to/lastmile_qr_scan", "android": "https://dc.lft.to/lastmile_qr_scan"}, "type": "electric_scooter", "lat": 38.932263166666665, "is_disabled": 0, "lon": -76.9993385, "is_reserved": 0}, {"name": "c59b15bbae43092feb41ea5b4b1a0285", "fusion_lat": 0.0, "fusion_lon": 0.0, "bike_id": "c59b15bbae43092feb41ea5b4b1a0285", "rental_uris": {"ios": "https://dc.lft.to/lastmile_qr_scan", "android": "https://dc.lft.to/lastmile_qr_scan"}, "type": "electric_scooter", "lat": 38.88496166666667, "is_disabled": 0, "lon": -77.02513733333333, "is_reserved": 0}, {"name": "787e29e9130a8a433826f206a55e4aa3", "fusion_lat": 0.0, "fusion_lon": 0.0, "bike_id": "787e29e9130a8a433826f206a55e4aa3", "rental_uris": {"ios": "https://dc.lft.to/lastmile_qr_scan", "android": "https://dc.lft.to/lastmile_qr_scan"}, "type": "electric_bike", "lat": 38.946211, "is_disabled": 0, "lon": -76.93412916666666, "is_reserved": 0}, {"name": "206483fe3b226b8c94fea48c37f66ea9", "fusion_lat": 0.0, "fusion_lon": 0.0, "bike_id": "206483fe3b226b8c94fea48c37f66ea9", "rental_uris": {"ios": "https://dc.lft.to/lastmile_qr_scan", "android": "https://dc.lft.to/lastmile_qr_scan"}, "type": "electric_scooter", "lat": 38.90439683333334, "is_disabled": 0, "lon": -77.03825266666666, "is_reserved": 0}, {"name": "e02bdaff3675c7c9710358276350b52a", "fusion_lat": 0.0, "fusion_lon": 0.0, "bike_id": "e02bdaff3675c7c9710358276350b52a", "rental_uris": {"ios": "https://dc.lft.to/lastmile_qr_scan", "android": "https://dc.lft.to/lastmile_qr_scan"}, "type": "electric_scooter", "lat": 38.90312516666667, "is_disabled": 0, "lon": -77.02368333333334, "is_reserved": 0}, {"name": "e4eae1053cd5f140d19e2e2a34a5c5d3", "fusion_lat": 0.0, "fusion_lon": 0.0, "bike_id": "e4eae1053cd5f140d19e2e2a34a5c5d3", "rental_uris": {"ios": "https://dc.lft.to/lastmile_qr_scan", "android": "https://dc.lft.to/lastmile_qr_scan"}, "type": "electric_scooter", "lat": 38.917091166666665, "is_disabled": 0, "lon": -77.01135466666666, "is_reserved": 0}, {"name": "a3f7b71a8c27bf6ae6d31fe3e3955b4d", "fusion_lat": 0.0, "fusion_lon": 0.0, "bike_id": "a3f7b71a8c27bf6ae6d31fe3e3955b4d", "rental_uris": {"ios": "https://dc.lft.to/lastmile_qr_scan", "android": "https://dc.lft.to/lastmile_qr_scan"}, "type": "electric_scooter", "lat": 38.92479633333333, "is_disabled": 0, "lon": -77.02723533333334, "is_reserved": 0}, {"name": "63b127a2e664da947d511c391df2706c", "fusion_lat": 0.0, "fusion_lon": 0.0, "bike_id": "63b127a2e664da947d511c391df2706c", "rental_uris": {"ios": "https://dc.lft.to/lastmile_qr_scan", "android": "https://dc.lft.to/lastmile_qr_scan"}, "type": "electric_scooter", "lat": 38.90551516666667, "is_disabled": 0, "lon": -77.05707933333333, "is_reserved": 0}, {"name": "68c5c7a88284252aceac99619bf19f5d", "fusion_lat": 0.0, "fusion_lon": 0.0, "bike_id": "68c5c7a88284252aceac99619bf19f5d", "rental_uris": {"ios": "https://dc.lft.to/lastmile_qr_scan", "android": "https://dc.lft.to/lastmile_qr_scan"}, "type": "electric_scooter", "lat": 38.91699583333333, "is_disabled": 0, "lon": -77.04013233333333, "is_reserved": 0}, {"name": "1971951ade8b0e6eaf867eb5055e68a2", "fusion_lat": 0.0, "fusion_lon": 0.0, "bike_id": "1971951ade8b0e6eaf867eb5055e68a2", "rental_uris": {"ios": "https://dc.lft.to/lastmile_qr_scan", "android": "https://dc.lft.to/lastmile_qr_scan"}, "type": "electric_scooter", "lat": 38.938587, "is_disabled": 0, "lon": -77.02486766666667, "is_reserved": 0}, {"name": "05da277c0482f64558556afbfdb36d3f", "fusion_lat": 0.0, "fusion_lon": 0.0, "bike_id": "05da277c0482f64558556afbfdb36d3f", "rental_uris": {"ios": "https://dc.lft.to/lastmile_qr_scan", "android": "https://dc.lft.to/lastmile_qr_scan"}, "type": "electric_bike", "lat": 38.9390935, "is_disabled": 0, "lon": -77.07695333333334, "is_reserved": 0}, {"name": "201e81b7d40305395bbd1b17ee33211c", "fusion_lat": 0.0, "fusion_lon": 0.0, "bike_id": "201e81b7d40305395bbd1b17ee33211c", "rental_uris": {"ios": "https://dc.lft.to/lastmile_qr_scan", "android": "https://dc.lft.to/lastmile_qr_scan"}, "type": "electric_scooter", "lat": 38.90527933333333, "is_disabled": 0, "lon": -77.05975383333333, "is_reserved": 0}, {"name": "c16671b71979f6e60340f353d4deb72c", "fusion_lat": 0.0, "fusion_lon": 0.0, "bike_id": "c16671b71979f6e60340f353d4deb72c", "rental_uris": {"ios": "https://dc.lft.to/lastmile_qr_scan", "android": "https://dc.lft.to/lastmile_qr_scan"}, "type": "electric_scooter", "lat": 38.932431, "is_disabled": 0, "lon": -77.034155, "is_reserved": 0}, {"name": "4cf973f7cdaa8fb2952363f97d66459f", "fusion_lat": 0.0, "fusion_lon": 0.0, "bike_id": "4cf973f7cdaa8fb2952363f97d66459f", "rental_uris": {"ios": "https://dc.lft.to/lastmile_qr_scan", "android": "https://dc.lft.to/lastmile_qr_scan"}, "type": "electric_scooter", "lat": 38.9051555, "is_disabled": 0, "lon": -77.066069, "is_reserved": 0}, {"name": "f3024c3372f069ea19f417487b82a14e", "fusion_lat": 0.0, "fusion_lon": 0.0, "bike_id": "f3024c3372f069ea19f417487b82a14e", "rental_uris": {"ios": "https://dc.lft.to/lastmile_qr_scan", "android": "https://dc.lft.to/lastmile_qr_scan"}, "type": "electric_scooter", "lat": 38.918797833333336, "is_disabled": 0, "lon": -77.04175066666667, "is_reserved": 0}, {"name": "843caadc1d416fa601cf3f06c6049b52", "fusion_lat": 0.0, "fusion_lon": 0.0, "bike_id": "843caadc1d416fa601cf3f06c6049b52", "rental_uris": {"ios": "https://dc.lft.to/lastmile_qr_scan", "android": "https://dc.lft.to/lastmile_qr_scan"}, "type": "electric_scooter", "lat": 38.87631833333333, "is_disabled": 0, "lon": -77.01262033333333, "is_reserved": 0}, {"name": "85ffd1df6875054770e74fb018ef9681", "fusion_lat": 0.0, "fusion_lon": 0.0, "bike_id": "85ffd1df6875054770e74fb018ef9681", "rental_uris": {"ios": "https://dc.lft.to/lastmile_qr_scan", "android": "https://dc.lft.to/lastmile_qr_scan"}, "type": "electric_scooter", "lat": 38.887398833333336, "is_disabled": 0, "lon": -77.02126, "is_reserved": 0}, {"name": "757a7ecb38519374da450eab25fc55dd", "fusion_lat": 0.0, "fusion_lon": 0.0, "bike_id": "757a7ecb38519374da450eab25fc55dd", "rental_uris": {"ios": "https://dc.lft.to/lastmile_qr_scan", "android": "https://dc.lft.to/lastmile_qr_scan"}, "type": "electric_scooter", "lat": 38.902469333333336, "is_disabled": 0, "lon": -77.0297195, "is_reserved": 0}, {"name": "c53d46c055656d543dda2b79f89c12e4", "fusion_lat": 0.0, "fusion_lon": 0.0, "bike_id": "c53d46c055656d543dda2b79f89c12e4", "rental_uris": {"ios": "https://dc.lft.to/lastmile_qr_scan", "android": "https://dc.lft.to/lastmile_qr_scan"}, "type": "electric_scooter", "lat": 38.876271833333334, "is_disabled": 0, "lon": -76.96530083333333, "is_reserved": 0}, {"name": "720765e08085e0060510304ded98f947", "fusion_lat": 0.0, "fusion_lon": 0.0, "bike_id": "720765e08085e0060510304ded98f947", "rental_uris": {"ios": "https://dc.lft.to/lastmile_qr_scan", "android": "https://dc.lft.to/lastmile_qr_scan"}, "type": "electric_scooter", "lat": 38.939556, "is_disabled": 0, "lon": -77.0277205, "is_reserved": 0}, {"name": "2aef8d1554c7a6bb9e25b49324e1f27e", "fusion_lat": 0.0, "fusion_lon": 0.0, "bike_id": "2aef8d1554c7a6bb9e25b49324e1f27e", "rental_uris": {"ios": "https://dc.lft.to/lastmile_qr_scan", "android": "https://dc.lft.to/lastmile_qr_scan"}, "type": "electric_scooter", "lat": 38.90879433333333, "is_disabled": 0, "lon": -77.04329716666666, "is_reserved": 0}, {"name": "fa16de5da5e54cc43bb8d562844640b5", "fusion_lat": 0.0, "fusion_lon": 0.0, "bike_id": "fa16de5da5e54cc43bb8d562844640b5", "rental_uris": {"ios": "https://dc.lft.to/lastmile_qr_scan", "android": "https://dc.lft.to/lastmile_qr_scan"}, "type": "electric_scooter", "lat": 38.886421, "is_disabled": 0, "lon": -77.0226595, "is_reserved": 0}, {"name": "3abebfc30ed309f59c1e9edc82460f2b", "fusion_lat": 0.0, "fusion_lon": 0.0, "bike_id": "3abebfc30ed309f59c1e9edc82460f2b", "rental_uris": {"ios": "https://dc.lft.to/lastmile_qr_scan", "android": "https://dc.lft.to/lastmile_qr_scan"}, "type": "electric_scooter", "lat": 38.9223285, "is_disabled": 0, "lon": -77.02848566666667, "is_reserved": 0}, {"name": "7ea2f74d20fbc1ae0520439a2a400849", "fusion_lat": 0.0, "fusion_lon": 0.0, "bike_id": "7ea2f74d20fbc1ae0520439a2a400849", "rental_uris": {"ios": "https://dc.lft.to/lastmile_qr_scan", "android": "https://dc.lft.to/lastmile_qr_scan"}, "type": "electric_scooter", "lat": 38.8990825, "is_disabled": 0, "lon": -76.9337345, "is_reserved": 0}, {"name": "5a93b057d914dd1e5ae1ca464a58c4de", "fusion_lat": 0.0, "fusion_lon": 0.0, "bike_id": "5a93b057d914dd1e5ae1ca464a58c4de", "rental_uris": {"ios": "https://dc.lft.to/lastmile_qr_scan", "android": "https://dc.lft.to/lastmile_qr_scan"}, "type": "electric_bike", "lat": 38.966177333333334, "is_disabled": 0, "lon": -77.03430516666667, "is_reserved": 0}, {"name": "b2fc3532cdf2f9aee80755733f72b406", "fusion_lat": 0.0, "fusion_lon": 0.0, "bike_id": "b2fc3532cdf2f9aee80755733f72b406", "rental_uris": {"ios": "https://dc.lft.to/lastmile_qr_scan", "android": "https://dc.lft.to/lastmile_qr_scan"}, "type": "electric_scooter", "lat": 38.895604166666665, "is_disabled": 0, "lon": -77.00919283333333, "is_reserved": 0}, {"name": "f9e86abf9033f0cc63e06b858a6bd6c5", "fusion_lat": 0.0, "fusion_lon": 0.0, "bike_id": "f9e86abf9033f0cc63e06b858a6bd6c5", "rental_uris": {"ios": "https://dc.lft.to/lastmile_qr_scan", "android": "https://dc.lft.to/lastmile_qr_scan"}, "type": "electric_scooter", "lat": 38.9174535, "is_disabled": 0, "lon": -77.03661766666667, "is_reserved": 0}, {"name": "4f67103db5b34499739204ac290a50f3", "fusion_lat": 0.0, "fusion_lon": 0.0, "bike_id": "4f67103db5b34499739204ac290a50f3", "rental_uris": {"ios": "https://dc.lft.to/lastmile_qr_scan", "android": "https://dc.lft.to/lastmile_qr_scan"}, "type": "electric_scooter", "lat": 38.892606666666666, "is_disabled": 0, "lon": -76.941607, "is_reserved": 0}, {"name": "f64d3f5be1431509ce64179e0b53ff30", "fusion_lat": 0.0, "fusion_lon": 0.0, "bike_id": "f64d3f5be1431509ce64179e0b53ff30", "rental_uris": {"ios": "https://dc.lft.to/lastmile_qr_scan", "android": "https://dc.lft.to/lastmile_qr_scan"}, "type": "electric_scooter", "lat": 38.8650575, "is_disabled": 0, "lon": -76.99004466666666, "is_reserved": 0}, {"name": "5aeeabd467ffb32e015bc67f88feb975", "fusion_lat": 0.0, "fusion_lon": 0.0, "bike_id": "5aeeabd467ffb32e015bc67f88feb975", "rental_uris": {"ios": "https://dc.lft.to/lastmile_qr_scan", "android": "https://dc.lft.to/lastmile_qr_scan"}, "type": "electric_scooter", "lat": 38.8967015, "is_disabled": 0, "lon": -76.9471735, "is_reserved": 0}, {"name": "e72e2edf915c0556273e151420cac83c", "fusion_lat": 0.0, "fusion_lon": 0.0, "bike_id": "e72e2edf915c0556273e151420cac83c", "rental_uris": {"ios": "https://dc.lft.to/lastmile_qr_scan", "android": "https://dc.lft.to/lastmile_qr_scan"}, "type": "electric_bike", "lat": 38.958927333333335, "is_disabled": 0, "lon": -76.96685533333333, "is_reserved": 0}, {"name": "91d0516a036ee0db015e51118dd82d4d", "fusion_lat": 0.0, "fusion_lon": 0.0, "bike_id": "91d0516a036ee0db015e51118dd82d4d", "rental_uris": {"ios": "https://dc.lft.to/lastmile_qr_scan", "android": "https://dc.lft.to/lastmile_qr_scan"}, "type": "electric_scooter", "lat": 38.902754, "is_disabled": 0, "lon": -77.03841, "is_reserved": 0}, {"name": "3a7c67f80155154f7ecffca035c0d633", "fusion_lat": 0.0, "fusion_lon": 0.0, "bike_id": "3a7c67f80155154f7ecffca035c0d633", "rental_uris": {"ios": "https://dc.lft.to/lastmile_qr_scan", "android": "https://dc.lft.to/lastmile_qr_scan"}, "type": "electric_scooter", "lat": 38.89338216666667, "is_disabled": 0, "lon": -77.04659583333333, "is_reserved": 0}, {"name": "05a0d5128efe6094bc2d133339dc3c56", "fusion_lat": 0.0, "fusion_lon": 0.0, "bike_id": "05a0d5128efe6094bc2d133339dc3c56", "rental_uris": {"ios": "https://dc.lft.to/lastmile_qr_scan", "android": "https://dc.lft.to/lastmile_qr_scan"}, "type": "electric_scooter", "lat": 38.911174833333334, "is_disabled": 0, "lon": -77.03152516666667, "is_reserved": 0}, {"name": "8ede6e432c254566fbe52271d436168b", "fusion_lat": 0.0, "fusion_lon": 0.0, "bike_id": "8ede6e432c254566fbe52271d436168b", "rental_uris": {"ios": "https://dc.lft.to/lastmile_qr_scan", "android": "https://dc.lft.to/lastmile_qr_scan"}, "type": "electric_scooter", "lat": 38.917830333333335, "is_disabled": 0, "lon": -77.02305666666666, "is_reserved": 0}, {"name": "40e6e855b413e799aa9e87c48868ac2f", "fusion_lat": 0.0, "fusion_lon": 0.0, "bike_id": "40e6e855b413e799aa9e87c48868ac2f", "rental_uris": {"ios": "https://dc.lft.to/lastmile_qr_scan", "android": "https://dc.lft.to/lastmile_qr_scan"}, "type": "electric_scooter", "lat": 38.90389283333333, "is_disabled": 0, "lon": -77.04665466666667, "is_reserved": 0}, {"name": "622c0898aa8bc4f42504aab3d35165b3", "fusion_lat": 0.0, "fusion_lon": 0.0, "bike_id": "622c0898aa8bc4f42504aab3d35165b3", "rental_uris": {"ios": "https://dc.lft.to/lastmile_qr_scan", "android": "https://dc.lft.to/lastmile_qr_scan"}, "type": "electric_scooter", "lat": 38.904163833333335, "is_disabled": 0, "lon": -77.04889883333334, "is_reserved": 0}, {"name": "29a88cd93f8629ae61c65d9a3bbfbd8e", "fusion_lat": 0.0, "fusion_lon": 0.0, "bike_id": "29a88cd93f8629ae61c65d9a3bbfbd8e", "rental_uris": {"ios": "https://dc.lft.to/lastmile_qr_scan", "android": "https://dc.lft.to/lastmile_qr_scan"}, "type": "electric_scooter", "lat": 38.8865595, "is_disabled": 0, "lon": -77.0339, "is_reserved": 0}, {"name": "34e47cfa9b292af844f8eebf7f83c7e4", "fusion_lat": 0.0, "fusion_lon": 0.0, "bike_id": "34e47cfa9b292af844f8eebf7f83c7e4", "rental_uris": {"ios": "https://dc.lft.to/lastmile_qr_scan", "android": "https://dc.lft.to/lastmile_qr_scan"}, "type": "electric_scooter", "lat": 38.9058585, "is_disabled": 0, "lon": -77.04332166666667, "is_reserved": 0}, {"name": "82186ee88a245373bb69bea5aa5dcba8", "fusion_lat": 0.0, "fusion_lon": 0.0, "bike_id": "82186ee88a245373bb69bea5aa5dcba8", "rental_uris": {"ios": "https://dc.lft.to/lastmile_qr_scan", "android": "https://dc.lft.to/lastmile_qr_scan"}, "type": "electric_scooter", "lat": 38.92151666666667, "is_disabled": 0, "lon": -77.0351, "is_reserved": 0}, {"name": "06fc404fc2b01333604e714438627bda", "fusion_lat": 0.0, "fusion_lon": 0.0, "bike_id": "06fc404fc2b01333604e714438627bda", "rental_uris": {"ios": "https://dc.lft.to/lastmile_qr_scan", "android": "https://dc.lft.to/lastmile_qr_scan"}, "type": "electric_scooter", "lat": 38.9142025, "is_disabled": 0, "lon": -77.04163016666666, "is_reserved": 0}, {"name": "2b7dc4fc7e9d472c72154df8fc6f8089", "fusion_lat": 0.0, "fusion_lon": 0.0, "bike_id": "2b7dc4fc7e9d472c72154df8fc6f8089", "rental_uris": {"ios": "https://dc.lft.to/lastmile_qr_scan", "android": "https://dc.lft.to/lastmile_qr_scan"}, "type": "electric_scooter", "lat": 38.90529316666667, "is_disabled": 0, "lon": -77.06534966666666, "is_reserved": 0}, {"name": "b157e0f4ec0116b017838543398e1d67", "fusion_lat": 0.0, "fusion_lon": 0.0, "bike_id": "b157e0f4ec0116b017838543398e1d67", "rental_uris": {"ios": "https://dc.lft.to/lastmile_qr_scan", "android": "https://dc.lft.to/lastmile_qr_scan"}, "type": "electric_bike", "lat": 38.84838466666667, "is_disabled": 0, "lon": -77.08054616666666, "is_reserved": 0}, {"name": "a5ea4d875a2812810609c458110e71d0", "fusion_lat": 0.0, "fusion_lon": 0.0, "bike_id": "a5ea4d875a2812810609c458110e71d0", "rental_uris": {"ios": "https://dc.lft.to/lastmile_qr_scan", "android": "https://dc.lft.to/lastmile_qr_scan"}, "type": "electric_scooter", "lat": 38.91831716666667, "is_disabled": 0, "lon": -76.96550383333333, "is_reserved": 0}, {"name": "49db17fa722dcff6679560c35a3afd28", "fusion_lat": 0.0, "fusion_lon": 0.0, "bike_id": "49db17fa722dcff6679560c35a3afd28", "rental_uris": {"ios": "https://dc.lft.to/lastmile_qr_scan", "android": "https://dc.lft.to/lastmile_qr_scan"}, "type": "electric_scooter", "lat": 38.875737666666666, "is_disabled": 0, "lon": -77.01994516666667, "is_reserved": 0}, {"name": "b96b5ccfdf52e64cbfdfe45fa984b9e4", "fusion_lat": 0.0, "fusion_lon": 0.0, "bike_id": "b96b5ccfdf52e64cbfdfe45fa984b9e4", "rental_uris": {"ios": "https://dc.lft.to/lastmile_qr_scan", "android": "https://dc.lft.to/lastmile_qr_scan"}, "type": "electric_scooter", "lat": 38.90659333333333, "is_disabled": 0, "lon": -77.04183666666667, "is_reserved": 0}, {"name": "adb340547053cc0341e4ba3ef1e486c0", "fusion_lat": 0.0, "fusion_lon": 0.0, "bike_id": "adb340547053cc0341e4ba3ef1e486c0", "rental_uris": {"ios": "https://dc.lft.to/lastmile_qr_scan", "android": "https://dc.lft.to/lastmile_qr_scan"}, "type": "electric_scooter", "lat": 38.8999195, "is_disabled": 0, "lon": -76.99857, "is_reserved": 0}, {"name": "d912eb276b0775a658f98551e5135efa", "fusion_lat": 0.0, "fusion_lon": 0.0, "bike_id": "d912eb276b0775a658f98551e5135efa", "rental_uris": {"ios": "https://dc.lft.to/lastmile_qr_scan", "android": "https://dc.lft.to/lastmile_qr_scan"}, "type": "electric_scooter", "lat": 38.92543466666667, "is_disabled": 0, "lon": -77.05191333333333, "is_reserved": 0}, {"name": "8ffa2d078f4880b90e70060808071b20", "fusion_lat": 0.0, "fusion_lon": 0.0, "bike_id": "8ffa2d078f4880b90e70060808071b20", "rental_uris": {"ios": "https://dc.lft.to/lastmile_qr_scan", "android": "https://dc.lft.to/lastmile_qr_scan"}, "type": "electric_scooter", "lat": 38.8850425, "is_disabled": 0, "lon": -76.996509, "is_reserved": 0}, {"name": "ee84c5eb96d4c6171800964440bf8ab5", "fusion_lat": 0.0, "fusion_lon": 0.0, "bike_id": "ee84c5eb96d4c6171800964440bf8ab5", "rental_uris": {"ios": "https://dc.lft.to/lastmile_qr_scan", "android": "https://dc.lft.to/lastmile_qr_scan"}, "type": "electric_scooter", "lat": 38.92254283333333, "is_disabled": 0, "lon": -77.03522816666667, "is_reserved": 0}, {"name": "aab5ce0f9f15b38c5ce1a1acc005b5b8", "fusion_lat": 0.0, "fusion_lon": 0.0, "bike_id": "aab5ce0f9f15b38c5ce1a1acc005b5b8", "rental_uris": {"ios": "https://dc.lft.to/lastmile_qr_scan", "android": "https://dc.lft.to/lastmile_qr_scan"}, "type": "electric_bike", "lat": 38.8506115, "is_disabled": 0, "lon": -76.97332466666667, "is_reserved": 0}, {"name": "5bbde08b16916bea47868d400ce065d8", "fusion_lat": 0.0, "fusion_lon": 0.0, "bike_id": "5bbde08b16916bea47868d400ce065d8", "rental_uris": {"ios": "https://dc.lft.to/lastmile_qr_scan", "android": "https://dc.lft.to/lastmile_qr_scan"}, "type": "electric_scooter", "lat": 38.902789166666665, "is_disabled": 0, "lon": -77.0383965, "is_reserved": 0}, {"name": "e6bfcb383723c28a19e0f5b3364b1912", "fusion_lat": 0.0, "fusion_lon": 0.0, "bike_id": "e6bfcb383723c28a19e0f5b3364b1912", "rental_uris": {"ios": "https://dc.lft.to/lastmile_qr_scan", "android": "https://dc.lft.to/lastmile_qr_scan"}, "type": "electric_scooter", "lat": 38.90558716666666, "is_disabled": 0, "lon": -77.00713083333333, "is_reserved": 0}, {"name": "251d23414b94c9635e37f2934db1acf7", "fusion_lat": 0.0, "fusion_lon": 0.0, "bike_id": "251d23414b94c9635e37f2934db1acf7", "rental_uris": {"ios": "https://dc.lft.to/lastmile_qr_scan", "android": "https://dc.lft.to/lastmile_qr_scan"}, "type": "electric_scooter", "lat": 38.907283, "is_disabled": 0, "lon": -77.03955766666667, "is_reserved": 0}, {"name": "9cdec156ebcc7d293c2b2ee0f366a3f4", "fusion_lat": 0.0, "fusion_lon": 0.0, "bike_id": "9cdec156ebcc7d293c2b2ee0f366a3f4", "rental_uris": {"ios": "https://dc.lft.to/lastmile_qr_scan", "android": "https://dc.lft.to/lastmile_qr_scan"}, "type": "electric_scooter", "lat": 38.907158, "is_disabled": 0, "lon": -77.04349433333333, "is_reserved": 0}, {"name": "e19181cb5a17941ff0a08a99b69e9ce8", "fusion_lat": 0.0, "fusion_lon": 0.0, "bike_id": "e19181cb5a17941ff0a08a99b69e9ce8", "rental_uris": {"ios": "https://dc.lft.to/lastmile_qr_scan", "android": "https://dc.lft.to/lastmile_qr_scan"}, "type": "electric_scooter", "lat": 38.89781983333334, "is_disabled": 0, "lon": -77.03955966666666, "is_reserved": 0}, {"name": "52e7b19e20dabd74336d5fa8b6e55d8a", "fusion_lat": 0.0, "fusion_lon": 0.0, "bike_id": "52e7b19e20dabd74336d5fa8b6e55d8a", "rental_uris": {"ios": "https://dc.lft.to/lastmile_qr_scan", "android": "https://dc.lft.to/lastmile_qr_scan"}, "type": "electric_scooter", "lat": 38.9219155, "is_disabled": 0, "lon": -77.04017616666667, "is_reserved": 0}, {"name": "5c24de60d65bf935cebf4316f80baac4", "fusion_lat": 0.0, "fusion_lon": 0.0, "bike_id": "5c24de60d65bf935cebf4316f80baac4", "rental_uris": {"ios": "https://dc.lft.to/lastmile_qr_scan", "android": "https://dc.lft.to/lastmile_qr_scan"}, "type": "electric_scooter", "lat": 38.89601283333333, "is_disabled": 0, "lon": -77.01124866666666, "is_reserved": 0}, {"name": "11b03fd579d9881b2e06261d50c23455", "fusion_lat": 0.0, "fusion_lon": 0.0, "bike_id": "11b03fd579d9881b2e06261d50c23455", "rental_uris": {"ios": "https://dc.lft.to/lastmile_qr_scan", "android": "https://dc.lft.to/lastmile_qr_scan"}, "type": "electric_bike", "lat": 38.910894166666665, "is_disabled": 0, "lon": -76.9849155, "is_reserved": 0}, {"name": "c3c44e8e2f5eaa61f0d7132ea12030e5", "fusion_lat": 0.0, "fusion_lon": 0.0, "bike_id": "c3c44e8e2f5eaa61f0d7132ea12030e5", "rental_uris": {"ios": "https://dc.lft.to/lastmile_qr_scan", "android": "https://dc.lft.to/lastmile_qr_scan"}, "type": "electric_scooter", "lat": 38.91618116666667, "is_disabled": 0, "lon": -77.02486483333334, "is_reserved": 0}, {"name": "e795d8fa5762d784dd748707f0160143", "fusion_lat": 0.0, "fusion_lon": 0.0, "bike_id": "e795d8fa5762d784dd748707f0160143", "rental_uris": {"ios": "https://dc.lft.to/lastmile_qr_scan", "android": "https://dc.lft.to/lastmile_qr_scan"}, "type": "electric_scooter", "lat": 38.932476666666666, "is_disabled": 0, "lon": -77.02727483333334, "is_reserved": 0}, {"name": "55a703b84c93c70de4d99435838b2ce6", "fusion_lat": 0.0, "fusion_lon": 0.0, "bike_id": "55a703b84c93c70de4d99435838b2ce6", "rental_uris": {"ios": "https://dc.lft.to/lastmile_qr_scan", "android": "https://dc.lft.to/lastmile_qr_scan"}, "type": "electric_scooter", "lat": 38.93062883333333, "is_disabled": 0, "lon": -77.0381725, "is_reserved": 0}, {"name": "b9b5ef5f5a0f0c0bc108c307990a0e94", "fusion_lat": 0.0, "fusion_lon": 0.0, "bike_id": "b9b5ef5f5a0f0c0bc108c307990a0e94", "rental_uris": {"ios": "https://dc.lft.to/lastmile_qr_scan", "android": "https://dc.lft.to/lastmile_qr_scan"}, "type": "electric_scooter", "lat": 38.9334445, "is_disabled": 0, "lon": -77.059507, "is_reserved": 0}, {"name": "20bf9d8d717997488150ed06b7dbefe5", "fusion_lat": 0.0, "fusion_lon": 0.0, "bike_id": "20bf9d8d717997488150ed06b7dbefe5", "rental_uris": {"ios": "https://dc.lft.to/lastmile_qr_scan", "android": "https://dc.lft.to/lastmile_qr_scan"}, "type": "electric_scooter", "lat": 38.892199166666664, "is_disabled": 0, "lon": -77.04189666666667, "is_reserved": 0}, {"name": "8ebdd9592683df0eb627ffabc77f9c08", "fusion_lat": 0.0, "fusion_lon": 0.0, "bike_id": "8ebdd9592683df0eb627ffabc77f9c08", "rental_uris": {"ios": "https://dc.lft.to/lastmile_qr_scan", "android": "https://dc.lft.to/lastmile_qr_scan"}, "type": "electric_scooter", "lat": 38.90519416666667, "is_disabled": 0, "lon": -77.05416533333333, "is_reserved": 0}, {"name": "54dc5e9e2b1a942d662015edd44453fd", "fusion_lat": 0.0, "fusion_lon": 0.0, "bike_id": "54dc5e9e2b1a942d662015edd44453fd", "rental_uris": {"ios": "https://dc.lft.to/lastmile_qr_scan", "android": "https://dc.lft.to/lastmile_qr_scan"}, "type": "electric_scooter", "lat": 38.8982045, "is_disabled": 0, "lon": -77.02958816666667, "is_reserved": 0}, {"name": "2595d67eb8392ea1844088877ba5d35c", "fusion_lat": 0.0, "fusion_lon": 0.0, "bike_id": "2595d67eb8392ea1844088877ba5d35c", "rental_uris": {"ios": "https://dc.lft.to/lastmile_qr_scan", "android": "https://dc.lft.to/lastmile_qr_scan"}, "type": "electric_scooter", "lat": 38.911868, "is_disabled": 0, "lon": -77.03924766666667, "is_reserved": 0}, {"name": "bfd6fa4f7453c603042e45b6d5374cd4", "fusion_lat": 0.0, "fusion_lon": 0.0, "bike_id": "bfd6fa4f7453c603042e45b6d5374cd4", "rental_uris": {"ios": "https://dc.lft.to/lastmile_qr_scan", "android": "https://dc.lft.to/lastmile_qr_scan"}, "type": "electric_scooter", "lat": 38.9117895, "is_disabled": 0, "lon": -77.0414745, "is_reserved": 0}, {"name": "7d465c381cc84be6e2def6db9b0739d0", "fusion_lat": 0.0, "fusion_lon": 0.0, "bike_id": "7d465c381cc84be6e2def6db9b0739d0", "rental_uris": {"ios": "https://dc.lft.to/lastmile_qr_scan", "android": "https://dc.lft.to/lastmile_qr_scan"}, "type": "electric_scooter", "lat": 38.90238866666667, "is_disabled": 0, "lon": -77.024132, "is_reserved": 0}, {"name": "7741e7c38287576437fe0e17079cf498", "fusion_lat": 0.0, "fusion_lon": 0.0, "bike_id": "7741e7c38287576437fe0e17079cf498", "rental_uris": {"ios": "https://dc.lft.to/lastmile_qr_scan", "android": "https://dc.lft.to/lastmile_qr_scan"}, "type": "electric_scooter", "lat": 38.86207016666667, "is_disabled": 0, "lon": -76.99439483333333, "is_reserved": 0}, {"name": "0038b604d3af0727473637957088b82b", "fusion_lat": 0.0, "fusion_lon": 0.0, "bike_id": "0038b604d3af0727473637957088b82b", "rental_uris": {"ios": "https://dc.lft.to/lastmile_qr_scan", "android": "https://dc.lft.to/lastmile_qr_scan"}, "type": "electric_scooter", "lat": 38.90835033333333, "is_disabled": 0, "lon": -77.04159366666667, "is_reserved": 0}, {"name": "507f1337f5ac491840005c9fe9190919", "fusion_lat": 0.0, "fusion_lon": 0.0, "bike_id": "507f1337f5ac491840005c9fe9190919", "rental_uris": {"ios": "https://dc.lft.to/lastmile_qr_scan", "android": "https://dc.lft.to/lastmile_qr_scan"}, "type": "electric_scooter", "lat": 38.865042333333335, "is_disabled": 0, "lon": -76.99008616666667, "is_reserved": 0}, {"name": "378b579a163622442e1cfc2f4de76830", "fusion_lat": 0.0, "fusion_lon": 0.0, "bike_id": "378b579a163622442e1cfc2f4de76830", "rental_uris": {"ios": "https://dc.lft.to/lastmile_qr_scan", "android": "https://dc.lft.to/lastmile_qr_scan"}, "type": "electric_scooter", "lat": 38.921153333333336, "is_disabled": 0, "lon": -76.993875, "is_reserved": 0}, {"name": "400187cc469ed82dc503c174e0791f79", "fusion_lat": 0.0, "fusion_lon": 0.0, "bike_id": "400187cc469ed82dc503c174e0791f79", "rental_uris": {"ios": "https://dc.lft.to/lastmile_qr_scan", "android": "https://dc.lft.to/lastmile_qr_scan"}, "type": "electric_scooter", "lat": 38.918355, "is_disabled": 0, "lon": -76.965492, "is_reserved": 0}, {"name": "db8804825965a435d3c7b50fceecf0b3", "fusion_lat": 0.0, "fusion_lon": 0.0, "bike_id": "db8804825965a435d3c7b50fceecf0b3", "rental_uris": {"ios": "https://dc.lft.to/lastmile_qr_scan", "android": "https://dc.lft.to/lastmile_qr_scan"}, "type": "electric_scooter", "lat": 38.89395916666667, "is_disabled": 0, "lon": -76.94994583333333, "is_reserved": 0}, {"name": "c91f81a45828ac5293dcd19b13fabc08", "fusion_lat": 0.0, "fusion_lon": 0.0, "bike_id": "c91f81a45828ac5293dcd19b13fabc08", "rental_uris": {"ios": "https://dc.lft.to/lastmile_qr_scan", "android": "https://dc.lft.to/lastmile_qr_scan"}, "type": "electric_scooter", "lat": 38.901295166666664, "is_disabled": 0, "lon": -77.016476, "is_reserved": 0}, {"name": "ff4c2844c47018cfe2a498ad9d5a465a", "fusion_lat": 0.0, "fusion_lon": 0.0, "bike_id": "ff4c2844c47018cfe2a498ad9d5a465a", "rental_uris": {"ios": "https://dc.lft.to/lastmile_qr_scan", "android": "https://dc.lft.to/lastmile_qr_scan"}, "type": "electric_scooter", "lat": 38.942806, "is_disabled": 0, "lon": -77.03634216666667, "is_reserved": 0}, {"name": "2c8465bd5010224e33b4fa2d0be7c279", "fusion_lat": 0.0, "fusion_lon": 0.0, "bike_id": "2c8465bd5010224e33b4fa2d0be7c279", "rental_uris": {"ios": "https://dc.lft.to/lastmile_qr_scan", "android": "https://dc.lft.to/lastmile_qr_scan"}, "type": "electric_scooter", "lat": 38.90795516666667, "is_disabled": 0, "lon": -76.99707666666667, "is_reserved": 0}, {"name": "f64dc9947396d56124fb104df23bcfe9", "fusion_lat": 0.0, "fusion_lon": 0.0, "bike_id": "f64dc9947396d56124fb104df23bcfe9", "rental_uris": {"ios": "https://dc.lft.to/lastmile_qr_scan", "android": "https://dc.lft.to/lastmile_qr_scan"}, "type": "electric_scooter", "lat": 38.8988735, "is_disabled": 0, "lon": -77.03273066666667, "is_reserved": 0}, {"name": "c9dde8e63177a359cd6d36c4c94fd14f", "fusion_lat": 0.0, "fusion_lon": 0.0, "bike_id": "c9dde8e63177a359cd6d36c4c94fd14f", "rental_uris": {"ios": "https://dc.lft.to/lastmile_qr_scan", "android": "https://dc.lft.to/lastmile_qr_scan"}, "type": "electric_scooter", "lat": 38.85811116666667, "is_disabled": 0, "lon": -76.98964916666667, "is_reserved": 0}, {"name": "9315e8869e1bd68fe0072bebb4e6a1bc", "fusion_lat": 0.0, "fusion_lon": 0.0, "bike_id": "9315e8869e1bd68fe0072bebb4e6a1bc", "rental_uris": {"ios": "https://dc.lft.to/lastmile_qr_scan", "android": "https://dc.lft.to/lastmile_qr_scan"}, "type": "electric_scooter", "lat": 38.90163116666667, "is_disabled": 0, "lon": -77.0288335, "is_reserved": 0}, {"name": "927cc898bd450af40f621711307657b4", "fusion_lat": 0.0, "fusion_lon": 0.0, "bike_id": "927cc898bd450af40f621711307657b4", "rental_uris": {"ios": "https://dc.lft.to/lastmile_qr_scan", "android": "https://dc.lft.to/lastmile_qr_scan"}, "type": "electric_scooter", "lat": 38.94985783333333, "is_disabled": 0, "lon": -77.027071, "is_reserved": 0}, {"name": "3b7a70a813564463ad002eea04a2b7cc", "fusion_lat": 0.0, "fusion_lon": 0.0, "bike_id": "3b7a70a813564463ad002eea04a2b7cc", "rental_uris": {"ios": "https://dc.lft.to/lastmile_qr_scan", "android": "https://dc.lft.to/lastmile_qr_scan"}, "type": "electric_scooter", "lat": 38.89323733333333, "is_disabled": 0, "lon": -77.0211925, "is_reserved": 0}, {"name": "5910dbec4680e1d81ca655c14dc49fab", "fusion_lat": 0.0, "fusion_lon": 0.0, "bike_id": "5910dbec4680e1d81ca655c14dc49fab", "rental_uris": {"ios": "https://dc.lft.to/lastmile_qr_scan", "android": "https://dc.lft.to/lastmile_qr_scan"}, "type": "electric_scooter", "lat": 38.937516333333335, "is_disabled": 0, "lon": -77.02484833333334, "is_reserved": 0}, {"name": "f5ecb74d357a7ccce1b49dfa83be1dda", "fusion_lat": 0.0, "fusion_lon": 0.0, "bike_id": "f5ecb74d357a7ccce1b49dfa83be1dda", "rental_uris": {"ios": "https://dc.lft.to/lastmile_qr_scan", "android": "https://dc.lft.to/lastmile_qr_scan"}, "type": "electric_scooter", "lat": 38.93852566666666, "is_disabled": 0, "lon": -77.02471233333333, "is_reserved": 0}, {"name": "936b243548a5478162ba91d3225d3a44", "fusion_lat": 0.0, "fusion_lon": 0.0, "bike_id": "936b243548a5478162ba91d3225d3a44", "rental_uris": {"ios": "https://dc.lft.to/lastmile_qr_scan", "android": "https://dc.lft.to/lastmile_qr_scan"}, "type": "electric_scooter", "lat": 38.847995166666664, "is_disabled": 0, "lon": -76.96717816666667, "is_reserved": 0}, {"name": "46b565aa1f54f5a073ccad82e9579de1", "fusion_lat": 0.0, "fusion_lon": 0.0, "bike_id": "46b565aa1f54f5a073ccad82e9579de1", "rental_uris": {"ios": "https://dc.lft.to/lastmile_qr_scan", "android": "https://dc.lft.to/lastmile_qr_scan"}, "type": "electric_scooter", "lat": 38.91267283333333, "is_disabled": 0, "lon": -77.04156366666666, "is_reserved": 0}, {"name": "a3586e17d7aa9a0731aeba8ff76902d5", "fusion_lat": 0.0, "fusion_lon": 0.0, "bike_id": "a3586e17d7aa9a0731aeba8ff76902d5", "rental_uris": {"ios": "https://dc.lft.to/lastmile_qr_scan", "android": "https://dc.lft.to/lastmile_qr_scan"}, "type": "electric_scooter", "lat": 38.89741516666667, "is_disabled": 0, "lon": -77.04697416666667, "is_reserved": 0}, {"name": "6423dc75a0721885ef4a52b15622f6b4", "fusion_lat": 0.0, "fusion_lon": 0.0, "bike_id": "6423dc75a0721885ef4a52b15622f6b4", "rental_uris": {"ios": "https://dc.lft.to/lastmile_qr_scan", "android": "https://dc.lft.to/lastmile_qr_scan"}, "type": "electric_scooter", "lat": 38.904967666666664, "is_disabled": 0, "lon": -77.02953633333334, "is_reserved": 0}, {"name": "a5874cbc3e9df94d72b616fb85ba0387", "fusion_lat": 0.0, "fusion_lon": 0.0, "bike_id": "a5874cbc3e9df94d72b616fb85ba0387", "rental_uris": {"ios": "https://dc.lft.to/lastmile_qr_scan", "android": "https://dc.lft.to/lastmile_qr_scan"}, "type": "electric_scooter", "lat": 38.9286975, "is_disabled": 0, "lon": -77.0344105, "is_reserved": 0}, {"name": "bab27de3587e815d527cec5c9e1a6447", "fusion_lat": 0.0, "fusion_lon": 0.0, "bike_id": "bab27de3587e815d527cec5c9e1a6447", "rental_uris": {"ios": "https://dc.lft.to/lastmile_qr_scan", "android": "https://dc.lft.to/lastmile_qr_scan"}, "type": "electric_scooter", "lat": 38.900163, "is_disabled": 0, "lon": -77.044086, "is_reserved": 0}, {"name": "6bc0bc68746188f3bb04d953d8e5545e", "fusion_lat": 0.0, "fusion_lon": 0.0, "bike_id": "6bc0bc68746188f3bb04d953d8e5545e", "rental_uris": {"ios": "https://dc.lft.to/lastmile_qr_scan", "android": "https://dc.lft.to/lastmile_qr_scan"}, "type": "electric_scooter", "lat": 38.8666155, "is_disabled": 0, "lon": -76.98888366666667, "is_reserved": 0}, {"name": "2a6e5125f8e8b975dad3c12d57101a7f", "fusion_lat": 0.0, "fusion_lon": 0.0, "bike_id": "2a6e5125f8e8b975dad3c12d57101a7f", "rental_uris": {"ios": "https://dc.lft.to/lastmile_qr_scan", "android": "https://dc.lft.to/lastmile_qr_scan"}, "type": "electric_scooter", "lat": 38.962128166666666, "is_disabled": 0, "lon": -77.02803516666667, "is_reserved": 0}, {"name": "a56cb977bfcbf9950fc95aaf2ead7654", "fusion_lat": 0.0, "fusion_lon": 0.0, "bike_id": "a56cb977bfcbf9950fc95aaf2ead7654", "rental_uris": {"ios": "https://dc.lft.to/lastmile_qr_scan", "android": "https://dc.lft.to/lastmile_qr_scan"}, "type": "electric_scooter", "lat": 38.9017485, "is_disabled": 0, "lon": -76.9282995, "is_reserved": 0}, {"name": "9b3d77b4346e918bddad6dfe46990a8a", "fusion_lat": 0.0, "fusion_lon": 0.0, "bike_id": "9b3d77b4346e918bddad6dfe46990a8a", "rental_uris": {"ios": "https://dc.lft.to/lastmile_qr_scan", "android": "https://dc.lft.to/lastmile_qr_scan"}, "type": "electric_scooter", "lat": 38.920738666666665, "is_disabled": 0, "lon": -77.02511883333334, "is_reserved": 0}, {"name": "645d187ebea9cf52500d3efeb380ab1b", "fusion_lat": 0.0, "fusion_lon": 0.0, "bike_id": "645d187ebea9cf52500d3efeb380ab1b", "rental_uris": {"ios": "https://dc.lft.to/lastmile_qr_scan", "android": "https://dc.lft.to/lastmile_qr_scan"}, "type": "electric_scooter", "lat": 38.9107795, "is_disabled": 0, "lon": -77.00155133333334, "is_reserved": 0}, {"name": "86655ee217a9e03670f868f1e2f75783", "fusion_lat": 0.0, "fusion_lon": 0.0, "bike_id": "86655ee217a9e03670f868f1e2f75783", "rental_uris": {"ios": "https://dc.lft.to/lastmile_qr_scan", "android": "https://dc.lft.to/lastmile_qr_scan"}, "type": "electric_scooter", "lat": 38.901418, "is_disabled": 0, "lon": -77.03979216666667, "is_reserved": 0}, {"name": "2363c9a0be0ff71a76926a19aa1dfc35", "fusion_lat": 0.0, "fusion_lon": 0.0, "bike_id": "2363c9a0be0ff71a76926a19aa1dfc35", "rental_uris": {"ios": "https://dc.lft.to/lastmile_qr_scan", "android": "https://dc.lft.to/lastmile_qr_scan"}, "type": "electric_scooter", "lat": 38.8972175, "is_disabled": 0, "lon": -76.99260066666666, "is_reserved": 0}, {"name": "8d9b37db993e60964b2b4186259d3ff0", "fusion_lat": 0.0, "fusion_lon": 0.0, "bike_id": "8d9b37db993e60964b2b4186259d3ff0", "rental_uris": {"ios": "https://dc.lft.to/lastmile_qr_scan", "android": "https://dc.lft.to/lastmile_qr_scan"}, "type": "electric_scooter", "lat": 38.922502333333334, "is_disabled": 0, "lon": -77.03076283333333, "is_reserved": 0}, {"name": "55c31233e943da9e3dd31f460d3ab63c", "fusion_lat": 0.0, "fusion_lon": 0.0, "bike_id": "55c31233e943da9e3dd31f460d3ab63c", "rental_uris": {"ios": "https://dc.lft.to/lastmile_qr_scan", "android": "https://dc.lft.to/lastmile_qr_scan"}, "type": "electric_scooter", "lat": 38.915516333333336, "is_disabled": 0, "lon": -77.03254516666667, "is_reserved": 0}, {"name": "6b94a536559c20a3add8e2c1be69073c", "fusion_lat": 0.0, "fusion_lon": 0.0, "bike_id": "6b94a536559c20a3add8e2c1be69073c", "rental_uris": {"ios": "https://dc.lft.to/lastmile_qr_scan", "android": "https://dc.lft.to/lastmile_qr_scan"}, "type": "electric_scooter", "lat": 38.8995335, "is_disabled": 0, "lon": -77.043443, "is_reserved": 0}, {"name": "0f02b6cb2ad6fa19128b25e0fabab40e", "fusion_lat": 0.0, "fusion_lon": 0.0, "bike_id": "0f02b6cb2ad6fa19128b25e0fabab40e", "rental_uris": {"ios": "https://dc.lft.to/lastmile_qr_scan", "android": "https://dc.lft.to/lastmile_qr_scan"}, "type": "electric_scooter", "lat": 38.91563283333333, "is_disabled": 0, "lon": -77.03272266666667, "is_reserved": 0}, {"name": "153fdd344c745cac7e854cad1eb5d59a", "fusion_lat": 0.0, "fusion_lon": 0.0, "bike_id": "153fdd344c745cac7e854cad1eb5d59a", "rental_uris": {"ios": "https://dc.lft.to/lastmile_qr_scan", "android": "https://dc.lft.to/lastmile_qr_scan"}, "type": "electric_scooter", "lat": 38.90528783333333, "is_disabled": 0, "lon": -77.029649, "is_reserved": 0}, {"name": "e44b3ead5e3b2d3f475e1b436009aec2", "fusion_lat": 0.0, "fusion_lon": 0.0, "bike_id": "e44b3ead5e3b2d3f475e1b436009aec2", "rental_uris": {"ios": "https://dc.lft.to/lastmile_qr_scan", "android": "https://dc.lft.to/lastmile_qr_scan"}, "type": "electric_scooter", "lat": 38.89717, "is_disabled": 0, "lon": -77.00798616666667, "is_reserved": 0}, {"name": "b5486c5a4b308a17adbae860aea4fe0e", "fusion_lat": 0.0, "fusion_lon": 0.0, "bike_id": "b5486c5a4b308a17adbae860aea4fe0e", "rental_uris": {"ios": "https://dc.lft.to/lastmile_qr_scan", "android": "https://dc.lft.to/lastmile_qr_scan"}, "type": "electric_scooter", "lat": 38.899720333333335, "is_disabled": 0, "lon": -77.04617483333334, "is_reserved": 0}, {"name": "dc982e87e8f957405973b4a68389b83c", "fusion_lat": 0.0, "fusion_lon": 0.0, "bike_id": "dc982e87e8f957405973b4a68389b83c", "rental_uris": {"ios": "https://dc.lft.to/lastmile_qr_scan", "android": "https://dc.lft.to/lastmile_qr_scan"}, "type": "electric_scooter", "lat": 38.93249216666667, "is_disabled": 0, "lon": -77.03279716666667, "is_reserved": 0}, {"name": "c6e723918d8d8ae9d3bfd5ac0167c6ab", "fusion_lat": 0.0, "fusion_lon": 0.0, "bike_id": "c6e723918d8d8ae9d3bfd5ac0167c6ab", "rental_uris": {"ios": "https://dc.lft.to/lastmile_qr_scan", "android": "https://dc.lft.to/lastmile_qr_scan"}, "type": "electric_scooter", "lat": 38.896164166666665, "is_disabled": 0, "lon": -76.99636183333334, "is_reserved": 0}, {"name": "f33542c14c8f83043589873539eae9ad", "fusion_lat": 0.0, "fusion_lon": 0.0, "bike_id": "f33542c14c8f83043589873539eae9ad", "rental_uris": {"ios": "https://dc.lft.to/lastmile_qr_scan", "android": "https://dc.lft.to/lastmile_qr_scan"}, "type": "electric_bike", "lat": 38.95753283333333, "is_disabled": 0, "lon": -76.98021783333333, "is_reserved": 0}, {"name": "0314c7c338ce29866bccee5fb0f05ffb", "fusion_lat": 0.0, "fusion_lon": 0.0, "bike_id": "0314c7c338ce29866bccee5fb0f05ffb", "rental_uris": {"ios": "https://dc.lft.to/lastmile_qr_scan", "android": "https://dc.lft.to/lastmile_qr_scan"}, "type": "electric_bike", "lat": 39.01729733333333, "is_disabled": 0, "lon": -77.06384033333333, "is_reserved": 0}, {"name": "6a6c5f17ab6e95b19c00cb103783d132", "fusion_lat": 0.0, "fusion_lon": 0.0, "bike_id": "6a6c5f17ab6e95b19c00cb103783d132", "rental_uris": {"ios": "https://dc.lft.to/lastmile_qr_scan", "android": "https://dc.lft.to/lastmile_qr_scan"}, "type": "electric_scooter", "lat": 38.8666945, "is_disabled": 0, "lon": -76.98887033333334, "is_reserved": 0}, {"name": "3733710bc2e2bc296eec1c117e2ab497", "fusion_lat": 0.0, "fusion_lon": 0.0, "bike_id": "3733710bc2e2bc296eec1c117e2ab497", "rental_uris": {"ios": "https://dc.lft.to/lastmile_qr_scan", "android": "https://dc.lft.to/lastmile_qr_scan"}, "type": "electric_scooter", "lat": 38.90125666666667, "is_disabled": 0, "lon": -77.030525, "is_reserved": 0}, {"name": "94689dbb373b576808f108e4c58996ee", "fusion_lat": 0.0, "fusion_lon": 0.0, "bike_id": "94689dbb373b576808f108e4c58996ee", "rental_uris": {"ios": "https://dc.lft.to/lastmile_qr_scan", "android": "https://dc.lft.to/lastmile_qr_scan"}, "type": "electric_scooter", "lat": 38.89191316666667, "is_disabled": 0, "lon": -77.00295433333334, "is_reserved": 0}, {"name": "64c8f359eaf7620449c91d9bbd46c055", "fusion_lat": 0.0, "fusion_lon": 0.0, "bike_id": "64c8f359eaf7620449c91d9bbd46c055", "rental_uris": {"ios": "https://dc.lft.to/lastmile_qr_scan", "android": "https://dc.lft.to/lastmile_qr_scan"}, "type": "electric_bike", "lat": 38.963076666666666, "is_disabled": 0, "lon": -77.057607, "is_reserved": 0}, {"name": "1b2b1d8ffcce6915bdc89c3aeb67b01d", "fusion_lat": 0.0, "fusion_lon": 0.0, "bike_id": "1b2b1d8ffcce6915bdc89c3aeb67b01d", "rental_uris": {"ios": "https://dc.lft.to/lastmile_qr_scan", "android": "https://dc.lft.to/lastmile_qr_scan"}, "type": "electric_bike", "lat": 38.83344916666667, "is_disabled": 0, "lon": -76.96550566666667, "is_reserved": 0}, {"name": "8c44788220ff2922eb17db03b9d738a9", "fusion_lat": 0.0, "fusion_lon": 0.0, "bike_id": "8c44788220ff2922eb17db03b9d738a9", "rental_uris": {"ios": "https://dc.lft.to/lastmile_qr_scan", "android": "https://dc.lft.to/lastmile_qr_scan"}, "type": "electric_bike", "lat": 38.9185385, "is_disabled": 0, "lon": -76.96091333333334, "is_reserved": 0}, {"name": "add318cadb36cd2abbc023d2eb343d52", "fusion_lat": 0.0, "fusion_lon": 0.0, "bike_id": "add318cadb36cd2abbc023d2eb343d52", "rental_uris": {"ios": "https://dc.lft.to/lastmile_qr_scan", "android": "https://dc.lft.to/lastmile_qr_scan"}, "type": "electric_scooter", "lat": 38.9046055, "is_disabled": 0, "lon": -77.02950366666667, "is_reserved": 0}, {"name": "ba38f2ee82ac22ce6b2e47d20f60ae76", "fusion_lat": 0.0, "fusion_lon": 0.0, "bike_id": "ba38f2ee82ac22ce6b2e47d20f60ae76", "rental_uris": {"ios": "https://dc.lft.to/lastmile_qr_scan", "android": "https://dc.lft.to/lastmile_qr_scan"}, "type": "electric_scooter", "lat": 38.9225135, "is_disabled": 0, "lon": -77.0308775, "is_reserved": 0}, {"name": "1c467d979f6a62fe375cc1d9be3a50e5", "fusion_lat": 0.0, "fusion_lon": 0.0, "bike_id": "1c467d979f6a62fe375cc1d9be3a50e5", "rental_uris": {"ios": "https://dc.lft.to/lastmile_qr_scan", "android": "https://dc.lft.to/lastmile_qr_scan"}, "type": "electric_scooter", "lat": 38.882503666666665, "is_disabled": 0, "lon": -77.003433, "is_reserved": 0}, {"name": "cd1dd281e36aa9a32e9718b4b5b11469", "fusion_lat": 0.0, "fusion_lon": 0.0, "bike_id": "cd1dd281e36aa9a32e9718b4b5b11469", "rental_uris": {"ios": "https://dc.lft.to/lastmile_qr_scan", "android": "https://dc.lft.to/lastmile_qr_scan"}, "type": "electric_scooter", "lat": 38.911879166666665, "is_disabled": 0, "lon": -77.0314395, "is_reserved": 0}, {"name": "b65e13fdf5357c7de2d69b23aeba3733", "fusion_lat": 0.0, "fusion_lon": 0.0, "bike_id": "b65e13fdf5357c7de2d69b23aeba3733", "rental_uris": {"ios": "https://dc.lft.to/lastmile_qr_scan", "android": "https://dc.lft.to/lastmile_qr_scan"}, "type": "electric_bike", "lat": 38.950573, "is_disabled": 0, "lon": -76.9673815, "is_reserved": 0}, {"name": "07dbc01704cf166fdb8ed5bb49640070", "fusion_lat": 0.0, "fusion_lon": 0.0, "bike_id": "07dbc01704cf166fdb8ed5bb49640070", "rental_uris": {"ios": "https://dc.lft.to/lastmile_qr_scan", "android": "https://dc.lft.to/lastmile_qr_scan"}, "type": "electric_scooter", "lat": 38.86584233333333, "is_disabled": 0, "lon": -76.98939566666667, "is_reserved": 0}, {"name": "54751901282de2dbcc068cc877c07559", "fusion_lat": 0.0, "fusion_lon": 0.0, "bike_id": "54751901282de2dbcc068cc877c07559", "rental_uris": {"ios": "https://dc.lft.to/lastmile_qr_scan", "android": "https://dc.lft.to/lastmile_qr_scan"}, "type": "electric_scooter", "lat": 38.936068666666664, "is_disabled": 0, "lon": -77.05861533333334, "is_reserved": 0}, {"name": "fffb863616ec93bb76093b890696a36c", "fusion_lat": 0.0, "fusion_lon": 0.0, "bike_id": "fffb863616ec93bb76093b890696a36c", "rental_uris": {"ios": "https://dc.lft.to/lastmile_qr_scan", "android": "https://dc.lft.to/lastmile_qr_scan"}, "type": "electric_scooter", "lat": 38.90111866666667, "is_disabled": 0, "lon": -76.99152716666667, "is_reserved": 0}, {"name": "efe2e728f5a6e8b0b1aa138542ef3634", "fusion_lat": 0.0, "fusion_lon": 0.0, "bike_id": "efe2e728f5a6e8b0b1aa138542ef3634", "rental_uris": {"ios": "https://dc.lft.to/lastmile_qr_scan", "android": "https://dc.lft.to/lastmile_qr_scan"}, "type": "electric_scooter", "lat": 38.918148333333335, "is_disabled": 0, "lon": -77.0247655, "is_reserved": 0}, {"name": "54245de8c042c3eb23b936a5174b4c4b", "fusion_lat": 0.0, "fusion_lon": 0.0, "bike_id": "54245de8c042c3eb23b936a5174b4c4b", "rental_uris": {"ios": "https://dc.lft.to/lastmile_qr_scan", "android": "https://dc.lft.to/lastmile_qr_scan"}, "type": "electric_scooter", "lat": 38.9032735, "is_disabled": 0, "lon": -77.02522983333333, "is_reserved": 0}, {"name": "eceda060e9b32a402f94ca0eec6df27d", "fusion_lat": 0.0, "fusion_lon": 0.0, "bike_id": "eceda060e9b32a402f94ca0eec6df27d", "rental_uris": {"ios": "https://dc.lft.to/lastmile_qr_scan", "android": "https://dc.lft.to/lastmile_qr_scan"}, "type": "electric_scooter", "lat": 38.899949166666666, "is_disabled": 0, "lon": -77.01685866666666, "is_reserved": 0}, {"name": "0cd1aab5242ce054db33fe64a66a7254", "fusion_lat": 0.0, "fusion_lon": 0.0, "bike_id": "0cd1aab5242ce054db33fe64a66a7254", "rental_uris": {"ios": "https://dc.lft.to/lastmile_qr_scan", "android": "https://dc.lft.to/lastmile_qr_scan"}, "type": "electric_scooter", "lat": 38.917088166666666, "is_disabled": 0, "lon": -77.027209, "is_reserved": 0}, {"name": "2355d123b03ad7f4a4e7c7073cc39a60", "fusion_lat": 0.0, "fusion_lon": 0.0, "bike_id": "2355d123b03ad7f4a4e7c7073cc39a60", "rental_uris": {"ios": "https://dc.lft.to/lastmile_qr_scan", "android": "https://dc.lft.to/lastmile_qr_scan"}, "type": "electric_bike", "lat": 38.88221, "is_disabled": 0, "lon": -77.115229, "is_reserved": 0}, {"name": "ffd72298cb5240c69f12344b13360d51", "fusion_lat": 0.0, "fusion_lon": 0.0, "bike_id": "ffd72298cb5240c69f12344b13360d51", "rental_uris": {"ios": "https://dc.lft.to/lastmile_qr_scan", "android": "https://dc.lft.to/lastmile_qr_scan"}, "type": "electric_scooter", "lat": 38.89994183333334, "is_disabled": 0, "lon": -77.0150775, "is_reserved": 0}, {"name": "ccdd0df8eab4f36e3b0ad92faf659ee1", "fusion_lat": 0.0, "fusion_lon": 0.0, "bike_id": "ccdd0df8eab4f36e3b0ad92faf659ee1", "rental_uris": {"ios": "https://dc.lft.to/lastmile_qr_scan", "android": "https://dc.lft.to/lastmile_qr_scan"}, "type": "electric_scooter", "lat": 38.9080565, "is_disabled": 0, "lon": -77.03400566666667, "is_reserved": 0}, {"name": "87411f6df68410ab232f0998307fb0e9", "fusion_lat": 0.0, "fusion_lon": 0.0, "bike_id": "87411f6df68410ab232f0998307fb0e9", "rental_uris": {"ios": "https://dc.lft.to/lastmile_qr_scan", "android": "https://dc.lft.to/lastmile_qr_scan"}, "type": "electric_scooter", "lat": 38.9015045, "is_disabled": 0, "lon": -77.04002166666666, "is_reserved": 0}, {"name": "c08cd4e76587a8eddb5512e958717604", "fusion_lat": 0.0, "fusion_lon": 0.0, "bike_id": "c08cd4e76587a8eddb5512e958717604", "rental_uris": {"ios": "https://dc.lft.to/lastmile_qr_scan", "android": "https://dc.lft.to/lastmile_qr_scan"}, "type": "electric_scooter", "lat": 38.919633166666664, "is_disabled": 0, "lon": -77.04150633333333, "is_reserved": 0}, {"name": "40d08bd010d25144c585f8badc8bfdcf", "fusion_lat": 0.0, "fusion_lon": 0.0, "bike_id": "40d08bd010d25144c585f8badc8bfdcf", "rental_uris": {"ios": "https://dc.lft.to/lastmile_qr_scan", "android": "https://dc.lft.to/lastmile_qr_scan"}, "type": "electric_scooter", "lat": 38.893549, "is_disabled": 0, "lon": -76.98465816666666, "is_reserved": 0}, {"name": "23617e91a6a64c5a278f78d6e1455923", "fusion_lat": 0.0, "fusion_lon": 0.0, "bike_id": "23617e91a6a64c5a278f78d6e1455923", "rental_uris": {"ios": "https://dc.lft.to/lastmile_qr_scan", "android": "https://dc.lft.to/lastmile_qr_scan"}, "type": "electric_scooter", "lat": 38.9050905, "is_disabled": 0, "lon": -77.06534516666666, "is_reserved": 0}, {"name": "31d5df11c6a3b604e80fa48d5de03da8", "fusion_lat": 0.0, "fusion_lon": 0.0, "bike_id": "31d5df11c6a3b604e80fa48d5de03da8", "rental_uris": {"ios": "https://dc.lft.to/lastmile_qr_scan", "android": "https://dc.lft.to/lastmile_qr_scan"}, "type": "electric_scooter", "lat": 38.895472833333336, "is_disabled": 0, "lon": -77.00918716666666, "is_reserved": 0}, {"name": "14bd090b659209de3b9333c46a930bb3", "fusion_lat": 0.0, "fusion_lon": 0.0, "bike_id": "14bd090b659209de3b9333c46a930bb3", "rental_uris": {"ios": "https://dc.lft.to/lastmile_qr_scan", "android": "https://dc.lft.to/lastmile_qr_scan"}, "type": "electric_scooter", "lat": 38.869945333333334, "is_disabled": 0, "lon": -77.01054216666667, "is_reserved": 0}, {"name": "56827af4c345242183f5bcdaadcf550e", "fusion_lat": 0.0, "fusion_lon": 0.0, "bike_id": "56827af4c345242183f5bcdaadcf550e", "rental_uris": {"ios": "https://dc.lft.to/lastmile_qr_scan", "android": "https://dc.lft.to/lastmile_qr_scan"}, "type": "electric_scooter", "lat": 38.84644383333333, "is_disabled": 0, "lon": -76.97237333333334, "is_reserved": 0}, {"name": "8fe30547e6eba4c56918ddc07a59e9b3", "fusion_lat": 0.0, "fusion_lon": 0.0, "bike_id": "8fe30547e6eba4c56918ddc07a59e9b3", "rental_uris": {"ios": "https://dc.lft.to/lastmile_qr_scan", "android": "https://dc.lft.to/lastmile_qr_scan"}, "type": "electric_scooter", "lat": 38.93525416666667, "is_disabled": 0, "lon": -77.0326645, "is_reserved": 0}, {"name": "09a6948d33328761039529ce57641461", "fusion_lat": 0.0, "fusion_lon": 0.0, "bike_id": "09a6948d33328761039529ce57641461", "rental_uris": {"ios": "https://dc.lft.to/lastmile_qr_scan", "android": "https://dc.lft.to/lastmile_qr_scan"}, "type": "electric_scooter", "lat": 38.91183133333333, "is_disabled": 0, "lon": -77.04144816666667, "is_reserved": 0}, {"name": "804a14c02802b57857d2244226f69abd", "fusion_lat": 0.0, "fusion_lon": 0.0, "bike_id": "804a14c02802b57857d2244226f69abd", "rental_uris": {"ios": "https://dc.lft.to/lastmile_qr_scan", "android": "https://dc.lft.to/lastmile_qr_scan"}, "type": "electric_scooter", "lat": 38.86249083333333, "is_disabled": 0, "lon": -76.9953345, "is_reserved": 0}, {"name": "b5191c3be97be08b5d227096582e34b3", "fusion_lat": 0.0, "fusion_lon": 0.0, "bike_id": "b5191c3be97be08b5d227096582e34b3", "rental_uris": {"ios": "https://dc.lft.to/lastmile_qr_scan", "android": "https://dc.lft.to/lastmile_qr_scan"}, "type": "electric_scooter", "lat": 38.892421166666665, "is_disabled": 0, "lon": -77.02404916666667, "is_reserved": 0}, {"name": "04fb082c117416df081b136087b78443", "fusion_lat": 0.0, "fusion_lon": 0.0, "bike_id": "04fb082c117416df081b136087b78443", "rental_uris": {"ios": "https://dc.lft.to/lastmile_qr_scan", "android": "https://dc.lft.to/lastmile_qr_scan"}, "type": "electric_bike", "lat": 38.85647866666667, "is_disabled": 0, "lon": -77.08531766666667, "is_reserved": 0}, {"name": "d122959352fb44566a18241889d16328", "fusion_lat": 0.0, "fusion_lon": 0.0, "bike_id": "d122959352fb44566a18241889d16328", "rental_uris": {"ios": "https://dc.lft.to/lastmile_qr_scan", "android": "https://dc.lft.to/lastmile_qr_scan"}, "type": "electric_scooter", "lat": 38.8967865, "is_disabled": 0, "lon": -77.05137266666667, "is_reserved": 0}, {"name": "6fdc07f2fcab4974af5a77b343168e1a", "fusion_lat": 0.0, "fusion_lon": 0.0, "bike_id": "6fdc07f2fcab4974af5a77b343168e1a", "rental_uris": {"ios": "https://dc.lft.to/lastmile_qr_scan", "android": "https://dc.lft.to/lastmile_qr_scan"}, "type": "electric_scooter", "lat": 38.9563835, "is_disabled": 0, "lon": -77.0910085, "is_reserved": 0}, {"name": "d355068bd87eb182f1f07f487c15004c", "fusion_lat": 0.0, "fusion_lon": 0.0, "bike_id": "d355068bd87eb182f1f07f487c15004c", "rental_uris": {"ios": "https://dc.lft.to/lastmile_qr_scan", "android": "https://dc.lft.to/lastmile_qr_scan"}, "type": "electric_scooter", "lat": 38.894557, "is_disabled": 0, "lon": -76.948232, "is_reserved": 0}, {"name": "4a452ab5d41f78dd42139d76404d3510", "fusion_lat": 0.0, "fusion_lon": 0.0, "bike_id": "4a452ab5d41f78dd42139d76404d3510", "rental_uris": {"ios": "https://dc.lft.to/lastmile_qr_scan", "android": "https://dc.lft.to/lastmile_qr_scan"}, "type": "electric_scooter", "lat": 38.89849733333333, "is_disabled": 0, "lon": -77.03328466666666, "is_reserved": 0}, {"name": "3589f1339709e26cfd8d4312e7cb0f64", "fusion_lat": 0.0, "fusion_lon": 0.0, "bike_id": "3589f1339709e26cfd8d4312e7cb0f64", "rental_uris": {"ios": "https://dc.lft.to/lastmile_qr_scan", "android": "https://dc.lft.to/lastmile_qr_scan"}, "type": "electric_scooter", "lat": 38.925806333333334, "is_disabled": 0, "lon": -77.03216716666667, "is_reserved": 0}, {"name": "edec3ed504181f60923bb8e87fc3161b", "fusion_lat": 0.0, "fusion_lon": 0.0, "bike_id": "edec3ed504181f60923bb8e87fc3161b", "rental_uris": {"ios": "https://dc.lft.to/lastmile_qr_scan", "android": "https://dc.lft.to/lastmile_qr_scan"}, "type": "electric_scooter", "lat": 38.905103, "is_disabled": 0, "lon": -77.061557, "is_reserved": 0}, {"name": "c749b1d369b1bdb22d3fc30ac989a56e", "fusion_lat": 0.0, "fusion_lon": 0.0, "bike_id": "c749b1d369b1bdb22d3fc30ac989a56e", "rental_uris": {"ios": "https://dc.lft.to/lastmile_qr_scan", "android": "https://dc.lft.to/lastmile_qr_scan"}, "type": "electric_bike", "lat": 39.05810616666667, "is_disabled": 0, "lon": -77.126281, "is_reserved": 0}, {"name": "91091b17c74e7d533c2a8cdebff03a92", "fusion_lat": 0.0, "fusion_lon": 0.0, "bike_id": "91091b17c74e7d533c2a8cdebff03a92", "rental_uris": {"ios": "https://dc.lft.to/lastmile_qr_scan", "android": "https://dc.lft.to/lastmile_qr_scan"}, "type": "electric_scooter", "lat": 38.9021055, "is_disabled": 0, "lon": -77.02411033333334, "is_reserved": 0}, {"name": "056e188003094c17be8a6214156dd2ed", "fusion_lat": 0.0, "fusion_lon": 0.0, "bike_id": "056e188003094c17be8a6214156dd2ed", "rental_uris": {"ios": "https://dc.lft.to/lastmile_qr_scan", "android": "https://dc.lft.to/lastmile_qr_scan"}, "type": "electric_scooter", "lat": 38.915612, "is_disabled": 0, "lon": -77.00733083333333, "is_reserved": 0}, {"name": "8b92ac7333592e429f18b2e3f1a5c8f3", "fusion_lat": 0.0, "fusion_lon": 0.0, "bike_id": "8b92ac7333592e429f18b2e3f1a5c8f3", "rental_uris": {"ios": "https://dc.lft.to/lastmile_qr_scan", "android": "https://dc.lft.to/lastmile_qr_scan"}, "type": "electric_scooter", "lat": 38.887424833333334, "is_disabled": 0, "lon": -77.022298, "is_reserved": 0}, {"name": "4eb99fc3cc87770a5d15af770aca9c73", "fusion_lat": 0.0, "fusion_lon": 0.0, "bike_id": "4eb99fc3cc87770a5d15af770aca9c73", "rental_uris": {"ios": "https://dc.lft.to/lastmile_qr_scan", "android": "https://dc.lft.to/lastmile_qr_scan"}, "type": "electric_scooter", "lat": 38.893508833333335, "is_disabled": 0, "lon": -77.00336316666667, "is_reserved": 0}, {"name": "c235fc3d14e58c9657c5ed893a22421e", "fusion_lat": 0.0, "fusion_lon": 0.0, "bike_id": "c235fc3d14e58c9657c5ed893a22421e", "rental_uris": {"ios": "https://dc.lft.to/lastmile_qr_scan", "android": "https://dc.lft.to/lastmile_qr_scan"}, "type": "electric_scooter", "lat": 38.929600666666666, "is_disabled": 0, "lon": -77.005509, "is_reserved": 0}, {"name": "97a06e7044e8b5828733079e806639e2", "fusion_lat": 0.0, "fusion_lon": 0.0, "bike_id": "97a06e7044e8b5828733079e806639e2", "rental_uris": {"ios": "https://dc.lft.to/lastmile_qr_scan", "android": "https://dc.lft.to/lastmile_qr_scan"}, "type": "electric_scooter", "lat": 38.892219, "is_disabled": 0, "lon": -77.02984866666667, "is_reserved": 0}, {"name": "e9427598dadda341394cc6ece689e1f8", "fusion_lat": 0.0, "fusion_lon": 0.0, "bike_id": "e9427598dadda341394cc6ece689e1f8", "rental_uris": {"ios": "https://dc.lft.to/lastmile_qr_scan", "android": "https://dc.lft.to/lastmile_qr_scan"}, "type": "electric_scooter", "lat": 38.927461666666666, "is_disabled": 0, "lon": -77.033121, "is_reserved": 0}, {"name": "e158584129562b6fc0283e2afc9a1fb0", "fusion_lat": 0.0, "fusion_lon": 0.0, "bike_id": "e158584129562b6fc0283e2afc9a1fb0", "rental_uris": {"ios": "https://dc.lft.to/lastmile_qr_scan", "android": "https://dc.lft.to/lastmile_qr_scan"}, "type": "electric_scooter", "lat": 38.90120116666667, "is_disabled": 0, "lon": -77.0282135, "is_reserved": 0}, {"name": "2d0f8b04a9a79797877b9d2486cb59f6", "fusion_lat": 0.0, "fusion_lon": 0.0, "bike_id": "2d0f8b04a9a79797877b9d2486cb59f6", "rental_uris": {"ios": "https://dc.lft.to/lastmile_qr_scan", "android": "https://dc.lft.to/lastmile_qr_scan"}, "type": "electric_scooter", "lat": 38.8873645, "is_disabled": 0, "lon": -77.02126716666666, "is_reserved": 0}, {"name": "9472b0502231dba005083afd3dd74256", "fusion_lat": 0.0, "fusion_lon": 0.0, "bike_id": "9472b0502231dba005083afd3dd74256", "rental_uris": {"ios": "https://dc.lft.to/lastmile_qr_scan", "android": "https://dc.lft.to/lastmile_qr_scan"}, "type": "electric_scooter", "lat": 38.920817, "is_disabled": 0, "lon": -77.02397383333333, "is_reserved": 0}, {"name": "228c800e481c26ece1f7e05c177aea62", "fusion_lat": 0.0, "fusion_lon": 0.0, "bike_id": "228c800e481c26ece1f7e05c177aea62", "rental_uris": {"ios": "https://dc.lft.to/lastmile_qr_scan", "android": "https://dc.lft.to/lastmile_qr_scan"}, "type": "electric_bike", "lat": 38.9705215, "is_disabled": 0, "lon": -76.96071533333334, "is_reserved": 0}, {"name": "0c49ca6f0ed7c4e6a2d32dfb7def8761", "fusion_lat": 0.0, "fusion_lon": 0.0, "bike_id": "0c49ca6f0ed7c4e6a2d32dfb7def8761", "rental_uris": {"ios": "https://dc.lft.to/lastmile_qr_scan", "android": "https://dc.lft.to/lastmile_qr_scan"}, "type": "electric_bike", "lat": 38.8871935, "is_disabled": 0, "lon": -77.13315966666667, "is_reserved": 0}, {"name": "754c98ab5b8cb94eabd8cc9469462c87", "fusion_lat": 0.0, "fusion_lon": 0.0, "bike_id": "754c98ab5b8cb94eabd8cc9469462c87", "rental_uris": {"ios": "https://dc.lft.to/lastmile_qr_scan", "android": "https://dc.lft.to/lastmile_qr_scan"}, "type": "electric_scooter", "lat": 38.91018716666667, "is_disabled": 0, "lon": -77.03643316666667, "is_reserved": 0}, {"name": "d0079bc859cbc42021decd72741ec6c6", "fusion_lat": 0.0, "fusion_lon": 0.0, "bike_id": "d0079bc859cbc42021decd72741ec6c6", "rental_uris": {"ios": "https://dc.lft.to/lastmile_qr_scan", "android": "https://dc.lft.to/lastmile_qr_scan"}, "type": "electric_scooter", "lat": 38.91203566666667, "is_disabled": 0, "lon": -76.98490766666667, "is_reserved": 0}, {"name": "5c9d846ab9ea3ce158b857391b5ff624", "fusion_lat": 0.0, "fusion_lon": 0.0, "bike_id": "5c9d846ab9ea3ce158b857391b5ff624", "rental_uris": {"ios": "https://dc.lft.to/lastmile_qr_scan", "android": "https://dc.lft.to/lastmile_qr_scan"}, "type": "electric_scooter", "lat": 38.90483166666667, "is_disabled": 0, "lon": -77.040243, "is_reserved": 0}, {"name": "08df5873f9a7f436be71ee497d4466cd", "fusion_lat": 0.0, "fusion_lon": 0.0, "bike_id": "08df5873f9a7f436be71ee497d4466cd", "rental_uris": {"ios": "https://dc.lft.to/lastmile_qr_scan", "android": "https://dc.lft.to/lastmile_qr_scan"}, "type": "electric_scooter", "lat": 38.907369333333335, "is_disabled": 0, "lon": -77.0237045, "is_reserved": 0}, {"name": "e838f2cba795405b4dd7df72ec7ef9b5", "fusion_lat": 0.0, "fusion_lon": 0.0, "bike_id": "e838f2cba795405b4dd7df72ec7ef9b5", "rental_uris": {"ios": "https://dc.lft.to/lastmile_qr_scan", "android": "https://dc.lft.to/lastmile_qr_scan"}, "type": "electric_scooter", "lat": 38.891793, "is_disabled": 0, "lon": -77.0317525, "is_reserved": 0}, {"name": "f8f2ee920554d574d100e2b9573471b5", "fusion_lat": 0.0, "fusion_lon": 0.0, "bike_id": "f8f2ee920554d574d100e2b9573471b5", "rental_uris": {"ios": "https://dc.lft.to/lastmile_qr_scan", "android": "https://dc.lft.to/lastmile_qr_scan"}, "type": "electric_scooter", "lat": 38.901397, "is_disabled": 0, "lon": -77.03962633333333, "is_reserved": 0}, {"name": "99dc6b1ed890bd949da3b082c377c9e5", "fusion_lat": 0.0, "fusion_lon": 0.0, "bike_id": "99dc6b1ed890bd949da3b082c377c9e5", "rental_uris": {"ios": "https://dc.lft.to/lastmile_qr_scan", "android": "https://dc.lft.to/lastmile_qr_scan"}, "type": "electric_scooter", "lat": 38.877652833333336, "is_disabled": 0, "lon": -77.00526666666667, "is_reserved": 0}, {"name": "155aaa6edb03114befbef50e9696807b", "fusion_lat": 0.0, "fusion_lon": 0.0, "bike_id": "155aaa6edb03114befbef50e9696807b", "rental_uris": {"ios": "https://dc.lft.to/lastmile_qr_scan", "android": "https://dc.lft.to/lastmile_qr_scan"}, "type": "electric_scooter", "lat": 38.9216595, "is_disabled": 0, "lon": -77.04349783333333, "is_reserved": 0}, {"name": "3ab487e2b69a7b9904611572ab46bbce", "fusion_lat": 0.0, "fusion_lon": 0.0, "bike_id": "3ab487e2b69a7b9904611572ab46bbce", "rental_uris": {"ios": "https://dc.lft.to/lastmile_qr_scan", "android": "https://dc.lft.to/lastmile_qr_scan"}, "type": "electric_scooter", "lat": 38.90575783333333, "is_disabled": 0, "lon": -77.00784766666666, "is_reserved": 0}, {"name": "4d438dca3785d2be6ddcccba9ce8090a", "fusion_lat": 0.0, "fusion_lon": 0.0, "bike_id": "4d438dca3785d2be6ddcccba9ce8090a", "rental_uris": {"ios": "https://dc.lft.to/lastmile_qr_scan", "android": "https://dc.lft.to/lastmile_qr_scan"}, "type": "electric_scooter", "lat": 38.9183285, "is_disabled": 0, "lon": -76.96560916666667, "is_reserved": 0}, {"name": "b3b59509b5174494025e220ba26787b0", "fusion_lat": 0.0, "fusion_lon": 0.0, "bike_id": "b3b59509b5174494025e220ba26787b0", "rental_uris": {"ios": "https://dc.lft.to/lastmile_qr_scan", "android": "https://dc.lft.to/lastmile_qr_scan"}, "type": "electric_scooter", "lat": 38.900120333333334, "is_disabled": 0, "lon": -76.995991, "is_reserved": 0}, {"name": "4df3c5f7f881f2ac9a1a3c87ce1fbff5", "fusion_lat": 0.0, "fusion_lon": 0.0, "bike_id": "4df3c5f7f881f2ac9a1a3c87ce1fbff5", "rental_uris": {"ios": "https://dc.lft.to/lastmile_qr_scan", "android": "https://dc.lft.to/lastmile_qr_scan"}, "type": "electric_bike", "lat": 38.82863783333333, "is_disabled": 0, "lon": -77.11228716666666, "is_reserved": 0}, {"name": "f42e096f8e760251ef6c9397c060acb3", "fusion_lat": 0.0, "fusion_lon": 0.0, "bike_id": "f42e096f8e760251ef6c9397c060acb3", "rental_uris": {"ios": "https://dc.lft.to/lastmile_qr_scan", "android": "https://dc.lft.to/lastmile_qr_scan"}, "type": "electric_scooter", "lat": 38.91714233333333, "is_disabled": 0, "lon": -77.02847833333334, "is_reserved": 0}, {"name": "4180fee40f846ea0325e9c2047d10b3b", "fusion_lat": 0.0, "fusion_lon": 0.0, "bike_id": "4180fee40f846ea0325e9c2047d10b3b", "rental_uris": {"ios": "https://dc.lft.to/lastmile_qr_scan", "android": "https://dc.lft.to/lastmile_qr_scan"}, "type": "electric_scooter", "lat": 38.90004916666667, "is_disabled": 0, "lon": -76.99751683333334, "is_reserved": 0}, {"name": "71b0afc7c48fc6e5affea3657ca9e929", "fusion_lat": 0.0, "fusion_lon": 0.0, "bike_id": "71b0afc7c48fc6e5affea3657ca9e929", "rental_uris": {"ios": "https://dc.lft.to/lastmile_qr_scan", "android": "https://dc.lft.to/lastmile_qr_scan"}, "type": "electric_scooter", "lat": 38.909674, "is_disabled": 0, "lon": -77.011062, "is_reserved": 0}, {"name": "e6648151187afa52070e25298fa1d380", "fusion_lat": 0.0, "fusion_lon": 0.0, "bike_id": "e6648151187afa52070e25298fa1d380", "rental_uris": {"ios": "https://dc.lft.to/lastmile_qr_scan", "android": "https://dc.lft.to/lastmile_qr_scan"}, "type": "electric_scooter", "lat": 38.9038385, "is_disabled": 0, "lon": -77.032883, "is_reserved": 0}, {"name": "107bdd4cc57412aff1fb26815f0dffcc", "fusion_lat": 0.0, "fusion_lon": 0.0, "bike_id": "107bdd4cc57412aff1fb26815f0dffcc", "rental_uris": {"ios": "https://dc.lft.to/lastmile_qr_scan", "android": "https://dc.lft.to/lastmile_qr_scan"}, "type": "electric_scooter", "lat": 38.899039333333334, "is_disabled": 0, "lon": -77.02211366666667, "is_reserved": 0}, {"name": "21a173f451cd1f76bc1f3c0fa5da4cfd", "fusion_lat": 0.0, "fusion_lon": 0.0, "bike_id": "21a173f451cd1f76bc1f3c0fa5da4cfd", "rental_uris": {"ios": "https://dc.lft.to/lastmile_qr_scan", "android": "https://dc.lft.to/lastmile_qr_scan"}, "type": "electric_bike", "lat": 39.00023433333333, "is_disabled": 0, "lon": -76.872859, "is_reserved": 0}, {"name": "d35322bb43c05126d0cb70b63b697c92", "fusion_lat": 0.0, "fusion_lon": 0.0, "bike_id": "d35322bb43c05126d0cb70b63b697c92", "rental_uris": {"ios": "https://dc.lft.to/lastmile_qr_scan", "android": "https://dc.lft.to/lastmile_qr_scan"}, "type": "electric_scooter", "lat": 38.907627, "is_disabled": 0, "lon": -77.0384235, "is_reserved": 0}, {"name": "c8a1bc2ee0f6a6811b0d5a9b296e12f0", "fusion_lat": 0.0, "fusion_lon": 0.0, "bike_id": "c8a1bc2ee0f6a6811b0d5a9b296e12f0", "rental_uris": {"ios": "https://dc.lft.to/lastmile_qr_scan", "android": "https://dc.lft.to/lastmile_qr_scan"}, "type": "electric_scooter", "lat": 38.89830466666667, "is_disabled": 0, "lon": -77.0298315, "is_reserved": 0}, {"name": "c42595f7476b9c246528789890ca39e7", "fusion_lat": 0.0, "fusion_lon": 0.0, "bike_id": "c42595f7476b9c246528789890ca39e7", "rental_uris": {"ios": "https://dc.lft.to/lastmile_qr_scan", "android": "https://dc.lft.to/lastmile_qr_scan"}, "type": "electric_scooter", "lat": 38.9227695, "is_disabled": 0, "lon": -77.073041, "is_reserved": 0}, {"name": "f5025a1f8927928c1b0b07d64d4042bf", "fusion_lat": 0.0, "fusion_lon": 0.0, "bike_id": "f5025a1f8927928c1b0b07d64d4042bf", "rental_uris": {"ios": "https://dc.lft.to/lastmile_qr_scan", "android": "https://dc.lft.to/lastmile_qr_scan"}, "type": "electric_scooter", "lat": 38.90252616666667, "is_disabled": 0, "lon": -77.06104583333334, "is_reserved": 0}, {"name": "0e47d969346c4d282c271a7e7f2d43c6", "fusion_lat": 0.0, "fusion_lon": 0.0, "bike_id": "0e47d969346c4d282c271a7e7f2d43c6", "rental_uris": {"ios": "https://dc.lft.to/lastmile_qr_scan", "android": "https://dc.lft.to/lastmile_qr_scan"}, "type": "electric_scooter", "lat": 38.9006155, "is_disabled": 0, "lon": -77.0216905, "is_reserved": 0}, {"name": "82abca7b7330b2443d179d51d8bcb549", "fusion_lat": 0.0, "fusion_lon": 0.0, "bike_id": "82abca7b7330b2443d179d51d8bcb549", "rental_uris": {"ios": "https://dc.lft.to/lastmile_qr_scan", "android": "https://dc.lft.to/lastmile_qr_scan"}, "type": "electric_scooter", "lat": 38.892191, "is_disabled": 0, "lon": -77.01385816666667, "is_reserved": 0}, {"name": "5c5ea4393a089a034d641a800db59509", "fusion_lat": 0.0, "fusion_lon": 0.0, "bike_id": "5c5ea4393a089a034d641a800db59509", "rental_uris": {"ios": "https://dc.lft.to/lastmile_qr_scan", "android": "https://dc.lft.to/lastmile_qr_scan"}, "type": "electric_scooter", "lat": 38.87169216666667, "is_disabled": 0, "lon": -77.00632333333333, "is_reserved": 0}, {"name": "ea5595cc5ae9ab1408bc75cb0a5895ef", "fusion_lat": 0.0, "fusion_lon": 0.0, "bike_id": "ea5595cc5ae9ab1408bc75cb0a5895ef", "rental_uris": {"ios": "https://dc.lft.to/lastmile_qr_scan", "android": "https://dc.lft.to/lastmile_qr_scan"}, "type": "electric_scooter", "lat": 38.9043015, "is_disabled": 0, "lon": -77.02594766666667, "is_reserved": 0}, {"name": "75db9590e1fb3514390c37a0ab396f5b", "fusion_lat": 0.0, "fusion_lon": 0.0, "bike_id": "75db9590e1fb3514390c37a0ab396f5b", "rental_uris": {"ios": "https://dc.lft.to/lastmile_qr_scan", "android": "https://dc.lft.to/lastmile_qr_scan"}, "type": "electric_bike", "lat": 38.924446, "is_disabled": 0, "lon": -76.968367, "is_reserved": 0}, {"name": "36604d53a267d2a6a23839f2c0b09d36", "fusion_lat": 0.0, "fusion_lon": 0.0, "bike_id": "36604d53a267d2a6a23839f2c0b09d36", "rental_uris": {"ios": "https://dc.lft.to/lastmile_qr_scan", "android": "https://dc.lft.to/lastmile_qr_scan"}, "type": "electric_scooter", "lat": 38.95589316666667, "is_disabled": 0, "lon": -77.03650833333333, "is_reserved": 0}, {"name": "483553f33942288170b45ad00b7fe809", "fusion_lat": 0.0, "fusion_lon": 0.0, "bike_id": "483553f33942288170b45ad00b7fe809", "rental_uris": {"ios": "https://dc.lft.to/lastmile_qr_scan", "android": "https://dc.lft.to/lastmile_qr_scan"}, "type": "electric_bike", "lat": 39.10561516666667, "is_disabled": 0, "lon": -77.15265533333333, "is_reserved": 0}, {"name": "71f0e3ef7d52d0bf9f8c7e64d2f6943a", "fusion_lat": 0.0, "fusion_lon": 0.0, "bike_id": "71f0e3ef7d52d0bf9f8c7e64d2f6943a", "rental_uris": {"ios": "https://dc.lft.to/lastmile_qr_scan", "android": "https://dc.lft.to/lastmile_qr_scan"}, "type": "electric_scooter", "lat": 38.91828916666667, "is_disabled": 0, "lon": -77.0320475, "is_reserved": 0}, {"name": "2e72c3cf8ce6b8d9d7ce2395ba9a9aad", "fusion_lat": 0.0, "fusion_lon": 0.0, "bike_id": "2e72c3cf8ce6b8d9d7ce2395ba9a9aad", "rental_uris": {"ios": "https://dc.lft.to/lastmile_qr_scan", "android": "https://dc.lft.to/lastmile_qr_scan"}, "type": "electric_scooter", "lat": 38.93126733333333, "is_disabled": 0, "lon": -77.038525, "is_reserved": 0}, {"name": "f8a59456f2fd9c538c2f12a2b200fb78", "fusion_lat": 0.0, "fusion_lon": 0.0, "bike_id": "f8a59456f2fd9c538c2f12a2b200fb78", "rental_uris": {"ios": "https://dc.lft.to/lastmile_qr_scan", "android": "https://dc.lft.to/lastmile_qr_scan"}, "type": "electric_scooter", "lat": 38.912672666666666, "is_disabled": 0, "lon": -77.01697483333334, "is_reserved": 0}, {"name": "4a6a9ea9a23d7d3393c39b812f266fbf", "fusion_lat": 0.0, "fusion_lon": 0.0, "bike_id": "4a6a9ea9a23d7d3393c39b812f266fbf", "rental_uris": {"ios": "https://dc.lft.to/lastmile_qr_scan", "android": "https://dc.lft.to/lastmile_qr_scan"}, "type": "electric_scooter", "lat": 38.908697333333336, "is_disabled": 0, "lon": -77.04061633333333, "is_reserved": 0}, {"name": "1044196bd78374a80217b6ec9814bb72", "fusion_lat": 0.0, "fusion_lon": 0.0, "bike_id": "1044196bd78374a80217b6ec9814bb72", "rental_uris": {"ios": "https://dc.lft.to/lastmile_qr_scan", "android": "https://dc.lft.to/lastmile_qr_scan"}, "type": "electric_scooter", "lat": 38.883666, "is_disabled": 0, "lon": -76.9952235, "is_reserved": 0}, {"name": "e2729e04ab07e81dbc5017fa4261cef3", "fusion_lat": 0.0, "fusion_lon": 0.0, "bike_id": "e2729e04ab07e81dbc5017fa4261cef3", "rental_uris": {"ios": "https://dc.lft.to/lastmile_qr_scan", "android": "https://dc.lft.to/lastmile_qr_scan"}, "type": "electric_scooter", "lat": 38.922005166666665, "is_disabled": 0, "lon": -77.04264533333334, "is_reserved": 0}, {"name": "7112b8c1ab3907487d19ebadc532d111", "fusion_lat": 0.0, "fusion_lon": 0.0, "bike_id": "7112b8c1ab3907487d19ebadc532d111", "rental_uris": {"ios": "https://dc.lft.to/lastmile_qr_scan", "android": "https://dc.lft.to/lastmile_qr_scan"}, "type": "electric_bike", "lat": 38.96761216666667, "is_disabled": 0, "lon": -77.09158916666667, "is_reserved": 0}, {"name": "ea395ee91c1384bde88cfe451399e63c", "fusion_lat": 0.0, "fusion_lon": 0.0, "bike_id": "ea395ee91c1384bde88cfe451399e63c", "rental_uris": {"ios": "https://dc.lft.to/lastmile_qr_scan", "android": "https://dc.lft.to/lastmile_qr_scan"}, "type": "electric_scooter", "lat": 38.9012455, "is_disabled": 0, "lon": -77.01199333333334, "is_reserved": 0}, {"name": "62ef2bfd2130d0fd77f500651a8234b7", "fusion_lat": 0.0, "fusion_lon": 0.0, "bike_id": "62ef2bfd2130d0fd77f500651a8234b7", "rental_uris": {"ios": "https://dc.lft.to/lastmile_qr_scan", "android": "https://dc.lft.to/lastmile_qr_scan"}, "type": "electric_scooter", "lat": 38.89479083333333, "is_disabled": 0, "lon": -76.995143, "is_reserved": 0}, {"name": "5b6b77ad4dd329161c7456b5baa042f9", "fusion_lat": 0.0, "fusion_lon": 0.0, "bike_id": "5b6b77ad4dd329161c7456b5baa042f9", "rental_uris": {"ios": "https://dc.lft.to/lastmile_qr_scan", "android": "https://dc.lft.to/lastmile_qr_scan"}, "type": "electric_scooter", "lat": 38.8952995, "is_disabled": 0, "lon": -77.02946366666667, "is_reserved": 0}, {"name": "611f95a382b2a9c4efa77a65b03bf0cd", "fusion_lat": 0.0, "fusion_lon": 0.0, "bike_id": "611f95a382b2a9c4efa77a65b03bf0cd", "rental_uris": {"ios": "https://dc.lft.to/lastmile_qr_scan", "android": "https://dc.lft.to/lastmile_qr_scan"}, "type": "electric_scooter", "lat": 38.917737333333335, "is_disabled": 0, "lon": -77.02316733333333, "is_reserved": 0}, {"name": "672039421413b920b8d675d1f9176e47", "fusion_lat": 0.0, "fusion_lon": 0.0, "bike_id": "672039421413b920b8d675d1f9176e47", "rental_uris": {"ios": "https://dc.lft.to/lastmile_qr_scan", "android": "https://dc.lft.to/lastmile_qr_scan"}, "type": "electric_scooter", "lat": 38.85808133333333, "is_disabled": 0, "lon": -76.986565, "is_reserved": 0}, {"name": "739ff7e9a6ece6ac3155ea4678911825", "fusion_lat": 0.0, "fusion_lon": 0.0, "bike_id": "739ff7e9a6ece6ac3155ea4678911825", "rental_uris": {"ios": "https://dc.lft.to/lastmile_qr_scan", "android": "https://dc.lft.to/lastmile_qr_scan"}, "type": "electric_scooter", "lat": 38.940893, "is_disabled": 0, "lon": -77.02734966666667, "is_reserved": 0}, {"name": "f695144050f4cf899982e455ffc1ece6", "fusion_lat": 0.0, "fusion_lon": 0.0, "bike_id": "f695144050f4cf899982e455ffc1ece6", "rental_uris": {"ios": "https://dc.lft.to/lastmile_qr_scan", "android": "https://dc.lft.to/lastmile_qr_scan"}, "type": "electric_scooter", "lat": 38.892979, "is_disabled": 0, "lon": -77.0465745, "is_reserved": 0}, {"name": "7990e84de5ec055ffc48f2ad1b9c7a37", "fusion_lat": 0.0, "fusion_lon": 0.0, "bike_id": "7990e84de5ec055ffc48f2ad1b9c7a37", "rental_uris": {"ios": "https://dc.lft.to/lastmile_qr_scan", "android": "https://dc.lft.to/lastmile_qr_scan"}, "type": "electric_bike", "lat": 38.998796166666665, "is_disabled": 0, "lon": -77.02894166666667, "is_reserved": 0}, {"name": "07a556fedccf2fb64d736de5dda909e8", "fusion_lat": 0.0, "fusion_lon": 0.0, "bike_id": "07a556fedccf2fb64d736de5dda909e8", "rental_uris": {"ios": "https://dc.lft.to/lastmile_qr_scan", "android": "https://dc.lft.to/lastmile_qr_scan"}, "type": "electric_scooter", "lat": 38.916798166666666, "is_disabled": 0, "lon": -77.02973633333333, "is_reserved": 0}, {"name": "c8280975aaca84a12cd1021928088dbe", "fusion_lat": 0.0, "fusion_lon": 0.0, "bike_id": "c8280975aaca84a12cd1021928088dbe", "rental_uris": {"ios": "https://dc.lft.to/lastmile_qr_scan", "android": "https://dc.lft.to/lastmile_qr_scan"}, "type": "electric_scooter", "lat": 38.933335, "is_disabled": 0, "lon": -77.02624733333333, "is_reserved": 0}, {"name": "900c37c2da59b13158325adf44a72de2", "fusion_lat": 0.0, "fusion_lon": 0.0, "bike_id": "900c37c2da59b13158325adf44a72de2", "rental_uris": {"ios": "https://dc.lft.to/lastmile_qr_scan", "android": "https://dc.lft.to/lastmile_qr_scan"}, "type": "electric_scooter", "lat": 38.919633166666664, "is_disabled": 0, "lon": -77.04176266666667, "is_reserved": 0}, {"name": "4f0d2d9ca90961d760ccd89e8daf26e8", "fusion_lat": 0.0, "fusion_lon": 0.0, "bike_id": "4f0d2d9ca90961d760ccd89e8daf26e8", "rental_uris": {"ios": "https://dc.lft.to/lastmile_qr_scan", "android": "https://dc.lft.to/lastmile_qr_scan"}, "type": "electric_scooter", "lat": 38.90326183333333, "is_disabled": 0, "lon": -77.025678, "is_reserved": 0}, {"name": "93dd0877a7beb889d8427d41194c9856", "fusion_lat": 0.0, "fusion_lon": 0.0, "bike_id": "93dd0877a7beb889d8427d41194c9856", "rental_uris": {"ios": "https://dc.lft.to/lastmile_qr_scan", "android": "https://dc.lft.to/lastmile_qr_scan"}, "type": "electric_scooter", "lat": 38.915834333333336, "is_disabled": 0, "lon": -77.04675116666667, "is_reserved": 0}, {"name": "0cad54d9d3478498c642b681b3a815a1", "fusion_lat": 0.0, "fusion_lon": 0.0, "bike_id": "0cad54d9d3478498c642b681b3a815a1", "rental_uris": {"ios": "https://dc.lft.to/lastmile_qr_scan", "android": "https://dc.lft.to/lastmile_qr_scan"}, "type": "electric_scooter", "lat": 38.89222733333333, "is_disabled": 0, "lon": -77.043741, "is_reserved": 0}, {"name": "376fa306e7f69d6d2423e953a13c8843", "fusion_lat": 0.0, "fusion_lon": 0.0, "bike_id": "376fa306e7f69d6d2423e953a13c8843", "rental_uris": {"ios": "https://dc.lft.to/lastmile_qr_scan", "android": "https://dc.lft.to/lastmile_qr_scan"}, "type": "electric_scooter", "lat": 38.93880333333333, "is_disabled": 0, "lon": -77.0248085, "is_reserved": 0}, {"name": "f7fa123176e7d561a2e37a89aefa9f7d", "fusion_lat": 0.0, "fusion_lon": 0.0, "bike_id": "f7fa123176e7d561a2e37a89aefa9f7d", "rental_uris": {"ios": "https://dc.lft.to/lastmile_qr_scan", "android": "https://dc.lft.to/lastmile_qr_scan"}, "type": "electric_scooter", "lat": 38.899750833333336, "is_disabled": 0, "lon": -77.04196333333333, "is_reserved": 0}, {"name": "d260e0e8c5994ad5f7a3022dc7b1cd9a", "fusion_lat": 0.0, "fusion_lon": 0.0, "bike_id": "d260e0e8c5994ad5f7a3022dc7b1cd9a", "rental_uris": {"ios": "https://dc.lft.to/lastmile_qr_scan", "android": "https://dc.lft.to/lastmile_qr_scan"}, "type": "electric_scooter", "lat": 38.90700183333333, "is_disabled": 0, "lon": -77.062995, "is_reserved": 0},