{"data": {"bikes": [{"is_disabled": 0, "fusion_lat": 0.0, "lat": 38.935138, "type": "electric_bike", "lon": -77.0302975, "is_reserved": 0, "fusion_lon": 0.0, "bike_id": "4c463123e6ddab76f280634b27ca19aa", "name": "4c463123e6ddab76f280634b27ca19aa", "rental_uris": {"ios": "https://dc.lft.to/lastmile_qr_scan", "android": "https://dc.lft.to/lastmile_qr_scan"}}, {"is_disabled": 0, "fusion_lat": 0.0, "lat": 38.909568666666665, "type": "electric_scooter", "lon": -77.014398, "is_reserved": 0, "fusion_lon": 0.0, "bike_id": "b1cceeb879a9bc052b58015518c8507a", "name": "b1cceeb879a9bc052b58015518c8507a", "rental_uris": {"ios": "https://dc.lft.to/lastmile_qr_scan", "android": "https://dc.lft.to/lastmile_qr_scan"}}, {"is_disabled": 0, "fusion_lat": 0.0, "lat": 38.94171766666667, "type": "electric_scooter", "lon": -77.0234435, "is_reserved": 0, "fusion_lon": 0.0, "bike_id": "7b46446b31f8634c953016de167bb2b6", "name": "7b46446b31f8634c953016de167bb2b6", "rental_uris": {"ios": "https://dc.lft.to/lastmile_qr_scan", "android": "https://dc.lft.to/lastmile_qr_scan"}}, {"is_disabled": 0, "fusion_lat": 0.0, "lat": 38.94167183333333, "type": "electric_scooter", "lon": -77.025344, "is_reserved": 0, "fusion_lon": 0.0, "bike_id": "72684890df2fb6889f73c09aa92ee1da", "name": "72684890df2fb6889f73c09aa92ee1da", "rental_uris": {"ios": "https://dc.lft.to/lastmile_qr_scan", "android": "https://dc.lft.to/lastmile_qr_scan"}}, {"is_disabled": 0, "fusion_lat": 0.0, "lat": 38.92359883333334, "type": "electric_scooter", "lon": -77.05243033333333, "is_reserved": 0, "fusion_lon": 0.0, "bike_id": "13fea64341607e58a1ecef75ccac8597", "name": "13fea64341607e58a1ecef75ccac8597", "rental_uris": {"ios": "https://dc.lft.to/lastmile_qr_scan", "android": "https://dc.lft.to/lastmile_qr_scan"}}, {"is_disabled": 0, "fusion_lat": 0.0, "lat": 38.93064866666667, "type": "electric_scooter", "lon": -77.03193133333333, "is_reserved": 0, "fusion_lon": 0.0, "bike_id": "474f8ce6e7b182d52531ccb472a80569", "name": "474f8ce6e7b182d52531ccb472a80569", "rental_uris": {"ios": "https://dc.lft.to/lastmile_qr_scan", "android": "https://dc.lft.to/lastmile_qr_scan"}}, {"is_disabled": 0, "fusion_lat": 0.0, "lat": 38.91682566666667, "type": "electric_scooter", "lon": -77.03842316666666, "is_reserved": 0, "fusion_lon": 0.0, "bike_id": "4c4d12514868a619cbdbc8da25141642", "name": "4c4d12514868a619cbdbc8da25141642", "rental_uris": {"ios": "https://dc.lft.to/lastmile_qr_scan", "android": "https://dc.lft.to/lastmile_qr_scan"}}, {"is_disabled": 0, "fusion_lat": 0.0, "lat": 38.8627905, "type": "electric_scooter", "lon": -76.9923725, "is_reserved": 0, "fusion_lon": 0.0, "bike_id": "9b3f09d4e5fb0bc7f68498f6d5fccf42", "name": "9b3f09d4e5fb0bc7f68498f6d5fccf42", "rental_uris": {"ios": "https://dc.lft.to/lastmile_qr_scan", "android": "https://dc.lft.to/lastmile_qr_scan"}}, {"is_disabled": 0, "fusion_lat": 0.0, "lat": 38.896144166666666, "type": "electric_scooter", "lon": -77.02784016666666, "is_reserved": 0, "fusion_lon": 0.0, "bike_id": "cceef746293c37cb7867f849183a8c89", "name": "cceef746293c37cb7867f849183a8c89", "rental_uris": {"ios": "https://dc.lft.to/lastmile_qr_scan", "android": "https://dc.lft.to/lastmile_qr_scan"}}, {"is_disabled": 0, "fusion_lat": 0.0, "lat": 38.90498133333333, "type": "electric_scooter", "lon": -77.06287233333333, "is_reserved": 0, "fusion_lon": 0.0, "bike_id": "5ff760b8da1da3a8b1d16f0e22aa9386", "name": "5ff760b8da1da3a8b1d16f0e22aa9386", "rental_uris": {"ios": "https://dc.lft.to/lastmile_qr_scan", "android": "https://dc.lft.to/lastmile_qr_scan"}}, {"is_disabled": 0, "fusion_lat": 0.0, "lat": 38.944373, "type": "electric_scooter", "lon": -77.02919616666667, "is_reserved": 0, "fusion_lon": 0.0, "bike_id": "618f26b600e6eb2ecff4669260d49a2d", "name": "618f26b600e6eb2ecff4669260d49a2d", "rental_uris": {"ios": "https://dc.lft.to/lastmile_qr_scan", "android": "https://dc.lft.to/lastmile_qr_scan"}}, {"is_disabled": 0, "fusion_lat": 0.0, "lat": 38.919360166666664, "type": "electric_scooter", "lon": -77.08135833333333, "is_reserved": 0, "fusion_lon": 0.0, "bike_id": "be966521680089bd41d9e11bd9f208ba", "name": "be966521680089bd41d9e11bd9f208ba", "rental_uris": {"ios": "https://dc.lft.to/lastmile_qr_scan", "android": "https://dc.lft.to/lastmile_qr_scan"}}, {"is_disabled": 0, "fusion_lat": 0.0, "lat": 38.99076983333333, "type": "electric_bike", "lon": -76.87468966666667, "is_reserved": 0, "fusion_lon": 0.0, "bike_id": "3b5a0ddb30529064bc1b9cf618c32e32", "name": "3b5a0ddb30529064bc1b9cf618c32e32", "rental_uris": {"ios": "https://dc.lft.to/lastmile_qr_scan", "android": "https://dc.lft.to/lastmile_qr_scan"}}, {"is_disabled": 0, "fusion_lat": 0.0, "lat": 38.9319345, "type": "electric_scooter", "lon": -77.0284225, "is_reserved": 0, "fusion_lon": 0.0, "bike_id": "74585c9a56507f3cf54a1d746cdada29", "name": "74585c9a56507f3cf54a1d746cdada29", "rental_uris": {"ios": "https://dc.lft.to/lastmile_qr_scan", "android": "https://dc.lft.to/lastmile_qr_scan"}}, {"is_disabled": 0, "fusion_lat": 0.0, "lat": 38.907978, "type": "electric_scooter", "lon": -77.02406316666666, "is_reserved": 0, "fusion_lon": 0.0, "bike_id": "91f6050d0967f9252f6b9937a6339e52", "name": "91f6050d0967f9252f6b9937a6339e52", "rental_uris": {"ios": "https://dc.lft.to/lastmile_qr_scan", "android": "https://dc.lft.to/lastmile_qr_scan"}}, {"is_disabled": 0, "fusion_lat": 0.0, "lat": 38.8876865, "type": "electric_scooter", "lon": -77.02230983333334, "is_reserved": 0, "fusion_lon": 0.0, "bike_id": "f548b3f1eb439fca979a01e10b560fd7", "name": "f548b3f1eb439fca979a01e10b560fd7", "rental_uris": {"ios": "https://dc.lft.to/lastmile_qr_scan", "android": "https://dc.lft.to/lastmile_qr_scan"}}, {"is_disabled": 0, "fusion_lat": 0.0, "lat": 38.884348833333334, "type": "electric_scooter", "lon": -76.95757566666667, "is_reserved": 0, "fusion_lon": 0.0, "bike_id": "59ab8b3a153c2e859adf7e6b6bbb4639", "name": "59ab8b3a153c2e859adf7e6b6bbb4639", "rental_uris": {"ios": "https://dc.lft.to/lastmile_qr_scan", "android": "https://dc.lft.to/lastmile_qr_scan"}}, {"is_disabled": 0, "fusion_lat": 0.0, "lat": 38.915541833333336, "type": "electric_scooter", "lon": -77.03069883333333, "is_reserved": 0, "fusion_lon": 0.0, "bike_id": "35b755e91402304e24d1539d37f7f8a6", "name": "35b755e91402304e24d1539d37f7f8a6", "rental_uris": {"ios": "https://dc.lft.to/lastmile_qr_scan", "android": "https://dc.lft.to/lastmile_qr_scan"}}, {"is_disabled": 0, "fusion_lat": 0.0, "lat": 38.900626333333335, "type": "electric_scooter", "lon": -76.93387816666667, "is_reserved": 0, "fusion_lon": 0.0, "bike_id": "c843b97b95470ce10635595c3e42c5a4", "name": "c843b97b95470ce10635595c3e42c5a4", "rental_uris": {"ios": "https://dc.lft.to/lastmile_qr_scan", "android": "https://dc.lft.to/lastmile_qr_scan"}}, {"is_disabled": 0, "fusion_lat": 0.0, "lat": 38.922878, "type": "electric_scooter", "lon": -77.020756, "is_reserved": 0, "fusion_lon": 0.0, "bike_id": "aeb21c64afc318e37efb32aacc5a36ff", "name": "aeb21c64afc318e37efb32aacc5a36ff", "rental_uris": {"ios": "https://dc.lft.to/lastmile_qr_scan", "android": "https://dc.lft.to/lastmile_qr_scan"}}, {"is_disabled": 0, "fusion_lat": 0.0, "lat": 38.86698483333333, "type": "electric_scooter", "lon": -76.987157, "is_reserved": 0, "fusion_lon": 0.0, "bike_id": "445db6e0337e9f1202822fb4e8170bef", "name": "445db6e0337e9f1202822fb4e8170bef", "rental_uris": {"ios": "https://dc.lft.to/lastmile_qr_scan", "android": "https://dc.lft.to/lastmile_qr_scan"}}, {"is_disabled": 0, "fusion_lat": 0.0, "lat": 38.93426616666667, "type": "electric_scooter", "lon": -76.9650735, "is_reserved": 0, "fusion_lon": 0.0, "bike_id": "0cdb88c5728af382f21b05385a46c3f3", "name": "0cdb88c5728af382f21b05385a46c3f3", "rental_uris": {"ios": "https://dc.lft.to/lastmile_qr_scan", "android": "https://dc.lft.to/lastmile_qr_scan"}}, {"is_disabled": 0, "fusion_lat": 0.0, "lat": 38.8855005, "type": "electric_bike", "lon": -77.11787316666667, "is_reserved": 0, "fusion_lon": 0.0, "bike_id": "36b02ce75bc4cfb7cb4c9155694dc4d2", "name": "36b02ce75bc4cfb7cb4c9155694dc4d2", "rental_uris": {"ios": "https://dc.lft.to/lastmile_qr_scan", "android": "https://dc.lft.to/lastmile_qr_scan"}}, {"is_disabled": 0, "fusion_lat": 0.0, "lat": 38.99844133333333, "type": "electric_bike", "lon": -77.02914766666666, "is_reserved": 0, "fusion_lon": 0.0, "bike_id": "993a92d08a08b93b5f91ce62b7c70eb1", "name": "993a92d08a08b93b5f91ce62b7c70eb1", "rental_uris": {"ios": "https://dc.lft.to/lastmile_qr_scan", "android": "https://dc.lft.to/lastmile_qr_scan"}}, {"is_disabled": 0, "fusion_lat": 0.0, "lat": 38.90664616666667, "type": "electric_scooter", "lon": -77.02724483333333, "is_reserved": 0, "fusion_lon": 0.0, "bike_id": "42fbc8f70bc602aa8625b00c4467394e", "name": "42fbc8f70bc602aa8625b00c4467394e", "rental_uris": {"ios": "https://dc.lft.to/lastmile_qr_scan", "android": "https://dc.lft.to/lastmile_qr_scan"}}, {"is_disabled": 0, "fusion_lat": 0.0, "lat": 38.92215733333333, "type": "electric_scooter", "lon": -77.03663533333334, "is_reserved": 0, "fusion_lon": 0.0, "bike_id": "a2f185f4fed19a24d6ae18c110287164", "name": "a2f185f4fed19a24d6ae18c110287164", "rental_uris": {"ios": "https://dc.lft.to/lastmile_qr_scan", "android": "https://dc.lft.to/lastmile_qr_scan"}}, {"is_disabled": 0, "fusion_lat": 0.0, "lat": 38.88865066666666, "type": "electric_scooter", "lon": -77.04008766666666, "is_reserved": 0, "fusion_lon": 0.0, "bike_id": "92842c90fb1ad167489fd4792921e9a2", "name": "92842c90fb1ad167489fd4792921e9a2", "rental_uris": {"ios": "https://dc.lft.to/lastmile_qr_scan", "android": "https://dc.lft.to/lastmile_qr_scan"}}, {"is_disabled": 0, "fusion_lat": 0.0, "lat": 38.8803895, "type": "electric_bike", "lon": -77.11061583333333, "is_reserved": 0, "fusion_lon": 0.0, "bike_id": "dd50fe4171edce642b5d9adb44c9a5c5", "name": "dd50fe4171edce642b5d9adb44c9a5c5", "rental_uris": {"ios": "https://dc.lft.to/lastmile_qr_scan", "android": "https://dc.lft.to/lastmile_qr_scan"}}, {"is_disabled": 0, "fusion_lat": 0.0, "lat": 38.8982835, "type": "electric_scooter", "lon": -77.03321166666667, "is_reserved": 0, "fusion_lon": 0.0, "bike_id": "79f119f07646f0d81382ae58965ac1b0", "name": "79f119f07646f0d81382ae58965ac1b0", "rental_uris": {"ios": "https://dc.lft.to/lastmile_qr_scan", "android": "https://dc.lft.to/lastmile_qr_scan"}}, {"is_disabled": 0, "fusion_lat": 0.0, "lat": 38.871998, "type": "electric_scooter", "lon": -77.0060745, "is_reserved": 0, "fusion_lon": 0.0, "bike_id": "5e3c981d76fe438c56085bc21ee50ae4", "name": "5e3c981d76fe438c56085bc21ee50ae4", "rental_uris": {"ios": "https://dc.lft.to/lastmile_qr_scan", "android": "https://dc.lft.to/lastmile_qr_scan"}}, {"is_disabled": 0, "fusion_lat": 0.0, "lat": 38.912619166666666, "type": "electric_scooter", "lon": -77.0339705, "is_reserved": 0, "fusion_lon": 0.0, "bike_id": "e790279506a3a84d51f807f2d63d86d6", "name": "e790279506a3a84d51f807f2d63d86d6", "rental_uris": {"ios": "https://dc.lft.to/lastmile_qr_scan", "android": "https://dc.lft.to/lastmile_qr_scan"}}, {"is_disabled": 0, "fusion_lat": 0.0, "lat": 38.86663583333333, "type": "electric_scooter", "lon": -76.98904266666666, "is_reserved": 0, "fusion_lon": 0.0, "bike_id": "9771a6db4ce7fb96bee7df742cb6c772", "name": "9771a6db4ce7fb96bee7df742cb6c772", "rental_uris": {"ios": "https://dc.lft.to/lastmile_qr_scan", "android": "https://dc.lft.to/lastmile_qr_scan"}}, {"is_disabled": 0, "fusion_lat": 0.0, "lat": 38.946320166666666, "type": "electric_scooter", "lon": -77.01844816666667, "is_reserved": 0, "fusion_lon": 0.0, "bike_id": "d981c402180072d4dffc15d9f09f8c63", "name": "d981c402180072d4dffc15d9f09f8c63", "rental_uris": {"ios": "https://dc.lft.to/lastmile_qr_scan", "android": "https://dc.lft.to/lastmile_qr_scan"}}, {"is_disabled": 0, "fusion_lat": 0.0, "lat": 38.9256755, "type": "electric_scooter", "lon": -77.05263, "is_reserved": 0, "fusion_lon": 0.0, "bike_id": "d598b1aaaa1519634f7be84b7377c339", "name": "d598b1aaaa1519634f7be84b7377c339", "rental_uris": {"ios": "https://dc.lft.to/lastmile_qr_scan", "android": "https://dc.lft.to/lastmile_qr_scan"}}, {"is_disabled": 0, "fusion_lat": 0.0, "lat": 38.86524883333333, "type": "electric_scooter", "lon": -76.99033333333334, "is_reserved": 0, "fusion_lon": 0.0, "bike_id": "7d71a48000f30c9a5caa61a6fa453b2a", "name": "7d71a48000f30c9a5caa61a6fa453b2a", "rental_uris": {"ios": "https://dc.lft.to/lastmile_qr_scan", "android": "https://dc.lft.to/lastmile_qr_scan"}}, {"is_disabled": 0, "fusion_lat": 0.0, "lat": 38.897383, "type": "electric_scooter", "lon": -76.93844366666667, "is_reserved": 0, "fusion_lon": 0.0, "bike_id": "f313853a91cd05563d439346969f7f3d", "name": "f313853a91cd05563d439346969f7f3d", "rental_uris": {"ios": "https://dc.lft.to/lastmile_qr_scan", "android": "https://dc.lft.to/lastmile_qr_scan"}}, {"is_disabled": 0, "fusion_lat": 0.0, "lat": 38.921223166666664, "type": "electric_scooter", "lon": -77.045711, "is_reserved": 0, "fusion_lon": 0.0, "bike_id": "9f7dd7a8d128e80adc08011b55641650", "name": "9f7dd7a8d128e80adc08011b55641650", "rental_uris": {"ios": "https://dc.lft.to/lastmile_qr_scan", "android": "https://dc.lft.to/lastmile_qr_scan"}}, {"is_disabled": 0, "fusion_lat": 0.0, "lat": 38.91482966666667, "type": "electric_scooter", "lon": -76.9842865, "is_reserved": 0, "fusion_lon": 0.0, "bike_id": "ffbc471a048ac0669d103f1974892d86", "name": "ffbc471a048ac0669d103f1974892d86", "rental_uris": {"ios": "https://dc.lft.to/lastmile_qr_scan", "android": "https://dc.lft.to/lastmile_qr_scan"}}, {"is_disabled": 0, "fusion_lat": 0.0, "lat": 38.83865, "type": "electric_bike", "lon": -76.99696383333334, "is_reserved": 0, "fusion_lon": 0.0, "bike_id": "86bb83c582213956651b8390d049df66", "name": "86bb83c582213956651b8390d049df66", "rental_uris": {"ios": "https://dc.lft.to/lastmile_qr_scan", "android": "https://dc.lft.to/lastmile_qr_scan"}}, {"is_disabled": 0, "fusion_lat": 0.0, "lat": 38.83809216666667, "type": "electric_bike", "lon": -77.09522533333333, "is_reserved": 0, "fusion_lon": 0.0, "bike_id": "74e3d311503c841266fd4884a782d171", "name": "74e3d311503c841266fd4884a782d171", "rental_uris": {"ios": "https://dc.lft.to/lastmile_qr_scan", "android": "https://dc.lft.to/lastmile_qr_scan"}}, {"is_disabled": 0, "fusion_lat": 0.0, "lat": 38.911848166666665, "type": "electric_scooter", "lon": -77.03139316666666, "is_reserved": 0, "fusion_lon": 0.0, "bike_id": "3183d6bbdcdfb8c3c4a1ecc683ec6494", "name": "3183d6bbdcdfb8c3c4a1ecc683ec6494", "rental_uris": {"ios": "https://dc.lft.to/lastmile_qr_scan", "android": "https://dc.lft.to/lastmile_qr_scan"}}, {"is_disabled": 0, "fusion_lat": 0.0, "lat": 38.87627483333333, "type": "electric_scooter", "lon": -76.96528566666667, "is_reserved": 0, "fusion_lon": 0.0, "bike_id": "4932ffd143b565a32df33e77c1715f97", "name": "4932ffd143b565a32df33e77c1715f97", "rental_uris": {"ios": "https://dc.lft.to/lastmile_qr_scan", "android": "https://dc.lft.to/lastmile_qr_scan"}}, {"is_disabled": 0, "fusion_lat": 0.0, "lat": 38.91757483333333, "type": "electric_scooter", "lon": -77.03995383333333, "is_reserved": 0, "fusion_lon": 0.0, "bike_id": "4e87af1919e8ceb612622db20c5308af", "name": "4e87af1919e8ceb612622db20c5308af", "rental_uris": {"ios": "https://dc.lft.to/lastmile_qr_scan", "android": "https://dc.lft.to/lastmile_qr_scan"}}, {"is_disabled": 0, "fusion_lat": 0.0, "lat": 38.903165666666666, "type": "electric_scooter", "lon": -77.04359916666667, "is_reserved": 0, "fusion_lon": 0.0, "bike_id": "1a68e7879991cddeb15067e04630a543", "name": "1a68e7879991cddeb15067e04630a543", "rental_uris": {"ios": "https://dc.lft.to/lastmile_qr_scan", "android": "https://dc.lft.to/lastmile_qr_scan"}}, {"is_disabled": 0, "fusion_lat": 0.0, "lat": 38.9055065, "type": "electric_scooter", "lon": -77.03987, "is_reserved": 0, "fusion_lon": 0.0, "bike_id": "7395a7e30bc40ddd42f5829704e934aa", "name": "7395a7e30bc40ddd42f5829704e934aa", "rental_uris": {"ios": "https://dc.lft.to/lastmile_qr_scan", "android": "https://dc.lft.to/lastmile_qr_scan"}}, {"is_disabled": 0, "fusion_lat": 0.0, "lat": 38.914167, "type": "electric_scooter", "lon": -77.04549783333333, "is_reserved": 0, "fusion_lon": 0.0, "bike_id": "56b28b5ddd41e67c2a99909ae92febd5", "name": "56b28b5ddd41e67c2a99909ae92febd5", "rental_uris": {"ios": "https://dc.lft.to/lastmile_qr_scan", "android": "https://dc.lft.to/lastmile_qr_scan"}}, {"is_disabled": 0, "fusion_lat": 0.0, "lat": 38.8287045, "type": "electric_bike", "lon": -77.11221116666667, "is_reserved": 0, "fusion_lon": 0.0, "bike_id": "98015ab78c2b3deff8e044712a248b1e", "name": "98015ab78c2b3deff8e044712a248b1e", "rental_uris": {"ios": "https://dc.lft.to/lastmile_qr_scan", "android": "https://dc.lft.to/lastmile_qr_scan"}}, {"is_disabled": 0, "fusion_lat": 0.0, "lat": 38.88401266666666, "type": "electric_scooter", "lon": -77.015332, "is_reserved": 0, "fusion_lon": 0.0, "bike_id": "d5f430b4e6db49c6f9eb5100d139467e", "name": "d5f430b4e6db49c6f9eb5100d139467e", "rental_uris": {"ios": "https://dc.lft.to/lastmile_qr_scan", "android": "https://dc.lft.to/lastmile_qr_scan"}}, {"is_disabled": 0, "fusion_lat": 0.0, "lat": 38.9363385, "type": "electric_scooter", "lon": -77.0366235, "is_reserved": 0, "fusion_lon": 0.0, "bike_id": "01d14d5f5f4cb97584add05347919ee3", "name": "01d14d5f5f4cb97584add05347919ee3", "rental_uris": {"ios": "https://dc.lft.to/lastmile_qr_scan", "android": "https://dc.lft.to/lastmile_qr_scan"}}, {"is_disabled": 0, "fusion_lat": 0.0, "lat": 38.892442, "type": "electric_scooter", "lon": -77.03956433333333, "is_reserved": 0, "fusion_lon": 0.0, "bike_id": "08b58cd253f8e8aca5f9b2d705a745fa", "name": "08b58cd253f8e8aca5f9b2d705a745fa", "rental_uris": {"ios": "https://dc.lft.to/lastmile_qr_scan", "android": "https://dc.lft.to/lastmile_qr_scan"}}, {"is_disabled": 0, "fusion_lat": 0.0, "lat": 38.91052883333333, "type": "electric_scooter", "lon": -77.02185833333333, "is_reserved": 0, "fusion_lon": 0.0, "bike_id": "5d87761e2260a7230771e8f66617691a", "name": "5d87761e2260a7230771e8f66617691a", "rental_uris": {"ios": "https://dc.lft.to/lastmile_qr_scan", "android": "https://dc.lft.to/lastmile_qr_scan"}}, {"is_disabled": 0, "fusion_lat": 0.0, "lat": 38.900939, "type": "electric_scooter", "lon": -76.9834255, "is_reserved": 0, "fusion_lon": 0.0, "bike_id": "ad36ecd1ab7543cb91d51b9c57cccebb", "name": "ad36ecd1ab7543cb91d51b9c57cccebb", "rental_uris": {"ios": "https://dc.lft.to/lastmile_qr_scan", "android": "https://dc.lft.to/lastmile_qr_scan"}}, {"is_disabled": 0, "fusion_lat": 0.0, "lat": 38.90253, "type": "electric_scooter", "lon": -77.0266405, "is_reserved": 0, "fusion_lon": 0.0, "bike_id": "e8d05cd97e945d26138ccc9f9ebea499", "name": "e8d05cd97e945d26138ccc9f9ebea499", "rental_uris": {"ios": "https://dc.lft.to/lastmile_qr_scan", "android": "https://dc.lft.to/lastmile_qr_scan"}}, {"is_disabled": 0, "fusion_lat": 0.0, "lat": 38.87668383333333, "type": "electric_scooter", "lon": -77.00434066666666, "is_reserved": 0, "fusion_lon": 0.0, "bike_id": "cf3d16c307eb49edcc1b467014156987", "name": "cf3d16c307eb49edcc1b467014156987", "rental_uris": {"ios": "https://dc.lft.to/lastmile_qr_scan", "android": "https://dc.lft.to/lastmile_qr_scan"}}, {"is_disabled": 0, "fusion_lat": 0.0, "lat": 38.99072, "type": "electric_bike", "lon": -76.874693, "is_reserved": 0, "fusion_lon": 0.0, "bike_id": "27e7d91f341e2848fc3307fe969211ba", "name": "27e7d91f341e2848fc3307fe969211ba", "rental_uris": {"ios": "https://dc.lft.to/lastmile_qr_scan", "android": "https://dc.lft.to/lastmile_qr_scan"}}, {"is_disabled": 0, "fusion_lat": 0.0, "lat": 38.9519575, "type": "electric_bike", "lon": -76.967234, "is_reserved": 0, "fusion_lon": 0.0, "bike_id": "83ac43de3b901dd4f77d5ae8db522c17", "name": "83ac43de3b901dd4f77d5ae8db522c17", "rental_uris": {"ios": "https://dc.lft.to/lastmile_qr_scan", "android": "https://dc.lft.to/lastmile_qr_scan"}}, {"is_disabled": 0, "fusion_lat": 0.0, "lat": 38.99817783333334, "type": "electric_bike", "lon": -76.88378383333334, "is_reserved": 0, "fusion_lon": 0.0, "bike_id": "a68a7abd33148e0561984894d15beb6d", "name": "a68a7abd33148e0561984894d15beb6d", "rental_uris": {"ios": "https://dc.lft.to/lastmile_qr_scan", "android": "https://dc.lft.to/lastmile_qr_scan"}}, {"is_disabled": 0, "fusion_lat": 0.0, "lat": 38.8638705, "type": "electric_bike", "lon": -76.989912, "is_reserved": 0, "fusion_lon": 0.0, "bike_id": "028ff387580205c596d390dc0a8c1439", "name": "028ff387580205c596d390dc0a8c1439", "rental_uris": {"ios": "https://dc.lft.to/lastmile_qr_scan", "android": "https://dc.lft.to/lastmile_qr_scan"}}, {"is_disabled": 0, "fusion_lat": 0.0, "lat": 38.928965, "type": "electric_scooter", "lon": -77.05453016666667, "is_reserved": 0, "fusion_lon": 0.0, "bike_id": "6d72729f1172262ceff139ba039e8346", "name": "6d72729f1172262ceff139ba039e8346", "rental_uris": {"ios": "https://dc.lft.to/lastmile_qr_scan", "android": "https://dc.lft.to/lastmile_qr_scan"}}, {"is_disabled": 0, "fusion_lat": 0.0, "lat": 38.903789, "type": "electric_scooter", "lon": -77.01108516666666, "is_reserved": 0, "fusion_lon": 0.0, "bike_id": "0613957d468b70304920a69ac1e72b79", "name": "0613957d468b70304920a69ac1e72b79", "rental_uris": {"ios": "https://dc.lft.to/lastmile_qr_scan", "android": "https://dc.lft.to/lastmile_qr_scan"}}, {"is_disabled": 0, "fusion_lat": 0.0, "lat": 38.93312233333333, "type": "electric_scooter", "lon": -77.03292333333333, "is_reserved": 0, "fusion_lon": 0.0, "bike_id": "d83b1f1c2c4bebfebadf121f44e6d4d7", "name": "d83b1f1c2c4bebfebadf121f44e6d4d7", "rental_uris": {"ios": "https://dc.lft.to/lastmile_qr_scan", "android": "https://dc.lft.to/lastmile_qr_scan"}}, {"is_disabled": 0, "fusion_lat": 0.0, "lat": 38.94169266666667, "type": "electric_scooter", "lon": -77.04130183333334, "is_reserved": 0, "fusion_lon": 0.0, "bike_id": "767a637008f2ff1ce54db426c3b3aadb", "name": "767a637008f2ff1ce54db426c3b3aadb", "rental_uris": {"ios": "https://dc.lft.to/lastmile_qr_scan", "android": "https://dc.lft.to/lastmile_qr_scan"}}, {"is_disabled": 0, "fusion_lat": 0.0, "lat": 38.91336016666666, "type": "electric_scooter", "lon": -77.0301545, "is_reserved": 0, "fusion_lon": 0.0, "bike_id": "231c85f2ecc85ccd5c4d1c4c9a214337", "name": "231c85f2ecc85ccd5c4d1c4c9a214337", "rental_uris": {"ios": "https://dc.lft.to/lastmile_qr_scan", "android": "https://dc.lft.to/lastmile_qr_scan"}}, {"is_disabled": 0, "fusion_lat": 0.0, "lat": 38.906843, "type": "electric_scooter", "lon": -77.06351816666667, "is_reserved": 0, "fusion_lon": 0.0, "bike_id": "432e8fc7c7c250e7994852eb1cc26c1f", "name": "432e8fc7c7c250e7994852eb1cc26c1f", "rental_uris": {"ios": "https://dc.lft.to/lastmile_qr_scan", "android": "https://dc.lft.to/lastmile_qr_scan"}}, {"is_disabled": 0, "fusion_lat": 0.0, "lat": 38.911326, "type": "electric_scooter", "lon": -77.02197683333333, "is_reserved": 0, "fusion_lon": 0.0, "bike_id": "8a17146216d0378730c6f110c3ed217c", "name": "8a17146216d0378730c6f110c3ed217c", "rental_uris": {"ios": "https://dc.lft.to/lastmile_qr_scan", "android": "https://dc.lft.to/lastmile_qr_scan"}}, {"is_disabled": 0, "fusion_lat": 0.0, "lat": 38.94040066666667, "type": "electric_scooter", "lon": -77.02906116666666, "is_reserved": 0, "fusion_lon": 0.0, "bike_id": "41beb250375fea139a6add0e764470e5", "name": "41beb250375fea139a6add0e764470e5", "rental_uris": {"ios": "https://dc.lft.to/lastmile_qr_scan", "android": "https://dc.lft.to/lastmile_qr_scan"}}, {"is_disabled": 0, "fusion_lat": 0.0, "lat": 38.89554783333333, "type": "electric_scooter", "lon": -77.0091755, "is_reserved": 0, "fusion_lon": 0.0, "bike_id": "e38e186429c20843bd7b35ed9ac13c9f", "name": "e38e186429c20843bd7b35ed9ac13c9f", "rental_uris": {"ios": "https://dc.lft.to/lastmile_qr_scan", "android": "https://dc.lft.to/lastmile_qr_scan"}}, {"is_disabled": 0, "fusion_lat": 0.0, "lat": 38.84593616666667, "type": "electric_bike", "lon": -77.07676933333333, "is_reserved": 0, "fusion_lon": 0.0, "bike_id": "88635f1ad2822103850b78da5d2cb0a9", "name": "88635f1ad2822103850b78da5d2cb0a9", "rental_uris": {"ios": "https://dc.lft.to/lastmile_qr_scan", "android": "https://dc.lft.to/lastmile_qr_scan"}}, {"is_disabled": 0, "fusion_lat": 0.0, "lat": 38.94758383333333, "type": "electric_scooter", "lon": -77.07961883333333, "is_reserved": 0, "fusion_lon": 0.0, "bike_id": "3c6987f652ad3c0dc98bf2bbfdb11470", "name": "3c6987f652ad3c0dc98bf2bbfdb11470", "rental_uris": {"ios": "https://dc.lft.to/lastmile_qr_scan", "android": "https://dc.lft.to/lastmile_qr_scan"}}, {"is_disabled": 0, "fusion_lat": 0.0, "lat": 38.866173333333336, "type": "electric_scooter", "lon": -76.98673366666667, "is_reserved": 0, "fusion_lon": 0.0, "bike_id": "ad364c5fb8124785bd5525505133a60a", "name": "ad364c5fb8124785bd5525505133a60a", "rental_uris": {"ios": "https://dc.lft.to/lastmile_qr_scan", "android": "https://dc.lft.to/lastmile_qr_scan"}}, {"is_disabled": 0, "fusion_lat": 0.0, "lat": 38.90416316666666, "type": "electric_scooter", "lon": -77.02079666666667, "is_reserved": 0, "fusion_lon": 0.0, "bike_id": "ac565a9cf436b76eef58cbcc789a6fd4", "name": "ac565a9cf436b76eef58cbcc789a6fd4", "rental_uris": {"ios": "https://dc.lft.to/lastmile_qr_scan", "android": "https://dc.lft.to/lastmile_qr_scan"}}, {"is_disabled": 0, "fusion_lat": 0.0, "lat": 38.9025265, "type": "electric_scooter", "lon": -77.03333866666667, "is_reserved": 0, "fusion_lon": 0.0, "bike_id": "40a57350ddf9084a697d1cbeb599c364", "name": "40a57350ddf9084a697d1cbeb599c364", "rental_uris": {"ios": "https://dc.lft.to/lastmile_qr_scan", "android": "https://dc.lft.to/lastmile_qr_scan"}}, {"is_disabled": 0, "fusion_lat": 0.0, "lat": 38.89771916666667, "type": "electric_scooter", "lon": -77.02681066666666, "is_reserved": 0, "fusion_lon": 0.0, "bike_id": "a4380f2b2372a355b490a9b6c2969b86", "name": "a4380f2b2372a355b490a9b6c2969b86", "rental_uris": {"ios": "https://dc.lft.to/lastmile_qr_scan", "android": "https://dc.lft.to/lastmile_qr_scan"}}, {"is_disabled": 0, "fusion_lat": 0.0, "lat": 38.915553333333335, "type": "electric_scooter", "lon": -77.0337375, "is_reserved": 0, "fusion_lon": 0.0, "bike_id": "9d472e454d73dd02c7b99056f29098d8", "name": "9d472e454d73dd02c7b99056f29098d8", "rental_uris": {"ios": "https://dc.lft.to/lastmile_qr_scan", "android": "https://dc.lft.to/lastmile_qr_scan"}}, {"is_disabled": 0, "fusion_lat": 0.0, "lat": 38.88042166666666, "type": "electric_bike", "lon": -77.00545033333333, "is_reserved": 0, "fusion_lon": 0.0, "bike_id": "02aee553e16546b5c56c8d3e87f9bfa9", "name": "02aee553e16546b5c56c8d3e87f9bfa9", "rental_uris": {"ios": "https://dc.lft.to/lastmile_qr_scan", "android": "https://dc.lft.to/lastmile_qr_scan"}}, {"is_disabled": 0, "fusion_lat": 0.0, "lat": 38.904832166666665, "type": "electric_scooter", "lon": -77.04857083333333, "is_reserved": 0, "fusion_lon": 0.0, "bike_id": "213854805c410cba4b3e32b1791bb9ef", "name": "213854805c410cba4b3e32b1791bb9ef", "rental_uris": {"ios": "https://dc.lft.to/lastmile_qr_scan", "android": "https://dc.lft.to/lastmile_qr_scan"}}, {"is_disabled": 0, "fusion_lat": 0.0, "lat": 38.89743383333333, "type": "electric_scooter", "lon": -77.0003155, "is_reserved": 0, "fusion_lon": 0.0, "bike_id": "7d5ee285f5d137e4fd624f7d2b209ab3", "name": "7d5ee285f5d137e4fd624f7d2b209ab3", "rental_uris": {"ios": "https://dc.lft.to/lastmile_qr_scan", "android": "https://dc.lft.to/lastmile_qr_scan"}}, {"is_disabled": 0, "fusion_lat": 0.0, "lat": 38.89628866666666, "type": "electric_scooter", "lon": -76.985003, "is_reserved": 0, "fusion_lon": 0.0, "bike_id": "d3c69d12f234685b6d5b39e5527f0bcc", "name": "d3c69d12f234685b6d5b39e5527f0bcc", "rental_uris": {"ios": "https://dc.lft.to/lastmile_qr_scan", "android": "https://dc.lft.to/lastmile_qr_scan"}}, {"is_disabled": 0, "fusion_lat": 0.0, "lat": 38.917053, "type": "electric_scooter", "lon": -77.00113533333334, "is_reserved": 0, "fusion_lon": 0.0, "bike_id": "2ebc29caa3f19a682b9f07896037a050", "name": "2ebc29caa3f19a682b9f07896037a050", "rental_uris": {"ios": "https://dc.lft.to/lastmile_qr_scan", "android": "https://dc.lft.to/lastmile_qr_scan"}}, {"is_disabled": 0, "fusion_lat": 0.0, "lat": 38.95956316666667, "type": "electric_bike", "lon": -77.100902, "is_reserved": 0, "fusion_lon": 0.0, "bike_id": "aeb751626061548c9ab8b2073a7ebaba", "name": "aeb751626061548c9ab8b2073a7ebaba", "rental_uris": {"ios": "https://dc.lft.to/lastmile_qr_scan", "android": "https://dc.lft.to/lastmile_qr_scan"}}, {"is_disabled": 0, "fusion_lat": 0.0, "lat": 38.9038235, "type": "electric_scooter", "lon": -77.04369583333333, "is_reserved": 0, "fusion_lon": 0.0, "bike_id": "5534fd6d88b842a238cc9695c97f7759", "name": "5534fd6d88b842a238cc9695c97f7759", "rental_uris": {"ios": "https://dc.lft.to/lastmile_qr_scan", "android": "https://dc.lft.to/lastmile_qr_scan"}}, {"is_disabled": 0, "fusion_lat": 0.0, "lat": 38.90040616666667, "type": "electric_scooter", "lon": -76.98837933333333, "is_reserved": 0, "fusion_lon": 0.0, "bike_id": "60f178c53c78e794d7efa8b2b35786d5", "name": "60f178c53c78e794d7efa8b2b35786d5", "rental_uris": {"ios": "https://dc.lft.to/lastmile_qr_scan", "android": "https://dc.lft.to/lastmile_qr_scan"}}, {"is_disabled": 0, "fusion_lat": 0.0, "lat": 38.9285415, "type": "electric_scooter", "lon": -77.01377216666667, "is_reserved": 0, "fusion_lon": 0.0, "bike_id": "d5e557d0324cda7d27be012dfd46f5e5", "name": "d5e557d0324cda7d27be012dfd46f5e5", "rental_uris": {"ios": "https://dc.lft.to/lastmile_qr_scan", "android": "https://dc.lft.to/lastmile_qr_scan"}}, {"is_disabled": 0, "fusion_lat": 0.0, "lat": 38.87933116666667, "type": "electric_scooter", "lon": -77.00518233333334, "is_reserved": 0, "fusion_lon": 0.0, "bike_id": "4caf40ff17b1bfc56105ca31e3abbe7f", "name": "4caf40ff17b1bfc56105ca31e3abbe7f", "rental_uris": {"ios": "https://dc.lft.to/lastmile_qr_scan", "android": "https://dc.lft.to/lastmile_qr_scan"}}, {"is_disabled": 0, "fusion_lat": 0.0, "lat": 38.892126166666664, "type": "electric_scooter", "lon": -77.00054383333334, "is_reserved": 0, "fusion_lon": 0.0, "bike_id": "ee7a07d619a6f3875aee0a14901754e0", "name": "ee7a07d619a6f3875aee0a14901754e0", "rental_uris": {"ios": "https://dc.lft.to/lastmile_qr_scan", "android": "https://dc.lft.to/lastmile_qr_scan"}}, {"is_disabled": 0, "fusion_lat": 0.0, "lat": 38.91682433333333, "type": "electric_scooter", "lon": -77.0232605, "is_reserved": 0, "fusion_lon": 0.0, "bike_id": "389b360738f39bc750d86eb6a326fa94", "name": "389b360738f39bc750d86eb6a326fa94", "rental_uris": {"ios": "https://dc.lft.to/lastmile_qr_scan", "android": "https://dc.lft.to/lastmile_qr_scan"}}, {"is_disabled": 0, "fusion_lat": 0.0, "lat": 38.9141405, "type": "electric_scooter", "lon": -77.0217375, "is_reserved": 0, "fusion_lon": 0.0, "bike_id": "02c174f2731544b24acdc0e291f5429d", "name": "02c174f2731544b24acdc0e291f5429d", "rental_uris": {"ios": "https://dc.lft.to/lastmile_qr_scan", "android": "https://dc.lft.to/lastmile_qr_scan"}}, {"is_disabled": 0, "fusion_lat": 0.0, "lat": 38.91189133333334, "type": "electric_scooter", "lon": -77.06094216666666, "is_reserved": 0, "fusion_lon": 0.0, "bike_id": "51235ae908e14f90fd4ffe256b71d569", "name": "51235ae908e14f90fd4ffe256b71d569", "rental_uris": {"ios": "https://dc.lft.to/lastmile_qr_scan", "android": "https://dc.lft.to/lastmile_qr_scan"}}, {"is_disabled": 0, "fusion_lat": 0.0, "lat": 38.8606075, "type": "electric_bike", "lon": -77.05641333333334, "is_reserved": 0, "fusion_lon": 0.0, "bike_id": "d8a0ff4d29cd67b1fa2c2b18d7a2da2a", "name": "d8a0ff4d29cd67b1fa2c2b18d7a2da2a", "rental_uris": {"ios": "https://dc.lft.to/lastmile_qr_scan", "android": "https://dc.lft.to/lastmile_qr_scan"}}, {"is_disabled": 0, "fusion_lat": 0.0, "lat": 38.8446635, "type": "electric_scooter", "lon": -76.99860933333333, "is_reserved": 0, "fusion_lon": 0.0, "bike_id": "b91c98a750ee0a8a989e8a145982b810", "name": "b91c98a750ee0a8a989e8a145982b810", "rental_uris": {"ios": "https://dc.lft.to/lastmile_qr_scan", "android": "https://dc.lft.to/lastmile_qr_scan"}}, {"is_disabled": 0, "fusion_lat": 0.0, "lat": 38.928457333333334, "type": "electric_scooter", "lon": -77.0543025, "is_reserved": 0, "fusion_lon": 0.0, "bike_id": "174020ab02e612c3f709b5cf88038e2d", "name": "174020ab02e612c3f709b5cf88038e2d", "rental_uris": {"ios": "https://dc.lft.to/lastmile_qr_scan", "android": "https://dc.lft.to/lastmile_qr_scan"}}, {"is_disabled": 0, "fusion_lat": 0.0, "lat": 38.86167733333333, "type": "electric_bike", "lon": -76.95068833333333, "is_reserved": 0, "fusion_lon": 0.0, "bike_id": "247cb5639ecc54167e5ccaa72dbf8cc4", "name": "247cb5639ecc54167e5ccaa72dbf8cc4", "rental_uris": {"ios": "https://dc.lft.to/lastmile_qr_scan", "android": "https://dc.lft.to/lastmile_qr_scan"}}, {"is_disabled": 0, "fusion_lat": 0.0, "lat": 38.9564475, "type": "electric_bike", "lon": -77.0225585, "is_reserved": 0, "fusion_lon": 0.0, "bike_id": "bebf0f6413087f8dc5a3ec374d469957", "name": "bebf0f6413087f8dc5a3ec374d469957", "rental_uris": {"ios": "https://dc.lft.to/lastmile_qr_scan", "android": "https://dc.lft.to/lastmile_qr_scan"}}, {"is_disabled": 0, "fusion_lat": 0.0, "lat": 38.901388833333336, "type": "electric_scooter", "lon": -77.04468983333334, "is_reserved": 0, "fusion_lon": 0.0, "bike_id": "0ce480648f2054bea322cd85694f9723", "name": "0ce480648f2054bea322cd85694f9723", "rental_uris": {"ios": "https://dc.lft.to/lastmile_qr_scan", "android": "https://dc.lft.to/lastmile_qr_scan"}}, {"is_disabled": 0, "fusion_lat": 0.0, "lat": 38.93210333333333, "type": "electric_bike", "lon": -77.03266666666667, "is_reserved": 0, "fusion_lon": 0.0, "bike_id": "21b6bf7a9597acc4bdb7b6183fcd856c", "name": "21b6bf7a9597acc4bdb7b6183fcd856c", "rental_uris": {"ios": "https://dc.lft.to/lastmile_qr_scan", "android": "https://dc.lft.to/lastmile_qr_scan"}}, {"is_disabled": 0, "fusion_lat": 0.0, "lat": 38.92373116666667, "type": "electric_scooter", "lon": -77.03549916666667, "is_reserved": 0, "fusion_lon": 0.0, "bike_id": "5fdc20f3e10651d31ff8399cef27910d", "name": "5fdc20f3e10651d31ff8399cef27910d", "rental_uris": {"ios": "https://dc.lft.to/lastmile_qr_scan", "android": "https://dc.lft.to/lastmile_qr_scan"}}, {"is_disabled": 0, "fusion_lat": 0.0, "lat": 38.884953333333335, "type": "electric_scooter", "lon": -77.008976, "is_reserved": 0, "fusion_lon": 0.0, "bike_id": "1c268d447050e6d173332b7cb1fda8dd", "name": "1c268d447050e6d173332b7cb1fda8dd", "rental_uris": {"ios": "https://dc.lft.to/lastmile_qr_scan", "android": "https://dc.lft.to/lastmile_qr_scan"}}, {"is_disabled": 0, "fusion_lat": 0.0, "lat": 38.924432333333336, "type": "electric_scooter", "lon": -77.041125, "is_reserved": 0, "fusion_lon": 0.0, "bike_id": "2c17218b503fb7699cd14f41b0181d65", "name": "2c17218b503fb7699cd14f41b0181d65", "rental_uris": {"ios": "https://dc.lft.to/lastmile_qr_scan", "android": "https://dc.lft.to/lastmile_qr_scan"}}, {"is_disabled": 0, "fusion_lat": 0.0, "lat": 38.89246116666666, "type": "electric_scooter", "lon": -77.03956316666667, "is_reserved": 0, "fusion_lon": 0.0, "bike_id": "5516de17dfc26b0d11566585536e6507", "name": "5516de17dfc26b0d11566585536e6507", "rental_uris": {"ios": "https://dc.lft.to/lastmile_qr_scan", "android": "https://dc.lft.to/lastmile_qr_scan"}}, {"is_disabled": 0, "fusion_lat": 0.0, "lat": 38.9171465, "type": "electric_scooter", "lon": -77.031205, "is_reserved": 0, "fusion_lon": 0.0, "bike_id": "281fc5abbcc1f4d5b57e2b571547a9c4", "name": "281fc5abbcc1f4d5b57e2b571547a9c4", "rental_uris": {"ios": "https://dc.lft.to/lastmile_qr_scan", "android": "https://dc.lft.to/lastmile_qr_scan"}}, {"is_disabled": 0, "fusion_lat": 0.0, "lat": 38.92315216666667, "type": "electric_scooter", "lon": -77.047586, "is_reserved": 0, "fusion_lon": 0.0, "bike_id": "941db07073e1000ff1dfac4a1a5cb90b", "name": "941db07073e1000ff1dfac4a1a5cb90b", "rental_uris": {"ios": "https://dc.lft.to/lastmile_qr_scan", "android": "https://dc.lft.to/lastmile_qr_scan"}}, {"is_disabled": 0, "fusion_lat": 0.0, "lat": 38.89611516666667, "type": "electric_scooter", "lon": -77.0479285, "is_reserved": 0, "fusion_lon": 0.0, "bike_id": "2ef8e8e54650dfae33a7d22a27eeeafe", "name": "2ef8e8e54650dfae33a7d22a27eeeafe", "rental_uris": {"ios": "https://dc.lft.to/lastmile_qr_scan", "android": "https://dc.lft.to/lastmile_qr_scan"}}, {"is_disabled": 0, "fusion_lat": 0.0, "lat": 38.931741333333335, "type": "electric_scooter", "lon": -77.02843083333333, "is_reserved": 0, "fusion_lon": 0.0, "bike_id": "60651d5a00d22f0f4423569af7153131", "name": "60651d5a00d22f0f4423569af7153131", "rental_uris": {"ios": "https://dc.lft.to/lastmile_qr_scan", "android": "https://dc.lft.to/lastmile_qr_scan"}}, {"is_disabled": 0, "fusion_lat": 0.0, "lat": 38.902497333333336, "type": "electric_scooter", "lon": -77.001982, "is_reserved": 0, "fusion_lon": 0.0, "bike_id": "0a0b220d1927dfff256877adbc9a469d", "name": "0a0b220d1927dfff256877adbc9a469d", "rental_uris": {"ios": "https://dc.lft.to/lastmile_qr_scan", "android": "https://dc.lft.to/lastmile_qr_scan"}}, {"is_disabled": 0, "fusion_lat": 0.0, "lat": 38.905042, "type": "electric_scooter", "lon": -76.9901495, "is_reserved": 0, "fusion_lon": 0.0, "bike_id": "f4a28b79d6ba0ecf834bae49d517e482", "name": "f4a28b79d6ba0ecf834bae49d517e482", "rental_uris": {"ios": "https://dc.lft.to/lastmile_qr_scan", "android": "https://dc.lft.to/lastmile_qr_scan"}}, {"is_disabled": 0, "fusion_lat": 0.0, "lat": 38.902352, "type": "electric_scooter", "lon": -77.01558266666666, "is_reserved": 0, "fusion_lon": 0.0, "bike_id": "fc5bb47681d14a8dd4e95cadb428d9fd", "name": "fc5bb47681d14a8dd4e95cadb428d9fd", "rental_uris": {"ios": "https://dc.lft.to/lastmile_qr_scan", "android": "https://dc.lft.to/lastmile_qr_scan"}}, {"is_disabled": 0, "fusion_lat": 0.0, "lat": 38.876658166666665, "type": "electric_scooter", "lon": -77.004391, "is_reserved": 0, "fusion_lon": 0.0, "bike_id": "bb991d6405d1d9e19fc164cb346579c2", "name": "bb991d6405d1d9e19fc164cb346579c2", "rental_uris": {"ios": "https://dc.lft.to/lastmile_qr_scan", "android": "https://dc.lft.to/lastmile_qr_scan"}}, {"is_disabled": 0, "fusion_lat": 0.0, "lat": 38.904064, "type": "electric_scooter", "lon": -77.0207135, "is_reserved": 0, "fusion_lon": 0.0, "bike_id": "1113082acc3c9866c91541fbec3d5e94", "name": "1113082acc3c9866c91541fbec3d5e94", "rental_uris": {"ios": "https://dc.lft.to/lastmile_qr_scan", "android": "https://dc.lft.to/lastmile_qr_scan"}}, {"is_disabled": 0, "fusion_lat": 0.0, "lat": 38.91773366666666, "type": "electric_bike", "lon": -77.04059633333334, "is_reserved": 0, "fusion_lon": 0.0, "bike_id": "a2f041450b84ee4d78e1b5e81f1afe71", "name": "a2f041450b84ee4d78e1b5e81f1afe71", "rental_uris": {"ios": "https://dc.lft.to/lastmile_qr_scan", "android": "https://dc.lft.to/lastmile_qr_scan"}}, {"is_disabled": 0, "fusion_lat": 0.0, "lat": 38.9062675, "type": "electric_bike", "lon": -76.98608633333333, "is_reserved": 0, "fusion_lon": 0.0, "bike_id": "26c6ed36e41be66a72b2fff8428331b6", "name": "26c6ed36e41be66a72b2fff8428331b6", "rental_uris": {"ios": "https://dc.lft.to/lastmile_qr_scan", "android": "https://dc.lft.to/lastmile_qr_scan"}}, {"is_disabled": 0, "fusion_lat": 0.0, "lat": 38.95935816666667, "type": "electric_scooter", "lon": -77.03114183333334, "is_reserved": 0, "fusion_lon": 0.0, "bike_id": "92431f661aacb2fc8639bf0e6888b4ff", "name": "92431f661aacb2fc8639bf0e6888b4ff", "rental_uris": {"ios": "https://dc.lft.to/lastmile_qr_scan", "android": "https://dc.lft.to/lastmile_qr_scan"}}, {"is_disabled": 0, "fusion_lat": 0.0, "lat": 38.91047066666667, "type": "electric_scooter", "lon": -77.021953, "is_reserved": 0, "fusion_lon": 0.0, "bike_id": "ed05c21c60baeb3bf1b6d1412cfaac48", "name": "ed05c21c60baeb3bf1b6d1412cfaac48", "rental_uris": {"ios": "https://dc.lft.to/lastmile_qr_scan", "android": "https://dc.lft.to/lastmile_qr_scan"}}, {"is_disabled": 0, "fusion_lat": 0.0, "lat": 38.90672266666667, "type": "electric_scooter", "lon": -77.00056383333333, "is_reserved": 0, "fusion_lon": 0.0, "bike_id": "49edd2965dfd5262ad6fa19bfc134593", "name": "49edd2965dfd5262ad6fa19bfc134593", "rental_uris": {"ios": "https://dc.lft.to/lastmile_qr_scan", "android": "https://dc.lft.to/lastmile_qr_scan"}}, {"is_disabled": 0, "fusion_lat": 0.0, "lat": 38.90407016666666, "type": "electric_scooter", "lon": -77.03244733333334, "is_reserved": 0, "fusion_lon": 0.0, "bike_id": "889d4908d4c4365b16d9efd1a2b62582", "name": "889d4908d4c4365b16d9efd1a2b62582", "rental_uris": {"ios": "https://dc.lft.to/lastmile_qr_scan", "android": "https://dc.lft.to/lastmile_qr_scan"}}, {"is_disabled": 0, "fusion_lat": 0.0, "lat": 38.9126875, "type": "electric_scooter", "lon": -77.016939, "is_reserved": 0, "fusion_lon": 0.0, "bike_id": "3aca64ca6f973009bbb657677be1072e", "name": "3aca64ca6f973009bbb657677be1072e", "rental_uris": {"ios": "https://dc.lft.to/lastmile_qr_scan", "android": "https://dc.lft.to/lastmile_qr_scan"}}, {"is_disabled": 0, "fusion_lat": 0.0, "lat": 38.89747, "type": "electric_scooter", "lon": -77.045036, "is_reserved": 0, "fusion_lon": 0.0, "bike_id": "1e7f8a979d7959a37fd655af4130656e", "name": "1e7f8a979d7959a37fd655af4130656e", "rental_uris": {"ios": "https://dc.lft.to/lastmile_qr_scan", "android": "https://dc.lft.to/lastmile_qr_scan"}}, {"is_disabled": 0, "fusion_lat": 0.0, "lat": 38.920245666666666, "type": "electric_scooter", "lon": -77.03120533333333, "is_reserved": 0, "fusion_lon": 0.0, "bike_id": "bf8b6b5191761a6079649054d2ad07c7", "name": "bf8b6b5191761a6079649054d2ad07c7", "rental_uris": {"ios": "https://dc.lft.to/lastmile_qr_scan", "android": "https://dc.lft.to/lastmile_qr_scan"}}, {"is_disabled": 0, "fusion_lat": 0.0, "lat": 38.89251683333333, "type": "electric_scooter", "lon": -77.01527533333334, "is_reserved": 0, "fusion_lon": 0.0, "bike_id": "64151ca02a2ec3e9d9947d635a28ef48", "name": "64151ca02a2ec3e9d9947d635a28ef48", "rental_uris": {"ios": "https://dc.lft.to/lastmile_qr_scan", "android": "https://dc.lft.to/lastmile_qr_scan"}}, {"is_disabled": 0, "fusion_lat": 0.0, "lat": 38.91184966666667, "type": "electric_scooter", "lon": -77.0105315, "is_reserved": 0, "fusion_lon": 0.0, "bike_id": "b51c7f859a1eeacdcdb996d0d9ae69d3", "name": "b51c7f859a1eeacdcdb996d0d9ae69d3", "rental_uris": {"ios": "https://dc.lft.to/lastmile_qr_scan", "android": "https://dc.lft.to/lastmile_qr_scan"}}, {"is_disabled": 0, "fusion_lat": 0.0, "lat": 38.913328666666665, "type": "electric_scooter", "lon": -77.04873266666667, "is_reserved": 0, "fusion_lon": 0.0, "bike_id": "9619bc98473daa82e68e5716aed8b1e3", "name": "9619bc98473daa82e68e5716aed8b1e3", "rental_uris": {"ios": "https://dc.lft.to/lastmile_qr_scan", "android": "https://dc.lft.to/lastmile_qr_scan"}}, {"is_disabled": 0, "fusion_lat": 0.0, "lat": 38.884936, "type": "electric_scooter", "lon": -77.01559816666666, "is_reserved": 0, "fusion_lon": 0.0, "bike_id": "206f90978a836010639ee8dadbaf14aa", "name": "206f90978a836010639ee8dadbaf14aa", "rental_uris": {"ios": "https://dc.lft.to/lastmile_qr_scan", "android": "https://dc.lft.to/lastmile_qr_scan"}}, {"is_disabled": 0, "fusion_lat": 0.0, "lat": 38.898748499999996, "type": "electric_scooter", "lon": -76.93184433333333, "is_reserved": 0, "fusion_lon": 0.0, "bike_id": "80ad0f0fafccefdb19572943c00f03ba", "name": "80ad0f0fafccefdb19572943c00f03ba", "rental_uris": {"ios": "https://dc.lft.to/lastmile_qr_scan", "android": "https://dc.lft.to/lastmile_qr_scan"}}, {"is_disabled": 0, "fusion_lat": 0.0, "lat": 38.899942, "type": "electric_scooter", "lon": -77.026784, "is_reserved": 0, "fusion_lon": 0.0, "bike_id": "493546c3d7079ab990985635d4fe86d0", "name": "493546c3d7079ab990985635d4fe86d0", "rental_uris": {"ios": "https://dc.lft.to/lastmile_qr_scan", "android": "https://dc.lft.to/lastmile_qr_scan"}}, {"is_disabled": 0, "fusion_lat": 0.0, "lat": 38.92586416666666, "type": "electric_scooter", "lon": -77.00480416666667, "is_reserved": 0, "fusion_lon": 0.0, "bike_id": "c92432bd70c7d03b7f3caf614f4bfc54", "name": "c92432bd70c7d03b7f3caf614f4bfc54", "rental_uris": {"ios": "https://dc.lft.to/lastmile_qr_scan", "android": "https://dc.lft.to/lastmile_qr_scan"}}, {"is_disabled": 0, "fusion_lat": 0.0, "lat": 38.900377166666665, "type": "electric_scooter", "lon": -77.002134, "is_reserved": 0, "fusion_lon": 0.0, "bike_id": "d45d84a51ebb83f350307f0270760410", "name": "d45d84a51ebb83f350307f0270760410", "rental_uris": {"ios": "https://dc.lft.to/lastmile_qr_scan", "android": "https://dc.lft.to/lastmile_qr_scan"}}, {"is_disabled": 0, "fusion_lat": 0.0, "lat": 38.92506216666666, "type": "electric_scooter", "lon": -77.03884366666666, "is_reserved": 0, "fusion_lon": 0.0, "bike_id": "b3b753aff8c8ee1638482ba6d6ea1457", "name": "b3b753aff8c8ee1638482ba6d6ea1457", "rental_uris": {"ios": "https://dc.lft.to/lastmile_qr_scan", "android": "https://dc.lft.to/lastmile_qr_scan"}}, {"is_disabled": 0, "fusion_lat": 0.0, "lat": 38.856939833333335, "type": "electric_scooter", "lon": -76.98957516666667, "is_reserved": 0, "fusion_lon": 0.0, "bike_id": "7de8196b264119ac0f4663d182978c9d", "name": "7de8196b264119ac0f4663d182978c9d", "rental_uris": {"ios": "https://dc.lft.to/lastmile_qr_scan", "android": "https://dc.lft.to/lastmile_qr_scan"}}, {"is_disabled": 0, "fusion_lat": 0.0, "lat": 38.903128833333334, "type": "electric_scooter", "lon": -76.97800066666667, "is_reserved": 0, "fusion_lon": 0.0, "bike_id": "a1c25967dcd94907b9b7d5d7baede690", "name": "a1c25967dcd94907b9b7d5d7baede690", "rental_uris": {"ios": "https://dc.lft.to/lastmile_qr_scan", "android": "https://dc.lft.to/lastmile_qr_scan"}}, {"is_disabled": 0, "fusion_lat": 0.0, "lat": 38.970924833333335, "type": "electric_bike", "lon": -77.06965516666666, "is_reserved": 0, "fusion_lon": 0.0, "bike_id": "d24f0304ee6c4a93f8719d2972358804", "name": "d24f0304ee6c4a93f8719d2972358804", "rental_uris": {"ios": "https://dc.lft.to/lastmile_qr_scan", "android": "https://dc.lft.to/lastmile_qr_scan"}}, {"is_disabled": 0, "fusion_lat": 0.0, "lat": 38.87964483333333, "type": "electric_bike", "lon": -77.01010833333333, "is_reserved": 0, "fusion_lon": 0.0, "bike_id": "88ce8e66ea35e9aa6c53fefcaef48519", "name": "88ce8e66ea35e9aa6c53fefcaef48519", "rental_uris": {"ios": "https://dc.lft.to/lastmile_qr_scan", "android": "https://dc.lft.to/lastmile_qr_scan"}}, {"is_disabled": 0, "fusion_lat": 0.0, "lat": 38.91563516666667, "type": "electric_scooter", "lon": -77.03168833333334, "is_reserved": 0, "fusion_lon": 0.0, "bike_id": "823a03aa59bf9a75972a313268f5bdd0", "name": "823a03aa59bf9a75972a313268f5bdd0", "rental_uris": {"ios": "https://dc.lft.to/lastmile_qr_scan", "android": "https://dc.lft.to/lastmile_qr_scan"}}, {"is_disabled": 0, "fusion_lat": 0.0, "lat": 38.896064833333334, "type": "electric_scooter", "lon": -76.95519933333334, "is_reserved": 0, "fusion_lon": 0.0, "bike_id": "1bf9a8f2a6171e00735fcb359b58d7a8", "name": "1bf9a8f2a6171e00735fcb359b58d7a8", "rental_uris": {"ios": "https://dc.lft.to/lastmile_qr_scan", "android": "https://dc.lft.to/lastmile_qr_scan"}}, {"is_disabled": 0, "fusion_lat": 0.0, "lat": 38.888871, "type": "electric_scooter", "lon": -76.93157066666667, "is_reserved": 0, "fusion_lon": 0.0, "bike_id": "e8e90955146f3458f60d2efb48288e68", "name": "e8e90955146f3458f60d2efb48288e68", "rental_uris": {"ios": "https://dc.lft.to/lastmile_qr_scan", "android": "https://dc.lft.to/lastmile_qr_scan"}}, {"is_disabled": 0, "fusion_lat": 0.0, "lat": 38.9170925, "type": "electric_scooter", "lon": -77.034138, "is_reserved": 0, "fusion_lon": 0.0, "bike_id": "585a65f4dcb10a6989d9e4e327e6b84a", "name": "585a65f4dcb10a6989d9e4e327e6b84a", "rental_uris": {"ios": "https://dc.lft.to/lastmile_qr_scan", "android": "https://dc.lft.to/lastmile_qr_scan"}}, {"is_disabled": 0, "fusion_lat": 0.0, "lat": 38.91913983333333, "type": "electric_scooter", "lon": -77.04634916666667, "is_reserved": 0, "fusion_lon": 0.0, "bike_id": "fd6a5b131bb8e0974916b4a378592ca0", "name": "fd6a5b131bb8e0974916b4a378592ca0", "rental_uris": {"ios": "https://dc.lft.to/lastmile_qr_scan", "android": "https://dc.lft.to/lastmile_qr_scan"}}, {"is_disabled": 0, "fusion_lat": 0.0, "lat": 38.908609, "type": "electric_scooter", "lon": -76.99809066666667, "is_reserved": 0, "fusion_lon": 0.0, "bike_id": "f50b0175a51e7cd4b2c8f0af49916aab", "name": "f50b0175a51e7cd4b2c8f0af49916aab", "rental_uris": {"ios": "https://dc.lft.to/lastmile_qr_scan", "android": "https://dc.lft.to/lastmile_qr_scan"}}, {"is_disabled": 0, "fusion_lat": 0.0, "lat": 38.88476216666667, "type": "electric_scooter", "lon": -76.94598116666667, "is_reserved": 0, "fusion_lon": 0.0, "bike_id": "87cfe1fb838059eceb1dcb66645cc7e5", "name": "87cfe1fb838059eceb1dcb66645cc7e5", "rental_uris": {"ios": "https://dc.lft.to/lastmile_qr_scan", "android": "https://dc.lft.to/lastmile_qr_scan"}}, {"is_disabled": 0, "fusion_lat": 0.0, "lat": 38.8979425, "type": "electric_scooter", "lon": -76.946902, "is_reserved": 0, "fusion_lon": 0.0, "bike_id": "9b9933db0bec0006a55f5a36280b8360", "name": "9b9933db0bec0006a55f5a36280b8360", "rental_uris": {"ios": "https://dc.lft.to/lastmile_qr_scan", "android": "https://dc.lft.to/lastmile_qr_scan"}}, {"is_disabled": 0, "fusion_lat": 0.0, "lat": 38.87966183333333, "type": "electric_scooter", "lon": -77.00451433333333, "is_reserved": 0, "fusion_lon": 0.0, "bike_id": "a3f7b0b016793b57d8c1aa04c0f569f5", "name": "a3f7b0b016793b57d8c1aa04c0f569f5", "rental_uris": {"ios": "https://dc.lft.to/lastmile_qr_scan", "android": "https://dc.lft.to/lastmile_qr_scan"}}, {"is_disabled": 0, "fusion_lat": 0.0, "lat": 38.924577, "type": "electric_scooter", "lon": -77.05762283333334, "is_reserved": 0, "fusion_lon": 0.0, "bike_id": "a718ac6d3d6018414a50e3101f6a14ae", "name": "a718ac6d3d6018414a50e3101f6a14ae", "rental_uris": {"ios": "https://dc.lft.to/lastmile_qr_scan", "android": "https://dc.lft.to/lastmile_qr_scan"}}, {"is_disabled": 0, "fusion_lat": 0.0, "lat": 38.93681383333333, "type": "electric_scooter", "lon": -77.03630633333333, "is_reserved": 0, "fusion_lon": 0.0, "bike_id": "2543c58b57276f92684bc044db7f85eb", "name": "2543c58b57276f92684bc044db7f85eb", "rental_uris": {"ios": "https://dc.lft.to/lastmile_qr_scan", "android": "https://dc.lft.to/lastmile_qr_scan"}}, {"is_disabled": 0, "fusion_lat": 0.0, "lat": 38.915342, "type": "electric_scooter", "lon": -77.0201215, "is_reserved": 0, "fusion_lon": 0.0, "bike_id": "342eb8a4864b9abfc3d70223ec9c08b2", "name": "342eb8a4864b9abfc3d70223ec9c08b2", "rental_uris": {"ios": "https://dc.lft.to/lastmile_qr_scan", "android": "https://dc.lft.to/lastmile_qr_scan"}}, {"is_disabled": 0, "fusion_lat": 0.0, "lat": 38.9210875, "type": "electric_scooter", "lon": -77.04230333333334, "is_reserved": 0, "fusion_lon": 0.0, "bike_id": "66019529267105b9c98296d5456d3c53", "name": "66019529267105b9c98296d5456d3c53", "rental_uris": {"ios": "https://dc.lft.to/lastmile_qr_scan", "android": "https://dc.lft.to/lastmile_qr_scan"}}, {"is_disabled": 0, "fusion_lat": 0.0, "lat": 38.921174666666666, "type": "electric_scooter", "lon": -77.0412085, "is_reserved": 0, "fusion_lon": 0.0, "bike_id": "ee8f8871c6fc5cf1de3d6ebaec5a065b", "name": "ee8f8871c6fc5cf1de3d6ebaec5a065b", "rental_uris": {"ios": "https://dc.lft.to/lastmile_qr_scan", "android": "https://dc.lft.to/lastmile_qr_scan"}}, {"is_disabled": 0, "fusion_lat": 0.0, "lat": 38.92360933333333, "type": "electric_scooter", "lon": -77.01902133333333, "is_reserved": 0, "fusion_lon": 0.0, "bike_id": "9e5ea8fb1be50bccdf51f64448d7879d", "name": "9e5ea8fb1be50bccdf51f64448d7879d", "rental_uris": {"ios": "https://dc.lft.to/lastmile_qr_scan", "android": "https://dc.lft.to/lastmile_qr_scan"}}, {"is_disabled": 0, "fusion_lat": 0.0, "lat": 38.9246525, "type": "electric_scooter", "lon": -77.03389166666666, "is_reserved": 0, "fusion_lon": 0.0, "bike_id": "56867c036922d849e1edd6043c04804f", "name": "56867c036922d849e1edd6043c04804f", "rental_uris": {"ios": "https://dc.lft.to/lastmile_qr_scan", "android": "https://dc.lft.to/lastmile_qr_scan"}}, {"is_disabled": 0, "fusion_lat": 0.0, "lat": 38.8851365, "type": "electric_scooter", "lon": -77.02349333333333, "is_reserved": 0, "fusion_lon": 0.0, "bike_id": "16f976b617bc275fef661a8820b6cb5f", "name": "16f976b617bc275fef661a8820b6cb5f", "rental_uris": {"ios": "https://dc.lft.to/lastmile_qr_scan", "android": "https://dc.lft.to/lastmile_qr_scan"}}, {"is_disabled": 0, "fusion_lat": 0.0, "lat": 38.879341, "type": "electric_bike", "lon": -77.0096505, "is_reserved": 0, "fusion_lon": 0.0, "bike_id": "7dfef9299f28d22a950a82f811bcf912", "name": "7dfef9299f28d22a950a82f811bcf912", "rental_uris": {"ios": "https://dc.lft.to/lastmile_qr_scan", "android": "https://dc.lft.to/lastmile_qr_scan"}}, {"is_disabled": 0, "fusion_lat": 0.0, "lat": 38.899872, "type": "electric_scooter", "lon": -77.0523605, "is_reserved": 0, "fusion_lon": 0.0, "bike_id": "a6313961daf9ea034f809f5e497faaa3", "name": "a6313961daf9ea034f809f5e497faaa3", "rental_uris": {"ios": "https://dc.lft.to/lastmile_qr_scan", "android": "https://dc.lft.to/lastmile_qr_scan"}}, {"is_disabled": 0, "fusion_lat": 0.0, "lat": 38.8665615, "type": "electric_scooter", "lon": -76.9901715, "is_reserved": 0, "fusion_lon": 0.0, "bike_id": "8453078144803012742484cf0e0df8f6", "name": "8453078144803012742484cf0e0df8f6", "rental_uris": {"ios": "https://dc.lft.to/lastmile_qr_scan", "android": "https://dc.lft.to/lastmile_qr_scan"}}, {"is_disabled": 0, "fusion_lat": 0.0, "lat": 38.83990416666666, "type": "electric_bike", "lon": -77.00568266666667, "is_reserved": 0, "fusion_lon": 0.0, "bike_id": "8273a417a5d60a21fd1ed5e0c68ad604", "name": "8273a417a5d60a21fd1ed5e0c68ad604", "rental_uris": {"ios": "https://dc.lft.to/lastmile_qr_scan", "android": "https://dc.lft.to/lastmile_qr_scan"}}, {"is_disabled": 0, "fusion_lat": 0.0, "lat": 38.917344666666665, "type": "electric_scooter", "lon": -77.026988, "is_reserved": 0, "fusion_lon": 0.0, "bike_id": "817e1aabcb3cefb9536b48fe9f415daf", "name": "817e1aabcb3cefb9536b48fe9f415daf", "rental_uris": {"ios": "https://dc.lft.to/lastmile_qr_scan", "android": "https://dc.lft.to/lastmile_qr_scan"}}, {"is_disabled": 0, "fusion_lat": 0.0, "lat": 38.919776666666664, "type": "electric_scooter", "lon": -77.041793, "is_reserved": 0, "fusion_lon": 0.0, "bike_id": "72f169f69de888b6d4901c57e61226c7", "name": "72f169f69de888b6d4901c57e61226c7", "rental_uris": {"ios": "https://dc.lft.to/lastmile_qr_scan", "android": "https://dc.lft.to/lastmile_qr_scan"}}, {"is_disabled": 0, "fusion_lat": 0.0, "lat": 38.916966, "type": "electric_scooter", "lon": -77.02416233333334, "is_reserved": 0, "fusion_lon": 0.0, "bike_id": "adec1f89e2abcead59ce45c269a2eaba", "name": "adec1f89e2abcead59ce45c269a2eaba", "rental_uris": {"ios": "https://dc.lft.to/lastmile_qr_scan", "android": "https://dc.lft.to/lastmile_qr_scan"}}, {"is_disabled": 0, "fusion_lat": 0.0, "lat": 38.935550166666665, "type": "electric_scooter", "lon": -77.02963533333333, "is_reserved": 0, "fusion_lon": 0.0, "bike_id": "95bc3dda2b3d4428e983b654310b49a6", "name": "95bc3dda2b3d4428e983b654310b49a6", "rental_uris": {"ios": "https://dc.lft.to/lastmile_qr_scan", "android": "https://dc.lft.to/lastmile_qr_scan"}}, {"is_disabled": 0, "fusion_lat": 0.0, "lat": 38.898258, "type": "electric_scooter", "lon": -76.94652333333333, "is_reserved": 0, "fusion_lon": 0.0, "bike_id": "8ee7629dd315bd1c31e227e0f4cdce8e", "name": "8ee7629dd315bd1c31e227e0f4cdce8e", "rental_uris": {"ios": "https://dc.lft.to/lastmile_qr_scan", "android": "https://dc.lft.to/lastmile_qr_scan"}}, {"is_disabled": 0, "fusion_lat": 0.0, "lat": 38.9179115, "type": "electric_scooter", "lon": -77.03199933333333, "is_reserved": 0, "fusion_lon": 0.0, "bike_id": "d087de1e614a1425da99473735299c56", "name": "d087de1e614a1425da99473735299c56", "rental_uris": {"ios": "https://dc.lft.to/lastmile_qr_scan", "android": "https://dc.lft.to/lastmile_qr_scan"}}, {"is_disabled": 0, "fusion_lat": 0.0, "lat": 38.905712666666666, "type": "electric_scooter", "lon": -77.02172816666666, "is_reserved": 0, "fusion_lon": 0.0, "bike_id": "c946a9cbc43992340befd0d5c759b812", "name": "c946a9cbc43992340befd0d5c759b812", "rental_uris": {"ios": "https://dc.lft.to/lastmile_qr_scan", "android": "https://dc.lft.to/lastmile_qr_scan"}}, {"is_disabled": 0, "fusion_lat": 0.0, "lat": 38.881333166666664, "type": "electric_bike", "lon": -76.98090533333334, "is_reserved": 0, "fusion_lon": 0.0, "bike_id": "4b27ece9108c703ea445ef8141eaf5fa", "name": "4b27ece9108c703ea445ef8141eaf5fa", "rental_uris": {"ios": "https://dc.lft.to/lastmile_qr_scan", "android": "https://dc.lft.to/lastmile_qr_scan"}}, {"is_disabled": 0, "fusion_lat": 0.0, "lat": 38.9156925, "type": "electric_scooter", "lon": -77.0119345, "is_reserved": 0, "fusion_lon": 0.0, "bike_id": "9e285df157c354fbc12a76ca67c7ad29", "name": "9e285df157c354fbc12a76ca67c7ad29", "rental_uris": {"ios": "https://dc.lft.to/lastmile_qr_scan", "android": "https://dc.lft.to/lastmile_qr_scan"}}, {"is_disabled": 0, "fusion_lat": 0.0, "lat": 38.9420305, "type": "electric_bike", "lon": -77.01826266666667, "is_reserved": 0, "fusion_lon": 0.0, "bike_id": "4359f5f58a6f3d4bf89d9318c099cfa7", "name": "4359f5f58a6f3d4bf89d9318c099cfa7", "rental_uris": {"ios": "https://dc.lft.to/lastmile_qr_scan", "android": "https://dc.lft.to/lastmile_qr_scan"}}, {"is_disabled": 0, "fusion_lat": 0.0, "lat": 38.920593833333335, "type": "electric_scooter", "lon": -77.036562, "is_reserved": 0, "fusion_lon": 0.0, "bike_id": "a80e2fb096a574684ceee12754f6e5c8", "name": "a80e2fb096a574684ceee12754f6e5c8", "rental_uris": {"ios": "https://dc.lft.to/lastmile_qr_scan", "android": "https://dc.lft.to/lastmile_qr_scan"}}, {"is_disabled": 0, "fusion_lat": 0.0, "lat": 38.93451233333333, "type": "electric_scooter", "lon": -77.03054716666666, "is_reserved": 0, "fusion_lon": 0.0, "bike_id": "b36f95d777f325da3f3d552875065a22", "name": "b36f95d777f325da3f3d552875065a22", "rental_uris": {"ios": "https://dc.lft.to/lastmile_qr_scan", "android": "https://dc.lft.to/lastmile_qr_scan"}}, {"is_disabled": 0, "fusion_lat": 0.0, "lat": 38.859181, "type": "electric_scooter", "lon": -76.98979416666667, "is_reserved": 0, "fusion_lon": 0.0, "bike_id": "40d3f10a58ab63e99e2a323165ed80ea", "name": "40d3f10a58ab63e99e2a323165ed80ea", "rental_uris": {"ios": "https://dc.lft.to/lastmile_qr_scan", "android": "https://dc.lft.to/lastmile_qr_scan"}}, {"is_disabled": 0, "fusion_lat": 0.0, "lat": 38.866557, "type": "electric_scooter", "lon": -76.98884616666666, "is_reserved": 0, "fusion_lon": 0.0, "bike_id": "ece4c1ec91413d39f3844ce5c2ce8cfd", "name": "ece4c1ec91413d39f3844ce5c2ce8cfd", "rental_uris": {"ios": "https://dc.lft.to/lastmile_qr_scan", "android": "https://dc.lft.to/lastmile_qr_scan"}}, {"is_disabled": 0, "fusion_lat": 0.0, "lat": 38.904850333333336, "type": "electric_scooter", "lon": -77.04867683333333, "is_reserved": 0, "fusion_lon": 0.0, "bike_id": "d2271be6c9013cd2fa01140ba66bd1ba", "name": "d2271be6c9013cd2fa01140ba66bd1ba", "rental_uris": {"ios": "https://dc.lft.to/lastmile_qr_scan", "android": "https://dc.lft.to/lastmile_qr_scan"}}, {"is_disabled": 0, "fusion_lat": 0.0, "lat": 38.92359183333333, "type": "electric_scooter", "lon": -77.02059933333334, "is_reserved": 0, "fusion_lon": 0.0, "bike_id": "0825254af7b786daf743599e4170f551", "name": "0825254af7b786daf743599e4170f551", "rental_uris": {"ios": "https://dc.lft.to/lastmile_qr_scan", "android": "https://dc.lft.to/lastmile_qr_scan"}}, {"is_disabled": 0, "fusion_lat": 0.0, "lat": 38.939734666666666, "type": "electric_scooter", "lon": -77.03587166666667, "is_reserved": 0, "fusion_lon": 0.0, "bike_id": "991f1feec986c7e7441237be331b4f7e", "name": "991f1feec986c7e7441237be331b4f7e", "rental_uris": {"ios": "https://dc.lft.to/lastmile_qr_scan", "android": "https://dc.lft.to/lastmile_qr_scan"}}, {"is_disabled": 0, "fusion_lat": 0.0, "lat": 38.894804, "type": "electric_scooter", "lon": -77.05005083333333, "is_reserved": 0, "fusion_lon": 0.0, "bike_id": "566349fabd06933ca2143eae093566ae", "name": "566349fabd06933ca2143eae093566ae", "rental_uris": {"ios": "https://dc.lft.to/lastmile_qr_scan", "android": "https://dc.lft.to/lastmile_qr_scan"}}, {"is_disabled": 0, "fusion_lat": 0.0, "lat": 38.93186433333333, "type": "electric_bike", "lon": -77.03447, "is_reserved": 0, "fusion_lon": 0.0, "bike_id": "f3c8463e2f93f41ffb2348aa54f1df61", "name": "f3c8463e2f93f41ffb2348aa54f1df61", "rental_uris": {"ios": "https://dc.lft.to/lastmile_qr_scan", "android": "https://dc.lft.to/lastmile_qr_scan"}}, {"is_disabled": 0, "fusion_lat": 0.0, "lat": 38.90988483333334, "type": "electric_scooter", "lon": -77.03845433333333, "is_reserved": 0, "fusion_lon": 0.0, "bike_id": "6fa65a0ac048f3a35a1c12f0e63f3a63", "name": "6fa65a0ac048f3a35a1c12f0e63f3a63", "rental_uris": {"ios": "https://dc.lft.to/lastmile_qr_scan", "android": "https://dc.lft.to/lastmile_qr_scan"}}, {"is_disabled": 0, "fusion_lat": 0.0, "lat": 38.902647, "type": "electric_scooter", "lon": -77.06017283333334, "is_reserved": 0, "fusion_lon": 0.0, "bike_id": "b609862c4e81761de9f723eb96948c49", "name": "b609862c4e81761de9f723eb96948c49", "rental_uris": {"ios": "https://dc.lft.to/lastmile_qr_scan", "android": "https://dc.lft.to/lastmile_qr_scan"}}, {"is_disabled": 0, "fusion_lat": 0.0, "lat": 38.9226425, "type": "electric_scooter", "lon": -77.01825733333334, "is_reserved": 0, "fusion_lon": 0.0, "bike_id": "efc5156b2eec1a4160bf47c02b8a4484", "name": "efc5156b2eec1a4160bf47c02b8a4484", "rental_uris": {"ios": "https://dc.lft.to/lastmile_qr_scan", "android": "https://dc.lft.to/lastmile_qr_scan"}}, {"is_disabled": 0, "fusion_lat": 0.0, "lat": 38.90378, "type": "electric_scooter", "lon": -76.99964433333334, "is_reserved": 0, "fusion_lon": 0.0, "bike_id": "36fe07da49f609e49f2a3fb285ed1cf4", "name": "36fe07da49f609e49f2a3fb285ed1cf4", "rental_uris": {"ios": "https://dc.lft.to/lastmile_qr_scan", "android": "https://dc.lft.to/lastmile_qr_scan"}}, {"is_disabled": 0, "fusion_lat": 0.0, "lat": 38.902541, "type": "electric_scooter", "lon": -77.01753883333333, "is_reserved": 0, "fusion_lon": 0.0, "bike_id": "f8797b6416845868b0c5d38a351d151d", "name": "f8797b6416845868b0c5d38a351d151d", "rental_uris": {"ios": "https://dc.lft.to/lastmile_qr_scan", "android": "https://dc.lft.to/lastmile_qr_scan"}}, {"is_disabled": 0, "fusion_lat": 0.0, "lat": 38.876311333333334, "type": "electric_scooter", "lon": -76.96526016666667, "is_reserved": 0, "fusion_lon": 0.0, "bike_id": "af4f94e078d94d357e0386739e7fc7df", "name": "af4f94e078d94d357e0386739e7fc7df", "rental_uris": {"ios": "https://dc.lft.to/lastmile_qr_scan", "android": "https://dc.lft.to/lastmile_qr_scan"}}, {"is_disabled": 0, "fusion_lat": 0.0, "lat": 38.941778666666664, "type": "electric_scooter", "lon": -77.02502633333333, "is_reserved": 0, "fusion_lon": 0.0, "bike_id": "56613933fd134c85f585ed2d4b120fcf", "name": "56613933fd134c85f585ed2d4b120fcf", "rental_uris": {"ios": "https://dc.lft.to/lastmile_qr_scan", "android": "https://dc.lft.to/lastmile_qr_scan"}}, {"is_disabled": 0, "fusion_lat": 0.0, "lat": 38.90274183333333, "type": "electric_scooter", "lon": -77.03355266666667, "is_reserved": 0, "fusion_lon": 0.0, "bike_id": "b65286304c6db930865c9957a0a9cd8e", "name": "b65286304c6db930865c9957a0a9cd8e", "rental_uris": {"ios": "https://dc.lft.to/lastmile_qr_scan", "android": "https://dc.lft.to/lastmile_qr_scan"}}, {"is_disabled": 0, "fusion_lat": 0.0, "lat": 38.93320083333333, "type": "electric_scooter", "lon": -77.03265583333334, "is_reserved": 0, "fusion_lon": 0.0, "bike_id": "e493081b031d7663591a137733cf4c1a", "name": "e493081b031d7663591a137733cf4c1a", "rental_uris": {"ios": "https://dc.lft.to/lastmile_qr_scan", "android": "https://dc.lft.to/lastmile_qr_scan"}}, {"is_disabled": 0, "fusion_lat": 0.0, "lat": 38.84293533333334, "type": "electric_scooter", "lon": -76.9994865, "is_reserved": 0, "fusion_lon": 0.0, "bike_id": "09d8a89a03dd01f0f69c849cd5c6e153", "name": "09d8a89a03dd01f0f69c849cd5c6e153", "rental_uris": {"ios": "https://dc.lft.to/lastmile_qr_scan", "android": "https://dc.lft.to/lastmile_qr_scan"}}, {"is_disabled": 0, "fusion_lat": 0.0, "lat": 38.857185666666666, "type": "electric_scooter", "lon": -76.98094116666667, "is_reserved": 0, "fusion_lon": 0.0, "bike_id": "70769200bc42b5d55106b2fa7fed36a0", "name": "70769200bc42b5d55106b2fa7fed36a0", "rental_uris": {"ios": "https://dc.lft.to/lastmile_qr_scan", "android": "https://dc.lft.to/lastmile_qr_scan"}}, {"is_disabled": 0, "fusion_lat": 0.0, "lat": 38.917964, "type": "electric_scooter", "lon": -77.0364575, "is_reserved": 0, "fusion_lon": 0.0, "bike_id": "c35ce0d97210716e60b791cf7aeace95", "name": "c35ce0d97210716e60b791cf7aeace95", "rental_uris": {"ios": "https://dc.lft.to/lastmile_qr_scan", "android": "https://dc.lft.to/lastmile_qr_scan"}}, {"is_disabled": 0, "fusion_lat": 0.0, "lat": 38.911963666666665, "type": "electric_scooter", "lon": -77.0161775, "is_reserved": 0, "fusion_lon": 0.0, "bike_id": "cefdc7a817341f16225a568af42da740", "name": "cefdc7a817341f16225a568af42da740", "rental_uris": {"ios": "https://dc.lft.to/lastmile_qr_scan", "android": "https://dc.lft.to/lastmile_qr_scan"}}, {"is_disabled": 0, "fusion_lat": 0.0, "lat": 38.9126685, "type": "electric_scooter", "lon": -77.03146516666666, "is_reserved": 0, "fusion_lon": 0.0, "bike_id": "c5906db7bd1d4987272a3d2035820ce3", "name": "c5906db7bd1d4987272a3d2035820ce3", "rental_uris": {"ios": "https://dc.lft.to/lastmile_qr_scan", "android": "https://dc.lft.to/lastmile_qr_scan"}}, {"is_disabled": 0, "fusion_lat": 0.0, "lat": 38.92124616666667, "type": "electric_scooter", "lon": -77.01211016666667, "is_reserved": 0, "fusion_lon": 0.0, "bike_id": "7b5a819a0fb82dd5151e5fecccd92d98", "name": "7b5a819a0fb82dd5151e5fecccd92d98", "rental_uris": {"ios": "https://dc.lft.to/lastmile_qr_scan", "android": "https://dc.lft.to/lastmile_qr_scan"}}, {"is_disabled": 0, "fusion_lat": 0.0, "lat": 38.89830033333333, "type": "electric_scooter", "lon": -77.0328635, "is_reserved": 0, "fusion_lon": 0.0, "bike_id": "673a1bd8e8ed8efd96c343d1e40fce41", "name": "673a1bd8e8ed8efd96c343d1e40fce41", "rental_uris": {"ios": "https://dc.lft.to/lastmile_qr_scan", "android": "https://dc.lft.to/lastmile_qr_scan"}}, {"is_disabled": 0, "fusion_lat": 0.0, "lat": 38.90331116666667, "type": "electric_scooter", "lon": -77.06597233333333, "is_reserved": 0, "fusion_lon": 0.0, "bike_id": "32debe8a4fe4e2ff642cb9ce0aff8ded", "name": "32debe8a4fe4e2ff642cb9ce0aff8ded", "rental_uris": {"ios": "https://dc.lft.to/lastmile_qr_scan", "android": "https://dc.lft.to/lastmile_qr_scan"}}, {"is_disabled": 0, "fusion_lat": 0.0, "lat": 38.924959, "type": "electric_scooter", "lon": -77.0575135, "is_reserved": 0, "fusion_lon": 0.0, "bike_id": "8f735c9e7302860e80e3848ef653ef9e", "name": "8f735c9e7302860e80e3848ef653ef9e", "rental_uris": {"ios": "https://dc.lft.to/lastmile_qr_scan", "android": "https://dc.lft.to/lastmile_qr_scan"}}, {"is_disabled": 0, "fusion_lat": 0.0, "lat": 38.9072415, "type": "electric_scooter", "lon": -77.025013, "is_reserved": 0, "fusion_lon": 0.0, "bike_id": "ddde57962807f51a955170523ec9147c", "name": "ddde57962807f51a955170523ec9147c", "rental_uris": {"ios": "https://dc.lft.to/lastmile_qr_scan", "android": "https://dc.lft.to/lastmile_qr_scan"}}, {"is_disabled": 0, "fusion_lat": 0.0, "lat": 38.906044333333334, "type": "electric_scooter", "lon": -77.0132635, "is_reserved": 0, "fusion_lon": 0.0, "bike_id": "194c537cd77bfeccd79e8c86587b6e5e", "name": "194c537cd77bfeccd79e8c86587b6e5e", "rental_uris": {"ios": "https://dc.lft.to/lastmile_qr_scan", "android": "https://dc.lft.to/lastmile_qr_scan"}}, {"is_disabled": 0, "fusion_lat": 0.0, "lat": 38.95558583333333, "type": "electric_bike", "lon": -76.9355095, "is_reserved": 0, "fusion_lon": 0.0, "bike_id": "7a620f1371ba48c9f8250b1a722407d7", "name": "7a620f1371ba48c9f8250b1a722407d7", "rental_uris": {"ios": "https://dc.lft.to/lastmile_qr_scan", "android": "https://dc.lft.to/lastmile_qr_scan"}}, {"is_disabled": 0, "fusion_lat": 0.0, "lat": 38.842908, "type": "electric_scooter", "lon": -76.99950366666667, "is_reserved": 0, "fusion_lon": 0.0, "bike_id": "81ef936bd3c7a9e15a145a4102840da7", "name": "81ef936bd3c7a9e15a145a4102840da7", "rental_uris": {"ios": "https://dc.lft.to/lastmile_qr_scan", "android": "https://dc.lft.to/lastmile_qr_scan"}}, {"is_disabled": 0, "fusion_lat": 0.0, "lat": 38.927870166666665, "type": "electric_scooter", "lon": -77.0272535, "is_reserved": 0, "fusion_lon": 0.0, "bike_id": "d713a1312b4f9584e3b9791f6f100fea", "name": "d713a1312b4f9584e3b9791f6f100fea", "rental_uris": {"ios": "https://dc.lft.to/lastmile_qr_scan", "android": "https://dc.lft.to/lastmile_qr_scan"}}, {"is_disabled": 0, "fusion_lat": 0.0, "lat": 38.937164, "type": "electric_scooter", "lon": -77.03269366666666, "is_reserved": 0, "fusion_lon": 0.0, "bike_id": "c1e448e4c921e84c6783403c17b0916f", "name": "c1e448e4c921e84c6783403c17b0916f", "rental_uris": {"ios": "https://dc.lft.to/lastmile_qr_scan", "android": "https://dc.lft.to/lastmile_qr_scan"}}, {"is_disabled": 0, "fusion_lat": 0.0, "lat": 38.863441333333334, "type": "electric_scooter", "lon": -76.99001866666667, "is_reserved": 0, "fusion_lon": 0.0, "bike_id": "973afb9663ff2ba448976af8092a0eb8", "name": "973afb9663ff2ba448976af8092a0eb8", "rental_uris": {"ios": "https://dc.lft.to/lastmile_qr_scan", "android": "https://dc.lft.to/lastmile_qr_scan"}}, {"is_disabled": 0, "fusion_lat": 0.0, "lat": 38.915714, "type": "electric_scooter", "lon": -77.047009, "is_reserved": 0, "fusion_lon": 0.0, "bike_id": "e119028f8c254373ce66bd2f99c89bd1", "name": "e119028f8c254373ce66bd2f99c89bd1", "rental_uris": {"ios": "https://dc.lft.to/lastmile_qr_scan", "android": "https://dc.lft.to/lastmile_qr_scan"}}, {"is_disabled": 0, "fusion_lat": 0.0, "lat": 38.978746, "type": "electric_scooter", "lon": -77.0255175, "is_reserved": 0, "fusion_lon": 0.0, "bike_id": "e2267232a342cc300de17945e38e06ed", "name": "e2267232a342cc300de17945e38e06ed", "rental_uris": {"ios": "https://dc.lft.to/lastmile_qr_scan", "android": "https://dc.lft.to/lastmile_qr_scan"}}, {"is_disabled": 0, "fusion_lat": 0.0, "lat": 38.864597833333335, "type": "electric_scooter", "lon": -76.98246733333333, "is_reserved": 0, "fusion_lon": 0.0, "bike_id": "e6639df15b3b1fdd7c430c6789efaeab", "name": "e6639df15b3b1fdd7c430c6789efaeab", "rental_uris": {"ios": "https://dc.lft.to/lastmile_qr_scan", "android": "https://dc.lft.to/lastmile_qr_scan"}}, {"is_disabled": 0, "fusion_lat": 0.0, "lat": 38.9273995, "type": "electric_scooter", "lon": -77.03559233333333, "is_reserved": 0, "fusion_lon": 0.0, "bike_id": "90244f55f7211f1480936c86119285fe", "name": "90244f55f7211f1480936c86119285fe", "rental_uris": {"ios": "https://dc.lft.to/lastmile_qr_scan", "android": "https://dc.lft.to/lastmile_qr_scan"}}, {"is_disabled": 0, "fusion_lat": 0.0, "lat": 38.9166815, "type": "electric_scooter", "lon": -77.0415815, "is_reserved": 0, "fusion_lon": 0.0, "bike_id": "5b4d36be4efe430bd1ff5c44b186b2b8", "name": "5b4d36be4efe430bd1ff5c44b186b2b8", "rental_uris": {"ios": "https://dc.lft.to/lastmile_qr_scan", "android": "https://dc.lft.to/lastmile_qr_scan"}}, {"is_disabled": 0, "fusion_lat": 0.0, "lat": 38.899582333333335, "type": "electric_bike", "lon": -76.98568316666666, "is_reserved": 0, "fusion_lon": 0.0, "bike_id": "6b0d115c9bc29858031b58524a34be65", "name": "6b0d115c9bc29858031b58524a34be65", "rental_uris": {"ios": "https://dc.lft.to/lastmile_qr_scan", "android": "https://dc.lft.to/lastmile_qr_scan"}}, {"is_disabled": 0, "fusion_lat": 0.0, "lat": 38.889957333333335, "type": "electric_scooter", "lon": -76.94707583333333, "is_reserved": 0, "fusion_lon": 0.0, "bike_id": "5e4bd67b17d015e48d3915bfe72087ba", "name": "5e4bd67b17d015e48d3915bfe72087ba", "rental_uris": {"ios": "https://dc.lft.to/lastmile_qr_scan", "android": "https://dc.lft.to/lastmile_qr_scan"}}, {"is_disabled": 0, "fusion_lat": 0.0, "lat": 38.83237716666667, "type": "electric_bike", "lon": -76.946284, "is_reserved": 0, "fusion_lon": 0.0, "bike_id": "4468f9bbc3778e24e8fd5c1ff007ba77", "name": "4468f9bbc3778e24e8fd5c1ff007ba77", "rental_uris": {"ios": "https://dc.lft.to/lastmile_qr_scan", "android": "https://dc.lft.to/lastmile_qr_scan"}}, {"is_disabled": 0, "fusion_lat": 0.0, "lat": 38.9420685, "type": "electric_bike", "lon": -77.01827233333333, "is_reserved": 0, "fusion_lon": 0.0, "bike_id": "2051cdc2ed037bdf01a76bf66beae8e9", "name": "2051cdc2ed037bdf01a76bf66beae8e9", "rental_uris": {"ios": "https://dc.lft.to/lastmile_qr_scan", "android": "https://dc.lft.to/lastmile_qr_scan"}}, {"is_disabled": 0, "fusion_lat": 0.0, "lat": 38.909225, "type": "electric_scooter", "lon": -77.044123, "is_reserved": 0, "fusion_lon": 0.0, "bike_id": "39fedcea0a67addf9b82fb0ec2b73c3e", "name": "39fedcea0a67addf9b82fb0ec2b73c3e", "rental_uris": {"ios": "https://dc.lft.to/lastmile_qr_scan", "android": "https://dc.lft.to/lastmile_qr_scan"}}, {"is_disabled": 0, "fusion_lat": 0.0, "lat": 38.92543883333333, "type": "electric_scooter", "lon": -77.033619, "is_reserved": 0, "fusion_lon": 0.0, "bike_id": "3e0e103cc10bed1dba1373d7fe599ff2", "name": "3e0e103cc10bed1dba1373d7fe599ff2", "rental_uris": {"ios": "https://dc.lft.to/lastmile_qr_scan", "android": "https://dc.lft.to/lastmile_qr_scan"}}, {"is_disabled": 0, "fusion_lat": 0.0, "lat": 38.90793583333333, "type": "electric_scooter", "lon": -77.04871733333333, "is_reserved": 0, "fusion_lon": 0.0, "bike_id": "91f383e084b0132a4b6797ac6c737465", "name": "91f383e084b0132a4b6797ac6c737465", "rental_uris": {"ios": "https://dc.lft.to/lastmile_qr_scan", "android": "https://dc.lft.to/lastmile_qr_scan"}}, {"is_disabled": 0, "fusion_lat": 0.0, "lat": 38.92445683333333, "type": "electric_scooter", "lon": -77.02033716666666, "is_reserved": 0, "fusion_lon": 0.0, "bike_id": "fdb4adec61a4edb35792b9c504110836", "name": "fdb4adec61a4edb35792b9c504110836", "rental_uris": {"ios": "https://dc.lft.to/lastmile_qr_scan", "android": "https://dc.lft.to/lastmile_qr_scan"}}, {"is_disabled": 0, "fusion_lat": 0.0, "lat": 38.922633, "type": "electric_scooter", "lon": -77.01858083333333, "is_reserved": 0, "fusion_lon": 0.0, "bike_id": "761eb314f23d961772e10176531ce8ea", "name": "761eb314f23d961772e10176531ce8ea", "rental_uris": {"ios": "https://dc.lft.to/lastmile_qr_scan", "android": "https://dc.lft.to/lastmile_qr_scan"}}, {"is_disabled": 0, "fusion_lat": 0.0, "lat": 38.902851, "type": "electric_scooter", "lon": -77.04025566666667, "is_reserved": 0, "fusion_lon": 0.0, "bike_id": "6b12a9932dd387bbb943482ecfad0fcc", "name": "6b12a9932dd387bbb943482ecfad0fcc", "rental_uris": {"ios": "https://dc.lft.to/lastmile_qr_scan", "android": "https://dc.lft.to/lastmile_qr_scan"}}, {"is_disabled": 0, "fusion_lat": 0.0, "lat": 38.9183095, "type": "electric_scooter", "lon": -77.041573, "is_reserved": 0, "fusion_lon": 0.0, "bike_id": "09e2a83393d7d454d57564b201381d20", "name": "09e2a83393d7d454d57564b201381d20", "rental_uris": {"ios": "https://dc.lft.to/lastmile_qr_scan", "android": "https://dc.lft.to/lastmile_qr_scan"}}, {"is_disabled": 0, "fusion_lat": 0.0, "lat": 38.927214666666664, "type": "electric_scooter", "lon": -77.03663533333334, "is_reserved": 0, "fusion_lon": 0.0, "bike_id": "5bd7b30dadf9d65efc677bcae94c9dff", "name": "5bd7b30dadf9d65efc677bcae94c9dff", "rental_uris": {"ios": "https://dc.lft.to/lastmile_qr_scan", "android": "https://dc.lft.to/lastmile_qr_scan"}}, {"is_disabled": 0, "fusion_lat": 0.0, "lat": 38.91553183333333, "type": "electric_scooter", "lon": -77.02153716666666, "is_reserved": 0, "fusion_lon": 0.0, "bike_id": "74b0ae40036acb7ac0a9b6cb62fc2595", "name": "74b0ae40036acb7ac0a9b6cb62fc2595", "rental_uris": {"ios": "https://dc.lft.to/lastmile_qr_scan", "android": "https://dc.lft.to/lastmile_qr_scan"}}, {"is_disabled": 0, "fusion_lat": 0.0, "lat": 38.918253166666666, "type": "electric_scooter", "lon": -77.02711833333333, "is_reserved": 0, "fusion_lon": 0.0, "bike_id": "b81a7dccc0591cb58c40a145feaf7449", "name": "b81a7dccc0591cb58c40a145feaf7449", "rental_uris": {"ios": "https://dc.lft.to/lastmile_qr_scan", "android": "https://dc.lft.to/lastmile_qr_scan"}}, {"is_disabled": 0, "fusion_lat": 0.0, "lat": 38.924583166666665, "type": "electric_bike", "lon": -76.97557033333334, "is_reserved": 0, "fusion_lon": 0.0, "bike_id": "13fa9e25455fe7708e96f1c4215f8abb", "name": "13fa9e25455fe7708e96f1c4215f8abb", "rental_uris": {"ios": "https://dc.lft.to/lastmile_qr_scan", "android": "https://dc.lft.to/lastmile_qr_scan"}}, {"is_disabled": 0, "fusion_lat": 0.0, "lat": 38.855593666666664, "type": "electric_scooter", "lon": -76.99497816666667, "is_reserved": 0, "fusion_lon": 0.0, "bike_id": "ada3e7a35509652c721f0d4bb94692f5", "name": "ada3e7a35509652c721f0d4bb94692f5", "rental_uris": {"ios": "https://dc.lft.to/lastmile_qr_scan", "android": "https://dc.lft.to/lastmile_qr_scan"}}, {"is_disabled": 0, "fusion_lat": 0.0, "lat": 38.9137465, "type": "electric_scooter", "lon": -77.00459116666667, "is_reserved": 0, "fusion_lon": 0.0, "bike_id": "552c92e2c465c983a47751d63a56a92f", "name": "552c92e2c465c983a47751d63a56a92f", "rental_uris": {"ios": "https://dc.lft.to/lastmile_qr_scan", "android": "https://dc.lft.to/lastmile_qr_scan"}}, {"is_disabled": 0, "fusion_lat": 0.0, "lat": 38.8961975, "type": "electric_scooter", "lon": -76.98115633333333, "is_reserved": 0, "fusion_lon": 0.0, "bike_id": "db30d71d7efb4d4149f1739421dd056d", "name": "db30d71d7efb4d4149f1739421dd056d", "rental_uris": {"ios": "https://dc.lft.to/lastmile_qr_scan", "android": "https://dc.lft.to/lastmile_qr_scan"}}, {"is_disabled": 0, "fusion_lat": 0.0, "lat": 38.90005583333333, "type": "electric_scooter", "lon": -76.99014683333333, "is_reserved": 0, "fusion_lon": 0.0, "bike_id": "40ab8fee9dc78f3d06d6921fae6905a1", "name": "40ab8fee9dc78f3d06d6921fae6905a1", "rental_uris": {"ios": "https://dc.lft.to/lastmile_qr_scan", "android": "https://dc.lft.to/lastmile_qr_scan"}}, {"is_disabled": 0, "fusion_lat": 0.0, "lat": 38.861695, "type": "electric_bike", "lon": -77.1314645, "is_reserved": 0, "fusion_lon": 0.0, "bike_id": "365f5a42820639c3bf8cd3fbff5c774b", "name": "365f5a42820639c3bf8cd3fbff5c774b", "rental_uris": {"ios": "https://dc.lft.to/lastmile_qr_scan", "android": "https://dc.lft.to/lastmile_qr_scan"}}, {"is_disabled": 0, "fusion_lat": 0.0, "lat": 38.950961666666664, "type": "electric_scooter", "lon": -77.02340983333333, "is_reserved": 0, "fusion_lon": 0.0, "bike_id": "e5265dfba51776a7ab38d6164c9696ce", "name": "e5265dfba51776a7ab38d6164c9696ce", "rental_uris": {"ios": "https://dc.lft.to/lastmile_qr_scan", "android": "https://dc.lft.to/lastmile_qr_scan"}}, {"is_disabled": 0, "fusion_lat": 0.0, "lat": 38.921474333333336, "type": "electric_scooter", "lon": -77.03885866666667, "is_reserved": 0, "fusion_lon": 0.0, "bike_id": "6201c287b29f1ed757df516fcf980dcf", "name": "6201c287b29f1ed757df516fcf980dcf", "rental_uris": {"ios": "https://dc.lft.to/lastmile_qr_scan", "android": "https://dc.lft.to/lastmile_qr_scan"}}, {"is_disabled": 0, "fusion_lat": 0.0, "lat": 38.905220166666666, "type": "electric_scooter", "lon": -77.06224883333333, "is_reserved": 0, "fusion_lon": 0.0, "bike_id": "f4a01de6ebe6112b51a4cae41cc4208e", "name": "f4a01de6ebe6112b51a4cae41cc4208e", "rental_uris": {"ios": "https://dc.lft.to/lastmile_qr_scan", "android": "https://dc.lft.to/lastmile_qr_scan"}}, {"is_disabled": 0, "fusion_lat": 0.0, "lat": 38.8657185, "type": "electric_scooter", "lon": -76.98951033333333, "is_reserved": 0, "fusion_lon": 0.0, "bike_id": "313f3ffdd9066c5018cc6e7a9e26bbef", "name": "313f3ffdd9066c5018cc6e7a9e26bbef", "rental_uris": {"ios": "https://dc.lft.to/lastmile_qr_scan", "android": "https://dc.lft.to/lastmile_qr_scan"}}, {"is_disabled": 0, "fusion_lat": 0.0, "lat": 38.894758, "type": "electric_scooter", "lon": -76.98402016666667, "is_reserved": 0, "fusion_lon": 0.0, "bike_id": "c5ba7f51f2fad3b671a62a76851dc2c7", "name": "c5ba7f51f2fad3b671a62a76851dc2c7", "rental_uris": {"ios": "https://dc.lft.to/lastmile_qr_scan", "android": "https://dc.lft.to/lastmile_qr_scan"}}, {"is_disabled": 0, "fusion_lat": 0.0, "lat": 38.872055, "type": "electric_bike", "lon": -77.01621616666667, "is_reserved": 0, "fusion_lon": 0.0, "bike_id": "e5d55bd862a3bb471e7234b55865625b", "name": "e5d55bd862a3bb471e7234b55865625b", "rental_uris": {"ios": "https://dc.lft.to/lastmile_qr_scan", "android": "https://dc.lft.to/lastmile_qr_scan"}}, {"is_disabled": 0, "fusion_lat": 0.0, "lat": 38.911932, "type": "electric_bike", "lon": -77.0041535, "is_reserved": 0, "fusion_lon": 0.0, "bike_id": "1f60070468e96047bb3720b1d2ab4c68", "name": "1f60070468e96047bb3720b1d2ab4c68", "rental_uris": {"ios": "https://dc.lft.to/lastmile_qr_scan", "android": "https://dc.lft.to/lastmile_qr_scan"}}, {"is_disabled": 0, "fusion_lat": 0.0, "lat": 38.94182083333333, "type": "electric_scooter", "lon": -77.0309065, "is_reserved": 0, "fusion_lon": 0.0, "bike_id": "2997a4779d95288ca3fe453629ff5d72", "name": "2997a4779d95288ca3fe453629ff5d72", "rental_uris": {"ios": "https://dc.lft.to/lastmile_qr_scan", "android": "https://dc.lft.to/lastmile_qr_scan"}}, {"is_disabled": 0, "fusion_lat": 0.0, "lat": 38.90151316666667, "type": "electric_scooter", "lon": -77.04033333333334, "is_reserved": 0, "fusion_lon": 0.0, "bike_id": "d92cb8f1abf9535a1905c2ceb00d1f01", "name": "d92cb8f1abf9535a1905c2ceb00d1f01", "rental_uris": {"ios": "https://dc.lft.to/lastmile_qr_scan", "android": "https://dc.lft.to/lastmile_qr_scan"}}, {"is_disabled": 0, "fusion_lat": 0.0, "lat": 38.858092, "type": "electric_scooter", "lon": -76.98655933333333, "is_reserved": 0, "fusion_lon": 0.0, "bike_id": "310283196b495fa73d85bfa2f240dadf", "name": "310283196b495fa73d85bfa2f240dadf", "rental_uris": {"ios": "https://dc.lft.to/lastmile_qr_scan", "android": "https://dc.lft.to/lastmile_qr_scan"}}, {"is_disabled": 0, "fusion_lat": 0.0, "lat": 38.923226166666666, "type": "electric_scooter", "lon": -77.03908, "is_reserved": 0, "fusion_lon": 0.0, "bike_id": "1c179440441d09f50f7b151d76d3aba2", "name": "1c179440441d09f50f7b151d76d3aba2", "rental_uris": {"ios": "https://dc.lft.to/lastmile_qr_scan", "android": "https://dc.lft.to/lastmile_qr_scan"}}, {"is_disabled": 0, "fusion_lat": 0.0, "lat": 38.901103166666665, "type": "electric_scooter", "lon": -77.05137283333333, "is_reserved": 0, "fusion_lon": 0.0, "bike_id": "4ad5c231b23c1e3a1bb3aebfbfe7fcfd", "name": "4ad5c231b23c1e3a1bb3aebfbfe7fcfd", "rental_uris": {"ios": "https://dc.lft.to/lastmile_qr_scan", "android": "https://dc.lft.to/lastmile_qr_scan"}}, {"is_disabled": 0, "fusion_lat": 0.0, "lat": 38.89909033333333, "type": "electric_scooter", "lon": -76.93352483333334, "is_reserved": 0, "fusion_lon": 0.0, "bike_id": "b8e5eaaf0a4ab900d051b204e3616883", "name": "b8e5eaaf0a4ab900d051b204e3616883", "rental_uris": {"ios": "https://dc.lft.to/lastmile_qr_scan", "android": "https://dc.lft.to/lastmile_qr_scan"}}, {"is_disabled": 0, "fusion_lat": 0.0, "lat": 38.908668166666665, "type": "electric_scooter", "lon": -77.08594916666667, "is_reserved": 0, "fusion_lon": 0.0, "bike_id": "6e580bd3fe96561453a47a1898a10af8", "name": "6e580bd3fe96561453a47a1898a10af8", "rental_uris": {"ios": "https://dc.lft.to/lastmile_qr_scan", "android": "https://dc.lft.to/lastmile_qr_scan"}}, {"is_disabled": 0, "fusion_lat": 0.0, "lat": 38.92065433333333, "type": "electric_scooter", "lon": -77.04190233333334, "is_reserved": 0, "fusion_lon": 0.0, "bike_id": "1aeac80e0c9bdc42af4e6afb9c2f77e6", "name": "1aeac80e0c9bdc42af4e6afb9c2f77e6", "rental_uris": {"ios": "https://dc.lft.to/lastmile_qr_scan", "android": "https://dc.lft.to/lastmile_qr_scan"}}, {"is_disabled": 0, "fusion_lat": 0.0, "lat": 38.920443666666664, "type": "electric_scooter", "lon": -77.0417725, "is_reserved": 0, "fusion_lon": 0.0, "bike_id": "ad7371b102ae9b19c46a861d7b016678", "name": "ad7371b102ae9b19c46a861d7b016678", "rental_uris": {"ios": "https://dc.lft.to/lastmile_qr_scan", "android": "https://dc.lft.to/lastmile_qr_scan"}}, {"is_disabled": 0, "fusion_lat": 0.0, "lat": 38.893327666666664, "type": "electric_scooter", "lon": -76.92883116666667, "is_reserved": 0, "fusion_lon": 0.0, "bike_id": "9140b9b30650276a7ee4abe7fe819547", "name": "9140b9b30650276a7ee4abe7fe819547", "rental_uris": {"ios": "https://dc.lft.to/lastmile_qr_scan", "android": "https://dc.lft.to/lastmile_qr_scan"}}, {"is_disabled": 0, "fusion_lat": 0.0, "lat": 38.871851666666664, "type": "electric_scooter", "lon": -77.01221583333333, "is_reserved": 0, "fusion_lon": 0.0, "bike_id": "33ba982604fffb5f4617b7137cc92cf0", "name": "33ba982604fffb5f4617b7137cc92cf0", "rental_uris": {"ios": "https://dc.lft.to/lastmile_qr_scan", "android": "https://dc.lft.to/lastmile_qr_scan"}}, {"is_disabled": 0, "fusion_lat": 0.0, "lat": 38.907376666666664, "type": "electric_scooter", "lon": -77.007639, "is_reserved": 0, "fusion_lon": 0.0, "bike_id": "606ee4c0b07acbe4ca4b710a954e9795", "name": "606ee4c0b07acbe4ca4b710a954e9795", "rental_uris": {"ios": "https://dc.lft.to/lastmile_qr_scan", "android": "https://dc.lft.to/lastmile_qr_scan"}}, {"is_disabled": 0, "fusion_lat": 0.0, "lat": 38.877489, "type": "electric_scooter", "lon": -77.0142725, "is_reserved": 0, "fusion_lon": 0.0, "bike_id": "366bf9c9bfeaf3194e44dd3f43116ea4", "name": "366bf9c9bfeaf3194e44dd3f43116ea4", "rental_uris": {"ios": "https://dc.lft.to/lastmile_qr_scan", "android": "https://dc.lft.to/lastmile_qr_scan"}}, {"is_disabled": 0, "fusion_lat": 0.0, "lat": 38.907955666666666, "type": "electric_scooter", "lon": -76.997013, "is_reserved": 0, "fusion_lon": 0.0, "bike_id": "82957a3da8efd2e42ad3a1b7ca3b7693", "name": "82957a3da8efd2e42ad3a1b7ca3b7693", "rental_uris": {"ios": "https://dc.lft.to/lastmile_qr_scan", "android": "https://dc.lft.to/lastmile_qr_scan"}}, {"is_disabled": 0, "fusion_lat": 0.0, "lat": 38.92045483333333, "type": "electric_scooter", "lon": -77.03376116666666, "is_reserved": 0, "fusion_lon": 0.0, "bike_id": "612bcfdf4774c36a39defc518ba44f9f", "name": "612bcfdf4774c36a39defc518ba44f9f", "rental_uris": {"ios": "https://dc.lft.to/lastmile_qr_scan", "android": "https://dc.lft.to/lastmile_qr_scan"}}, {"is_disabled": 0, "fusion_lat": 0.0, "lat": 38.917171, "type": "electric_scooter", "lon": -77.03836933333334, "is_reserved": 0, "fusion_lon": 0.0, "bike_id": "28a351ed1039719dd507ecdff117b2d6", "name": "28a351ed1039719dd507ecdff117b2d6", "rental_uris": {"ios": "https://dc.lft.to/lastmile_qr_scan", "android": "https://dc.lft.to/lastmile_qr_scan"}}, {"is_disabled": 0, "fusion_lat": 0.0, "lat": 38.897626333333335, "type": "electric_scooter", "lon": -76.985571, "is_reserved": 0, "fusion_lon": 0.0, "bike_id": "cb2db7d87072c57b35792a4b1110c0b9", "name": "cb2db7d87072c57b35792a4b1110c0b9", "rental_uris": {"ios": "https://dc.lft.to/lastmile_qr_scan", "android": "https://dc.lft.to/lastmile_qr_scan"}}, {"is_disabled": 0, "fusion_lat": 0.0, "lat": 38.9056955, "type": "electric_scooter", "lon": -77.03466066666667, "is_reserved": 0, "fusion_lon": 0.0, "bike_id": "f18e2909f95a431484deafae72e09cde", "name": "f18e2909f95a431484deafae72e09cde", "rental_uris": {"ios": "https://dc.lft.to/lastmile_qr_scan", "android": "https://dc.lft.to/lastmile_qr_scan"}}, {"is_disabled": 0, "fusion_lat": 0.0, "lat": 38.85807783333333, "type": "electric_scooter", "lon": -76.98650966666666, "is_reserved": 0, "fusion_lon": 0.0, "bike_id": "9f6cad2d3570a72d15d7902d0694dfb3", "name": "9f6cad2d3570a72d15d7902d0694dfb3", "rental_uris": {"ios": "https://dc.lft.to/lastmile_qr_scan", "android": "https://dc.lft.to/lastmile_qr_scan"}}, {"is_disabled": 0, "fusion_lat": 0.0, "lat": 38.942284666666666, "type": "electric_scooter", "lon": -77.01527683333333, "is_reserved": 0, "fusion_lon": 0.0, "bike_id": "4e771598d4f714289b7a6f659692b9ab", "name": "4e771598d4f714289b7a6f659692b9ab", "rental_uris": {"ios": "https://dc.lft.to/lastmile_qr_scan", "android": "https://dc.lft.to/lastmile_qr_scan"}}, {"is_disabled": 0, "fusion_lat": 0.0, "lat": 38.89221283333333, "type": "electric_scooter", "lon": -77.024428, "is_reserved": 0, "fusion_lon": 0.0, "bike_id": "136c7439e712629a3bfb3b007df795c8", "name": "136c7439e712629a3bfb3b007df795c8", "rental_uris": {"ios": "https://dc.lft.to/lastmile_qr_scan", "android": "https://dc.lft.to/lastmile_qr_scan"}}, {"is_disabled": 0, "fusion_lat": 0.0, "lat": 39.0388435, "type": "electric_bike", "lon": -76.99039933333333, "is_reserved": 0, "fusion_lon": 0.0, "bike_id": "0b2bf34191e19b491867f12b1f610c98", "name": "0b2bf34191e19b491867f12b1f610c98", "rental_uris": {"ios": "https://dc.lft.to/lastmile_qr_scan", "android": "https://dc.lft.to/lastmile_qr_scan"}}, {"is_disabled": 0, "fusion_lat": 0.0, "lat": 38.944392666666666, "type": "electric_scooter", "lon": -77.063547, "is_reserved": 0, "fusion_lon": 0.0, "bike_id": "29ecc7a8543b50be18c95f8c4ad16864", "name": "29ecc7a8543b50be18c95f8c4ad16864", "rental_uris": {"ios": "https://dc.lft.to/lastmile_qr_scan", "android": "https://dc.lft.to/lastmile_qr_scan"}}, {"is_disabled": 0, "fusion_lat": 0.0, "lat": 38.901307833333334, "type": "electric_scooter", "lon": -77.04990783333334, "is_reserved": 0, "fusion_lon": 0.0, "bike_id": "6599f61bb8e4547b3d972b16ea47d156", "name": "6599f61bb8e4547b3d972b16ea47d156", "rental_uris": {"ios": "https://dc.lft.to/lastmile_qr_scan", "android": "https://dc.lft.to/lastmile_qr_scan"}}, {"is_disabled": 0, "fusion_lat": 0.0, "lat": 38.90491633333333, "type": "electric_scooter", "lon": -77.06005566666667, "is_reserved": 0, "fusion_lon": 0.0, "bike_id": "697bdb4c185a28bdb5e45ca7073cd3e1", "name": "697bdb4c185a28bdb5e45ca7073cd3e1", "rental_uris": {"ios": "https://dc.lft.to/lastmile_qr_scan", "android": "https://dc.lft.to/lastmile_qr_scan"}}, {"is_disabled": 0, "fusion_lat": 0.0, "lat": 38.883788333333335, "type": "electric_scooter", "lon": -77.04606716666666, "is_reserved": 0, "fusion_lon": 0.0, "bike_id": "b12c750bff620b688cefb0c2b88305b9", "name": "b12c750bff620b688cefb0c2b88305b9", "rental_uris": {"ios": "https://dc.lft.to/lastmile_qr_scan", "android": "https://dc.lft.to/lastmile_qr_scan"}}, {"is_disabled": 0, "fusion_lat": 0.0, "lat": 38.92185083333333, "type": "electric_scooter", "lon": -77.01837683333333, "is_reserved": 0, "fusion_lon": 0.0, "bike_id": "1c887cc5db92029427f33119b18c568a", "name": "1c887cc5db92029427f33119b18c568a", "rental_uris": {"ios": "https://dc.lft.to/lastmile_qr_scan", "android": "https://dc.lft.to/lastmile_qr_scan"}}, {"is_disabled": 0, "fusion_lat": 0.0, "lat": 38.91578333333333, "type": "electric_scooter", "lon": -77.03191633333333, "is_reserved": 0, "fusion_lon": 0.0, "bike_id": "835f44d7c54ce58f6ce34670cb44f527", "name": "835f44d7c54ce58f6ce34670cb44f527", "rental_uris": {"ios": "https://dc.lft.to/lastmile_qr_scan", "android": "https://dc.lft.to/lastmile_qr_scan"}}, {"is_disabled": 0, "fusion_lat": 0.0, "lat": 38.9182435, "type": "electric_scooter", "lon": -77.03842616666667, "is_reserved": 0, "fusion_lon": 0.0, "bike_id": "426f0baf42c83f3317939833f658c1ab", "name": "426f0baf42c83f3317939833f658c1ab", "rental_uris": {"ios": "https://dc.lft.to/lastmile_qr_scan", "android": "https://dc.lft.to/lastmile_qr_scan"}}, {"is_disabled": 0, "fusion_lat": 0.0, "lat": 39.00005016666667, "type": "electric_bike", "lon": -76.91057083333334, "is_reserved": 0, "fusion_lon": 0.0, "bike_id": "6936e0f11ad216dd6c284b01d085ee7b", "name": "6936e0f11ad216dd6c284b01d085ee7b", "rental_uris": {"ios": "https://dc.lft.to/lastmile_qr_scan", "android": "https://dc.lft.to/lastmile_qr_scan"}}, {"is_disabled": 0, "fusion_lat": 0.0, "lat": 38.900113166666664, "type": "electric_scooter", "lon": -77.0003985, "is_reserved": 0, "fusion_lon": 0.0, "bike_id": "f604ca007a68b799e5cf59ebb4c8a39f", "name": "f604ca007a68b799e5cf59ebb4c8a39f", "rental_uris": {"ios": "https://dc.lft.to/lastmile_qr_scan", "android": "https://dc.lft.to/lastmile_qr_scan"}}, {"is_disabled": 0, "fusion_lat": 0.0, "lat": 38.89390816666667, "type": "electric_scooter", "lon": -76.99866833333333, "is_reserved": 0, "fusion_lon": 0.0, "bike_id": "eeaffe4c569d1cbca94e5cf147240ed6", "name": "eeaffe4c569d1cbca94e5cf147240ed6", "rental_uris": {"ios": "https://dc.lft.to/lastmile_qr_scan", "android": "https://dc.lft.to/lastmile_qr_scan"}}, {"is_disabled": 0, "fusion_lat": 0.0, "lat": 38.91365716666667, "type": "electric_scooter", "lon": -77.06616783333334, "is_reserved": 0, "fusion_lon": 0.0, "bike_id": "51eaa89cdfdaa28d4b16e50203ffd596", "name": "51eaa89cdfdaa28d4b16e50203ffd596", "rental_uris": {"ios": "https://dc.lft.to/lastmile_qr_scan", "android": "https://dc.lft.to/lastmile_qr_scan"}}, {"is_disabled": 0, "fusion_lat": 0.0, "lat": 38.917242, "type": "electric_scooter", "lon": -77.03662016666667, "is_reserved": 0, "fusion_lon": 0.0, "bike_id": "1a84cd22ea638c8719d7151ec29735a2", "name": "1a84cd22ea638c8719d7151ec29735a2", "rental_uris": {"ios": "https://dc.lft.to/lastmile_qr_scan", "android": "https://dc.lft.to/lastmile_qr_scan"}}, {"is_disabled": 0, "fusion_lat": 0.0, "lat": 38.91729766666667, "type": "electric_scooter", "lon": -77.04182533333334, "is_reserved": 0, "fusion_lon": 0.0, "bike_id": "2b5a135bc07a803c419ff6b650c4bf7e", "name": "2b5a135bc07a803c419ff6b650c4bf7e", "rental_uris": {"ios": "https://dc.lft.to/lastmile_qr_scan", "android": "https://dc.lft.to/lastmile_qr_scan"}}, {"is_disabled": 0, "fusion_lat": 0.0, "lat": 38.930849, "type": "electric_scooter", "lon": -76.96719433333334, "is_reserved": 0, "fusion_lon": 0.0, "bike_id": "8a80e9baf6fa914d4642e077a2e94a9b", "name": "8a80e9baf6fa914d4642e077a2e94a9b", "rental_uris": {"ios": "https://dc.lft.to/lastmile_qr_scan", "android": "https://dc.lft.to/lastmile_qr_scan"}}, {"is_disabled": 0, "fusion_lat": 0.0, "lat": 38.874583, "type": "electric_scooter", "lon": -77.00491316666667, "is_reserved": 0, "fusion_lon": 0.0, "bike_id": "114660793eb164ef9f5bc19327fc9c17", "name": "114660793eb164ef9f5bc19327fc9c17", "rental_uris": {"ios": "https://dc.lft.to/lastmile_qr_scan", "android": "https://dc.lft.to/lastmile_qr_scan"}}, {"is_disabled": 0, "fusion_lat": 0.0, "lat": 39.02430533333333, "type": "electric_bike", "lon": -77.13101183333333, "is_reserved": 0, "fusion_lon": 0.0, "bike_id": "9f56585d8702fbcc09160a2ed17dc8b9", "name": "9f56585d8702fbcc09160a2ed17dc8b9", "rental_uris": {"ios": "https://dc.lft.to/lastmile_qr_scan", "android": "https://dc.lft.to/lastmile_qr_scan"}}, {"is_disabled": 0, "fusion_lat": 0.0, "lat": 38.907697, "type": "electric_scooter", "lon": -77.06914316666666, "is_reserved": 0, "fusion_lon": 0.0, "bike_id": "767198184c5ba9e76c0d825316a6ae09", "name": "767198184c5ba9e76c0d825316a6ae09", "rental_uris": {"ios": "https://dc.lft.to/lastmile_qr_scan", "android": "https://dc.lft.to/lastmile_qr_scan"}}, {"is_disabled": 0, "fusion_lat": 0.0, "lat": 39.03048716666667, "type": "electric_bike", "lon": -77.094827, "is_reserved": 0, "fusion_lon": 0.0, "bike_id": "77fa78e261268d12ad3f5fe6a7f1faf8", "name": "77fa78e261268d12ad3f5fe6a7f1faf8", "rental_uris": {"ios": "https://dc.lft.to/lastmile_qr_scan", "android": "https://dc.lft.to/lastmile_qr_scan"}}, {"is_disabled": 0, "fusion_lat": 0.0, "lat": 38.9183495, "type": "electric_scooter", "lon": -77.03174316666667, "is_reserved": 0, "fusion_lon": 0.0, "bike_id": "29e8fa333871f9f6058b0f28b0c1cb20", "name": "29e8fa333871f9f6058b0f28b0c1cb20", "rental_uris": {"ios": "https://dc.lft.to/lastmile_qr_scan", "android": "https://dc.lft.to/lastmile_qr_scan"}}, {"is_disabled": 0, "fusion_lat": 0.0, "lat": 38.930703, "type": "electric_scooter", "lon": -77.03123316666667, "is_reserved": 0, "fusion_lon": 0.0, "bike_id": "9d4ce749bfbb8eef703a000034d787a1", "name": "9d4ce749bfbb8eef703a000034d787a1", "rental_uris": {"ios": "https://dc.lft.to/lastmile_qr_scan", "android": "https://dc.lft.to/lastmile_qr_scan"}}, {"is_disabled": 0, "fusion_lat": 0.0, "lat": 38.8972445, "type": "electric_scooter", "lon": -77.055721, "is_reserved": 0, "fusion_lon": 0.0, "bike_id": "b955bfb3d6eb879c0e357c0cedfed9e2", "name": "b955bfb3d6eb879c0e357c0cedfed9e2", "rental_uris": {"ios": "https://dc.lft.to/lastmile_qr_scan", "android": "https://dc.lft.to/lastmile_qr_scan"}}, {"is_disabled": 0, "fusion_lat": 0.0, "lat": 38.89366033333334, "type": "electric_scooter", "lon": -77.04779633333334, "is_reserved": 0, "fusion_lon": 0.0, "bike_id": "865a6ca139ccae7b35761a988e769d2e", "name": "865a6ca139ccae7b35761a988e769d2e", "rental_uris": {"ios": "https://dc.lft.to/lastmile_qr_scan", "android": "https://dc.lft.to/lastmile_qr_scan"}}, {"is_disabled": 0, "fusion_lat": 0.0, "lat": 38.94905983333334, "type": "electric_bike", "lon": -76.97236966666667, "is_reserved": 0, "fusion_lon": 0.0, "bike_id": "30246b559cf39f9b8228dc58b4de4cac", "name": "30246b559cf39f9b8228dc58b4de4cac", "rental_uris": {"ios": "https://dc.lft.to/lastmile_qr_scan", "android": "https://dc.lft.to/lastmile_qr_scan"}}, {"is_disabled": 0, "fusion_lat": 0.0, "lat": 38.90737816666667, "type": "electric_scooter", "lon": -77.0012505, "is_reserved": 0, "fusion_lon": 0.0, "bike_id": "1398b8e371a519e231dfe791da183e72", "name": "1398b8e371a519e231dfe791da183e72", "rental_uris": {"ios": "https://dc.lft.to/lastmile_qr_scan", "android": "https://dc.lft.to/lastmile_qr_scan"}}, {"is_disabled": 0, "fusion_lat": 0.0, "lat": 38.9037505, "type": "electric_scooter", "lon": -77.04485033333333, "is_reserved": 0, "fusion_lon": 0.0, "bike_id": "ea937dca1e4478cd4c927453eaf3f80d", "name": "ea937dca1e4478cd4c927453eaf3f80d", "rental_uris": {"ios": "https://dc.lft.to/lastmile_qr_scan", "android": "https://dc.lft.to/lastmile_qr_scan"}}, {"is_disabled": 0, "fusion_lat": 0.0, "lat": 38.942377666666665, "type": "electric_scooter", "lon": -77.07233166666667, "is_reserved": 0, "fusion_lon": 0.0, "bike_id": "3a1ee55b6abccdb528c9faed75b075a7", "name": "3a1ee55b6abccdb528c9faed75b075a7", "rental_uris": {"ios": "https://dc.lft.to/lastmile_qr_scan", "android": "https://dc.lft.to/lastmile_qr_scan"}}, {"is_disabled": 0, "fusion_lat": 0.0, "lat": 38.9110355, "type": "electric_scooter", "lon": -77.04825183333334, "is_reserved": 0, "fusion_lon": 0.0, "bike_id": "050b70381cd9e5ff1aac7c20983562a7", "name": "050b70381cd9e5ff1aac7c20983562a7", "rental_uris": {"ios": "https://dc.lft.to/lastmile_qr_scan", "android": "https://dc.lft.to/lastmile_qr_scan"}}, {"is_disabled": 0, "fusion_lat": 0.0, "lat": 38.90155383333333, "type": "electric_scooter", "lon": -76.97632416666667, "is_reserved": 0, "fusion_lon": 0.0, "bike_id": "2dd1d0a2c5e95735d2b690b2c7f7e770", "name": "2dd1d0a2c5e95735d2b690b2c7f7e770", "rental_uris": {"ios": "https://dc.lft.to/lastmile_qr_scan", "android": "https://dc.lft.to/lastmile_qr_scan"}}, {"is_disabled": 0, "fusion_lat": 0.0, "lat": 38.92855133333333, "type": "electric_bike", "lon": -77.22202716666666, "is_reserved": 0, "fusion_lon": 0.0, "bike_id": "cada873ad42ba0de7c446c5646a00b7b", "name": "cada873ad42ba0de7c446c5646a00b7b", "rental_uris": {"ios": "https://dc.lft.to/lastmile_qr_scan", "android": "https://dc.lft.to/lastmile_qr_scan"}}, {"is_disabled": 0, "fusion_lat": 0.0, "lat": 38.92317666666667, "type": "electric_scooter", "lon": -77.04519666666667, "is_reserved": 0, "fusion_lon": 0.0, "bike_id": "67b43fcf8bbccad0a09cebe8b6ca15b5", "name": "67b43fcf8bbccad0a09cebe8b6ca15b5", "rental_uris": {"ios": "https://dc.lft.to/lastmile_qr_scan", "android": "https://dc.lft.to/lastmile_qr_scan"}}, {"is_disabled": 0, "fusion_lat": 0.0, "lat": 38.929510666666665, "type": "electric_bike", "lon": -77.037725, "is_reserved": 0, "fusion_lon": 0.0, "bike_id": "2a5a7bd09855e8011f2afbed5df4dcfe", "name": "2a5a7bd09855e8011f2afbed5df4dcfe", "rental_uris": {"ios": "https://dc.lft.to/lastmile_qr_scan", "android": "https://dc.lft.to/lastmile_qr_scan"}}, {"is_disabled": 0, "fusion_lat": 0.0, "lat": 38.88726233333333, "type": "electric_scooter", "lon": -77.03200883333334, "is_reserved": 0, "fusion_lon": 0.0, "bike_id": "fc2c5e5ed19668e657dda9d1e7b9c528", "name": "fc2c5e5ed19668e657dda9d1e7b9c528", "rental_uris": {"ios": "https://dc.lft.to/lastmile_qr_scan", "android": "https://dc.lft.to/lastmile_qr_scan"}}, {"is_disabled": 0, "fusion_lat": 0.0, "lat": 38.983654333333334, "type": "electric_scooter", "lon": -77.0264525, "is_reserved": 0, "fusion_lon": 0.0, "bike_id": "737181c305dd9005bae28a5898180e33", "name": "737181c305dd9005bae28a5898180e33", "rental_uris": {"ios": "https://dc.lft.to/lastmile_qr_scan", "android": "https://dc.lft.to/lastmile_qr_scan"}},