{"data": {"bikes": [{"rental_uris": {"ios": "https://dc.lft.to/lastmile_qr_scan", "android": "https://dc.lft.to/lastmile_qr_scan"}, "lon": -76.972072, "type": "electric_scooter", "fusion_lat": 0.0, "lat": 38.8549555, "name": "7524ba55008b9e967b5caed7a8442086", "fusion_lon": 0.0, "bike_id": "7524ba55008b9e967b5caed7a8442086", "is_disabled": 0, "is_reserved": 0}, {"rental_uris": {"ios": "https://dc.lft.to/lastmile_qr_scan", "android": "https://dc.lft.to/lastmile_qr_scan"}, "lon": -77.03837933333334, "type": "electric_scooter", "fusion_lat": 0.0, "lat": 38.90757883333333, "name": "431bd2f6e3d4943f579b5781c568caf6", "fusion_lon": 0.0, "bike_id": "431bd2f6e3d4943f579b5781c568caf6", "is_disabled": 0, "is_reserved": 0}, {"rental_uris": {"ios": "https://dc.lft.to/lastmile_qr_scan", "android": "https://dc.lft.to/lastmile_qr_scan"}, "lon": -77.03926166666666, "type": "electric_scooter", "fusion_lat": 0.0, "lat": 38.8991435, "name": "c7f6d044afad7f16a3fdf5849c96f008", "fusion_lon": 0.0, "bike_id": "c7f6d044afad7f16a3fdf5849c96f008", "is_disabled": 0, "is_reserved": 0}, {"rental_uris": {"ios": "https://dc.lft.to/lastmile_qr_scan", "android": "https://dc.lft.to/lastmile_qr_scan"}, "lon": -77.04332683333334, "type": "electric_scooter", "fusion_lat": 0.0, "lat": 38.89586083333333, "name": "04fe86efaabd64e17f82087b9710a548", "fusion_lon": 0.0, "bike_id": "04fe86efaabd64e17f82087b9710a548", "is_disabled": 0, "is_reserved": 0}, {"rental_uris": {"ios": "https://dc.lft.to/lastmile_qr_scan", "android": "https://dc.lft.to/lastmile_qr_scan"}, "lon": -77.04690033333334, "type": "electric_scooter", "fusion_lat": 0.0, "lat": 38.9040195, "name": "fd8f189893d89b1b1120a6fd33a745bd", "fusion_lon": 0.0, "bike_id": "fd8f189893d89b1b1120a6fd33a745bd", "is_disabled": 0, "is_reserved": 0}, {"rental_uris": {"ios": "https://dc.lft.to/lastmile_qr_scan", "android": "https://dc.lft.to/lastmile_qr_scan"}, "lon": -76.94631683333333, "type": "electric_bike", "fusion_lat": 0.0, "lat": 38.94622183333333, "name": "36ff76e90bc4c6ddea615d7db2689e00", "fusion_lon": 0.0, "bike_id": "36ff76e90bc4c6ddea615d7db2689e00", "is_disabled": 0, "is_reserved": 0}, {"rental_uris": {"ios": "https://dc.lft.to/lastmile_qr_scan", "android": "https://dc.lft.to/lastmile_qr_scan"}, "lon": -77.0319255, "type": "electric_scooter", "fusion_lat": 0.0, "lat": 38.90759083333333, "name": "2c6dcbda5347b65b288a92bbb39ea9e4", "fusion_lon": 0.0, "bike_id": "2c6dcbda5347b65b288a92bbb39ea9e4", "is_disabled": 0, "is_reserved": 0}, {"rental_uris": {"ios": "https://dc.lft.to/lastmile_qr_scan", "android": "https://dc.lft.to/lastmile_qr_scan"}, "lon": -77.024015, "type": "electric_scooter", "fusion_lat": 0.0, "lat": 38.91723833333333, "name": "3cffdca24f9f162c60f0eefea1308bcd", "fusion_lon": 0.0, "bike_id": "3cffdca24f9f162c60f0eefea1308bcd", "is_disabled": 0, "is_reserved": 0}, {"rental_uris": {"ios": "https://dc.lft.to/lastmile_qr_scan", "android": "https://dc.lft.to/lastmile_qr_scan"}, "lon": -77.0263585, "type": "electric_scooter", "fusion_lat": 0.0, "lat": 38.895828, "name": "82783609571b86e5afd3fbe64c3e3cb3", "fusion_lon": 0.0, "bike_id": "82783609571b86e5afd3fbe64c3e3cb3", "is_disabled": 0, "is_reserved": 0}, {"rental_uris": {"ios": "https://dc.lft.to/lastmile_qr_scan", "android": "https://dc.lft.to/lastmile_qr_scan"}, "lon": -77.03465266666667, "type": "electric_scooter", "fusion_lat": 0.0, "lat": 38.916942, "name": "8ab680ba71007614adef66c3b442c751", "fusion_lon": 0.0, "bike_id": "8ab680ba71007614adef66c3b442c751", "is_disabled": 0, "is_reserved": 0}, {"rental_uris": {"ios": "https://dc.lft.to/lastmile_qr_scan", "android": "https://dc.lft.to/lastmile_qr_scan"}, "lon": -77.03841016666667, "type": "electric_scooter", "fusion_lat": 0.0, "lat": 38.92648783333333, "name": "1f17663f8cbb7fe018068e9f5add23e6", "fusion_lon": 0.0, "bike_id": "1f17663f8cbb7fe018068e9f5add23e6", "is_disabled": 0, "is_reserved": 0}, {"rental_uris": {"ios": "https://dc.lft.to/lastmile_qr_scan", "android": "https://dc.lft.to/lastmile_qr_scan"}, "lon": -77.04479366666666, "type": "electric_scooter", "fusion_lat": 0.0, "lat": 38.9184805, "name": "a338216d38e6f7ecc46e2a61947bbf8e", "fusion_lon": 0.0, "bike_id": "a338216d38e6f7ecc46e2a61947bbf8e", "is_disabled": 0, "is_reserved": 0}, {"rental_uris": {"ios": "https://dc.lft.to/lastmile_qr_scan", "android": "https://dc.lft.to/lastmile_qr_scan"}, "lon": -76.99888316666667, "type": "electric_scooter", "fusion_lat": 0.0, "lat": 38.90748983333334, "name": "86ac6b34ec3122068713e5749c7780fd", "fusion_lon": 0.0, "bike_id": "86ac6b34ec3122068713e5749c7780fd", "is_disabled": 0, "is_reserved": 0}, {"rental_uris": {"ios": "https://dc.lft.to/lastmile_qr_scan", "android": "https://dc.lft.to/lastmile_qr_scan"}, "lon": -77.01504466666667, "type": "electric_scooter", "fusion_lat": 0.0, "lat": 38.901389333333334, "name": "77b608f8364032548b0f541225349d21", "fusion_lon": 0.0, "bike_id": "77b608f8364032548b0f541225349d21", "is_disabled": 0, "is_reserved": 0}, {"rental_uris": {"ios": "https://dc.lft.to/lastmile_qr_scan", "android": "https://dc.lft.to/lastmile_qr_scan"}, "lon": -76.995208, "type": "electric_scooter", "fusion_lat": 0.0, "lat": 38.89481983333334, "name": "dc9da7d1a9fbec38881a4c1d9859b834", "fusion_lon": 0.0, "bike_id": "dc9da7d1a9fbec38881a4c1d9859b834", "is_disabled": 0, "is_reserved": 0}, {"rental_uris": {"ios": "https://dc.lft.to/lastmile_qr_scan", "android": "https://dc.lft.to/lastmile_qr_scan"}, "lon": -76.9935725, "type": "electric_scooter", "fusion_lat": 0.0, "lat": 38.90019933333333, "name": "135eef94bd0d19de71fb64adf68bfc1b", "fusion_lon": 0.0, "bike_id": "135eef94bd0d19de71fb64adf68bfc1b", "is_disabled": 0, "is_reserved": 0}, {"rental_uris": {"ios": "https://dc.lft.to/lastmile_qr_scan", "android": "https://dc.lft.to/lastmile_qr_scan"}, "lon": -76.97743183333333, "type": "electric_scooter", "fusion_lat": 0.0, "lat": 38.9000725, "name": "25d2e1fe67b6d65f7e181e070cfcbb0d", "fusion_lon": 0.0, "bike_id": "25d2e1fe67b6d65f7e181e070cfcbb0d", "is_disabled": 0, "is_reserved": 0}, {"rental_uris": {"ios": "https://dc.lft.to/lastmile_qr_scan", "android": "https://dc.lft.to/lastmile_qr_scan"}, "lon": -76.97616633333334, "type": "electric_scooter", "fusion_lat": 0.0, "lat": 38.90386066666667, "name": "063fa4be86d31775d6ae36688cf6a38f", "fusion_lon": 0.0, "bike_id": "063fa4be86d31775d6ae36688cf6a38f", "is_disabled": 0, "is_reserved": 0}, {"rental_uris": {"ios": "https://dc.lft.to/lastmile_qr_scan", "android": "https://dc.lft.to/lastmile_qr_scan"}, "lon": -76.95767333333333, "type": "electric_bike", "fusion_lat": 0.0, "lat": 38.884218833333335, "name": "fcfb7f5f6f5be157333cf2ae3b4c37fe", "fusion_lon": 0.0, "bike_id": "fcfb7f5f6f5be157333cf2ae3b4c37fe", "is_disabled": 0, "is_reserved": 0}, {"rental_uris": {"ios": "https://dc.lft.to/lastmile_qr_scan", "android": "https://dc.lft.to/lastmile_qr_scan"}, "lon": -76.94668366666667, "type": "electric_scooter", "fusion_lat": 0.0, "lat": 38.90338966666667, "name": "0edeb793f95e2a74ee2e3ef34b0c083b", "fusion_lon": 0.0, "bike_id": "0edeb793f95e2a74ee2e3ef34b0c083b", "is_disabled": 0, "is_reserved": 0}, {"rental_uris": {"ios": "https://dc.lft.to/lastmile_qr_scan", "android": "https://dc.lft.to/lastmile_qr_scan"}, "lon": -77.03238466666667, "type": "electric_scooter", "fusion_lat": 0.0, "lat": 38.92888466666667, "name": "f2c40b31cec5c126b127af20c14726a8", "fusion_lon": 0.0, "bike_id": "f2c40b31cec5c126b127af20c14726a8", "is_disabled": 0, "is_reserved": 0}, {"rental_uris": {"ios": "https://dc.lft.to/lastmile_qr_scan", "android": "https://dc.lft.to/lastmile_qr_scan"}, "lon": -77.00298516666666, "type": "electric_bike", "fusion_lat": 0.0, "lat": 38.916165666666664, "name": "affd63e13db08ea71ca63683220add4c", "fusion_lon": 0.0, "bike_id": "affd63e13db08ea71ca63683220add4c", "is_disabled": 0, "is_reserved": 0}, {"rental_uris": {"ios": "https://dc.lft.to/lastmile_qr_scan", "android": "https://dc.lft.to/lastmile_qr_scan"}, "lon": -77.02878066666666, "type": "electric_scooter", "fusion_lat": 0.0, "lat": 38.904126833333336, "name": "def1462f7f40e515eaf593c4e7d05f63", "fusion_lon": 0.0, "bike_id": "def1462f7f40e515eaf593c4e7d05f63", "is_disabled": 0, "is_reserved": 0}, {"rental_uris": {"ios": "https://dc.lft.to/lastmile_qr_scan", "android": "https://dc.lft.to/lastmile_qr_scan"}, "lon": -76.87818566666667, "type": "electric_bike", "fusion_lat": 0.0, "lat": 38.9922765, "name": "927b80df3b58501cddaa310547e58b28", "fusion_lon": 0.0, "bike_id": "927b80df3b58501cddaa310547e58b28", "is_disabled": 0, "is_reserved": 0}, {"rental_uris": {"ios": "https://dc.lft.to/lastmile_qr_scan", "android": "https://dc.lft.to/lastmile_qr_scan"}, "lon": -77.02756433333333, "type": "electric_scooter", "fusion_lat": 0.0, "lat": 38.900129166666666, "name": "81caacf17383b3b72ac12839bc59ed3b", "fusion_lon": 0.0, "bike_id": "81caacf17383b3b72ac12839bc59ed3b", "is_disabled": 0, "is_reserved": 0}, {"rental_uris": {"ios": "https://dc.lft.to/lastmile_qr_scan", "android": "https://dc.lft.to/lastmile_qr_scan"}, "lon": -77.04798566666666, "type": "electric_scooter", "fusion_lat": 0.0, "lat": 38.90722983333333, "name": "6b83dbc8a78689ae253bcb784d59fae1", "fusion_lon": 0.0, "bike_id": "6b83dbc8a78689ae253bcb784d59fae1", "is_disabled": 0, "is_reserved": 0}, {"rental_uris": {"ios": "https://dc.lft.to/lastmile_qr_scan", "android": "https://dc.lft.to/lastmile_qr_scan"}, "lon": -77.02458783333333, "type": "electric_scooter", "fusion_lat": 0.0, "lat": 38.97934883333333, "name": "ac3f599bc6963a75f1fa6c6acce5c4cc", "fusion_lon": 0.0, "bike_id": "ac3f599bc6963a75f1fa6c6acce5c4cc", "is_disabled": 0, "is_reserved": 0}, {"rental_uris": {"ios": "https://dc.lft.to/lastmile_qr_scan", "android": "https://dc.lft.to/lastmile_qr_scan"}, "lon": -77.02330116666667, "type": "electric_scooter", "fusion_lat": 0.0, "lat": 38.93047133333334, "name": "faa9524ab1fdafe8dc5fcd09d6630c1d", "fusion_lon": 0.0, "bike_id": "faa9524ab1fdafe8dc5fcd09d6630c1d", "is_disabled": 0, "is_reserved": 0}, {"rental_uris": {"ios": "https://dc.lft.to/lastmile_qr_scan", "android": "https://dc.lft.to/lastmile_qr_scan"}, "lon": -77.024189, "type": "electric_scooter", "fusion_lat": 0.0, "lat": 38.918224, "name": "460bead13f62cd0cafeebd56f8b0d369", "fusion_lon": 0.0, "bike_id": "460bead13f62cd0cafeebd56f8b0d369", "is_disabled": 0, "is_reserved": 0}, {"rental_uris": {"ios": "https://dc.lft.to/lastmile_qr_scan", "android": "https://dc.lft.to/lastmile_qr_scan"}, "lon": -77.04129883333333, "type": "electric_scooter", "fusion_lat": 0.0, "lat": 38.9233655, "name": "a28aafd82dd023bf0a6bbf00b679334f", "fusion_lon": 0.0, "bike_id": "a28aafd82dd023bf0a6bbf00b679334f", "is_disabled": 0, "is_reserved": 0}, {"rental_uris": {"ios": "https://dc.lft.to/lastmile_qr_scan", "android": "https://dc.lft.to/lastmile_qr_scan"}, "lon": -77.05330733333334, "type": "electric_scooter", "fusion_lat": 0.0, "lat": 38.9042605, "name": "3dc0fde25a769cc9cef9cbaf5a236870", "fusion_lon": 0.0, "bike_id": "3dc0fde25a769cc9cef9cbaf5a236870", "is_disabled": 0, "is_reserved": 0}, {"rental_uris": {"ios": "https://dc.lft.to/lastmile_qr_scan", "android": "https://dc.lft.to/lastmile_qr_scan"}, "lon": -76.9733205, "type": "electric_bike", "fusion_lat": 0.0, "lat": 38.85066, "name": "fb66cc76e3057dc68759dcca83c804ad", "fusion_lon": 0.0, "bike_id": "fb66cc76e3057dc68759dcca83c804ad", "is_disabled": 0, "is_reserved": 0}, {"rental_uris": {"ios": "https://dc.lft.to/lastmile_qr_scan", "android": "https://dc.lft.to/lastmile_qr_scan"}, "lon": -77.04611933333334, "type": "electric_scooter", "fusion_lat": 0.0, "lat": 38.90244283333333, "name": "c5a3ee8bf58f9dd1cb58eaf43b55fc2c", "fusion_lon": 0.0, "bike_id": "c5a3ee8bf58f9dd1cb58eaf43b55fc2c", "is_disabled": 0, "is_reserved": 0}, {"rental_uris": {"ios": "https://dc.lft.to/lastmile_qr_scan", "android": "https://dc.lft.to/lastmile_qr_scan"}, "lon": -77.050328, "type": "electric_scooter", "fusion_lat": 0.0, "lat": 38.89657233333333, "name": "799f9750aebaf33339c5e20e5a912545", "fusion_lon": 0.0, "bike_id": "799f9750aebaf33339c5e20e5a912545", "is_disabled": 0, "is_reserved": 0}, {"rental_uris": {"ios": "https://dc.lft.to/lastmile_qr_scan", "android": "https://dc.lft.to/lastmile_qr_scan"}, "lon": -77.03952116666666, "type": "electric_scooter", "fusion_lat": 0.0, "lat": 38.90282666666667, "name": "134944189321e6181e605b8c3ff725e5", "fusion_lon": 0.0, "bike_id": "134944189321e6181e605b8c3ff725e5", "is_disabled": 0, "is_reserved": 0}, {"rental_uris": {"ios": "https://dc.lft.to/lastmile_qr_scan", "android": "https://dc.lft.to/lastmile_qr_scan"}, "lon": -77.03803266666667, "type": "electric_scooter", "fusion_lat": 0.0, "lat": 38.921885833333334, "name": "eda47a1bbd696cf2ceb232a5084353d0", "fusion_lon": 0.0, "bike_id": "eda47a1bbd696cf2ceb232a5084353d0", "is_disabled": 0, "is_reserved": 0}, {"rental_uris": {"ios": "https://dc.lft.to/lastmile_qr_scan", "android": "https://dc.lft.to/lastmile_qr_scan"}, "lon": -76.97726033333333, "type": "electric_scooter", "fusion_lat": 0.0, "lat": 38.872465166666665, "name": "496d0e1d8356dfae50b4ee1027b8f673", "fusion_lon": 0.0, "bike_id": "496d0e1d8356dfae50b4ee1027b8f673", "is_disabled": 0, "is_reserved": 0}, {"rental_uris": {"ios": "https://dc.lft.to/lastmile_qr_scan", "android": "https://dc.lft.to/lastmile_qr_scan"}, "lon": -77.03672616666667, "type": "electric_scooter", "fusion_lat": 0.0, "lat": 38.929937833333334, "name": "d3ce778e2e42c5d5ed2729c3e92233b1", "fusion_lon": 0.0, "bike_id": "d3ce778e2e42c5d5ed2729c3e92233b1", "is_disabled": 0, "is_reserved": 0}, {"rental_uris": {"ios": "https://dc.lft.to/lastmile_qr_scan", "android": "https://dc.lft.to/lastmile_qr_scan"}, "lon": -77.01118433333333, "type": "electric_scooter", "fusion_lat": 0.0, "lat": 38.9001545, "name": "74e16a5f1180ecaa1507661194d88ee6", "fusion_lon": 0.0, "bike_id": "74e16a5f1180ecaa1507661194d88ee6", "is_disabled": 0, "is_reserved": 0}, {"rental_uris": {"ios": "https://dc.lft.to/lastmile_qr_scan", "android": "https://dc.lft.to/lastmile_qr_scan"}, "lon": -77.04418383333334, "type": "electric_scooter", "fusion_lat": 0.0, "lat": 38.9059455, "name": "0575775a26c046c2af1c7078f6a68a21", "fusion_lon": 0.0, "bike_id": "0575775a26c046c2af1c7078f6a68a21", "is_disabled": 0, "is_reserved": 0}, {"rental_uris": {"ios": "https://dc.lft.to/lastmile_qr_scan", "android": "https://dc.lft.to/lastmile_qr_scan"}, "lon": -77.05444433333334, "type": "electric_scooter", "fusion_lat": 0.0, "lat": 38.89606533333333, "name": "f4881ff033b786a533c4c077a80456f9", "fusion_lon": 0.0, "bike_id": "f4881ff033b786a533c4c077a80456f9", "is_disabled": 0, "is_reserved": 0}, {"rental_uris": {"ios": "https://dc.lft.to/lastmile_qr_scan", "android": "https://dc.lft.to/lastmile_qr_scan"}, "lon": -77.03867116666666, "type": "electric_scooter", "fusion_lat": 0.0, "lat": 38.91555683333333, "name": "68ec8ce5d8873b6d7590c219ca516ba4", "fusion_lon": 0.0, "bike_id": "68ec8ce5d8873b6d7590c219ca516ba4", "is_disabled": 0, "is_reserved": 0}, {"rental_uris": {"ios": "https://dc.lft.to/lastmile_qr_scan", "android": "https://dc.lft.to/lastmile_qr_scan"}, "lon": -77.04007416666667, "type": "electric_scooter", "fusion_lat": 0.0, "lat": 38.932548833333335, "name": "69a1b195f0dc6e5ba9d4886e674ac5f8", "fusion_lon": 0.0, "bike_id": "69a1b195f0dc6e5ba9d4886e674ac5f8", "is_disabled": 0, "is_reserved": 0}, {"rental_uris": {"ios": "https://dc.lft.to/lastmile_qr_scan", "android": "https://dc.lft.to/lastmile_qr_scan"}, "lon": -77.03465933333334, "type": "electric_scooter", "fusion_lat": 0.0, "lat": 38.91993383333333, "name": "091eced60f98da8d49cace5ffa56ad21", "fusion_lon": 0.0, "bike_id": "091eced60f98da8d49cace5ffa56ad21", "is_disabled": 0, "is_reserved": 0}, {"rental_uris": {"ios": "https://dc.lft.to/lastmile_qr_scan", "android": "https://dc.lft.to/lastmile_qr_scan"}, "lon": -77.02017933333333, "type": "electric_scooter", "fusion_lat": 0.0, "lat": 38.91653816666667, "name": "2bce808ae65b3011a335000c82d42aab", "fusion_lon": 0.0, "bike_id": "2bce808ae65b3011a335000c82d42aab", "is_disabled": 0, "is_reserved": 0}, {"rental_uris": {"ios": "https://dc.lft.to/lastmile_qr_scan", "android": "https://dc.lft.to/lastmile_qr_scan"}, "lon": -76.967572, "type": "electric_bike", "fusion_lat": 0.0, "lat": 38.875444, "name": "0de8b276024bd1ad3ee7293db4378a7a", "fusion_lon": 0.0, "bike_id": "0de8b276024bd1ad3ee7293db4378a7a", "is_disabled": 0, "is_reserved": 0}, {"rental_uris": {"ios": "https://dc.lft.to/lastmile_qr_scan", "android": "https://dc.lft.to/lastmile_qr_scan"}, "lon": -76.98263333333334, "type": "electric_scooter", "fusion_lat": 0.0, "lat": 38.86353116666667, "name": "a9937fc3ee05706d395ffb644c8389bf", "fusion_lon": 0.0, "bike_id": "a9937fc3ee05706d395ffb644c8389bf", "is_disabled": 0, "is_reserved": 0}, {"rental_uris": {"ios": "https://dc.lft.to/lastmile_qr_scan", "android": "https://dc.lft.to/lastmile_qr_scan"}, "lon": -76.99379633333334, "type": "electric_scooter", "fusion_lat": 0.0, "lat": 38.897421333333334, "name": "559b9ff8d3484d094b028974d7335b7d", "fusion_lon": 0.0, "bike_id": "559b9ff8d3484d094b028974d7335b7d", "is_disabled": 0, "is_reserved": 0}, {"rental_uris": {"ios": "https://dc.lft.to/lastmile_qr_scan", "android": "https://dc.lft.to/lastmile_qr_scan"}, "lon": -76.99500133333333, "type": "electric_bike", "fusion_lat": 0.0, "lat": 39.000009666666664, "name": "2981a304cf4061c8cd00e0348decf427", "fusion_lon": 0.0, "bike_id": "2981a304cf4061c8cd00e0348decf427", "is_disabled": 0, "is_reserved": 0}, {"rental_uris": {"ios": "https://dc.lft.to/lastmile_qr_scan", "android": "https://dc.lft.to/lastmile_qr_scan"}, "lon": -77.00514483333333, "type": "electric_scooter", "fusion_lat": 0.0, "lat": 38.917044, "name": "9a40558ebc6f1aa41a1786b01fb8f68c", "fusion_lon": 0.0, "bike_id": "9a40558ebc6f1aa41a1786b01fb8f68c", "is_disabled": 0, "is_reserved": 0}, {"rental_uris": {"ios": "https://dc.lft.to/lastmile_qr_scan", "android": "https://dc.lft.to/lastmile_qr_scan"}, "lon": -77.04387833333334, "type": "electric_scooter", "fusion_lat": 0.0, "lat": 38.90035733333333, "name": "bc6655048decaf9281c9346f2d02fada", "fusion_lon": 0.0, "bike_id": "bc6655048decaf9281c9346f2d02fada", "is_disabled": 0, "is_reserved": 0}, {"rental_uris": {"ios": "https://dc.lft.to/lastmile_qr_scan", "android": "https://dc.lft.to/lastmile_qr_scan"}, "lon": -77.05144766666666, "type": "electric_scooter", "fusion_lat": 0.0, "lat": 38.901202, "name": "aff3d4047372024aa8b6ca57c2a8f6b7", "fusion_lon": 0.0, "bike_id": "aff3d4047372024aa8b6ca57c2a8f6b7", "is_disabled": 0, "is_reserved": 0}, {"rental_uris": {"ios": "https://dc.lft.to/lastmile_qr_scan", "android": "https://dc.lft.to/lastmile_qr_scan"}, "lon": -76.99977383333334, "type": "electric_scooter", "fusion_lat": 0.0, "lat": 38.83835783333333, "name": "43bbcb4da25ec5713a57aa0d621fe238", "fusion_lon": 0.0, "bike_id": "43bbcb4da25ec5713a57aa0d621fe238", "is_disabled": 0, "is_reserved": 0}, {"rental_uris": {"ios": "https://dc.lft.to/lastmile_qr_scan", "android": "https://dc.lft.to/lastmile_qr_scan"}, "lon": -77.02618783333334, "type": "electric_scooter", "fusion_lat": 0.0, "lat": 38.93398883333333, "name": "03b538253383002bf5a104b4e36be7ee", "fusion_lon": 0.0, "bike_id": "03b538253383002bf5a104b4e36be7ee", "is_disabled": 0, "is_reserved": 0}, {"rental_uris": {"ios": "https://dc.lft.to/lastmile_qr_scan", "android": "https://dc.lft.to/lastmile_qr_scan"}, "lon": -77.06990366666666, "type": "electric_scooter", "fusion_lat": 0.0, "lat": 38.95484716666667, "name": "dbf1040438eb5bba0f711134a064e411", "fusion_lon": 0.0, "bike_id": "dbf1040438eb5bba0f711134a064e411", "is_disabled": 0, "is_reserved": 0}, {"rental_uris": {"ios": "https://dc.lft.to/lastmile_qr_scan", "android": "https://dc.lft.to/lastmile_qr_scan"}, "lon": -77.063296, "type": "electric_scooter", "fusion_lat": 0.0, "lat": 38.90763366666667, "name": "a026f1f92cab6f85655373bda7b86d62", "fusion_lon": 0.0, "bike_id": "a026f1f92cab6f85655373bda7b86d62", "is_disabled": 0, "is_reserved": 0}, {"rental_uris": {"ios": "https://dc.lft.to/lastmile_qr_scan", "android": "https://dc.lft.to/lastmile_qr_scan"}, "lon": -76.9979155, "type": "electric_scooter", "fusion_lat": 0.0, "lat": 38.92184133333333, "name": "ad4104e06ae551cef9ee7c3227698516", "fusion_lon": 0.0, "bike_id": "ad4104e06ae551cef9ee7c3227698516", "is_disabled": 0, "is_reserved": 0}, {"rental_uris": {"ios": "https://dc.lft.to/lastmile_qr_scan", "android": "https://dc.lft.to/lastmile_qr_scan"}, "lon": -77.00121916666667, "type": "electric_scooter", "fusion_lat": 0.0, "lat": 38.8778195, "name": "ba985b3901ad7efb5ea27107f975509b", "fusion_lon": 0.0, "bike_id": "ba985b3901ad7efb5ea27107f975509b", "is_disabled": 0, "is_reserved": 0}, {"rental_uris": {"ios": "https://dc.lft.to/lastmile_qr_scan", "android": "https://dc.lft.to/lastmile_qr_scan"}, "lon": -76.99505016666667, "type": "electric_scooter", "fusion_lat": 0.0, "lat": 38.86248, "name": "639f993dd324ceecbe9392c054c3f698", "fusion_lon": 0.0, "bike_id": "639f993dd324ceecbe9392c054c3f698", "is_disabled": 0, "is_reserved": 0}, {"rental_uris": {"ios": "https://dc.lft.to/lastmile_qr_scan", "android": "https://dc.lft.to/lastmile_qr_scan"}, "lon": -76.95356083333333, "type": "electric_bike", "fusion_lat": 0.0, "lat": 38.93953616666667, "name": "58ec779cb4b809a38cd4e640c06825d0", "fusion_lon": 0.0, "bike_id": "58ec779cb4b809a38cd4e640c06825d0", "is_disabled": 0, "is_reserved": 0}, {"rental_uris": {"ios": "https://dc.lft.to/lastmile_qr_scan", "android": "https://dc.lft.to/lastmile_qr_scan"}, "lon": -77.03291316666666, "type": "electric_scooter", "fusion_lat": 0.0, "lat": 38.928558833333334, "name": "765b7f3cc6efce2f0d8ec93fda8bc386", "fusion_lon": 0.0, "bike_id": "765b7f3cc6efce2f0d8ec93fda8bc386", "is_disabled": 0, "is_reserved": 0}, {"rental_uris": {"ios": "https://dc.lft.to/lastmile_qr_scan", "android": "https://dc.lft.to/lastmile_qr_scan"}, "lon": -77.17842666666667, "type": "electric_bike", "fusion_lat": 0.0, "lat": 39.08855766666667, "name": "d349e4139249ce6f0ef56927335d5be0", "fusion_lon": 0.0, "bike_id": "d349e4139249ce6f0ef56927335d5be0", "is_disabled": 0, "is_reserved": 0}, {"rental_uris": {"ios": "https://dc.lft.to/lastmile_qr_scan", "android": "https://dc.lft.to/lastmile_qr_scan"}, "lon": -77.056994, "type": "electric_scooter", "fusion_lat": 0.0, "lat": 38.90542683333334, "name": "8a65de309316ef4b86c510ddae676324", "fusion_lon": 0.0, "bike_id": "8a65de309316ef4b86c510ddae676324", "is_disabled": 0, "is_reserved": 0}, {"rental_uris": {"ios": "https://dc.lft.to/lastmile_qr_scan", "android": "https://dc.lft.to/lastmile_qr_scan"}, "lon": -76.98904516666667, "type": "electric_scooter", "fusion_lat": 0.0, "lat": 38.86696283333333, "name": "9f5f654b177676a77725fe0905c3bd4a", "fusion_lon": 0.0, "bike_id": "9f5f654b177676a77725fe0905c3bd4a", "is_disabled": 0, "is_reserved": 0}, {"rental_uris": {"ios": "https://dc.lft.to/lastmile_qr_scan", "android": "https://dc.lft.to/lastmile_qr_scan"}, "lon": -77.0486855, "type": "electric_scooter", "fusion_lat": 0.0, "lat": 38.90851716666667, "name": "331162902b2d015e4a8363e22d10e9bd", "fusion_lon": 0.0, "bike_id": "331162902b2d015e4a8363e22d10e9bd", "is_disabled": 0, "is_reserved": 0}, {"rental_uris": {"ios": "https://dc.lft.to/lastmile_qr_scan", "android": "https://dc.lft.to/lastmile_qr_scan"}, "lon": -77.04774083333334, "type": "electric_bike", "fusion_lat": 0.0, "lat": 39.0531725, "name": "45487bc71832116c70443393317c1dfa", "fusion_lon": 0.0, "bike_id": "45487bc71832116c70443393317c1dfa", "is_disabled": 0, "is_reserved": 0}, {"rental_uris": {"ios": "https://dc.lft.to/lastmile_qr_scan", "android": "https://dc.lft.to/lastmile_qr_scan"}, "lon": -77.01767683333334, "type": "electric_scooter", "fusion_lat": 0.0, "lat": 38.8771855, "name": "e02f1b7b6b3964bad6ee635db3174a58", "fusion_lon": 0.0, "bike_id": "e02f1b7b6b3964bad6ee635db3174a58", "is_disabled": 0, "is_reserved": 0}, {"rental_uris": {"ios": "https://dc.lft.to/lastmile_qr_scan", "android": "https://dc.lft.to/lastmile_qr_scan"}, "lon": -77.04265016666666, "type": "electric_scooter", "fusion_lat": 0.0, "lat": 38.920580333333334, "name": "bc29e15ad21f1fb62c1414fcd9cfe876", "fusion_lon": 0.0, "bike_id": "bc29e15ad21f1fb62c1414fcd9cfe876", "is_disabled": 0, "is_reserved": 0}, {"rental_uris": {"ios": "https://dc.lft.to/lastmile_qr_scan", "android": "https://dc.lft.to/lastmile_qr_scan"}, "lon": -77.03714716666667, "type": "electric_scooter", "fusion_lat": 0.0, "lat": 38.92626766666667, "name": "ee4046990cec9430864c5066f76b8346", "fusion_lon": 0.0, "bike_id": "ee4046990cec9430864c5066f76b8346", "is_disabled": 0, "is_reserved": 0}, {"rental_uris": {"ios": "https://dc.lft.to/lastmile_qr_scan", "android": "https://dc.lft.to/lastmile_qr_scan"}, "lon": -76.98566816666667, "type": "electric_scooter", "fusion_lat": 0.0, "lat": 38.8995805, "name": "91f983affa2f36c8a8b5eaa3e0ebddcf", "fusion_lon": 0.0, "bike_id": "91f983affa2f36c8a8b5eaa3e0ebddcf", "is_disabled": 0, "is_reserved": 0}, {"rental_uris": {"ios": "https://dc.lft.to/lastmile_qr_scan", "android": "https://dc.lft.to/lastmile_qr_scan"}, "lon": -77.096733, "type": "electric_scooter", "fusion_lat": 0.0, "lat": 38.917683833333335, "name": "04872ec82e0b6d37c465dbe5fecaf60e", "fusion_lon": 0.0, "bike_id": "04872ec82e0b6d37c465dbe5fecaf60e", "is_disabled": 0, "is_reserved": 0}, {"rental_uris": {"ios": "https://dc.lft.to/lastmile_qr_scan", "android": "https://dc.lft.to/lastmile_qr_scan"}, "lon": -77.03225983333333, "type": "electric_scooter", "fusion_lat": 0.0, "lat": 38.9086795, "name": "0305e595236c8ee68832bd3b4448a9a6", "fusion_lon": 0.0, "bike_id": "0305e595236c8ee68832bd3b4448a9a6", "is_disabled": 0, "is_reserved": 0}, {"rental_uris": {"ios": "https://dc.lft.to/lastmile_qr_scan", "android": "https://dc.lft.to/lastmile_qr_scan"}, "lon": -76.98886333333333, "type": "electric_scooter", "fusion_lat": 0.0, "lat": 38.866572, "name": "16465d224f11041576bf99f492b8d1c7", "fusion_lon": 0.0, "bike_id": "16465d224f11041576bf99f492b8d1c7", "is_disabled": 0, "is_reserved": 0}, {"rental_uris": {"ios": "https://dc.lft.to/lastmile_qr_scan", "android": "https://dc.lft.to/lastmile_qr_scan"}, "lon": -76.98594133333333, "type": "electric_bike", "fusion_lat": 0.0, "lat": 38.906184333333336, "name": "e9c2e2256d4808d3cd5ecde7faa2cde6", "fusion_lon": 0.0, "bike_id": "e9c2e2256d4808d3cd5ecde7faa2cde6", "is_disabled": 0, "is_reserved": 0}, {"rental_uris": {"ios": "https://dc.lft.to/lastmile_qr_scan", "android": "https://dc.lft.to/lastmile_qr_scan"}, "lon": -77.01388733333333, "type": "electric_scooter", "fusion_lat": 0.0, "lat": 38.919451333333335, "name": "0bf68738fcfae00d2ad9dc0cc587079a", "fusion_lon": 0.0, "bike_id": "0bf68738fcfae00d2ad9dc0cc587079a", "is_disabled": 0, "is_reserved": 0}, {"rental_uris": {"ios": "https://dc.lft.to/lastmile_qr_scan", "android": "https://dc.lft.to/lastmile_qr_scan"}, "lon": -76.9770065, "type": "electric_scooter", "fusion_lat": 0.0, "lat": 38.902445, "name": "cfe64a6cbacf63505f78412a925dabee", "fusion_lon": 0.0, "bike_id": "cfe64a6cbacf63505f78412a925dabee", "is_disabled": 0, "is_reserved": 0}, {"rental_uris": {"ios": "https://dc.lft.to/lastmile_qr_scan", "android": "https://dc.lft.to/lastmile_qr_scan"}, "lon": -76.9374645, "type": "electric_scooter", "fusion_lat": 0.0, "lat": 38.91277916666667, "name": "a09add4bd2bd236b79b021da38f8c22d", "fusion_lon": 0.0, "bike_id": "a09add4bd2bd236b79b021da38f8c22d", "is_disabled": 0, "is_reserved": 0}, {"rental_uris": {"ios": "https://dc.lft.to/lastmile_qr_scan", "android": "https://dc.lft.to/lastmile_qr_scan"}, "lon": -77.03285316666667, "type": "electric_scooter", "fusion_lat": 0.0, "lat": 38.934867833333335, "name": "ebc15aa488355a712016e2808dee308c", "fusion_lon": 0.0, "bike_id": "ebc15aa488355a712016e2808dee308c", "is_disabled": 0, "is_reserved": 0}, {"rental_uris": {"ios": "https://dc.lft.to/lastmile_qr_scan", "android": "https://dc.lft.to/lastmile_qr_scan"}, "lon": -77.02233516666666, "type": "electric_scooter", "fusion_lat": 0.0, "lat": 38.89192633333333, "name": "33f549e0b64a6f7c13675376f8148805", "fusion_lon": 0.0, "bike_id": "33f549e0b64a6f7c13675376f8148805", "is_disabled": 0, "is_reserved": 0}, {"rental_uris": {"ios": "https://dc.lft.to/lastmile_qr_scan", "android": "https://dc.lft.to/lastmile_qr_scan"}, "lon": -76.98592483333333, "type": "electric_scooter", "fusion_lat": 0.0, "lat": 38.899279666666665, "name": "1e62d1a7d83bff10ce30ed007a59d095", "fusion_lon": 0.0, "bike_id": "1e62d1a7d83bff10ce30ed007a59d095", "is_disabled": 0, "is_reserved": 0}, {"rental_uris": {"ios": "https://dc.lft.to/lastmile_qr_scan", "android": "https://dc.lft.to/lastmile_qr_scan"}, "lon": -77.00070166666667, "type": "electric_scooter", "fusion_lat": 0.0, "lat": 38.92550766666667, "name": "b47dc501b69b439f56dce7bb93aa9bb9", "fusion_lon": 0.0, "bike_id": "b47dc501b69b439f56dce7bb93aa9bb9", "is_disabled": 0, "is_reserved": 0}, {"rental_uris": {"ios": "https://dc.lft.to/lastmile_qr_scan", "android": "https://dc.lft.to/lastmile_qr_scan"}, "lon": -77.048134, "type": "electric_scooter", "fusion_lat": 0.0, "lat": 38.92028666666667, "name": "407dcc464dce1512d223fc54a1d5ed5d", "fusion_lon": 0.0, "bike_id": "407dcc464dce1512d223fc54a1d5ed5d", "is_disabled": 0, "is_reserved": 0}, {"rental_uris": {"ios": "https://dc.lft.to/lastmile_qr_scan", "android": "https://dc.lft.to/lastmile_qr_scan"}, "lon": -77.02336883333334, "type": "electric_scooter", "fusion_lat": 0.0, "lat": 38.93049966666667, "name": "13c0e89d84288475c833fdc0f3cca515", "fusion_lon": 0.0, "bike_id": "13c0e89d84288475c833fdc0f3cca515", "is_disabled": 0, "is_reserved": 0}, {"rental_uris": {"ios": "https://dc.lft.to/lastmile_qr_scan", "android": "https://dc.lft.to/lastmile_qr_scan"}, "lon": -77.037282, "type": "electric_scooter", "fusion_lat": 0.0, "lat": 38.910421, "name": "791adcd40782d384c338869853fbb375", "fusion_lon": 0.0, "bike_id": "791adcd40782d384c338869853fbb375", "is_disabled": 0, "is_reserved": 0}, {"rental_uris": {"ios": "https://dc.lft.to/lastmile_qr_scan", "android": "https://dc.lft.to/lastmile_qr_scan"}, "lon": -77.0401375, "type": "electric_scooter", "fusion_lat": 0.0, "lat": 38.93253816666667, "name": "d7b8157ad9b4fed088ff2e929fdc9bb3", "fusion_lon": 0.0, "bike_id": "d7b8157ad9b4fed088ff2e929fdc9bb3", "is_disabled": 0, "is_reserved": 0}, {"rental_uris": {"ios": "https://dc.lft.to/lastmile_qr_scan", "android": "https://dc.lft.to/lastmile_qr_scan"}, "lon": -77.02123566666667, "type": "electric_scooter", "fusion_lat": 0.0, "lat": 38.91420983333333, "name": "00d58fad3796cbd829e1464b22d8560c", "fusion_lon": 0.0, "bike_id": "00d58fad3796cbd829e1464b22d8560c", "is_disabled": 0, "is_reserved": 0}, {"rental_uris": {"ios": "https://dc.lft.to/lastmile_qr_scan", "android": "https://dc.lft.to/lastmile_qr_scan"}, "lon": -77.0221435, "type": "electric_scooter", "fusion_lat": 0.0, "lat": 38.89783083333333, "name": "4bd04b418b578a8a87d8a812addf49d8", "fusion_lon": 0.0, "bike_id": "4bd04b418b578a8a87d8a812addf49d8", "is_disabled": 0, "is_reserved": 0}, {"rental_uris": {"ios": "https://dc.lft.to/lastmile_qr_scan", "android": "https://dc.lft.to/lastmile_qr_scan"}, "lon": -76.99664966666667, "type": "electric_scooter", "fusion_lat": 0.0, "lat": 38.9003355, "name": "70905537ae25e1a82cfd9d56b91b6297", "fusion_lon": 0.0, "bike_id": "70905537ae25e1a82cfd9d56b91b6297", "is_disabled": 0, "is_reserved": 0}, {"rental_uris": {"ios": "https://dc.lft.to/lastmile_qr_scan", "android": "https://dc.lft.to/lastmile_qr_scan"}, "lon": -77.03852433333333, "type": "electric_scooter", "fusion_lat": 0.0, "lat": 38.9202265, "name": "382e78f68d223e25aec3e8aac84ed733", "fusion_lon": 0.0, "bike_id": "382e78f68d223e25aec3e8aac84ed733", "is_disabled": 0, "is_reserved": 0}, {"rental_uris": {"ios": "https://dc.lft.to/lastmile_qr_scan", "android": "https://dc.lft.to/lastmile_qr_scan"}, "lon": -76.9489045, "type": "electric_scooter", "fusion_lat": 0.0, "lat": 38.89530283333333, "name": "c9ff8e9076e0dd7e244414e89ef35ab4", "fusion_lon": 0.0, "bike_id": "c9ff8e9076e0dd7e244414e89ef35ab4", "is_disabled": 0, "is_reserved": 0}, {"rental_uris": {"ios": "https://dc.lft.to/lastmile_qr_scan", "android": "https://dc.lft.to/lastmile_qr_scan"}, "lon": -77.00296483333334, "type": "electric_scooter", "fusion_lat": 0.0, "lat": 38.90910066666667, "name": "b37970e53e6d2446ce2259e1935e3adf", "fusion_lon": 0.0, "bike_id": "b37970e53e6d2446ce2259e1935e3adf", "is_disabled": 0, "is_reserved": 0}, {"rental_uris": {"ios": "https://dc.lft.to/lastmile_qr_scan", "android": "https://dc.lft.to/lastmile_qr_scan"}, "lon": -77.01615333333334, "type": "electric_scooter", "fusion_lat": 0.0, "lat": 38.89966583333333, "name": "76dafc685455290b0eebe78d02b34963", "fusion_lon": 0.0, "bike_id": "76dafc685455290b0eebe78d02b34963", "is_disabled": 0, "is_reserved": 0}, {"rental_uris": {"ios": "https://dc.lft.to/lastmile_qr_scan", "android": "https://dc.lft.to/lastmile_qr_scan"}, "lon": -77.023616, "type": "electric_scooter", "fusion_lat": 0.0, "lat": 38.945186666666665, "name": "033b8ae9ff1aae98d859429f9f7fd891", "fusion_lon": 0.0, "bike_id": "033b8ae9ff1aae98d859429f9f7fd891", "is_disabled": 0, "is_reserved": 0}, {"rental_uris": {"ios": "https://dc.lft.to/lastmile_qr_scan", "android": "https://dc.lft.to/lastmile_qr_scan"}, "lon": -77.058864, "type": "electric_scooter", "fusion_lat": 0.0, "lat": 38.936350833333336, "name": "aff6852e7c64458c943891e48f2a5c49", "fusion_lon": 0.0, "bike_id": "aff6852e7c64458c943891e48f2a5c49", "is_disabled": 0, "is_reserved": 0}, {"rental_uris": {"ios": "https://dc.lft.to/lastmile_qr_scan", "android": "https://dc.lft.to/lastmile_qr_scan"}, "lon": -77.03168133333334, "type": "electric_scooter", "fusion_lat": 0.0, "lat": 38.92109583333333, "name": "853579a1ee5c4f5f257db52c0761d5f4", "fusion_lon": 0.0, "bike_id": "853579a1ee5c4f5f257db52c0761d5f4", "is_disabled": 0, "is_reserved": 0}, {"rental_uris": {"ios": "https://dc.lft.to/lastmile_qr_scan", "android": "https://dc.lft.to/lastmile_qr_scan"}, "lon": -76.99519916666667, "type": "electric_scooter", "fusion_lat": 0.0, "lat": 38.86260633333333, "name": "b565dc12e17444486a3ef857965a7280", "fusion_lon": 0.0, "bike_id": "b565dc12e17444486a3ef857965a7280", "is_disabled": 0, "is_reserved": 0}, {"rental_uris": {"ios": "https://dc.lft.to/lastmile_qr_scan", "android": "https://dc.lft.to/lastmile_qr_scan"}, "lon": -77.03761033333333, "type": "electric_scooter", "fusion_lat": 0.0, "lat": 38.92873516666667, "name": "03c16f0f63b43c73908004115e7ae960", "fusion_lon": 0.0, "bike_id": "03c16f0f63b43c73908004115e7ae960", "is_disabled": 0, "is_reserved": 0}, {"rental_uris": {"ios": "https://dc.lft.to/lastmile_qr_scan", "android": "https://dc.lft.to/lastmile_qr_scan"}, "lon": -77.021538, "type": "electric_scooter", "fusion_lat": 0.0, "lat": 38.8963345, "name": "111d651d5cdbe48bf77881f9ad4657db", "fusion_lon": 0.0, "bike_id": "111d651d5cdbe48bf77881f9ad4657db", "is_disabled": 0, "is_reserved": 0}, {"rental_uris": {"ios": "https://dc.lft.to/lastmile_qr_scan", "android": "https://dc.lft.to/lastmile_qr_scan"}, "lon": -77.0318075, "type": "electric_scooter", "fusion_lat": 0.0, "lat": 38.90973683333333, "name": "83d71b1ea7840ab682617f57f9269872", "fusion_lon": 0.0, "bike_id": "83d71b1ea7840ab682617f57f9269872", "is_disabled": 0, "is_reserved": 0}, {"rental_uris": {"ios": "https://dc.lft.to/lastmile_qr_scan", "android": "https://dc.lft.to/lastmile_qr_scan"}, "lon": -77.021645, "type": "electric_scooter", "fusion_lat": 0.0, "lat": 38.9261165, "name": "468883b1073429072491f2e1b4bf3c17", "fusion_lon": 0.0, "bike_id": "468883b1073429072491f2e1b4bf3c17", "is_disabled": 0, "is_reserved": 0}, {"rental_uris": {"ios": "https://dc.lft.to/lastmile_qr_scan", "android": "https://dc.lft.to/lastmile_qr_scan"}, "lon": -77.03222816666667, "type": "electric_scooter", "fusion_lat": 0.0, "lat": 38.917131, "name": "d31d0a10fbdcfb059b0d62c77fe67ac4", "fusion_lon": 0.0, "bike_id": "d31d0a10fbdcfb059b0d62c77fe67ac4", "is_disabled": 0, "is_reserved": 0}, {"rental_uris": {"ios": "https://dc.lft.to/lastmile_qr_scan", "android": "https://dc.lft.to/lastmile_qr_scan"}, "lon": -77.00216633333334, "type": "electric_scooter", "fusion_lat": 0.0, "lat": 38.911029666666664, "name": "2b3ef4c8d92199936271d6af57b04955", "fusion_lon": 0.0, "bike_id": "2b3ef4c8d92199936271d6af57b04955", "is_disabled": 0, "is_reserved": 0}, {"rental_uris": {"ios": "https://dc.lft.to/lastmile_qr_scan", "android": "https://dc.lft.to/lastmile_qr_scan"}, "lon": -77.0378485, "type": "electric_scooter", "fusion_lat": 0.0, "lat": 38.93022083333334, "name": "830e96b09ca60ac9558705b31a960576", "fusion_lon": 0.0, "bike_id": "830e96b09ca60ac9558705b31a960576", "is_disabled": 0, "is_reserved": 0}, {"rental_uris": {"ios": "https://dc.lft.to/lastmile_qr_scan", "android": "https://dc.lft.to/lastmile_qr_scan"}, "lon": -77.0301665, "type": "electric_scooter", "fusion_lat": 0.0, "lat": 38.920457999999996, "name": "ee5051276d9f5513f35cc0b3e3616a07", "fusion_lon": 0.0, "bike_id": "ee5051276d9f5513f35cc0b3e3616a07", "is_disabled": 0, "is_reserved": 0}, {"rental_uris": {"ios": "https://dc.lft.to/lastmile_qr_scan", "android": "https://dc.lft.to/lastmile_qr_scan"}, "lon": -77.0426035, "type": "electric_scooter", "fusion_lat": 0.0, "lat": 38.91599733333334, "name": "62a122f783f755185941283dbead7a23", "fusion_lon": 0.0, "bike_id": "62a122f783f755185941283dbead7a23", "is_disabled": 0, "is_reserved": 0}, {"rental_uris": {"ios": "https://dc.lft.to/lastmile_qr_scan", "android": "https://dc.lft.to/lastmile_qr_scan"}, "lon": -77.03446883333334, "type": "electric_scooter", "fusion_lat": 0.0, "lat": 38.907357166666664, "name": "fe1746b249eb12d264c49ea6ce1ccfbe", "fusion_lon": 0.0, "bike_id": "fe1746b249eb12d264c49ea6ce1ccfbe", "is_disabled": 0, "is_reserved": 0}, {"rental_uris": {"ios": "https://dc.lft.to/lastmile_qr_scan", "android": "https://dc.lft.to/lastmile_qr_scan"}, "lon": -77.02231783333333, "type": "electric_scooter", "fusion_lat": 0.0, "lat": 38.9142335, "name": "523dcc9914b672b2926e55bef1d504a9", "fusion_lon": 0.0, "bike_id": "523dcc9914b672b2926e55bef1d504a9", "is_disabled": 0, "is_reserved": 0}, {"rental_uris": {"ios": "https://dc.lft.to/lastmile_qr_scan", "android": "https://dc.lft.to/lastmile_qr_scan"}, "lon": -76.987159, "type": "electric_scooter", "fusion_lat": 0.0, "lat": 38.867026833333334, "name": "666f59112747d0149375f9018ed3fede", "fusion_lon": 0.0, "bike_id": "666f59112747d0149375f9018ed3fede", "is_disabled": 0, "is_reserved": 0}, {"rental_uris": {"ios": "https://dc.lft.to/lastmile_qr_scan", "android": "https://dc.lft.to/lastmile_qr_scan"}, "lon": -77.05883133333333, "type": "electric_scooter", "fusion_lat": 0.0, "lat": 38.936359, "name": "eadff52fae53d10fd2d964f4f0d71f86", "fusion_lon": 0.0, "bike_id": "eadff52fae53d10fd2d964f4f0d71f86", "is_disabled": 0, "is_reserved": 0}, {"rental_uris": {"ios": "https://dc.lft.to/lastmile_qr_scan", "android": "https://dc.lft.to/lastmile_qr_scan"}, "lon": -77.02296566666666, "type": "electric_scooter", "fusion_lat": 0.0, "lat": 38.927586166666664, "name": "761754db17c47cb5311a699d82849053", "fusion_lon": 0.0, "bike_id": "761754db17c47cb5311a699d82849053", "is_disabled": 0, "is_reserved": 0}, {"rental_uris": {"ios": "https://dc.lft.to/lastmile_qr_scan", "android": "https://dc.lft.to/lastmile_qr_scan"}, "lon": -77.038062, "type": "electric_scooter", "fusion_lat": 0.0, "lat": 38.905551833333334, "name": "480787b2e2bb33a11ac65215a8365671", "fusion_lon": 0.0, "bike_id": "480787b2e2bb33a11ac65215a8365671", "is_disabled": 0, "is_reserved": 0}, {"rental_uris": {"ios": "https://dc.lft.to/lastmile_qr_scan", "android": "https://dc.lft.to/lastmile_qr_scan"}, "lon": -77.048208, "type": "electric_scooter", "fusion_lat": 0.0, "lat": 38.89611983333333, "name": "ef09fd671acb193c3ac628c848e96283", "fusion_lon": 0.0, "bike_id": "ef09fd671acb193c3ac628c848e96283", "is_disabled": 0, "is_reserved": 0}, {"rental_uris": {"ios": "https://dc.lft.to/lastmile_qr_scan", "android": "https://dc.lft.to/lastmile_qr_scan"}, "lon": -77.02224366666667, "type": "electric_scooter", "fusion_lat": 0.0, "lat": 38.938730166666666, "name": "d912f9aba4e7ba546ca8954a4a997ff4", "fusion_lon": 0.0, "bike_id": "d912f9aba4e7ba546ca8954a4a997ff4", "is_disabled": 0, "is_reserved": 0}, {"rental_uris": {"ios": "https://dc.lft.to/lastmile_qr_scan", "android": "https://dc.lft.to/lastmile_qr_scan"}, "lon": -77.04130483333333, "type": "electric_scooter", "fusion_lat": 0.0, "lat": 38.92215216666666, "name": "bd0a2389a6101b778e2cab403d6c19fc", "fusion_lon": 0.0, "bike_id": "bd0a2389a6101b778e2cab403d6c19fc", "is_disabled": 0, "is_reserved": 0}, {"rental_uris": {"ios": "https://dc.lft.to/lastmile_qr_scan", "android": "https://dc.lft.to/lastmile_qr_scan"}, "lon": -77.0451585, "type": "electric_scooter", "fusion_lat": 0.0, "lat": 38.912865833333335, "name": "88ce4c9a8a11aa6b6d6fc3cb9b65cb31", "fusion_lon": 0.0, "bike_id": "88ce4c9a8a11aa6b6d6fc3cb9b65cb31", "is_disabled": 0, "is_reserved": 0}, {"rental_uris": {"ios": "https://dc.lft.to/lastmile_qr_scan", "android": "https://dc.lft.to/lastmile_qr_scan"}, "lon": -77.039847, "type": "electric_scooter", "fusion_lat": 0.0, "lat": 38.90307716666667, "name": "e510db98460f77f744ffd9381ecb2f13", "fusion_lon": 0.0, "bike_id": "e510db98460f77f744ffd9381ecb2f13", "is_disabled": 0, "is_reserved": 0}, {"rental_uris": {"ios": "https://dc.lft.to/lastmile_qr_scan", "android": "https://dc.lft.to/lastmile_qr_scan"}, "lon": -76.99949783333334, "type": "electric_scooter", "fusion_lat": 0.0, "lat": 38.842911, "name": "fa564fda3cb146606874c81c5ce69c0f", "fusion_lon": 0.0, "bike_id": "fa564fda3cb146606874c81c5ce69c0f", "is_disabled": 0, "is_reserved": 0}, {"rental_uris": {"ios": "https://dc.lft.to/lastmile_qr_scan", "android": "https://dc.lft.to/lastmile_qr_scan"}, "lon": -77.016396, "type": "electric_scooter", "fusion_lat": 0.0, "lat": 38.90372816666667, "name": "460d0d551cbb45518af3ec7d70876484", "fusion_lon": 0.0, "bike_id": "460d0d551cbb45518af3ec7d70876484", "is_disabled": 0, "is_reserved": 0}, {"rental_uris": {"ios": "https://dc.lft.to/lastmile_qr_scan", "android": "https://dc.lft.to/lastmile_qr_scan"}, "lon": -77.06366833333334, "type": "electric_scooter", "fusion_lat": 0.0, "lat": 38.9092935, "name": "de7bccecb52fb92e4068a09bf8eb2daa", "fusion_lon": 0.0, "bike_id": "de7bccecb52fb92e4068a09bf8eb2daa", "is_disabled": 0, "is_reserved": 0}, {"rental_uris": {"ios": "https://dc.lft.to/lastmile_qr_scan", "android": "https://dc.lft.to/lastmile_qr_scan"}, "lon": -77.00198783333333, "type": "electric_scooter", "fusion_lat": 0.0, "lat": 38.908347, "name": "d22730e68fca63250825ede2ed241d27", "fusion_lon": 0.0, "bike_id": "d22730e68fca63250825ede2ed241d27", "is_disabled": 0, "is_reserved": 0}, {"rental_uris": {"ios": "https://dc.lft.to/lastmile_qr_scan", "android": "https://dc.lft.to/lastmile_qr_scan"}, "lon": -77.04072716666667, "type": "electric_scooter", "fusion_lat": 0.0, "lat": 38.926541, "name": "68258a8c504e56d8a412382e3538e8ce", "fusion_lon": 0.0, "bike_id": "68258a8c504e56d8a412382e3538e8ce", "is_disabled": 0, "is_reserved": 0}, {"rental_uris": {"ios": "https://dc.lft.to/lastmile_qr_scan", "android": "https://dc.lft.to/lastmile_qr_scan"}, "lon": -77.00935833333334, "type": "electric_scooter", "fusion_lat": 0.0, "lat": 38.872003666666664, "name": "ebd9068f37ab26e2aa26e63f1dc000a0", "fusion_lon": 0.0, "bike_id": "ebd9068f37ab26e2aa26e63f1dc000a0", "is_disabled": 0, "is_reserved": 0}, {"rental_uris": {"ios": "https://dc.lft.to/lastmile_qr_scan", "android": "https://dc.lft.to/lastmile_qr_scan"}, "lon": -77.02605416666667, "type": "electric_scooter", "fusion_lat": 0.0, "lat": 38.90222583333333, "name": "8b2bcc436d02ceb0a510672249efd11c", "fusion_lon": 0.0, "bike_id": "8b2bcc436d02ceb0a510672249efd11c", "is_disabled": 0, "is_reserved": 0}, {"rental_uris": {"ios": "https://dc.lft.to/lastmile_qr_scan", "android": "https://dc.lft.to/lastmile_qr_scan"}, "lon": -77.07044966666666, "type": "electric_bike", "fusion_lat": 0.0, "lat": 38.824430666666665, "name": "db55ee6a7937a845d450a39ed24105a3", "fusion_lon": 0.0, "bike_id": "db55ee6a7937a845d450a39ed24105a3", "is_disabled": 0, "is_reserved": 0}, {"rental_uris": {"ios": "https://dc.lft.to/lastmile_qr_scan", "android": "https://dc.lft.to/lastmile_qr_scan"}, "lon": -76.93242566666666, "type": "electric_bike", "fusion_lat": 0.0, "lat": 38.88277766666667, "name": "cf4273b886ad517701f3ac9054ac53c4", "fusion_lon": 0.0, "bike_id": "cf4273b886ad517701f3ac9054ac53c4", "is_disabled": 0, "is_reserved": 0}, {"rental_uris": {"ios": "https://dc.lft.to/lastmile_qr_scan", "android": "https://dc.lft.to/lastmile_qr_scan"}, "lon": -77.05499966666666, "type": "electric_scooter", "fusion_lat": 0.0, "lat": 38.929687333333334, "name": "cdb2a3b3947f8c3d9af8c6fd8639d873", "fusion_lon": 0.0, "bike_id": "cdb2a3b3947f8c3d9af8c6fd8639d873", "is_disabled": 0, "is_reserved": 0}, {"rental_uris": {"ios": "https://dc.lft.to/lastmile_qr_scan", "android": "https://dc.lft.to/lastmile_qr_scan"}, "lon": -77.03221316666666, "type": "electric_scooter", "fusion_lat": 0.0, "lat": 38.92061266666666, "name": "a92e5db1bbd6cccfbc5d51937659098d", "fusion_lon": 0.0, "bike_id": "a92e5db1bbd6cccfbc5d51937659098d", "is_disabled": 0, "is_reserved": 0}, {"rental_uris": {"ios": "https://dc.lft.to/lastmile_qr_scan", "android": "https://dc.lft.to/lastmile_qr_scan"}, "lon": -77.05048166666667, "type": "electric_scooter", "fusion_lat": 0.0, "lat": 38.92361266666666, "name": "adaecb317ed9914947dfd8330ae3eb43", "fusion_lon": 0.0, "bike_id": "adaecb317ed9914947dfd8330ae3eb43", "is_disabled": 0, "is_reserved": 0}, {"rental_uris": {"ios": "https://dc.lft.to/lastmile_qr_scan", "android": "https://dc.lft.to/lastmile_qr_scan"}, "lon": -77.0709635, "type": "electric_scooter", "fusion_lat": 0.0, "lat": 38.93364916666667, "name": "9b1d4c66be7020ec5e0206fd5518fc65", "fusion_lon": 0.0, "bike_id": "9b1d4c66be7020ec5e0206fd5518fc65", "is_disabled": 0, "is_reserved": 0}, {"rental_uris": {"ios": "https://dc.lft.to/lastmile_qr_scan", "android": "https://dc.lft.to/lastmile_qr_scan"}, "lon": -77.03628683333334, "type": "electric_scooter", "fusion_lat": 0.0, "lat": 38.902757666666666, "name": "4530cacdab7489e2e08eff62e8382701", "fusion_lon": 0.0, "bike_id": "4530cacdab7489e2e08eff62e8382701", "is_disabled": 0, "is_reserved": 0}, {"rental_uris": {"ios": "https://dc.lft.to/lastmile_qr_scan", "android": "https://dc.lft.to/lastmile_qr_scan"}, "lon": -76.99143666666667, "type": "electric_scooter", "fusion_lat": 0.0, "lat": 38.90025416666667, "name": "b3bd078b492b65b88589a9ee396b06a2", "fusion_lon": 0.0, "bike_id": "b3bd078b492b65b88589a9ee396b06a2", "is_disabled": 0, "is_reserved": 0}, {"rental_uris": {"ios": "https://dc.lft.to/lastmile_qr_scan", "android": "https://dc.lft.to/lastmile_qr_scan"}, "lon": -77.02362583333333, "type": "electric_scooter", "fusion_lat": 0.0, "lat": 38.935487, "name": "f4da35e4bcc921b77f3d784f4d37b57a", "fusion_lon": 0.0, "bike_id": "f4da35e4bcc921b77f3d784f4d37b57a", "is_disabled": 0, "is_reserved": 0}, {"rental_uris": {"ios": "https://dc.lft.to/lastmile_qr_scan", "android": "https://dc.lft.to/lastmile_qr_scan"}, "lon": -77.05210616666666, "type": "electric_scooter", "fusion_lat": 0.0, "lat": 38.92438583333333, "name": "bfc4de2108c553a98af3ad0afee6d997", "fusion_lon": 0.0, "bike_id": "bfc4de2108c553a98af3ad0afee6d997", "is_disabled": 0, "is_reserved": 0}, {"rental_uris": {"ios": "https://dc.lft.to/lastmile_qr_scan", "android": "https://dc.lft.to/lastmile_qr_scan"}, "lon": -76.98658233333333, "type": "electric_scooter", "fusion_lat": 0.0, "lat": 38.900211166666665, "name": "44377a3ff704aa54d1a4837acbb534dd", "fusion_lon": 0.0, "bike_id": "44377a3ff704aa54d1a4837acbb534dd", "is_disabled": 0, "is_reserved": 0}, {"rental_uris": {"ios": "https://dc.lft.to/lastmile_qr_scan", "android": "https://dc.lft.to/lastmile_qr_scan"}, "lon": -77.02756983333333, "type": "electric_scooter", "fusion_lat": 0.0, "lat": 38.971433166666664, "name": "35cff3473ab03f349d15c42a773946cb", "fusion_lon": 0.0, "bike_id": "35cff3473ab03f349d15c42a773946cb", "is_disabled": 0, "is_reserved": 0}, {"rental_uris": {"ios": "https://dc.lft.to/lastmile_qr_scan", "android": "https://dc.lft.to/lastmile_qr_scan"}, "lon": -77.04371966666666, "type": "electric_scooter", "fusion_lat": 0.0, "lat": 38.910362166666665, "name": "22cc9ee3eee724304bc458ab4c276d9b", "fusion_lon": 0.0, "bike_id": "22cc9ee3eee724304bc458ab4c276d9b", "is_disabled": 0, "is_reserved": 0}, {"rental_uris": {"ios": "https://dc.lft.to/lastmile_qr_scan", "android": "https://dc.lft.to/lastmile_qr_scan"}, "lon": -77.04189816666667, "type": "electric_scooter", "fusion_lat": 0.0, "lat": 38.921933833333334, "name": "1e62c0949604ad428919df71c05038a2", "fusion_lon": 0.0, "bike_id": "1e62c0949604ad428919df71c05038a2", "is_disabled": 0, "is_reserved": 0}, {"rental_uris": {"ios": "https://dc.lft.to/lastmile_qr_scan", "android": "https://dc.lft.to/lastmile_qr_scan"}, "lon": -77.0532405, "type": "electric_scooter", "fusion_lat": 0.0, "lat": 38.90182883333333, "name": "262c4ececc5f9e8e7e90c895cdbce43c", "fusion_lon": 0.0, "bike_id": "262c4ececc5f9e8e7e90c895cdbce43c", "is_disabled": 0, "is_reserved": 0}, {"rental_uris": {"ios": "https://dc.lft.to/lastmile_qr_scan", "android": "https://dc.lft.to/lastmile_qr_scan"}, "lon": -76.99613183333334, "type": "electric_scooter", "fusion_lat": 0.0, "lat": 38.897416166666666, "name": "da21cfe30ef569eb7ce0d9b7801d9c00", "fusion_lon": 0.0, "bike_id": "da21cfe30ef569eb7ce0d9b7801d9c00", "is_disabled": 0, "is_reserved": 0}, {"rental_uris": {"ios": "https://dc.lft.to/lastmile_qr_scan", "android": "https://dc.lft.to/lastmile_qr_scan"}, "lon": -77.04219216666667, "type": "electric_scooter", "fusion_lat": 0.0, "lat": 38.92111333333333, "name": "b91a11a03620848e8ccf5c7f00af4095", "fusion_lon": 0.0, "bike_id": "b91a11a03620848e8ccf5c7f00af4095", "is_disabled": 0, "is_reserved": 0}, {"rental_uris": {"ios": "https://dc.lft.to/lastmile_qr_scan", "android": "https://dc.lft.to/lastmile_qr_scan"}, "lon": -77.0649545, "type": "electric_bike", "fusion_lat": 0.0, "lat": 38.964958, "name": "9cc19a9265de5d021d3a65757dc6856c", "fusion_lon": 0.0, "bike_id": "9cc19a9265de5d021d3a65757dc6856c", "is_disabled": 0, "is_reserved": 0}, {"rental_uris": {"ios": "https://dc.lft.to/lastmile_qr_scan", "android": "https://dc.lft.to/lastmile_qr_scan"}, "lon": -76.98374316666667, "type": "electric_scooter", "fusion_lat": 0.0, "lat": 38.91509966666667, "name": "a530b36f20723bf53bc09a2675588359", "fusion_lon": 0.0, "bike_id": "a530b36f20723bf53bc09a2675588359", "is_disabled": 0, "is_reserved": 0}, {"rental_uris": {"ios": "https://dc.lft.to/lastmile_qr_scan", "android": "https://dc.lft.to/lastmile_qr_scan"}, "lon": -77.03450066666667, "type": "electric_scooter", "fusion_lat": 0.0, "lat": 38.91875133333333, "name": "b02624bb97e9387b1718fdd7e9c98437", "fusion_lon": 0.0, "bike_id": "b02624bb97e9387b1718fdd7e9c98437", "is_disabled": 0, "is_reserved": 0}, {"rental_uris": {"ios": "https://dc.lft.to/lastmile_qr_scan", "android": "https://dc.lft.to/lastmile_qr_scan"}, "lon": -77.02206533333333, "type": "electric_scooter", "fusion_lat": 0.0, "lat": 38.90543483333333, "name": "49fb6936d9a6f4ea704f07272db552db", "fusion_lon": 0.0, "bike_id": "49fb6936d9a6f4ea704f07272db552db", "is_disabled": 0, "is_reserved": 0}, {"rental_uris": {"ios": "https://dc.lft.to/lastmile_qr_scan", "android": "https://dc.lft.to/lastmile_qr_scan"}, "lon": -77.03143183333333, "type": "electric_scooter", "fusion_lat": 0.0, "lat": 38.9237975, "name": "263025172b9439738b5fffe19d9408de", "fusion_lon": 0.0, "bike_id": "263025172b9439738b5fffe19d9408de", "is_disabled": 0, "is_reserved": 0}, {"rental_uris": {"ios": "https://dc.lft.to/lastmile_qr_scan", "android": "https://dc.lft.to/lastmile_qr_scan"}, "lon": -77.04866416666667, "type": "electric_scooter", "fusion_lat": 0.0, "lat": 38.908493, "name": "126a9cdf9111e4feba4800dea40b41d1", "fusion_lon": 0.0, "bike_id": "126a9cdf9111e4feba4800dea40b41d1", "is_disabled": 0, "is_reserved": 0}, {"rental_uris": {"ios": "https://dc.lft.to/lastmile_qr_scan", "android": "https://dc.lft.to/lastmile_qr_scan"}, "lon": -76.99382366666667, "type": "electric_scooter", "fusion_lat": 0.0, "lat": 38.88745333333333, "name": "46a2a78a8fe25ce8aad8140f09d218c5", "fusion_lon": 0.0, "bike_id": "46a2a78a8fe25ce8aad8140f09d218c5", "is_disabled": 0, "is_reserved": 0}, {"rental_uris": {"ios": "https://dc.lft.to/lastmile_qr_scan", "android": "https://dc.lft.to/lastmile_qr_scan"}, "lon": -77.03225183333333, "type": "electric_scooter", "fusion_lat": 0.0, "lat": 38.92662283333333, "name": "0382eb1bf23f9cd3c28af132aff85f37", "fusion_lon": 0.0, "bike_id": "0382eb1bf23f9cd3c28af132aff85f37", "is_disabled": 0, "is_reserved": 0}, {"rental_uris": {"ios": "https://dc.lft.to/lastmile_qr_scan", "android": "https://dc.lft.to/lastmile_qr_scan"}, "lon": -77.041491, "type": "electric_scooter", "fusion_lat": 0.0, "lat": 38.9229585, "name": "aca0e1df9ffb1f9d0a90229d19f4e820", "fusion_lon": 0.0, "bike_id": "aca0e1df9ffb1f9d0a90229d19f4e820", "is_disabled": 0, "is_reserved": 0}, {"rental_uris": {"ios": "https://dc.lft.to/lastmile_qr_scan", "android": "https://dc.lft.to/lastmile_qr_scan"}, "lon": -76.9442015, "type": "electric_scooter", "fusion_lat": 0.0, "lat": 38.8979395, "name": "22ed5d89c9c2f72905f94c4f6e9586bc", "fusion_lon": 0.0, "bike_id": "22ed5d89c9c2f72905f94c4f6e9586bc", "is_disabled": 0, "is_reserved": 0}, {"rental_uris": {"ios": "https://dc.lft.to/lastmile_qr_scan", "android": "https://dc.lft.to/lastmile_qr_scan"}, "lon": -77.01092533333333, "type": "electric_scooter", "fusion_lat": 0.0, "lat": 38.89438533333333, "name": "3e65573531bf7a48e78bdd6f3e264fa3", "fusion_lon": 0.0, "bike_id": "3e65573531bf7a48e78bdd6f3e264fa3", "is_disabled": 0, "is_reserved": 0}, {"rental_uris": {"ios": "https://dc.lft.to/lastmile_qr_scan", "android": "https://dc.lft.to/lastmile_qr_scan"}, "lon": -77.03508766666667, "type": "electric_scooter", "fusion_lat": 0.0, "lat": 38.9215205, "name": "79d20a06e65a270b7f2bc76343de52a3", "fusion_lon": 0.0, "bike_id": "79d20a06e65a270b7f2bc76343de52a3", "is_disabled": 0, "is_reserved": 0}, {"rental_uris": {"ios": "https://dc.lft.to/lastmile_qr_scan", "android": "https://dc.lft.to/lastmile_qr_scan"}, "lon": -77.03865666666667, "type": "electric_scooter", "fusion_lat": 0.0, "lat": 38.92015416666667, "name": "50ef698e8b6ce112e1cc43d469e86592", "fusion_lon": 0.0, "bike_id": "50ef698e8b6ce112e1cc43d469e86592", "is_disabled": 0, "is_reserved": 0}, {"rental_uris": {"ios": "https://dc.lft.to/lastmile_qr_scan", "android": "https://dc.lft.to/lastmile_qr_scan"}, "lon": -76.97881116666667, "type": "electric_scooter", "fusion_lat": 0.0, "lat": 38.8850715, "name": "75f605bee7af4c7037290917a7c05c5e", "fusion_lon": 0.0, "bike_id": "75f605bee7af4c7037290917a7c05c5e", "is_disabled": 0, "is_reserved": 0}, {"rental_uris": {"ios": "https://dc.lft.to/lastmile_qr_scan", "android": "https://dc.lft.to/lastmile_qr_scan"}, "lon": -77.01180233333334, "type": "electric_scooter", "fusion_lat": 0.0, "lat": 38.90039566666667, "name": "b9e554884c51c8f23a18bbd431a8c80a", "fusion_lon": 0.0, "bike_id": "b9e554884c51c8f23a18bbd431a8c80a", "is_disabled": 0, "is_reserved": 0}, {"rental_uris": {"ios": "https://dc.lft.to/lastmile_qr_scan", "android": "https://dc.lft.to/lastmile_qr_scan"}, "lon": -77.01482216666666, "type": "electric_scooter", "fusion_lat": 0.0, "lat": 38.881193, "name": "25ef74f0580166ea84af9db45494f03f", "fusion_lon": 0.0, "bike_id": "25ef74f0580166ea84af9db45494f03f", "is_disabled": 0, "is_reserved": 0}, {"rental_uris": {"ios": "https://dc.lft.to/lastmile_qr_scan", "android": "https://dc.lft.to/lastmile_qr_scan"}, "lon": -77.0361315, "type": "electric_scooter", "fusion_lat": 0.0, "lat": 38.923226166666666, "name": "bde723b33a94b48eeac5c0583b0fe83e", "fusion_lon": 0.0, "bike_id": "bde723b33a94b48eeac5c0583b0fe83e", "is_disabled": 0, "is_reserved": 0}, {"rental_uris": {"ios": "https://dc.lft.to/lastmile_qr_scan", "android": "https://dc.lft.to/lastmile_qr_scan"}, "lon": -76.98698166666667, "type": "electric_scooter", "fusion_lat": 0.0, "lat": 38.90705466666667, "name": "8d4e80e214e21a9a8ae725fa6ab93eac", "fusion_lon": 0.0, "bike_id": "8d4e80e214e21a9a8ae725fa6ab93eac", "is_disabled": 0, "is_reserved": 0}, {"rental_uris": {"ios": "https://dc.lft.to/lastmile_qr_scan", "android": "https://dc.lft.to/lastmile_qr_scan"}, "lon": -77.04069983333333, "type": "electric_scooter", "fusion_lat": 0.0, "lat": 38.902908333333336, "name": "4b0f0810086ed5bde7df600ec81e2e27", "fusion_lon": 0.0, "bike_id": "4b0f0810086ed5bde7df600ec81e2e27", "is_disabled": 0, "is_reserved": 0}, {"rental_uris": {"ios": "https://dc.lft.to/lastmile_qr_scan", "android": "https://dc.lft.to/lastmile_qr_scan"}, "lon": -77.03509783333334, "type": "electric_bike", "fusion_lat": 0.0, "lat": 38.965226333333334, "name": "c74ad4e8c620d65f1e96ecd6dbbdebb6", "fusion_lon": 0.0, "bike_id": "c74ad4e8c620d65f1e96ecd6dbbdebb6", "is_disabled": 0, "is_reserved": 0}, {"rental_uris": {"ios": "https://dc.lft.to/lastmile_qr_scan", "android": "https://dc.lft.to/lastmile_qr_scan"}, "lon": -77.02622833333334, "type": "electric_scooter", "fusion_lat": 0.0, "lat": 38.905613333333335, "name": "661cb90ae13bddaadb2978a05976587d", "fusion_lon": 0.0, "bike_id": "661cb90ae13bddaadb2978a05976587d", "is_disabled": 0, "is_reserved": 0}, {"rental_uris": {"ios": "https://dc.lft.to/lastmile_qr_scan", "android": "https://dc.lft.to/lastmile_qr_scan"}, "lon": -77.03286966666667, "type": "electric_scooter", "fusion_lat": 0.0, "lat": 38.90987966666667, "name": "21e069c7da895d3f45a34ce706debe63", "fusion_lon": 0.0, "bike_id": "21e069c7da895d3f45a34ce706debe63", "is_disabled": 0, "is_reserved": 0}, {"rental_uris": {"ios": "https://dc.lft.to/lastmile_qr_scan", "android": "https://dc.lft.to/lastmile_qr_scan"}, "lon": -77.0837215, "type": "electric_scooter", "fusion_lat": 0.0, "lat": 38.9303465, "name": "2f49dc8fe27380ef3896af441c6f7469", "fusion_lon": 0.0, "bike_id": "2f49dc8fe27380ef3896af441c6f7469", "is_disabled": 0, "is_reserved": 0}, {"rental_uris": {"ios": "https://dc.lft.to/lastmile_qr_scan", "android": "https://dc.lft.to/lastmile_qr_scan"}, "lon": -77.04244616666666, "type": "electric_scooter", "fusion_lat": 0.0, "lat": 38.908121, "name": "94d8796fb199079cedd01c63075c9f8d", "fusion_lon": 0.0, "bike_id": "94d8796fb199079cedd01c63075c9f8d", "is_disabled": 0, "is_reserved": 0}, {"rental_uris": {"ios": "https://dc.lft.to/lastmile_qr_scan", "android": "https://dc.lft.to/lastmile_qr_scan"}, "lon": -77.04934866666666, "type": "electric_scooter", "fusion_lat": 0.0, "lat": 38.8967885, "name": "c2b5954eff4f3afe946bf99128481eda", "fusion_lon": 0.0, "bike_id": "c2b5954eff4f3afe946bf99128481eda", "is_disabled": 0, "is_reserved": 0}, {"rental_uris": {"ios": "https://dc.lft.to/lastmile_qr_scan", "android": "https://dc.lft.to/lastmile_qr_scan"}, "lon": -76.99538566666666, "type": "electric_scooter", "fusion_lat": 0.0, "lat": 38.92671083333333, "name": "83ca48dad020662827fd86cca1ba931d", "fusion_lon": 0.0, "bike_id": "83ca48dad020662827fd86cca1ba931d", "is_disabled": 0, "is_reserved": 0}, {"rental_uris": {"ios": "https://dc.lft.to/lastmile_qr_scan", "android": "https://dc.lft.to/lastmile_qr_scan"}, "lon": -76.987737, "type": "electric_scooter", "fusion_lat": 0.0, "lat": 38.91168033333334, "name": "63d8664c1d0a629f000fb47e583c0464", "fusion_lon": 0.0, "bike_id": "63d8664c1d0a629f000fb47e583c0464", "is_disabled": 0, "is_reserved": 0}, {"rental_uris": {"ios": "https://dc.lft.to/lastmile_qr_scan", "android": "https://dc.lft.to/lastmile_qr_scan"}, "lon": -77.02613483333333, "type": "electric_scooter", "fusion_lat": 0.0, "lat": 38.91693883333333, "name": "1188473fe5a4dbb5c32e75c591b9f7d4", "fusion_lon": 0.0, "bike_id": "1188473fe5a4dbb5c32e75c591b9f7d4", "is_disabled": 0, "is_reserved": 0}, {"rental_uris": {"ios": "https://dc.lft.to/lastmile_qr_scan", "android": "https://dc.lft.to/lastmile_qr_scan"}, "lon": -77.04820533333333, "type": "electric_scooter", "fusion_lat": 0.0, "lat": 38.89620633333333, "name": "6066e369781562630b844ec8bce45d1b", "fusion_lon": 0.0, "bike_id": "6066e369781562630b844ec8bce45d1b", "is_disabled": 0, "is_reserved": 0}, {"rental_uris": {"ios": "https://dc.lft.to/lastmile_qr_scan", "android": "https://dc.lft.to/lastmile_qr_scan"}, "lon": -77.03088616666666, "type": "electric_scooter", "fusion_lat": 0.0, "lat": 38.93473633333333, "name": "8711ce91b0076726332e0cd9cd89bc55", "fusion_lon": 0.0, "bike_id": "8711ce91b0076726332e0cd9cd89bc55", "is_disabled": 0, "is_reserved": 0}, {"rental_uris": {"ios": "https://dc.lft.to/lastmile_qr_scan", "android": "https://dc.lft.to/lastmile_qr_scan"}, "lon": -77.01776783333334, "type": "electric_scooter", "fusion_lat": 0.0, "lat": 38.90386083333333, "name": "0a7cb562b23c96fc9954e4c92457ef14", "fusion_lon": 0.0, "bike_id": "0a7cb562b23c96fc9954e4c92457ef14", "is_disabled": 0, "is_reserved": 0}, {"rental_uris": {"ios": "https://dc.lft.to/lastmile_qr_scan", "android": "https://dc.lft.to/lastmile_qr_scan"}, "lon": -77.00852366666666, "type": "electric_scooter", "fusion_lat": 0.0, "lat": 38.92591066666667, "name": "a896d9af8dd3b83f1f65d52032ea9ad3", "fusion_lon": 0.0, "bike_id": "a896d9af8dd3b83f1f65d52032ea9ad3", "is_disabled": 0, "is_reserved": 0}, {"rental_uris": {"ios": "https://dc.lft.to/lastmile_qr_scan", "android": "https://dc.lft.to/lastmile_qr_scan"}, "lon": -76.97889683333334, "type": "electric_scooter", "fusion_lat": 0.0, "lat": 38.916733666666666, "name": "b196cb2521a27b42379cc1671c8f97b4", "fusion_lon": 0.0, "bike_id": "b196cb2521a27b42379cc1671c8f97b4", "is_disabled": 0, "is_reserved": 0}, {"rental_uris": {"ios": "https://dc.lft.to/lastmile_qr_scan", "android": "https://dc.lft.to/lastmile_qr_scan"}, "lon": -76.93796866666666, "type": "electric_scooter", "fusion_lat": 0.0, "lat": 38.912834, "name": "4ad666bff1f0302342859b30ad6549a8", "fusion_lon": 0.0, "bike_id": "4ad666bff1f0302342859b30ad6549a8", "is_disabled": 0, "is_reserved": 0}, {"rental_uris": {"ios": "https://dc.lft.to/lastmile_qr_scan", "android": "https://dc.lft.to/lastmile_qr_scan"}, "lon": -77.017609, "type": "electric_scooter", "fusion_lat": 0.0, "lat": 38.938944166666666, "name": "6268bf13343a7718e9533994f497f04f", "fusion_lon": 0.0, "bike_id": "6268bf13343a7718e9533994f497f04f", "is_disabled": 0, "is_reserved": 0}, {"rental_uris": {"ios": "https://dc.lft.to/lastmile_qr_scan", "android": "https://dc.lft.to/lastmile_qr_scan"}, "lon": -77.12742716666666, "type": "electric_bike", "fusion_lat": 0.0, "lat": 38.88820833333333, "name": "e2fe5e96c37a9bdbf05323d43f664bdb", "fusion_lon": 0.0, "bike_id": "e2fe5e96c37a9bdbf05323d43f664bdb", "is_disabled": 0, "is_reserved": 0}, {"rental_uris": {"ios": "https://dc.lft.to/lastmile_qr_scan", "android": "https://dc.lft.to/lastmile_qr_scan"}, "lon": -76.99778683333334, "type": "electric_scooter", "fusion_lat": 0.0, "lat": 38.844287333333334, "name": "6dc6a37bddfbf15d199f3515b1b00b8a", "fusion_lon": 0.0, "bike_id": "6dc6a37bddfbf15d199f3515b1b00b8a", "is_disabled": 0, "is_reserved": 0}, {"rental_uris": {"ios": "https://dc.lft.to/lastmile_qr_scan", "android": "https://dc.lft.to/lastmile_qr_scan"}, "lon": -77.030396, "type": "electric_scooter", "fusion_lat": 0.0, "lat": 38.92252883333333, "name": "607df1ca7760967e6ad5d7b598fa4220", "fusion_lon": 0.0, "bike_id": "607df1ca7760967e6ad5d7b598fa4220", "is_disabled": 0, "is_reserved": 0}, {"rental_uris": {"ios": "https://dc.lft.to/lastmile_qr_scan", "android": "https://dc.lft.to/lastmile_qr_scan"}, "lon": -77.03265483333334, "type": "electric_scooter", "fusion_lat": 0.0, "lat": 38.94418983333333, "name": "e72bbda5722a005fdfcbd9323e4f4ee9", "fusion_lon": 0.0, "bike_id": "e72bbda5722a005fdfcbd9323e4f4ee9", "is_disabled": 0, "is_reserved": 0}, {"rental_uris": {"ios": "https://dc.lft.to/lastmile_qr_scan", "android": "https://dc.lft.to/lastmile_qr_scan"}, "lon": -77.01788283333333, "type": "electric_scooter", "fusion_lat": 0.0, "lat": 38.94112883333333, "name": "066eb80397c7073fcdb4e3cb0452a064", "fusion_lon": 0.0, "bike_id": "066eb80397c7073fcdb4e3cb0452a064", "is_disabled": 0, "is_reserved": 0}, {"rental_uris": {"ios": "https://dc.lft.to/lastmile_qr_scan", "android": "https://dc.lft.to/lastmile_qr_scan"}, "lon": -77.03334266666667, "type": "electric_scooter", "fusion_lat": 0.0, "lat": 38.89845066666667, "name": "30705645632a7aba4de51cc243b95d15", "fusion_lon": 0.0, "bike_id": "30705645632a7aba4de51cc243b95d15", "is_disabled": 0, "is_reserved": 0}, {"rental_uris": {"ios": "https://dc.lft.to/lastmile_qr_scan", "android": "https://dc.lft.to/lastmile_qr_scan"}, "lon": -77.06608516666667, "type": "electric_scooter", "fusion_lat": 0.0, "lat": 38.90530533333333, "name": "60616fedc73f12a9eea26f8dab33f14b", "fusion_lon": 0.0, "bike_id": "60616fedc73f12a9eea26f8dab33f14b", "is_disabled": 0, "is_reserved": 0}, {"rental_uris": {"ios": "https://dc.lft.to/lastmile_qr_scan", "android": "https://dc.lft.to/lastmile_qr_scan"}, "lon": -77.02024866666666, "type": "electric_scooter", "fusion_lat": 0.0, "lat": 38.932474166666665, "name": "bcadbbcad6f106538c555d057144707f", "fusion_lon": 0.0, "bike_id": "bcadbbcad6f106538c555d057144707f", "is_disabled": 0, "is_reserved": 0}, {"rental_uris": {"ios": "https://dc.lft.to/lastmile_qr_scan", "android": "https://dc.lft.to/lastmile_qr_scan"}, "lon": -77.01366233333333, "type": "electric_scooter", "fusion_lat": 0.0, "lat": 38.86370933333333, "name": "8f35c5849009f9ab200a92ee25274b7e", "fusion_lon": 0.0, "bike_id": "8f35c5849009f9ab200a92ee25274b7e", "is_disabled": 0, "is_reserved": 0}, {"rental_uris": {"ios": "https://dc.lft.to/lastmile_qr_scan", "android": "https://dc.lft.to/lastmile_qr_scan"}, "lon": -77.0295045, "type": "electric_scooter", "fusion_lat": 0.0, "lat": 38.90407016666666, "name": "0a0da52e0539f7940d3568da78d8a2ba", "fusion_lon": 0.0, "bike_id": "0a0da52e0539f7940d3568da78d8a2ba", "is_disabled": 0, "is_reserved": 0}, {"rental_uris": {"ios": "https://dc.lft.to/lastmile_qr_scan", "android": "https://dc.lft.to/lastmile_qr_scan"}, "lon": -77.03560283333333, "type": "electric_scooter", "fusion_lat": 0.0, "lat": 38.917997, "name": "9244ac027d180401e66df92de20d7dcf", "fusion_lon": 0.0, "bike_id": "9244ac027d180401e66df92de20d7dcf", "is_disabled": 0, "is_reserved": 0}, {"rental_uris": {"ios": "https://dc.lft.to/lastmile_qr_scan", "android": "https://dc.lft.to/lastmile_qr_scan"}, "lon": -77.03231166666667, "type": "electric_scooter", "fusion_lat": 0.0, "lat": 38.92777616666667, "name": "283d364335c83e12139856050ab43e0d", "fusion_lon": 0.0, "bike_id": "283d364335c83e12139856050ab43e0d", "is_disabled": 0, "is_reserved": 0}, {"rental_uris": {"ios": "https://dc.lft.to/lastmile_qr_scan", "android": "https://dc.lft.to/lastmile_qr_scan"}, "lon": -77.04338, "type": "electric_scooter", "fusion_lat": 0.0, "lat": 38.896320833333334, "name": "2cb26a4593e790c4d130177ee38a38dc", "fusion_lon": 0.0, "bike_id": "2cb26a4593e790c4d130177ee38a38dc", "is_disabled": 0, "is_reserved": 0}, {"rental_uris": {"ios": "https://dc.lft.to/lastmile_qr_scan", "android": "https://dc.lft.to/lastmile_qr_scan"}, "lon": -77.04866916666667, "type": "electric_scooter", "fusion_lat": 0.0, "lat": 38.8922205, "name": "7f0653230ba9077d96bff888fbc0baf8", "fusion_lon": 0.0, "bike_id": "7f0653230ba9077d96bff888fbc0baf8", "is_disabled": 0, "is_reserved": 0}, {"rental_uris": {"ios": "https://dc.lft.to/lastmile_qr_scan", "android": "https://dc.lft.to/lastmile_qr_scan"}, "lon": -77.06948433333334, "type": "electric_scooter", "fusion_lat": 0.0, "lat": 38.90522216666667, "name": "d4920ffa12a0bb6aa340ba0bc1712e52", "fusion_lon": 0.0, "bike_id": "d4920ffa12a0bb6aa340ba0bc1712e52", "is_disabled": 0, "is_reserved": 0}, {"rental_uris": {"ios": "https://dc.lft.to/lastmile_qr_scan", "android": "https://dc.lft.to/lastmile_qr_scan"}, "lon": -77.03634133333334, "type": "electric_scooter", "fusion_lat": 0.0, "lat": 38.902587833333335, "name": "eaddfe0c692a3968b3a0f03ca6e44c5a", "fusion_lon": 0.0, "bike_id": "eaddfe0c692a3968b3a0f03ca6e44c5a", "is_disabled": 0, "is_reserved": 0}, {"rental_uris": {"ios": "https://dc.lft.to/lastmile_qr_scan", "android": "https://dc.lft.to/lastmile_qr_scan"}, "lon": -77.02336016666666, "type": "electric_scooter", "fusion_lat": 0.0, "lat": 38.9378435, "name": "ae24a6d925f135cc4420df6d81e460e7", "fusion_lon": 0.0, "bike_id": "ae24a6d925f135cc4420df6d81e460e7", "is_disabled": 0, "is_reserved": 0}, {"rental_uris": {"ios": "https://dc.lft.to/lastmile_qr_scan", "android": "https://dc.lft.to/lastmile_qr_scan"}, "lon": -77.04204733333333, "type": "electric_scooter", "fusion_lat": 0.0, "lat": 38.91105816666666, "name": "1ed57a163ebee5bebee290e95c67392a", "fusion_lon": 0.0, "bike_id": "1ed57a163ebee5bebee290e95c67392a", "is_disabled": 0, "is_reserved": 0}, {"rental_uris": {"ios": "https://dc.lft.to/lastmile_qr_scan", "android": "https://dc.lft.to/lastmile_qr_scan"}, "lon": -77.00776583333334, "type": "electric_scooter", "fusion_lat": 0.0, "lat": 38.9066765, "name": "644383e2d10e3feb8e141235cef8d6a9", "fusion_lon": 0.0, "bike_id": "644383e2d10e3feb8e141235cef8d6a9", "is_disabled": 0, "is_reserved": 0}, {"rental_uris": {"ios": "https://dc.lft.to/lastmile_qr_scan", "android": "https://dc.lft.to/lastmile_qr_scan"}, "lon": -77.02911633333333, "type": "electric_scooter", "fusion_lat": 0.0, "lat": 38.8857365, "name": "a9d6b591cb3486e23b2b0007aaf488e2", "fusion_lon": 0.0, "bike_id": "a9d6b591cb3486e23b2b0007aaf488e2", "is_disabled": 0, "is_reserved": 0}, {"rental_uris": {"ios": "https://dc.lft.to/lastmile_qr_scan", "android": "https://dc.lft.to/lastmile_qr_scan"}, "lon": -77.03900433333334, "type": "electric_scooter", "fusion_lat": 0.0, "lat": 38.91836833333333, "name": "1eb52ca69a762c75af6d757a7cfd059f", "fusion_lon": 0.0, "bike_id": "1eb52ca69a762c75af6d757a7cfd059f", "is_disabled": 0, "is_reserved": 0}, {"rental_uris": {"ios": "https://dc.lft.to/lastmile_qr_scan", "android": "https://dc.lft.to/lastmile_qr_scan"}, "lon": -77.07171033333333, "type": "electric_scooter", "fusion_lat": 0.0, "lat": 38.914538666666665, "name": "428d2bf1e8f3d0034352d55b04de9f71", "fusion_lon": 0.0, "bike_id": "428d2bf1e8f3d0034352d55b04de9f71", "is_disabled": 0, "is_reserved": 0}, {"rental_uris": {"ios": "https://dc.lft.to/lastmile_qr_scan", "android": "https://dc.lft.to/lastmile_qr_scan"}, "lon": -77.0470755, "type": "electric_scooter", "fusion_lat": 0.0, "lat": 38.908613, "name": "eb1b12c163bf7d9536fbcbeb7121795b", "fusion_lon": 0.0, "bike_id": "eb1b12c163bf7d9536fbcbeb7121795b", "is_disabled": 0, "is_reserved": 0}, {"rental_uris": {"ios": "https://dc.lft.to/lastmile_qr_scan", "android": "https://dc.lft.to/lastmile_qr_scan"}, "lon": -77.02858583333334, "type": "electric_scooter", "fusion_lat": 0.0, "lat": 38.92370016666667, "name": "8d641ecc039fbdaf62952d10997d126f", "fusion_lon": 0.0, "bike_id": "8d641ecc039fbdaf62952d10997d126f", "is_disabled": 0, "is_reserved": 0}, {"rental_uris": {"ios": "https://dc.lft.to/lastmile_qr_scan", "android": "https://dc.lft.to/lastmile_qr_scan"}, "lon": -77.0387035, "type": "electric_scooter", "fusion_lat": 0.0, "lat": 38.915565666666666, "name": "fb6f55cf11ff99c82138a08436ac72ae", "fusion_lon": 0.0, "bike_id": "fb6f55cf11ff99c82138a08436ac72ae", "is_disabled": 0, "is_reserved": 0}, {"rental_uris": {"ios": "https://dc.lft.to/lastmile_qr_scan", "android": "https://dc.lft.to/lastmile_qr_scan"}, "lon": -76.97610816666666, "type": "electric_bike", "fusion_lat": 0.0, "lat": 38.91314333333333, "name": "ecb89f8a13b423e11bebfbcba17aa1ab", "fusion_lon": 0.0, "bike_id": "ecb89f8a13b423e11bebfbcba17aa1ab", "is_disabled": 0, "is_reserved": 0}, {"rental_uris": {"ios": "https://dc.lft.to/lastmile_qr_scan", "android": "https://dc.lft.to/lastmile_qr_scan"}, "lon": -77.00921566666666, "type": "electric_scooter", "fusion_lat": 0.0, "lat": 38.91239566666667, "name": "f39d51029b93f29027239780d8a9f965", "fusion_lon": 0.0, "bike_id": "f39d51029b93f29027239780d8a9f965", "is_disabled": 0, "is_reserved": 0}, {"rental_uris": {"ios": "https://dc.lft.to/lastmile_qr_scan", "android": "https://dc.lft.to/lastmile_qr_scan"}, "lon": -77.06697333333334, "type": "electric_scooter", "fusion_lat": 0.0, "lat": 38.909742666666666, "name": "4b1f5623c5afd057c238e802c6aaec8a", "fusion_lon": 0.0, "bike_id": "4b1f5623c5afd057c238e802c6aaec8a", "is_disabled": 0, "is_reserved": 0}, {"rental_uris": {"ios": "https://dc.lft.to/lastmile_qr_scan", "android": "https://dc.lft.to/lastmile_qr_scan"}, "lon": -76.99037916666667, "type": "electric_scooter", "fusion_lat": 0.0, "lat": 38.85867533333333, "name": "f761150055ead4167f870a769b644c4c", "fusion_lon": 0.0, "bike_id": "f761150055ead4167f870a769b644c4c", "is_disabled": 0, "is_reserved": 0}, {"rental_uris": {"ios": "https://dc.lft.to/lastmile_qr_scan", "android": "https://dc.lft.to/lastmile_qr_scan"}, "lon": -77.0396625, "type": "electric_scooter", "fusion_lat": 0.0, "lat": 38.916256833333335, "name": "8db5b97508e2f535096caa16e2b69406", "fusion_lon": 0.0, "bike_id": "8db5b97508e2f535096caa16e2b69406", "is_disabled": 0, "is_reserved": 0}, {"rental_uris": {"ios": "https://dc.lft.to/lastmile_qr_scan", "android": "https://dc.lft.to/lastmile_qr_scan"}, "lon": -77.0660905, "type": "electric_bike", "fusion_lat": 0.0, "lat": 38.911298333333335, "name": "0a01d08c64e6ed0675bdb64cce2c5cfc", "fusion_lon": 0.0, "bike_id": "0a01d08c64e6ed0675bdb64cce2c5cfc", "is_disabled": 0, "is_reserved": 0}, {"rental_uris": {"ios": "https://dc.lft.to/lastmile_qr_scan", "android": "https://dc.lft.to/lastmile_qr_scan"}, "lon": -77.0294445, "type": "electric_scooter", "fusion_lat": 0.0, "lat": 38.90517583333333, "name": "112dd53df2068c37e6b845a6a1c7d37d", "fusion_lon": 0.0, "bike_id": "112dd53df2068c37e6b845a6a1c7d37d", "is_disabled": 0, "is_reserved": 0}, {"rental_uris": {"ios": "https://dc.lft.to/lastmile_qr_scan", "android": "https://dc.lft.to/lastmile_qr_scan"}, "lon": -76.99004766666667, "type": "electric_scooter", "fusion_lat": 0.0, "lat": 38.865034, "name": "f8e68663bd52284e4825df6eb6d86dfc", "fusion_lon": 0.0, "bike_id": "f8e68663bd52284e4825df6eb6d86dfc", "is_disabled": 0, "is_reserved": 0}, {"rental_uris": {"ios": "https://dc.lft.to/lastmile_qr_scan", "android": "https://dc.lft.to/lastmile_qr_scan"}, "lon": -77.03242633333333, "type": "electric_scooter", "fusion_lat": 0.0, "lat": 38.912504, "name": "89858b50457b26413cc0de4cf672a4b2", "fusion_lon": 0.0, "bike_id": "89858b50457b26413cc0de4cf672a4b2", "is_disabled": 0, "is_reserved": 0}, {"rental_uris": {"ios": "https://dc.lft.to/lastmile_qr_scan", "android": "https://dc.lft.to/lastmile_qr_scan"}, "lon": -77.006009, "type": "electric_scooter", "fusion_lat": 0.0, "lat": 38.905456, "name": "975d438fcc1f3733e02a3c246221be6d", "fusion_lon": 0.0, "bike_id": "975d438fcc1f3733e02a3c246221be6d", "is_disabled": 0, "is_reserved": 0}, {"rental_uris": {"ios": "https://dc.lft.to/lastmile_qr_scan", "android": "https://dc.lft.to/lastmile_qr_scan"}, "lon": -77.04878183333334, "type": "electric_scooter", "fusion_lat": 0.0, "lat": 38.905727666666664, "name": "0f702902cd7d14961175eb9e549060a9", "fusion_lon": 0.0, "bike_id": "0f702902cd7d14961175eb9e549060a9", "is_disabled": 0, "is_reserved": 0}, {"rental_uris": {"ios": "https://dc.lft.to/lastmile_qr_scan", "android": "https://dc.lft.to/lastmile_qr_scan"}, "lon": -77.00203616666667, "type": "electric_scooter", "fusion_lat": 0.0, "lat": 38.8737745, "name": "dd757874e8ead822b2fa23f880bc6080", "fusion_lon": 0.0, "bike_id": "dd757874e8ead822b2fa23f880bc6080", "is_disabled": 0, "is_reserved": 0}, {"rental_uris": {"ios": "https://dc.lft.to/lastmile_qr_scan", "android": "https://dc.lft.to/lastmile_qr_scan"}, "lon": -76.98055283333333, "type": "electric_scooter", "fusion_lat": 0.0, "lat": 38.885324833333335, "name": "3557ae4f80f41054fc48c80962fb62ed", "fusion_lon": 0.0, "bike_id": "3557ae4f80f41054fc48c80962fb62ed", "is_disabled": 0, "is_reserved": 0}, {"rental_uris": {"ios": "https://dc.lft.to/lastmile_qr_scan", "android": "https://dc.lft.to/lastmile_qr_scan"}, "lon": -77.03874883333333, "type": "electric_scooter", "fusion_lat": 0.0, "lat": 38.915554666666665, "name": "f35b64884ea9cf8e3a626421b4727bce", "fusion_lon": 0.0, "bike_id": "f35b64884ea9cf8e3a626421b4727bce", "is_disabled": 0, "is_reserved": 0}, {"rental_uris": {"ios": "https://dc.lft.to/lastmile_qr_scan", "android": "https://dc.lft.to/lastmile_qr_scan"}, "lon": -77.06118816666667, "type": "electric_scooter", "fusion_lat": 0.0, "lat": 38.9129665, "name": "aa55b9569d224dca4bc4aff13e16a6f4", "fusion_lon": 0.0, "bike_id": "aa55b9569d224dca4bc4aff13e16a6f4", "is_disabled": 0, "is_reserved": 0}, {"rental_uris": {"ios": "https://dc.lft.to/lastmile_qr_scan", "android": "https://dc.lft.to/lastmile_qr_scan"}, "lon": -77.04232916666666, "type": "electric_scooter", "fusion_lat": 0.0, "lat": 38.92150916666667, "name": "4814aed190ad59558a8f54f9a3f1b9f0", "fusion_lon": 0.0, "bike_id": "4814aed190ad59558a8f54f9a3f1b9f0", "is_disabled": 0, "is_reserved": 0}, {"rental_uris": {"ios": "https://dc.lft.to/lastmile_qr_scan", "android": "https://dc.lft.to/lastmile_qr_scan"}, "lon": -77.02491583333334, "type": "electric_scooter", "fusion_lat": 0.0, "lat": 38.941860166666665, "name": "d3c607526a09d3cb0ea247d85a0913e0", "fusion_lon": 0.0, "bike_id": "d3c607526a09d3cb0ea247d85a0913e0", "is_disabled": 0, "is_reserved": 0}, {"rental_uris": {"ios": "https://dc.lft.to/lastmile_qr_scan", "android": "https://dc.lft.to/lastmile_qr_scan"}, "lon": -77.0386605, "type": "electric_scooter", "fusion_lat": 0.0, "lat": 38.94196683333333, "name": "700025a84186a3081ceeadf9af54512f", "fusion_lon": 0.0, "bike_id": "700025a84186a3081ceeadf9af54512f", "is_disabled": 0, "is_reserved": 0}, {"rental_uris": {"ios": "https://dc.lft.to/lastmile_qr_scan", "android": "https://dc.lft.to/lastmile_qr_scan"}, "lon": -77.03825583333334, "type": "electric_scooter", "fusion_lat": 0.0, "lat": 38.898705, "name": "b6f6f8c98023d2464a6b0ab03731db65", "fusion_lon": 0.0, "bike_id": "b6f6f8c98023d2464a6b0ab03731db65", "is_disabled": 0, "is_reserved": 0}, {"rental_uris": {"ios": "https://dc.lft.to/lastmile_qr_scan", "android": "https://dc.lft.to/lastmile_qr_scan"}, "lon": -77.03807016666667, "type": "electric_scooter", "fusion_lat": 0.0, "lat": 38.93395816666666, "name": "3011bdc664ca62f414ce3f4bec075317", "fusion_lon": 0.0, "bike_id": "3011bdc664ca62f414ce3f4bec075317", "is_disabled": 0, "is_reserved": 0}, {"rental_uris": {"ios": "https://dc.lft.to/lastmile_qr_scan", "android": "https://dc.lft.to/lastmile_qr_scan"}, "lon": -76.950956, "type": "electric_scooter", "fusion_lat": 0.0, "lat": 38.884508, "name": "cd4a88fb723106827d5631f85e14757b", "fusion_lon": 0.0, "bike_id": "cd4a88fb723106827d5631f85e14757b", "is_disabled": 0, "is_reserved": 0}, {"rental_uris": {"ios": "https://dc.lft.to/lastmile_qr_scan", "android": "https://dc.lft.to/lastmile_qr_scan"}, "lon": -77.00480833333333, "type": "electric_scooter", "fusion_lat": 0.0, "lat": 38.944017, "name": "c8992f8be6f1e5eeb9487b75cee2c040", "fusion_lon": 0.0, "bike_id": "c8992f8be6f1e5eeb9487b75cee2c040", "is_disabled": 0, "is_reserved": 0}, {"rental_uris": {"ios": "https://dc.lft.to/lastmile_qr_scan", "android": "https://dc.lft.to/lastmile_qr_scan"}, "lon": -77.03908533333333, "type": "electric_scooter", "fusion_lat": 0.0, "lat": 38.9142265, "name": "cf8200c30e892c992edcf9518c0d36c9", "fusion_lon": 0.0, "bike_id": "cf8200c30e892c992edcf9518c0d36c9", "is_disabled": 0, "is_reserved": 0}, {"rental_uris": {"ios": "https://dc.lft.to/lastmile_qr_scan", "android": "https://dc.lft.to/lastmile_qr_scan"}, "lon": -77.02171783333333, "type": "electric_scooter", "fusion_lat": 0.0, "lat": 38.942918, "name": "54141adedde9d01d719fec82b8f4dcdc", "fusion_lon": 0.0, "bike_id": "54141adedde9d01d719fec82b8f4dcdc", "is_disabled": 0, "is_reserved": 0}, {"rental_uris": {"ios": "https://dc.lft.to/lastmile_qr_scan", "android": "https://dc.lft.to/lastmile_qr_scan"}, "lon": -76.98970816666667, "type": "electric_scooter", "fusion_lat": 0.0, "lat": 38.859261833333335, "name": "9ffc7a89f3b2e1d8f0a315a0b026acb8", "fusion_lon": 0.0, "bike_id": "9ffc7a89f3b2e1d8f0a315a0b026acb8", "is_disabled": 0, "is_reserved": 0}, {"rental_uris": {"ios": "https://dc.lft.to/lastmile_qr_scan", "android": "https://dc.lft.to/lastmile_qr_scan"}, "lon": -76.9499935, "type": "electric_scooter", "fusion_lat": 0.0, "lat": 38.89371966666667, "name": "aa804b789c090a7ed41b01719433ef6e", "fusion_lon": 0.0, "bike_id": "aa804b789c090a7ed41b01719433ef6e", "is_disabled": 0, "is_reserved": 0}, {"rental_uris": {"ios": "https://dc.lft.to/lastmile_qr_scan", "android": "https://dc.lft.to/lastmile_qr_scan"}, "lon": -77.03646233333333, "type": "electric_scooter", "fusion_lat": 0.0, "lat": 38.9026235, "name": "b9d788568f1472b97a1a13b7a992888e", "fusion_lon": 0.0, "bike_id": "b9d788568f1472b97a1a13b7a992888e", "is_disabled": 0, "is_reserved": 0}, {"rental_uris": {"ios": "https://dc.lft.to/lastmile_qr_scan", "android": "https://dc.lft.to/lastmile_qr_scan"}, "lon": -77.0253145, "type": "electric_scooter", "fusion_lat": 0.0, "lat": 38.942988, "name": "7ad9a21fa4e15f5f128b30295177278b", "fusion_lon": 0.0, "bike_id": "7ad9a21fa4e15f5f128b30295177278b", "is_disabled": 0, "is_reserved": 0}, {"rental_uris": {"ios": "https://dc.lft.to/lastmile_qr_scan", "android": "https://dc.lft.to/lastmile_qr_scan"}, "lon": -76.97883716666666, "type": "electric_scooter", "fusion_lat": 0.0, "lat": 38.88764033333333, "name": "d176bef98526ee2ab4d617f755878947", "fusion_lon": 0.0, "bike_id": "d176bef98526ee2ab4d617f755878947", "is_disabled": 0, "is_reserved": 0}, {"rental_uris": {"ios": "https://dc.lft.to/lastmile_qr_scan", "android": "https://dc.lft.to/lastmile_qr_scan"}, "lon": -76.973335, "type": "electric_scooter", "fusion_lat": 0.0, "lat": 38.90478566666667, "name": "d6cf7dd22e57b6fe021cf78668768280", "fusion_lon": 0.0, "bike_id": "d6cf7dd22e57b6fe021cf78668768280", "is_disabled": 0, "is_reserved": 0}, {"rental_uris": {"ios": "https://dc.lft.to/lastmile_qr_scan", "android": "https://dc.lft.to/lastmile_qr_scan"}, "lon": -77.05090666666666, "type": "electric_bike", "fusion_lat": 0.0, "lat": 38.81331566666667, "name": "0b73f88fe46daae22eb4c4e40d7f081c", "fusion_lon": 0.0, "bike_id": "0b73f88fe46daae22eb4c4e40d7f081c", "is_disabled": 0, "is_reserved": 0}, {"rental_uris": {"ios": "https://dc.lft.to/lastmile_qr_scan", "android": "https://dc.lft.to/lastmile_qr_scan"}, "lon": -77.05810283333334, "type": "electric_scooter", "fusion_lat": 0.0, "lat": 38.90295716666667, "name": "21d75a6b88a4c27e024d92b6223de046", "fusion_lon": 0.0, "bike_id": "21d75a6b88a4c27e024d92b6223de046", "is_disabled": 0, "is_reserved": 0}, {"rental_uris": {"ios": "https://dc.lft.to/lastmile_qr_scan", "android": "https://dc.lft.to/lastmile_qr_scan"}, "lon": -76.9354565, "type": "electric_bike", "fusion_lat": 0.0, "lat": 38.951849333333335, "name": "e9bd08c243290bc36f7edf2011234a21", "fusion_lon": 0.0, "bike_id": "e9bd08c243290bc36f7edf2011234a21", "is_disabled": 0, "is_reserved": 0}, {"rental_uris": {"ios": "https://dc.lft.to/lastmile_qr_scan", "android": "https://dc.lft.to/lastmile_qr_scan"}, "lon": -76.99552866666667, "type": "electric_scooter", "fusion_lat": 0.0, "lat": 38.9231325, "name": "0284b8b063c051ca8c878f6ac77fd796", "fusion_lon": 0.0, "bike_id": "0284b8b063c051ca8c878f6ac77fd796", "is_disabled": 0, "is_reserved": 0}, {"rental_uris": {"ios": "https://dc.lft.to/lastmile_qr_scan", "android": "https://dc.lft.to/lastmile_qr_scan"}, "lon": -77.02422033333333, "type": "electric_bike", "fusion_lat": 0.0, "lat": 38.9336985, "name": "c3fdda73d1e9d7d4c15306b9c424f63c", "fusion_lon": 0.0, "bike_id": "c3fdda73d1e9d7d4c15306b9c424f63c", "is_disabled": 0, "is_reserved": 0}, {"rental_uris": {"ios": "https://dc.lft.to/lastmile_qr_scan", "android": "https://dc.lft.to/lastmile_qr_scan"}, "lon": -77.00602266666667, "type": "electric_scooter", "fusion_lat": 0.0, "lat": 38.9055765, "name": "241ead9b9b39b825d5b6f7803488eb55", "fusion_lon": 0.0, "bike_id": "241ead9b9b39b825d5b6f7803488eb55", "is_disabled": 0, "is_reserved": 0}, {"rental_uris": {"ios": "https://dc.lft.to/lastmile_qr_scan", "android": "https://dc.lft.to/lastmile_qr_scan"}, "lon": -77.05685433333333, "type": "electric_scooter", "fusion_lat": 0.0, "lat": 38.93701683333333, "name": "160717b7537af8fd766cc73a36bc00a2", "fusion_lon": 0.0, "bike_id": "160717b7537af8fd766cc73a36bc00a2", "is_disabled": 0, "is_reserved": 0}, {"rental_uris": {"ios": "https://dc.lft.to/lastmile_qr_scan", "android": "https://dc.lft.to/lastmile_qr_scan"}, "lon": -77.048103, "type": "electric_scooter", "fusion_lat": 0.0, "lat": 38.897497666666666, "name": "0c9a848a7b8c51d929c3c62c7d302079", "fusion_lon": 0.0, "bike_id": "0c9a848a7b8c51d929c3c62c7d302079", "is_disabled": 0, "is_reserved": 0}, {"rental_uris": {"ios": "https://dc.lft.to/lastmile_qr_scan", "android": "https://dc.lft.to/lastmile_qr_scan"}, "lon": -76.99872866666666, "type": "electric_scooter", "fusion_lat": 0.0, "lat": 38.900181, "name": "e80cfbef417868f94a083bbc162dc3e3", "fusion_lon": 0.0, "bike_id": "e80cfbef417868f94a083bbc162dc3e3", "is_disabled": 0, "is_reserved": 0}, {"rental_uris": {"ios": "https://dc.lft.to/lastmile_qr_scan", "android": "https://dc.lft.to/lastmile_qr_scan"}, "lon": -77.03086983333333, "type": "electric_scooter", "fusion_lat": 0.0, "lat": 38.92248633333333, "name": "421cd6f3a51ea4f972605ec26f652524", "fusion_lon": 0.0, "bike_id": "421cd6f3a51ea4f972605ec26f652524", "is_disabled": 0, "is_reserved": 0}, {"rental_uris": {"ios": "https://dc.lft.to/lastmile_qr_scan", "android": "https://dc.lft.to/lastmile_qr_scan"}, "lon": -77.03567966666667, "type": "electric_scooter", "fusion_lat": 0.0, "lat": 38.918151333333334, "name": "c31b551029d9e324d0707f56335f7fee", "fusion_lon": 0.0, "bike_id": "c31b551029d9e324d0707f56335f7fee", "is_disabled": 0, "is_reserved": 0}, {"rental_uris": {"ios": "https://dc.lft.to/lastmile_qr_scan", "android": "https://dc.lft.to/lastmile_qr_scan"}, "lon": -77.06477166666667, "type": "electric_bike", "fusion_lat": 0.0, "lat": 38.97381016666667, "name": "fed9d87c7c464ba5f64cbefc7ff739f1", "fusion_lon": 0.0, "bike_id": "fed9d87c7c464ba5f64cbefc7ff739f1", "is_disabled": 0, "is_reserved": 0}, {"rental_uris": {"ios": "https://dc.lft.to/lastmile_qr_scan", "android": "https://dc.lft.to/lastmile_qr_scan"}, "lon": -77.00127816666667, "type": "electric_scooter", "fusion_lat": 0.0, "lat": 38.924548, "name": "0528b182b93e3ff9d218aa5b758b0b09", "fusion_lon": 0.0, "bike_id": "0528b182b93e3ff9d218aa5b758b0b09", "is_disabled": 0, "is_reserved": 0}, {"rental_uris": {"ios": "https://dc.lft.to/lastmile_qr_scan", "android": "https://dc.lft.to/lastmile_qr_scan"}, "lon": -77.02717016666666, "type": "electric_scooter", "fusion_lat": 0.0, "lat": 38.90672166666667, "name": "3a6a762eb2a49367e31b130b834e547e", "fusion_lon": 0.0, "bike_id": "3a6a762eb2a49367e31b130b834e547e", "is_disabled": 0, "is_reserved": 0}, {"rental_uris": {"ios": "https://dc.lft.to/lastmile_qr_scan", "android": "https://dc.lft.to/lastmile_qr_scan"}, "lon": -77.09620583333333, "type": "electric_bike", "fusion_lat": 0.0, "lat": 38.84568616666667, "name": "6fe2db29d539aaef5830f94f4b9ce143", "fusion_lon": 0.0, "bike_id": "6fe2db29d539aaef5830f94f4b9ce143", "is_disabled": 0, "is_reserved": 0}, {"rental_uris": {"ios": "https://dc.lft.to/lastmile_qr_scan", "android": "https://dc.lft.to/lastmile_qr_scan"}, "lon": -77.03871666666667, "type": "electric_scooter", "fusion_lat": 0.0, "lat": 38.90968933333333, "name": "ce241c2af907a490906230c1f7ab0b11", "fusion_lon": 0.0, "bike_id": "ce241c2af907a490906230c1f7ab0b11", "is_disabled": 0, "is_reserved": 0}, {"rental_uris": {"ios": "https://dc.lft.to/lastmile_qr_scan", "android": "https://dc.lft.to/lastmile_qr_scan"}, "lon": -77.0462195, "type": "electric_bike", "fusion_lat": 0.0, "lat": 38.999107333333335, "name": "17fd83704957eeb3ba9746932204d87c", "fusion_lon": 0.0, "bike_id": "17fd83704957eeb3ba9746932204d87c", "is_disabled": 0, "is_reserved": 0}, {"rental_uris": {"ios": "https://dc.lft.to/lastmile_qr_scan", "android": "https://dc.lft.to/lastmile_qr_scan"}, "lon": -77.03172083333334, "type": "electric_scooter", "fusion_lat": 0.0, "lat": 38.91997383333333, "name": "a36c442edbe3a98d9b1b366e5cc06f45", "fusion_lon": 0.0, "bike_id": "a36c442edbe3a98d9b1b366e5cc06f45", "is_disabled": 0, "is_reserved": 0}, {"rental_uris": {"ios": "https://dc.lft.to/lastmile_qr_scan", "android": "https://dc.lft.to/lastmile_qr_scan"}, "lon": -77.03816933333333, "type": "electric_scooter", "fusion_lat": 0.0, "lat": 38.9311025, "name": "1c303de0c25c6054cb9e80ba93f01d8b", "fusion_lon": 0.0, "bike_id": "1c303de0c25c6054cb9e80ba93f01d8b", "is_disabled": 0, "is_reserved": 0}, {"rental_uris": {"ios": "https://dc.lft.to/lastmile_qr_scan", "android": "https://dc.lft.to/lastmile_qr_scan"}, "lon": -77.03177866666667, "type": "electric_scooter", "fusion_lat": 0.0, "lat": 38.8997405, "name": "963abbeaff318f01fbf16df3adb3b626", "fusion_lon": 0.0, "bike_id": "963abbeaff318f01fbf16df3adb3b626", "is_disabled": 0, "is_reserved": 0}, {"rental_uris": {"ios": "https://dc.lft.to/lastmile_qr_scan", "android": "https://dc.lft.to/lastmile_qr_scan"}, "lon": -77.11428366666667, "type": "electric_bike", "fusion_lat": 0.0, "lat": 38.852429, "name": "ce45d651295508763d4a4d87f4b042e0", "fusion_lon": 0.0, "bike_id": "ce45d651295508763d4a4d87f4b042e0", "is_disabled": 0, "is_reserved": 0}, {"rental_uris": {"ios": "https://dc.lft.to/lastmile_qr_scan", "android": "https://dc.lft.to/lastmile_qr_scan"}, "lon": -77.05027266666667, "type": "electric_scooter", "fusion_lat": 0.0, "lat": 38.89654016666667, "name": "dc3855031bb2596e41f13e9011928038", "fusion_lon": 0.0, "bike_id": "dc3855031bb2596e41f13e9011928038", "is_disabled": 0, "is_reserved": 0}, {"rental_uris": {"ios": "https://dc.lft.to/lastmile_qr_scan", "android": "https://dc.lft.to/lastmile_qr_scan"}, "lon": -77.034486, "type": "electric_scooter", "fusion_lat": 0.0, "lat": 38.90257616666667, "name": "7fe9bc18e88148adf006b4f4d6d4ef62", "fusion_lon": 0.0, "bike_id": "7fe9bc18e88148adf006b4f4d6d4ef62", "is_disabled": 0, "is_reserved": 0}, {"rental_uris": {"ios": "https://dc.lft.to/lastmile_qr_scan", "android": "https://dc.lft.to/lastmile_qr_scan"}, "lon": -77.0332215, "type": "electric_scooter", "fusion_lat": 0.0, "lat": 38.921546166666666, "name": "87a1fe085b443d762bf7c885c556a944", "fusion_lon": 0.0, "bike_id": "87a1fe085b443d762bf7c885c556a944", "is_disabled": 0, "is_reserved": 0}, {"rental_uris": {"ios": "https://dc.lft.to/lastmile_qr_scan", "android": "https://dc.lft.to/lastmile_qr_scan"}, "lon": -76.98412433333333, "type": "electric_scooter", "fusion_lat": 0.0, "lat": 38.91388966666667, "name": "510f81bc159247a0209f74cfd1df1771", "fusion_lon": 0.0, "bike_id": "510f81bc159247a0209f74cfd1df1771", "is_disabled": 0, "is_reserved": 0}, {"rental_uris": {"ios": "https://dc.lft.to/lastmile_qr_scan", "android": "https://dc.lft.to/lastmile_qr_scan"}, "lon": -77.02386583333333, "type": "electric_scooter", "fusion_lat": 0.0, "lat": 38.9179165, "name": "80c8e39b01727a8811a763e49b1128d2", "fusion_lon": 0.0, "bike_id": "80c8e39b01727a8811a763e49b1128d2", "is_disabled": 0, "is_reserved": 0}, {"rental_uris": {"ios": "https://dc.lft.to/lastmile_qr_scan", "android": "https://dc.lft.to/lastmile_qr_scan"}, "lon": -76.9938515, "type": "electric_scooter", "fusion_lat": 0.0, "lat": 38.88721233333333, "name": "c6aba0f5c36e4847df609c935da65518", "fusion_lon": 0.0, "bike_id": "c6aba0f5c36e4847df609c935da65518", "is_disabled": 0, "is_reserved": 0}, {"rental_uris": {"ios": "https://dc.lft.to/lastmile_qr_scan", "android": "https://dc.lft.to/lastmile_qr_scan"}, "lon": -77.03637583333334, "type": "electric_scooter", "fusion_lat": 0.0, "lat": 38.91816, "name": "02e4616944195965451dc7d245435cee", "fusion_lon": 0.0, "bike_id": "02e4616944195965451dc7d245435cee", "is_disabled": 0, "is_reserved": 0}, {"rental_uris": {"ios": "https://dc.lft.to/lastmile_qr_scan", "android": "https://dc.lft.to/lastmile_qr_scan"}, "lon": -77.00295533333333, "type": "electric_scooter", "fusion_lat": 0.0, "lat": 38.9091545, "name": "f401f5a430f6126a19c3b9dfb8f9cb30", "fusion_lon": 0.0, "bike_id": "f401f5a430f6126a19c3b9dfb8f9cb30", "is_disabled": 0, "is_reserved": 0}, {"rental_uris": {"ios": "https://dc.lft.to/lastmile_qr_scan", "android": "https://dc.lft.to/lastmile_qr_scan"}, "lon": -77.00231466666666, "type": "electric_scooter", "fusion_lat": 0.0, "lat": 38.905746, "name": "fe487f7afd6de50a3541e69755d392ad", "fusion_lon": 0.0, "bike_id": "fe487f7afd6de50a3541e69755d392ad", "is_disabled": 0, "is_reserved": 0}, {"rental_uris": {"ios": "https://dc.lft.to/lastmile_qr_scan", "android": "https://dc.lft.to/lastmile_qr_scan"}, "lon": -76.96783516666666, "type": "electric_scooter", "fusion_lat": 0.0, "lat": 38.861363, "name": "c034076cd8b515438157c7b7f364200f", "fusion_lon": 0.0, "bike_id": "c034076cd8b515438157c7b7f364200f", "is_disabled": 0, "is_reserved": 0}, {"rental_uris": {"ios": "https://dc.lft.to/lastmile_qr_scan", "android": "https://dc.lft.to/lastmile_qr_scan"}, "lon": -77.035137, "type": "electric_scooter", "fusion_lat": 0.0, "lat": 38.923314500000004, "name": "c2828c383ed5164c9b9585a5966ca903", "fusion_lon": 0.0, "bike_id": "c2828c383ed5164c9b9585a5966ca903", "is_disabled": 0, "is_reserved": 0}, {"rental_uris": {"ios": "https://dc.lft.to/lastmile_qr_scan", "android": "https://dc.lft.to/lastmile_qr_scan"}, "lon": -77.3531105, "type": "electric_bike", "fusion_lat": 0.0, "lat": 38.950001, "name": "045580d45e29eee38d080ae702f15bb9", "fusion_lon": 0.0, "bike_id": "045580d45e29eee38d080ae702f15bb9", "is_disabled": 0, "is_reserved": 0}, {"rental_uris": {"ios": "https://dc.lft.to/lastmile_qr_scan", "android": "https://dc.lft.to/lastmile_qr_scan"}, "lon": -77.03226833333333, "type": "electric_scooter", "fusion_lat": 0.0, "lat": 38.925861833333336, "name": "b75173464385a3dfc83feef8920cb30f", "fusion_lon": 0.0, "bike_id": "b75173464385a3dfc83feef8920cb30f", "is_disabled": 0, "is_reserved": 0}, {"rental_uris": {"ios": "https://dc.lft.to/lastmile_qr_scan", "android": "https://dc.lft.to/lastmile_qr_scan"}, "lon": -76.994908, "type": "electric_scooter", "fusion_lat": 0.0, "lat": 38.8993765, "name": "0393874c804df4389722db95e66f79f2", "fusion_lon": 0.0, "bike_id": "0393874c804df4389722db95e66f79f2", "is_disabled": 0, "is_reserved": 0}, {"rental_uris": {"ios": "https://dc.lft.to/lastmile_qr_scan", "android": "https://dc.lft.to/lastmile_qr_scan"}, "lon": -76.96990566666666, "type": "electric_scooter", "fusion_lat": 0.0, "lat": 38.87301383333333, "name": "3d911cab2d4ae1fba40215f82f72429a", "fusion_lon": 0.0, "bike_id": "3d911cab2d4ae1fba40215f82f72429a", "is_disabled": 0, "is_reserved": 0}, {"rental_uris": {"ios": "https://dc.lft.to/lastmile_qr_scan", "android": "https://dc.lft.to/lastmile_qr_scan"}, "lon": -77.04544083333333, "type": "electric_scooter", "fusion_lat": 0.0, "lat": 38.904008, "name": "3c3389e153ef8672817ec882c8163667", "fusion_lon": 0.0, "bike_id": "3c3389e153ef8672817ec882c8163667", "is_disabled": 0, "is_reserved": 0}, {"rental_uris": {"ios": "https://dc.lft.to/lastmile_qr_scan", "android": "https://dc.lft.to/lastmile_qr_scan"}, "lon": -77.03953766666666, "type": "electric_scooter", "fusion_lat": 0.0, "lat": 38.9012825, "name": "7fe71ef5fb7bd35e6f765659a6efaa48", "fusion_lon": 0.0, "bike_id": "7fe71ef5fb7bd35e6f765659a6efaa48", "is_disabled": 0, "is_reserved": 0}, {"rental_uris": {"ios": "https://dc.lft.to/lastmile_qr_scan", "android": "https://dc.lft.to/lastmile_qr_scan"}, "lon": -76.931771, "type": "electric_scooter", "fusion_lat": 0.0, "lat": 38.898871166666666, "name": "52aa5c2a8f5e9cdd4f50a8bfa2375e91", "fusion_lon": 0.0, "bike_id": "52aa5c2a8f5e9cdd4f50a8bfa2375e91", "is_disabled": 0, "is_reserved": 0}, {"rental_uris": {"ios": "https://dc.lft.to/lastmile_qr_scan", "android": "https://dc.lft.to/lastmile_qr_scan"}, "lon": -77.03444083333333, "type": "electric_scooter", "fusion_lat": 0.0, "lat": 38.9181375, "name": "9d8b01118da51d3e35e0befcd7bbfa1b", "fusion_lon": 0.0, "bike_id": "9d8b01118da51d3e35e0befcd7bbfa1b", "is_disabled": 0, "is_reserved": 0}, {"rental_uris": {"ios": "https://dc.lft.to/lastmile_qr_scan", "android": "https://dc.lft.to/lastmile_qr_scan"}, "lon": -77.04994016666667, "type": "electric_scooter", "fusion_lat": 0.0, "lat": 38.901219166666664, "name": "b71f7ef987a59e1d2afd918b2a13c31f", "fusion_lon": 0.0, "bike_id": "b71f7ef987a59e1d2afd918b2a13c31f", "is_disabled": 0, "is_reserved": 0}, {"rental_uris": {"ios": "https://dc.lft.to/lastmile_qr_scan", "android": "https://dc.lft.to/lastmile_qr_scan"}, "lon": -77.03841783333333, "type": "electric_scooter", "fusion_lat": 0.0, "lat": 38.93112683333333, "name": "ba076c46967cd221c983b72b50248e1b", "fusion_lon": 0.0, "bike_id": "ba076c46967cd221c983b72b50248e1b", "is_disabled": 0, "is_reserved": 0}, {"rental_uris": {"ios": "https://dc.lft.to/lastmile_qr_scan", "android": "https://dc.lft.to/lastmile_qr_scan"}, "lon": -77.0450205, "type": "electric_scooter", "fusion_lat": 0.0, "lat": 38.9193945, "name": "e372206ae230c31d98cf3060349b4b89", "fusion_lon": 0.0, "bike_id": "e372206ae230c31d98cf3060349b4b89", "is_disabled": 0, "is_reserved": 0}, {"rental_uris": {"ios": "https://dc.lft.to/lastmile_qr_scan", "android": "https://dc.lft.to/lastmile_qr_scan"}, "lon": -76.98865133333334, "type": "electric_scooter", "fusion_lat": 0.0, "lat": 38.900228, "name": "9593402713a0db167b2e994c2e3c7843", "fusion_lon": 0.0, "bike_id": "9593402713a0db167b2e994c2e3c7843", "is_disabled": 0, "is_reserved": 0}, {"rental_uris": {"ios": "https://dc.lft.to/lastmile_qr_scan", "android": "https://dc.lft.to/lastmile_qr_scan"}, "lon": -77.04838966666667, "type": "electric_scooter", "fusion_lat": 0.0, "lat": 38.90965, "name": "e69edaccb43921cff0bd41e2f099d924", "fusion_lon": 0.0, "bike_id": "e69edaccb43921cff0bd41e2f099d924", "is_disabled": 0, "is_reserved": 0}, {"rental_uris": {"ios": "https://dc.lft.to/lastmile_qr_scan", "android": "https://dc.lft.to/lastmile_qr_scan"}, "lon": -77.01097, "type": "electric_scooter", "fusion_lat": 0.0, "lat": 38.895118833333335, "name": "f8fd291c6c70ef6946924136d623d94d", "fusion_lon": 0.0, "bike_id": "f8fd291c6c70ef6946924136d623d94d", "is_disabled": 0, "is_reserved": 0}, {"rental_uris": {"ios": "https://dc.lft.to/lastmile_qr_scan", "android": "https://dc.lft.to/lastmile_qr_scan"}, "lon": -77.042289, "type": "electric_scooter", "fusion_lat": 0.0, "lat": 38.921263833333335, "name": "ae3b749d4e7ff35517c8d7b6846b6bf7", "fusion_lon": 0.0, "bike_id": "ae3b749d4e7ff35517c8d7b6846b6bf7", "is_disabled": 0, "is_reserved": 0}, {"rental_uris": {"ios": "https://dc.lft.to/lastmile_qr_scan", "android": "https://dc.lft.to/lastmile_qr_scan"}, "lon": -76.98577283333333, "type": "electric_scooter", "fusion_lat": 0.0, "lat": 38.861552333333336, "name": "4d47375cded9f2faae9c148ecda64d41", "fusion_lon": 0.0, "bike_id": "4d47375cded9f2faae9c148ecda64d41", "is_disabled": 0, "is_reserved": 0}, {"rental_uris": {"ios": "https://dc.lft.to/lastmile_qr_scan", "android": "https://dc.lft.to/lastmile_qr_scan"}, "lon": -76.99775216666667, "type": "electric_bike", "fusion_lat": 0.0, "lat": 38.909253666666665, "name": "29aaa5f3915261cde527e099884ff933", "fusion_lon": 0.0, "bike_id": "29aaa5f3915261cde527e099884ff933", "is_disabled": 0, "is_reserved": 0}, {"rental_uris": {"ios": "https://dc.lft.to/lastmile_qr_scan", "android": "https://dc.lft.to/lastmile_qr_scan"}, "lon": -77.048689, "type": "electric_scooter", "fusion_lat": 0.0, "lat": 38.918613, "name": "b0060efefdeb15d2f8d042b5def9578d", "fusion_lon": 0.0, "bike_id": "b0060efefdeb15d2f8d042b5def9578d", "is_disabled": 0, "is_reserved": 0}, {"rental_uris": {"ios": "https://dc.lft.to/lastmile_qr_scan", "android": "https://dc.lft.to/lastmile_qr_scan"}, "lon": -77.00341833333333, "type": "electric_scooter", "fusion_lat": 0.0, "lat": 38.90731666666667, "name": "d6f4dee04b17e958c38e41d5f8d04926", "fusion_lon": 0.0, "bike_id": "d6f4dee04b17e958c38e41d5f8d04926", "is_disabled": 0, "is_reserved": 0}, {"rental_uris": {"ios": "https://dc.lft.to/lastmile_qr_scan", "android": "https://dc.lft.to/lastmile_qr_scan"},