{"data": {"bikes": [{"fusion_lon": 0.0, "lat": 38.9179975, "lon": -77.027147, "bike_id": "56aab22be9fe48ce4d010364a4be54dd", "rental_uris": {"android": "https://dc.lft.to/lastmile_qr_scan", "ios": "https://dc.lft.to/lastmile_qr_scan"}, "fusion_lat": 0.0, "name": "56aab22be9fe48ce4d010364a4be54dd", "is_reserved": 0, "is_disabled": 0, "type": "electric_scooter"}, {"fusion_lon": 0.0, "lat": 38.908641333333335, "lon": -77.07647233333333, "bike_id": "8c723e62c868e5db535cbcd0a06ce199", "rental_uris": {"android": "https://dc.lft.to/lastmile_qr_scan", "ios": "https://dc.lft.to/lastmile_qr_scan"}, "fusion_lat": 0.0, "name": "8c723e62c868e5db535cbcd0a06ce199", "is_reserved": 0, "is_disabled": 0, "type": "electric_scooter"}, {"fusion_lon": 0.0, "lat": 38.91663033333333, "lon": -77.03850183333333, "bike_id": "451ba4dcb2ff47d03243fc90a591b2d3", "rental_uris": {"android": "https://dc.lft.to/lastmile_qr_scan", "ios": "https://dc.lft.to/lastmile_qr_scan"}, "fusion_lat": 0.0, "name": "451ba4dcb2ff47d03243fc90a591b2d3", "is_reserved": 0, "is_disabled": 0, "type": "electric_scooter"}, {"fusion_lon": 0.0, "lat": 38.9213125, "lon": -77.04429366666666, "bike_id": "0dfbc2adb0c8a1cae9b8a1cabfdf1b42", "rental_uris": {"android": "https://dc.lft.to/lastmile_qr_scan", "ios": "https://dc.lft.to/lastmile_qr_scan"}, "fusion_lat": 0.0, "name": "0dfbc2adb0c8a1cae9b8a1cabfdf1b42", "is_reserved": 0, "is_disabled": 0, "type": "electric_scooter"}, {"fusion_lon": 0.0, "lat": 38.89002216666667, "lon": -76.93738666666667, "bike_id": "114383d5b400af446088ecee48a5a877", "rental_uris": {"android": "https://dc.lft.to/lastmile_qr_scan", "ios": "https://dc.lft.to/lastmile_qr_scan"}, "fusion_lat": 0.0, "name": "114383d5b400af446088ecee48a5a877", "is_reserved": 0, "is_disabled": 0, "type": "electric_scooter"}, {"fusion_lon": 0.0, "lat": 38.91560966666667, "lon": -77.06793216666667, "bike_id": "ce81d4eeaf6b33e25216258bfcfec76a", "rental_uris": {"android": "https://dc.lft.to/lastmile_qr_scan", "ios": "https://dc.lft.to/lastmile_qr_scan"}, "fusion_lat": 0.0, "name": "ce81d4eeaf6b33e25216258bfcfec76a", "is_reserved": 0, "is_disabled": 0, "type": "electric_scooter"}, {"fusion_lon": 0.0, "lat": 38.91850683333333, "lon": -77.03185266666667, "bike_id": "02ad7163e0efe4c0335af89946cf7f15", "rental_uris": {"android": "https://dc.lft.to/lastmile_qr_scan", "ios": "https://dc.lft.to/lastmile_qr_scan"}, "fusion_lat": 0.0, "name": "02ad7163e0efe4c0335af89946cf7f15", "is_reserved": 0, "is_disabled": 0, "type": "electric_scooter"}, {"fusion_lon": 0.0, "lat": 38.92987766666667, "lon": -77.0347405, "bike_id": "3cac97ccbcf6962cb611fd0260dacd1d", "rental_uris": {"android": "https://dc.lft.to/lastmile_qr_scan", "ios": "https://dc.lft.to/lastmile_qr_scan"}, "fusion_lat": 0.0, "name": "3cac97ccbcf6962cb611fd0260dacd1d", "is_reserved": 0, "is_disabled": 0, "type": "electric_scooter"}, {"fusion_lon": 0.0, "lat": 38.928969333333335, "lon": -77.004136, "bike_id": "ea80e7f1280a4d056dd4b1809ad90578", "rental_uris": {"android": "https://dc.lft.to/lastmile_qr_scan", "ios": "https://dc.lft.to/lastmile_qr_scan"}, "fusion_lat": 0.0, "name": "ea80e7f1280a4d056dd4b1809ad90578", "is_reserved": 0, "is_disabled": 0, "type": "electric_scooter"}, {"fusion_lon": 0.0, "lat": 38.921314833333334, "lon": -77.02144683333333, "bike_id": "ef0b2ff43cefc2bfdc39e05c9a552d8e", "rental_uris": {"android": "https://dc.lft.to/lastmile_qr_scan", "ios": "https://dc.lft.to/lastmile_qr_scan"}, "fusion_lat": 0.0, "name": "ef0b2ff43cefc2bfdc39e05c9a552d8e", "is_reserved": 0, "is_disabled": 0, "type": "electric_scooter"}, {"fusion_lon": 0.0, "lat": 38.8969275, "lon": -76.93230216666667, "bike_id": "2957edc88b90fd67890e5fa01aa7bdc3", "rental_uris": {"android": "https://dc.lft.to/lastmile_qr_scan", "ios": "https://dc.lft.to/lastmile_qr_scan"}, "fusion_lat": 0.0, "name": "2957edc88b90fd67890e5fa01aa7bdc3", "is_reserved": 0, "is_disabled": 0, "type": "electric_bike"}, {"fusion_lon": 0.0, "lat": 38.896102, "lon": -77.030354, "bike_id": "42ed8122089cc7d3f187dd6412c130b0", "rental_uris": {"android": "https://dc.lft.to/lastmile_qr_scan", "ios": "https://dc.lft.to/lastmile_qr_scan"}, "fusion_lat": 0.0, "name": "42ed8122089cc7d3f187dd6412c130b0", "is_reserved": 0, "is_disabled": 0, "type": "electric_scooter"}, {"fusion_lon": 0.0, "lat": 38.9213425, "lon": -77.01807733333334, "bike_id": "634bbfc2071fc99c3d845e604490d345", "rental_uris": {"android": "https://dc.lft.to/lastmile_qr_scan", "ios": "https://dc.lft.to/lastmile_qr_scan"}, "fusion_lat": 0.0, "name": "634bbfc2071fc99c3d845e604490d345", "is_reserved": 0, "is_disabled": 0, "type": "electric_scooter"}, {"fusion_lon": 0.0, "lat": 38.8921965, "lon": -77.04647083333333, "bike_id": "66ed688ecf5463e6fa618cbb9710232d", "rental_uris": {"android": "https://dc.lft.to/lastmile_qr_scan", "ios": "https://dc.lft.to/lastmile_qr_scan"}, "fusion_lat": 0.0, "name": "66ed688ecf5463e6fa618cbb9710232d", "is_reserved": 0, "is_disabled": 0, "type": "electric_scooter"}, {"fusion_lon": 0.0, "lat": 38.92148133333333, "lon": -77.04241116666667, "bike_id": "833602c0bd90517c0cdad339429943ec", "rental_uris": {"android": "https://dc.lft.to/lastmile_qr_scan", "ios": "https://dc.lft.to/lastmile_qr_scan"}, "fusion_lat": 0.0, "name": "833602c0bd90517c0cdad339429943ec", "is_reserved": 0, "is_disabled": 0, "type": "electric_scooter"}, {"fusion_lon": 0.0, "lat": 38.9097575, "lon": -77.06491566666666, "bike_id": "c9c4cb6397535fbafd407f0a2f0401bd", "rental_uris": {"android": "https://dc.lft.to/lastmile_qr_scan", "ios": "https://dc.lft.to/lastmile_qr_scan"}, "fusion_lat": 0.0, "name": "c9c4cb6397535fbafd407f0a2f0401bd", "is_reserved": 0, "is_disabled": 0, "type": "electric_bike"}, {"fusion_lon": 0.0, "lat": 38.924710166666664, "lon": -77.0383, "bike_id": "f547fd2a243aeb2927b4ec168b5ff57b", "rental_uris": {"android": "https://dc.lft.to/lastmile_qr_scan", "ios": "https://dc.lft.to/lastmile_qr_scan"}, "fusion_lat": 0.0, "name": "f547fd2a243aeb2927b4ec168b5ff57b", "is_reserved": 0, "is_disabled": 0, "type": "electric_scooter"}, {"fusion_lon": 0.0, "lat": 38.898763833333334, "lon": -76.9884015, "bike_id": "32ae446bece7a4591b376070c7fd7117", "rental_uris": {"android": "https://dc.lft.to/lastmile_qr_scan", "ios": "https://dc.lft.to/lastmile_qr_scan"}, "fusion_lat": 0.0, "name": "32ae446bece7a4591b376070c7fd7117", "is_reserved": 0, "is_disabled": 0, "type": "electric_scooter"}, {"fusion_lon": 0.0, "lat": 38.901739, "lon": -77.05053266666667, "bike_id": "2941fec07c62e32cfc7a7d3a848551ad", "rental_uris": {"android": "https://dc.lft.to/lastmile_qr_scan", "ios": "https://dc.lft.to/lastmile_qr_scan"}, "fusion_lat": 0.0, "name": "2941fec07c62e32cfc7a7d3a848551ad", "is_reserved": 0, "is_disabled": 0, "type": "electric_scooter"}, {"fusion_lon": 0.0, "lat": 38.923362166666664, "lon": -77.0351105, "bike_id": "96e948b2ca705921bcf92c4cc7e50fb8", "rental_uris": {"android": "https://dc.lft.to/lastmile_qr_scan", "ios": "https://dc.lft.to/lastmile_qr_scan"}, "fusion_lat": 0.0, "name": "96e948b2ca705921bcf92c4cc7e50fb8", "is_reserved": 0, "is_disabled": 0, "type": "electric_scooter"}, {"fusion_lon": 0.0, "lat": 38.924733, "lon": -77.05110983333333, "bike_id": "296d909faf55577aee4a48dab7aff366", "rental_uris": {"android": "https://dc.lft.to/lastmile_qr_scan", "ios": "https://dc.lft.to/lastmile_qr_scan"}, "fusion_lat": 0.0, "name": "296d909faf55577aee4a48dab7aff366", "is_reserved": 0, "is_disabled": 0, "type": "electric_scooter"}, {"fusion_lon": 0.0, "lat": 38.923178166666666, "lon": -77.04043633333333, "bike_id": "d130438ca730e033323ac64f3c5e0f3c", "rental_uris": {"android": "https://dc.lft.to/lastmile_qr_scan", "ios": "https://dc.lft.to/lastmile_qr_scan"}, "fusion_lat": 0.0, "name": "d130438ca730e033323ac64f3c5e0f3c", "is_reserved": 0, "is_disabled": 0, "type": "electric_scooter"}, {"fusion_lon": 0.0, "lat": 38.8949115, "lon": -77.02302, "bike_id": "2c109c384c1c6e383fdcffc41980ef25", "rental_uris": {"android": "https://dc.lft.to/lastmile_qr_scan", "ios": "https://dc.lft.to/lastmile_qr_scan"}, "fusion_lat": 0.0, "name": "2c109c384c1c6e383fdcffc41980ef25", "is_reserved": 0, "is_disabled": 0, "type": "electric_scooter"}, {"fusion_lon": 0.0, "lat": 38.877023, "lon": -77.01764933333334, "bike_id": "b5e2a5fa36b83c673d44093349146527", "rental_uris": {"android": "https://dc.lft.to/lastmile_qr_scan", "ios": "https://dc.lft.to/lastmile_qr_scan"}, "fusion_lat": 0.0, "name": "b5e2a5fa36b83c673d44093349146527", "is_reserved": 0, "is_disabled": 0, "type": "electric_scooter"}, {"fusion_lon": 0.0, "lat": 38.9009835, "lon": -76.9810685, "bike_id": "77ffd7a269243ea07a744f8ddf0a72b8", "rental_uris": {"android": "https://dc.lft.to/lastmile_qr_scan", "ios": "https://dc.lft.to/lastmile_qr_scan"}, "fusion_lat": 0.0, "name": "77ffd7a269243ea07a744f8ddf0a72b8", "is_reserved": 0, "is_disabled": 0, "type": "electric_scooter"}, {"fusion_lon": 0.0, "lat": 38.8938365, "lon": -77.00343633333334, "bike_id": "c36441b6dc5184c58bcf2bbf35da476c", "rental_uris": {"android": "https://dc.lft.to/lastmile_qr_scan", "ios": "https://dc.lft.to/lastmile_qr_scan"}, "fusion_lat": 0.0, "name": "c36441b6dc5184c58bcf2bbf35da476c", "is_reserved": 0, "is_disabled": 0, "type": "electric_scooter"}, {"fusion_lon": 0.0, "lat": 38.929692833333334, "lon": -77.04208233333334, "bike_id": "69b64e714c66373a3b5d9f2437ea915e", "rental_uris": {"android": "https://dc.lft.to/lastmile_qr_scan", "ios": "https://dc.lft.to/lastmile_qr_scan"}, "fusion_lat": 0.0, "name": "69b64e714c66373a3b5d9f2437ea915e", "is_reserved": 0, "is_disabled": 0, "type": "electric_scooter"}, {"fusion_lon": 0.0, "lat": 38.91350766666667, "lon": -77.03183966666667, "bike_id": "342269d394251f1e99b49451fccd8448", "rental_uris": {"android": "https://dc.lft.to/lastmile_qr_scan", "ios": "https://dc.lft.to/lastmile_qr_scan"}, "fusion_lat": 0.0, "name": "342269d394251f1e99b49451fccd8448", "is_reserved": 0, "is_disabled": 0, "type": "electric_scooter"}, {"fusion_lon": 0.0, "lat": 38.926049, "lon": -77.021586, "bike_id": "5a54788ebe9a188b425d5762377bc4bc", "rental_uris": {"android": "https://dc.lft.to/lastmile_qr_scan", "ios": "https://dc.lft.to/lastmile_qr_scan"}, "fusion_lat": 0.0, "name": "5a54788ebe9a188b425d5762377bc4bc", "is_reserved": 0, "is_disabled": 0, "type": "electric_scooter"}, {"fusion_lon": 0.0, "lat": 38.893613, "lon": -77.003362, "bike_id": "e24f8e7796dd1379ab7b9fd20dbcf569", "rental_uris": {"android": "https://dc.lft.to/lastmile_qr_scan", "ios": "https://dc.lft.to/lastmile_qr_scan"}, "fusion_lat": 0.0, "name": "e24f8e7796dd1379ab7b9fd20dbcf569", "is_reserved": 0, "is_disabled": 0, "type": "electric_scooter"}, {"fusion_lon": 0.0, "lat": 38.89728016666667, "lon": -77.031193, "bike_id": "ac7f6af66b7760147d91cccd14afa954", "rental_uris": {"android": "https://dc.lft.to/lastmile_qr_scan", "ios": "https://dc.lft.to/lastmile_qr_scan"}, "fusion_lat": 0.0, "name": "ac7f6af66b7760147d91cccd14afa954", "is_reserved": 0, "is_disabled": 0, "type": "electric_scooter"}, {"fusion_lon": 0.0, "lat": 38.92236833333333, "lon": -77.02853866666666, "bike_id": "8cceb25a1ee4522e623ae6d93ae94b90", "rental_uris": {"android": "https://dc.lft.to/lastmile_qr_scan", "ios": "https://dc.lft.to/lastmile_qr_scan"}, "fusion_lat": 0.0, "name": "8cceb25a1ee4522e623ae6d93ae94b90", "is_reserved": 0, "is_disabled": 0, "type": "electric_scooter"}, {"fusion_lon": 0.0, "lat": 38.913415, "lon": -77.04361266666666, "bike_id": "276911d736d266e29e0f703df02cbc99", "rental_uris": {"android": "https://dc.lft.to/lastmile_qr_scan", "ios": "https://dc.lft.to/lastmile_qr_scan"}, "fusion_lat": 0.0, "name": "276911d736d266e29e0f703df02cbc99", "is_reserved": 0, "is_disabled": 0, "type": "electric_scooter"}, {"fusion_lon": 0.0, "lat": 38.905236, "lon": -77.06449383333333, "bike_id": "65073637347cd23e8fb7262450bfb864", "rental_uris": {"android": "https://dc.lft.to/lastmile_qr_scan", "ios": "https://dc.lft.to/lastmile_qr_scan"}, "fusion_lat": 0.0, "name": "65073637347cd23e8fb7262450bfb864", "is_reserved": 0, "is_disabled": 0, "type": "electric_scooter"}, {"fusion_lon": 0.0, "lat": 38.9002235, "lon": -77.041089, "bike_id": "111b1e9837f10d87b50904913bd64d3e", "rental_uris": {"android": "https://dc.lft.to/lastmile_qr_scan", "ios": "https://dc.lft.to/lastmile_qr_scan"}, "fusion_lat": 0.0, "name": "111b1e9837f10d87b50904913bd64d3e", "is_reserved": 0, "is_disabled": 0, "type": "electric_scooter"}, {"fusion_lon": 0.0, "lat": 38.90200933333333, "lon": -77.0225265, "bike_id": "1a3f32df6ef45ea514a52f96dfcc4a02", "rental_uris": {"android": "https://dc.lft.to/lastmile_qr_scan", "ios": "https://dc.lft.to/lastmile_qr_scan"}, "fusion_lat": 0.0, "name": "1a3f32df6ef45ea514a52f96dfcc4a02", "is_reserved": 0, "is_disabled": 0, "type": "electric_scooter"}, {"fusion_lon": 0.0, "lat": 38.952553, "lon": -77.06850216666666, "bike_id": "64520d8a97c5c7a312888f3d3c8c4720", "rental_uris": {"android": "https://dc.lft.to/lastmile_qr_scan", "ios": "https://dc.lft.to/lastmile_qr_scan"}, "fusion_lat": 0.0, "name": "64520d8a97c5c7a312888f3d3c8c4720", "is_reserved": 0, "is_disabled": 0, "type": "electric_scooter"}, {"fusion_lon": 0.0, "lat": 38.8769935, "lon": -77.0165605, "bike_id": "975612d7591473717e7007c831832dad", "rental_uris": {"android": "https://dc.lft.to/lastmile_qr_scan", "ios": "https://dc.lft.to/lastmile_qr_scan"}, "fusion_lat": 0.0, "name": "975612d7591473717e7007c831832dad", "is_reserved": 0, "is_disabled": 0, "type": "electric_scooter"}, {"fusion_lon": 0.0, "lat": 38.9016745, "lon": -77.0012625, "bike_id": "c2e54fac97463ebccaccfb8fd1cacdf3", "rental_uris": {"android": "https://dc.lft.to/lastmile_qr_scan", "ios": "https://dc.lft.to/lastmile_qr_scan"}, "fusion_lat": 0.0, "name": "c2e54fac97463ebccaccfb8fd1cacdf3", "is_reserved": 0, "is_disabled": 0, "type": "electric_scooter"}, {"fusion_lon": 0.0, "lat": 38.8974825, "lon": -77.02685233333334, "bike_id": "209e79b7091464a878c0d31fd1373aec", "rental_uris": {"android": "https://dc.lft.to/lastmile_qr_scan", "ios": "https://dc.lft.to/lastmile_qr_scan"}, "fusion_lat": 0.0, "name": "209e79b7091464a878c0d31fd1373aec", "is_reserved": 0, "is_disabled": 0, "type": "electric_scooter"}, {"fusion_lon": 0.0, "lat": 38.91684516666667, "lon": -77.03821666666667, "bike_id": "a47a42f82b2f9f5b37ae2fbf3703f0de", "rental_uris": {"android": "https://dc.lft.to/lastmile_qr_scan", "ios": "https://dc.lft.to/lastmile_qr_scan"}, "fusion_lat": 0.0, "name": "a47a42f82b2f9f5b37ae2fbf3703f0de", "is_reserved": 0, "is_disabled": 0, "type": "electric_scooter"}, {"fusion_lon": 0.0, "lat": 38.896327166666666, "lon": -77.04021383333334, "bike_id": "61c894fe578d6e44358fcddde986f74e", "rental_uris": {"android": "https://dc.lft.to/lastmile_qr_scan", "ios": "https://dc.lft.to/lastmile_qr_scan"}, "fusion_lat": 0.0, "name": "61c894fe578d6e44358fcddde986f74e", "is_reserved": 0, "is_disabled": 0, "type": "electric_scooter"}, {"fusion_lon": 0.0, "lat": 38.89602516666667, "lon": -77.05443483333333, "bike_id": "f8549e7fdeb4256a8e6f522f50e22c37", "rental_uris": {"android": "https://dc.lft.to/lastmile_qr_scan", "ios": "https://dc.lft.to/lastmile_qr_scan"}, "fusion_lat": 0.0, "name": "f8549e7fdeb4256a8e6f522f50e22c37", "is_reserved": 0, "is_disabled": 0, "type": "electric_scooter"}, {"fusion_lon": 0.0, "lat": 38.8862335, "lon": -77.03167466666666, "bike_id": "38d6c596d147038f61eef9b00e66d3bb", "rental_uris": {"android": "https://dc.lft.to/lastmile_qr_scan", "ios": "https://dc.lft.to/lastmile_qr_scan"}, "fusion_lat": 0.0, "name": "38d6c596d147038f61eef9b00e66d3bb", "is_reserved": 0, "is_disabled": 0, "type": "electric_scooter"}, {"fusion_lon": 0.0, "lat": 38.886883166666664, "lon": -77.022062, "bike_id": "94a2bcbe19e57c1c35290cf43845aa1c", "rental_uris": {"android": "https://dc.lft.to/lastmile_qr_scan", "ios": "https://dc.lft.to/lastmile_qr_scan"}, "fusion_lat": 0.0, "name": "94a2bcbe19e57c1c35290cf43845aa1c", "is_reserved": 0, "is_disabled": 0, "type": "electric_scooter"}, {"fusion_lon": 0.0, "lat": 38.9159055, "lon": -77.0317495, "bike_id": "767a4a7078afa6307cb38012c839c217", "rental_uris": {"android": "https://dc.lft.to/lastmile_qr_scan", "ios": "https://dc.lft.to/lastmile_qr_scan"}, "fusion_lat": 0.0, "name": "767a4a7078afa6307cb38012c839c217", "is_reserved": 0, "is_disabled": 0, "type": "electric_scooter"}, {"fusion_lon": 0.0, "lat": 38.92314833333333, "lon": -77.01951883333334, "bike_id": "48bf68cfec664620dbf76cf23fe46562", "rental_uris": {"android": "https://dc.lft.to/lastmile_qr_scan", "ios": "https://dc.lft.to/lastmile_qr_scan"}, "fusion_lat": 0.0, "name": "48bf68cfec664620dbf76cf23fe46562", "is_reserved": 0, "is_disabled": 0, "type": "electric_scooter"}, {"fusion_lon": 0.0, "lat": 38.9448985, "lon": -77.06391966666666, "bike_id": "6802c2d89472f0a7b1acfcf1e0f3618e", "rental_uris": {"android": "https://dc.lft.to/lastmile_qr_scan", "ios": "https://dc.lft.to/lastmile_qr_scan"}, "fusion_lat": 0.0, "name": "6802c2d89472f0a7b1acfcf1e0f3618e", "is_reserved": 0, "is_disabled": 0, "type": "electric_scooter"}, {"fusion_lon": 0.0, "lat": 38.893286333333336, "lon": -76.93935033333334, "bike_id": "13e7594656a5e0869e625af37d551c65", "rental_uris": {"android": "https://dc.lft.to/lastmile_qr_scan", "ios": "https://dc.lft.to/lastmile_qr_scan"}, "fusion_lat": 0.0, "name": "13e7594656a5e0869e625af37d551c65", "is_reserved": 0, "is_disabled": 0, "type": "electric_scooter"}, {"fusion_lon": 0.0, "lat": 38.928068833333334, "lon": -77.02916166666667, "bike_id": "91ce5e464627a65f791f8e201b39719d", "rental_uris": {"android": "https://dc.lft.to/lastmile_qr_scan", "ios": "https://dc.lft.to/lastmile_qr_scan"}, "fusion_lat": 0.0, "name": "91ce5e464627a65f791f8e201b39719d", "is_reserved": 0, "is_disabled": 0, "type": "electric_scooter"}, {"fusion_lon": 0.0, "lat": 38.90922616666667, "lon": -76.984694, "bike_id": "ec8ee8e2be674cd34050be7c4e4a5370", "rental_uris": {"android": "https://dc.lft.to/lastmile_qr_scan", "ios": "https://dc.lft.to/lastmile_qr_scan"}, "fusion_lat": 0.0, "name": "ec8ee8e2be674cd34050be7c4e4a5370", "is_reserved": 0, "is_disabled": 0, "type": "electric_scooter"}, {"fusion_lon": 0.0, "lat": 38.782993833333336, "lon": -77.11405266666667, "bike_id": "e5b2f6015e34ce37b8ab25ca9683d386", "rental_uris": {"android": "https://dc.lft.to/lastmile_qr_scan", "ios": "https://dc.lft.to/lastmile_qr_scan"}, "fusion_lat": 0.0, "name": "e5b2f6015e34ce37b8ab25ca9683d386", "is_reserved": 0, "is_disabled": 0, "type": "electric_bike"}, {"fusion_lon": 0.0, "lat": 38.88323166666667, "lon": -77.009599, "bike_id": "707e2446e6bd27272ccf635170611887", "rental_uris": {"android": "https://dc.lft.to/lastmile_qr_scan", "ios": "https://dc.lft.to/lastmile_qr_scan"}, "fusion_lat": 0.0, "name": "707e2446e6bd27272ccf635170611887", "is_reserved": 0, "is_disabled": 0, "type": "electric_scooter"}, {"fusion_lon": 0.0, "lat": 38.90051866666667, "lon": -76.98495183333333, "bike_id": "7031eae5356eec3fdab3a606b6fabed5", "rental_uris": {"android": "https://dc.lft.to/lastmile_qr_scan", "ios": "https://dc.lft.to/lastmile_qr_scan"}, "fusion_lat": 0.0, "name": "7031eae5356eec3fdab3a606b6fabed5", "is_reserved": 0, "is_disabled": 0, "type": "electric_scooter"}, {"fusion_lon": 0.0, "lat": 38.923330666666665, "lon": -77.0568235, "bike_id": "3664f4d1c93ca89d8020d202eef2225d", "rental_uris": {"android": "https://dc.lft.to/lastmile_qr_scan", "ios": "https://dc.lft.to/lastmile_qr_scan"}, "fusion_lat": 0.0, "name": "3664f4d1c93ca89d8020d202eef2225d", "is_reserved": 0, "is_disabled": 0, "type": "electric_scooter"}, {"fusion_lon": 0.0, "lat": 38.897471333333336, "lon": -77.01908433333334, "bike_id": "faf5a3fdd05db55e083f69fce800873e", "rental_uris": {"android": "https://dc.lft.to/lastmile_qr_scan", "ios": "https://dc.lft.to/lastmile_qr_scan"}, "fusion_lat": 0.0, "name": "faf5a3fdd05db55e083f69fce800873e", "is_reserved": 0, "is_disabled": 0, "type": "electric_scooter"}, {"fusion_lon": 0.0, "lat": 38.90563516666667, "lon": -77.00612633333333, "bike_id": "d86d90324654fb6201f19336362946dc", "rental_uris": {"android": "https://dc.lft.to/lastmile_qr_scan", "ios": "https://dc.lft.to/lastmile_qr_scan"}, "fusion_lat": 0.0, "name": "d86d90324654fb6201f19336362946dc", "is_reserved": 0, "is_disabled": 0, "type": "electric_scooter"}, {"fusion_lon": 0.0, "lat": 38.941785833333334, "lon": -77.03093716666666, "bike_id": "7ac25018612b5e2b7cdc8cdb94b46169", "rental_uris": {"android": "https://dc.lft.to/lastmile_qr_scan", "ios": "https://dc.lft.to/lastmile_qr_scan"}, "fusion_lat": 0.0, "name": "7ac25018612b5e2b7cdc8cdb94b46169", "is_reserved": 0, "is_disabled": 0, "type": "electric_scooter"}, {"fusion_lon": 0.0, "lat": 38.90357683333333, "lon": -77.03690166666667, "bike_id": "1330fc85ab54716b939cffa89a6dcd5f", "rental_uris": {"android": "https://dc.lft.to/lastmile_qr_scan", "ios": "https://dc.lft.to/lastmile_qr_scan"}, "fusion_lat": 0.0, "name": "1330fc85ab54716b939cffa89a6dcd5f", "is_reserved": 0, "is_disabled": 0, "type": "electric_scooter"}, {"fusion_lon": 0.0, "lat": 38.86565683333333, "lon": -76.97836783333334, "bike_id": "9e1a4cb47a193dd305da657785b4b833", "rental_uris": {"android": "https://dc.lft.to/lastmile_qr_scan", "ios": "https://dc.lft.to/lastmile_qr_scan"}, "fusion_lat": 0.0, "name": "9e1a4cb47a193dd305da657785b4b833", "is_reserved": 0, "is_disabled": 0, "type": "electric_scooter"}, {"fusion_lon": 0.0, "lat": 38.89684466666667, "lon": -76.9366935, "bike_id": "c5cfa4031f3c206bb0728a961c1e1590", "rental_uris": {"android": "https://dc.lft.to/lastmile_qr_scan", "ios": "https://dc.lft.to/lastmile_qr_scan"}, "fusion_lat": 0.0, "name": "c5cfa4031f3c206bb0728a961c1e1590", "is_reserved": 0, "is_disabled": 0, "type": "electric_scooter"}, {"fusion_lon": 0.0, "lat": 38.92389083333333, "lon": -76.99604816666667, "bike_id": "bc7b445453c3788687d85b53da41bb4d", "rental_uris": {"android": "https://dc.lft.to/lastmile_qr_scan", "ios": "https://dc.lft.to/lastmile_qr_scan"}, "fusion_lat": 0.0, "name": "bc7b445453c3788687d85b53da41bb4d", "is_reserved": 0, "is_disabled": 0, "type": "electric_scooter"}, {"fusion_lon": 0.0, "lat": 38.91553716666667, "lon": -77.0072565, "bike_id": "b523956e77ff3e04bd43889201070ce2", "rental_uris": {"android": "https://dc.lft.to/lastmile_qr_scan", "ios": "https://dc.lft.to/lastmile_qr_scan"}, "fusion_lat": 0.0, "name": "b523956e77ff3e04bd43889201070ce2", "is_reserved": 0, "is_disabled": 0, "type": "electric_scooter"}, {"fusion_lon": 0.0, "lat": 38.88709733333334, "lon": -76.9834055, "bike_id": "55f89df1d311d172ec16e9aee35887b4", "rental_uris": {"android": "https://dc.lft.to/lastmile_qr_scan", "ios": "https://dc.lft.to/lastmile_qr_scan"}, "fusion_lat": 0.0, "name": "55f89df1d311d172ec16e9aee35887b4", "is_reserved": 0, "is_disabled": 0, "type": "electric_scooter"}, {"fusion_lon": 0.0, "lat": 38.911212166666665, "lon": -77.044295, "bike_id": "3ff2256b1b4193cabbf198fcadf98684", "rental_uris": {"android": "https://dc.lft.to/lastmile_qr_scan", "ios": "https://dc.lft.to/lastmile_qr_scan"}, "fusion_lat": 0.0, "name": "3ff2256b1b4193cabbf198fcadf98684", "is_reserved": 0, "is_disabled": 0, "type": "electric_scooter"}, {"fusion_lon": 0.0, "lat": 38.907278833333336, "lon": -77.04231266666666, "bike_id": "46e2b3c0292bfd599686e3a027bce604", "rental_uris": {"android": "https://dc.lft.to/lastmile_qr_scan", "ios": "https://dc.lft.to/lastmile_qr_scan"}, "fusion_lat": 0.0, "name": "46e2b3c0292bfd599686e3a027bce604", "is_reserved": 0, "is_disabled": 0, "type": "electric_scooter"}, {"fusion_lon": 0.0, "lat": 38.88023366666667, "lon": -76.94328033333333, "bike_id": "04f914a1327567fea8ad1533feb93340", "rental_uris": {"android": "https://dc.lft.to/lastmile_qr_scan", "ios": "https://dc.lft.to/lastmile_qr_scan"}, "fusion_lat": 0.0, "name": "04f914a1327567fea8ad1533feb93340", "is_reserved": 0, "is_disabled": 0, "type": "electric_scooter"}, {"fusion_lon": 0.0, "lat": 38.803825333333336, "lon": -76.98815683333333, "bike_id": "57a66e0b0611e5ba8a9cac76b464682b", "rental_uris": {"android": "https://dc.lft.to/lastmile_qr_scan", "ios": "https://dc.lft.to/lastmile_qr_scan"}, "fusion_lat": 0.0, "name": "57a66e0b0611e5ba8a9cac76b464682b", "is_reserved": 0, "is_disabled": 0, "type": "electric_bike"}, {"fusion_lon": 0.0, "lat": 38.92253133333333, "lon": -77.0298085, "bike_id": "72474670e7208d19ffaf2946a4ef58fa", "rental_uris": {"android": "https://dc.lft.to/lastmile_qr_scan", "ios": "https://dc.lft.to/lastmile_qr_scan"}, "fusion_lat": 0.0, "name": "72474670e7208d19ffaf2946a4ef58fa", "is_reserved": 0, "is_disabled": 0, "type": "electric_scooter"}, {"fusion_lon": 0.0, "lat": 38.8870795, "lon": -76.983405, "bike_id": "abca1301691b59f4d70fea822e454e12", "rental_uris": {"android": "https://dc.lft.to/lastmile_qr_scan", "ios": "https://dc.lft.to/lastmile_qr_scan"}, "fusion_lat": 0.0, "name": "abca1301691b59f4d70fea822e454e12", "is_reserved": 0, "is_disabled": 0, "type": "electric_scooter"}, {"fusion_lon": 0.0, "lat": 38.893549666666665, "lon": -77.003368, "bike_id": "139df2ead086e78a95ece048d21323fa", "rental_uris": {"android": "https://dc.lft.to/lastmile_qr_scan", "ios": "https://dc.lft.to/lastmile_qr_scan"}, "fusion_lat": 0.0, "name": "139df2ead086e78a95ece048d21323fa", "is_reserved": 0, "is_disabled": 0, "type": "electric_scooter"}, {"fusion_lon": 0.0, "lat": 38.9940805, "lon": -77.01804233333333, "bike_id": "a4767f5199e2d665a82ec6b9a06008c9", "rental_uris": {"android": "https://dc.lft.to/lastmile_qr_scan", "ios": "https://dc.lft.to/lastmile_qr_scan"}, "fusion_lat": 0.0, "name": "a4767f5199e2d665a82ec6b9a06008c9", "is_reserved": 0, "is_disabled": 0, "type": "electric_bike"}, {"fusion_lon": 0.0, "lat": 38.944689333333336, "lon": -76.9869165, "bike_id": "62d3a4a2c7918cfc33a97bbab3736e43", "rental_uris": {"android": "https://dc.lft.to/lastmile_qr_scan", "ios": "https://dc.lft.to/lastmile_qr_scan"}, "fusion_lat": 0.0, "name": "62d3a4a2c7918cfc33a97bbab3736e43", "is_reserved": 0, "is_disabled": 0, "type": "electric_bike"}, {"fusion_lon": 0.0, "lat": 38.9252305, "lon": -77.05229583333333, "bike_id": "5b18dc7181b1a85bba1f519b71999476", "rental_uris": {"android": "https://dc.lft.to/lastmile_qr_scan", "ios": "https://dc.lft.to/lastmile_qr_scan"}, "fusion_lat": 0.0, "name": "5b18dc7181b1a85bba1f519b71999476", "is_reserved": 0, "is_disabled": 0, "type": "electric_scooter"}, {"fusion_lon": 0.0, "lat": 38.927886, "lon": -77.037202, "bike_id": "8442145bb3cad082a0faef67ca774a5a", "rental_uris": {"android": "https://dc.lft.to/lastmile_qr_scan", "ios": "https://dc.lft.to/lastmile_qr_scan"}, "fusion_lat": 0.0, "name": "8442145bb3cad082a0faef67ca774a5a", "is_reserved": 0, "is_disabled": 0, "type": "electric_scooter"}, {"fusion_lon": 0.0, "lat": 38.918077, "lon": -77.03439816666666, "bike_id": "ba06fd864a353cb9140edfa1d4d1f1fd", "rental_uris": {"android": "https://dc.lft.to/lastmile_qr_scan", "ios": "https://dc.lft.to/lastmile_qr_scan"}, "fusion_lat": 0.0, "name": "ba06fd864a353cb9140edfa1d4d1f1fd", "is_reserved": 0, "is_disabled": 0, "type": "electric_scooter"}, {"fusion_lon": 0.0, "lat": 38.89876316666667, "lon": -77.03274033333334, "bike_id": "0ccf5e8bec93a27849f407943dff16de", "rental_uris": {"android": "https://dc.lft.to/lastmile_qr_scan", "ios": "https://dc.lft.to/lastmile_qr_scan"}, "fusion_lat": 0.0, "name": "0ccf5e8bec93a27849f407943dff16de", "is_reserved": 0, "is_disabled": 0, "type": "electric_scooter"}, {"fusion_lon": 0.0, "lat": 38.903776666666666, "lon": -77.0440355, "bike_id": "ddd5500341831dfab04de19152feff03", "rental_uris": {"android": "https://dc.lft.to/lastmile_qr_scan", "ios": "https://dc.lft.to/lastmile_qr_scan"}, "fusion_lat": 0.0, "name": "ddd5500341831dfab04de19152feff03", "is_reserved": 0, "is_disabled": 0, "type": "electric_scooter"}, {"fusion_lon": 0.0, "lat": 38.92497133333333, "lon": -77.0240625, "bike_id": "097b96f9245e88f195d80ab08b8f5802", "rental_uris": {"android": "https://dc.lft.to/lastmile_qr_scan", "ios": "https://dc.lft.to/lastmile_qr_scan"}, "fusion_lat": 0.0, "name": "097b96f9245e88f195d80ab08b8f5802", "is_reserved": 0, "is_disabled": 0, "type": "electric_scooter"}, {"fusion_lon": 0.0, "lat": 38.9211135, "lon": -77.041266, "bike_id": "92edfe4084bde4affe792298abd86b8b", "rental_uris": {"android": "https://dc.lft.to/lastmile_qr_scan", "ios": "https://dc.lft.to/lastmile_qr_scan"}, "fusion_lat": 0.0, "name": "92edfe4084bde4affe792298abd86b8b", "is_reserved": 0, "is_disabled": 0, "type": "electric_scooter"}, {"fusion_lon": 0.0, "lat": 38.94176516666667, "lon": -77.03154366666666, "bike_id": "049dd9067c56a665b7fd576b0882f008", "rental_uris": {"android": "https://dc.lft.to/lastmile_qr_scan", "ios": "https://dc.lft.to/lastmile_qr_scan"}, "fusion_lat": 0.0, "name": "049dd9067c56a665b7fd576b0882f008", "is_reserved": 0, "is_disabled": 0, "type": "electric_scooter"}, {"fusion_lon": 0.0, "lat": 38.901353666666665, "lon": -77.03369083333334, "bike_id": "7bb18db4af1aadb5ddd7ce9d7e77eeca", "rental_uris": {"android": "https://dc.lft.to/lastmile_qr_scan", "ios": "https://dc.lft.to/lastmile_qr_scan"}, "fusion_lat": 0.0, "name": "7bb18db4af1aadb5ddd7ce9d7e77eeca", "is_reserved": 0, "is_disabled": 0, "type": "electric_scooter"}, {"fusion_lon": 0.0, "lat": 38.88381416666667, "lon": -76.930502, "bike_id": "d4d20866ca4dc6533ae3e191bf1fffab", "rental_uris": {"android": "https://dc.lft.to/lastmile_qr_scan", "ios": "https://dc.lft.to/lastmile_qr_scan"}, "fusion_lat": 0.0, "name": "d4d20866ca4dc6533ae3e191bf1fffab", "is_reserved": 0, "is_disabled": 0, "type": "electric_scooter"}, {"fusion_lon": 0.0, "lat": 38.91943366666667, "lon": -77.02194283333333, "bike_id": "d983d14898c40916ebe42011a58c8bd9", "rental_uris": {"android": "https://dc.lft.to/lastmile_qr_scan", "ios": "https://dc.lft.to/lastmile_qr_scan"}, "fusion_lat": 0.0, "name": "d983d14898c40916ebe42011a58c8bd9", "is_reserved": 0, "is_disabled": 0, "type": "electric_scooter"}, {"fusion_lon": 0.0, "lat": 38.924458, "lon": -77.021689, "bike_id": "e0297cd131c6792f2c7d11802dfc1533", "rental_uris": {"android": "https://dc.lft.to/lastmile_qr_scan", "ios": "https://dc.lft.to/lastmile_qr_scan"}, "fusion_lat": 0.0, "name": "e0297cd131c6792f2c7d11802dfc1533", "is_reserved": 0, "is_disabled": 0, "type": "electric_scooter"}, {"fusion_lon": 0.0, "lat": 38.94531416666667, "lon": -77.344562, "bike_id": "654701eb0db9f3be272b62f2450c1898", "rental_uris": {"android": "https://dc.lft.to/lastmile_qr_scan", "ios": "https://dc.lft.to/lastmile_qr_scan"}, "fusion_lat": 0.0, "name": "654701eb0db9f3be272b62f2450c1898", "is_reserved": 0, "is_disabled": 0, "type": "electric_bike"}, {"fusion_lon": 0.0, "lat": 38.921410333333334, "lon": -77.02099816666667, "bike_id": "d980b751e90a18d4940306e2039456c8", "rental_uris": {"android": "https://dc.lft.to/lastmile_qr_scan", "ios": "https://dc.lft.to/lastmile_qr_scan"}, "fusion_lat": 0.0, "name": "d980b751e90a18d4940306e2039456c8", "is_reserved": 0, "is_disabled": 0, "type": "electric_scooter"}, {"fusion_lon": 0.0, "lat": 38.92062633333333, "lon": -77.02413816666666, "bike_id": "6911ba5189366838d3b207f732aca654", "rental_uris": {"android": "https://dc.lft.to/lastmile_qr_scan", "ios": "https://dc.lft.to/lastmile_qr_scan"}, "fusion_lat": 0.0, "name": "6911ba5189366838d3b207f732aca654", "is_reserved": 0, "is_disabled": 0, "type": "electric_scooter"}, {"fusion_lon": 0.0, "lat": 39.084328166666666, "lon": -76.951451, "bike_id": "3e2309f6198b34c63b85a8bad0232097", "rental_uris": {"android": "https://dc.lft.to/lastmile_qr_scan", "ios": "https://dc.lft.to/lastmile_qr_scan"}, "fusion_lat": 0.0, "name": "3e2309f6198b34c63b85a8bad0232097", "is_reserved": 0, "is_disabled": 0, "type": "electric_bike"}, {"fusion_lon": 0.0, "lat": 38.88655833333333, "lon": -76.93674816666666, "bike_id": "06d52b8fb51e9c2c373bf4dbb12b4e03", "rental_uris": {"android": "https://dc.lft.to/lastmile_qr_scan", "ios": "https://dc.lft.to/lastmile_qr_scan"}, "fusion_lat": 0.0, "name": "06d52b8fb51e9c2c373bf4dbb12b4e03", "is_reserved": 0, "is_disabled": 0, "type": "electric_scooter"}, {"fusion_lon": 0.0, "lat": 38.90758616666667, "lon": -77.0078135, "bike_id": "f7b1da1a1235beccf9b5b3b49008bab5", "rental_uris": {"android": "https://dc.lft.to/lastmile_qr_scan", "ios": "https://dc.lft.to/lastmile_qr_scan"}, "fusion_lat": 0.0, "name": "f7b1da1a1235beccf9b5b3b49008bab5", "is_reserved": 0, "is_disabled": 0, "type": "electric_scooter"}, {"fusion_lon": 0.0, "lat": 38.92463983333333, "lon": -77.02222, "bike_id": "07c72dd9e18dece0bee5dfd2825285fe", "rental_uris": {"android": "https://dc.lft.to/lastmile_qr_scan", "ios": "https://dc.lft.to/lastmile_qr_scan"}, "fusion_lat": 0.0, "name": "07c72dd9e18dece0bee5dfd2825285fe", "is_reserved": 0, "is_disabled": 0, "type": "electric_scooter"}, {"fusion_lon": 0.0, "lat": 38.9086965, "lon": -77.07169183333333, "bike_id": "3307d31367ba1212030b1139b78afcc1", "rental_uris": {"android": "https://dc.lft.to/lastmile_qr_scan", "ios": "https://dc.lft.to/lastmile_qr_scan"}, "fusion_lat": 0.0, "name": "3307d31367ba1212030b1139b78afcc1", "is_reserved": 0, "is_disabled": 0, "type": "electric_scooter"}, {"fusion_lon": 0.0, "lat": 38.91032033333333, "lon": -77.06501733333333, "bike_id": "bd352430f7c778ac60827ef4ce0fac5f", "rental_uris": {"android": "https://dc.lft.to/lastmile_qr_scan", "ios": "https://dc.lft.to/lastmile_qr_scan"}, "fusion_lat": 0.0, "name": "bd352430f7c778ac60827ef4ce0fac5f", "is_reserved": 0, "is_disabled": 0, "type": "electric_scooter"}, {"fusion_lon": 0.0, "lat": 38.922457666666666, "lon": -77.0195165, "bike_id": "a74d6f460448f33b04a728aaa17824f4", "rental_uris": {"android": "https://dc.lft.to/lastmile_qr_scan", "ios": "https://dc.lft.to/lastmile_qr_scan"}, "fusion_lat": 0.0, "name": "a74d6f460448f33b04a728aaa17824f4", "is_reserved": 0, "is_disabled": 0, "type": "electric_scooter"}, {"fusion_lon": 0.0, "lat": 38.921277833333335, "lon": -77.01172583333333, "bike_id": "706b36dfb7774187135de421306711a4", "rental_uris": {"android": "https://dc.lft.to/lastmile_qr_scan", "ios": "https://dc.lft.to/lastmile_qr_scan"}, "fusion_lat": 0.0, "name": "706b36dfb7774187135de421306711a4", "is_reserved": 0, "is_disabled": 0, "type": "electric_scooter"}, {"fusion_lon": 0.0, "lat": 38.919248, "lon": -77.00997983333333, "bike_id": "7d55d9ce29c182ba62466a48b7f9f628", "rental_uris": {"android": "https://dc.lft.to/lastmile_qr_scan", "ios": "https://dc.lft.to/lastmile_qr_scan"}, "fusion_lat": 0.0, "name": "7d55d9ce29c182ba62466a48b7f9f628", "is_reserved": 0, "is_disabled": 0, "type": "electric_scooter"}, {"fusion_lon": 0.0, "lat": 38.91453833333333, "lon": -77.02204133333333, "bike_id": "5e913ea8f2e578533879ad10896bd1c9", "rental_uris": {"android": "https://dc.lft.to/lastmile_qr_scan", "ios": "https://dc.lft.to/lastmile_qr_scan"}, "fusion_lat": 0.0, "name": "5e913ea8f2e578533879ad10896bd1c9", "is_reserved": 0, "is_disabled": 0, "type": "electric_scooter"}, {"fusion_lon": 0.0, "lat": 38.95308, "lon": -76.98183483333334, "bike_id": "31b01d15411c1106ad30974758e1d87f", "rental_uris": {"android": "https://dc.lft.to/lastmile_qr_scan", "ios": "https://dc.lft.to/lastmile_qr_scan"}, "fusion_lat": 0.0, "name": "31b01d15411c1106ad30974758e1d87f", "is_reserved": 0, "is_disabled": 0, "type": "electric_bike"}, {"fusion_lon": 0.0, "lat": 38.91575133333333, "lon": -77.036628, "bike_id": "fe3803fa26dcc686daa903db43053d57", "rental_uris": {"android": "https://dc.lft.to/lastmile_qr_scan", "ios": "https://dc.lft.to/lastmile_qr_scan"}, "fusion_lat": 0.0, "name": "fe3803fa26dcc686daa903db43053d57", "is_reserved": 0, "is_disabled": 0, "type": "electric_scooter"}, {"fusion_lon": 0.0, "lat": 38.90028266666667, "lon": -76.9875665, "bike_id": "b042a17c22e92291ec5da6ee4351b64b", "rental_uris": {"android": "https://dc.lft.to/lastmile_qr_scan", "ios": "https://dc.lft.to/lastmile_qr_scan"}, "fusion_lat": 0.0, "name": "b042a17c22e92291ec5da6ee4351b64b", "is_reserved": 0, "is_disabled": 0, "type": "electric_scooter"}, {"fusion_lon": 0.0, "lat": 38.90842166666667, "lon": -77.04950966666667, "bike_id": "a97730c387ea907ffee333b3f337655c", "rental_uris": {"android": "https://dc.lft.to/lastmile_qr_scan", "ios": "https://dc.lft.to/lastmile_qr_scan"}, "fusion_lat": 0.0, "name": "a97730c387ea907ffee333b3f337655c", "is_reserved": 0, "is_disabled": 0, "type": "electric_scooter"}, {"fusion_lon": 0.0, "lat": 38.869471, "lon": -77.1330715, "bike_id": "e31fa029595a118a487738a299152f24", "rental_uris": {"android": "https://dc.lft.to/lastmile_qr_scan", "ios": "https://dc.lft.to/lastmile_qr_scan"}, "fusion_lat": 0.0, "name": "e31fa029595a118a487738a299152f24", "is_reserved": 0, "is_disabled": 0, "type": "electric_bike"}, {"fusion_lon": 0.0, "lat": 38.896066166666664, "lon": -77.04516216666667, "bike_id": "3dd8e28ac9684cde7a738aa17c0fc584", "rental_uris": {"android": "https://dc.lft.to/lastmile_qr_scan", "ios": "https://dc.lft.to/lastmile_qr_scan"}, "fusion_lat": 0.0, "name": "3dd8e28ac9684cde7a738aa17c0fc584", "is_reserved": 0, "is_disabled": 0, "type": "electric_scooter"}, {"fusion_lon": 0.0, "lat": 38.920525833333336, "lon": -77.02368766666666, "bike_id": "c746f4f4435ec63afcf302064d6eaa85", "rental_uris": {"android": "https://dc.lft.to/lastmile_qr_scan", "ios": "https://dc.lft.to/lastmile_qr_scan"}, "fusion_lat": 0.0, "name": "c746f4f4435ec63afcf302064d6eaa85", "is_reserved": 0, "is_disabled": 0, "type": "electric_scooter"}, {"fusion_lon": 0.0, "lat": 38.916604666666665, "lon": -77.03857083333334, "bike_id": "d0746aa43af1edefe0e28e1a8408ce8a", "rental_uris": {"android": "https://dc.lft.to/lastmile_qr_scan", "ios": "https://dc.lft.to/lastmile_qr_scan"}, "fusion_lat": 0.0, "name": "d0746aa43af1edefe0e28e1a8408ce8a", "is_reserved": 0, "is_disabled": 0, "type": "electric_scooter"}, {"fusion_lon": 0.0, "lat": 38.92970483333333, "lon": -77.027919, "bike_id": "e7fcf2accfb76552571a9f6a120ceeda", "rental_uris": {"android": "https://dc.lft.to/lastmile_qr_scan", "ios": "https://dc.lft.to/lastmile_qr_scan"}, "fusion_lat": 0.0, "name": "e7fcf2accfb76552571a9f6a120ceeda", "is_reserved": 0, "is_disabled": 0, "type": "electric_scooter"}, {"fusion_lon": 0.0, "lat": 38.91072366666667, "lon": -77.04478066666667, "bike_id": "3348ef4c0f3d505d2f94e37d4a581f45", "rental_uris": {"android": "https://dc.lft.to/lastmile_qr_scan", "ios": "https://dc.lft.to/lastmile_qr_scan"}, "fusion_lat": 0.0, "name": "3348ef4c0f3d505d2f94e37d4a581f45", "is_reserved": 0, "is_disabled": 0, "type": "electric_scooter"}, {"fusion_lon": 0.0, "lat": 38.85444616666667, "lon": -77.08320583333334, "bike_id": "95eba0d84d9767451dc3f373d284c994", "rental_uris": {"android": "https://dc.lft.to/lastmile_qr_scan", "ios": "https://dc.lft.to/lastmile_qr_scan"}, "fusion_lat": 0.0, "name": "95eba0d84d9767451dc3f373d284c994", "is_reserved": 0, "is_disabled": 0, "type": "electric_bike"}, {"fusion_lon": 0.0, "lat": 38.933018833333335, "lon": -77.02369816666666, "bike_id": "6f3b3062344af065084fbf0e7a1ea76d", "rental_uris": {"android": "https://dc.lft.to/lastmile_qr_scan", "ios": "https://dc.lft.to/lastmile_qr_scan"}, "fusion_lat": 0.0, "name": "6f3b3062344af065084fbf0e7a1ea76d", "is_reserved": 0, "is_disabled": 0, "type": "electric_scooter"}, {"fusion_lon": 0.0, "lat": 38.90380233333333, "lon": -77.03641216666666, "bike_id": "8df756dd6e2f4fd4c28cdb997143f3c0", "rental_uris": {"android": "https://dc.lft.to/lastmile_qr_scan", "ios": "https://dc.lft.to/lastmile_qr_scan"}, "fusion_lat": 0.0, "name": "8df756dd6e2f4fd4c28cdb997143f3c0", "is_reserved": 0, "is_disabled": 0, "type": "electric_scooter"}, {"fusion_lon": 0.0, "lat": 38.93821633333334, "lon": -77.10176666666666, "bike_id": "1c8f64de55f4aa2da0a6dfeb8a3e5a2e", "rental_uris": {"android": "https://dc.lft.to/lastmile_qr_scan", "ios": "https://dc.lft.to/lastmile_qr_scan"}, "fusion_lat": 0.0, "name": "1c8f64de55f4aa2da0a6dfeb8a3e5a2e", "is_reserved": 0, "is_disabled": 0, "type": "electric_bike"}, {"fusion_lon": 0.0, "lat": 38.914025, "lon": -77.0427405, "bike_id": "63a3a6ed813e0a662de4dff143626524", "rental_uris": {"android": "https://dc.lft.to/lastmile_qr_scan", "ios": "https://dc.lft.to/lastmile_qr_scan"}, "fusion_lat": 0.0, "name": "63a3a6ed813e0a662de4dff143626524", "is_reserved": 0, "is_disabled": 0, "type": "electric_scooter"}, {"fusion_lon": 0.0, "lat": 38.928480666666665, "lon": -77.01413983333333, "bike_id": "2db43438796ef9e1031a98b3841d8faf", "rental_uris": {"android": "https://dc.lft.to/lastmile_qr_scan", "ios": "https://dc.lft.to/lastmile_qr_scan"}, "fusion_lat": 0.0, "name": "2db43438796ef9e1031a98b3841d8faf", "is_reserved": 0, "is_disabled": 0, "type": "electric_scooter"}, {"fusion_lon": 0.0, "lat": 38.86870716666667, "lon": -76.986655, "bike_id": "a38c075ec61bbf5e9c5d0f86fe856960", "rental_uris": {"android": "https://dc.lft.to/lastmile_qr_scan", "ios": "https://dc.lft.to/lastmile_qr_scan"}, "fusion_lat": 0.0, "name": "a38c075ec61bbf5e9c5d0f86fe856960", "is_reserved": 0, "is_disabled": 0, "type": "electric_scooter"}, {"fusion_lon": 0.0, "lat": 38.9269075, "lon": -77.02281383333333, "bike_id": "aebfed99a9cfb93831bf46c33620aeef", "rental_uris": {"android": "https://dc.lft.to/lastmile_qr_scan", "ios": "https://dc.lft.to/lastmile_qr_scan"}, "fusion_lat": 0.0, "name": "aebfed99a9cfb93831bf46c33620aeef", "is_reserved": 0, "is_disabled": 0, "type": "electric_scooter"}, {"fusion_lon": 0.0, "lat": 38.9012615, "lon": -77.04479216666667, "bike_id": "e456fb8c53c9f9e761debb67524465d0", "rental_uris": {"android": "https://dc.lft.to/lastmile_qr_scan", "ios": "https://dc.lft.to/lastmile_qr_scan"}, "fusion_lat": 0.0, "name": "e456fb8c53c9f9e761debb67524465d0", "is_reserved": 0, "is_disabled": 0, "type": "electric_scooter"}, {"fusion_lon": 0.0, "lat": 38.90151183333333, "lon": -77.0318545, "bike_id": "f85eb7c948e2722b0c6223820b567fe7", "rental_uris": {"android": "https://dc.lft.to/lastmile_qr_scan", "ios": "https://dc.lft.to/lastmile_qr_scan"}, "fusion_lat": 0.0, "name": "f85eb7c948e2722b0c6223820b567fe7", "is_reserved": 0, "is_disabled": 0, "type": "electric_scooter"}, {"fusion_lon": 0.0, "lat": 38.922357833333336, "lon": -77.0212055, "bike_id": "5024a18bbb9e27c05fb5bc19f8839e01", "rental_uris": {"android": "https://dc.lft.to/lastmile_qr_scan", "ios": "https://dc.lft.to/lastmile_qr_scan"}, "fusion_lat": 0.0, "name": "5024a18bbb9e27c05fb5bc19f8839e01", "is_reserved": 0, "is_disabled": 0, "type": "electric_scooter"}, {"fusion_lon": 0.0, "lat": 38.89552716666667, "lon": -77.04674983333334, "bike_id": "f3d3d75d71aad6be1cb0d38a81c50c72", "rental_uris": {"android": "https://dc.lft.to/lastmile_qr_scan", "ios": "https://dc.lft.to/lastmile_qr_scan"}, "fusion_lat": 0.0, "name": "f3d3d75d71aad6be1cb0d38a81c50c72", "is_reserved": 0, "is_disabled": 0, "type": "electric_scooter"}, {"fusion_lon": 0.0, "lat": 38.92417416666667, "lon": -77.020116, "bike_id": "07202aab1c50388b1357a5dc9b0b5baf", "rental_uris": {"android": "https://dc.lft.to/lastmile_qr_scan", "ios": "https://dc.lft.to/lastmile_qr_scan"}, "fusion_lat": 0.0, "name": "07202aab1c50388b1357a5dc9b0b5baf", "is_reserved": 0, "is_disabled": 0, "type": "electric_scooter"}, {"fusion_lon": 0.0, "lat": 38.8960785, "lon": -77.05080066666666, "bike_id": "904cddfe79d2156dd5dedf1da39d4667", "rental_uris": {"android": "https://dc.lft.to/lastmile_qr_scan", "ios": "https://dc.lft.to/lastmile_qr_scan"}, "fusion_lat": 0.0, "name": "904cddfe79d2156dd5dedf1da39d4667", "is_reserved": 0, "is_disabled": 0, "type": "electric_scooter"}, {"fusion_lon": 0.0, "lat": 38.895930666666665, "lon": -77.016252, "bike_id": "8d3958cf6652e16fdba8f83dd44dd141", "rental_uris": {"android": "https://dc.lft.to/lastmile_qr_scan", "ios": "https://dc.lft.to/lastmile_qr_scan"}, "fusion_lat": 0.0, "name": "8d3958cf6652e16fdba8f83dd44dd141", "is_reserved": 0, "is_disabled": 0, "type": "electric_scooter"}, {"fusion_lon": 0.0, "lat": 38.892566, "lon": -77.00217233333333, "bike_id": "496785488cf5df0ff97a5159941b4884", "rental_uris": {"android": "https://dc.lft.to/lastmile_qr_scan", "ios": "https://dc.lft.to/lastmile_qr_scan"}, "fusion_lat": 0.0, "name": "496785488cf5df0ff97a5159941b4884", "is_reserved": 0, "is_disabled": 0, "type": "electric_scooter"}, {"fusion_lon": 0.0, "lat": 38.897181833333335, "lon": -77.028785, "bike_id": "fa886f2c7fa8e7de93b1ba49ddc2601c", "rental_uris": {"android": "https://dc.lft.to/lastmile_qr_scan", "ios": "https://dc.lft.to/lastmile_qr_scan"}, "fusion_lat": 0.0, "name": "fa886f2c7fa8e7de93b1ba49ddc2601c", "is_reserved": 0, "is_disabled": 0, "type": "electric_scooter"}, {"fusion_lon": 0.0, "lat": 38.89788166666666, "lon": -77.02391666666666, "bike_id": "fa44d4f54bbe9698f4baab72070bab36", "rental_uris": {"android": "https://dc.lft.to/lastmile_qr_scan", "ios": "https://dc.lft.to/lastmile_qr_scan"}, "fusion_lat": 0.0, "name": "fa44d4f54bbe9698f4baab72070bab36", "is_reserved": 0, "is_disabled": 0, "type": "electric_bike"}, {"fusion_lon": 0.0, "lat": 38.907755333333334, "lon": -77.04504483333334, "bike_id": "ef8c90c80d3352e631d52e50fe95ee3b", "rental_uris": {"android": "https://dc.lft.to/lastmile_qr_scan", "ios": "https://dc.lft.to/lastmile_qr_scan"}, "fusion_lat": 0.0, "name": "ef8c90c80d3352e631d52e50fe95ee3b", "is_reserved": 0, "is_disabled": 0, "type": "electric_scooter"}, {"fusion_lon": 0.0, "lat": 38.897196, "lon": -77.046982, "bike_id": "e7848d83b3e0fad5a58ebfc546aa4d29", "rental_uris": {"android": "https://dc.lft.to/lastmile_qr_scan", "ios": "https://dc.lft.to/lastmile_qr_scan"}, "fusion_lat": 0.0, "name": "e7848d83b3e0fad5a58ebfc546aa4d29", "is_reserved": 0, "is_disabled": 0, "type": "electric_scooter"}, {"fusion_lon": 0.0, "lat": 38.91576116666667, "lon": -77.03210733333333, "bike_id": "82c3da98d877050d521bdae99d63d85f", "rental_uris": {"android": "https://dc.lft.to/lastmile_qr_scan", "ios": "https://dc.lft.to/lastmile_qr_scan"}, "fusion_lat": 0.0, "name": "82c3da98d877050d521bdae99d63d85f", "is_reserved": 0, "is_disabled": 0, "type": "electric_scooter"}, {"fusion_lon": 0.0, "lat": 38.900315166666665, "lon": -76.98756783333333, "bike_id": "a1ded859148fb96d88f8fea4aba239d4", "rental_uris": {"android": "https://dc.lft.to/lastmile_qr_scan", "ios": "https://dc.lft.to/lastmile_qr_scan"}, "fusion_lat": 0.0, "name": "a1ded859148fb96d88f8fea4aba239d4", "is_reserved": 0, "is_disabled": 0, "type": "electric_scooter"}, {"fusion_lon": 0.0, "lat": 38.90026433333333, "lon": -76.97223833333334, "bike_id": "7a41995467d4565fd6901c98649fb953", "rental_uris": {"android": "https://dc.lft.to/lastmile_qr_scan", "ios": "https://dc.lft.to/lastmile_qr_scan"}, "fusion_lat": 0.0, "name": "7a41995467d4565fd6901c98649fb953", "is_reserved": 0, "is_disabled": 0, "type": "electric_bike"}, {"fusion_lon": 0.0, "lat": 38.9059945, "lon": -77.12894083333333, "bike_id": "4393275202e2d2607373585635d9252e", "rental_uris": {"android": "https://dc.lft.to/lastmile_qr_scan", "ios": "https://dc.lft.to/lastmile_qr_scan"}, "fusion_lat": 0.0, "name": "4393275202e2d2607373585635d9252e", "is_reserved": 0, "is_disabled": 0, "type": "electric_bike"}, {"fusion_lon": 0.0, "lat": 38.896105166666665, "lon": -77.045143, "bike_id": "b863178f76ac6598938b7d617cea8017", "rental_uris": {"android": "https://dc.lft.to/lastmile_qr_scan", "ios": "https://dc.lft.to/lastmile_qr_scan"}, "fusion_lat": 0.0, "name": "b863178f76ac6598938b7d617cea8017", "is_reserved": 0, "is_disabled": 0, "type": "electric_scooter"}, {"fusion_lon": 0.0, "lat": 38.9256355, "lon": -76.9996185, "bike_id": "e14b2c867833ca9b2a41056e674d393f", "rental_uris": {"android": "https://dc.lft.to/lastmile_qr_scan", "ios": "https://dc.lft.to/lastmile_qr_scan"}, "fusion_lat": 0.0, "name": "e14b2c867833ca9b2a41056e674d393f", "is_reserved": 0, "is_disabled": 0, "type": "electric_scooter"}, {"fusion_lon": 0.0, "lat": 38.880531833333336, "lon": -77.01178116666667, "bike_id": "f752809cc9818ea5f850aef70244d58b", "rental_uris": {"android": "https://dc.lft.to/lastmile_qr_scan", "ios": "https://dc.lft.to/lastmile_qr_scan"}, "fusion_lat": 0.0, "name": "f752809cc9818ea5f850aef70244d58b", "is_reserved": 0, "is_disabled": 0, "type": "electric_scooter"}, {"fusion_lon": 0.0, "lat": 38.895772, "lon": -77.03183533333333, "bike_id": "197d4118f6250e3f26da3ff2ecc99c94", "rental_uris": {"android": "https://dc.lft.to/lastmile_qr_scan", "ios": "https://dc.lft.to/lastmile_qr_scan"}, "fusion_lat": 0.0, "name": "197d4118f6250e3f26da3ff2ecc99c94", "is_reserved": 0, "is_disabled": 0, "type": "electric_scooter"}, {"fusion_lon": 0.0, "lat": 38.884994666666664, "lon": -77.02204616666667, "bike_id": "6b32114b12d6056a8a74ad26739ea06a", "rental_uris": {"android": "https://dc.lft.to/lastmile_qr_scan", "ios": "https://dc.lft.to/lastmile_qr_scan"}, "fusion_lat": 0.0, "name": "6b32114b12d6056a8a74ad26739ea06a", "is_reserved": 0, "is_disabled": 0, "type": "electric_scooter"}, {"fusion_lon": 0.0, "lat": 38.922514, "lon": -77.01953466666667, "bike_id": "ba32f85750de5f599f3c1decb8c08a35", "rental_uris": {"android": "https://dc.lft.to/lastmile_qr_scan", "ios": "https://dc.lft.to/lastmile_qr_scan"}, "fusion_lat": 0.0, "name": "ba32f85750de5f599f3c1decb8c08a35", "is_reserved": 0, "is_disabled": 0, "type": "electric_scooter"}, {"fusion_lon": 0.0, "lat": 38.902302, "lon": -77.04610833333334, "bike_id": "d7f8f06c743b7b3e9186d7f12a6330ea", "rental_uris": {"android": "https://dc.lft.to/lastmile_qr_scan", "ios": "https://dc.lft.to/lastmile_qr_scan"}, "fusion_lat": 0.0, "name": "d7f8f06c743b7b3e9186d7f12a6330ea", "is_reserved": 0, "is_disabled": 0, "type": "electric_scooter"}, {"fusion_lon": 0.0, "lat": 38.92597716666667, "lon": -77.02156383333333, "bike_id": "76a3d3a76636b6a67a23e4be15b539d6", "rental_uris": {"android": "https://dc.lft.to/lastmile_qr_scan", "ios": "https://dc.lft.to/lastmile_qr_scan"}, "fusion_lat": 0.0, "name": "76a3d3a76636b6a67a23e4be15b539d6", "is_reserved": 0, "is_disabled": 0, "type": "electric_scooter"}, {"fusion_lon": 0.0, "lat": 38.9192615, "lon": -77.03483766666666, "bike_id": "9d6510e24bc964ceaebc606bd18d329e", "rental_uris": {"android": "https://dc.lft.to/lastmile_qr_scan", "ios": "https://dc.lft.to/lastmile_qr_scan"}, "fusion_lat": 0.0, "name": "9d6510e24bc964ceaebc606bd18d329e", "is_reserved": 0, "is_disabled": 0, "type": "electric_scooter"}, {"fusion_lon": 0.0, "lat": 38.8966495, "lon": -76.98105683333333, "bike_id": "f60adaecad6eab2fe477ea8044e333f9", "rental_uris": {"android": "https://dc.lft.to/lastmile_qr_scan", "ios": "https://dc.lft.to/lastmile_qr_scan"}, "fusion_lat": 0.0, "name": "f60adaecad6eab2fe477ea8044e333f9", "is_reserved": 0, "is_disabled": 0, "type": "electric_scooter"}, {"fusion_lon": 0.0, "lat": 38.94262166666667, "lon": -77.02847816666667, "bike_id": "987693199f824593804737507108a1d2", "rental_uris": {"android": "https://dc.lft.to/lastmile_qr_scan", "ios": "https://dc.lft.to/lastmile_qr_scan"}, "fusion_lat": 0.0, "name": "987693199f824593804737507108a1d2", "is_reserved": 0, "is_disabled": 0, "type": "electric_scooter"}, {"fusion_lon": 0.0, "lat": 38.89708, "lon": -76.99121383333333, "bike_id": "58ce2a186ad0a5791f2e6ae173e59995", "rental_uris": {"android": "https://dc.lft.to/lastmile_qr_scan", "ios": "https://dc.lft.to/lastmile_qr_scan"}, "fusion_lat": 0.0, "name": "58ce2a186ad0a5791f2e6ae173e59995", "is_reserved": 0, "is_disabled": 0, "type": "electric_scooter"}, {"fusion_lon": 0.0, "lat": 38.91543633333333, "lon": -77.04447966666666, "bike_id": "8f285c7762f17cab1f9dabcdb34a2491", "rental_uris": {"android": "https://dc.lft.to/lastmile_qr_scan", "ios": "https://dc.lft.to/lastmile_qr_scan"}, "fusion_lat": 0.0, "name": "8f285c7762f17cab1f9dabcdb34a2491", "is_reserved": 0, "is_disabled": 0, "type": "electric_scooter"}, {"fusion_lon": 0.0, "lat": 38.9349915, "lon": -76.982061, "bike_id": "4066d0de9bdedcd29d25175628b486a3", "rental_uris": {"android": "https://dc.lft.to/lastmile_qr_scan", "ios": "https://dc.lft.to/lastmile_qr_scan"}, "fusion_lat": 0.0, "name": "4066d0de9bdedcd29d25175628b486a3", "is_reserved": 0, "is_disabled": 0, "type": "electric_scooter"}, {"fusion_lon": 0.0, "lat": 38.91265083333333, "lon": -77.04456683333333, "bike_id": "8f7aa7022bfaf3d0ad41be76996e83a1", "rental_uris": {"android": "https://dc.lft.to/lastmile_qr_scan", "ios": "https://dc.lft.to/lastmile_qr_scan"}, "fusion_lat": 0.0, "name": "8f7aa7022bfaf3d0ad41be76996e83a1", "is_reserved": 0, "is_disabled": 0, "type": "electric_scooter"}, {"fusion_lon": 0.0, "lat": 38.9326475, "lon": -76.99623433333333, "bike_id": "8dfd2b5e71e5ee05a7091d9b336a6bd4", "rental_uris": {"android": "https://dc.lft.to/lastmile_qr_scan", "ios": "https://dc.lft.to/lastmile_qr_scan"}, "fusion_lat": 0.0, "name": "8dfd2b5e71e5ee05a7091d9b336a6bd4", "is_reserved": 0, "is_disabled": 0, "type": "electric_scooter"}, {"fusion_lon": 0.0, "lat": 38.899054166666666, "lon": -77.03283783333333, "bike_id": "8b6111847c8ccbe636a115f3c302594d", "rental_uris": {"android": "https://dc.lft.to/lastmile_qr_scan", "ios": "https://dc.lft.to/lastmile_qr_scan"}, "fusion_lat": 0.0, "name": "8b6111847c8ccbe636a115f3c302594d", "is_reserved": 0, "is_disabled": 0, "type": "electric_scooter"}, {"fusion_lon": 0.0, "lat": 38.89578783333333, "lon": -77.03183816666666, "bike_id": "cea8b875eb3b913d6683af82442f7edc", "rental_uris": {"android": "https://dc.lft.to/lastmile_qr_scan", "ios": "https://dc.lft.to/lastmile_qr_scan"}, "fusion_lat": 0.0, "name": "cea8b875eb3b913d6683af82442f7edc", "is_reserved": 0, "is_disabled": 0, "type": "electric_scooter"}, {"fusion_lon": 0.0, "lat": 38.97518133333333, "lon": -77.016927, "bike_id": "d15bc0e1378d58985d50f3a0ed0d4564", "rental_uris": {"android": "https://dc.lft.to/lastmile_qr_scan", "ios": "https://dc.lft.to/lastmile_qr_scan"}, "fusion_lat": 0.0, "name": "d15bc0e1378d58985d50f3a0ed0d4564", "is_reserved": 0, "is_disabled": 0, "type": "electric_scooter"}, {"fusion_lon": 0.0, "lat": 38.908000666666666, "lon": -77.03440016666667, "bike_id": "e797e812ab947e4112e696b141ad14cc", "rental_uris": {"android": "https://dc.lft.to/lastmile_qr_scan", "ios": "https://dc.lft.to/lastmile_qr_scan"}, "fusion_lat": 0.0, "name": "e797e812ab947e4112e696b141ad14cc", "is_reserved": 0, "is_disabled": 0, "type": "electric_scooter"}, {"fusion_lon": 0.0, "lat": 38.892164333333334, "lon": -77.0464505, "bike_id": "6c8cc7f95aa5e3de2586f4a9cd1bf1aa", "rental_uris": {"android": "https://dc.lft.to/lastmile_qr_scan", "ios": "https://dc.lft.to/lastmile_qr_scan"}, "fusion_lat": 0.0, "name": "6c8cc7f95aa5e3de2586f4a9cd1bf1aa", "is_reserved": 0, "is_disabled": 0, "type": "electric_scooter"}, {"fusion_lon": 0.0, "lat": 38.92885066666667, "lon": -77.032346, "bike_id": "62ae9f933061449e87982deaf1c89756", "rental_uris": {"android": "https://dc.lft.to/lastmile_qr_scan", "ios": "https://dc.lft.to/lastmile_qr_scan"}, "fusion_lat": 0.0, "name": "62ae9f933061449e87982deaf1c89756", "is_reserved": 0, "is_disabled": 0, "type": "electric_scooter"}, {"fusion_lon": 0.0, "lat": 38.913188, "lon": -77.0455255, "bike_id": "11ddb6bf8c89246827058fabe33603b6", "rental_uris": {"android": "https://dc.lft.to/lastmile_qr_scan", "ios": "https://dc.lft.to/lastmile_qr_scan"}, "fusion_lat": 0.0, "name": "11ddb6bf8c89246827058fabe33603b6", "is_reserved": 0, "is_disabled": 0, "type": "electric_scooter"}, {"fusion_lon": 0.0, "lat": 38.896626499999996, "lon": -77.05470883333334, "bike_id": "be516c3dadc20a2ea5d0854764a680b2", "rental_uris": {"android": "https://dc.lft.to/lastmile_qr_scan", "ios": "https://dc.lft.to/lastmile_qr_scan"}, "fusion_lat": 0.0, "name": "be516c3dadc20a2ea5d0854764a680b2", "is_reserved": 0, "is_disabled": 0, "type": "electric_scooter"}, {"fusion_lon": 0.0, "lat": 38.897091333333336, "lon": -77.02454883333333, "bike_id": "2d51744a4eb44e06685c161395746b5d", "rental_uris": {"android": "https://dc.lft.to/lastmile_qr_scan", "ios": "https://dc.lft.to/lastmile_qr_scan"}, "fusion_lat": 0.0, "name": "2d51744a4eb44e06685c161395746b5d", "is_reserved": 0, "is_disabled": 0, "type": "electric_scooter"}, {"fusion_lon": 0.0, "lat": 38.89589633333333, "lon": -77.0480835, "bike_id": "a792fc44a66c14ee78f83888bab90ac9", "rental_uris": {"android": "https://dc.lft.to/lastmile_qr_scan", "ios": "https://dc.lft.to/lastmile_qr_scan"}, "fusion_lat": 0.0, "name": "a792fc44a66c14ee78f83888bab90ac9", "is_reserved": 0, "is_disabled": 0, "type": "electric_scooter"}, {"fusion_lon": 0.0, "lat": 38.91981633333333, "lon": -77.03265816666666, "bike_id": "05f740767c584bdd06ba24e2e1af47d8", "rental_uris": {"android": "https://dc.lft.to/lastmile_qr_scan", "ios": "https://dc.lft.to/lastmile_qr_scan"}, "fusion_lat": 0.0, "name": "05f740767c584bdd06ba24e2e1af47d8", "is_reserved": 0, "is_disabled": 0, "type": "electric_scooter"}, {"fusion_lon": 0.0, "lat": 38.887026, "lon": -77.02176683333333, "bike_id": "321c49f8d6994edfb1111c391fd12f94", "rental_uris": {"android": "https://dc.lft.to/lastmile_qr_scan", "ios": "https://dc.lft.to/lastmile_qr_scan"}, "fusion_lat": 0.0, "name": "321c49f8d6994edfb1111c391fd12f94", "is_reserved": 0, "is_disabled": 0, "type": "electric_scooter"}, {"fusion_lon": 0.0, "lat": 38.87863016666667, "lon": -76.9966175, "bike_id": "eeaf00703d20f1d2377fe457a418698d", "rental_uris": {"android": "https://dc.lft.to/lastmile_qr_scan", "ios": "https://dc.lft.to/lastmile_qr_scan"}, "fusion_lat": 0.0, "name": "eeaf00703d20f1d2377fe457a418698d", "is_reserved": 0, "is_disabled": 0, "type": "electric_scooter"}, {"fusion_lon": 0.0, "lat": 38.845859833333336, "lon": -76.96980533333333, "bike_id": "f48e2a17db4f2fcf89cea99d9a475783", "rental_uris": {"android": "https://dc.lft.to/lastmile_qr_scan", "ios": "https://dc.lft.to/lastmile_qr_scan"}, "fusion_lat": 0.0, "name": "f48e2a17db4f2fcf89cea99d9a475783", "is_reserved": 0, "is_disabled": 0, "type": "electric_bike"}, {"fusion_lon": 0.0, "lat": 38.85446616666667, "lon": -76.9860715, "bike_id": "a6abed788cb55948eb18d55f9a7d1a5e", "rental_uris": {"android": "https://dc.lft.to/lastmile_qr_scan", "ios": "https://dc.lft.to/lastmile_qr_scan"}, "fusion_lat": 0.0, "name": "a6abed788cb55948eb18d55f9a7d1a5e", "is_reserved": 0, "is_disabled": 0, "type": "electric_bike"}, {"fusion_lon": 0.0, "lat": 38.8945165, "lon": -77.026717, "bike_id": "0a5b38a9ba506a428a0b9222fb08df60", "rental_uris": {"android": "https://dc.lft.to/lastmile_qr_scan", "ios": "https://dc.lft.to/lastmile_qr_scan"}, "fusion_lat": 0.0, "name": "0a5b38a9ba506a428a0b9222fb08df60", "is_reserved": 0, "is_disabled": 0, "type": "electric_scooter"}, {"fusion_lon": 0.0, "lat": 38.919410666666664, "lon": -77.01380816666666, "bike_id": "ed984944f292ef0786412a82a6946da8", "rental_uris": {"android": "https://dc.lft.to/lastmile_qr_scan", "ios": "https://dc.lft.to/lastmile_qr_scan"}, "fusion_lat": 0.0, "name": "ed984944f292ef0786412a82a6946da8", "is_reserved": 0, "is_disabled": 0, "type": "electric_scooter"}, {"fusion_lon": 0.0, "lat": 38.90512666666667, "lon": -77.0448485, "bike_id": "971cd84829962e95a6ef0b6b2957e0e0", "rental_uris": {"android": "https://dc.lft.to/lastmile_qr_scan", "ios": "https://dc.lft.to/lastmile_qr_scan"}, "fusion_lat": 0.0, "name": "971cd84829962e95a6ef0b6b2957e0e0", "is_reserved": 0, "is_disabled": 0, "type": "electric_scooter"}, {"fusion_lon": 0.0, "lat": 38.924041, "lon": -77.02696633333333, "bike_id": "91d94d19edbda3c0627ba09b269c3c64", "rental_uris": {"android": "https://dc.lft.to/lastmile_qr_scan", "ios": "https://dc.lft.to/lastmile_qr_scan"}, "fusion_lat": 0.0, "name": "91d94d19edbda3c0627ba09b269c3c64", "is_reserved": 0, "is_disabled": 0, "type": "electric_scooter"}, {"fusion_lon": 0.0, "lat": 38.88022466666666, "lon": -77.02324183333333, "bike_id": "dc98144bf06c7715e5c7da9cb287ce4f", "rental_uris": {"android": "https://dc.lft.to/lastmile_qr_scan", "ios": "https://dc.lft.to/lastmile_qr_scan"}, "fusion_lat": 0.0, "name": "dc98144bf06c7715e5c7da9cb287ce4f", "is_reserved": 0, "is_disabled": 0, "type": "electric_scooter"}, {"fusion_lon": 0.0, "lat": 38.89637, "lon": -77.0399025, "bike_id": "0f9474c54e980ca6dc7041e3f713b87a", "rental_uris": {"android": "https://dc.lft.to/lastmile_qr_scan", "ios": "https://dc.lft.to/lastmile_qr_scan"}, "fusion_lat": 0.0, "name": "0f9474c54e980ca6dc7041e3f713b87a", "is_reserved": 0, "is_disabled": 0, "type": "electric_scooter"}, {"fusion_lon": 0.0, "lat": 38.934567666666666, "lon": -76.96448416666667, "bike_id": "10344660892464ec09336069cbc82d0c", "rental_uris": {"android": "https://dc.lft.to/lastmile_qr_scan", "ios": "https://dc.lft.to/lastmile_qr_scan"}, "fusion_lat": 0.0, "name": "10344660892464ec09336069cbc82d0c", "is_reserved": 0, "is_disabled": 0, "type": "electric_scooter"}, {"fusion_lon": 0.0, "lat": 38.923743333333334, "lon": -77.0353165, "bike_id": "3ce97e7b020b6f424281a9d7eb27078c", "rental_uris": {"android": "https://dc.lft.to/lastmile_qr_scan", "ios": "https://dc.lft.to/lastmile_qr_scan"}, "fusion_lat": 0.0, "name": "3ce97e7b020b6f424281a9d7eb27078c", "is_reserved": 0, "is_disabled": 0, "type": "electric_scooter"}, {"fusion_lon": 0.0, "lat": 38.90251716666667, "lon": -76.9848545, "bike_id": "0f9a6856899285c110e2b402636540b0", "rental_uris": {"android": "https://dc.lft.to/lastmile_qr_scan", "ios": "https://dc.lft.to/lastmile_qr_scan"}, "fusion_lat": 0.0, "name": "0f9a6856899285c110e2b402636540b0", "is_reserved": 0, "is_disabled": 0, "type": "electric_scooter"}, {"fusion_lon": 0.0, "lat": 38.90608616666667, "lon": -77.04338083333333, "bike_id": "c826fbf5a8087a428351eba8bcba571a", "rental_uris": {"android": "https://dc.lft.to/lastmile_qr_scan", "ios": "https://dc.lft.to/lastmile_qr_scan"}, "fusion_lat": 0.0, "name": "c826fbf5a8087a428351eba8bcba571a", "is_reserved": 0, "is_disabled": 0, "type": "electric_scooter"}, {"fusion_lon": 0.0, "lat": 38.90390083333333, "lon": -76.97367666666666, "bike_id": "c6439343ee0edaa5d859c829cc13c27c", "rental_uris": {"android": "https://dc.lft.to/lastmile_qr_scan", "ios": "https://dc.lft.to/lastmile_qr_scan"}, "fusion_lat": 0.0, "name": "c6439343ee0edaa5d859c829cc13c27c", "is_reserved": 0, "is_disabled": 0, "type": "electric_scooter"}, {"fusion_lon": 0.0, "lat": 38.90567183333334, "lon": -77.029777, "bike_id": "093dbc4c3a939811958568cb25f59e2e", "rental_uris": {"android": "https://dc.lft.to/lastmile_qr_scan", "ios": "https://dc.lft.to/lastmile_qr_scan"}, "fusion_lat": 0.0, "name": "093dbc4c3a939811958568cb25f59e2e", "is_reserved": 0, "is_disabled": 0, "type": "electric_scooter"}, {"fusion_lon": 0.0, "lat": 38.9169055, "lon": -77.03819766666666, "bike_id": "ce6eced2d8c545071d3b190104698dd8", "rental_uris": {"android": "https://dc.lft.to/lastmile_qr_scan", "ios": "https://dc.lft.to/lastmile_qr_scan"}, "fusion_lat": 0.0, "name": "ce6eced2d8c545071d3b190104698dd8", "is_reserved": 0, "is_disabled": 0, "type": "electric_scooter"}, {"fusion_lon": 0.0, "lat": 38.906441, "lon": -77.04865566666666, "bike_id": "0b126c81d9fb6a8c862b4ebff200466a", "rental_uris": {"android": "https://dc.lft.to/lastmile_qr_scan", "ios": "https://dc.lft.to/lastmile_qr_scan"}, "fusion_lat": 0.0, "name": "0b126c81d9fb6a8c862b4ebff200466a", "is_reserved": 0, "is_disabled": 0, "type": "electric_scooter"}, {"fusion_lon": 0.0, "lat": 38.94164883333333, "lon": -77.03408433333334, "bike_id": "bca744bc946625e49795762d9ba93e6a", "rental_uris": {"android": "https://dc.lft.to/lastmile_qr_scan", "ios": "https://dc.lft.to/lastmile_qr_scan"}, "fusion_lat": 0.0, "name": "bca744bc946625e49795762d9ba93e6a", "is_reserved": 0, "is_disabled": 0, "type": "electric_scooter"}, {"fusion_lon": 0.0, "lat": 38.92058183333333, "lon": -76.97074583333334, "bike_id": "a8f05576da1fde29a9115e5417eb6973", "rental_uris": {"android": "https://dc.lft.to/lastmile_qr_scan", "ios": "https://dc.lft.to/lastmile_qr_scan"}, "fusion_lat": 0.0, "name": "a8f05576da1fde29a9115e5417eb6973", "is_reserved": 0, "is_disabled": 0, "type": "electric_bike"}, {"fusion_lon": 0.0, "lat": 38.903141, "lon": -77.0248425, "bike_id": "5aa5efa5d248d47c3eaa7ca75574b045", "rental_uris": {"android": "https://dc.lft.to/lastmile_qr_scan", "ios": "https://dc.lft.to/lastmile_qr_scan"}, "fusion_lat": 0.0, "name": "5aa5efa5d248d47c3eaa7ca75574b045", "is_reserved": 0, "is_disabled": 0, "type": "electric_scooter"}, {"fusion_lon": 0.0, "lat": 38.92657766666667, "lon": -77.02420033333334, "bike_id": "903260fea82b141b0083daad4a355d5f", "rental_uris": {"android": "https://dc.lft.to/lastmile_qr_scan", "ios": "https://dc.lft.to/lastmile_qr_scan"}, "fusion_lat": 0.0, "name": "903260fea82b141b0083daad4a355d5f", "is_reserved": 0, "is_disabled": 0, "type": "electric_scooter"}, {"fusion_lon": 0.0, "lat": 38.89737733333333, "lon": -77.04362416666666, "bike_id": "59225325f8185d6fbde8756168bff699", "rental_uris": {"android": "https://dc.lft.to/lastmile_qr_scan", "ios": "https://dc.lft.to/lastmile_qr_scan"}, "fusion_lat": 0.0, "name": "59225325f8185d6fbde8756168bff699", "is_reserved": 0, "is_disabled": 0, "type": "electric_scooter"}, {"fusion_lon": 0.0, "lat": 38.90026266666667, "lon": -76.99905, "bike_id": "df518f916d0f2cc67ac0d7b7e244fc3c", "rental_uris": {"android": "https://dc.lft.to/lastmile_qr_scan", "ios": "https://dc.lft.to/lastmile_qr_scan"}, "fusion_lat": 0.0, "name": "df518f916d0f2cc67ac0d7b7e244fc3c", "is_reserved": 0, "is_disabled": 0, "type": "electric_scooter"}, {"fusion_lon": 0.0, "lat": 38.92445683333333, "lon": -77.02193416666667, "bike_id": "30a2c268da7b865745d202d5dc9d9684", "rental_uris": {"android": "https://dc.lft.to/lastmile_qr_scan", "ios": "https://dc.lft.to/lastmile_qr_scan"}, "fusion_lat": 0.0, "name": "30a2c268da7b865745d202d5dc9d9684", "is_reserved": 0, "is_disabled": 0, "type": "electric_scooter"}, {"fusion_lon": 0.0, "lat": 38.89219966666667, "lon": -77.02164233333333, "bike_id": "9bc60a886721e5d01f4cec8b6239eb03", "rental_uris": {"android": "https://dc.lft.to/lastmile_qr_scan", "ios": "https://dc.lft.to/lastmile_qr_scan"}, "fusion_lat": 0.0, "name": "9bc60a886721e5d01f4cec8b6239eb03", "is_reserved": 0, "is_disabled": 0, "type": "electric_scooter"}, {"fusion_lon": 0.0, "lat": 38.89869683333333, "lon": -77.02389483333333, "bike_id": "d7900098941d88fa01764c287fb26e31", "rental_uris": {"android": "https://dc.lft.to/lastmile_qr_scan", "ios": "https://dc.lft.to/lastmile_qr_scan"}, "fusion_lat": 0.0, "name": "d7900098941d88fa01764c287fb26e31", "is_reserved": 0, "is_disabled": 0, "type": "electric_bike"}, {"fusion_lon": 0.0, "lat": 38.90170333333333, "lon": -76.98077983333333, "bike_id": "5cc86bc588ba6dde7f51861abb1ac196", "rental_uris": {"android": "https://dc.lft.to/lastmile_qr_scan", "ios": "https://dc.lft.to/lastmile_qr_scan"}, "fusion_lat": 0.0, "name": "5cc86bc588ba6dde7f51861abb1ac196", "is_reserved": 0, "is_disabled": 0, "type": "electric_scooter"}, {"fusion_lon": 0.0, "lat": 38.909073666666664, "lon": -77.03188716666666, "bike_id": "ba1fef8350b625cc5be3c494d2f9605d", "rental_uris": {"android": "https://dc.lft.to/lastmile_qr_scan", "ios": "https://dc.lft.to/lastmile_qr_scan"}, "fusion_lat": 0.0, "name": "ba1fef8350b625cc5be3c494d2f9605d", "is_reserved": 0, "is_disabled": 0, "type": "electric_scooter"}, {"fusion_lon": 0.0, "lat": 38.90043, "lon": -76.98837133333333, "bike_id": "8e347ec5196669ccf3c2fb00f1f345a0", "rental_uris": {"android": "https://dc.lft.to/lastmile_qr_scan", "ios": "https://dc.lft.to/lastmile_qr_scan"}, "fusion_lat": 0.0, "name": "8e347ec5196669ccf3c2fb00f1f345a0", "is_reserved": 0, "is_disabled": 0, "type": "electric_scooter"}, {"fusion_lon": 0.0, "lat": 38.927843833333334, "lon": -76.99623633333333, "bike_id": "62a56f88604884b94f47c92f09585437", "rental_uris": {"android": "https://dc.lft.to/lastmile_qr_scan", "ios": "https://dc.lft.to/lastmile_qr_scan"}, "fusion_lat": 0.0, "name": "62a56f88604884b94f47c92f09585437", "is_reserved": 0, "is_disabled": 0, "type": "electric_scooter"}, {"fusion_lon": 0.0, "lat": 38.89710133333333, "lon": -76.99121133333334, "bike_id": "89fec4540a97ba42289064f53d80562d", "rental_uris": {"android": "https://dc.lft.to/lastmile_qr_scan", "ios": "https://dc.lft.to/lastmile_qr_scan"}, "fusion_lat": 0.0, "name": "89fec4540a97ba42289064f53d80562d", "is_reserved": 0, "is_disabled": 0, "type": "electric_scooter"}, {"fusion_lon": 0.0, "lat": 38.8703095, "lon": -77.2290625, "bike_id": "c4dbc8ed55617975ae1b0cf59a3af62c", "rental_uris": {"android": "https://dc.lft.to/lastmile_qr_scan", "ios": "https://dc.lft.to/lastmile_qr_scan"}, "fusion_lat": 0.0, "name": "c4dbc8ed55617975ae1b0cf59a3af62c", "is_reserved": 0, "is_disabled": 0, "type": "electric_bike"}, {"fusion_lon": 0.0, "lat": 38.903894666666666, "lon": -77.00430016666667, "bike_id": "56b589d088fcdafc151e0fe39b452974", "rental_uris": {"android": "https://dc.lft.to/lastmile_qr_scan", "ios": "https://dc.lft.to/lastmile_qr_scan"}, "fusion_lat": 0.0, "name": "56b589d088fcdafc151e0fe39b452974", "is_reserved": 0, "is_disabled": 0, "type": "electric_scooter"}, {"fusion_lon": 0.0, "lat": 38.93243783333333, "lon": -77.03281783333334, "bike_id": "4d61c8315250cacd333fafcacf32d660", "rental_uris": {"android": "https://dc.lft.to/lastmile_qr_scan", "ios": "https://dc.lft.to/lastmile_qr_scan"}, "fusion_lat": 0.0, "name": "4d61c8315250cacd333fafcacf32d660", "is_reserved": 0, "is_disabled": 0, "type": "electric_scooter"}, {"fusion_lon": 0.0, "lat": 38.922729833333335, "lon": -77.02132283333333, "bike_id": "ae0d8b273ad12cb9bc9e7b066ae17c46", "rental_uris": {"android": "https://dc.lft.to/lastmile_qr_scan", "ios": "https://dc.lft.to/lastmile_qr_scan"}, "fusion_lat": 0.0, "name": "ae0d8b273ad12cb9bc9e7b066ae17c46", "is_reserved": 0, "is_disabled": 0, "type": "electric_scooter"}, {"fusion_lon": 0.0, "lat": 38.92755233333333, "lon": -77.03211016666667, "bike_id": "89a28f08dcfb82ab830bdeb8d9a7b625", "rental_uris": {"android": "https://dc.lft.to/lastmile_qr_scan", "ios": "https://dc.lft.to/lastmile_qr_scan"}, "fusion_lat": 0.0, "name": "89a28f08dcfb82ab830bdeb8d9a7b625", "is_reserved": 0, "is_disabled": 0, "type": "electric_scooter"}, {"fusion_lon": 0.0, "lat": 38.904317166666665, "lon": -77.03637516666667, "bike_id": "d5d04427fdb4d24f81b7fdbe545af2ed", "rental_uris": {"android": "https://dc.lft.to/lastmile_qr_scan", "ios": "https://dc.lft.to/lastmile_qr_scan"}, "fusion_lat": 0.0, "name": "d5d04427fdb4d24f81b7fdbe545af2ed", "is_reserved": 0, "is_disabled": 0, "type": "electric_scooter"}, {"fusion_lon": 0.0, "lat": 38.935281333333336, "lon": -77.02352533333334, "bike_id": "3cf5bc710d45e73625d56b1b2bc6008f", "rental_uris": {"android": "https://dc.lft.to/lastmile_qr_scan", "ios": "https://dc.lft.to/lastmile_qr_scan"}, "fusion_lat": 0.0, "name": "3cf5bc710d45e73625d56b1b2bc6008f", "is_reserved": 0, "is_disabled": 0, "type": "electric_scooter"}, {"fusion_lon": 0.0, "lat": 38.99890933333333, "lon": -76.908632, "bike_id": "5a78fe39678d58fbd0425d682eedc991", "rental_uris": {"android": "https://dc.lft.to/lastmile_qr_scan", "ios": "https://dc.lft.to/lastmile_qr_scan"}, "fusion_lat": 0.0, "name": "5a78fe39678d58fbd0425d682eedc991", "is_reserved": 0, "is_disabled": 0, "type": "electric_bike"}, {"fusion_lon": 0.0, "lat": 38.928355833333335, "lon": -77.0545065, "bike_id": "04daf445e05bf9a1b758958160bedb35", "rental_uris": {"android": "https://dc.lft.to/lastmile_qr_scan", "ios": "https://dc.lft.to/lastmile_qr_scan"}, "fusion_lat": 0.0, "name": "04daf445e05bf9a1b758958160bedb35", "is_reserved": 0, "is_disabled": 0, "type": "electric_scooter"}, {"fusion_lon": 0.0, "lat": 38.93855216666667, "lon": -77.02464266666667, "bike_id": "2f7b85a86cb3065cc0b217c0202729c8", "rental_uris": {"android": "https://dc.lft.to/lastmile_qr_scan", "ios": "https://dc.lft.to/lastmile_qr_scan"}, "fusion_lat": 0.0, "name": "2f7b85a86cb3065cc0b217c0202729c8", "is_reserved": 0, "is_disabled": 0, "type": "electric_scooter"}, {"fusion_lon": 0.0, "lat": 38.940850833333336, "lon": -77.02984183333334, "bike_id": "431537f72e7d2fba2d9defc629933ac4", "rental_uris": {"android": "https://dc.lft.to/lastmile_qr_scan", "ios": "https://dc.lft.to/lastmile_qr_scan"}, "fusion_lat": 0.0, "name": "431537f72e7d2fba2d9defc629933ac4", "is_reserved": 0, "is_disabled": 0, "type": "electric_scooter"}, {"fusion_lon": 0.0, "lat": 38.9306055, "lon": -77.03946066666667, "bike_id": "7b398001bc860d04ed9629b1270a5848", "rental_uris": {"android": "https://dc.lft.to/lastmile_qr_scan", "ios": "https://dc.lft.to/lastmile_qr_scan"}, "fusion_lat": 0.0, "name": "7b398001bc860d04ed9629b1270a5848", "is_reserved": 0, "is_disabled": 0, "type": "electric_scooter"}, {"fusion_lon": 0.0, "lat": 38.94610866666667, "lon": -77.08019633333333, "bike_id": "d2792f0f5a09454dda054f58092ed3e3", "rental_uris": {"android": "https://dc.lft.to/lastmile_qr_scan", "ios": "https://dc.lft.to/lastmile_qr_scan"}, "fusion_lat": 0.0, "name": "d2792f0f5a09454dda054f58092ed3e3", "is_reserved": 0, "is_disabled": 0, "type": "electric_scooter"}, {"fusion_lon": 0.0, "lat": 38.894758, "lon": -77.02109433333334, "bike_id": "453a161b6c9c549ddb588ac8298872fe", "rental_uris": {"android": "https://dc.lft.to/lastmile_qr_scan", "ios": "https://dc.lft.to/lastmile_qr_scan"}, "fusion_lat": 0.0, "name": "453a161b6c9c549ddb588ac8298872fe", "is_reserved": 0, "is_disabled": 0, "type": "electric_scooter"}, {"fusion_lon": 0.0, "lat": 38.9007835, "lon": -77.0466425, "bike_id": "68111199adb0bb407155839a51883f5c", "rental_uris": {"android": "https://dc.lft.to/lastmile_qr_scan", "ios": "https://dc.lft.to/lastmile_qr_scan"}, "fusion_lat": 0.0, "name": "68111199adb0bb407155839a51883f5c", "is_reserved": 0, "is_disabled": 0, "type": "electric_scooter"}, {"fusion_lon": 0.0, "lat": 38.9563055, "lon": -77.03305566666667, "bike_id": "54f72cf167de5297ccaaf5beff209e81", "rental_uris": {"android": "https://dc.lft.to/lastmile_qr_scan", "ios": "https://dc.lft.to/lastmile_qr_scan"}, "fusion_lat": 0.0, "name": "54f72cf167de5297ccaaf5beff209e81", "is_reserved": 0, "is_disabled": 0, "type": "electric_scooter"}, {"fusion_lon": 0.0, "lat": 38.89356883333333, "lon": -77.00346383333333, "bike_id": "de80b5c9e2077a4d468e225bf47e4a5a", "rental_uris": {"android": "https://dc.lft.to/lastmile_qr_scan", "ios": "https://dc.lft.to/lastmile_qr_scan"}, "fusion_lat": 0.0, "name": "de80b5c9e2077a4d468e225bf47e4a5a", "is_reserved": 0, "is_disabled": 0, "type": "electric_scooter"}, {"fusion_lon": 0.0, "lat": 38.91059466666667, "lon": -77.05481333333333, "bike_id": "d265b493a6ea9d182a249129114a6fa2", "rental_uris": {"android": "https://dc.lft.to/lastmile_qr_scan", "ios": "https://dc.lft.to/lastmile_qr_scan"}, "fusion_lat": 0.0, "name": "d265b493a6ea9d182a249129114a6fa2", "is_reserved": 0, "is_disabled": 0, "type": "electric_scooter"}, {"fusion_lon": 0.0, "lat": 38.88123683333333, "lon": -77.00455033333333, "bike_id": "f6b18cc48c0d7444c895a36374486fb9", "rental_uris": {"android": "https://dc.lft.to/lastmile_qr_scan", "ios": "https://dc.lft.to/lastmile_qr_scan"}, "fusion_lat": 0.0, "name": "f6b18cc48c0d7444c895a36374486fb9", "is_reserved": 0, "is_disabled": 0, "type": "electric_scooter"}, {"fusion_lon": 0.0, "lat": 38.930593333333334, "lon": -77.02334466666667, "bike_id": "148213b2e7ccb798a585a6365c8f8818", "rental_uris": {"android": "https://dc.lft.to/lastmile_qr_scan", "ios": "https://dc.lft.to/lastmile_qr_scan"}, "fusion_lat": 0.0, "name": "148213b2e7ccb798a585a6365c8f8818", "is_reserved": 0, "is_disabled": 0, "type": "electric_scooter"}, {"fusion_lon": 0.0, "lat": 38.89223033333333, "lon": -77.03133683333333, "bike_id": "7f7bb0a355734c734d91416c54017dde", "rental_uris": {"android": "https://dc.lft.to/lastmile_qr_scan", "ios": "https://dc.lft.to/lastmile_qr_scan"}, "fusion_lat": 0.0, "name": "7f7bb0a355734c734d91416c54017dde", "is_reserved": 0, "is_disabled": 0, "type": "electric_scooter"}, {"fusion_lon": 0.0, "lat": 38.89708383333333, "lon": -76.99119983333334, "bike_id": "c8678c769c6d75101e14b1edd05ede76", "rental_uris": {"android": "https://dc.lft.to/lastmile_qr_scan", "ios": "https://dc.lft.to/lastmile_qr_scan"}, "fusion_lat": 0.0, "name": "c8678c769c6d75101e14b1edd05ede76", "is_reserved": 0, "is_disabled": 0, "type": "electric_scooter"}, {"fusion_lon": 0.0, "lat": 38.90113, "lon": -77.04497783333333, "bike_id": "e6bb6468413faff8d14a9e2b36fb08e6", "rental_uris": {"android": "https://dc.lft.to/lastmile_qr_scan", "ios": "https://dc.lft.to/lastmile_qr_scan"}, "fusion_lat": 0.0, "name": "e6bb6468413faff8d14a9e2b36fb08e6", "is_reserved": 0, "is_disabled": 0, "type": "electric_scooter"}, {"fusion_lon": 0.0, "lat": 38.898942166666664, "lon": -77.03171216666667, "bike_id": "bf636268a11bec271e1603ff62a6c424", "rental_uris": {"android": "https://dc.lft.to/lastmile_qr_scan", "ios": "https://dc.lft.to/lastmile_qr_scan"}, "fusion_lat": 0.0, "name": "bf636268a11bec271e1603ff62a6c424", "is_reserved": 0, "is_disabled": 0, "type": "electric_scooter"}, {"fusion_lon": 0.0, "lat": 38.9246505, "lon": -77.02715383333333, "bike_id": "6c96a96dca92099a2d59ed2c3c5e1cc1", "rental_uris": {"android": "https://dc.lft.to/lastmile_qr_scan", "ios": "https://dc.lft.to/lastmile_qr_scan"}, "fusion_lat": 0.0, "name": "6c96a96dca92099a2d59ed2c3c5e1cc1", "is_reserved": 0, "is_disabled": 0, "type": "electric_scooter"}, {"fusion_lon": 0.0, "lat": 38.92306716666667, "lon": -77.01957566666667, "bike_id": "cba0d6d8480038cad05d8b6b08cdf00b", "rental_uris": {"android": "https://dc.lft.to/lastmile_qr_scan", "ios": "https://dc.lft.to/lastmile_qr_scan"}, "fusion_lat": 0.0, "name": "cba0d6d8480038cad05d8b6b08cdf00b", "is_reserved": 0, "is_disabled": 0, "type": "electric_scooter"}, {"fusion_lon": 0.0, "lat": 38.927082166666665, "lon": -77.02096483333334, "bike_id": "03f4ef68792c21a967cb757ebd472116", "rental_uris": {"android": "https://dc.lft.to/lastmile_qr_scan", "ios": "https://dc.lft.to/lastmile_qr_scan"}, "fusion_lat": 0.0, "name": "03f4ef68792c21a967cb757ebd472116", "is_reserved": 0, "is_disabled": 0, "type": "electric_scooter"}, {"fusion_lon": 0.0, "lat": 38.93288966666667, "lon": -77.028547, "bike_id": "7da0a8f07a1aaced0a5d79d0eb47238d", "rental_uris": {"android": "https://dc.lft.to/lastmile_qr_scan", "ios": "https://dc.lft.to/lastmile_qr_scan"}, "fusion_lat": 0.0, "name": "7da0a8f07a1aaced0a5d79d0eb47238d", "is_reserved": 0, "is_disabled": 0, "type": "electric_scooter"}, {"fusion_lon": 0.0, "lat": 38.90400366666667, "lon": -77.024876, "bike_id": "0c877e4d05b29cded380d8c90bc678f6", "rental_uris": {"android": "https://dc.lft.to/lastmile_qr_scan", "ios": "https://dc.lft.to/lastmile_qr_scan"}, "fusion_lat": 0.0, "name": "0c877e4d05b29cded380d8c90bc678f6", "is_reserved": 0, "is_disabled": 0, "type": "electric_scooter"}, {"fusion_lon": 0.0, "lat": 38.92638183333333, "lon": -77.0250465, "bike_id": "4c84be8e81ea1281accac31013df5b6b", "rental_uris": {"android": "https://dc.lft.to/lastmile_qr_scan", "ios": "https://dc.lft.to/lastmile_qr_scan"}, "fusion_lat": 0.0, "name": "4c84be8e81ea1281accac31013df5b6b", "is_reserved": 0, "is_disabled": 0, "type": "electric_scooter"}, {"fusion_lon": 0.0, "lat": 38.89875416666667, "lon": -76.9883875, "bike_id": "d1d986a8b3082854d58f81a07f038535", "rental_uris": {"android": "https://dc.lft.to/lastmile_qr_scan", "ios": "https://dc.lft.to/lastmile_qr_scan"}, "fusion_lat": 0.0, "name": "d1d986a8b3082854d58f81a07f038535", "is_reserved": 0, "is_disabled": 0, "type": "electric_scooter"}, {"fusion_lon": 0.0, "lat": 38.904113833333334, "lon": -77.02568166666667, "bike_id": "08760a324ecb5dfb15a5730f9551d910", "rental_uris": {"android": "https://dc.lft.to/lastmile_qr_scan", "ios": "https://dc.lft.to/lastmile_qr_scan"}, "fusion_lat": 0.0, "name": "08760a324ecb5dfb15a5730f9551d910", "is_reserved": 0, "is_disabled": 0, "type": "electric_scooter"}, {"fusion_lon": 0.0, "lat": 38.89214366666667, "lon": -77.03137383333333, "bike_id": "6567cdf545ade9b5437ade5590d0afbe", "rental_uris": {"android": "https://dc.lft.to/lastmile_qr_scan", "ios": "https://dc.lft.to/lastmile_qr_scan"}, "fusion_lat": 0.0, "name": "6567cdf545ade9b5437ade5590d0afbe", "is_reserved": 0, "is_disabled": 0, "type": "electric_scooter"}, {"fusion_lon": 0.0, "lat": 38.94435766666667, "lon": -77.06414883333333, "bike_id": "05e658d3ba7694bf19a32711dc663a74", "rental_uris": {"android": "https://dc.lft.to/lastmile_qr_scan", "ios": "https://dc.lft.to/lastmile_qr_scan"}, "fusion_lat": 0.0, "name": "05e658d3ba7694bf19a32711dc663a74", "is_reserved": 0, "is_disabled": 0, "type": "electric_scooter"}, {"fusion_lon": 0.0, "lat": 38.90425966666667, "lon": -77.04338166666666, "bike_id": "3f20a4e5049be3bb8d1b53b7ef43fae1", "rental_uris": {"android": "https://dc.lft.to/lastmile_qr_scan", "ios": "https://dc.lft.to/lastmile_qr_scan"}, "fusion_lat": 0.0, "name": "3f20a4e5049be3bb8d1b53b7ef43fae1", "is_reserved": 0, "is_disabled": 0, "type": "electric_scooter"}, {"fusion_lon": 0.0, "lat": 38.9012315, "lon": -76.99053783333333, "bike_id": "0635a2225bc2086d5e1a3fa0d156c920", "rental_uris": {"android": "https://dc.lft.to/lastmile_qr_scan", "ios": "https://dc.lft.to/lastmile_qr_scan"}, "fusion_lat": 0.0, "name": "0635a2225bc2086d5e1a3fa0d156c920", "is_reserved": 0, "is_disabled": 0, "type": "electric_scooter"}, {"fusion_lon": 0.0, "lat": 38.8578995, "lon": -77.09965016666666, "bike_id": "d816f3d412ff9ad1986281924a6a87a3", "rental_uris": {"android": "https://dc.lft.to/lastmile_qr_scan", "ios": "https://dc.lft.to/lastmile_qr_scan"}, "fusion_lat": 0.0, "name": "d816f3d412ff9ad1986281924a6a87a3", "is_reserved": 0, "is_disabled": 0, "type": "electric_bike"}, {"fusion_lon": 0.0, "lat": 38.92468083333333, "lon": -77.037898, "bike_id": "a3cdb72cae0b49e521fe99a8bef5070a", "rental_uris": {"android": "https://dc.lft.to/lastmile_qr_scan", "ios": "https://dc.lft.to/lastmile_qr_scan"}, "fusion_lat": 0.0, "name": "a3cdb72cae0b49e521fe99a8bef5070a", "is_reserved": 0, "is_disabled": 0, "type": "electric_scooter"}, {"fusion_lon": 0.0, "lat": 38.90798216666666, "lon": -77.03669966666666, "bike_id": "2a74230c95cfdeae74257c469f57e222", "rental_uris": {"android": "https://dc.lft.to/lastmile_qr_scan", "ios": "https://dc.lft.to/lastmile_qr_scan"}, "fusion_lat": 0.0, "name": "2a74230c95cfdeae74257c469f57e222", "is_reserved": 0, "is_disabled": 0, "type": "electric_scooter"}, {"fusion_lon": 0.0, "lat": 38.950624833333336, "lon": -76.97086066666667, "bike_id": "215797737b376e39a10f0f177f5c04dd", "rental_uris": {"android": "https://dc.lft.to/lastmile_qr_scan", "ios": "https://dc.lft.to/lastmile_qr_scan"}, "fusion_lat": 0.0, "name": "215797737b376e39a10f0f177f5c04dd", "is_reserved": 0, "is_disabled": 0, "type": "electric_bike"}, {"fusion_lon": 0.0, "lat": 38.936171, "lon": -77.06431783333333, "bike_id": "7be40d48c98d73aa23b5a9df4113dd58", "rental_uris": {"android": "https://dc.lft.to/lastmile_qr_scan", "ios": "https://dc.lft.to/lastmile_qr_scan"}, "fusion_lat": 0.0, "name": "7be40d48c98d73aa23b5a9df4113dd58", "is_reserved": 0, "is_disabled": 0, "type": "electric_scooter"}, {"fusion_lon": 0.0, "lat": 38.90985883333333, "lon": -77.04263783333333, "bike_id": "b8795751d9b8105bf259ccc7af4982da", "rental_uris": {"android": "https://dc.lft.to/lastmile_qr_scan", "ios": "https://dc.lft.to/lastmile_qr_scan"}, "fusion_lat": 0.0, "name": "b8795751d9b8105bf259ccc7af4982da", "is_reserved": 0, "is_disabled": 0, "type": "electric_scooter"}, {"fusion_lon": 0.0, "lat": 38.902432166666664, "lon": -77.0266805, "bike_id": "b5326091c9181180d8948cd8e3159b9f", "rental_uris": {"android": "https://dc.lft.to/lastmile_qr_scan", "ios": "https://dc.lft.to/lastmile_qr_scan"}, "fusion_lat": 0.0, "name": "b5326091c9181180d8948cd8e3159b9f", "is_reserved": 0, "is_disabled": 0, "type": "electric_scooter"}, {"fusion_lon": 0.0, "lat": 38.924386166666665, "lon": -77.0215215, "bike_id": "4bdcdfe78f3f2a1f3b367d9fd723b506", "rental_uris": {"android": "https://dc.lft.to/lastmile_qr_scan", "ios": "https://dc.lft.to/lastmile_qr_scan"}, "fusion_lat": 0.0, "name": "4bdcdfe78f3f2a1f3b367d9fd723b506", "is_reserved": 0, "is_disabled": 0, "type": "electric_scooter"}, {"fusion_lon": 0.0, "lat": 38.901807833333336, "lon": -77.0595235, "bike_id": "4d867889347ecd93d6701ef7bdb40393", "rental_uris": {"android": "https://dc.lft.to/lastmile_qr_scan", "ios": "https://dc.lft.to/lastmile_qr_scan"}, "fusion_lat": 0.0, "name": "4d867889347ecd93d6701ef7bdb40393", "is_reserved": 0, "is_disabled": 0, "type": "electric_scooter"}, {"fusion_lon": 0.0, "lat": 38.8995825, "lon": -77.045141, "bike_id": "98d122a50a0017f4a05c9922e0da8c3c", "rental_uris": {"android": "https://dc.lft.to/lastmile_qr_scan", "ios": "https://dc.lft.to/lastmile_qr_scan"}, "fusion_lat": 0.0, "name": "98d122a50a0017f4a05c9922e0da8c3c", "is_reserved": 0, "is_disabled": 0, "type": "electric_scooter"}, {"fusion_lon": 0.0, "lat": 38.9237065, "lon": -77.01914816666667, "bike_id": "78523c74ed823196e5f230a6d016c73f", "rental_uris": {"android": "https://dc.lft.to/lastmile_qr_scan", "ios": "https://dc.lft.to/lastmile_qr_scan"}, "fusion_lat": 0.0, "name": "78523c74ed823196e5f230a6d016c73f", "is_reserved": 0, "is_disabled": 0, "type": "electric_scooter"}, {"fusion_lon": 0.0, "lat": 38.914221, "lon": -77.0459285, "bike_id": "a31346256e2b922675f228b0c567dd1d", "rental_uris": {"android": "https://dc.lft.to/lastmile_qr_scan", "ios": "https://dc.lft.to/lastmile_qr_scan"}, "fusion_lat": 0.0, "name": "a31346256e2b922675f228b0c567dd1d", "is_reserved": 0, "is_disabled": 0, "type": "electric_scooter"}, {"fusion_lon": 0.0, "lat": 38.9893305, "lon": -77.10100883333334, "bike_id": "36a960056f3fa895bb1dec499565398b", "rental_uris": {"android": "https://dc.lft.to/lastmile_qr_scan", "ios": "https://dc.lft.to/lastmile_qr_scan"}, "fusion_lat": 0.0, "name": "36a960056f3fa895bb1dec499565398b", "is_reserved": 0, "is_disabled": 0, "type": "electric_bike"}, {"fusion_lon": 0.0, "lat": 38.897423833333335, "lon": -77.028799, "bike_id": "0771915f239163803302158e35b2fb45", "rental_uris": {"android": "https://dc.lft.to/lastmile_qr_scan", "ios": "https://dc.lft.to/lastmile_qr_scan"}, "fusion_lat": 0.0, "name": "0771915f239163803302158e35b2fb45", "is_reserved": 0, "is_disabled": 0, "type": "electric_scooter"}, {"fusion_lon": 0.0, "lat": 38.896081833333334, "lon": -77.04416283333333, "bike_id": "c9ec6c2513d98ba89ace5b0e0850b719", "rental_uris": {"android": "https://dc.lft.to/lastmile_qr_scan", "ios": "https://dc.lft.to/lastmile_qr_scan"}, "fusion_lat": 0.0, "name": "c9ec6c2513d98ba89ace5b0e0850b719", "is_reserved": 0, "is_disabled": 0, "type": "electric_scooter"}, {"fusion_lon": 0.0, "lat": 38.92228733333334, "lon": -76.97533733333333, "bike_id": "9eae225444a9400f73441e15d9e0ba2b", "rental_uris": {"android": "https://dc.lft.to/lastmile_qr_scan", "ios": "https://dc.lft.to/lastmile_qr_scan"}, "fusion_lat": 0.0, "name": "9eae225444a9400f73441e15d9e0ba2b", "is_reserved": 0, "is_disabled": 0, "type": "electric_scooter"}, {"fusion_lon": 0.0, "lat": 38.88490616666667, "lon": -76.99504266666666, "bike_id": "73f271519fa476db2056809725fbc52c", "rental_uris": {"android": "https://dc.lft.to/lastmile_qr_scan", "ios": "https://dc.lft.to/lastmile_qr_scan"}, "fusion_lat": 0.0, "name": "73f271519fa476db2056809725fbc52c", "is_reserved": 0, "is_disabled": 0, "type": "electric_scooter"}, {"fusion_lon": 0.0, "lat": 38.92834166666667, "lon": -77.01402833333333, "bike_id": "b9b020a9dbc43ed6063d744b96a7da65", "rental_uris": {"android": "https://dc.lft.to/lastmile_qr_scan", "ios": "https://dc.lft.to/lastmile_qr_scan"}, "fusion_lat": 0.0, "name": "b9b020a9dbc43ed6063d744b96a7da65", "is_reserved": 0, "is_disabled": 0, "type": "electric_scooter"}, {"fusion_lon": 0.0, "lat": 38.89846933333333, "lon": -77.028074, "bike_id": "f4229371a660e64d14707cc5bbffbec5", "rental_uris": {"android": "https://dc.lft.to/lastmile_qr_scan", "ios": "https://dc.lft.to/lastmile_qr_scan"}, "fusion_lat": 0.0, "name": "f4229371a660e64d14707cc5bbffbec5", "is_reserved": 0, "is_disabled": 0, "type": "electric_scooter"}, {"fusion_lon": 0.0, "lat": 38.90035816666666, "lon": -76.9883675, "bike_id": "0e3a5d428b8e0b531d4c38a16dcae9ab", "rental_uris": {"android": "https://dc.lft.to/lastmile_qr_scan", "ios": "https://dc.lft.to/lastmile_qr_scan"}, "fusion_lat": 0.0, "name": "0e3a5d428b8e0b531d4c38a16dcae9ab", "is_reserved": 0, "is_disabled": 0, "type": "electric_scooter"}, {"fusion_lon": 0.0, "lat": 38.892232666666665, "lon": -77.00307183333334, "bike_id": "08a8ad0b19e828e13b6363966e63da42", "rental_uris": {"android": "https://dc.lft.to/lastmile_qr_scan", "ios": "https://dc.lft.to/lastmile_qr_scan"}, "fusion_lat": 0.0, "name": "08a8ad0b19e828e13b6363966e63da42", "is_reserved": 0, "is_disabled": 0, "type": "electric_scooter"}, {"fusion_lon": 0.0, "lat": 38.897423833333335, "lon": -77.04866866666667, "bike_id": "3cd72e47fee65ec3273e98f8ff598cfe", "rental_uris": {"android": "https://dc.lft.to/lastmile_qr_scan", "ios": "https://dc.lft.to/lastmile_qr_scan"}, "fusion_lat": 0.0, "name": "3cd72e47fee65ec3273e98f8ff598cfe", "is_reserved": 0, "is_disabled": 0, "type": "electric_scooter"}, {"fusion_lon": 0.0, "lat": 38.898321, "lon": -77.0272315, "bike_id": "a78c5e7abd5132d4936262aa9e7f8ebb", "rental_uris": {"android": "https://dc.lft.to/lastmile_qr_scan", "ios": "https://dc.lft.to/lastmile_qr_scan"}, "fusion_lat": 0.0, "name": "a78c5e7abd5132d4936262aa9e7f8ebb", "is_reserved": 0, "is_disabled": 0, "type": "electric_scooter"}, {"fusion_lon": 0.0, "lat": 38.921399666666666, "lon": -77.034074, "bike_id": "d1dc4e5e2be813b8700ee9396f47f3c6", "rental_uris": {"android": "https://dc.lft.to/lastmile_qr_scan", "ios": "https://dc.lft.to/lastmile_qr_scan"}, "fusion_lat": 0.0, "name": "d1dc4e5e2be813b8700ee9396f47f3c6", "is_reserved": 0, "is_disabled": 0, "type": "electric_scooter"}, {"fusion_lon": 0.0, "lat": 38.929081333333336, "lon": -77.01229283333333, "bike_id": "c092e11a7fddddc064dbca97bd8e3535", "rental_uris": {"android": "https://dc.lft.to/lastmile_qr_scan", "ios": "https://dc.lft.to/lastmile_qr_scan"}, "fusion_lat": 0.0, "name": "c092e11a7fddddc064dbca97bd8e3535", "is_reserved": 0, "is_disabled": 0, "type": "electric_scooter"}, {"fusion_lon": 0.0, "lat": 38.994351333333334, "lon": -77.0287825, "bike_id": "d16760736b214b7dea1752a5850c8913", "rental_uris": {"android": "https://dc.lft.to/lastmile_qr_scan", "ios": "https://dc.lft.to/lastmile_qr_scan"}, "fusion_lat": 0.0, "name": "d16760736b214b7dea1752a5850c8913", "is_reserved": 0, "is_disabled": 0, "type": "electric_bike"}, {"fusion_lon": 0.0, "lat": 38.92326533333333, "lon": -77.01965916666667, "bike_id": "3c670c490b18c0eb811752c99c6b8a78", "rental_uris": {"android": "https://dc.lft.to/lastmile_qr_scan", "ios": "https://dc.lft.to/lastmile_qr_scan"}, "fusion_lat": 0.0, "name": "3c670c490b18c0eb811752c99c6b8a78", "is_reserved": 0, "is_disabled": 0, "type": "electric_scooter"}, {"fusion_lon": 0.0, "lat": 38.884779333333334, "lon": -77.02648316666667, "bike_id": "16711dc5585320e91420f58bd5bad2e6", "rental_uris": {"android": "https://dc.lft.to/lastmile_qr_scan", "ios": "https://dc.lft.to/lastmile_qr_scan"}, "fusion_lat": 0.0, "name": "16711dc5585320e91420f58bd5bad2e6", "is_reserved": 0, "is_disabled": 0, "type": "electric_scooter"}, {"fusion_lon": 0.0, "lat": 38.90130466666667, "lon": -77.04323666666667, "bike_id": "aed8014df282e05c94e6e07f524eaeaf", "rental_uris": {"android": "https://dc.lft.to/lastmile_qr_scan", "ios": "https://dc.lft.to/lastmile_qr_scan"}, "fusion_lat": 0.0, "name": "aed8014df282e05c94e6e07f524eaeaf", "is_reserved": 0, "is_disabled": 0, "type": "electric_scooter"}, {"fusion_lon": 0.0, "lat": 38.919061166666665, "lon": -77.02954933333334, "bike_id": "898a3c7ef66c0071c4efcb46cf716e47", "rental_uris": {"android": "https://dc.lft.to/lastmile_qr_scan", "ios": "https://dc.lft.to/lastmile_qr_scan"}, "fusion_lat": 0.0, "name": "898a3c7ef66c0071c4efcb46cf716e47", "is_reserved": 0, "is_disabled": 0, "type": "electric_scooter"}, {"fusion_lon": 0.0, "lat": 38.91874983333334, "lon": -77.04198666666667, "bike_id": "244434a5335c4e43d152d4ea674d5110", "rental_uris": {"android": "https://dc.lft.to/lastmile_qr_scan", "ios": "https://dc.lft.to/lastmile_qr_scan"}, "fusion_lat": 0.0, "name": "244434a5335c4e43d152d4ea674d5110", "is_reserved": 0, "is_disabled": 0, "type": "electric_scooter"}, {"fusion_lon": 0.0, "lat": 38.89562883333333, "lon": -77.04157333333333, "bike_id": "c7f56b24168c867880c68caf0f833acd", "rental_uris": {"android": "https://dc.lft.to/lastmile_qr_scan", "ios": "https://dc.lft.to/lastmile_qr_scan"}, "fusion_lat": 0.0, "name": "c7f56b24168c867880c68caf0f833acd", "is_reserved": 0, "is_disabled": 0, "type": "electric_scooter"}, {"fusion_lon": 0.0, "lat": 38.90660183333333, "lon": -77.04494316666667, "bike_id": "2d6ef9b8c8504b08263fee61498b542b", "rental_uris": {"android": "https://dc.lft.to/lastmile_qr_scan", "ios": "https://dc.lft.to/lastmile_qr_scan"}, "fusion_lat": 0.0, "name": "2d6ef9b8c8504b08263fee61498b542b", "is_reserved": 0, "is_disabled": 0, "type": "electric_scooter"}, {"fusion_lon": 0.0, "lat": 38.903585166666666, "lon": -77.03877433333334, "bike_id": "98e60cea5c51c7d9433f3c8ace0aa322", "rental_uris": {"android": "https://dc.lft.to/lastmile_qr_scan", "ios": "https://dc.lft.to/lastmile_qr_scan"}, "fusion_lat": 0.0, "name": "98e60cea5c51c7d9433f3c8ace0aa322", "is_reserved": 0, "is_disabled": 0, "type": "electric_scooter"}, {"fusion_lon": 0.0, "lat": 38.9001525, "lon": -77.04648916666666, "bike_id": "71d108acf41487f9b6eb8ea539742e7e", "rental_uris": {"android": "https://dc.lft.to/lastmile_qr_scan", "ios": "https://dc.lft.to/lastmile_qr_scan"}, "fusion_lat": 0.0, "name": "71d108acf41487f9b6eb8ea539742e7e", "is_reserved": 0, "is_disabled": 0, "type": "electric_scooter"}, {"fusion_lon": 0.0, "lat": 38.905496, "lon": -77.06125366666667, "bike_id": "677ebeca4ddaba032b12e9a662be25a6", "rental_uris": {"android": "https://dc.lft.to/lastmile_qr_scan", "ios": "https://dc.lft.to/lastmile_qr_scan"}, "fusion_lat": 0.0, "name": "677ebeca4ddaba032b12e9a662be25a6", "is_reserved": 0, "is_disabled": 0, "type": "electric_scooter"}, {"fusion_lon": 0.0, "lat": 38.90497533333333, "lon": -77.06008133333333, "bike_id": "1f3fd55a5b8032f3cf9ceb86588798ab", "rental_uris": {"android": "https://dc.lft.to/lastmile_qr_scan", "ios": "https://dc.lft.to/lastmile_qr_scan"}, "fusion_lat": 0.0, "name": "1f3fd55a5b8032f3cf9ceb86588798ab", "is_reserved": 0, "is_disabled": 0, "type": "electric_bike"}, {"fusion_lon": 0.0, "lat": 38.91924366666667, "lon": -77.034949, "bike_id": "7538bf44e062c4d2cdd3c4d59edd3e95", "rental_uris": {"android": "https://dc.lft.to/lastmile_qr_scan", "ios": "https://dc.lft.to/lastmile_qr_scan"}, "fusion_lat": 0.0, "name": "7538bf44e062c4d2cdd3c4d59edd3e95", "is_reserved": 0, "is_disabled": 0, "type": "electric_scooter"}, {"fusion_lon": 0.0, "lat": 38.89422866666666, "lon": -76.99771883333334, "bike_id": "30ecc2041f7ec6f79a75dcaf535d6da4", "rental_uris": {"android": "https://dc.lft.to/lastmile_qr_scan", "ios": "https://dc.lft.to/lastmile_qr_scan"}, "fusion_lat": 0.0, "name": "30ecc2041f7ec6f79a75dcaf535d6da4", "is_reserved": 0, "is_disabled": 0, "type": "electric_scooter"}, {"fusion_lon": 0.0, "lat": 38.8305825, "lon": -77.00200983333333, "bike_id": "3609fcfa743071a88b49e688372f7a04", "rental_uris": {"android": "https://dc.lft.to/lastmile_qr_scan", "ios": "https://dc.lft.to/lastmile_qr_scan"}, "fusion_lat": 0.0, "name": "3609fcfa743071a88b49e688372f7a04", "is_reserved": 0, "is_disabled": 0, "type": "electric_scooter"}, {"fusion_lon": 0.0, "lat": 38.9244315, "lon": -77.04035583333334, "bike_id": "dad5a6c0ac2b178dadf37c8ab36ada38", "rental_uris": {"android": "https://dc.lft.to/lastmile_qr_scan", "ios": "https://dc.lft.to/lastmile_qr_scan"}, "fusion_lat": 0.0, "name": "dad5a6c0ac2b178dadf37c8ab36ada38", "is_reserved": 0, "is_disabled": 0, "type": "electric_scooter"}, {"fusion_lon": 0.0, "lat": 38.8883675, "lon": -76.9772075, "bike_id": "651b92ac4c4d4cc83885fd9262139747", "rental_uris": {"android": "https://dc.lft.to/lastmile_qr_scan", "ios": "https://dc.lft.to/lastmile_qr_scan"}, "fusion_lat": 0.0, "name": "651b92ac4c4d4cc83885fd9262139747", "is_reserved": 0, "is_disabled": 0, "type": "electric_scooter"}, {"fusion_lon": 0.0, "lat": 38.9135495, "lon": -77.0198665, "bike_id": "e24c4d89ae015bcff8389d7dc7c3d42a", "rental_uris": {"android": "https://dc.lft.to/lastmile_qr_scan", "ios": "https://dc.lft.to/lastmile_qr_scan"}, "fusion_lat": 0.0, "name": "e24c4d89ae015bcff8389d7dc7c3d42a", "is_reserved": 0, "is_disabled": 0, "type": "electric_scooter"}, {"fusion_lon": 0.0, "lat": 38.848138666666664, "lon": -76.95245016666667, "bike_id": "d0218e6d320d24071cba42b05feb729c", "rental_uris": {"android": "https://dc.lft.to/lastmile_qr_scan", "ios": "https://dc.lft.to/lastmile_qr_scan"}, "fusion_lat": 0.0, "name": "d0218e6d320d24071cba42b05feb729c", "is_reserved": 0, "is_disabled": 0, "type": "electric_bike"}, {"fusion_lon": 0.0, "lat": 38.992314, "lon": -77.023868, "bike_id": "31e3bc33b544fa5e838c86afd043de7d", "rental_uris": {"android": "https://dc.lft.to/lastmile_qr_scan", "ios": "https://dc.lft.to/lastmile_qr_scan"}, "fusion_lat": 0.0, "name": "31e3bc33b544fa5e838c86afd043de7d", "is_reserved": 0, "is_disabled": 0, "type": "electric_bike"}, {"fusion_lon": 0.0, "lat": 38.90559116666667, "lon": -77.0341795, "bike_id": "801e14600de1568bc8e5c4c5e9e8551d", "rental_uris": {"android": "https://dc.lft.to/lastmile_qr_scan", "ios": "https://dc.lft.to/lastmile_qr_scan"}, "fusion_lat": 0.0, "name": "801e14600de1568bc8e5c4c5e9e8551d", "is_reserved": 0, "is_disabled": 0, "type": "electric_scooter"}, {"fusion_lon": 0.0, "lat": 38.902856166666666, "lon": -77.04692183333333, "bike_id": "f216b694cc2d06b058c7535daa91f806", "rental_uris": {"android": "https://dc.lft.to/lastmile_qr_scan", "ios": "https://dc.lft.to/lastmile_qr_scan"}, "fusion_lat": 0.0, "name": "f216b694cc2d06b058c7535daa91f806", "is_reserved": 0, "is_disabled": 0, "type": "electric_scooter"}, {"fusion_lon": 0.0, "lat": 38.892316666666666, "lon": -77.03191883333334, "bike_id": "7b7ae8d4916f3cfbf7940716ef92de1f", "rental_uris": {"android": "https://dc.lft.to/lastmile_qr_scan", "ios": "https://dc.lft.to/lastmile_qr_scan"}, "fusion_lat": 0.0, "name": "7b7ae8d4916f3cfbf7940716ef92de1f", "is_reserved": 0, "is_disabled": 0, "type": "electric_scooter"}, {"fusion_lon": 0.0, "lat": 38.960269333333336, "lon": -77.0301365, "bike_id": "81fd58ceb85b28473c92407a85b58f94", "rental_uris": {"android": "https://dc.lft.to/lastmile_qr_scan", "ios": "https://dc.lft.to/lastmile_qr_scan"}, "fusion_lat": 0.0, "name": "81fd58ceb85b28473c92407a85b58f94", "is_reserved": 0, "is_disabled": 0, "type": "electric_scooter"}, {"fusion_lon": 0.0, "lat": 38.895205, "lon": -77.012076, "bike_id": "50b12590f94bb5eae9b8c999b3fb3fc1", "rental_uris": {"android": "https://dc.lft.to/lastmile_qr_scan", "ios": "https://dc.lft.to/lastmile_qr_scan"}, "fusion_lat": 0.0, "name": "50b12590f94bb5eae9b8c999b3fb3fc1", "is_reserved": 0, "is_disabled": 0, "type": "electric_scooter"}, {"fusion_lon": 0.0, "lat": 38.92686883333333, "lon": -77.02964883333334, "bike_id": "d7e5370e3e5a5bef39da64fb91cad51d", "rental_uris": {"android": "https://dc.lft.to/lastmile_qr_scan", "ios": "https://dc.lft.to/lastmile_qr_scan"}, "fusion_lat": 0.0, "name": "d7e5370e3e5a5bef39da64fb91cad51d", "is_reserved": 0, "is_disabled": 0, "type": "electric_scooter"}, {"fusion_lon": 0.0, "lat": 38.91952883333333, "lon": -77.03955466666666, "bike_id": "abbee1d3cb3a63d9912819b464aa9b99", "rental_uris": {"android": "https://dc.lft.to/lastmile_qr_scan", "ios": "https://dc.lft.to/lastmile_qr_scan"}, "fusion_lat": 0.0, "name": "abbee1d3cb3a63d9912819b464aa9b99", "is_reserved": 0, "is_disabled": 0, "type": "electric_scooter"}, {"fusion_lon": 0.0, "lat": 38.926063166666665, "lon": -77.02165516666666, "bike_id": "0d8e3e646dda65e70734d866450a5340", "rental_uris": {"android": "https://dc.lft.to/lastmile_qr_scan", "ios": "https://dc.lft.to/lastmile_qr_scan"}, "fusion_lat": 0.0, "name": "0d8e3e646dda65e70734d866450a5340", "is_reserved": 0, "is_disabled": 0, "type": "electric_scooter"}, {"fusion_lon": 0.0, "lat": 38.90032166666667, "lon": -76.98693233333333, "bike_id": "80554d6f5b3e3a376cc803631e02d896", "rental_uris": {"android": "https://dc.lft.to/lastmile_qr_scan", "ios": "https://dc.lft.to/lastmile_qr_scan"}, "fusion_lat": 0.0, "name": "80554d6f5b3e3a376cc803631e02d896", "is_reserved": 0, "is_disabled": 0, "type": "electric_scooter"}, {"fusion_lon": 0.0, "lat": 38.888162666666666, "lon": -76.97704716666667, "bike_id": "a1a910ecebd03c1a5bf38a155a9e5670", "rental_uris": {"android": "https://dc.lft.to/lastmile_qr_scan", "ios": "https://dc.lft.to/lastmile_qr_scan"}, "fusion_lat": 0.0, "name": "a1a910ecebd03c1a5bf38a155a9e5670", "is_reserved": 0, "is_disabled": 0, "type": "electric_scooter"},