{"data": {"bikes": [{"is_reserved": 0, "type": "electric_scooter", "bike_id": "beb2c7e834eac02d367f3bbea2518398", "lat": 38.88067683333333, "lon": -77.02479366666667, "rental_uris": {"android": "https://dc.lft.to/lastmile_qr_scan", "ios": "https://dc.lft.to/lastmile_qr_scan"}, "is_disabled": 0, "fusion_lat": 0.0, "name": "beb2c7e834eac02d367f3bbea2518398", "fusion_lon": 0.0}, {"is_reserved": 0, "type": "electric_scooter", "bike_id": "c49195f4e2b14bd43e3bb48b4e4f769c", "lat": 38.926333166666666, "lon": -77.042494, "rental_uris": {"android": "https://dc.lft.to/lastmile_qr_scan", "ios": "https://dc.lft.to/lastmile_qr_scan"}, "is_disabled": 0, "fusion_lat": 0.0, "name": "c49195f4e2b14bd43e3bb48b4e4f769c", "fusion_lon": 0.0}, {"is_reserved": 0, "type": "electric_scooter", "bike_id": "f1e30879ad3b6b19e7c2a765b404c47f", "lat": 38.94328, "lon": -77.012564, "rental_uris": {"android": "https://dc.lft.to/lastmile_qr_scan", "ios": "https://dc.lft.to/lastmile_qr_scan"}, "is_disabled": 0, "fusion_lat": 0.0, "name": "f1e30879ad3b6b19e7c2a765b404c47f", "fusion_lon": 0.0}, {"is_reserved": 0, "type": "electric_scooter", "bike_id": "d2a40c1cd5bfdf482d39ae2de010207f", "lat": 38.93040966666667, "lon": -77.05537366666667, "rental_uris": {"android": "https://dc.lft.to/lastmile_qr_scan", "ios": "https://dc.lft.to/lastmile_qr_scan"}, "is_disabled": 0, "fusion_lat": 0.0, "name": "d2a40c1cd5bfdf482d39ae2de010207f", "fusion_lon": 0.0}, {"is_reserved": 0, "type": "electric_scooter", "bike_id": "6a3ccef642cbf72b62afc11598eee473", "lat": 38.92430683333333, "lon": -77.03414516666666, "rental_uris": {"android": "https://dc.lft.to/lastmile_qr_scan", "ios": "https://dc.lft.to/lastmile_qr_scan"}, "is_disabled": 0, "fusion_lat": 0.0, "name": "6a3ccef642cbf72b62afc11598eee473", "fusion_lon": 0.0}, {"is_reserved": 0, "type": "electric_scooter", "bike_id": "ddff085e06eea62f296ea104a2d6dce8", "lat": 38.911987833333335, "lon": -77.037578, "rental_uris": {"android": "https://dc.lft.to/lastmile_qr_scan", "ios": "https://dc.lft.to/lastmile_qr_scan"}, "is_disabled": 0, "fusion_lat": 0.0, "name": "ddff085e06eea62f296ea104a2d6dce8", "fusion_lon": 0.0}, {"is_reserved": 0, "type": "electric_scooter", "bike_id": "9abd58ab06a1940b4d8200e671c5c972", "lat": 38.8951235, "lon": -76.9789745, "rental_uris": {"android": "https://dc.lft.to/lastmile_qr_scan", "ios": "https://dc.lft.to/lastmile_qr_scan"}, "is_disabled": 0, "fusion_lat": 0.0, "name": "9abd58ab06a1940b4d8200e671c5c972", "fusion_lon": 0.0}, {"is_reserved": 0, "type": "electric_scooter", "bike_id": "e1367851f22467395606bafe28899ab0", "lat": 38.909052, "lon": -76.996174, "rental_uris": {"android": "https://dc.lft.to/lastmile_qr_scan", "ios": "https://dc.lft.to/lastmile_qr_scan"}, "is_disabled": 0, "fusion_lat": 0.0, "name": "e1367851f22467395606bafe28899ab0", "fusion_lon": 0.0}, {"is_reserved": 0, "type": "electric_scooter", "bike_id": "ae083c745e0350f8763f72fe2d742e46", "lat": 38.91710066666667, "lon": -77.0314825, "rental_uris": {"android": "https://dc.lft.to/lastmile_qr_scan", "ios": "https://dc.lft.to/lastmile_qr_scan"}, "is_disabled": 0, "fusion_lat": 0.0, "name": "ae083c745e0350f8763f72fe2d742e46", "fusion_lon": 0.0}, {"is_reserved": 0, "type": "electric_scooter", "bike_id": "2278274d91b7e2e31e1e9dc49247d65f", "lat": 38.9210175, "lon": -77.018022, "rental_uris": {"android": "https://dc.lft.to/lastmile_qr_scan", "ios": "https://dc.lft.to/lastmile_qr_scan"}, "is_disabled": 0, "fusion_lat": 0.0, "name": "2278274d91b7e2e31e1e9dc49247d65f", "fusion_lon": 0.0}, {"is_reserved": 0, "type": "electric_scooter", "bike_id": "daa990059708323896b12c5da476eef9", "lat": 38.9064145, "lon": -77.05146016666667, "rental_uris": {"android": "https://dc.lft.to/lastmile_qr_scan", "ios": "https://dc.lft.to/lastmile_qr_scan"}, "is_disabled": 0, "fusion_lat": 0.0, "name": "daa990059708323896b12c5da476eef9", "fusion_lon": 0.0}, {"is_reserved": 0, "type": "electric_scooter", "bike_id": "eed9abf38c5de2799eede71da532b879", "lat": 38.896948333333334, "lon": -77.004916, "rental_uris": {"android": "https://dc.lft.to/lastmile_qr_scan", "ios": "https://dc.lft.to/lastmile_qr_scan"}, "is_disabled": 0, "fusion_lat": 0.0, "name": "eed9abf38c5de2799eede71da532b879", "fusion_lon": 0.0}, {"is_reserved": 0, "type": "electric_scooter", "bike_id": "6b94c0d4559fc43188ad78d8b020578f", "lat": 38.940290833333336, "lon": -77.0263925, "rental_uris": {"android": "https://dc.lft.to/lastmile_qr_scan", "ios": "https://dc.lft.to/lastmile_qr_scan"}, "is_disabled": 0, "fusion_lat": 0.0, "name": "6b94c0d4559fc43188ad78d8b020578f", "fusion_lon": 0.0}, {"is_reserved": 0, "type": "electric_scooter", "bike_id": "4b84205f18326c067bf4e36d18e98bb0", "lat": 38.903600833333336, "lon": -77.01101233333333, "rental_uris": {"android": "https://dc.lft.to/lastmile_qr_scan", "ios": "https://dc.lft.to/lastmile_qr_scan"}, "is_disabled": 0, "fusion_lat": 0.0, "name": "4b84205f18326c067bf4e36d18e98bb0", "fusion_lon": 0.0}, {"is_reserved": 0, "type": "electric_scooter", "bike_id": "432c48bc0c6274f5c3edd267c3b518af", "lat": 38.8962775, "lon": -77.02598933333333, "rental_uris": {"android": "https://dc.lft.to/lastmile_qr_scan", "ios": "https://dc.lft.to/lastmile_qr_scan"}, "is_disabled": 0, "fusion_lat": 0.0, "name": "432c48bc0c6274f5c3edd267c3b518af", "fusion_lon": 0.0}, {"is_reserved": 0, "type": "electric_bike", "bike_id": "f31398dc62120dc3400d0581a3b2cfa4", "lat": 38.895657666666665, "lon": -77.12735533333333, "rental_uris": {"android": "https://dc.lft.to/lastmile_qr_scan", "ios": "https://dc.lft.to/lastmile_qr_scan"}, "is_disabled": 0, "fusion_lat": 0.0, "name": "f31398dc62120dc3400d0581a3b2cfa4", "fusion_lon": 0.0}, {"is_reserved": 0, "type": "electric_scooter", "bike_id": "d43b6051862b18abb44df0f6a22cc6e9", "lat": 38.909723166666666, "lon": -77.04500233333333, "rental_uris": {"android": "https://dc.lft.to/lastmile_qr_scan", "ios": "https://dc.lft.to/lastmile_qr_scan"}, "is_disabled": 0, "fusion_lat": 0.0, "name": "d43b6051862b18abb44df0f6a22cc6e9", "fusion_lon": 0.0}, {"is_reserved": 0, "type": "electric_scooter", "bike_id": "e52f15c90cdc21b22f0fd923a3305125", "lat": 38.910608333333336, "lon": -77.05518733333334, "rental_uris": {"android": "https://dc.lft.to/lastmile_qr_scan", "ios": "https://dc.lft.to/lastmile_qr_scan"}, "is_disabled": 0, "fusion_lat": 0.0, "name": "e52f15c90cdc21b22f0fd923a3305125", "fusion_lon": 0.0}, {"is_reserved": 0, "type": "electric_scooter", "bike_id": "bd10fe0cb9fea3447e7da8839132ec19", "lat": 38.973004, "lon": -77.03627166666666, "rental_uris": {"android": "https://dc.lft.to/lastmile_qr_scan", "ios": "https://dc.lft.to/lastmile_qr_scan"}, "is_disabled": 0, "fusion_lat": 0.0, "name": "bd10fe0cb9fea3447e7da8839132ec19", "fusion_lon": 0.0}, {"is_reserved": 0, "type": "electric_scooter", "bike_id": "417e596d35fdafdb11ec9850aebb7a22", "lat": 38.918223833333336, "lon": -77.032181, "rental_uris": {"android": "https://dc.lft.to/lastmile_qr_scan", "ios": "https://dc.lft.to/lastmile_qr_scan"}, "is_disabled": 0, "fusion_lat": 0.0, "name": "417e596d35fdafdb11ec9850aebb7a22", "fusion_lon": 0.0}, {"is_reserved": 0, "type": "electric_scooter", "bike_id": "1657d7d8b890e95b92db31f54c9d9832", "lat": 38.92047566666667, "lon": -77.02402216666667, "rental_uris": {"android": "https://dc.lft.to/lastmile_qr_scan", "ios": "https://dc.lft.to/lastmile_qr_scan"}, "is_disabled": 0, "fusion_lat": 0.0, "name": "1657d7d8b890e95b92db31f54c9d9832", "fusion_lon": 0.0}, {"is_reserved": 0, "type": "electric_scooter", "bike_id": "67773bfad986cadb0974e262dbda6a28", "lat": 38.92779066666667, "lon": -77.03603333333334, "rental_uris": {"android": "https://dc.lft.to/lastmile_qr_scan", "ios": "https://dc.lft.to/lastmile_qr_scan"}, "is_disabled": 0, "fusion_lat": 0.0, "name": "67773bfad986cadb0974e262dbda6a28", "fusion_lon": 0.0}, {"is_reserved": 0, "type": "electric_scooter", "bike_id": "0e75023a3eda6eb21c33ecd99ee1fc08", "lat": 38.899633333333334, "lon": -77.0424635, "rental_uris": {"android": "https://dc.lft.to/lastmile_qr_scan", "ios": "https://dc.lft.to/lastmile_qr_scan"}, "is_disabled": 0, "fusion_lat": 0.0, "name": "0e75023a3eda6eb21c33ecd99ee1fc08", "fusion_lon": 0.0}, {"is_reserved": 0, "type": "electric_bike", "bike_id": "c18b7fa04883959a1bd6809fdff5bdba", "lat": 39.094491, "lon": -77.13462033333333, "rental_uris": {"android": "https://dc.lft.to/lastmile_qr_scan", "ios": "https://dc.lft.to/lastmile_qr_scan"}, "is_disabled": 0, "fusion_lat": 0.0, "name": "c18b7fa04883959a1bd6809fdff5bdba", "fusion_lon": 0.0}, {"is_reserved": 0, "type": "electric_scooter", "bike_id": "f21e12905384d3defb2fb3265770912d", "lat": 38.93066233333333, "lon": -77.0421955, "rental_uris": {"android": "https://dc.lft.to/lastmile_qr_scan", "ios": "https://dc.lft.to/lastmile_qr_scan"}, "is_disabled": 0, "fusion_lat": 0.0, "name": "f21e12905384d3defb2fb3265770912d", "fusion_lon": 0.0}, {"is_reserved": 0, "type": "electric_scooter", "bike_id": "91566ae907a05673c4ce94890f62881e", "lat": 38.908935666666665, "lon": -77.04379233333333, "rental_uris": {"android": "https://dc.lft.to/lastmile_qr_scan", "ios": "https://dc.lft.to/lastmile_qr_scan"}, "is_disabled": 0, "fusion_lat": 0.0, "name": "91566ae907a05673c4ce94890f62881e", "fusion_lon": 0.0}, {"is_reserved": 0, "type": "electric_scooter", "bike_id": "84298c05a7107bfcad2b7b0473df3049", "lat": 38.900678, "lon": -77.02534383333334, "rental_uris": {"android": "https://dc.lft.to/lastmile_qr_scan", "ios": "https://dc.lft.to/lastmile_qr_scan"}, "is_disabled": 0, "fusion_lat": 0.0, "name": "84298c05a7107bfcad2b7b0473df3049", "fusion_lon": 0.0}, {"is_reserved": 0, "type": "electric_scooter", "bike_id": "34f2e230c11c96e2bebd621488ba715f", "lat": 38.919151666666664, "lon": -77.0217755, "rental_uris": {"android": "https://dc.lft.to/lastmile_qr_scan", "ios": "https://dc.lft.to/lastmile_qr_scan"}, "is_disabled": 0, "fusion_lat": 0.0, "name": "34f2e230c11c96e2bebd621488ba715f", "fusion_lon": 0.0}, {"is_reserved": 0, "type": "electric_scooter", "bike_id": "fabde46b256fa35803ff71213655f700", "lat": 38.884084333333334, "lon": -76.9953005, "rental_uris": {"android": "https://dc.lft.to/lastmile_qr_scan", "ios": "https://dc.lft.to/lastmile_qr_scan"}, "is_disabled": 0, "fusion_lat": 0.0, "name": "fabde46b256fa35803ff71213655f700", "fusion_lon": 0.0}, {"is_reserved": 0, "type": "electric_scooter", "bike_id": "a4e27bdf53ff8edc7541120d1b9499f0", "lat": 38.920501, "lon": -77.02417933333334, "rental_uris": {"android": "https://dc.lft.to/lastmile_qr_scan", "ios": "https://dc.lft.to/lastmile_qr_scan"}, "is_disabled": 0, "fusion_lat": 0.0, "name": "a4e27bdf53ff8edc7541120d1b9499f0", "fusion_lon": 0.0}, {"is_reserved": 0, "type": "electric_scooter", "bike_id": "76a1e3c92fd132bf6731871960e96d14", "lat": 38.9157415, "lon": -77.0364385, "rental_uris": {"android": "https://dc.lft.to/lastmile_qr_scan", "ios": "https://dc.lft.to/lastmile_qr_scan"}, "is_disabled": 0, "fusion_lat": 0.0, "name": "76a1e3c92fd132bf6731871960e96d14", "fusion_lon": 0.0}, {"is_reserved": 0, "type": "electric_scooter", "bike_id": "75d7fc71c0a561cbf0210998d301df1a", "lat": 38.884599333333334, "lon": -76.92622316666667, "rental_uris": {"android": "https://dc.lft.to/lastmile_qr_scan", "ios": "https://dc.lft.to/lastmile_qr_scan"}, "is_disabled": 0, "fusion_lat": 0.0, "name": "75d7fc71c0a561cbf0210998d301df1a", "fusion_lon": 0.0}, {"is_reserved": 0, "type": "electric_scooter", "bike_id": "9fc030317345ff5885f87a18d57bd6df", "lat": 38.896132333333334, "lon": -77.04680083333334, "rental_uris": {"android": "https://dc.lft.to/lastmile_qr_scan", "ios": "https://dc.lft.to/lastmile_qr_scan"}, "is_disabled": 0, "fusion_lat": 0.0, "name": "9fc030317345ff5885f87a18d57bd6df", "fusion_lon": 0.0}, {"is_reserved": 0, "type": "electric_scooter", "bike_id": "ecdf2f92687ff87eacae0e5425a9907b", "lat": 38.92370433333333, "lon": -77.021226, "rental_uris": {"android": "https://dc.lft.to/lastmile_qr_scan", "ios": "https://dc.lft.to/lastmile_qr_scan"}, "is_disabled": 0, "fusion_lat": 0.0, "name": "ecdf2f92687ff87eacae0e5425a9907b", "fusion_lon": 0.0}, {"is_reserved": 0, "type": "electric_scooter", "bike_id": "ec08f79e34be5639f245d658de824376", "lat": 38.897536833333334, "lon": -77.002008, "rental_uris": {"android": "https://dc.lft.to/lastmile_qr_scan", "ios": "https://dc.lft.to/lastmile_qr_scan"}, "is_disabled": 0, "fusion_lat": 0.0, "name": "ec08f79e34be5639f245d658de824376", "fusion_lon": 0.0}, {"is_reserved": 0, "type": "electric_scooter", "bike_id": "6aad2b8bc3a2d8aa70792cc3fd7f968b", "lat": 38.946917, "lon": -77.0745855, "rental_uris": {"android": "https://dc.lft.to/lastmile_qr_scan", "ios": "https://dc.lft.to/lastmile_qr_scan"}, "is_disabled": 0, "fusion_lat": 0.0, "name": "6aad2b8bc3a2d8aa70792cc3fd7f968b", "fusion_lon": 0.0}, {"is_reserved": 0, "type": "electric_scooter", "bike_id": "7273af8450a5b29cc12c13ee4337ca7a", "lat": 38.898265333333335, "lon": -77.0491335, "rental_uris": {"android": "https://dc.lft.to/lastmile_qr_scan", "ios": "https://dc.lft.to/lastmile_qr_scan"}, "is_disabled": 0, "fusion_lat": 0.0, "name": "7273af8450a5b29cc12c13ee4337ca7a", "fusion_lon": 0.0}, {"is_reserved": 0, "type": "electric_scooter", "bike_id": "4c52371591b7e9e221927452364b8dd5", "lat": 38.90445366666667, "lon": -77.06285183333334, "rental_uris": {"android": "https://dc.lft.to/lastmile_qr_scan", "ios": "https://dc.lft.to/lastmile_qr_scan"}, "is_disabled": 0, "fusion_lat": 0.0, "name": "4c52371591b7e9e221927452364b8dd5", "fusion_lon": 0.0}, {"is_reserved": 0, "type": "electric_scooter", "bike_id": "6ef0f1d3391ea150f7f345f8a1959b51", "lat": 38.9256765, "lon": -77.07781516666667, "rental_uris": {"android": "https://dc.lft.to/lastmile_qr_scan", "ios": "https://dc.lft.to/lastmile_qr_scan"}, "is_disabled": 0, "fusion_lat": 0.0, "name": "6ef0f1d3391ea150f7f345f8a1959b51", "fusion_lon": 0.0}, {"is_reserved": 0, "type": "electric_scooter", "bike_id": "271ca7e16c059b9e6505d1b7e8039b44", "lat": 38.89930733333333, "lon": -76.97837116666666, "rental_uris": {"android": "https://dc.lft.to/lastmile_qr_scan", "ios": "https://dc.lft.to/lastmile_qr_scan"}, "is_disabled": 0, "fusion_lat": 0.0, "name": "271ca7e16c059b9e6505d1b7e8039b44", "fusion_lon": 0.0}, {"is_reserved": 0, "type": "electric_scooter", "bike_id": "6182e6272c0609340c473e6c934248a5", "lat": 38.9258025, "lon": -76.99493383333333, "rental_uris": {"android": "https://dc.lft.to/lastmile_qr_scan", "ios": "https://dc.lft.to/lastmile_qr_scan"}, "is_disabled": 0, "fusion_lat": 0.0, "name": "6182e6272c0609340c473e6c934248a5", "fusion_lon": 0.0}, {"is_reserved": 0, "type": "electric_scooter", "bike_id": "bd78c57dca0dcf9d07e986c200c894f4", "lat": 38.923999, "lon": -77.04302233333334, "rental_uris": {"android": "https://dc.lft.to/lastmile_qr_scan", "ios": "https://dc.lft.to/lastmile_qr_scan"}, "is_disabled": 0, "fusion_lat": 0.0, "name": "bd78c57dca0dcf9d07e986c200c894f4", "fusion_lon": 0.0}, {"is_reserved": 0, "type": "electric_scooter", "bike_id": "9f093128dbaa5db80e340c4842c196bc", "lat": 38.908937, "lon": -77.0029025, "rental_uris": {"android": "https://dc.lft.to/lastmile_qr_scan", "ios": "https://dc.lft.to/lastmile_qr_scan"}, "is_disabled": 0, "fusion_lat": 0.0, "name": "9f093128dbaa5db80e340c4842c196bc", "fusion_lon": 0.0}, {"is_reserved": 0, "type": "electric_scooter", "bike_id": "d27a9ce5f5fd7400ce965040f8d190a9", "lat": 38.917195666666665, "lon": -77.07278166666667, "rental_uris": {"android": "https://dc.lft.to/lastmile_qr_scan", "ios": "https://dc.lft.to/lastmile_qr_scan"}, "is_disabled": 0, "fusion_lat": 0.0, "name": "d27a9ce5f5fd7400ce965040f8d190a9", "fusion_lon": 0.0}, {"is_reserved": 0, "type": "electric_scooter", "bike_id": "cd46814dd47436c145096ddc74c01110", "lat": 38.9303905, "lon": -77.03299016666666, "rental_uris": {"android": "https://dc.lft.to/lastmile_qr_scan", "ios": "https://dc.lft.to/lastmile_qr_scan"}, "is_disabled": 0, "fusion_lat": 0.0, "name": "cd46814dd47436c145096ddc74c01110", "fusion_lon": 0.0}, {"is_reserved": 0, "type": "electric_scooter", "bike_id": "6f1e1a25c11d31abf7b8955e049998aa", "lat": 38.967940666666664, "lon": -77.02426183333333, "rental_uris": {"android": "https://dc.lft.to/lastmile_qr_scan", "ios": "https://dc.lft.to/lastmile_qr_scan"}, "is_disabled": 0, "fusion_lat": 0.0, "name": "6f1e1a25c11d31abf7b8955e049998aa", "fusion_lon": 0.0}, {"is_reserved": 0, "type": "electric_scooter", "bike_id": "ac13220c3f731041df09a1a7a49bbfe0", "lat": 38.93250333333334, "lon": -76.99501633333334, "rental_uris": {"android": "https://dc.lft.to/lastmile_qr_scan", "ios": "https://dc.lft.to/lastmile_qr_scan"}, "is_disabled": 0, "fusion_lat": 0.0, "name": "ac13220c3f731041df09a1a7a49bbfe0", "fusion_lon": 0.0}, {"is_reserved": 0, "type": "electric_scooter", "bike_id": "5c841efc63b570be4206e15e4b89fd54", "lat": 38.903607666666666, "lon": -77.04269633333334, "rental_uris": {"android": "https://dc.lft.to/lastmile_qr_scan", "ios": "https://dc.lft.to/lastmile_qr_scan"}, "is_disabled": 0, "fusion_lat": 0.0, "name": "5c841efc63b570be4206e15e4b89fd54", "fusion_lon": 0.0}, {"is_reserved": 0, "type": "electric_scooter", "bike_id": "9efde26c1ad0373370d3d8e31e01571b", "lat": 38.92444166666667, "lon": -77.02022466666666, "rental_uris": {"android": "https://dc.lft.to/lastmile_qr_scan", "ios": "https://dc.lft.to/lastmile_qr_scan"}, "is_disabled": 0, "fusion_lat": 0.0, "name": "9efde26c1ad0373370d3d8e31e01571b", "fusion_lon": 0.0}, {"is_reserved": 0, "type": "electric_scooter", "bike_id": "808350b3090e3d435d02ff600ef3e9ba", "lat": 38.921427666666666, "lon": -77.01832916666666, "rental_uris": {"android": "https://dc.lft.to/lastmile_qr_scan", "ios": "https://dc.lft.to/lastmile_qr_scan"}, "is_disabled": 0, "fusion_lat": 0.0, "name": "808350b3090e3d435d02ff600ef3e9ba", "fusion_lon": 0.0}, {"is_reserved": 0, "type": "electric_scooter", "bike_id": "2ba472daeda660a8a0eb5e9f4a260013", "lat": 38.91521866666667, "lon": -77.01330266666666, "rental_uris": {"android": "https://dc.lft.to/lastmile_qr_scan", "ios": "https://dc.lft.to/lastmile_qr_scan"}, "is_disabled": 0, "fusion_lat": 0.0, "name": "2ba472daeda660a8a0eb5e9f4a260013", "fusion_lon": 0.0}, {"is_reserved": 0, "type": "electric_scooter", "bike_id": "d15a47c78147971577194a21f4867f96", "lat": 38.9267175, "lon": -77.01510633333334, "rental_uris": {"android": "https://dc.lft.to/lastmile_qr_scan", "ios": "https://dc.lft.to/lastmile_qr_scan"}, "is_disabled": 0, "fusion_lat": 0.0, "name": "d15a47c78147971577194a21f4867f96", "fusion_lon": 0.0}, {"is_reserved": 0, "type": "electric_scooter", "bike_id": "c20779683ffa9fdd40eefb3ce130d90c", "lat": 38.87684216666667, "lon": -76.99627033333333, "rental_uris": {"android": "https://dc.lft.to/lastmile_qr_scan", "ios": "https://dc.lft.to/lastmile_qr_scan"}, "is_disabled": 0, "fusion_lat": 0.0, "name": "c20779683ffa9fdd40eefb3ce130d90c", "fusion_lon": 0.0}, {"is_reserved": 0, "type": "electric_scooter", "bike_id": "16ba340d08180b0ccd8bffb4c8137607", "lat": 38.9001315, "lon": -77.01193283333333, "rental_uris": {"android": "https://dc.lft.to/lastmile_qr_scan", "ios": "https://dc.lft.to/lastmile_qr_scan"}, "is_disabled": 0, "fusion_lat": 0.0, "name": "16ba340d08180b0ccd8bffb4c8137607", "fusion_lon": 0.0}, {"is_reserved": 0, "type": "electric_scooter", "bike_id": "5ce0adbc098ea5cd6a3082e88aebb453", "lat": 38.90482266666667, "lon": -77.06859633333333, "rental_uris": {"android": "https://dc.lft.to/lastmile_qr_scan", "ios": "https://dc.lft.to/lastmile_qr_scan"}, "is_disabled": 0, "fusion_lat": 0.0, "name": "5ce0adbc098ea5cd6a3082e88aebb453", "fusion_lon": 0.0}, {"is_reserved": 0, "type": "electric_scooter", "bike_id": "7cb0544d55884a573b2a0772d2642b4f", "lat": 38.9139645, "lon": -77.04335766666667, "rental_uris": {"android": "https://dc.lft.to/lastmile_qr_scan", "ios": "https://dc.lft.to/lastmile_qr_scan"}, "is_disabled": 0, "fusion_lat": 0.0, "name": "7cb0544d55884a573b2a0772d2642b4f", "fusion_lon": 0.0}, {"is_reserved": 0, "type": "electric_scooter", "bike_id": "bac1a6576895a04d7ac910ffecadcf97", "lat": 38.91344183333333, "lon": -77.041875, "rental_uris": {"android": "https://dc.lft.to/lastmile_qr_scan", "ios": "https://dc.lft.to/lastmile_qr_scan"}, "is_disabled": 0, "fusion_lat": 0.0, "name": "bac1a6576895a04d7ac910ffecadcf97", "fusion_lon": 0.0}, {"is_reserved": 0, "type": "electric_scooter", "bike_id": "a6fa78b7b5fb4fac5ec57794bf2cb22e", "lat": 38.90179916666666, "lon": -77.02171466666667, "rental_uris": {"android": "https://dc.lft.to/lastmile_qr_scan", "ios": "https://dc.lft.to/lastmile_qr_scan"}, "is_disabled": 0, "fusion_lat": 0.0, "name": "a6fa78b7b5fb4fac5ec57794bf2cb22e", "fusion_lon": 0.0}, {"is_reserved": 0, "type": "electric_scooter", "bike_id": "d41968a7bf7bd8b526aa4a71791b0233", "lat": 38.92316116666667, "lon": -77.04128216666666, "rental_uris": {"android": "https://dc.lft.to/lastmile_qr_scan", "ios": "https://dc.lft.to/lastmile_qr_scan"}, "is_disabled": 0, "fusion_lat": 0.0, "name": "d41968a7bf7bd8b526aa4a71791b0233", "fusion_lon": 0.0}, {"is_reserved": 0, "type": "electric_scooter", "bike_id": "ca48c8e73d3b50740d4d0d2b94b0c7ef", "lat": 38.92576733333333, "lon": -76.995077, "rental_uris": {"android": "https://dc.lft.to/lastmile_qr_scan", "ios": "https://dc.lft.to/lastmile_qr_scan"}, "is_disabled": 0, "fusion_lat": 0.0, "name": "ca48c8e73d3b50740d4d0d2b94b0c7ef", "fusion_lon": 0.0}, {"is_reserved": 0, "type": "electric_bike", "bike_id": "9e332d0e1b906cfa2c42d2d0002d7171", "lat": 38.918625666666664, "lon": -76.9608345, "rental_uris": {"android": "https://dc.lft.to/lastmile_qr_scan", "ios": "https://dc.lft.to/lastmile_qr_scan"}, "is_disabled": 0, "fusion_lat": 0.0, "name": "9e332d0e1b906cfa2c42d2d0002d7171", "fusion_lon": 0.0}, {"is_reserved": 0, "type": "electric_scooter", "bike_id": "7edf98134f253f5ee0286e23bdf3fb14", "lat": 38.8974115, "lon": -77.0201015, "rental_uris": {"android": "https://dc.lft.to/lastmile_qr_scan", "ios": "https://dc.lft.to/lastmile_qr_scan"}, "is_disabled": 0, "fusion_lat": 0.0, "name": "7edf98134f253f5ee0286e23bdf3fb14", "fusion_lon": 0.0}, {"is_reserved": 0, "type": "electric_scooter", "bike_id": "11e6fe84e6d571db236ba2a558378076", "lat": 38.8899135, "lon": -77.0007745, "rental_uris": {"android": "https://dc.lft.to/lastmile_qr_scan", "ios": "https://dc.lft.to/lastmile_qr_scan"}, "is_disabled": 0, "fusion_lat": 0.0, "name": "11e6fe84e6d571db236ba2a558378076", "fusion_lon": 0.0}, {"is_reserved": 0, "type": "electric_scooter", "bike_id": "0191190ad980e0cc4b0006ff4bea75bd", "lat": 38.912697, "lon": -77.03713483333334, "rental_uris": {"android": "https://dc.lft.to/lastmile_qr_scan", "ios": "https://dc.lft.to/lastmile_qr_scan"}, "is_disabled": 0, "fusion_lat": 0.0, "name": "0191190ad980e0cc4b0006ff4bea75bd", "fusion_lon": 0.0}, {"is_reserved": 0, "type": "electric_scooter", "bike_id": "8340ff6d2fdce86940a737f7c5921011", "lat": 38.9208885, "lon": -77.0136745, "rental_uris": {"android": "https://dc.lft.to/lastmile_qr_scan", "ios": "https://dc.lft.to/lastmile_qr_scan"}, "is_disabled": 0, "fusion_lat": 0.0, "name": "8340ff6d2fdce86940a737f7c5921011", "fusion_lon": 0.0}, {"is_reserved": 0, "type": "electric_scooter", "bike_id": "0bc446116fae37aff8a3c8241ac75196", "lat": 38.903993, "lon": -77.06774783333333, "rental_uris": {"android": "https://dc.lft.to/lastmile_qr_scan", "ios": "https://dc.lft.to/lastmile_qr_scan"}, "is_disabled": 0, "fusion_lat": 0.0, "name": "0bc446116fae37aff8a3c8241ac75196", "fusion_lon": 0.0}, {"is_reserved": 0, "type": "electric_scooter", "bike_id": "141b23857312662333f4a155ee338629", "lat": 38.89334616666667, "lon": -77.02847183333333, "rental_uris": {"android": "https://dc.lft.to/lastmile_qr_scan", "ios": "https://dc.lft.to/lastmile_qr_scan"}, "is_disabled": 0, "fusion_lat": 0.0, "name": "141b23857312662333f4a155ee338629", "fusion_lon": 0.0}, {"is_reserved": 0, "type": "electric_scooter", "bike_id": "f4e9705900c09636c70328ff140bae8e", "lat": 38.91653133333333, "lon": -77.02178583333334, "rental_uris": {"android": "https://dc.lft.to/lastmile_qr_scan", "ios": "https://dc.lft.to/lastmile_qr_scan"}, "is_disabled": 0, "fusion_lat": 0.0, "name": "f4e9705900c09636c70328ff140bae8e", "fusion_lon": 0.0}, {"is_reserved": 0, "type": "electric_scooter", "bike_id": "f10196754a6c740e57e3dbbe988e1ff7", "lat": 38.929416833333335, "lon": -77.03751166666666, "rental_uris": {"android": "https://dc.lft.to/lastmile_qr_scan", "ios": "https://dc.lft.to/lastmile_qr_scan"}, "is_disabled": 0, "fusion_lat": 0.0, "name": "f10196754a6c740e57e3dbbe988e1ff7", "fusion_lon": 0.0}, {"is_reserved": 0, "type": "electric_scooter", "bike_id": "a15e2bd555e9c7e6d60372f9f943a058", "lat": 38.887793, "lon": -77.00346216666667, "rental_uris": {"android": "https://dc.lft.to/lastmile_qr_scan", "ios": "https://dc.lft.to/lastmile_qr_scan"}, "is_disabled": 0, "fusion_lat": 0.0, "name": "a15e2bd555e9c7e6d60372f9f943a058", "fusion_lon": 0.0}, {"is_reserved": 0, "type": "electric_scooter", "bike_id": "eb239d52b0b5b7c54591b02b3e31b81e", "lat": 38.91629433333333, "lon": -77.03208133333334, "rental_uris": {"android": "https://dc.lft.to/lastmile_qr_scan", "ios": "https://dc.lft.to/lastmile_qr_scan"}, "is_disabled": 0, "fusion_lat": 0.0, "name": "eb239d52b0b5b7c54591b02b3e31b81e", "fusion_lon": 0.0}, {"is_reserved": 0, "type": "electric_scooter", "bike_id": "1e9e8f17034e21cdf4635524163f5e78", "lat": 38.924842, "lon": -77.02722683333333, "rental_uris": {"android": "https://dc.lft.to/lastmile_qr_scan", "ios": "https://dc.lft.to/lastmile_qr_scan"}, "is_disabled": 0, "fusion_lat": 0.0, "name": "1e9e8f17034e21cdf4635524163f5e78", "fusion_lon": 0.0}, {"is_reserved": 0, "type": "electric_scooter", "bike_id": "03646b63728ccbb8684b7f97cabbf32c", "lat": 38.899790333333335, "lon": -77.02716433333333, "rental_uris": {"android": "https://dc.lft.to/lastmile_qr_scan", "ios": "https://dc.lft.to/lastmile_qr_scan"}, "is_disabled": 0, "fusion_lat": 0.0, "name": "03646b63728ccbb8684b7f97cabbf32c", "fusion_lon": 0.0}, {"is_reserved": 0, "type": "electric_bike", "bike_id": "cd82950e029eac3de6d4b7425184928e", "lat": 38.974437, "lon": -77.09593283333334, "rental_uris": {"android": "https://dc.lft.to/lastmile_qr_scan", "ios": "https://dc.lft.to/lastmile_qr_scan"}, "is_disabled": 0, "fusion_lat": 0.0, "name": "cd82950e029eac3de6d4b7425184928e", "fusion_lon": 0.0}, {"is_reserved": 0, "type": "electric_scooter", "bike_id": "09fcd146df7061d610da8f08795c9843", "lat": 38.8989805, "lon": -77.003686, "rental_uris": {"android": "https://dc.lft.to/lastmile_qr_scan", "ios": "https://dc.lft.to/lastmile_qr_scan"}, "is_disabled": 0, "fusion_lat": 0.0, "name": "09fcd146df7061d610da8f08795c9843", "fusion_lon": 0.0}, {"is_reserved": 0, "type": "electric_scooter", "bike_id": "1c19d5c30bdb7b3fa77a00599223dc75", "lat": 38.906818666666666, "lon": -77.06284133333334, "rental_uris": {"android": "https://dc.lft.to/lastmile_qr_scan", "ios": "https://dc.lft.to/lastmile_qr_scan"}, "is_disabled": 0, "fusion_lat": 0.0, "name": "1c19d5c30bdb7b3fa77a00599223dc75", "fusion_lon": 0.0}, {"is_reserved": 0, "type": "electric_scooter", "bike_id": "795464418da915384c57a5b93bcb6f21", "lat": 38.922510833333334, "lon": -77.02882883333334, "rental_uris": {"android": "https://dc.lft.to/lastmile_qr_scan", "ios": "https://dc.lft.to/lastmile_qr_scan"}, "is_disabled": 0, "fusion_lat": 0.0, "name": "795464418da915384c57a5b93bcb6f21", "fusion_lon": 0.0}, {"is_reserved": 0, "type": "electric_scooter", "bike_id": "477131e2ddc02448a44e828f90d16a00", "lat": 38.90180516666667, "lon": -76.9289235, "rental_uris": {"android": "https://dc.lft.to/lastmile_qr_scan", "ios": "https://dc.lft.to/lastmile_qr_scan"}, "is_disabled": 0, "fusion_lat": 0.0, "name": "477131e2ddc02448a44e828f90d16a00", "fusion_lon": 0.0}, {"is_reserved": 0, "type": "electric_scooter", "bike_id": "e782dde8266018622319c9654130dd00", "lat": 38.9002985, "lon": -76.996068, "rental_uris": {"android": "https://dc.lft.to/lastmile_qr_scan", "ios": "https://dc.lft.to/lastmile_qr_scan"}, "is_disabled": 0, "fusion_lat": 0.0, "name": "e782dde8266018622319c9654130dd00", "fusion_lon": 0.0}, {"is_reserved": 0, "type": "electric_bike", "bike_id": "3362b74b457efff8129bcb1dfcaf1135", "lat": 38.80734316666667, "lon": -76.99254116666667, "rental_uris": {"android": "https://dc.lft.to/lastmile_qr_scan", "ios": "https://dc.lft.to/lastmile_qr_scan"}, "is_disabled": 0, "fusion_lat": 0.0, "name": "3362b74b457efff8129bcb1dfcaf1135", "fusion_lon": 0.0}, {"is_reserved": 0, "type": "electric_scooter", "bike_id": "fab64e146ab46c48da309e2147e2b6f2", "lat": 38.90553633333333, "lon": -77.05699916666667, "rental_uris": {"android": "https://dc.lft.to/lastmile_qr_scan", "ios": "https://dc.lft.to/lastmile_qr_scan"}, "is_disabled": 0, "fusion_lat": 0.0, "name": "fab64e146ab46c48da309e2147e2b6f2", "fusion_lon": 0.0}, {"is_reserved": 0, "type": "electric_scooter", "bike_id": "4805cde688c2a6e9c6b036d8f87d940c", "lat": 38.897103333333334, "lon": -77.0535965, "rental_uris": {"android": "https://dc.lft.to/lastmile_qr_scan", "ios": "https://dc.lft.to/lastmile_qr_scan"}, "is_disabled": 0, "fusion_lat": 0.0, "name": "4805cde688c2a6e9c6b036d8f87d940c", "fusion_lon": 0.0}, {"is_reserved": 0, "type": "electric_scooter", "bike_id": "32649febad1987ccedf1da69cf237038", "lat": 38.87207566666667, "lon": -77.0155045, "rental_uris": {"android": "https://dc.lft.to/lastmile_qr_scan", "ios": "https://dc.lft.to/lastmile_qr_scan"}, "is_disabled": 0, "fusion_lat": 0.0, "name": "32649febad1987ccedf1da69cf237038", "fusion_lon": 0.0}, {"is_reserved": 0, "type": "electric_scooter", "bike_id": "49c1665b438e134d4e8e836575e3e72a", "lat": 38.924332, "lon": -77.02247283333334, "rental_uris": {"android": "https://dc.lft.to/lastmile_qr_scan", "ios": "https://dc.lft.to/lastmile_qr_scan"}, "is_disabled": 0, "fusion_lat": 0.0, "name": "49c1665b438e134d4e8e836575e3e72a", "fusion_lon": 0.0}, {"is_reserved": 0, "type": "electric_scooter", "bike_id": "15e3b12fb52b2e277c262d732eba22b8", "lat": 38.88748233333333, "lon": -77.015394, "rental_uris": {"android": "https://dc.lft.to/lastmile_qr_scan", "ios": "https://dc.lft.to/lastmile_qr_scan"}, "is_disabled": 0, "fusion_lat": 0.0, "name": "15e3b12fb52b2e277c262d732eba22b8", "fusion_lon": 0.0}, {"is_reserved": 0, "type": "electric_scooter", "bike_id": "442edc6264c8f39e847163e00a0705af", "lat": 38.90340583333333, "lon": -77.02578166666666, "rental_uris": {"android": "https://dc.lft.to/lastmile_qr_scan", "ios": "https://dc.lft.to/lastmile_qr_scan"}, "is_disabled": 0, "fusion_lat": 0.0, "name": "442edc6264c8f39e847163e00a0705af", "fusion_lon": 0.0}, {"is_reserved": 0, "type": "electric_scooter", "bike_id": "3280ac1fea6ab901ea027cf3ebb74508", "lat": 38.9201115, "lon": -77.0318935, "rental_uris": {"android": "https://dc.lft.to/lastmile_qr_scan", "ios": "https://dc.lft.to/lastmile_qr_scan"}, "is_disabled": 0, "fusion_lat": 0.0, "name": "3280ac1fea6ab901ea027cf3ebb74508", "fusion_lon": 0.0}, {"is_reserved": 0, "type": "electric_scooter", "bike_id": "a9ef847280c7a68bc4a2b023ee6fb886", "lat": 38.89265666666667, "lon": -76.9300075, "rental_uris": {"android": "https://dc.lft.to/lastmile_qr_scan", "ios": "https://dc.lft.to/lastmile_qr_scan"}, "is_disabled": 0, "fusion_lat": 0.0, "name": "a9ef847280c7a68bc4a2b023ee6fb886", "fusion_lon": 0.0}, {"is_reserved": 0, "type": "electric_scooter", "bike_id": "8efd79422fe4d99ead393d9064ab65c5", "lat": 38.90086133333333, "lon": -77.0573715, "rental_uris": {"android": "https://dc.lft.to/lastmile_qr_scan", "ios": "https://dc.lft.to/lastmile_qr_scan"}, "is_disabled": 0, "fusion_lat": 0.0, "name": "8efd79422fe4d99ead393d9064ab65c5", "fusion_lon": 0.0}, {"is_reserved": 0, "type": "electric_scooter", "bike_id": "78e7e206e253ce243e053a439b90e59f", "lat": 38.88380083333333, "lon": -76.93055033333333, "rental_uris": {"android": "https://dc.lft.to/lastmile_qr_scan", "ios": "https://dc.lft.to/lastmile_qr_scan"}, "is_disabled": 0, "fusion_lat": 0.0, "name": "78e7e206e253ce243e053a439b90e59f", "fusion_lon": 0.0}, {"is_reserved": 0, "type": "electric_scooter", "bike_id": "e1c831bc5e3d09239a4606e2529b1619", "lat": 38.9002125, "lon": -77.00207933333333, "rental_uris": {"android": "https://dc.lft.to/lastmile_qr_scan", "ios": "https://dc.lft.to/lastmile_qr_scan"}, "is_disabled": 0, "fusion_lat": 0.0, "name": "e1c831bc5e3d09239a4606e2529b1619", "fusion_lon": 0.0}, {"is_reserved": 0, "type": "electric_scooter", "bike_id": "bf3ce304cc83f6f26f01c64531caa287", "lat": 38.89619233333333, "lon": -76.97678783333333, "rental_uris": {"android": "https://dc.lft.to/lastmile_qr_scan", "ios": "https://dc.lft.to/lastmile_qr_scan"}, "is_disabled": 0, "fusion_lat": 0.0, "name": "bf3ce304cc83f6f26f01c64531caa287", "fusion_lon": 0.0}, {"is_reserved": 0, "type": "electric_scooter", "bike_id": "14ce98b8938e9a28df669e2adc296940", "lat": 38.896677, "lon": -76.93207283333334, "rental_uris": {"android": "https://dc.lft.to/lastmile_qr_scan", "ios": "https://dc.lft.to/lastmile_qr_scan"}, "is_disabled": 0, "fusion_lat": 0.0, "name": "14ce98b8938e9a28df669e2adc296940", "fusion_lon": 0.0}, {"is_reserved": 0, "type": "electric_scooter", "bike_id": "016cbc9495775fc97198970161f202c0", "lat": 38.917571, "lon": -77.00456366666667, "rental_uris": {"android": "https://dc.lft.to/lastmile_qr_scan", "ios": "https://dc.lft.to/lastmile_qr_scan"}, "is_disabled": 0, "fusion_lat": 0.0, "name": "016cbc9495775fc97198970161f202c0", "fusion_lon": 0.0}, {"is_reserved": 0, "type": "electric_scooter", "bike_id": "af4f1c3cad2966e0acdb61bed5b6b36c", "lat": 38.903229333333336, "lon": -77.01079316666667, "rental_uris": {"android": "https://dc.lft.to/lastmile_qr_scan", "ios": "https://dc.lft.to/lastmile_qr_scan"}, "is_disabled": 0, "fusion_lat": 0.0, "name": "af4f1c3cad2966e0acdb61bed5b6b36c", "fusion_lon": 0.0}, {"is_reserved": 0, "type": "electric_bike", "bike_id": "ba3e32d879d6e0678f8071542dab3fb7", "lat": 38.91707233333333, "lon": -77.05717066666666, "rental_uris": {"android": "https://dc.lft.to/lastmile_qr_scan", "ios": "https://dc.lft.to/lastmile_qr_scan"}, "is_disabled": 0, "fusion_lat": 0.0, "name": "ba3e32d879d6e0678f8071542dab3fb7", "fusion_lon": 0.0}, {"is_reserved": 0, "type": "electric_scooter", "bike_id": "861a49a40050a3e008222eec73262448", "lat": 38.9140235, "lon": -77.04330533333334, "rental_uris": {"android": "https://dc.lft.to/lastmile_qr_scan", "ios": "https://dc.lft.to/lastmile_qr_scan"}, "is_disabled": 0, "fusion_lat": 0.0, "name": "861a49a40050a3e008222eec73262448", "fusion_lon": 0.0}, {"is_reserved": 0, "type": "electric_scooter", "bike_id": "8322b9e0b58785bdc9e0b7000bb09891", "lat": 38.91254766666667, "lon": -77.04530433333333, "rental_uris": {"android": "https://dc.lft.to/lastmile_qr_scan", "ios": "https://dc.lft.to/lastmile_qr_scan"}, "is_disabled": 0, "fusion_lat": 0.0, "name": "8322b9e0b58785bdc9e0b7000bb09891", "fusion_lon": 0.0}, {"is_reserved": 0, "type": "electric_bike", "bike_id": "b127187aab265780fd058b7f346f9ee5", "lat": 38.92077583333333, "lon": -76.99571516666667, "rental_uris": {"android": "https://dc.lft.to/lastmile_qr_scan", "ios": "https://dc.lft.to/lastmile_qr_scan"}, "is_disabled": 0, "fusion_lat": 0.0, "name": "b127187aab265780fd058b7f346f9ee5", "fusion_lon": 0.0}, {"is_reserved": 0, "type": "electric_scooter", "bike_id": "efa071bc6f972dcc9f7ee47f9ff9d2a6", "lat": 38.910929833333334, "lon": -77.03855066666667, "rental_uris": {"android": "https://dc.lft.to/lastmile_qr_scan", "ios": "https://dc.lft.to/lastmile_qr_scan"}, "is_disabled": 0, "fusion_lat": 0.0, "name": "efa071bc6f972dcc9f7ee47f9ff9d2a6", "fusion_lon": 0.0}, {"is_reserved": 0, "type": "electric_scooter", "bike_id": "400d559714ab63abb95606d4f3e72703", "lat": 38.883262, "lon": -77.0236665, "rental_uris": {"android": "https://dc.lft.to/lastmile_qr_scan", "ios": "https://dc.lft.to/lastmile_qr_scan"}, "is_disabled": 0, "fusion_lat": 0.0, "name": "400d559714ab63abb95606d4f3e72703", "fusion_lon": 0.0}, {"is_reserved": 0, "type": "electric_scooter", "bike_id": "a119516449038e3d97431b37459fefd2", "lat": 38.8969765, "lon": -77.04339233333333, "rental_uris": {"android": "https://dc.lft.to/lastmile_qr_scan", "ios": "https://dc.lft.to/lastmile_qr_scan"}, "is_disabled": 0, "fusion_lat": 0.0, "name": "a119516449038e3d97431b37459fefd2", "fusion_lon": 0.0}, {"is_reserved": 0, "type": "electric_bike", "bike_id": "8c84717a843d7706763a2973229307e2", "lat": 38.920371333333335, "lon": -76.97956966666666, "rental_uris": {"android": "https://dc.lft.to/lastmile_qr_scan", "ios": "https://dc.lft.to/lastmile_qr_scan"}, "is_disabled": 0, "fusion_lat": 0.0, "name": "8c84717a843d7706763a2973229307e2", "fusion_lon": 0.0}, {"is_reserved": 0, "type": "electric_scooter", "bike_id": "5b7a345672285045499fb865ff283bc6", "lat": 38.916108, "lon": -77.03187783333334, "rental_uris": {"android": "https://dc.lft.to/lastmile_qr_scan", "ios": "https://dc.lft.to/lastmile_qr_scan"}, "is_disabled": 0, "fusion_lat": 0.0, "name": "5b7a345672285045499fb865ff283bc6", "fusion_lon": 0.0}, {"is_reserved": 0, "type": "electric_scooter", "bike_id": "cc848464a37d5103a994b618c2821976", "lat": 38.92423183333333, "lon": -77.05183516666666, "rental_uris": {"android": "https://dc.lft.to/lastmile_qr_scan", "ios": "https://dc.lft.to/lastmile_qr_scan"}, "is_disabled": 0, "fusion_lat": 0.0, "name": "cc848464a37d5103a994b618c2821976", "fusion_lon": 0.0}, {"is_reserved": 0, "type": "electric_scooter", "bike_id": "391bf5ec75e4c91db201fbc25e8bbdcf", "lat": 38.922013, "lon": -76.9942545, "rental_uris": {"android": "https://dc.lft.to/lastmile_qr_scan", "ios": "https://dc.lft.to/lastmile_qr_scan"}, "is_disabled": 0, "fusion_lat": 0.0, "name": "391bf5ec75e4c91db201fbc25e8bbdcf", "fusion_lon": 0.0}, {"is_reserved": 0, "type": "electric_bike", "bike_id": "e3d675794fe0860979a351bbaac86bc2", "lat": 38.946803333333335, "lon": -76.99331066666667, "rental_uris": {"android": "https://dc.lft.to/lastmile_qr_scan", "ios": "https://dc.lft.to/lastmile_qr_scan"}, "is_disabled": 0, "fusion_lat": 0.0, "name": "e3d675794fe0860979a351bbaac86bc2", "fusion_lon": 0.0}, {"is_reserved": 0, "type": "electric_scooter", "bike_id": "e3b32a4ad6383615925dd31f3b6069e2", "lat": 38.9227305, "lon": -77.03669583333334, "rental_uris": {"android": "https://dc.lft.to/lastmile_qr_scan", "ios": "https://dc.lft.to/lastmile_qr_scan"}, "is_disabled": 0, "fusion_lat": 0.0, "name": "e3b32a4ad6383615925dd31f3b6069e2", "fusion_lon": 0.0}, {"is_reserved": 0, "type": "electric_scooter", "bike_id": "723b5ab45bef5ff3f2ed22c0f0eb67ad", "lat": 38.91705, "lon": -77.03134266666666, "rental_uris": {"android": "https://dc.lft.to/lastmile_qr_scan", "ios": "https://dc.lft.to/lastmile_qr_scan"}, "is_disabled": 0, "fusion_lat": 0.0, "name": "723b5ab45bef5ff3f2ed22c0f0eb67ad", "fusion_lon": 0.0}, {"is_reserved": 0, "type": "electric_scooter", "bike_id": "7ea8232673e6dbb2e323fea1cc82bb26", "lat": 38.8938415, "lon": -76.97810566666666, "rental_uris": {"android": "https://dc.lft.to/lastmile_qr_scan", "ios": "https://dc.lft.to/lastmile_qr_scan"}, "is_disabled": 0, "fusion_lat": 0.0, "name": "7ea8232673e6dbb2e323fea1cc82bb26", "fusion_lon": 0.0}, {"is_reserved": 0, "type": "electric_scooter", "bike_id": "9ca737291b569fa080ba01abd4fa2690", "lat": 38.926528166666664, "lon": -77.04057883333333, "rental_uris": {"android": "https://dc.lft.to/lastmile_qr_scan", "ios": "https://dc.lft.to/lastmile_qr_scan"}, "is_disabled": 0, "fusion_lat": 0.0, "name": "9ca737291b569fa080ba01abd4fa2690", "fusion_lon": 0.0}, {"is_reserved": 0, "type": "electric_scooter", "bike_id": "c82ae57f382d2e662550c60bdd31ddb8", "lat": 38.919830166666664, "lon": -77.0251235, "rental_uris": {"android": "https://dc.lft.to/lastmile_qr_scan", "ios": "https://dc.lft.to/lastmile_qr_scan"}, "is_disabled": 0, "fusion_lat": 0.0, "name": "c82ae57f382d2e662550c60bdd31ddb8", "fusion_lon": 0.0}, {"is_reserved": 0, "type": "electric_scooter", "bike_id": "1ad58148f99ff0854b770746f45f8952", "lat": 38.92083566666667, "lon": -77.0769745, "rental_uris": {"android": "https://dc.lft.to/lastmile_qr_scan", "ios": "https://dc.lft.to/lastmile_qr_scan"}, "is_disabled": 0, "fusion_lat": 0.0, "name": "1ad58148f99ff0854b770746f45f8952", "fusion_lon": 0.0}, {"is_reserved": 0, "type": "electric_scooter", "bike_id": "5a81458de41b1e0c86e15988968fd630", "lat": 38.89911583333333, "lon": -76.93367466666666, "rental_uris": {"android": "https://dc.lft.to/lastmile_qr_scan", "ios": "https://dc.lft.to/lastmile_qr_scan"}, "is_disabled": 0, "fusion_lat": 0.0, "name": "5a81458de41b1e0c86e15988968fd630", "fusion_lon": 0.0}, {"is_reserved": 0, "type": "electric_scooter", "bike_id": "aa34885ef17dd890f3d24dd88e0e0aa2", "lat": 38.9121925, "lon": -77.04573983333333, "rental_uris": {"android": "https://dc.lft.to/lastmile_qr_scan", "ios": "https://dc.lft.to/lastmile_qr_scan"}, "is_disabled": 0, "fusion_lat": 0.0, "name": "aa34885ef17dd890f3d24dd88e0e0aa2", "fusion_lon": 0.0}, {"is_reserved": 0, "type": "electric_scooter", "bike_id": "cd14ba31a51135846ee6a71936a0911e", "lat": 38.90039983333333, "lon": -76.9916125, "rental_uris": {"android": "https://dc.lft.to/lastmile_qr_scan", "ios": "https://dc.lft.to/lastmile_qr_scan"}, "is_disabled": 0, "fusion_lat": 0.0, "name": "cd14ba31a51135846ee6a71936a0911e", "fusion_lon": 0.0}, {"is_reserved": 0, "type": "electric_scooter", "bike_id": "4efdefa876504f02ae1455b513a63932", "lat": 38.946580166666664, "lon": -77.03281366666667, "rental_uris": {"android": "https://dc.lft.to/lastmile_qr_scan", "ios": "https://dc.lft.to/lastmile_qr_scan"}, "is_disabled": 0, "fusion_lat": 0.0, "name": "4efdefa876504f02ae1455b513a63932", "fusion_lon": 0.0}, {"is_reserved": 0, "type": "electric_scooter", "bike_id": "b1c31a58f4023535b214e73c9639a332", "lat": 38.91718983333333, "lon": -77.03182583333333, "rental_uris": {"android": "https://dc.lft.to/lastmile_qr_scan", "ios": "https://dc.lft.to/lastmile_qr_scan"}, "is_disabled": 0, "fusion_lat": 0.0, "name": "b1c31a58f4023535b214e73c9639a332", "fusion_lon": 0.0}, {"is_reserved": 0, "type": "electric_scooter", "bike_id": "5dbe7ebed1c3e3c1f9dd3d9cf1bec7ee", "lat": 38.927631833333336, "lon": -77.0688835, "rental_uris": {"android": "https://dc.lft.to/lastmile_qr_scan", "ios": "https://dc.lft.to/lastmile_qr_scan"}, "is_disabled": 0, "fusion_lat": 0.0, "name": "5dbe7ebed1c3e3c1f9dd3d9cf1bec7ee", "fusion_lon": 0.0}, {"is_reserved": 0, "type": "electric_scooter", "bike_id": "b71456da43f66bdc92412e51a06ef436", "lat": 38.899466, "lon": -77.0268325, "rental_uris": {"android": "https://dc.lft.to/lastmile_qr_scan", "ios": "https://dc.lft.to/lastmile_qr_scan"}, "is_disabled": 0, "fusion_lat": 0.0, "name": "b71456da43f66bdc92412e51a06ef436", "fusion_lon": 0.0}, {"is_reserved": 0, "type": "electric_scooter", "bike_id": "009c80b4c22a96c2e355d47889031d81", "lat": 38.93902716666667, "lon": -77.03323966666666, "rental_uris": {"android": "https://dc.lft.to/lastmile_qr_scan", "ios": "https://dc.lft.to/lastmile_qr_scan"}, "is_disabled": 0, "fusion_lat": 0.0, "name": "009c80b4c22a96c2e355d47889031d81", "fusion_lon": 0.0}, {"is_reserved": 0, "type": "electric_scooter", "bike_id": "6a4c55d3cae63ca408b6ae7f5e47a6a0", "lat": 38.9029885, "lon": -77.00220716666666, "rental_uris": {"android": "https://dc.lft.to/lastmile_qr_scan", "ios": "https://dc.lft.to/lastmile_qr_scan"}, "is_disabled": 0, "fusion_lat": 0.0, "name": "6a4c55d3cae63ca408b6ae7f5e47a6a0", "fusion_lon": 0.0}, {"is_reserved": 0, "type": "electric_scooter", "bike_id": "2ef534d4c920d797177c7fe34c75b49a", "lat": 38.894109666666665, "lon": -77.021545, "rental_uris": {"android": "https://dc.lft.to/lastmile_qr_scan", "ios": "https://dc.lft.to/lastmile_qr_scan"}, "is_disabled": 0, "fusion_lat": 0.0, "name": "2ef534d4c920d797177c7fe34c75b49a", "fusion_lon": 0.0}, {"is_reserved": 0, "type": "electric_scooter", "bike_id": "7c3d30e8802fc6f1fcd4aa6d8f7595f4", "lat": 38.93037566666667, "lon": -77.083136, "rental_uris": {"android": "https://dc.lft.to/lastmile_qr_scan", "ios": "https://dc.lft.to/lastmile_qr_scan"}, "is_disabled": 0, "fusion_lat": 0.0, "name": "7c3d30e8802fc6f1fcd4aa6d8f7595f4", "fusion_lon": 0.0}, {"is_reserved": 0, "type": "electric_scooter", "bike_id": "844b0dfdba4225cda755715c81b0e40a", "lat": 38.92380083333333, "lon": -77.02741583333334, "rental_uris": {"android": "https://dc.lft.to/lastmile_qr_scan", "ios": "https://dc.lft.to/lastmile_qr_scan"}, "is_disabled": 0, "fusion_lat": 0.0, "name": "844b0dfdba4225cda755715c81b0e40a", "fusion_lon": 0.0}, {"is_reserved": 0, "type": "electric_scooter", "bike_id": "325d7843a6cd09e130cac67aa1b5f0c3", "lat": 38.906132666666664, "lon": -77.03296916666666, "rental_uris": {"android": "https://dc.lft.to/lastmile_qr_scan", "ios": "https://dc.lft.to/lastmile_qr_scan"}, "is_disabled": 0, "fusion_lat": 0.0, "name": "325d7843a6cd09e130cac67aa1b5f0c3", "fusion_lon": 0.0}, {"is_reserved": 0, "type": "electric_scooter", "bike_id": "8b31aa652a0d6d0664607c5dc6464a01", "lat": 38.89796833333333, "lon": -77.02773166666667, "rental_uris": {"android": "https://dc.lft.to/lastmile_qr_scan", "ios": "https://dc.lft.to/lastmile_qr_scan"}, "is_disabled": 0, "fusion_lat": 0.0, "name": "8b31aa652a0d6d0664607c5dc6464a01", "fusion_lon": 0.0}, {"is_reserved": 0, "type": "electric_scooter", "bike_id": "bc5b6fe4da66c2a33d6887f00d61b73c", "lat": 38.9141065, "lon": -77.04178116666667, "rental_uris": {"android": "https://dc.lft.to/lastmile_qr_scan", "ios": "https://dc.lft.to/lastmile_qr_scan"}, "is_disabled": 0, "fusion_lat": 0.0, "name": "bc5b6fe4da66c2a33d6887f00d61b73c", "fusion_lon": 0.0}, {"is_reserved": 0, "type": "electric_scooter", "bike_id": "9fd0c4844e1613932b9d91731b04cdfd", "lat": 38.90310183333333, "lon": -77.02422533333333, "rental_uris": {"android": "https://dc.lft.to/lastmile_qr_scan", "ios": "https://dc.lft.to/lastmile_qr_scan"}, "is_disabled": 0, "fusion_lat": 0.0, "name": "9fd0c4844e1613932b9d91731b04cdfd", "fusion_lon": 0.0}, {"is_reserved": 0, "type": "electric_scooter", "bike_id": "34df119ba5dacd962dae8fcd711bbd4b", "lat": 38.923517833333335, "lon": -76.99086566666666, "rental_uris": {"android": "https://dc.lft.to/lastmile_qr_scan", "ios": "https://dc.lft.to/lastmile_qr_scan"}, "is_disabled": 0, "fusion_lat": 0.0, "name": "34df119ba5dacd962dae8fcd711bbd4b", "fusion_lon": 0.0}, {"is_reserved": 0, "type": "electric_scooter", "bike_id": "621e3f5eb09d6b583acdc6076ba12f9d", "lat": 38.9030835, "lon": -77.05316866666666, "rental_uris": {"android": "https://dc.lft.to/lastmile_qr_scan", "ios": "https://dc.lft.to/lastmile_qr_scan"}, "is_disabled": 0, "fusion_lat": 0.0, "name": "621e3f5eb09d6b583acdc6076ba12f9d", "fusion_lon": 0.0}, {"is_reserved": 0, "type": "electric_scooter", "bike_id": "c345a04b01bfe4da33ec327883aa071d", "lat": 38.915011, "lon": -77.01216316666667, "rental_uris": {"android": "https://dc.lft.to/lastmile_qr_scan", "ios": "https://dc.lft.to/lastmile_qr_scan"}, "is_disabled": 0, "fusion_lat": 0.0, "name": "c345a04b01bfe4da33ec327883aa071d", "fusion_lon": 0.0}, {"is_reserved": 0, "type": "electric_scooter", "bike_id": "087929a1878f8d16c7b098d09cd09be5", "lat": 38.92418816666667, "lon": -77.020077, "rental_uris": {"android": "https://dc.lft.to/lastmile_qr_scan", "ios": "https://dc.lft.to/lastmile_qr_scan"}, "is_disabled": 0, "fusion_lat": 0.0, "name": "087929a1878f8d16c7b098d09cd09be5", "fusion_lon": 0.0}, {"is_reserved": 0, "type": "electric_scooter", "bike_id": "9b8473136460335c0f46f7670cd2e642", "lat": 38.920597666666666, "lon": -76.99216066666666, "rental_uris": {"android": "https://dc.lft.to/lastmile_qr_scan", "ios": "https://dc.lft.to/lastmile_qr_scan"}, "is_disabled": 0, "fusion_lat": 0.0, "name": "9b8473136460335c0f46f7670cd2e642", "fusion_lon": 0.0}, {"is_reserved": 0, "type": "electric_scooter", "bike_id": "c937bffeeb8e71defe2658e39a368abc", "lat": 38.905669833333334, "lon": -77.00707816666667, "rental_uris": {"android": "https://dc.lft.to/lastmile_qr_scan", "ios": "https://dc.lft.to/lastmile_qr_scan"}, "is_disabled": 0, "fusion_lat": 0.0, "name": "c937bffeeb8e71defe2658e39a368abc", "fusion_lon": 0.0}, {"is_reserved": 0, "type": "electric_bike", "bike_id": "4e2a2866abfa75ca25b507986b0b5180", "lat": 38.887891833333335, "lon": -76.92339783333334, "rental_uris": {"android": "https://dc.lft.to/lastmile_qr_scan", "ios": "https://dc.lft.to/lastmile_qr_scan"}, "is_disabled": 0, "fusion_lat": 0.0, "name": "4e2a2866abfa75ca25b507986b0b5180", "fusion_lon": 0.0}, {"is_reserved": 0, "type": "electric_bike", "bike_id": "f56559eb1a9bf62ee7ba1a8d20e95b1c", "lat": 38.92154566666667, "lon": -77.03868183333333, "rental_uris": {"android": "https://dc.lft.to/lastmile_qr_scan", "ios": "https://dc.lft.to/lastmile_qr_scan"}, "is_disabled": 0, "fusion_lat": 0.0, "name": "f56559eb1a9bf62ee7ba1a8d20e95b1c", "fusion_lon": 0.0}, {"is_reserved": 0, "type": "electric_scooter", "bike_id": "f70061b090a1bbdde70c331e7765b6be", "lat": 38.879123166666666, "lon": -76.9846475, "rental_uris": {"android": "https://dc.lft.to/lastmile_qr_scan", "ios": "https://dc.lft.to/lastmile_qr_scan"}, "is_disabled": 0, "fusion_lat": 0.0, "name": "f70061b090a1bbdde70c331e7765b6be", "fusion_lon": 0.0}, {"is_reserved": 0, "type": "electric_scooter", "bike_id": "bff2144ffad6175ff952c869d514ef05", "lat": 38.90853283333333, "lon": -77.03279033333334, "rental_uris": {"android": "https://dc.lft.to/lastmile_qr_scan", "ios": "https://dc.lft.to/lastmile_qr_scan"}, "is_disabled": 0, "fusion_lat": 0.0, "name": "bff2144ffad6175ff952c869d514ef05", "fusion_lon": 0.0}, {"is_reserved": 0, "type": "electric_scooter", "bike_id": "9fb6af934b8de01e9c42052fbf1c351e", "lat": 38.89457566666667, "lon": -77.04336816666667, "rental_uris": {"android": "https://dc.lft.to/lastmile_qr_scan", "ios": "https://dc.lft.to/lastmile_qr_scan"}, "is_disabled": 0, "fusion_lat": 0.0, "name": "9fb6af934b8de01e9c42052fbf1c351e", "fusion_lon": 0.0}, {"is_reserved": 0, "type": "electric_scooter", "bike_id": "f0e2c6801f2fcee58e0f185e188483f7", "lat": 38.88415466666667, "lon": -77.0304625, "rental_uris": {"android": "https://dc.lft.to/lastmile_qr_scan", "ios": "https://dc.lft.to/lastmile_qr_scan"}, "is_disabled": 0, "fusion_lat": 0.0, "name": "f0e2c6801f2fcee58e0f185e188483f7", "fusion_lon": 0.0}, {"is_reserved": 0, "type": "electric_scooter", "bike_id": "df783e7595d364c64b0868f94ccf6d39", "lat": 38.93380916666667, "lon": -77.023964, "rental_uris": {"android": "https://dc.lft.to/lastmile_qr_scan", "ios": "https://dc.lft.to/lastmile_qr_scan"}, "is_disabled": 0, "fusion_lat": 0.0, "name": "df783e7595d364c64b0868f94ccf6d39", "fusion_lon": 0.0}, {"is_reserved": 0, "type": "electric_scooter", "bike_id": "321263875392f53f2ef1f49d24fb063f", "lat": 38.903828833333336, "lon": -77.031527, "rental_uris": {"android": "https://dc.lft.to/lastmile_qr_scan", "ios": "https://dc.lft.to/lastmile_qr_scan"}, "is_disabled": 0, "fusion_lat": 0.0, "name": "321263875392f53f2ef1f49d24fb063f", "fusion_lon": 0.0}, {"is_reserved": 0, "type": "electric_scooter", "bike_id": "a2d856e75904359afd00d12938f9b760", "lat": 38.915771666666664, "lon": -77.01999216666667, "rental_uris": {"android": "https://dc.lft.to/lastmile_qr_scan", "ios": "https://dc.lft.to/lastmile_qr_scan"}, "is_disabled": 0, "fusion_lat": 0.0, "name": "a2d856e75904359afd00d12938f9b760", "fusion_lon": 0.0}, {"is_reserved": 0, "type": "electric_scooter", "bike_id": "27431545185470e0aecb8a8340d6d86a", "lat": 38.9199745, "lon": -77.07113216666667, "rental_uris": {"android": "https://dc.lft.to/lastmile_qr_scan", "ios": "https://dc.lft.to/lastmile_qr_scan"}, "is_disabled": 0, "fusion_lat": 0.0, "name": "27431545185470e0aecb8a8340d6d86a", "fusion_lon": 0.0}, {"is_reserved": 0, "type": "electric_scooter", "bike_id": "ea0271cf5098e02cadf8beb9531da3c2", "lat": 38.9090145, "lon": -77.04329416666667, "rental_uris": {"android": "https://dc.lft.to/lastmile_qr_scan", "ios": "https://dc.lft.to/lastmile_qr_scan"}, "is_disabled": 0, "fusion_lat": 0.0, "name": "ea0271cf5098e02cadf8beb9531da3c2", "fusion_lon": 0.0}, {"is_reserved": 0, "type": "electric_scooter", "bike_id": "475f2f8d428cb9e23c53ec7d9d7bb3ba", "lat": 38.917031, "lon": -77.03596166666667, "rental_uris": {"android": "https://dc.lft.to/lastmile_qr_scan", "ios": "https://dc.lft.to/lastmile_qr_scan"}, "is_disabled": 0, "fusion_lat": 0.0, "name": "475f2f8d428cb9e23c53ec7d9d7bb3ba", "fusion_lon": 0.0}, {"is_reserved": 0, "type": "electric_scooter", "bike_id": "732ad3523f55528727a105a5ebae68c6", "lat": 38.90129783333333, "lon": -77.050046, "rental_uris": {"android": "https://dc.lft.to/lastmile_qr_scan", "ios": "https://dc.lft.to/lastmile_qr_scan"}, "is_disabled": 0, "fusion_lat": 0.0, "name": "732ad3523f55528727a105a5ebae68c6", "fusion_lon": 0.0}, {"is_reserved": 0, "type": "electric_scooter", "bike_id": "60fe1462f262650b28d519724f0b82ca", "lat": 38.9182575, "lon": -77.02598916666666, "rental_uris": {"android": "https://dc.lft.to/lastmile_qr_scan", "ios": "https://dc.lft.to/lastmile_qr_scan"}, "is_disabled": 0, "fusion_lat": 0.0, "name": "60fe1462f262650b28d519724f0b82ca", "fusion_lon": 0.0}, {"is_reserved": 0, "type": "electric_scooter", "bike_id": "60bee4b4f629dc515829e0bc7e81ecd6", "lat": 38.934553666666666, "lon": -77.02093883333333, "rental_uris": {"android": "https://dc.lft.to/lastmile_qr_scan", "ios": "https://dc.lft.to/lastmile_qr_scan"}, "is_disabled": 0, "fusion_lat": 0.0, "name": "60bee4b4f629dc515829e0bc7e81ecd6", "fusion_lon": 0.0}, {"is_reserved": 0, "type": "electric_bike", "bike_id": "f70b98a856901378e9b5cb17d1ada3ac", "lat": 38.830481, "lon": -77.01251233333333, "rental_uris": {"android": "https://dc.lft.to/lastmile_qr_scan", "ios": "https://dc.lft.to/lastmile_qr_scan"}, "is_disabled": 0, "fusion_lat": 0.0, "name": "f70b98a856901378e9b5cb17d1ada3ac", "fusion_lon": 0.0}, {"is_reserved": 0, "type": "electric_scooter", "bike_id": "7f1660b4ddae7046e22de4071926dfcc", "lat": 38.889944166666666, "lon": -76.9929405, "rental_uris": {"android": "https://dc.lft.to/lastmile_qr_scan", "ios": "https://dc.lft.to/lastmile_qr_scan"}, "is_disabled": 0, "fusion_lat": 0.0, "name": "7f1660b4ddae7046e22de4071926dfcc", "fusion_lon": 0.0}, {"is_reserved": 0, "type": "electric_scooter", "bike_id": "f6d9bc2ccf3eee2100714e34cc12d52e", "lat": 38.92327183333333, "lon": -77.037997, "rental_uris": {"android": "https://dc.lft.to/lastmile_qr_scan", "ios": "https://dc.lft.to/lastmile_qr_scan"}, "is_disabled": 0, "fusion_lat": 0.0, "name": "f6d9bc2ccf3eee2100714e34cc12d52e", "fusion_lon": 0.0}, {"is_reserved": 0, "type": "electric_scooter", "bike_id": "70a949102556d715163d50f5ae2f03f4", "lat": 38.9177445, "lon": -77.02319216666666, "rental_uris": {"android": "https://dc.lft.to/lastmile_qr_scan", "ios": "https://dc.lft.to/lastmile_qr_scan"}, "is_disabled": 0, "fusion_lat": 0.0, "name": "70a949102556d715163d50f5ae2f03f4", "fusion_lon": 0.0}, {"is_reserved": 0, "type": "electric_scooter", "bike_id": "3c9b1f26be54889490f1f2845b250a65", "lat": 38.900340166666666, "lon": -76.996315, "rental_uris": {"android": "https://dc.lft.to/lastmile_qr_scan", "ios": "https://dc.lft.to/lastmile_qr_scan"}, "is_disabled": 0, "fusion_lat": 0.0, "name": "3c9b1f26be54889490f1f2845b250a65", "fusion_lon": 0.0}, {"is_reserved": 0, "type": "electric_scooter", "bike_id": "0267545608f5f23c7bfb66dff697d6eb", "lat": 38.88276883333333, "lon": -76.99491283333333, "rental_uris": {"android": "https://dc.lft.to/lastmile_qr_scan", "ios": "https://dc.lft.to/lastmile_qr_scan"}, "is_disabled": 0, "fusion_lat": 0.0, "name": "0267545608f5f23c7bfb66dff697d6eb", "fusion_lon": 0.0}, {"is_reserved": 0, "type": "electric_scooter", "bike_id": "dfa1381531019364bc62a1011e9e8c78", "lat": 38.91266616666667, "lon": -77.03871116666667, "rental_uris": {"android": "https://dc.lft.to/lastmile_qr_scan", "ios": "https://dc.lft.to/lastmile_qr_scan"}, "is_disabled": 0, "fusion_lat": 0.0, "name": "dfa1381531019364bc62a1011e9e8c78", "fusion_lon": 0.0}, {"is_reserved": 0, "type": "electric_bike", "bike_id": "2e5bb28199b48d3b8d02ce18a0c340dc", "lat": 39.08435383333333, "lon": -76.951447, "rental_uris": {"android": "https://dc.lft.to/lastmile_qr_scan", "ios": "https://dc.lft.to/lastmile_qr_scan"}, "is_disabled": 0, "fusion_lat": 0.0, "name": "2e5bb28199b48d3b8d02ce18a0c340dc", "fusion_lon": 0.0}, {"is_reserved": 0, "type": "electric_bike", "bike_id": "702cf1cff6edba605e05639bd1dd9481", "lat": 38.945408, "lon": -77.34450866666667, "rental_uris": {"android": "https://dc.lft.to/lastmile_qr_scan", "ios": "https://dc.lft.to/lastmile_qr_scan"}, "is_disabled": 0, "fusion_lat": 0.0, "name": "702cf1cff6edba605e05639bd1dd9481", "fusion_lon": 0.0}, {"is_reserved": 0, "type": "electric_scooter", "bike_id": "a9956d2f366260c73925cf5658588797", "lat": 38.9111225, "lon": -77.038304, "rental_uris": {"android": "https://dc.lft.to/lastmile_qr_scan", "ios": "https://dc.lft.to/lastmile_qr_scan"}, "is_disabled": 0, "fusion_lat": 0.0, "name": "a9956d2f366260c73925cf5658588797", "fusion_lon": 0.0}, {"is_reserved": 0, "type": "electric_scooter", "bike_id": "c56cebdc53aa0d0c7a97941420ffa9c4", "lat": 38.900300333333334, "lon": -76.98767683333334, "rental_uris": {"android": "https://dc.lft.to/lastmile_qr_scan", "ios": "https://dc.lft.to/lastmile_qr_scan"}, "is_disabled": 0, "fusion_lat": 0.0, "name": "c56cebdc53aa0d0c7a97941420ffa9c4", "fusion_lon": 0.0}, {"is_reserved": 0, "type": "electric_scooter", "bike_id": "7c33b663bdb0938a155a47cdfd227fa6", "lat": 38.865935, "lon": -76.974482, "rental_uris": {"android": "https://dc.lft.to/lastmile_qr_scan", "ios": "https://dc.lft.to/lastmile_qr_scan"}, "is_disabled": 0, "fusion_lat": 0.0, "name": "7c33b663bdb0938a155a47cdfd227fa6", "fusion_lon": 0.0}, {"is_reserved": 0, "type": "electric_scooter", "bike_id": "12f4bab7c3dbf21e3bfe32fcde0dc5cb", "lat": 38.919389833333334, "lon": -77.018801, "rental_uris": {"android": "https://dc.lft.to/lastmile_qr_scan", "ios": "https://dc.lft.to/lastmile_qr_scan"}, "is_disabled": 0, "fusion_lat": 0.0, "name": "12f4bab7c3dbf21e3bfe32fcde0dc5cb", "fusion_lon": 0.0}, {"is_reserved": 0, "type": "electric_scooter", "bike_id": "c731c2e72cb9564d40f18a6305d63d38", "lat": 38.86721283333333, "lon": -76.98070783333333, "rental_uris": {"android": "https://dc.lft.to/lastmile_qr_scan", "ios": "https://dc.lft.to/lastmile_qr_scan"}, "is_disabled": 0, "fusion_lat": 0.0, "name": "c731c2e72cb9564d40f18a6305d63d38", "fusion_lon": 0.0}, {"is_reserved": 0, "type": "electric_scooter", "bike_id": "52d23977279c88871c692ea7972ceb0b", "lat": 38.91111866666667, "lon": -77.02078383333334, "rental_uris": {"android": "https://dc.lft.to/lastmile_qr_scan", "ios": "https://dc.lft.to/lastmile_qr_scan"}, "is_disabled": 0, "fusion_lat": 0.0, "name": "52d23977279c88871c692ea7972ceb0b", "fusion_lon": 0.0}, {"is_reserved": 0, "type": "electric_scooter", "bike_id": "a738696aa880dd22b9ba661fdc557167", "lat": 38.89771966666667, "lon": -77.02689816666667, "rental_uris": {"android": "https://dc.lft.to/lastmile_qr_scan", "ios": "https://dc.lft.to/lastmile_qr_scan"}, "is_disabled": 0, "fusion_lat": 0.0, "name": "a738696aa880dd22b9ba661fdc557167", "fusion_lon": 0.0}, {"is_reserved": 0, "type": "electric_scooter", "bike_id": "7d4a4f00023811505fb811a0e039a342", "lat": 38.892195, "lon": -77.023089, "rental_uris": {"android": "https://dc.lft.to/lastmile_qr_scan", "ios": "https://dc.lft.to/lastmile_qr_scan"}, "is_disabled": 0, "fusion_lat": 0.0, "name": "7d4a4f00023811505fb811a0e039a342", "fusion_lon": 0.0}, {"is_reserved": 0, "type": "electric_scooter", "bike_id": "a5db85385c8911f706b4f2bc5c46f4ff", "lat": 38.9064995, "lon": -77.0178945, "rental_uris": {"android": "https://dc.lft.to/lastmile_qr_scan", "ios": "https://dc.lft.to/lastmile_qr_scan"}, "is_disabled": 0, "fusion_lat": 0.0, "name": "a5db85385c8911f706b4f2bc5c46f4ff", "fusion_lon": 0.0}, {"is_reserved": 0, "type": "electric_scooter", "bike_id": "aa20a29573b0d796df3907664e112f55", "lat": 38.898135333333336, "lon": -76.99688016666667, "rental_uris": {"android": "https://dc.lft.to/lastmile_qr_scan", "ios": "https://dc.lft.to/lastmile_qr_scan"}, "is_disabled": 0, "fusion_lat": 0.0, "name": "aa20a29573b0d796df3907664e112f55", "fusion_lon": 0.0}, {"is_reserved": 0, "type": "electric_scooter", "bike_id": "a02f6ea69ceafcac8e632c26c07239b8", "lat": 38.919622, "lon": -77.04362833333333, "rental_uris": {"android": "https://dc.lft.to/lastmile_qr_scan", "ios": "https://dc.lft.to/lastmile_qr_scan"}, "is_disabled": 0, "fusion_lat": 0.0, "name": "a02f6ea69ceafcac8e632c26c07239b8", "fusion_lon": 0.0}, {"is_reserved": 0, "type": "electric_scooter", "bike_id": "4b2424fb17adffd9a50782747461ad3b", "lat": 38.887666, "lon": -76.98324333333333, "rental_uris": {"android": "https://dc.lft.to/lastmile_qr_scan", "ios": "https://dc.lft.to/lastmile_qr_scan"}, "is_disabled": 0, "fusion_lat": 0.0, "name": "4b2424fb17adffd9a50782747461ad3b", "fusion_lon": 0.0}, {"is_reserved": 0, "type": "electric_bike", "bike_id": "1832076bff67e51f4e4619faa63b2848", "lat": 38.89592483333333, "lon": -76.90692, "rental_uris": {"android": "https://dc.lft.to/lastmile_qr_scan", "ios": "https://dc.lft.to/lastmile_qr_scan"}, "is_disabled": 0, "fusion_lat": 0.0, "name": "1832076bff67e51f4e4619faa63b2848", "fusion_lon": 0.0}, {"is_reserved": 0, "type": "electric_scooter", "bike_id": "320feadf905ddd4769c5ad796ef46ed9", "lat": 38.9010145, "lon": -77.0375895, "rental_uris": {"android": "https://dc.lft.to/lastmile_qr_scan", "ios": "https://dc.lft.to/lastmile_qr_scan"}, "is_disabled": 0, "fusion_lat": 0.0, "name": "320feadf905ddd4769c5ad796ef46ed9", "fusion_lon": 0.0}, {"is_reserved": 0, "type": "electric_scooter", "bike_id": "64b35dc1e89ee978ebd5c81cc2af6ac5", "lat": 38.9171095, "lon": -77.02400183333333, "rental_uris": {"android": "https://dc.lft.to/lastmile_qr_scan", "ios": "https://dc.lft.to/lastmile_qr_scan"}, "is_disabled": 0, "fusion_lat": 0.0, "name": "64b35dc1e89ee978ebd5c81cc2af6ac5", "fusion_lon": 0.0}, {"is_reserved": 0, "type": "electric_scooter", "bike_id": "7e5b6d564442444b894f3a8d5efb1eba", "lat": 38.90630633333333, "lon": -77.03150583333333, "rental_uris": {"android": "https://dc.lft.to/lastmile_qr_scan", "ios": "https://dc.lft.to/lastmile_qr_scan"}, "is_disabled": 0, "fusion_lat": 0.0, "name": "7e5b6d564442444b894f3a8d5efb1eba", "fusion_lon": 0.0}, {"is_reserved": 0, "type": "electric_scooter", "bike_id": "6fc8a61494d06c607eb2c737cb8552bf", "lat": 38.9359195, "lon": -77.0337065, "rental_uris": {"android": "https://dc.lft.to/lastmile_qr_scan", "ios": "https://dc.lft.to/lastmile_qr_scan"}, "is_disabled": 0, "fusion_lat": 0.0, "name": "6fc8a61494d06c607eb2c737cb8552bf", "fusion_lon": 0.0}, {"is_reserved": 0, "type": "electric_bike", "bike_id": "ffbba9418638ab0c15e0f81ff7270a8a", "lat": 38.97321983333333, "lon": -76.99470116666667, "rental_uris": {"android": "https://dc.lft.to/lastmile_qr_scan", "ios": "https://dc.lft.to/lastmile_qr_scan"}, "is_disabled": 0, "fusion_lat": 0.0, "name": "ffbba9418638ab0c15e0f81ff7270a8a", "fusion_lon": 0.0}, {"is_reserved": 0, "type": "electric_scooter", "bike_id": "4d934e383aceb357328f7403d8ecc4a8", "lat": 38.9180015, "lon": -77.03216633333334, "rental_uris": {"android": "https://dc.lft.to/lastmile_qr_scan", "ios": "https://dc.lft.to/lastmile_qr_scan"}, "is_disabled": 0, "fusion_lat": 0.0, "name": "4d934e383aceb357328f7403d8ecc4a8", "fusion_lon": 0.0}, {"is_reserved": 0, "type": "electric_scooter", "bike_id": "410d7ecbb433f95661dde4108b91a9d6", "lat": 38.915494833333334, "lon": -77.03253516666666, "rental_uris": {"android": "https://dc.lft.to/lastmile_qr_scan", "ios": "https://dc.lft.to/lastmile_qr_scan"}, "is_disabled": 0, "fusion_lat": 0.0, "name": "410d7ecbb433f95661dde4108b91a9d6", "fusion_lon": 0.0}, {"is_reserved": 0, "type": "electric_scooter", "bike_id": "6c5113ca9692a0a018602b8de6940612", "lat": 38.875660333333336, "lon": -77.00602333333333, "rental_uris": {"android": "https://dc.lft.to/lastmile_qr_scan", "ios": "https://dc.lft.to/lastmile_qr_scan"}, "is_disabled": 0, "fusion_lat": 0.0, "name": "6c5113ca9692a0a018602b8de6940612", "fusion_lon": 0.0}, {"is_reserved": 0, "type": "electric_scooter", "bike_id": "9323692efdde640b1ad03316ce6d4620", "lat": 38.899883, "lon": -76.9949245, "rental_uris": {"android": "https://dc.lft.to/lastmile_qr_scan", "ios": "https://dc.lft.to/lastmile_qr_scan"}, "is_disabled": 0, "fusion_lat": 0.0, "name": "9323692efdde640b1ad03316ce6d4620", "fusion_lon": 0.0}, {"is_reserved": 0, "type": "electric_scooter", "bike_id": "34f8a02c5cb9a9d2fbc75856c6e6d212", "lat": 38.91265416666667, "lon": -77.038735, "rental_uris": {"android": "https://dc.lft.to/lastmile_qr_scan", "ios": "https://dc.lft.to/lastmile_qr_scan"}, "is_disabled": 0, "fusion_lat": 0.0, "name": "34f8a02c5cb9a9d2fbc75856c6e6d212", "fusion_lon": 0.0}, {"is_reserved": 0, "type": "electric_scooter", "bike_id": "7f50df5909a29954d68b32a22a2f6833", "lat": 38.903041, "lon": -76.97654483333334, "rental_uris": {"android": "https://dc.lft.to/lastmile_qr_scan", "ios": "https://dc.lft.to/lastmile_qr_scan"}, "is_disabled": 0, "fusion_lat": 0.0, "name": "7f50df5909a29954d68b32a22a2f6833", "fusion_lon": 0.0}, {"is_reserved": 0, "type": "electric_scooter", "bike_id": "fcdfb0a3f6b955802a76cda5b0585e53", "lat": 38.917019333333336, "lon": -77.03152083333333, "rental_uris": {"android": "https://dc.lft.to/lastmile_qr_scan", "ios": "https://dc.lft.to/lastmile_qr_scan"}, "is_disabled": 0, "fusion_lat": 0.0, "name": "fcdfb0a3f6b955802a76cda5b0585e53", "fusion_lon": 0.0}, {"is_reserved": 0, "type": "electric_scooter", "bike_id": "73fd9252e4813dd449d61a51e249ea02", "lat": 38.92241, "lon": -77.0233445, "rental_uris": {"android": "https://dc.lft.to/lastmile_qr_scan", "ios": "https://dc.lft.to/lastmile_qr_scan"}, "is_disabled": 0, "fusion_lat": 0.0, "name": "73fd9252e4813dd449d61a51e249ea02", "fusion_lon": 0.0}, {"is_reserved": 0, "type": "electric_scooter", "bike_id": "31ee874883fbe4114b078a678dd87bcc", "lat": 38.911456, "lon": -77.01889316666667, "rental_uris": {"android": "https://dc.lft.to/lastmile_qr_scan", "ios": "https://dc.lft.to/lastmile_qr_scan"}, "is_disabled": 0, "fusion_lat": 0.0, "name": "31ee874883fbe4114b078a678dd87bcc", "fusion_lon": 0.0}, {"is_reserved": 0, "type": "electric_scooter", "bike_id": "1e81b6ba9ce2d1aee7d3488734d9050c", "lat": 38.876705333333334, "lon": -77.00734966666667, "rental_uris": {"android": "https://dc.lft.to/lastmile_qr_scan", "ios": "https://dc.lft.to/lastmile_qr_scan"}, "is_disabled": 0, "fusion_lat": 0.0, "name": "1e81b6ba9ce2d1aee7d3488734d9050c", "fusion_lon": 0.0}, {"is_reserved": 0, "type": "electric_scooter", "bike_id": "5a2933aacdb5288332ce761477f5d44e", "lat": 38.9003045, "lon": -76.98860566666667, "rental_uris": {"android": "https://dc.lft.to/lastmile_qr_scan", "ios": "https://dc.lft.to/lastmile_qr_scan"}, "is_disabled": 0, "fusion_lat": 0.0, "name": "5a2933aacdb5288332ce761477f5d44e", "fusion_lon": 0.0}, {"is_reserved": 0, "type": "electric_scooter", "bike_id": "0b9a867f192f4e9a2a732467e8ebb388", "lat": 38.90852266666667, "lon": -77.02066416666666, "rental_uris": {"android": "https://dc.lft.to/lastmile_qr_scan", "ios": "https://dc.lft.to/lastmile_qr_scan"}, "is_disabled": 0, "fusion_lat": 0.0, "name": "0b9a867f192f4e9a2a732467e8ebb388", "fusion_lon": 0.0}, {"is_reserved": 0, "type": "electric_scooter", "bike_id": "429f7cb6daf986e40c6ff39dc820cc7f", "lat": 38.89753283333334, "lon": -77.02510166666667, "rental_uris": {"android": "https://dc.lft.to/lastmile_qr_scan", "ios": "https://dc.lft.to/lastmile_qr_scan"}, "is_disabled": 0, "fusion_lat": 0.0, "name": "429f7cb6daf986e40c6ff39dc820cc7f", "fusion_lon": 0.0}, {"is_reserved": 0, "type": "electric_scooter", "bike_id": "b7a8f746e3c7656ac531c552a1ec51f7", "lat": 38.87919516666667, "lon": -77.00242116666666, "rental_uris": {"android": "https://dc.lft.to/lastmile_qr_scan", "ios": "https://dc.lft.to/lastmile_qr_scan"}, "is_disabled": 0, "fusion_lat": 0.0, "name": "b7a8f746e3c7656ac531c552a1ec51f7", "fusion_lon": 0.0}, {"is_reserved": 0, "type": "electric_scooter", "bike_id": "49ce47cfe581371945b8dfaf679f7811", "lat": 38.9169445, "lon": -77.00357516666666, "rental_uris": {"android": "https://dc.lft.to/lastmile_qr_scan", "ios": "https://dc.lft.to/lastmile_qr_scan"}, "is_disabled": 0, "fusion_lat": 0.0, "name": "49ce47cfe581371945b8dfaf679f7811", "fusion_lon": 0.0}, {"is_reserved": 0, "type": "electric_scooter", "bike_id": "5556efad8c4b426a7a281707ec3a09b8", "lat": 38.91548816666667, "lon": -77.01417416666666, "rental_uris": {"android": "https://dc.lft.to/lastmile_qr_scan", "ios": "https://dc.lft.to/lastmile_qr_scan"}, "is_disabled": 0, "fusion_lat": 0.0, "name": "5556efad8c4b426a7a281707ec3a09b8", "fusion_lon": 0.0}, {"is_reserved": 0, "type": "electric_bike", "bike_id": "e854a36fd70ed2caa1000f8ebdaf7528", "lat": 39.038169333333336, "lon": -77.04255, "rental_uris": {"android": "https://dc.lft.to/lastmile_qr_scan", "ios": "https://dc.lft.to/lastmile_qr_scan"}, "is_disabled": 0, "fusion_lat": 0.0, "name": "e854a36fd70ed2caa1000f8ebdaf7528", "fusion_lon": 0.0}, {"is_reserved": 0, "type": "electric_scooter", "bike_id": "09449185279a34266b701de26e361ae4", "lat": 38.906803833333335, "lon": -77.0626205, "rental_uris": {"android": "https://dc.lft.to/lastmile_qr_scan", "ios": "https://dc.lft.to/lastmile_qr_scan"}, "is_disabled": 0, "fusion_lat": 0.0, "name": "09449185279a34266b701de26e361ae4", "fusion_lon": 0.0}, {"is_reserved": 0, "type": "electric_scooter", "bike_id": "a798a4a68b16d94e6ac9e7bf71053275", "lat": 38.905724, "lon": -77.00674983333333, "rental_uris": {"android": "https://dc.lft.to/lastmile_qr_scan", "ios": "https://dc.lft.to/lastmile_qr_scan"}, "is_disabled": 0, "fusion_lat": 0.0, "name": "a798a4a68b16d94e6ac9e7bf71053275", "fusion_lon": 0.0}, {"is_reserved": 0, "type": "electric_scooter", "bike_id": "785caaefc9c1e272775f0f68b9f2c8d0", "lat": 38.92695833333333, "lon": -77.02074633333334, "rental_uris": {"android": "https://dc.lft.to/lastmile_qr_scan", "ios": "https://dc.lft.to/lastmile_qr_scan"}, "is_disabled": 0, "fusion_lat": 0.0, "name": "785caaefc9c1e272775f0f68b9f2c8d0", "fusion_lon": 0.0}, {"is_reserved": 0, "type": "electric_scooter", "bike_id": "c28fe1e58b9bab77d084bc10cb24a711", "lat": 38.926763, "lon": -77.00738716666666, "rental_uris": {"android": "https://dc.lft.to/lastmile_qr_scan", "ios": "https://dc.lft.to/lastmile_qr_scan"}, "is_disabled": 0, "fusion_lat": 0.0, "name": "c28fe1e58b9bab77d084bc10cb24a711", "fusion_lon": 0.0}, {"is_reserved": 0, "type": "electric_scooter", "bike_id": "268239774fbac4e3216f56ac53659205", "lat": 38.92238866666667, "lon": -77.0351815, "rental_uris": {"android": "https://dc.lft.to/lastmile_qr_scan", "ios": "https://dc.lft.to/lastmile_qr_scan"}, "is_disabled": 0, "fusion_lat": 0.0, "name": "268239774fbac4e3216f56ac53659205", "fusion_lon": 0.0}, {"is_reserved": 0, "type": "electric_scooter", "bike_id": "f45a3db3e9b6f34ec8ec3e033b2586c9", "lat": 38.899588666666666, "lon": -77.03923633333333, "rental_uris": {"android": "https://dc.lft.to/lastmile_qr_scan", "ios": "https://dc.lft.to/lastmile_qr_scan"}, "is_disabled": 0, "fusion_lat": 0.0, "name": "f45a3db3e9b6f34ec8ec3e033b2586c9", "fusion_lon": 0.0}, {"is_reserved": 0, "type": "electric_scooter", "bike_id": "25242c3a619c1a224b87daf8e52db6c0", "lat": 38.897325333333335, "lon": -77.04992583333333, "rental_uris": {"android": "https://dc.lft.to/lastmile_qr_scan", "ios": "https://dc.lft.to/lastmile_qr_scan"}, "is_disabled": 0, "fusion_lat": 0.0, "name": "25242c3a619c1a224b87daf8e52db6c0", "fusion_lon": 0.0}, {"is_reserved": 0, "type": "electric_scooter", "bike_id": "12718538a3f36f3fde146b527c64c86e", "lat": 38.895483166666665, "lon": -76.98335766666666, "rental_uris": {"android": "https://dc.lft.to/lastmile_qr_scan", "ios": "https://dc.lft.to/lastmile_qr_scan"}, "is_disabled": 0, "fusion_lat": 0.0, "name": "12718538a3f36f3fde146b527c64c86e", "fusion_lon": 0.0}, {"is_reserved": 0, "type": "electric_bike", "bike_id": "60fe32e4f03742b8cf6bc1f3f1d0094a", "lat": 38.9072505, "lon": -77.00356916666667, "rental_uris": {"android": "https://dc.lft.to/lastmile_qr_scan", "ios": "https://dc.lft.to/lastmile_qr_scan"}, "is_disabled": 0, "fusion_lat": 0.0, "name": "60fe32e4f03742b8cf6bc1f3f1d0094a", "fusion_lon": 0.0}, {"is_reserved": 0, "type": "electric_scooter", "bike_id": "9bf180b2ab2bba40c05d7162f190c909", "lat": 38.94014266666667, "lon": -77.019, "rental_uris": {"android": "https://dc.lft.to/lastmile_qr_scan", "ios": "https://dc.lft.to/lastmile_qr_scan"}, "is_disabled": 0, "fusion_lat": 0.0, "name": "9bf180b2ab2bba40c05d7162f190c909", "fusion_lon": 0.0}, {"is_reserved": 0, "type": "electric_scooter", "bike_id": "f550e00fc6a4ac1432be1d84ef3b5ebc", "lat": 38.925503166666665, "lon": -77.04332516666666, "rental_uris": {"android": "https://dc.lft.to/lastmile_qr_scan", "ios": "https://dc.lft.to/lastmile_qr_scan"}, "is_disabled": 0, "fusion_lat": 0.0, "name": "f550e00fc6a4ac1432be1d84ef3b5ebc", "fusion_lon": 0.0}, {"is_reserved": 0, "type": "electric_scooter", "bike_id": "62752402d0509ced19dda76107b182b7", "lat": 38.9215105, "lon": -77.0448845, "rental_uris": {"android": "https://dc.lft.to/lastmile_qr_scan", "ios": "https://dc.lft.to/lastmile_qr_scan"}, "is_disabled": 0, "fusion_lat": 0.0, "name": "62752402d0509ced19dda76107b182b7", "fusion_lon": 0.0}, {"is_reserved": 0, "type": "electric_scooter", "bike_id": "d231edd551e8c14fea7a391bfa79002f", "lat": 38.887754666666666, "lon": -76.93263483333334, "rental_uris": {"android": "https://dc.lft.to/lastmile_qr_scan", "ios": "https://dc.lft.to/lastmile_qr_scan"}, "is_disabled": 0, "fusion_lat": 0.0, "name": "d231edd551e8c14fea7a391bfa79002f", "fusion_lon": 0.0}, {"is_reserved": 0, "type": "electric_scooter", "bike_id": "f12cc6c51d025b71516fcbbbaf4ca043", "lat": 38.881215166666664, "lon": -77.01980366666666, "rental_uris": {"android": "https://dc.lft.to/lastmile_qr_scan", "ios": "https://dc.lft.to/lastmile_qr_scan"}, "is_disabled": 0, "fusion_lat": 0.0, "name": "f12cc6c51d025b71516fcbbbaf4ca043", "fusion_lon": 0.0}, {"is_reserved": 0, "type": "electric_scooter", "bike_id": "99fd88f09dc05468bdf80016455e1ed1", "lat": 38.905653666666666, "lon": -77.01854933333334, "rental_uris": {"android": "https://dc.lft.to/lastmile_qr_scan", "ios": "https://dc.lft.to/lastmile_qr_scan"}, "is_disabled": 0, "fusion_lat": 0.0, "name": "99fd88f09dc05468bdf80016455e1ed1", "fusion_lon": 0.0}, {"is_reserved": 0, "type": "electric_bike", "bike_id": "2424acb26d79b48819df2209391043aa", "lat": 38.86759, "lon": -76.94535416666666, "rental_uris": {"android": "https://dc.lft.to/lastmile_qr_scan", "ios": "https://dc.lft.to/lastmile_qr_scan"}, "is_disabled": 0, "fusion_lat": 0.0, "name": "2424acb26d79b48819df2209391043aa", "fusion_lon": 0.0}, {"is_reserved": 0, "type": "electric_scooter", "bike_id": "05e612e9038d226163aea8e79bcce895", "lat": 38.89224516666667, "lon": -77.02421683333333, "rental_uris": {"android": "https://dc.lft.to/lastmile_qr_scan", "ios": "https://dc.lft.to/lastmile_qr_scan"}, "is_disabled": 0, "fusion_lat": 0.0, "name": "05e612e9038d226163aea8e79bcce895", "fusion_lon": 0.0}, {"is_reserved": 0, "type": "electric_scooter", "bike_id": "ad6c574c1f39249eeb493e346bed5176", "lat": 38.90608066666667, "lon": -77.05699883333334, "rental_uris": {"android": "https://dc.lft.to/lastmile_qr_scan", "ios": "https://dc.lft.to/lastmile_qr_scan"}, "is_disabled": 0, "fusion_lat": 0.0, "name": "ad6c574c1f39249eeb493e346bed5176", "fusion_lon": 0.0}, {"is_reserved": 0, "type": "electric_scooter", "bike_id": "6031104167cf396d1aa6e5577cf2773e", "lat": 38.9151085, "lon": -77.003453, "rental_uris": {"android": "https://dc.lft.to/lastmile_qr_scan", "ios": "https://dc.lft.to/lastmile_qr_scan"}, "is_disabled": 0, "fusion_lat": 0.0, "name": "6031104167cf396d1aa6e5577cf2773e", "fusion_lon": 0.0}, {"is_reserved": 0, "type": "electric_scooter", "bike_id": "36150f4877e783a9cf0acea1e790ab83", "lat": 38.927043, "lon": -77.02299166666667, "rental_uris": {"android": "https://dc.lft.to/lastmile_qr_scan", "ios": "https://dc.lft.to/lastmile_qr_scan"}, "is_disabled": 0, "fusion_lat": 0.0, "name": "36150f4877e783a9cf0acea1e790ab83", "fusion_lon": 0.0}, {"is_reserved": 0, "type": "electric_scooter", "bike_id": "e9165f99d8fa1436d074182d8dd17df5", "lat": 38.8996505, "lon": -77.02622283333334, "rental_uris": {"android": "https://dc.lft.to/lastmile_qr_scan", "ios": "https://dc.lft.to/lastmile_qr_scan"}, "is_disabled": 0, "fusion_lat": 0.0, "name": "e9165f99d8fa1436d074182d8dd17df5", "fusion_lon": 0.0}, {"is_reserved": 0, "type": "electric_scooter", "bike_id": "be187e9fdbd3f9240e857ae7f8f399a2", "lat": 38.920755166666666, "lon": -77.02212866666666, "rental_uris": {"android": "https://dc.lft.to/lastmile_qr_scan", "ios": "https://dc.lft.to/lastmile_qr_scan"}, "is_disabled": 0, "fusion_lat": 0.0, "name": "be187e9fdbd3f9240e857ae7f8f399a2", "fusion_lon": 0.0}, {"is_reserved": 0, "type": "electric_scooter", "bike_id": "460efd5b27747815cf17b2379f574504", "lat": 38.9180745, "lon": -77.02490066666667, "rental_uris": {"android": "https://dc.lft.to/lastmile_qr_scan", "ios": "https://dc.lft.to/lastmile_qr_scan"}, "is_disabled": 0, "fusion_lat": 0.0, "name": "460efd5b27747815cf17b2379f574504", "fusion_lon": 0.0}, {"is_reserved": 0, "type": "electric_bike", "bike_id": "7bb6ff518d7893a8b110d369ca6b3027", "lat": 38.91859216666667, "lon": -76.9608625, "rental_uris": {"android": "https://dc.lft.to/lastmile_qr_scan", "ios": "https://dc.lft.to/lastmile_qr_scan"}, "is_disabled": 0, "fusion_lat": 0.0, "name": "7bb6ff518d7893a8b110d369ca6b3027", "fusion_lon": 0.0}, {"is_reserved": 0, "type": "electric_scooter", "bike_id": "ecbe8defde63090a2a052b3a50603d71", "lat": 38.895989166666666, "lon": -76.9298585, "rental_uris": {"android": "https://dc.lft.to/lastmile_qr_scan", "ios": "https://dc.lft.to/lastmile_qr_scan"}, "is_disabled": 0, "fusion_lat": 0.0, "name": "ecbe8defde63090a2a052b3a50603d71", "fusion_lon": 0.0}, {"is_reserved": 0, "type": "electric_scooter", "bike_id": "f1690e460f1db104e3d41645fc6e4d45", "lat": 38.919776, "lon": -77.04162666666667, "rental_uris": {"android": "https://dc.lft.to/lastmile_qr_scan", "ios": "https://dc.lft.to/lastmile_qr_scan"}, "is_disabled": 0, "fusion_lat": 0.0, "name": "f1690e460f1db104e3d41645fc6e4d45", "fusion_lon": 0.0}, {"is_reserved": 0, "type": "electric_scooter", "bike_id": "4c95a8f6eebc1aeca76c14dceffd3591", "lat": 38.92452266666667, "lon": -77.02125516666666, "rental_uris": {"android": "https://dc.lft.to/lastmile_qr_scan", "ios": "https://dc.lft.to/lastmile_qr_scan"}, "is_disabled": 0, "fusion_lat": 0.0, "name": "4c95a8f6eebc1aeca76c14dceffd3591", "fusion_lon": 0.0}, {"is_reserved": 0, "type": "electric_scooter", "bike_id": "dd5e16b38e268d48618d9bd913525265", "lat": 38.9111745, "lon": -77.03827683333333, "rental_uris": {"android": "https://dc.lft.to/lastmile_qr_scan", "ios": "https://dc.lft.to/lastmile_qr_scan"}, "is_disabled": 0, "fusion_lat": 0.0, "name": "dd5e16b38e268d48618d9bd913525265", "fusion_lon": 0.0}, {"is_reserved": 0, "type": "electric_scooter", "bike_id": "d5bcee957898553e6708b36dd51fb2d2", "lat": 38.924391666666665, "lon": -77.0203115, "rental_uris": {"android": "https://dc.lft.to/lastmile_qr_scan", "ios": "https://dc.lft.to/lastmile_qr_scan"}, "is_disabled": 0, "fusion_lat": 0.0, "name": "d5bcee957898553e6708b36dd51fb2d2", "fusion_lon": 0.0}, {"is_reserved": 0, "type": "electric_scooter", "bike_id": "bf4bdff06fb72c1569dae96752442e2f", "lat": 38.90105333333333, "lon": -77.03660716666667, "rental_uris": {"android": "https://dc.lft.to/lastmile_qr_scan", "ios": "https://dc.lft.to/lastmile_qr_scan"}, "is_disabled": 0, "fusion_lat": 0.0, "name": "bf4bdff06fb72c1569dae96752442e2f", "fusion_lon": 0.0}, {"is_reserved": 0, "type": "electric_scooter", "bike_id": "372bf4e28cccc72904669adb9ba20f70", "lat": 38.95629666666667, "lon": -77.03560566666667, "rental_uris": {"android": "https://dc.lft.to/lastmile_qr_scan", "ios": "https://dc.lft.to/lastmile_qr_scan"}, "is_disabled": 0, "fusion_lat": 0.0, "name": "372bf4e28cccc72904669adb9ba20f70", "fusion_lon": 0.0}, {"is_reserved": 0, "type": "electric_scooter", "bike_id": "612e575bba94770f969fef96e69719b8", "lat": 38.922567, "lon": -77.0420115, "rental_uris": {"android": "https://dc.lft.to/lastmile_qr_scan", "ios": "https://dc.lft.to/lastmile_qr_scan"}, "is_disabled": 0, "fusion_lat": 0.0, "name": "612e575bba94770f969fef96e69719b8", "fusion_lon": 0.0}, {"is_reserved": 0, "type": "electric_scooter", "bike_id": "10ec38868ad016cf81175fdd1ac5733c", "lat": 38.886671166666666, "lon": -77.00201833333334, "rental_uris": {"android": "https://dc.lft.to/lastmile_qr_scan", "ios": "https://dc.lft.to/lastmile_qr_scan"}, "is_disabled": 0, "fusion_lat": 0.0, "name": "10ec38868ad016cf81175fdd1ac5733c", "fusion_lon": 0.0}, {"is_reserved": 0, "type": "electric_scooter", "bike_id": "f9f0bb01abbff5536fb57390d2d8085e", "lat": 38.924857, "lon": -77.03193966666667, "rental_uris": {"android": "https://dc.lft.to/lastmile_qr_scan", "ios": "https://dc.lft.to/lastmile_qr_scan"}, "is_disabled": 0, "fusion_lat": 0.0, "name": "f9f0bb01abbff5536fb57390d2d8085e", "fusion_lon": 0.0}, {"is_reserved": 0, "type": "electric_scooter", "bike_id": "6cdb0d446ae16bd747c653ec3cbb7f4e", "lat": 38.905558666666664, "lon": -77.03249, "rental_uris": {"android": "https://dc.lft.to/lastmile_qr_scan", "ios": "https://dc.lft.to/lastmile_qr_scan"}, "is_disabled": 0, "fusion_lat": 0.0, "name": "6cdb0d446ae16bd747c653ec3cbb7f4e", "fusion_lon": 0.0}, {"is_reserved": 0, "type": "electric_bike", "bike_id": "b08fc42855d5eb1b79678b2f6eb1fe29", "lat": 38.8925295, "lon": -76.97053583333333, "rental_uris": {"android": "https://dc.lft.to/lastmile_qr_scan", "ios": "https://dc.lft.to/lastmile_qr_scan"}, "is_disabled": 0, "fusion_lat": 0.0, "name": "b08fc42855d5eb1b79678b2f6eb1fe29", "fusion_lon": 0.0}, {"is_reserved": 0, "type": "electric_scooter", "bike_id": "680f89051aa7d9579740b033e5e4c95c", "lat": 38.9227345, "lon": -77.0366945, "rental_uris": {"android": "https://dc.lft.to/lastmile_qr_scan", "ios": "https://dc.lft.to/lastmile_qr_scan"}, "is_disabled": 0, "fusion_lat": 0.0, "name": "680f89051aa7d9579740b033e5e4c95c", "fusion_lon": 0.0}, {"is_reserved": 0, "type": "electric_scooter", "bike_id": "5f6677e8eb719ef43908924937c95b00", "lat": 38.91182083333333, "lon": -77.01996166666666, "rental_uris": {"android": "https://dc.lft.to/lastmile_qr_scan", "ios": "https://dc.lft.to/lastmile_qr_scan"}, "is_disabled": 0, "fusion_lat": 0.0, "name": "5f6677e8eb719ef43908924937c95b00", "fusion_lon": 0.0}, {"is_reserved": 0, "type": "electric_scooter", "bike_id": "04f1231412c8b50c7f3b4ccbba1131d9", "lat": 38.915333333333336, "lon": -77.01998, "rental_uris": {"android": "https://dc.lft.to/lastmile_qr_scan", "ios": "https://dc.lft.to/lastmile_qr_scan"}, "is_disabled": 0, "fusion_lat": 0.0, "name": "04f1231412c8b50c7f3b4ccbba1131d9", "fusion_lon": 0.0}, {"is_reserved": 0, "type": "electric_scooter", "bike_id": "bd6284b0c88097ac91b12821784d4975", "lat": 38.8996965, "lon": -76.99035333333333, "rental_uris": {"android": "https://dc.lft.to/lastmile_qr_scan", "ios": "https://dc.lft.to/lastmile_qr_scan"}, "is_disabled": 0, "fusion_lat": 0.0, "name": "bd6284b0c88097ac91b12821784d4975", "fusion_lon": 0.0}, {"is_reserved": 0, "type": "electric_scooter", "bike_id": "e48c465449e235390b6b163876bb41bb", "lat": 38.921814166666664, "lon": -77.01039933333334, "rental_uris": {"android": "https://dc.lft.to/lastmile_qr_scan", "ios": "https://dc.lft.to/lastmile_qr_scan"}, "is_disabled": 0, "fusion_lat": 0.0, "name": "e48c465449e235390b6b163876bb41bb", "fusion_lon": 0.0}, {"is_reserved": 0, "type": "electric_scooter", "bike_id": "d1c782e7b8b79de84b924bc60adceb0e", "lat": 38.9043895, "lon": -77.060138, "rental_uris": {"android": "https://dc.lft.to/lastmile_qr_scan", "ios": "https://dc.lft.to/lastmile_qr_scan"}, "is_disabled": 0, "fusion_lat": 0.0, "name": "d1c782e7b8b79de84b924bc60adceb0e", "fusion_lon": 0.0}, {"is_reserved": 0, "type": "electric_scooter", "bike_id": "1330ed2bacbc83549e7316e63f1b13e7", "lat": 38.916357, "lon": -77.0479935, "rental_uris": {"android": "https://dc.lft.to/lastmile_qr_scan", "ios": "https://dc.lft.to/lastmile_qr_scan"}, "is_disabled": 0, "fusion_lat": 0.0, "name": "1330ed2bacbc83549e7316e63f1b13e7", "fusion_lon": 0.0}, {"is_reserved": 0, "type": "electric_scooter", "bike_id": "b5bacec6853ae2bdccece4c9b7709e16", "lat": 38.8972655, "lon": -77.02439816666667, "rental_uris": {"android": "https://dc.lft.to/lastmile_qr_scan", "ios": "https://dc.lft.to/lastmile_qr_scan"}, "is_disabled": 0, "fusion_lat": 0.0, "name": "b5bacec6853ae2bdccece4c9b7709e16", "fusion_lon": 0.0}, {"is_reserved": 0, "type": "electric_scooter", "bike_id": "8b911fe6af9b9b31e09ed3eb6b243dec", "lat": 38.905768, "lon": -77.00706483333333, "rental_uris": {"android": "https://dc.lft.to/lastmile_qr_scan", "ios": "https://dc.lft.to/lastmile_qr_scan"}, "is_disabled": 0, "fusion_lat": 0.0, "name": "8b911fe6af9b9b31e09ed3eb6b243dec", "fusion_lon": 0.0}, {"is_reserved": 0, "type": "electric_scooter", "bike_id": "950ac91d76116f1e5d0bbebe6deeebb7", "lat": 38.902528833333335, "lon": -77.02080683333334, "rental_uris": {"android": "https://dc.lft.to/lastmile_qr_scan", "ios": "https://dc.lft.to/lastmile_qr_scan"}, "is_disabled": 0, "fusion_lat": 0.0, "name": "950ac91d76116f1e5d0bbebe6deeebb7", "fusion_lon": 0.0}, {"is_reserved": 0, "type": "electric_scooter", "bike_id": "47b60e9bbe99b468181a47196e1485b0", "lat": 38.8873805, "lon": -77.01350616666667, "rental_uris": {"android": "https://dc.lft.to/lastmile_qr_scan", "ios": "https://dc.lft.to/lastmile_qr_scan"}, "is_disabled": 0, "fusion_lat": 0.0, "name": "47b60e9bbe99b468181a47196e1485b0", "fusion_lon": 0.0}, {"is_reserved": 0, "type": "electric_scooter", "bike_id": "f692c124ee0be0f23d38089ea3d43933", "lat": 38.92550583333333, "lon": -76.999546, "rental_uris": {"android": "https://dc.lft.to/lastmile_qr_scan", "ios": "https://dc.lft.to/lastmile_qr_scan"}, "is_disabled": 0, "fusion_lat": 0.0, "name": "f692c124ee0be0f23d38089ea3d43933", "fusion_lon": 0.0}, {"is_reserved": 0, "type": "electric_scooter", "bike_id": "ab09bef4fb197a7b51de15ea7c863edc", "lat": 38.908425333333334, "lon": -77.02948083333334, "rental_uris": {"android": "https://dc.lft.to/lastmile_qr_scan", "ios": "https://dc.lft.to/lastmile_qr_scan"}, "is_disabled": 0, "fusion_lat": 0.0, "name": "ab09bef4fb197a7b51de15ea7c863edc", "fusion_lon": 0.0}, {"is_reserved": 0, "type": "electric_scooter", "bike_id": "9c7e8ca2e7a4201ac85e7243948248f9", "lat": 38.9036955, "lon": -77.03140883333333, "rental_uris": {"android": "https://dc.lft.to/lastmile_qr_scan", "ios": "https://dc.lft.to/lastmile_qr_scan"}, "is_disabled": 0, "fusion_lat": 0.0, "name": "9c7e8ca2e7a4201ac85e7243948248f9", "fusion_lon": 0.0}, {"is_reserved": 0, "type": "electric_scooter", "bike_id": "bef9b1d9cac1ff91084330fceb1d1b06", "lat": 38.90091066666667, "lon": -77.01624933333333, "rental_uris": {"android": "https://dc.lft.to/lastmile_qr_scan", "ios": "https://dc.lft.to/lastmile_qr_scan"}, "is_disabled": 0, "fusion_lat": 0.0, "name": "bef9b1d9cac1ff91084330fceb1d1b06", "fusion_lon": 0.0}, {"is_reserved": 0, "type": "electric_scooter", "bike_id": "da76780fbbc3d6a006fe7f2f4750c611", "lat": 38.92450916666667, "lon": -77.02025866666666, "rental_uris": {"android": "https://dc.lft.to/lastmile_qr_scan", "ios": "https://dc.lft.to/lastmile_qr_scan"}, "is_disabled": 0, "fusion_lat": 0.0, "name": "da76780fbbc3d6a006fe7f2f4750c611", "fusion_lon": 0.0}, {"is_reserved": 0, "type": "electric_scooter", "bike_id": "e2b8f40eaaf8a8d1366d05d37986a1c9", "lat": 38.9071065, "lon": -77.05588616666667, "rental_uris": {"android": "https://dc.lft.to/lastmile_qr_scan", "ios": "https://dc.lft.to/lastmile_qr_scan"}, "is_disabled": 0, "fusion_lat": 0.0, "name": "e2b8f40eaaf8a8d1366d05d37986a1c9", "fusion_lon": 0.0}, {"is_reserved": 0, "type": "electric_scooter", "bike_id": "e5b2ec6f677fece2e9b3397e7c441b2f", "lat": 38.937877666666665, "lon": -77.07443983333333, "rental_uris": {"android": "https://dc.lft.to/lastmile_qr_scan", "ios": "https://dc.lft.to/lastmile_qr_scan"}, "is_disabled": 0, "fusion_lat": 0.0, "name": "e5b2ec6f677fece2e9b3397e7c441b2f", "fusion_lon": 0.0}, {"is_reserved": 0, "type": "electric_scooter", "bike_id": "19c5be19d4d84dc742a97d3488b1c953", "lat": 38.90653316666667, "lon": -77.01421466666666, "rental_uris": {"android": "https://dc.lft.to/lastmile_qr_scan", "ios": "https://dc.lft.to/lastmile_qr_scan"}, "is_disabled": 0, "fusion_lat": 0.0, "name": "19c5be19d4d84dc742a97d3488b1c953", "fusion_lon": 0.0}, {"is_reserved": 0, "type": "electric_scooter", "bike_id": "0ac92415f486ebfe3016ef90fe902ce5", "lat": 38.91241733333333, "lon": -77.0385035, "rental_uris": {"android": "https://dc.lft.to/lastmile_qr_scan", "ios": "https://dc.lft.to/lastmile_qr_scan"}, "is_disabled": 0, "fusion_lat": 0.0, "name": "0ac92415f486ebfe3016ef90fe902ce5", "fusion_lon": 0.0}, {"is_reserved": 0, "type": "electric_scooter", "bike_id": "b2188f3aa687b9e729373f8b2950d7de", "lat": 38.905651666666664, "lon": -76.997728, "rental_uris": {"android": "https://dc.lft.to/lastmile_qr_scan", "ios": "https://dc.lft.to/lastmile_qr_scan"}, "is_disabled": 0, "fusion_lat": 0.0, "name": "b2188f3aa687b9e729373f8b2950d7de", "fusion_lon": 0.0}, {"is_reserved": 0, "type": "electric_scooter", "bike_id": "9164d222b13e432b1b1515e3ab2a6407", "lat": 38.91762166666667, "lon": -77.03863566666666, "rental_uris": {"android": "https://dc.lft.to/lastmile_qr_scan", "ios": "https://dc.lft.to/lastmile_qr_scan"}, "is_disabled": 0, "fusion_lat": 0.0, "name": "9164d222b13e432b1b1515e3ab2a6407", "fusion_lon": 0.0}, {"is_reserved": 0, "type": "electric_bike", "bike_id": "f501cb817a595141f250b8d01db9255a", "lat": 38.956027, "lon": -76.9953475, "rental_uris": {"android": "https://dc.lft.to/lastmile_qr_scan", "ios": "https://dc.lft.to/lastmile_qr_scan"}, "is_disabled": 0, "fusion_lat": 0.0, "name": "f501cb817a595141f250b8d01db9255a", "fusion_lon": 0.0}, {"is_reserved": 0, "type": "electric_scooter", "bike_id": "08dd1d6414190630011fd601823f2dfe", "lat": 38.90450116666667, "lon": -77.00335616666666, "rental_uris": {"android": "https://dc.lft.to/lastmile_qr_scan", "ios": "https://dc.lft.to/lastmile_qr_scan"}, "is_disabled": 0, "fusion_lat": 0.0, "name": "08dd1d6414190630011fd601823f2dfe", "fusion_lon": 0.0}, {"is_reserved": 0, "type": "electric_scooter", "bike_id": "de90b427eb0882ebf55f8dca4034a846", "lat": 38.904473, "lon": -77.06290483333333, "rental_uris": {"android": "https://dc.lft.to/lastmile_qr_scan", "ios": "https://dc.lft.to/lastmile_qr_scan"}, "is_disabled": 0, "fusion_lat": 0.0, "name": "de90b427eb0882ebf55f8dca4034a846", "fusion_lon": 0.0}, {"is_reserved": 0, "type": "electric_scooter", "bike_id": "9af304cb902b65d20692c075fa31aa8d", "lat": 38.9248495, "lon": -77.02141166666667, "rental_uris": {"android": "https://dc.lft.to/lastmile_qr_scan", "ios": "https://dc.lft.to/lastmile_qr_scan"}, "is_disabled": 0, "fusion_lat": 0.0, "name": "9af304cb902b65d20692c075fa31aa8d", "fusion_lon": 0.0}, {"is_reserved": 0, "type": "electric_scooter", "bike_id": "05fe61439b68d7b3ac995ab69477e913", "lat": 38.905263166666664, "lon": -77.00193466666667, "rental_uris": {"android": "https://dc.lft.to/lastmile_qr_scan", "ios": "https://dc.lft.to/lastmile_qr_scan"}, "is_disabled": 0, "fusion_lat": 0.0, "name": "05fe61439b68d7b3ac995ab69477e913", "fusion_lon": 0.0}, {"is_reserved": 0, "type": "electric_scooter", "bike_id": "ab75bc43c4dccb9a15e7e2dcf47aa1c4", "lat": 38.9234535, "lon": -77.01893566666666, "rental_uris": {"android": "https://dc.lft.to/lastmile_qr_scan", "ios": "https://dc.lft.to/lastmile_qr_scan"}, "is_disabled": 0, "fusion_lat": 0.0, "name": "ab75bc43c4dccb9a15e7e2dcf47aa1c4", "fusion_lon": 0.0}, {"is_reserved": 0, "type": "electric_scooter", "bike_id": "7b3063bf7cce1d4b148c75bff5cb3168", "lat": 38.872982666666665, "lon": -77.01562666666666, "rental_uris": {"android": "https://dc.lft.to/lastmile_qr_scan", "ios": "https://dc.lft.to/lastmile_qr_scan"}, "is_disabled": 0, "fusion_lat": 0.0, "name": "7b3063bf7cce1d4b148c75bff5cb3168", "fusion_lon": 0.0}, {"is_reserved": 0, "type": "electric_scooter", "bike_id": "2710bcaa6de6ee5981cd5940b3c847cc", "lat": 38.89278483333333, "lon": -76.9292235, "rental_uris": {"android": "https://dc.lft.to/lastmile_qr_scan", "ios": "https://dc.lft.to/lastmile_qr_scan"}, "is_disabled": 0, "fusion_lat": 0.0, "name": "2710bcaa6de6ee5981cd5940b3c847cc", "fusion_lon": 0.0}, {"is_reserved": 0, "type": "electric_scooter", "bike_id": "4433ebca0aa143c0af9388c032b5a501", "lat": 38.893412166666664, "lon": -77.02823533333333, "rental_uris": {"android": "https://dc.lft.to/lastmile_qr_scan", "ios": "https://dc.lft.to/lastmile_qr_scan"}, "is_disabled": 0, "fusion_lat": 0.0, "name": "4433ebca0aa143c0af9388c032b5a501", "fusion_lon": 0.0}, {"is_reserved": 0, "type": "electric_scooter", "bike_id": "4ac681130f5119b5e7083606f8e01256", "lat": 38.9179745, "lon": -77.04017966666666, "rental_uris": {"android": "https://dc.lft.to/lastmile_qr_scan", "ios": "https://dc.lft.to/lastmile_qr_scan"}, "is_disabled": 0, "fusion_lat": 0.0, "name": "4ac681130f5119b5e7083606f8e01256", "fusion_lon": 0.0}, {"is_reserved": 0, "type": "electric_scooter", "bike_id": "e05d4fd077956d6d0e2543bdc01cf486", "lat": 38.924228166666666, "lon": -77.04463533333333, "rental_uris": {"android": "https://dc.lft.to/lastmile_qr_scan", "ios": "https://dc.lft.to/lastmile_qr_scan"}, "is_disabled": 0, "fusion_lat": 0.0, "name": "e05d4fd077956d6d0e2543bdc01cf486", "fusion_lon": 0.0}, {"is_reserved": 0, "type": "electric_scooter", "bike_id": "db505d9fa496ed1d431fabd56f72788d", "lat": 38.9209855, "lon": -77.03257516666666, "rental_uris": {"android": "https://dc.lft.to/lastmile_qr_scan", "ios": "https://dc.lft.to/lastmile_qr_scan"}, "is_disabled": 0, "fusion_lat": 0.0, "name": "db505d9fa496ed1d431fabd56f72788d", "fusion_lon": 0.0}, {"is_reserved": 0, "type": "electric_scooter", "bike_id": "9241484d003fa4dd4c7f47cd9b4b0814", "lat": 38.9226855, "lon": -77.02963416666667, "rental_uris": {"android": "https://dc.lft.to/lastmile_qr_scan", "ios": "https://dc.lft.to/lastmile_qr_scan"}, "is_disabled": 0, "fusion_lat": 0.0, "name": "9241484d003fa4dd4c7f47cd9b4b0814", "fusion_lon": 0.0}, {"is_reserved": 0, "type": "electric_bike", "bike_id": "702f2dbca8523dbde1bc2d9c00c37c58", "lat": 38.90304166666667, "lon": -76.98441583333333, "rental_uris": {"android": "https://dc.lft.to/lastmile_qr_scan", "ios": "https://dc.lft.to/lastmile_qr_scan"}, "is_disabled": 0, "fusion_lat": 0.0, "name": "702f2dbca8523dbde1bc2d9c00c37c58", "fusion_lon": 0.0}, {"is_reserved": 0, "type": "electric_scooter", "bike_id": "1ef6f244c86484ee1122b3d6853b5b82", "lat": 38.92152766666667, "lon": -77.03507083333334, "rental_uris": {"android": "https://dc.lft.to/lastmile_qr_scan", "ios": "https://dc.lft.to/lastmile_qr_scan"}, "is_disabled": 0, "fusion_lat": 0.0, "name": "1ef6f244c86484ee1122b3d6853b5b82", "fusion_lon": 0.0}, {"is_reserved": 0, "type": "electric_scooter", "bike_id": "5ad2034aafcdc311d6f5ce635913a8e5", "lat": 38.892174, "lon": -77.0437105, "rental_uris": {"android": "https://dc.lft.to/lastmile_qr_scan", "ios": "https://dc.lft.to/lastmile_qr_scan"}, "is_disabled": 0, "fusion_lat": 0.0, "name": "5ad2034aafcdc311d6f5ce635913a8e5", "fusion_lon": 0.0}, {"is_reserved": 0, "type": "electric_scooter", "bike_id": "5e15b167c94736727910b3ac85a69d9b", "lat": 38.91409566666667, "lon": -77.04129133333333, "rental_uris": {"android": "https://dc.lft.to/lastmile_qr_scan", "ios": "https://dc.lft.to/lastmile_qr_scan"}, "is_disabled": 0, "fusion_lat": 0.0, "name": "5e15b167c94736727910b3ac85a69d9b", "fusion_lon": 0.0}, {"is_reserved": 0, "type": "electric_scooter", "bike_id": "70c9515a33f4ef246a33c00ee4f39d90", "lat": 38.90002366666667, "lon": -76.99840616666667, "rental_uris": {"android": "https://dc.lft.to/lastmile_qr_scan", "ios": "https://dc.lft.to/lastmile_qr_scan"}, "is_disabled": 0, "fusion_lat": 0.0, "name": "70c9515a33f4ef246a33c00ee4f39d90", "fusion_lon": 0.0}, {"is_reserved": 0, "type": "electric_scooter", "bike_id": "07e1e13863a514158443ef4c3fda24d7", "lat": 38.889740833333335, "lon": -76.99939383333333, "rental_uris": {"android": "https://dc.lft.to/lastmile_qr_scan", "ios": "https://dc.lft.to/lastmile_qr_scan"}, "is_disabled": 0, "fusion_lat": 0.0, "name": "07e1e13863a514158443ef4c3fda24d7", "fusion_lon": 0.0}, {"is_reserved": 0, "type": "electric_scooter", "bike_id": "9ef1573705c1ea06f11698f36ddeca16", "lat": 38.89947083333333, "lon": -77.03187733333333, "rental_uris": {"android": "https://dc.lft.to/lastmile_qr_scan", "ios": "https://dc.lft.to/lastmile_qr_scan"}, "is_disabled": 0, "fusion_lat": 0.0, "name": "9ef1573705c1ea06f11698f36ddeca16", "fusion_lon": 0.0}, {"is_reserved": 0, "type": "electric_scooter", "bike_id": "8c4c94a4b90964b40449a0124a39a63e", "lat": 38.91695283333333, "lon": -77.02694633333333, "rental_uris": {"android": "https://dc.lft.to/lastmile_qr_scan", "ios": "https://dc.lft.to/lastmile_qr_scan"}, "is_disabled": 0, "fusion_lat": 0.0, "name": "8c4c94a4b90964b40449a0124a39a63e", "fusion_lon": 0.0}, {"is_reserved": 0, "type": "electric_scooter", "bike_id": "a41c1d29b875156dd9f94ad0e2803dc6", "lat": 38.90238883333333, "lon": -77.05898466666666, "rental_uris": {"android": "https://dc.lft.to/lastmile_qr_scan", "ios": "https://dc.lft.to/lastmile_qr_scan"}, "is_disabled": 0, "fusion_lat": 0.0, "name": "a41c1d29b875156dd9f94ad0e2803dc6", "fusion_lon": 0.0}, {"is_reserved": 0, "type": "electric_scooter", "bike_id": "61599af197d7bbd50c6786a960259cba", "lat": 38.87781233333333, "lon": -77.0188645, "rental_uris": {"android": "https://dc.lft.to/lastmile_qr_scan", "ios": "https://dc.lft.to/lastmile_qr_scan"}, "is_disabled": 0, "fusion_lat": 0.0, "name": "61599af197d7bbd50c6786a960259cba", "fusion_lon": 0.0}, {"is_reserved": 0, "type": "electric_scooter", "bike_id": "443cf7a0bec4ad9cfda56a8c086a8ad1", "lat": 38.87514316666667, "lon": -77.00344, "rental_uris": {"android": "https://dc.lft.to/lastmile_qr_scan", "ios": "https://dc.lft.to/lastmile_qr_scan"}, "is_disabled": 0, "fusion_lat": 0.0, "name": "443cf7a0bec4ad9cfda56a8c086a8ad1", "fusion_lon": 0.0}, {"is_reserved": 0, "type": "electric_scooter", "bike_id": "71fffce130e0cc9a2e9e63113485ad4c", "lat": 38.892318833333334, "lon": -77.03183916666667, "rental_uris": {"android": "https://dc.lft.to/lastmile_qr_scan", "ios": "https://dc.lft.to/lastmile_qr_scan"}, "is_disabled": 0, "fusion_lat": 0.0, "name": "71fffce130e0cc9a2e9e63113485ad4c", "fusion_lon": 0.0}, {"is_reserved": 0, "type": "electric_scooter", "bike_id": "796f211674e05ebe30973d16107bd47a", "lat": 38.919799166666664, "lon": -77.0416915, "rental_uris": {"android": "https://dc.lft.to/lastmile_qr_scan", "ios": "https://dc.lft.to/lastmile_qr_scan"}, "is_disabled": 0, "fusion_lat": 0.0, "name": "796f211674e05ebe30973d16107bd47a", "fusion_lon": 0.0}, {"is_reserved": 0, "type": "electric_scooter", "bike_id": "da62227f5757173126c22ea8262299bc", "lat": 38.905027, "lon": -77.05682616666667, "rental_uris": {"android": "https://dc.lft.to/lastmile_qr_scan", "ios": "https://dc.lft.to/lastmile_qr_scan"}, "is_disabled": 0, "fusion_lat": 0.0, "name": "da62227f5757173126c22ea8262299bc", "fusion_lon": 0.0}, {"is_reserved": 0, "type": "electric_scooter", "bike_id": "03bdbd38448816795d78a0f2357a6a83", "lat": 38.928672, "lon": -77.03349433333334, "rental_uris": {"android": "https://dc.lft.to/lastmile_qr_scan", "ios": "https://dc.lft.to/lastmile_qr_scan"}, "is_disabled": 0, "fusion_lat": 0.0, "name": "03bdbd38448816795d78a0f2357a6a83", "fusion_lon": 0.0}, {"is_reserved": 0, "type": "electric_scooter", "bike_id": "cfb9b9c92e0d8404a808baf0d2fa590b", "lat": 38.894650166666665, "lon": -77.00344116666666, "rental_uris": {"android": "https://dc.lft.to/lastmile_qr_scan", "ios": "https://dc.lft.to/lastmile_qr_scan"}, "is_disabled": 0, "fusion_lat": 0.0, "name": "cfb9b9c92e0d8404a808baf0d2fa590b", "fusion_lon": 0.0}, {"is_reserved": 0, "type": "electric_scooter", "bike_id": "449ab0165ac7bd1b2e7a9368b94fe7a1", "lat": 38.921024833333334, "lon": -77.03008666666666, "rental_uris": {"android": "https://dc.lft.to/lastmile_qr_scan", "ios": "https://dc.lft.to/lastmile_qr_scan"}, "is_disabled": 0, "fusion_lat": 0.0, "name": "449ab0165ac7bd1b2e7a9368b94fe7a1", "fusion_lon": 0.0},