{"data": {"bikes": [{"rental_uris": {"ios": "https://dc.lft.to/lastmile_qr_scan", "android": "https://dc.lft.to/lastmile_qr_scan"}, "lon": -77.01828066666667, "type": "electric_scooter", "fusion_lat": 0.0, "lat": 38.91950766666667, "name": "7d648023334cbf7279b8b189838832e0", "fusion_lon": 0.0, "bike_id": "7d648023334cbf7279b8b189838832e0", "is_disabled": 0, "is_reserved": 0}, {"rental_uris": {"ios": "https://dc.lft.to/lastmile_qr_scan", "android": "https://dc.lft.to/lastmile_qr_scan"}, "lon": -76.97218316666667, "type": "electric_bike", "fusion_lat": 0.0, "lat": 38.844732666666665, "name": "402ef1ec01ee740dc0326a002c3ebb76", "fusion_lon": 0.0, "bike_id": "402ef1ec01ee740dc0326a002c3ebb76", "is_disabled": 0, "is_reserved": 0}, {"rental_uris": {"ios": "https://dc.lft.to/lastmile_qr_scan", "android": "https://dc.lft.to/lastmile_qr_scan"}, "lon": -77.0318665, "type": "electric_scooter", "fusion_lat": 0.0, "lat": 38.910983, "name": "d9804fbcccb9d5a8b09ffdf63fd85add", "fusion_lon": 0.0, "bike_id": "d9804fbcccb9d5a8b09ffdf63fd85add", "is_disabled": 0, "is_reserved": 0}, {"rental_uris": {"ios": "https://dc.lft.to/lastmile_qr_scan", "android": "https://dc.lft.to/lastmile_qr_scan"}, "lon": -77.02503216666666, "type": "electric_scooter", "fusion_lat": 0.0, "lat": 38.903224333333334, "name": "9135c5e4520a01b0c0cfe2ea76ff7ee8", "fusion_lon": 0.0, "bike_id": "9135c5e4520a01b0c0cfe2ea76ff7ee8", "is_disabled": 0, "is_reserved": 0}, {"rental_uris": {"ios": "https://dc.lft.to/lastmile_qr_scan", "android": "https://dc.lft.to/lastmile_qr_scan"}, "lon": -77.033073, "type": "electric_scooter", "fusion_lat": 0.0, "lat": 38.90032566666667, "name": "04b297b1c1b3ff72f474f579635c0162", "fusion_lon": 0.0, "bike_id": "04b297b1c1b3ff72f474f579635c0162", "is_disabled": 0, "is_reserved": 0}, {"rental_uris": {"ios": "https://dc.lft.to/lastmile_qr_scan", "android": "https://dc.lft.to/lastmile_qr_scan"}, "lon": -76.9444055, "type": "electric_bike", "fusion_lat": 0.0, "lat": 38.9029755, "name": "7bd7a270231d52b950fa8d0876d382ad", "fusion_lon": 0.0, "bike_id": "7bd7a270231d52b950fa8d0876d382ad", "is_disabled": 0, "is_reserved": 0}, {"rental_uris": {"ios": "https://dc.lft.to/lastmile_qr_scan", "android": "https://dc.lft.to/lastmile_qr_scan"}, "lon": -76.97709666666667, "type": "electric_scooter", "fusion_lat": 0.0, "lat": 38.898861, "name": "7c0a87861d2de39ee0e5727ff58da1e5", "fusion_lon": 0.0, "bike_id": "7c0a87861d2de39ee0e5727ff58da1e5", "is_disabled": 0, "is_reserved": 0}, {"rental_uris": {"ios": "https://dc.lft.to/lastmile_qr_scan", "android": "https://dc.lft.to/lastmile_qr_scan"}, "lon": -77.03178683333333, "type": "electric_scooter", "fusion_lat": 0.0, "lat": 38.91428583333333, "name": "0b354fbe7a19f39c6f10f8430edf2fe6", "fusion_lon": 0.0, "bike_id": "0b354fbe7a19f39c6f10f8430edf2fe6", "is_disabled": 0, "is_reserved": 0}, {"rental_uris": {"ios": "https://dc.lft.to/lastmile_qr_scan", "android": "https://dc.lft.to/lastmile_qr_scan"}, "lon": -77.040115, "type": "electric_scooter", "fusion_lat": 0.0, "lat": 38.924489, "name": "96d8026710ac868d845f6dcc33e69caa", "fusion_lon": 0.0, "bike_id": "96d8026710ac868d845f6dcc33e69caa", "is_disabled": 0, "is_reserved": 0}, {"rental_uris": {"ios": "https://dc.lft.to/lastmile_qr_scan", "android": "https://dc.lft.to/lastmile_qr_scan"}, "lon": -77.03525483333334, "type": "electric_scooter", "fusion_lat": 0.0, "lat": 38.90671116666667, "name": "9ca6bfba843c13d0c336e37acf2c3573", "fusion_lon": 0.0, "bike_id": "9ca6bfba843c13d0c336e37acf2c3573", "is_disabled": 0, "is_reserved": 0}, {"rental_uris": {"ios": "https://dc.lft.to/lastmile_qr_scan", "android": "https://dc.lft.to/lastmile_qr_scan"}, "lon": -77.0224595, "type": "electric_scooter", "fusion_lat": 0.0, "lat": 38.916402833333336, "name": "67f329390d38a93d7a9af557fbb4860c", "fusion_lon": 0.0, "bike_id": "67f329390d38a93d7a9af557fbb4860c", "is_disabled": 0, "is_reserved": 0}, {"rental_uris": {"ios": "https://dc.lft.to/lastmile_qr_scan", "android": "https://dc.lft.to/lastmile_qr_scan"}, "lon": -77.01643766666666, "type": "electric_scooter", "fusion_lat": 0.0, "lat": 38.9293255, "name": "cb253f3ee13652bcf75581715da7d6b0", "fusion_lon": 0.0, "bike_id": "cb253f3ee13652bcf75581715da7d6b0", "is_disabled": 0, "is_reserved": 0}, {"rental_uris": {"ios": "https://dc.lft.to/lastmile_qr_scan", "android": "https://dc.lft.to/lastmile_qr_scan"}, "lon": -77.04247116666667, "type": "electric_scooter", "fusion_lat": 0.0, "lat": 38.90807, "name": "0ae09684cce2480978dddc8fb212974c", "fusion_lon": 0.0, "bike_id": "0ae09684cce2480978dddc8fb212974c", "is_disabled": 0, "is_reserved": 0}, {"rental_uris": {"ios": "https://dc.lft.to/lastmile_qr_scan", "android": "https://dc.lft.to/lastmile_qr_scan"}, "lon": -77.043148, "type": "electric_scooter", "fusion_lat": 0.0, "lat": 38.923694166666664, "name": "9f4caaef9e98ce88d818745e2ff79a5a", "fusion_lon": 0.0, "bike_id": "9f4caaef9e98ce88d818745e2ff79a5a", "is_disabled": 0, "is_reserved": 0}, {"rental_uris": {"ios": "https://dc.lft.to/lastmile_qr_scan", "android": "https://dc.lft.to/lastmile_qr_scan"}, "lon": -77.041654, "type": "electric_scooter", "fusion_lat": 0.0, "lat": 38.91934583333333, "name": "f51548d787c73dfd61812a05bae7a134", "fusion_lon": 0.0, "bike_id": "f51548d787c73dfd61812a05bae7a134", "is_disabled": 0, "is_reserved": 0}, {"rental_uris": {"ios": "https://dc.lft.to/lastmile_qr_scan", "android": "https://dc.lft.to/lastmile_qr_scan"}, "lon": -77.06324583333334, "type": "electric_scooter", "fusion_lat": 0.0, "lat": 38.90515383333333, "name": "227db927fdcd3bb7cb48e9950abfb3f0", "fusion_lon": 0.0, "bike_id": "227db927fdcd3bb7cb48e9950abfb3f0", "is_disabled": 0, "is_reserved": 0}, {"rental_uris": {"ios": "https://dc.lft.to/lastmile_qr_scan", "android": "https://dc.lft.to/lastmile_qr_scan"}, "lon": -77.0291825, "type": "electric_scooter", "fusion_lat": 0.0, "lat": 38.934629666666666, "name": "68ca950d11313edf5d4cb8b78ba47b8a", "fusion_lon": 0.0, "bike_id": "68ca950d11313edf5d4cb8b78ba47b8a", "is_disabled": 0, "is_reserved": 0}, {"rental_uris": {"ios": "https://dc.lft.to/lastmile_qr_scan", "android": "https://dc.lft.to/lastmile_qr_scan"}, "lon": -77.00891933333334, "type": "electric_scooter", "fusion_lat": 0.0, "lat": 38.90522716666667, "name": "2f885ae52aefed25e40b5c0153b4a35e", "fusion_lon": 0.0, "bike_id": "2f885ae52aefed25e40b5c0153b4a35e", "is_disabled": 0, "is_reserved": 0}, {"rental_uris": {"ios": "https://dc.lft.to/lastmile_qr_scan", "android": "https://dc.lft.to/lastmile_qr_scan"}, "lon": -76.95186333333334, "type": "electric_scooter", "fusion_lat": 0.0, "lat": 38.89132433333333, "name": "9b2a094a9b18346d5964be4947fcb934", "fusion_lon": 0.0, "bike_id": "9b2a094a9b18346d5964be4947fcb934", "is_disabled": 0, "is_reserved": 0}, {"rental_uris": {"ios": "https://dc.lft.to/lastmile_qr_scan", "android": "https://dc.lft.to/lastmile_qr_scan"}, "lon": -76.99795933333333, "type": "electric_scooter", "fusion_lat": 0.0, "lat": 38.908501333333334, "name": "a59cb10d6b258bc0e2e5ac3f07f2e191", "fusion_lon": 0.0, "bike_id": "a59cb10d6b258bc0e2e5ac3f07f2e191", "is_disabled": 0, "is_reserved": 0}, {"rental_uris": {"ios": "https://dc.lft.to/lastmile_qr_scan", "android": "https://dc.lft.to/lastmile_qr_scan"}, "lon": -77.04333583333333, "type": "electric_scooter", "fusion_lat": 0.0, "lat": 38.9066835, "name": "0445b0094747607431f0ec1a6e81256f", "fusion_lon": 0.0, "bike_id": "0445b0094747607431f0ec1a6e81256f", "is_disabled": 0, "is_reserved": 0}, {"rental_uris": {"ios": "https://dc.lft.to/lastmile_qr_scan", "android": "https://dc.lft.to/lastmile_qr_scan"}, "lon": -77.04375633333333, "type": "electric_bike", "fusion_lat": 0.0, "lat": 38.92801266666667, "name": "e15ed1ec8d098397cf3b46d3d487726c", "fusion_lon": 0.0, "bike_id": "e15ed1ec8d098397cf3b46d3d487726c", "is_disabled": 0, "is_reserved": 0}, {"rental_uris": {"ios": "https://dc.lft.to/lastmile_qr_scan", "android": "https://dc.lft.to/lastmile_qr_scan"}, "lon": -76.9652855, "type": "electric_scooter", "fusion_lat": 0.0, "lat": 38.87625583333333, "name": "e61914b5088d50ef96fe909472431668", "fusion_lon": 0.0, "bike_id": "e61914b5088d50ef96fe909472431668", "is_disabled": 0, "is_reserved": 0}, {"rental_uris": {"ios": "https://dc.lft.to/lastmile_qr_scan", "android": "https://dc.lft.to/lastmile_qr_scan"}, "lon": -77.01102133333333, "type": "electric_scooter", "fusion_lat": 0.0, "lat": 38.903551, "name": "6821a23a4f1ee6dce565815483d24e60", "fusion_lon": 0.0, "bike_id": "6821a23a4f1ee6dce565815483d24e60", "is_disabled": 0, "is_reserved": 0}, {"rental_uris": {"ios": "https://dc.lft.to/lastmile_qr_scan", "android": "https://dc.lft.to/lastmile_qr_scan"}, "lon": -77.03294483333333, "type": "electric_scooter", "fusion_lat": 0.0, "lat": 38.911184666666664, "name": "c8091da73567e0a5349bb70833ac4973", "fusion_lon": 0.0, "bike_id": "c8091da73567e0a5349bb70833ac4973", "is_disabled": 0, "is_reserved": 0}, {"rental_uris": {"ios": "https://dc.lft.to/lastmile_qr_scan", "android": "https://dc.lft.to/lastmile_qr_scan"}, "lon": -77.03189916666666, "type": "electric_scooter", "fusion_lat": 0.0, "lat": 38.917995833333336, "name": "664218231c009b06c3fd9556f49600d2", "fusion_lon": 0.0, "bike_id": "664218231c009b06c3fd9556f49600d2", "is_disabled": 0, "is_reserved": 0}, {"rental_uris": {"ios": "https://dc.lft.to/lastmile_qr_scan", "android": "https://dc.lft.to/lastmile_qr_scan"}, "lon": -77.07480966666667, "type": "electric_scooter", "fusion_lat": 0.0, "lat": 38.96038933333333, "name": "8eecb7a5b9fa36efebf2595fae7df9c3", "fusion_lon": 0.0, "bike_id": "8eecb7a5b9fa36efebf2595fae7df9c3", "is_disabled": 0, "is_reserved": 0}, {"rental_uris": {"ios": "https://dc.lft.to/lastmile_qr_scan", "android": "https://dc.lft.to/lastmile_qr_scan"}, "lon": -77.0138875, "type": "electric_scooter", "fusion_lat": 0.0, "lat": 38.919431333333335, "name": "eabcba0887a96f011e61449edae0a57d", "fusion_lon": 0.0, "bike_id": "eabcba0887a96f011e61449edae0a57d", "is_disabled": 0, "is_reserved": 0}, {"rental_uris": {"ios": "https://dc.lft.to/lastmile_qr_scan", "android": "https://dc.lft.to/lastmile_qr_scan"}, "lon": -77.07272066666667, "type": "electric_scooter", "fusion_lat": 0.0, "lat": 38.934797833333334, "name": "1bfb8fc8e4ba3e222ba8c872552ff459", "fusion_lon": 0.0, "bike_id": "1bfb8fc8e4ba3e222ba8c872552ff459", "is_disabled": 0, "is_reserved": 0}, {"rental_uris": {"ios": "https://dc.lft.to/lastmile_qr_scan", "android": "https://dc.lft.to/lastmile_qr_scan"}, "lon": -77.023466, "type": "electric_scooter", "fusion_lat": 0.0, "lat": 38.96201033333333, "name": "f56bc1163089038afb49a366d65de529", "fusion_lon": 0.0, "bike_id": "f56bc1163089038afb49a366d65de529", "is_disabled": 0, "is_reserved": 0}, {"rental_uris": {"ios": "https://dc.lft.to/lastmile_qr_scan", "android": "https://dc.lft.to/lastmile_qr_scan"}, "lon": -77.046568, "type": "electric_scooter", "fusion_lat": 0.0, "lat": 38.91270733333333, "name": "4a5e530fcf4c26c3ce868eb0ddbe3296", "fusion_lon": 0.0, "bike_id": "4a5e530fcf4c26c3ce868eb0ddbe3296", "is_disabled": 0, "is_reserved": 0}, {"rental_uris": {"ios": "https://dc.lft.to/lastmile_qr_scan", "android": "https://dc.lft.to/lastmile_qr_scan"}, "lon": -77.00525233333333, "type": "electric_scooter", "fusion_lat": 0.0, "lat": 38.92900983333333, "name": "ce00d6696d8b697f770783a9eb185a7d", "fusion_lon": 0.0, "bike_id": "ce00d6696d8b697f770783a9eb185a7d", "is_disabled": 0, "is_reserved": 0}, {"rental_uris": {"ios": "https://dc.lft.to/lastmile_qr_scan", "android": "https://dc.lft.to/lastmile_qr_scan"}, "lon": -77.07264883333333, "type": "electric_scooter", "fusion_lat": 0.0, "lat": 38.93381433333333, "name": "3c2dfee03c4019828fad4193ad1bda91", "fusion_lon": 0.0, "bike_id": "3c2dfee03c4019828fad4193ad1bda91", "is_disabled": 0, "is_reserved": 0}, {"rental_uris": {"ios": "https://dc.lft.to/lastmile_qr_scan", "android": "https://dc.lft.to/lastmile_qr_scan"}, "lon": -77.05639583333334, "type": "electric_scooter", "fusion_lat": 0.0, "lat": 38.92752683333333, "name": "75b1e5b08e4892554a86a6827005fe93", "fusion_lon": 0.0, "bike_id": "75b1e5b08e4892554a86a6827005fe93", "is_disabled": 0, "is_reserved": 0}, {"rental_uris": {"ios": "https://dc.lft.to/lastmile_qr_scan", "android": "https://dc.lft.to/lastmile_qr_scan"}, "lon": -77.06416766666666, "type": "electric_scooter", "fusion_lat": 0.0, "lat": 38.90909516666667, "name": "534393946de0e5be5e9b3292df7594f4", "fusion_lon": 0.0, "bike_id": "534393946de0e5be5e9b3292df7594f4", "is_disabled": 0, "is_reserved": 0}, {"rental_uris": {"ios": "https://dc.lft.to/lastmile_qr_scan", "android": "https://dc.lft.to/lastmile_qr_scan"}, "lon": -77.04031866666666, "type": "electric_scooter", "fusion_lat": 0.0, "lat": 38.92437533333333, "name": "5ef44bd848e078b4a621317f5daa3171", "fusion_lon": 0.0, "bike_id": "5ef44bd848e078b4a621317f5daa3171", "is_disabled": 0, "is_reserved": 0}, {"rental_uris": {"ios": "https://dc.lft.to/lastmile_qr_scan", "android": "https://dc.lft.to/lastmile_qr_scan"}, "lon": -77.0119005, "type": "electric_scooter", "fusion_lat": 0.0, "lat": 38.900333, "name": "0ab448f07bdecea2ab6da3d34ca3b342", "fusion_lon": 0.0, "bike_id": "0ab448f07bdecea2ab6da3d34ca3b342", "is_disabled": 0, "is_reserved": 0}, {"rental_uris": {"ios": "https://dc.lft.to/lastmile_qr_scan", "android": "https://dc.lft.to/lastmile_qr_scan"}, "lon": -77.04664816666667, "type": "electric_scooter", "fusion_lat": 0.0, "lat": 38.90529466666667, "name": "60ea388d7d6a549b22a7276890ef85c9", "fusion_lon": 0.0, "bike_id": "60ea388d7d6a549b22a7276890ef85c9", "is_disabled": 0, "is_reserved": 0}, {"rental_uris": {"ios": "https://dc.lft.to/lastmile_qr_scan", "android": "https://dc.lft.to/lastmile_qr_scan"}, "lon": -77.030573, "type": "electric_scooter", "fusion_lat": 0.0, "lat": 38.923701666666666, "name": "5e0cb5faec4d2999d1878a483795f6f1", "fusion_lon": 0.0, "bike_id": "5e0cb5faec4d2999d1878a483795f6f1", "is_disabled": 0, "is_reserved": 0}, {"rental_uris": {"ios": "https://dc.lft.to/lastmile_qr_scan", "android": "https://dc.lft.to/lastmile_qr_scan"}, "lon": -76.99564083333334, "type": "electric_scooter", "fusion_lat": 0.0, "lat": 38.920307, "name": "7aad60a5c9b0b434eb21cb451a2092aa", "fusion_lon": 0.0, "bike_id": "7aad60a5c9b0b434eb21cb451a2092aa", "is_disabled": 0, "is_reserved": 0}, {"rental_uris": {"ios": "https://dc.lft.to/lastmile_qr_scan", "android": "https://dc.lft.to/lastmile_qr_scan"}, "lon": -77.03474833333334, "type": "electric_scooter", "fusion_lat": 0.0, "lat": 38.907751, "name": "1e7fb8df0d3a374562f9b6fcf8e47128", "fusion_lon": 0.0, "bike_id": "1e7fb8df0d3a374562f9b6fcf8e47128", "is_disabled": 0, "is_reserved": 0}, {"rental_uris": {"ios": "https://dc.lft.to/lastmile_qr_scan", "android": "https://dc.lft.to/lastmile_qr_scan"}, "lon": -77.14120566666666, "type": "electric_bike", "fusion_lat": 0.0, "lat": 38.81603666666667, "name": "a6faab90aade0786111056127ee58f2e", "fusion_lon": 0.0, "bike_id": "a6faab90aade0786111056127ee58f2e", "is_disabled": 0, "is_reserved": 0}, {"rental_uris": {"ios": "https://dc.lft.to/lastmile_qr_scan", "android": "https://dc.lft.to/lastmile_qr_scan"}, "lon": -77.036566, "type": "electric_scooter", "fusion_lat": 0.0, "lat": 38.95496683333333, "name": "06745768b25b047d5ed165ae75ade1d0", "fusion_lon": 0.0, "bike_id": "06745768b25b047d5ed165ae75ade1d0", "is_disabled": 0, "is_reserved": 0}, {"rental_uris": {"ios": "https://dc.lft.to/lastmile_qr_scan", "android": "https://dc.lft.to/lastmile_qr_scan"}, "lon": -77.0327775, "type": "electric_scooter", "fusion_lat": 0.0, "lat": 38.91912033333333, "name": "46e749571cb71fbc1d3524c4f8b2f580", "fusion_lon": 0.0, "bike_id": "46e749571cb71fbc1d3524c4f8b2f580", "is_disabled": 0, "is_reserved": 0}, {"rental_uris": {"ios": "https://dc.lft.to/lastmile_qr_scan", "android": "https://dc.lft.to/lastmile_qr_scan"}, "lon": -76.995197, "type": "electric_scooter", "fusion_lat": 0.0, "lat": 38.862561, "name": "bf88fd1a384f97c76da6937ff1262e5c", "fusion_lon": 0.0, "bike_id": "bf88fd1a384f97c76da6937ff1262e5c", "is_disabled": 0, "is_reserved": 0}, {"rental_uris": {"ios": "https://dc.lft.to/lastmile_qr_scan", "android": "https://dc.lft.to/lastmile_qr_scan"}, "lon": -77.00581083333333, "type": "electric_scooter", "fusion_lat": 0.0, "lat": 38.87420566666667, "name": "2cf33d0370e29b6b11232145cf30bd5a", "fusion_lon": 0.0, "bike_id": "2cf33d0370e29b6b11232145cf30bd5a", "is_disabled": 0, "is_reserved": 0}, {"rental_uris": {"ios": "https://dc.lft.to/lastmile_qr_scan", "android": "https://dc.lft.to/lastmile_qr_scan"}, "lon": -77.00256233333333, "type": "electric_bike", "fusion_lat": 0.0, "lat": 38.95215833333334, "name": "4f5c90db63009b3f5e5e21a2b970492f", "fusion_lon": 0.0, "bike_id": "4f5c90db63009b3f5e5e21a2b970492f", "is_disabled": 0, "is_reserved": 0}, {"rental_uris": {"ios": "https://dc.lft.to/lastmile_qr_scan", "android": "https://dc.lft.to/lastmile_qr_scan"}, "lon": -77.01367183333333, "type": "electric_scooter", "fusion_lat": 0.0, "lat": 38.8636955, "name": "d3c521e573ac3237f2823107ac00f4fe", "fusion_lon": 0.0, "bike_id": "d3c521e573ac3237f2823107ac00f4fe", "is_disabled": 0, "is_reserved": 0}, {"rental_uris": {"ios": "https://dc.lft.to/lastmile_qr_scan", "android": "https://dc.lft.to/lastmile_qr_scan"}, "lon": -77.04544066666666, "type": "electric_scooter", "fusion_lat": 0.0, "lat": 38.91107483333333, "name": "50f6b2666f7cd1cff19469e1916c7602", "fusion_lon": 0.0, "bike_id": "50f6b2666f7cd1cff19469e1916c7602", "is_disabled": 0, "is_reserved": 0}, {"rental_uris": {"ios": "https://dc.lft.to/lastmile_qr_scan", "android": "https://dc.lft.to/lastmile_qr_scan"}, "lon": -77.02132933333333, "type": "electric_scooter", "fusion_lat": 0.0, "lat": 38.897358833333335, "name": "58a25cc8a0dd5df85d4bec061744e32b", "fusion_lon": 0.0, "bike_id": "58a25cc8a0dd5df85d4bec061744e32b", "is_disabled": 0, "is_reserved": 0}, {"rental_uris": {"ios": "https://dc.lft.to/lastmile_qr_scan", "android": "https://dc.lft.to/lastmile_qr_scan"}, "lon": -77.053457, "type": "electric_scooter", "fusion_lat": 0.0, "lat": 38.90232566666667, "name": "77e1d11edf8140dce239f8225f4bf2ae", "fusion_lon": 0.0, "bike_id": "77e1d11edf8140dce239f8225f4bf2ae", "is_disabled": 0, "is_reserved": 0}, {"rental_uris": {"ios": "https://dc.lft.to/lastmile_qr_scan", "android": "https://dc.lft.to/lastmile_qr_scan"}, "lon": -77.02691883333334, "type": "electric_scooter", "fusion_lat": 0.0, "lat": 38.908370833333336, "name": "02a9e8df3e40af8507ec128d2f8b75bb", "fusion_lon": 0.0, "bike_id": "02a9e8df3e40af8507ec128d2f8b75bb", "is_disabled": 0, "is_reserved": 0}, {"rental_uris": {"ios": "https://dc.lft.to/lastmile_qr_scan", "android": "https://dc.lft.to/lastmile_qr_scan"}, "lon": -77.02371666666667, "type": "electric_scooter", "fusion_lat": 0.0, "lat": 38.898551833333336, "name": "0a853093b8df989de10e0cb5caa307bd", "fusion_lon": 0.0, "bike_id": "0a853093b8df989de10e0cb5caa307bd", "is_disabled": 0, "is_reserved": 0}, {"rental_uris": {"ios": "https://dc.lft.to/lastmile_qr_scan", "android": "https://dc.lft.to/lastmile_qr_scan"}, "lon": -77.02760383333333, "type": "electric_scooter", "fusion_lat": 0.0, "lat": 38.89194116666667, "name": "e6096874b0c7770bef39f5329a272880", "fusion_lon": 0.0, "bike_id": "e6096874b0c7770bef39f5329a272880", "is_disabled": 0, "is_reserved": 0}, {"rental_uris": {"ios": "https://dc.lft.to/lastmile_qr_scan", "android": "https://dc.lft.to/lastmile_qr_scan"}, "lon": -77.0393225, "type": "electric_scooter", "fusion_lat": 0.0, "lat": 38.9174675, "name": "2cb4f4ea2d5713dc4d179aaa2b1727b2", "fusion_lon": 0.0, "bike_id": "2cb4f4ea2d5713dc4d179aaa2b1727b2", "is_disabled": 0, "is_reserved": 0}, {"rental_uris": {"ios": "https://dc.lft.to/lastmile_qr_scan", "android": "https://dc.lft.to/lastmile_qr_scan"}, "lon": -77.02285666666667, "type": "electric_scooter", "fusion_lat": 0.0, "lat": 38.9085725, "name": "095f05a7dc16af4f04ceac0f12781fe0", "fusion_lon": 0.0, "bike_id": "095f05a7dc16af4f04ceac0f12781fe0", "is_disabled": 0, "is_reserved": 0}, {"rental_uris": {"ios": "https://dc.lft.to/lastmile_qr_scan", "android": "https://dc.lft.to/lastmile_qr_scan"}, "lon": -77.04873333333333, "type": "electric_scooter", "fusion_lat": 0.0, "lat": 38.91237683333333, "name": "0f2a6c1ef24d46fcb169a9d20b559e1b", "fusion_lon": 0.0, "bike_id": "0f2a6c1ef24d46fcb169a9d20b559e1b", "is_disabled": 0, "is_reserved": 0}, {"rental_uris": {"ios": "https://dc.lft.to/lastmile_qr_scan", "android": "https://dc.lft.to/lastmile_qr_scan"}, "lon": -76.904412, "type": "electric_bike", "fusion_lat": 0.0, "lat": 38.89770133333333, "name": "33161ce0dd0285e3aa5f5679e26f00ac", "fusion_lon": 0.0, "bike_id": "33161ce0dd0285e3aa5f5679e26f00ac", "is_disabled": 0, "is_reserved": 0}, {"rental_uris": {"ios": "https://dc.lft.to/lastmile_qr_scan", "android": "https://dc.lft.to/lastmile_qr_scan"}, "lon": -77.03592933333333, "type": "electric_scooter", "fusion_lat": 0.0, "lat": 38.90231083333333, "name": "0ad8ad46ec6cc26e3a2ce9ae1cbcdaf8", "fusion_lon": 0.0, "bike_id": "0ad8ad46ec6cc26e3a2ce9ae1cbcdaf8", "is_disabled": 0, "is_reserved": 0}, {"rental_uris": {"ios": "https://dc.lft.to/lastmile_qr_scan", "android": "https://dc.lft.to/lastmile_qr_scan"}, "lon": -77.03355866666666, "type": "electric_scooter", "fusion_lat": 0.0, "lat": 38.927518666666664, "name": "ae7b7d9db9918274365c2f5b35523ff4", "fusion_lon": 0.0, "bike_id": "ae7b7d9db9918274365c2f5b35523ff4", "is_disabled": 0, "is_reserved": 0}, {"rental_uris": {"ios": "https://dc.lft.to/lastmile_qr_scan", "android": "https://dc.lft.to/lastmile_qr_scan"}, "lon": -77.01213066666666, "type": "electric_scooter", "fusion_lat": 0.0, "lat": 38.91519616666667, "name": "858d3f923adc5f89f844ecb10207dfca", "fusion_lon": 0.0, "bike_id": "858d3f923adc5f89f844ecb10207dfca", "is_disabled": 0, "is_reserved": 0}, {"rental_uris": {"ios": "https://dc.lft.to/lastmile_qr_scan", "android": "https://dc.lft.to/lastmile_qr_scan"}, "lon": -77.03201066666666, "type": "electric_scooter", "fusion_lat": 0.0, "lat": 38.90393, "name": "1de210ac98441d58689ed7ddbf1c8c6e", "fusion_lon": 0.0, "bike_id": "1de210ac98441d58689ed7ddbf1c8c6e", "is_disabled": 0, "is_reserved": 0}, {"rental_uris": {"ios": "https://dc.lft.to/lastmile_qr_scan", "android": "https://dc.lft.to/lastmile_qr_scan"}, "lon": -77.02616783333333, "type": "electric_scooter", "fusion_lat": 0.0, "lat": 38.91990883333333, "name": "42d9f1b9b698be7db7531903b284efc3", "fusion_lon": 0.0, "bike_id": "42d9f1b9b698be7db7531903b284efc3", "is_disabled": 0, "is_reserved": 0}, {"rental_uris": {"ios": "https://dc.lft.to/lastmile_qr_scan", "android": "https://dc.lft.to/lastmile_qr_scan"}, "lon": -77.02639883333333, "type": "electric_scooter", "fusion_lat": 0.0, "lat": 38.8921905, "name": "6caeb0c7c292b22369414c44933e4160", "fusion_lon": 0.0, "bike_id": "6caeb0c7c292b22369414c44933e4160", "is_disabled": 0, "is_reserved": 0}, {"rental_uris": {"ios": "https://dc.lft.to/lastmile_qr_scan", "android": "https://dc.lft.to/lastmile_qr_scan"}, "lon": -76.99636916666667, "type": "electric_scooter", "fusion_lat": 0.0, "lat": 38.8845175, "name": "85fc9ca6e6ae5df196c11e12521eef02", "fusion_lon": 0.0, "bike_id": "85fc9ca6e6ae5df196c11e12521eef02", "is_disabled": 0, "is_reserved": 0}, {"rental_uris": {"ios": "https://dc.lft.to/lastmile_qr_scan", "android": "https://dc.lft.to/lastmile_qr_scan"}, "lon": -76.99071833333333, "type": "electric_scooter", "fusion_lat": 0.0, "lat": 38.86362, "name": "b9c24c137cd00bc8a81b13acb0440cc8", "fusion_lon": 0.0, "bike_id": "b9c24c137cd00bc8a81b13acb0440cc8", "is_disabled": 0, "is_reserved": 0}, {"rental_uris": {"ios": "https://dc.lft.to/lastmile_qr_scan", "android": "https://dc.lft.to/lastmile_qr_scan"}, "lon": -77.02658166666667, "type": "electric_scooter", "fusion_lat": 0.0, "lat": 38.89212633333333, "name": "b10a5d619d51328cd218c1a13918e9a6", "fusion_lon": 0.0, "bike_id": "b10a5d619d51328cd218c1a13918e9a6", "is_disabled": 0, "is_reserved": 0}, {"rental_uris": {"ios": "https://dc.lft.to/lastmile_qr_scan", "android": "https://dc.lft.to/lastmile_qr_scan"}, "lon": -77.05509666666667, "type": "electric_scooter", "fusion_lat": 0.0, "lat": 38.92980883333333, "name": "223ab0890ebabe711e42b05a1d5451ed", "fusion_lon": 0.0, "bike_id": "223ab0890ebabe711e42b05a1d5451ed", "is_disabled": 0, "is_reserved": 0}, {"rental_uris": {"ios": "https://dc.lft.to/lastmile_qr_scan", "android": "https://dc.lft.to/lastmile_qr_scan"}, "lon": -77.04819433333333, "type": "electric_scooter", "fusion_lat": 0.0, "lat": 38.913345666666665, "name": "27f30b85edb637491d9dd97f459d4c83", "fusion_lon": 0.0, "bike_id": "27f30b85edb637491d9dd97f459d4c83", "is_disabled": 0, "is_reserved": 0}, {"rental_uris": {"ios": "https://dc.lft.to/lastmile_qr_scan", "android": "https://dc.lft.to/lastmile_qr_scan"}, "lon": -76.9081665, "type": "electric_bike", "fusion_lat": 0.0, "lat": 38.994535666666664, "name": "f847de800ff495c1c18ce0c586e5c9af", "fusion_lon": 0.0, "bike_id": "f847de800ff495c1c18ce0c586e5c9af", "is_disabled": 0, "is_reserved": 0}, {"rental_uris": {"ios": "https://dc.lft.to/lastmile_qr_scan", "android": "https://dc.lft.to/lastmile_qr_scan"}, "lon": -77.041709, "type": "electric_scooter", "fusion_lat": 0.0, "lat": 38.9056165, "name": "dfd60b1e7e1d28f78a09d9b28b33c8c4", "fusion_lon": 0.0, "bike_id": "dfd60b1e7e1d28f78a09d9b28b33c8c4", "is_disabled": 0, "is_reserved": 0}, {"rental_uris": {"ios": "https://dc.lft.to/lastmile_qr_scan", "android": "https://dc.lft.to/lastmile_qr_scan"}, "lon": -77.06534183333333, "type": "electric_scooter", "fusion_lat": 0.0, "lat": 38.93471916666667, "name": "fd207d7c891e4f0d70c76ce7c298720f", "fusion_lon": 0.0, "bike_id": "fd207d7c891e4f0d70c76ce7c298720f", "is_disabled": 0, "is_reserved": 0}, {"rental_uris": {"ios": "https://dc.lft.to/lastmile_qr_scan", "android": "https://dc.lft.to/lastmile_qr_scan"}, "lon": -77.0956205, "type": "electric_bike", "fusion_lat": 0.0, "lat": 38.91701533333333, "name": "f129f3b6160b1b61eb1d8b0fc3e44dd2", "fusion_lon": 0.0, "bike_id": "f129f3b6160b1b61eb1d8b0fc3e44dd2", "is_disabled": 0, "is_reserved": 0}, {"rental_uris": {"ios": "https://dc.lft.to/lastmile_qr_scan", "android": "https://dc.lft.to/lastmile_qr_scan"}, "lon": -77.0299045, "type": "electric_scooter", "fusion_lat": 0.0, "lat": 38.91551966666667, "name": "49e86c227f8a1caed083c0dfaff7526d", "fusion_lon": 0.0, "bike_id": "49e86c227f8a1caed083c0dfaff7526d", "is_disabled": 0, "is_reserved": 0}, {"rental_uris": {"ios": "https://dc.lft.to/lastmile_qr_scan", "android": "https://dc.lft.to/lastmile_qr_scan"}, "lon": -77.0321735, "type": "electric_scooter", "fusion_lat": 0.0, "lat": 38.91464216666667, "name": "daecd1dd347d9de5e74916ce7b1bcfd7", "fusion_lon": 0.0, "bike_id": "daecd1dd347d9de5e74916ce7b1bcfd7", "is_disabled": 0, "is_reserved": 0}, {"rental_uris": {"ios": "https://dc.lft.to/lastmile_qr_scan", "android": "https://dc.lft.to/lastmile_qr_scan"}, "lon": -77.02719216666667, "type": "electric_scooter", "fusion_lat": 0.0, "lat": 38.91813333333333, "name": "fb7ed83851f55de2a21b4a5e42356269", "fusion_lon": 0.0, "bike_id": "fb7ed83851f55de2a21b4a5e42356269", "is_disabled": 0, "is_reserved": 0}, {"rental_uris": {"ios": "https://dc.lft.to/lastmile_qr_scan", "android": "https://dc.lft.to/lastmile_qr_scan"}, "lon": -77.03474533333333, "type": "electric_scooter", "fusion_lat": 0.0, "lat": 38.93441633333333, "name": "2537ece76575460ad2e7605dc447aadc", "fusion_lon": 0.0, "bike_id": "2537ece76575460ad2e7605dc447aadc", "is_disabled": 0, "is_reserved": 0}, {"rental_uris": {"ios": "https://dc.lft.to/lastmile_qr_scan", "android": "https://dc.lft.to/lastmile_qr_scan"}, "lon": -77.02796733333334, "type": "electric_scooter", "fusion_lat": 0.0, "lat": 38.92968833333333, "name": "7b820fc07ed2d40cd33e5185f69b9ddf", "fusion_lon": 0.0, "bike_id": "7b820fc07ed2d40cd33e5185f69b9ddf", "is_disabled": 0, "is_reserved": 0}, {"rental_uris": {"ios": "https://dc.lft.to/lastmile_qr_scan", "android": "https://dc.lft.to/lastmile_qr_scan"}, "lon": -77.0405085, "type": "electric_scooter", "fusion_lat": 0.0, "lat": 38.906046333333336, "name": "64e9ed19204f51075f1d99af45ab1f5a", "fusion_lon": 0.0, "bike_id": "64e9ed19204f51075f1d99af45ab1f5a", "is_disabled": 0, "is_reserved": 0}, {"rental_uris": {"ios": "https://dc.lft.to/lastmile_qr_scan", "android": "https://dc.lft.to/lastmile_qr_scan"}, "lon": -76.9984785, "type": "electric_scooter", "fusion_lat": 0.0, "lat": 38.900471333333336, "name": "a54354cc4785b951ae947389a94f48a2", "fusion_lon": 0.0, "bike_id": "a54354cc4785b951ae947389a94f48a2", "is_disabled": 0, "is_reserved": 0}, {"rental_uris": {"ios": "https://dc.lft.to/lastmile_qr_scan", "android": "https://dc.lft.to/lastmile_qr_scan"}, "lon": -76.99000166666667, "type": "electric_scooter", "fusion_lat": 0.0, "lat": 38.9038635, "name": "bb6413b13bfada86341724785f2db9de", "fusion_lon": 0.0, "bike_id": "bb6413b13bfada86341724785f2db9de", "is_disabled": 0, "is_reserved": 0}, {"rental_uris": {"ios": "https://dc.lft.to/lastmile_qr_scan", "android": "https://dc.lft.to/lastmile_qr_scan"}, "lon": -77.01020216666667, "type": "electric_scooter", "fusion_lat": 0.0, "lat": 38.918074, "name": "2a271a8253d39de45fe6997682779de5", "fusion_lon": 0.0, "bike_id": "2a271a8253d39de45fe6997682779de5", "is_disabled": 0, "is_reserved": 0}, {"rental_uris": {"ios": "https://dc.lft.to/lastmile_qr_scan", "android": "https://dc.lft.to/lastmile_qr_scan"}, "lon": -77.04288666666666, "type": "electric_scooter", "fusion_lat": 0.0, "lat": 38.90644666666667, "name": "20f311d2a0fcd4effcc63a63bf6cab27", "fusion_lon": 0.0, "bike_id": "20f311d2a0fcd4effcc63a63bf6cab27", "is_disabled": 0, "is_reserved": 0}, {"rental_uris": {"ios": "https://dc.lft.to/lastmile_qr_scan", "android": "https://dc.lft.to/lastmile_qr_scan"}, "lon": -76.99555433333333, "type": "electric_scooter", "fusion_lat": 0.0, "lat": 38.86233816666667, "name": "89e0abe8c599f4b38edb74d732b09b76", "fusion_lon": 0.0, "bike_id": "89e0abe8c599f4b38edb74d732b09b76", "is_disabled": 0, "is_reserved": 0}, {"rental_uris": {"ios": "https://dc.lft.to/lastmile_qr_scan", "android": "https://dc.lft.to/lastmile_qr_scan"}, "lon": -76.98311866666667, "type": "electric_scooter", "fusion_lat": 0.0, "lat": 38.899688, "name": "65c4134a966ac20e5cf258115800763e", "fusion_lon": 0.0, "bike_id": "65c4134a966ac20e5cf258115800763e", "is_disabled": 0, "is_reserved": 0}, {"rental_uris": {"ios": "https://dc.lft.to/lastmile_qr_scan", "android": "https://dc.lft.to/lastmile_qr_scan"}, "lon": -77.01989633333334, "type": "electric_scooter", "fusion_lat": 0.0, "lat": 38.937766333333336, "name": "4e3d17a6083ea93bbd1773db376b54e9", "fusion_lon": 0.0, "bike_id": "4e3d17a6083ea93bbd1773db376b54e9", "is_disabled": 0, "is_reserved": 0}, {"rental_uris": {"ios": "https://dc.lft.to/lastmile_qr_scan", "android": "https://dc.lft.to/lastmile_qr_scan"}, "lon": -77.044706, "type": "electric_scooter", "fusion_lat": 0.0, "lat": 38.900785166666665, "name": "5fef992a704944e289f61e85099f9787", "fusion_lon": 0.0, "bike_id": "5fef992a704944e289f61e85099f9787", "is_disabled": 0, "is_reserved": 0}, {"rental_uris": {"ios": "https://dc.lft.to/lastmile_qr_scan", "android": "https://dc.lft.to/lastmile_qr_scan"}, "lon": -77.0033435, "type": "electric_scooter", "fusion_lat": 0.0, "lat": 38.87496616666667, "name": "edabc28259c7b316ddbb32350496c33f", "fusion_lon": 0.0, "bike_id": "edabc28259c7b316ddbb32350496c33f", "is_disabled": 0, "is_reserved": 0}, {"rental_uris": {"ios": "https://dc.lft.to/lastmile_qr_scan", "android": "https://dc.lft.to/lastmile_qr_scan"}, "lon": -77.02740633333333, "type": "electric_scooter", "fusion_lat": 0.0, "lat": 38.894998666666666, "name": "742b149f4c13af136e53d63176d2cd1a", "fusion_lon": 0.0, "bike_id": "742b149f4c13af136e53d63176d2cd1a", "is_disabled": 0, "is_reserved": 0}, {"rental_uris": {"ios": "https://dc.lft.to/lastmile_qr_scan", "android": "https://dc.lft.to/lastmile_qr_scan"}, "lon": -77.11315583333334, "type": "electric_bike", "fusion_lat": 0.0, "lat": 38.855620333333334, "name": "8836d60dece4f304948d39be8ff77f9b", "fusion_lon": 0.0, "bike_id": "8836d60dece4f304948d39be8ff77f9b", "is_disabled": 0, "is_reserved": 0}, {"rental_uris": {"ios": "https://dc.lft.to/lastmile_qr_scan", "android": "https://dc.lft.to/lastmile_qr_scan"}, "lon": -77.024976, "type": "electric_scooter", "fusion_lat": 0.0, "lat": 38.89729616666666, "name": "0fd7bde17fb8645dd98fdf5db21cf2e6", "fusion_lon": 0.0, "bike_id": "0fd7bde17fb8645dd98fdf5db21cf2e6", "is_disabled": 0, "is_reserved": 0}, {"rental_uris": {"ios": "https://dc.lft.to/lastmile_qr_scan", "android": "https://dc.lft.to/lastmile_qr_scan"}, "lon": -76.9883445, "type": "electric_scooter", "fusion_lat": 0.0, "lat": 38.88023033333333, "name": "8a2da8364c7833798a14419ef1e1679f", "fusion_lon": 0.0, "bike_id": "8a2da8364c7833798a14419ef1e1679f", "is_disabled": 0, "is_reserved": 0}, {"rental_uris": {"ios": "https://dc.lft.to/lastmile_qr_scan", "android": "https://dc.lft.to/lastmile_qr_scan"}, "lon": -77.02416966666667, "type": "electric_scooter", "fusion_lat": 0.0, "lat": 38.884707166666665, "name": "4efa117aab6af1dfbd7852f58f568c55", "fusion_lon": 0.0, "bike_id": "4efa117aab6af1dfbd7852f58f568c55", "is_disabled": 0, "is_reserved": 0}, {"rental_uris": {"ios": "https://dc.lft.to/lastmile_qr_scan", "android": "https://dc.lft.to/lastmile_qr_scan"}, "lon": -77.03851466666667, "type": "electric_scooter", "fusion_lat": 0.0, "lat": 38.931255166666666, "name": "0097728097213b92d9f7630b972a5698", "fusion_lon": 0.0, "bike_id": "0097728097213b92d9f7630b972a5698", "is_disabled": 0, "is_reserved": 0}, {"rental_uris": {"ios": "https://dc.lft.to/lastmile_qr_scan", "android": "https://dc.lft.to/lastmile_qr_scan"}, "lon": -76.99537133333334, "type": "electric_bike", "fusion_lat": 0.0, "lat": 38.84740716666667, "name": "76774ab622e59097e430ad36004c7d39", "fusion_lon": 0.0, "bike_id": "76774ab622e59097e430ad36004c7d39", "is_disabled": 0, "is_reserved": 0}, {"rental_uris": {"ios": "https://dc.lft.to/lastmile_qr_scan", "android": "https://dc.lft.to/lastmile_qr_scan"}, "lon": -77.02404333333334, "type": "electric_scooter", "fusion_lat": 0.0, "lat": 38.919592333333334, "name": "84816b8a187b825ebf9ea12a6e857d3b", "fusion_lon": 0.0, "bike_id": "84816b8a187b825ebf9ea12a6e857d3b", "is_disabled": 0, "is_reserved": 0}, {"rental_uris": {"ios": "https://dc.lft.to/lastmile_qr_scan", "android": "https://dc.lft.to/lastmile_qr_scan"}, "lon": -77.0336005, "type": "electric_scooter", "fusion_lat": 0.0, "lat": 38.899677, "name": "7d7f438449a5c3f85152413e9309429a", "fusion_lon": 0.0, "bike_id": "7d7f438449a5c3f85152413e9309429a", "is_disabled": 0, "is_reserved": 0}, {"rental_uris": {"ios": "https://dc.lft.to/lastmile_qr_scan", "android": "https://dc.lft.to/lastmile_qr_scan"}, "lon": -77.036642, "type": "electric_scooter", "fusion_lat": 0.0, "lat": 38.91811716666667, "name": "08c2971b611eddc9834db1b9d66ab477", "fusion_lon": 0.0, "bike_id": "08c2971b611eddc9834db1b9d66ab477", "is_disabled": 0, "is_reserved": 0}, {"rental_uris": {"ios": "https://dc.lft.to/lastmile_qr_scan", "android": "https://dc.lft.to/lastmile_qr_scan"}, "lon": -77.05529266666667, "type": "electric_scooter", "fusion_lat": 0.0, "lat": 38.8993235, "name": "23f49864988cb60b4fa5e25fa1b05698", "fusion_lon": 0.0, "bike_id": "23f49864988cb60b4fa5e25fa1b05698", "is_disabled": 0, "is_reserved": 0}, {"rental_uris": {"ios": "https://dc.lft.to/lastmile_qr_scan", "android": "https://dc.lft.to/lastmile_qr_scan"}, "lon": -77.0706325, "type": "electric_scooter", "fusion_lat": 0.0, "lat": 38.90109483333333, "name": "12226c22d69b9b757061435ae7a820ce", "fusion_lon": 0.0, "bike_id": "12226c22d69b9b757061435ae7a820ce", "is_disabled": 0, "is_reserved": 0}, {"rental_uris": {"ios": "https://dc.lft.to/lastmile_qr_scan", "android": "https://dc.lft.to/lastmile_qr_scan"}, "lon": -77.03207433333333, "type": "electric_scooter", "fusion_lat": 0.0, "lat": 38.9257945, "name": "7d0c2a2d7df9376f8b19c63bb6577405", "fusion_lon": 0.0, "bike_id": "7d0c2a2d7df9376f8b19c63bb6577405", "is_disabled": 0, "is_reserved": 0}, {"rental_uris": {"ios": "https://dc.lft.to/lastmile_qr_scan", "android": "https://dc.lft.to/lastmile_qr_scan"}, "lon": -77.03477566666666, "type": "electric_scooter", "fusion_lat": 0.0, "lat": 38.90701833333333, "name": "77d92f0f5b2ccfccbbf67304a22a2843", "fusion_lon": 0.0, "bike_id": "77d92f0f5b2ccfccbbf67304a22a2843", "is_disabled": 0, "is_reserved": 0}, {"rental_uris": {"ios": "https://dc.lft.to/lastmile_qr_scan", "android": "https://dc.lft.to/lastmile_qr_scan"}, "lon": -77.02645983333333, "type": "electric_scooter", "fusion_lat": 0.0, "lat": 38.91562483333333, "name": "c1c651f789a897ede9c981a7838732b2", "fusion_lon": 0.0, "bike_id": "c1c651f789a897ede9c981a7838732b2", "is_disabled": 0, "is_reserved": 0}, {"rental_uris": {"ios": "https://dc.lft.to/lastmile_qr_scan", "android": "https://dc.lft.to/lastmile_qr_scan"}, "lon": -77.01757283333333, "type": "electric_scooter", "fusion_lat": 0.0, "lat": 38.90261, "name": "52e35a5c26423d8e1c9d2b1b584b8d34", "fusion_lon": 0.0, "bike_id": "52e35a5c26423d8e1c9d2b1b584b8d34", "is_disabled": 0, "is_reserved": 0}, {"rental_uris": {"ios": "https://dc.lft.to/lastmile_qr_scan", "android": "https://dc.lft.to/lastmile_qr_scan"}, "lon": -77.00602683333334, "type": "electric_scooter", "fusion_lat": 0.0, "lat": 38.90583866666667, "name": "e7368c95cb9283cb69574ace610eea1e", "fusion_lon": 0.0, "bike_id": "e7368c95cb9283cb69574ace610eea1e", "is_disabled": 0, "is_reserved": 0}, {"rental_uris": {"ios": "https://dc.lft.to/lastmile_qr_scan", "android": "https://dc.lft.to/lastmile_qr_scan"}, "lon": -77.00093016666666, "type": "electric_scooter", "fusion_lat": 0.0, "lat": 38.9075445, "name": "b21f102d5552335de70d7207fc11e1fa", "fusion_lon": 0.0, "bike_id": "b21f102d5552335de70d7207fc11e1fa", "is_disabled": 0, "is_reserved": 0}, {"rental_uris": {"ios": "https://dc.lft.to/lastmile_qr_scan", "android": "https://dc.lft.to/lastmile_qr_scan"}, "lon": -77.05335033333333, "type": "electric_scooter", "fusion_lat": 0.0, "lat": 38.905914333333335, "name": "d20ebceab4efb2eaa3d4725ba80adc4c", "fusion_lon": 0.0, "bike_id": "d20ebceab4efb2eaa3d4725ba80adc4c", "is_disabled": 0, "is_reserved": 0}, {"rental_uris": {"ios": "https://dc.lft.to/lastmile_qr_scan", "android": "https://dc.lft.to/lastmile_qr_scan"}, "lon": -76.999805, "type": "electric_scooter", "fusion_lat": 0.0, "lat": 38.838378, "name": "3af3b0a9d46d0249c0fa23e6a698b1f5", "fusion_lon": 0.0, "bike_id": "3af3b0a9d46d0249c0fa23e6a698b1f5", "is_disabled": 0, "is_reserved": 0}, {"rental_uris": {"ios": "https://dc.lft.to/lastmile_qr_scan", "android": "https://dc.lft.to/lastmile_qr_scan"}, "lon": -77.03421383333334, "type": "electric_scooter", "fusion_lat": 0.0, "lat": 38.91923583333333, "name": "1eaa18bd6a195ec52bcc1e55de610764", "fusion_lon": 0.0, "bike_id": "1eaa18bd6a195ec52bcc1e55de610764", "is_disabled": 0, "is_reserved": 0}, {"rental_uris": {"ios": "https://dc.lft.to/lastmile_qr_scan", "android": "https://dc.lft.to/lastmile_qr_scan"}, "lon": -77.03457883333333, "type": "electric_scooter", "fusion_lat": 0.0, "lat": 38.90901083333333, "name": "c52b75129bfa45919fb65bb0d972a1a0", "fusion_lon": 0.0, "bike_id": "c52b75129bfa45919fb65bb0d972a1a0", "is_disabled": 0, "is_reserved": 0}, {"rental_uris": {"ios": "https://dc.lft.to/lastmile_qr_scan", "android": "https://dc.lft.to/lastmile_qr_scan"}, "lon": -77.03125183333333, "type": "electric_scooter", "fusion_lat": 0.0, "lat": 38.91694733333333, "name": "852b6955a8fde55efb171e127a98e97f", "fusion_lon": 0.0, "bike_id": "852b6955a8fde55efb171e127a98e97f", "is_disabled": 0, "is_reserved": 0}, {"rental_uris": {"ios": "https://dc.lft.to/lastmile_qr_scan", "android": "https://dc.lft.to/lastmile_qr_scan"}, "lon": -77.039808, "type": "electric_scooter", "fusion_lat": 0.0, "lat": 38.89871766666667, "name": "6d7f64256e3c42659200b445db41380f", "fusion_lon": 0.0, "bike_id": "6d7f64256e3c42659200b445db41380f", "is_disabled": 0, "is_reserved": 0}, {"rental_uris": {"ios": "https://dc.lft.to/lastmile_qr_scan", "android": "https://dc.lft.to/lastmile_qr_scan"}, "lon": -77.044259, "type": "electric_scooter", "fusion_lat": 0.0, "lat": 38.92125683333333, "name": "268d5f3d6fcc9b08f97a524f56baabb2", "fusion_lon": 0.0, "bike_id": "268d5f3d6fcc9b08f97a524f56baabb2", "is_disabled": 0, "is_reserved": 0}, {"rental_uris": {"ios": "https://dc.lft.to/lastmile_qr_scan", "android": "https://dc.lft.to/lastmile_qr_scan"}, "lon": -77.112194, "type": "electric_bike", "fusion_lat": 0.0, "lat": 38.8287045, "name": "0beefa8be3180d2da2e623efd8b4dd4f", "fusion_lon": 0.0, "bike_id": "0beefa8be3180d2da2e623efd8b4dd4f", "is_disabled": 0, "is_reserved": 0}, {"rental_uris": {"ios": "https://dc.lft.to/lastmile_qr_scan", "android": "https://dc.lft.to/lastmile_qr_scan"}, "lon": -76.99179283333334, "type": "electric_scooter", "fusion_lat": 0.0, "lat": 38.904551, "name": "13ee1ca65397990c027eb14f63c79a19", "fusion_lon": 0.0, "bike_id": "13ee1ca65397990c027eb14f63c79a19", "is_disabled": 0, "is_reserved": 0}, {"rental_uris": {"ios": "https://dc.lft.to/lastmile_qr_scan", "android": "https://dc.lft.to/lastmile_qr_scan"}, "lon": -76.99953066666667, "type": "electric_scooter", "fusion_lat": 0.0, "lat": 38.842892666666664, "name": "c3499311f243402e40dac12b465bfbef", "fusion_lon": 0.0, "bike_id": "c3499311f243402e40dac12b465bfbef", "is_disabled": 0, "is_reserved": 0}, {"rental_uris": {"ios": "https://dc.lft.to/lastmile_qr_scan", "android": "https://dc.lft.to/lastmile_qr_scan"}, "lon": -77.02083316666666, "type": "electric_scooter", "fusion_lat": 0.0, "lat": 38.88185633333333, "name": "e5e28110e4f64725c2cda5de38df1fcf", "fusion_lon": 0.0, "bike_id": "e5e28110e4f64725c2cda5de38df1fcf", "is_disabled": 0, "is_reserved": 0}, {"rental_uris": {"ios": "https://dc.lft.to/lastmile_qr_scan", "android": "https://dc.lft.to/lastmile_qr_scan"}, "lon": -77.03209766666667, "type": "electric_scooter", "fusion_lat": 0.0, "lat": 38.91756866666667, "name": "1431363675ac863742e5e0e72c838426", "fusion_lon": 0.0, "bike_id": "1431363675ac863742e5e0e72c838426", "is_disabled": 0, "is_reserved": 0}, {"rental_uris": {"ios": "https://dc.lft.to/lastmile_qr_scan", "android": "https://dc.lft.to/lastmile_qr_scan"}, "lon": -77.04568233333333, "type": "electric_scooter", "fusion_lat": 0.0, "lat": 38.913638666666664, "name": "be8022e45409a0e17aaeb1eca2a26555", "fusion_lon": 0.0, "bike_id": "be8022e45409a0e17aaeb1eca2a26555", "is_disabled": 0, "is_reserved": 0}, {"rental_uris": {"ios": "https://dc.lft.to/lastmile_qr_scan", "android": "https://dc.lft.to/lastmile_qr_scan"}, "lon": -76.98838933333333, "type": "electric_scooter", "fusion_lat": 0.0, "lat": 38.894656833333336, "name": "e6e488ef2fa421e7de89dc961bfd5fba", "fusion_lon": 0.0, "bike_id": "e6e488ef2fa421e7de89dc961bfd5fba", "is_disabled": 0, "is_reserved": 0}, {"rental_uris": {"ios": "https://dc.lft.to/lastmile_qr_scan", "android": "https://dc.lft.to/lastmile_qr_scan"}, "lon": -77.04541833333333, "type": "electric_scooter", "fusion_lat": 0.0, "lat": 38.91792066666667, "name": "314d37ce23386f30148d66cdc127106e", "fusion_lon": 0.0, "bike_id": "314d37ce23386f30148d66cdc127106e", "is_disabled": 0, "is_reserved": 0}, {"rental_uris": {"ios": "https://dc.lft.to/lastmile_qr_scan", "android": "https://dc.lft.to/lastmile_qr_scan"}, "lon": -77.0263615, "type": "electric_scooter", "fusion_lat": 0.0, "lat": 38.897268, "name": "3949333f2cd625d1f0d5dc4df8f66ce4", "fusion_lon": 0.0, "bike_id": "3949333f2cd625d1f0d5dc4df8f66ce4", "is_disabled": 0, "is_reserved": 0}, {"rental_uris": {"ios": "https://dc.lft.to/lastmile_qr_scan", "android": "https://dc.lft.to/lastmile_qr_scan"}, "lon": -77.04301066666666, "type": "electric_scooter", "fusion_lat": 0.0, "lat": 38.923306, "name": "c8e2206dd5586f0f4e13b08799ac5ddd", "fusion_lon": 0.0, "bike_id": "c8e2206dd5586f0f4e13b08799ac5ddd", "is_disabled": 0, "is_reserved": 0}, {"rental_uris": {"ios": "https://dc.lft.to/lastmile_qr_scan", "android": "https://dc.lft.to/lastmile_qr_scan"}, "lon": -77.01702, "type": "electric_scooter", "fusion_lat": 0.0, "lat": 38.92011983333333, "name": "c80a3856ff0b3e551a149149dfb23baa", "fusion_lon": 0.0, "bike_id": "c80a3856ff0b3e551a149149dfb23baa", "is_disabled": 0, "is_reserved": 0}, {"rental_uris": {"ios": "https://dc.lft.to/lastmile_qr_scan", "android": "https://dc.lft.to/lastmile_qr_scan"}, "lon": -77.034452, "type": "electric_scooter", "fusion_lat": 0.0, "lat": 38.91776483333334, "name": "cf0e2d9d14f10541dec58c676b8a37cd", "fusion_lon": 0.0, "bike_id": "cf0e2d9d14f10541dec58c676b8a37cd", "is_disabled": 0, "is_reserved": 0}, {"rental_uris": {"ios": "https://dc.lft.to/lastmile_qr_scan", "android": "https://dc.lft.to/lastmile_qr_scan"}, "lon": -77.013, "type": "electric_scooter", "fusion_lat": 0.0, "lat": 38.9005, "name": "b5f90cea3d6d8d9bd4f6d03859ef54a9", "fusion_lon": 0.0, "bike_id": "b5f90cea3d6d8d9bd4f6d03859ef54a9", "is_disabled": 0, "is_reserved": 0}, {"rental_uris": {"ios": "https://dc.lft.to/lastmile_qr_scan", "android": "https://dc.lft.to/lastmile_qr_scan"}, "lon": -77.03534283333333, "type": "electric_scooter", "fusion_lat": 0.0, "lat": 38.924172666666664, "name": "2c634f85695b84d600c3bf199442c05d", "fusion_lon": 0.0, "bike_id": "2c634f85695b84d600c3bf199442c05d", "is_disabled": 0, "is_reserved": 0}, {"rental_uris": {"ios": "https://dc.lft.to/lastmile_qr_scan", "android": "https://dc.lft.to/lastmile_qr_scan"}, "lon": -77.02949616666666, "type": "electric_scooter", "fusion_lat": 0.0, "lat": 38.903906166666665, "name": "a3063f4747082c62ba70780ec6668702", "fusion_lon": 0.0, "bike_id": "a3063f4747082c62ba70780ec6668702", "is_disabled": 0, "is_reserved": 0}, {"rental_uris": {"ios": "https://dc.lft.to/lastmile_qr_scan", "android": "https://dc.lft.to/lastmile_qr_scan"}, "lon": -76.99802183333334, "type": "electric_bike", "fusion_lat": 0.0, "lat": 38.9085285, "name": "56aca37a2a06731dd467d685e55a16aa", "fusion_lon": 0.0, "bike_id": "56aca37a2a06731dd467d685e55a16aa", "is_disabled": 0, "is_reserved": 0}, {"rental_uris": {"ios": "https://dc.lft.to/lastmile_qr_scan", "android": "https://dc.lft.to/lastmile_qr_scan"}, "lon": -77.0235145, "type": "electric_scooter", "fusion_lat": 0.0, "lat": 38.93530883333333, "name": "ad9e80e3adae9355f838e026592ba50c", "fusion_lon": 0.0, "bike_id": "ad9e80e3adae9355f838e026592ba50c", "is_disabled": 0, "is_reserved": 0}, {"rental_uris": {"ios": "https://dc.lft.to/lastmile_qr_scan", "android": "https://dc.lft.to/lastmile_qr_scan"}, "lon": -77.14989016666667, "type": "electric_bike", "fusion_lat": 0.0, "lat": 39.09456983333333, "name": "b3ce8a886ef7ca93ecc2e05fb92f1b65", "fusion_lon": 0.0, "bike_id": "b3ce8a886ef7ca93ecc2e05fb92f1b65", "is_disabled": 0, "is_reserved": 0}, {"rental_uris": {"ios": "https://dc.lft.to/lastmile_qr_scan", "android": "https://dc.lft.to/lastmile_qr_scan"}, "lon": -76.96849533333334, "type": "electric_scooter", "fusion_lat": 0.0, "lat": 38.87466516666667, "name": "d57a85be3da0fc19ca83a0b8ea2c305b", "fusion_lon": 0.0, "bike_id": "d57a85be3da0fc19ca83a0b8ea2c305b", "is_disabled": 0, "is_reserved": 0}, {"rental_uris": {"ios": "https://dc.lft.to/lastmile_qr_scan", "android": "https://dc.lft.to/lastmile_qr_scan"}, "lon": -77.1991025, "type": "electric_bike", "fusion_lat": 0.0, "lat": 38.875261, "name": "956b1e8fc93bb005eef051df3587fce4", "fusion_lon": 0.0, "bike_id": "956b1e8fc93bb005eef051df3587fce4", "is_disabled": 0, "is_reserved": 0}, {"rental_uris": {"ios": "https://dc.lft.to/lastmile_qr_scan", "android": "https://dc.lft.to/lastmile_qr_scan"}, "lon": -77.03571016666666, "type": "electric_scooter", "fusion_lat": 0.0, "lat": 38.916312833333336, "name": "28784deddb1d49c5529df31923ec7f18", "fusion_lon": 0.0, "bike_id": "28784deddb1d49c5529df31923ec7f18", "is_disabled": 0, "is_reserved": 0}, {"rental_uris": {"ios": "https://dc.lft.to/lastmile_qr_scan", "android": "https://dc.lft.to/lastmile_qr_scan"}, "lon": -77.006496, "type": "electric_scooter", "fusion_lat": 0.0, "lat": 38.908621, "name": "000653f87f89217606f1cdaf95fec982", "fusion_lon": 0.0, "bike_id": "000653f87f89217606f1cdaf95fec982", "is_disabled": 0, "is_reserved": 0}, {"rental_uris": {"ios": "https://dc.lft.to/lastmile_qr_scan", "android": "https://dc.lft.to/lastmile_qr_scan"}, "lon": -77.04896583333333, "type": "electric_scooter", "fusion_lat": 0.0, "lat": 38.90399633333333, "name": "1a37dafed5452d3c754a837577bc1a70", "fusion_lon": 0.0, "bike_id": "1a37dafed5452d3c754a837577bc1a70", "is_disabled": 0, "is_reserved": 0}, {"rental_uris": {"ios": "https://dc.lft.to/lastmile_qr_scan", "android": "https://dc.lft.to/lastmile_qr_scan"}, "lon": -77.0418215, "type": "electric_scooter", "fusion_lat": 0.0, "lat": 38.902774, "name": "bfa29131ae6e95d64d28d1858ebc9cc7", "fusion_lon": 0.0, "bike_id": "bfa29131ae6e95d64d28d1858ebc9cc7", "is_disabled": 0, "is_reserved": 0}, {"rental_uris": {"ios": "https://dc.lft.to/lastmile_qr_scan", "android": "https://dc.lft.to/lastmile_qr_scan"}, "lon": -76.93369316666667, "type": "electric_scooter", "fusion_lat": 0.0, "lat": 38.89916016666667, "name": "4d00dcb0072598ccd82a5f0107798e77", "fusion_lon": 0.0, "bike_id": "4d00dcb0072598ccd82a5f0107798e77", "is_disabled": 0, "is_reserved": 0}, {"rental_uris": {"ios": "https://dc.lft.to/lastmile_qr_scan", "android": "https://dc.lft.to/lastmile_qr_scan"}, "lon": -77.025776, "type": "electric_scooter", "fusion_lat": 0.0, "lat": 38.89760583333333, "name": "88890ccf04b725a20e410ef3168cf695", "fusion_lon": 0.0, "bike_id": "88890ccf04b725a20e410ef3168cf695", "is_disabled": 0, "is_reserved": 0}, {"rental_uris": {"ios": "https://dc.lft.to/lastmile_qr_scan", "android": "https://dc.lft.to/lastmile_qr_scan"}, "lon": -77.02166733333334, "type": "electric_bike", "fusion_lat": 0.0, "lat": 38.963691, "name": "be40195440d4ced4a4c689c24c0a38cc", "fusion_lon": 0.0, "bike_id": "be40195440d4ced4a4c689c24c0a38cc", "is_disabled": 0, "is_reserved": 0}, {"rental_uris": {"ios": "https://dc.lft.to/lastmile_qr_scan", "android": "https://dc.lft.to/lastmile_qr_scan"}, "lon": -77.015186, "type": "electric_scooter", "fusion_lat": 0.0, "lat": 38.8726765, "name": "8bc7f0926de0006f756c8d0e22074cec", "fusion_lon": 0.0, "bike_id": "8bc7f0926de0006f756c8d0e22074cec", "is_disabled": 0, "is_reserved": 0}, {"rental_uris": {"ios": "https://dc.lft.to/lastmile_qr_scan", "android": "https://dc.lft.to/lastmile_qr_scan"}, "lon": -77.02425016666666, "type": "electric_scooter", "fusion_lat": 0.0, "lat": 38.905828166666666, "name": "c993656683d66a909d16827596c1377b", "fusion_lon": 0.0, "bike_id": "c993656683d66a909d16827596c1377b", "is_disabled": 0, "is_reserved": 0}, {"rental_uris": {"ios": "https://dc.lft.to/lastmile_qr_scan", "android": "https://dc.lft.to/lastmile_qr_scan"}, "lon": -77.06613016666667, "type": "electric_scooter", "fusion_lat": 0.0, "lat": 38.905268666666665, "name": "2f82ae6fc33abe67425088def8fbb5b3", "fusion_lon": 0.0, "bike_id": "2f82ae6fc33abe67425088def8fbb5b3", "is_disabled": 0, "is_reserved": 0}, {"rental_uris": {"ios": "https://dc.lft.to/lastmile_qr_scan", "android": "https://dc.lft.to/lastmile_qr_scan"}, "lon": -77.02367933333333, "type": "electric_scooter", "fusion_lat": 0.0, "lat": 38.892221166666666, "name": "bed414693e4d8565cabe4be89ba98e5a", "fusion_lon": 0.0, "bike_id": "bed414693e4d8565cabe4be89ba98e5a", "is_disabled": 0, "is_reserved": 0}, {"rental_uris": {"ios": "https://dc.lft.to/lastmile_qr_scan", "android": "https://dc.lft.to/lastmile_qr_scan"}, "lon": -76.99778783333333, "type": "electric_scooter", "fusion_lat": 0.0, "lat": 38.84426233333333, "name": "c8eb40eef9f96887221a89d18e77798d", "fusion_lon": 0.0, "bike_id": "c8eb40eef9f96887221a89d18e77798d", "is_disabled": 0, "is_reserved": 0}, {"rental_uris": {"ios": "https://dc.lft.to/lastmile_qr_scan", "android": "https://dc.lft.to/lastmile_qr_scan"}, "lon": -76.99760066666667, "type": "electric_scooter", "fusion_lat": 0.0, "lat": 38.92191666666667, "name": "cfe303f25424e857968bb013a931d982", "fusion_lon": 0.0, "bike_id": "cfe303f25424e857968bb013a931d982", "is_disabled": 0, "is_reserved": 0}, {"rental_uris": {"ios": "https://dc.lft.to/lastmile_qr_scan", "android": "https://dc.lft.to/lastmile_qr_scan"}, "lon": -77.029752, "type": "electric_scooter", "fusion_lat": 0.0, "lat": 38.917197, "name": "0b9c6f970d13c9f2e0cecceac0d1b7cf", "fusion_lon": 0.0, "bike_id": "0b9c6f970d13c9f2e0cecceac0d1b7cf", "is_disabled": 0, "is_reserved": 0}, {"rental_uris": {"ios": "https://dc.lft.to/lastmile_qr_scan", "android": "https://dc.lft.to/lastmile_qr_scan"}, "lon": -77.066726, "type": "electric_scooter", "fusion_lat": 0.0, "lat": 38.914045, "name": "3cd5b6eb4680e2e381132aa27a2fe025", "fusion_lon": 0.0, "bike_id": "3cd5b6eb4680e2e381132aa27a2fe025", "is_disabled": 0, "is_reserved": 0}, {"rental_uris": {"ios": "https://dc.lft.to/lastmile_qr_scan", "android": "https://dc.lft.to/lastmile_qr_scan"}, "lon": -76.87825333333333, "type": "electric_bike", "fusion_lat": 0.0, "lat": 38.99229366666667, "name": "a5e942845787d3719aa60450e575c581", "fusion_lon": 0.0, "bike_id": "a5e942845787d3719aa60450e575c581", "is_disabled": 0, "is_reserved": 0}, {"rental_uris": {"ios": "https://dc.lft.to/lastmile_qr_scan", "android": "https://dc.lft.to/lastmile_qr_scan"}, "lon": -76.97618266666667, "type": "electric_scooter", "fusion_lat": 0.0, "lat": 38.903824666666665, "name": "e0321bccc16e962fcaa03b696db0e894", "fusion_lon": 0.0, "bike_id": "e0321bccc16e962fcaa03b696db0e894", "is_disabled": 0, "is_reserved": 0}, {"rental_uris": {"ios": "https://dc.lft.to/lastmile_qr_scan", "android": "https://dc.lft.to/lastmile_qr_scan"}, "lon": -77.03834516666667, "type": "electric_scooter", "fusion_lat": 0.0, "lat": 38.92170866666667, "name": "18ae3fb637cbd4d087dd1f0e72a3e3e2", "fusion_lon": 0.0, "bike_id": "18ae3fb637cbd4d087dd1f0e72a3e3e2", "is_disabled": 0, "is_reserved": 0}, {"rental_uris": {"ios": "https://dc.lft.to/lastmile_qr_scan", "android": "https://dc.lft.to/lastmile_qr_scan"}, "lon": -76.94633483333334, "type": "electric_scooter", "fusion_lat": 0.0, "lat": 38.898326, "name": "ee04a523bdc765e5467cfc83fb7df99b", "fusion_lon": 0.0, "bike_id": "ee04a523bdc765e5467cfc83fb7df99b", "is_disabled": 0, "is_reserved": 0}, {"rental_uris": {"ios": "https://dc.lft.to/lastmile_qr_scan", "android": "https://dc.lft.to/lastmile_qr_scan"}, "lon": -76.95760783333333, "type": "electric_bike", "fusion_lat": 0.0, "lat": 38.884155, "name": "1ad05a3e1a4ad568740389c8f083097d", "fusion_lon": 0.0, "bike_id": "1ad05a3e1a4ad568740389c8f083097d", "is_disabled": 0, "is_reserved": 0}, {"rental_uris": {"ios": "https://dc.lft.to/lastmile_qr_scan", "android": "https://dc.lft.to/lastmile_qr_scan"}, "lon": -76.9775275, "type": "electric_scooter", "fusion_lat": 0.0, "lat": 38.90007516666667, "name": "340215ba6bdcfc178f2b2871cc4339b4", "fusion_lon": 0.0, "bike_id": "340215ba6bdcfc178f2b2871cc4339b4", "is_disabled": 0, "is_reserved": 0}, {"rental_uris": {"ios": "https://dc.lft.to/lastmile_qr_scan", "android": "https://dc.lft.to/lastmile_qr_scan"}, "lon": -77.10711916666666, "type": "electric_bike", "fusion_lat": 0.0, "lat": 38.85558566666667, "name": "e84385bd4f3a1c699349f598f1d8c786", "fusion_lon": 0.0, "bike_id": "e84385bd4f3a1c699349f598f1d8c786", "is_disabled": 0, "is_reserved": 0}, {"rental_uris": {"ios": "https://dc.lft.to/lastmile_qr_scan", "android": "https://dc.lft.to/lastmile_qr_scan"}, "lon": -77.03795083333333, "type": "electric_scooter", "fusion_lat": 0.0, "lat": 38.92623616666667, "name": "7a94ea3a4a0c166c976407eb79d57539", "fusion_lon": 0.0, "bike_id": "7a94ea3a4a0c166c976407eb79d57539", "is_disabled": 0, "is_reserved": 0}, {"rental_uris": {"ios": "https://dc.lft.to/lastmile_qr_scan", "android": "https://dc.lft.to/lastmile_qr_scan"}, "lon": -77.020388, "type": "electric_scooter", "fusion_lat": 0.0, "lat": 38.901881833333334, "name": "0e16d8f7a3173e3fe5159e93c770bbab", "fusion_lon": 0.0, "bike_id": "0e16d8f7a3173e3fe5159e93c770bbab", "is_disabled": 0, "is_reserved": 0}, {"rental_uris": {"ios": "https://dc.lft.to/lastmile_qr_scan", "android": "https://dc.lft.to/lastmile_qr_scan"}, "lon": -77.02966716666667, "type": "electric_scooter", "fusion_lat": 0.0, "lat": 38.9226855, "name": "1560398c7bf30bce35ed7136e11e2afd", "fusion_lon": 0.0, "bike_id": "1560398c7bf30bce35ed7136e11e2afd", "is_disabled": 0, "is_reserved": 0}, {"rental_uris": {"ios": "https://dc.lft.to/lastmile_qr_scan", "android": "https://dc.lft.to/lastmile_qr_scan"}, "lon": -77.075678, "type": "electric_bike", "fusion_lat": 0.0, "lat": 38.90684683333333, "name": "06aeb94d5c3acdd313844552bc8c02f4", "fusion_lon": 0.0, "bike_id": "06aeb94d5c3acdd313844552bc8c02f4", "is_disabled": 0, "is_reserved": 0}, {"rental_uris": {"ios": "https://dc.lft.to/lastmile_qr_scan", "android": "https://dc.lft.to/lastmile_qr_scan"}, "lon": -77.03157783333333, "type": "electric_scooter", "fusion_lat": 0.0, "lat": 38.94530916666667, "name": "791270bdf161a19946f33c26cda03414", "fusion_lon": 0.0, "bike_id": "791270bdf161a19946f33c26cda03414", "is_disabled": 0, "is_reserved": 0}, {"rental_uris": {"ios": "https://dc.lft.to/lastmile_qr_scan", "android": "https://dc.lft.to/lastmile_qr_scan"}, "lon": -77.03981733333333, "type": "electric_scooter", "fusion_lat": 0.0, "lat": 38.8988195, "name": "0381f4fa7b6414de568fca595907b1b6", "fusion_lon": 0.0, "bike_id": "0381f4fa7b6414de568fca595907b1b6", "is_disabled": 0, "is_reserved": 0}, {"rental_uris": {"ios": "https://dc.lft.to/lastmile_qr_scan", "android": "https://dc.lft.to/lastmile_qr_scan"}, "lon": -77.06355816666667, "type": "electric_bike", "fusion_lat": 0.0, "lat": 38.862769666666665, "name": "c1b0a9f3c5adc541303fa09e5a5fb8dd", "fusion_lon": 0.0, "bike_id": "c1b0a9f3c5adc541303fa09e5a5fb8dd", "is_disabled": 0, "is_reserved": 0}, {"rental_uris": {"ios": "https://dc.lft.to/lastmile_qr_scan", "android": "https://dc.lft.to/lastmile_qr_scan"}, "lon": -76.9961595, "type": "electric_scooter", "fusion_lat": 0.0, "lat": 38.885585, "name": "f8f0baf7700aa1973b83d59ddfb69076", "fusion_lon": 0.0, "bike_id": "f8f0baf7700aa1973b83d59ddfb69076", "is_disabled": 0, "is_reserved": 0}, {"rental_uris": {"ios": "https://dc.lft.to/lastmile_qr_scan", "android": "https://dc.lft.to/lastmile_qr_scan"}, "lon": -77.04471316666667, "type": "electric_scooter", "fusion_lat": 0.0, "lat": 38.9094095, "name": "d6bf43d4f58cfd6e8d24b42969ba8c4b", "fusion_lon": 0.0, "bike_id": "d6bf43d4f58cfd6e8d24b42969ba8c4b", "is_disabled": 0, "is_reserved": 0}, {"rental_uris": {"ios": "https://dc.lft.to/lastmile_qr_scan", "android": "https://dc.lft.to/lastmile_qr_scan"}, "lon": -77.05513433333333, "type": "electric_scooter", "fusion_lat": 0.0, "lat": 38.92999, "name": "8cf631080e08e9cfd47aac55d9db628a", "fusion_lon": 0.0, "bike_id": "8cf631080e08e9cfd47aac55d9db628a", "is_disabled": 0, "is_reserved": 0}, {"rental_uris": {"ios": "https://dc.lft.to/lastmile_qr_scan", "android": "https://dc.lft.to/lastmile_qr_scan"}, "lon": -77.03355016666667, "type": "electric_scooter", "fusion_lat": 0.0, "lat": 38.89532533333333, "name": "7e8b312d2532e0f38596798bc26004c7", "fusion_lon": 0.0, "bike_id": "7e8b312d2532e0f38596798bc26004c7", "is_disabled": 0, "is_reserved": 0}, {"rental_uris": {"ios": "https://dc.lft.to/lastmile_qr_scan", "android": "https://dc.lft.to/lastmile_qr_scan"}, "lon": -77.005793, "type": "electric_scooter", "fusion_lat": 0.0, "lat": 38.844982, "name": "0defb70931296ed31ce107d86599d742", "fusion_lon": 0.0, "bike_id": "0defb70931296ed31ce107d86599d742", "is_disabled": 0, "is_reserved": 0}, {"rental_uris": {"ios": "https://dc.lft.to/lastmile_qr_scan", "android": "https://dc.lft.to/lastmile_qr_scan"}, "lon": -77.02282216666667, "type": "electric_scooter", "fusion_lat": 0.0, "lat": 38.87836716666666, "name": "de407d58bbe58f05385c8106d8ab72a9", "fusion_lon": 0.0, "bike_id": "de407d58bbe58f05385c8106d8ab72a9", "is_disabled": 0, "is_reserved": 0}, {"rental_uris": {"ios": "https://dc.lft.to/lastmile_qr_scan", "android": "https://dc.lft.to/lastmile_qr_scan"}, "lon": -76.973367, "type": "electric_scooter", "fusion_lat": 0.0, "lat": 38.917723333333335, "name": "cef9c6e1cbe4b936b72e751275f7f839", "fusion_lon": 0.0, "bike_id": "cef9c6e1cbe4b936b72e751275f7f839", "is_disabled": 0, "is_reserved": 0}, {"rental_uris": {"ios": "https://dc.lft.to/lastmile_qr_scan", "android": "https://dc.lft.to/lastmile_qr_scan"}, "lon": -77.02598683333333, "type": "electric_scooter", "fusion_lat": 0.0, "lat": 38.916923, "name": "2430dd097b68065fa660d3374109b34a", "fusion_lon": 0.0, "bike_id": "2430dd097b68065fa660d3374109b34a", "is_disabled": 0, "is_reserved": 0}, {"rental_uris": {"ios": "https://dc.lft.to/lastmile_qr_scan", "android": "https://dc.lft.to/lastmile_qr_scan"}, "lon": -77.022287, "type": "electric_scooter", "fusion_lat": 0.0, "lat": 38.9209925, "name": "044e82b9463b44569cd803566f6b9a96", "fusion_lon": 0.0, "bike_id": "044e82b9463b44569cd803566f6b9a96", "is_disabled": 0, "is_reserved": 0}, {"rental_uris": {"ios": "https://dc.lft.to/lastmile_qr_scan", "android": "https://dc.lft.to/lastmile_qr_scan"}, "lon": -77.03930133333333, "type": "electric_scooter", "fusion_lat": 0.0, "lat": 38.921002666666666, "name": "0855ad580b103e0072d66d164b45543f", "fusion_lon": 0.0, "bike_id": "0855ad580b103e0072d66d164b45543f", "is_disabled": 0, "is_reserved": 0}, {"rental_uris": {"ios": "https://dc.lft.to/lastmile_qr_scan", "android": "https://dc.lft.to/lastmile_qr_scan"}, "lon": -77.01505766666666, "type": "electric_scooter", "fusion_lat": 0.0, "lat": 38.8888965, "name": "1848403cfa5613171eb73b36b534e76e", "fusion_lon": 0.0, "bike_id": "1848403cfa5613171eb73b36b534e76e", "is_disabled": 0, "is_reserved": 0}, {"rental_uris": {"ios": "https://dc.lft.to/lastmile_qr_scan", "android": "https://dc.lft.to/lastmile_qr_scan"}, "lon": -76.94946133333333, "type": "electric_scooter", "fusion_lat": 0.0, "lat": 38.88378516666667, "name": "1ade0bf393f91f13bc65c951af3aa80f", "fusion_lon": 0.0, "bike_id": "1ade0bf393f91f13bc65c951af3aa80f", "is_disabled": 0, "is_reserved": 0}, {"rental_uris": {"ios": "https://dc.lft.to/lastmile_qr_scan", "android": "https://dc.lft.to/lastmile_qr_scan"}, "lon": -77.03147416666667, "type": "electric_scooter", "fusion_lat": 0.0, "lat": 38.912621, "name": "03bb160ac2146cfa71a60cea025206ba", "fusion_lon": 0.0, "bike_id": "03bb160ac2146cfa71a60cea025206ba", "is_disabled": 0, "is_reserved": 0}, {"rental_uris": {"ios": "https://dc.lft.to/lastmile_qr_scan", "android": "https://dc.lft.to/lastmile_qr_scan"}, "lon": -77.039442, "type": "electric_scooter", "fusion_lat": 0.0, "lat": 38.9314745, "name": "462e8e3ff43fa7352fba0aee568bad33", "fusion_lon": 0.0, "bike_id": "462e8e3ff43fa7352fba0aee568bad33", "is_disabled": 0, "is_reserved": 0}, {"rental_uris": {"ios": "https://dc.lft.to/lastmile_qr_scan", "android": "https://dc.lft.to/lastmile_qr_scan"}, "lon": -77.02258533333334, "type": "electric_scooter", "fusion_lat": 0.0, "lat": 38.916473, "name": "785b97b2468e062f5a114e299862b450", "fusion_lon": 0.0, "bike_id": "785b97b2468e062f5a114e299862b450", "is_disabled": 0, "is_reserved": 0}, {"rental_uris": {"ios": "https://dc.lft.to/lastmile_qr_scan", "android": "https://dc.lft.to/lastmile_qr_scan"}, "lon": -77.06127233333333, "type": "electric_scooter", "fusion_lat": 0.0, "lat": 38.90229933333333, "name": "3b110462260b7310c071f76d9c9d0fdc", "fusion_lon": 0.0, "bike_id": "3b110462260b7310c071f76d9c9d0fdc", "is_disabled": 0, "is_reserved": 0}, {"rental_uris": {"ios": "https://dc.lft.to/lastmile_qr_scan", "android": "https://dc.lft.to/lastmile_qr_scan"}, "lon": -76.977316, "type": "electric_scooter", "fusion_lat": 0.0, "lat": 38.87284483333333, "name": "baf70be257b3c0253fe0a4dd1a8d53ef", "fusion_lon": 0.0, "bike_id": "baf70be257b3c0253fe0a4dd1a8d53ef", "is_disabled": 0, "is_reserved": 0}, {"rental_uris": {"ios": "https://dc.lft.to/lastmile_qr_scan", "android": "https://dc.lft.to/lastmile_qr_scan"}, "lon": -77.05478766666667, "type": "electric_scooter", "fusion_lat": 0.0, "lat": 38.904999, "name": "72aa0fdce9eb8c6b65bd71575a2ac4a7", "fusion_lon": 0.0, "bike_id": "72aa0fdce9eb8c6b65bd71575a2ac4a7", "is_disabled": 0, "is_reserved": 0}, {"rental_uris": {"ios": "https://dc.lft.to/lastmile_qr_scan", "android": "https://dc.lft.to/lastmile_qr_scan"}, "lon": -77.0153445, "type": "electric_scooter", "fusion_lat": 0.0, "lat": 38.898256, "name": "24155dfd224ef1a33cd2c207b72a237b", "fusion_lon": 0.0, "bike_id": "24155dfd224ef1a33cd2c207b72a237b", "is_disabled": 0, "is_reserved": 0}, {"rental_uris": {"ios": "https://dc.lft.to/lastmile_qr_scan", "android": "https://dc.lft.to/lastmile_qr_scan"}, "lon": -76.99777033333334, "type": "electric_scooter", "fusion_lat": 0.0, "lat": 38.844258333333336, "name": "16fc585f3bac0a8f331f090cd27bc115", "fusion_lon": 0.0, "bike_id": "16fc585f3bac0a8f331f090cd27bc115", "is_disabled": 0, "is_reserved": 0}, {"rental_uris": {"ios": "https://dc.lft.to/lastmile_qr_scan", "android": "https://dc.lft.to/lastmile_qr_scan"}, "lon": -77.03298666666667, "type": "electric_scooter", "fusion_lat": 0.0, "lat": 38.93127616666666, "name": "8739e225f191dd2d2adbcb4fe4f2b60c", "fusion_lon": 0.0, "bike_id": "8739e225f191dd2d2adbcb4fe4f2b60c", "is_disabled": 0, "is_reserved": 0}, {"rental_uris": {"ios": "https://dc.lft.to/lastmile_qr_scan", "android": "https://dc.lft.to/lastmile_qr_scan"}, "lon": -77.03787316666667, "type": "electric_bike", "fusion_lat": 0.0, "lat": 38.9967085, "name": "a04528cf7552af81b9c2663849097dd8", "fusion_lon": 0.0, "bike_id": "a04528cf7552af81b9c2663849097dd8", "is_disabled": 0, "is_reserved": 0}, {"rental_uris": {"ios": "https://dc.lft.to/lastmile_qr_scan", "android": "https://dc.lft.to/lastmile_qr_scan"}, "lon": -77.04286383333333, "type": "electric_scooter", "fusion_lat": 0.0, "lat": 38.907266, "name": "0c81af965e98617acb3305e436abd1c8", "fusion_lon": 0.0, "bike_id": "0c81af965e98617acb3305e436abd1c8", "is_disabled": 0, "is_reserved": 0}, {"rental_uris": {"ios": "https://dc.lft.to/lastmile_qr_scan", "android": "https://dc.lft.to/lastmile_qr_scan"}, "lon": -77.02507, "type": "electric_scooter", "fusion_lat": 0.0, "lat": 38.88028033333333, "name": "4bc9884979233e988278e23bcb665ffd", "fusion_lon": 0.0, "bike_id": "4bc9884979233e988278e23bcb665ffd", "is_disabled": 0, "is_reserved": 0}, {"rental_uris": {"ios": "https://dc.lft.to/lastmile_qr_scan", "android": "https://dc.lft.to/lastmile_qr_scan"}, "lon": -76.95736416666666, "type": "electric_scooter", "fusion_lat": 0.0, "lat": 38.89220383333333, "name": "c0cbcdb653ceecab3da32d4c29c8d479", "fusion_lon": 0.0, "bike_id": "c0cbcdb653ceecab3da32d4c29c8d479", "is_disabled": 0, "is_reserved": 0}, {"rental_uris": {"ios": "https://dc.lft.to/lastmile_qr_scan", "android": "https://dc.lft.to/lastmile_qr_scan"}, "lon": -77.044883, "type": "electric_scooter", "fusion_lat": 0.0, "lat": 38.910957833333335, "name": "776e4f0882b60547227c4eb989543d7f", "fusion_lon": 0.0, "bike_id": "776e4f0882b60547227c4eb989543d7f", "is_disabled": 0, "is_reserved": 0}, {"rental_uris": {"ios": "https://dc.lft.to/lastmile_qr_scan", "android": "https://dc.lft.to/lastmile_qr_scan"}, "lon": -77.02961633333334, "type": "electric_scooter", "fusion_lat": 0.0, "lat": 38.900567, "name": "15d1ac14178d47c174c4fd0bc00a84f4", "fusion_lon": 0.0, "bike_id": "15d1ac14178d47c174c4fd0bc00a84f4", "is_disabled": 0, "is_reserved": 0}, {"rental_uris": {"ios": "https://dc.lft.to/lastmile_qr_scan", "android": "https://dc.lft.to/lastmile_qr_scan"}, "lon": -77.13183516666666, "type": "electric_bike", "fusion_lat": 0.0, "lat": 38.86909383333333, "name": "1d5dd104b086657a6343c0f2900d5b07", "fusion_lon": 0.0, "bike_id": "1d5dd104b086657a6343c0f2900d5b07", "is_disabled": 0, "is_reserved": 0}, {"rental_uris": {"ios": "https://dc.lft.to/lastmile_qr_scan", "android": "https://dc.lft.to/lastmile_qr_scan"}, "lon": -76.97439166666666, "type": "electric_bike", "fusion_lat": 0.0, "lat": 38.86406366666667, "name": "7ee071af339d78a161544a35ef954b00", "fusion_lon": 0.0, "bike_id": "7ee071af339d78a161544a35ef954b00", "is_disabled": 0, "is_reserved": 0}, {"rental_uris": {"ios": "https://dc.lft.to/lastmile_qr_scan", "android": "https://dc.lft.to/lastmile_qr_scan"}, "lon": -77.0299085, "type": "electric_bike", "fusion_lat": 0.0, "lat": 38.900322333333335, "name": "87a5b2acfcfd572f720e55f44665a505", "fusion_lon": 0.0, "bike_id": "87a5b2acfcfd572f720e55f44665a505", "is_disabled": 0, "is_reserved": 0}, {"rental_uris": {"ios": "https://dc.lft.to/lastmile_qr_scan", "android": "https://dc.lft.to/lastmile_qr_scan"}, "lon": -77.03834266666667, "type": "electric_scooter", "fusion_lat": 0.0, "lat": 38.92170983333333, "name": "220bc1bf552758cc58babfddd3c0c608", "fusion_lon": 0.0, "bike_id": "220bc1bf552758cc58babfddd3c0c608", "is_disabled": 0, "is_reserved": 0}, {"rental_uris": {"ios": "https://dc.lft.to/lastmile_qr_scan", "android": "https://dc.lft.to/lastmile_qr_scan"}, "lon": -77.02708616666666, "type": "electric_scooter", "fusion_lat": 0.0, "lat": 38.91071766666666, "name": "e3cd0e990ea320b1a23b90b27e52d083", "fusion_lon": 0.0, "bike_id": "e3cd0e990ea320b1a23b90b27e52d083", "is_disabled": 0, "is_reserved": 0}, {"rental_uris": {"ios": "https://dc.lft.to/lastmile_qr_scan", "android": "https://dc.lft.to/lastmile_qr_scan"}, "lon": -77.01787116666667, "type": "electric_scooter", "fusion_lat": 0.0, "lat": 38.903975833333334, "name": "892b87a4d82a8abfb279e7e465734030", "fusion_lon": 0.0, "bike_id": "892b87a4d82a8abfb279e7e465734030", "is_disabled": 0, "is_reserved": 0}, {"rental_uris": {"ios": "https://dc.lft.to/lastmile_qr_scan", "android": "https://dc.lft.to/lastmile_qr_scan"}, "lon": -77.04126883333333, "type": "electric_scooter", "fusion_lat": 0.0, "lat": 38.9188645, "name": "66a3ae367999488c4c8c3aa555d29eed", "fusion_lon": 0.0, "bike_id": "66a3ae367999488c4c8c3aa555d29eed", "is_disabled": 0, "is_reserved": 0}, {"rental_uris": {"ios": "https://dc.lft.to/lastmile_qr_scan", "android": "https://dc.lft.to/lastmile_qr_scan"}, "lon": -77.00780483333334, "type": "electric_scooter", "fusion_lat": 0.0, "lat": 38.90656466666667, "name": "35faaff11906a969dd38acf71c63d4bc", "fusion_lon": 0.0, "bike_id": "35faaff11906a969dd38acf71c63d4bc", "is_disabled": 0, "is_reserved": 0}, {"rental_uris": {"ios": "https://dc.lft.to/lastmile_qr_scan", "android": "https://dc.lft.to/lastmile_qr_scan"}, "lon": -76.95000116666667, "type": "electric_scooter", "fusion_lat": 0.0, "lat": 38.893710666666664, "name": "32a398760048281287af4b3b67c214e7", "fusion_lon": 0.0, "bike_id": "32a398760048281287af4b3b67c214e7", "is_disabled": 0, "is_reserved": 0}, {"rental_uris": {"ios": "https://dc.lft.to/lastmile_qr_scan", "android": "https://dc.lft.to/lastmile_qr_scan"}, "lon": -76.98888533333333, "type": "electric_scooter", "fusion_lat": 0.0, "lat": 38.86657616666667, "name": "f3964fb22ca0814419ee15d655e5016f", "fusion_lon": 0.0, "bike_id": "f3964fb22ca0814419ee15d655e5016f", "is_disabled": 0, "is_reserved": 0}, {"rental_uris": {"ios": "https://dc.lft.to/lastmile_qr_scan", "android": "https://dc.lft.to/lastmile_qr_scan"}, "lon": -77.02010583333333, "type": "electric_scooter", "fusion_lat": 0.0, "lat": 38.919074333333334, "name": "fd65a68244323c109740d28c1bb7a256", "fusion_lon": 0.0, "bike_id": "fd65a68244323c109740d28c1bb7a256", "is_disabled": 0, "is_reserved": 0}, {"rental_uris": {"ios": "https://dc.lft.to/lastmile_qr_scan", "android": "https://dc.lft.to/lastmile_qr_scan"}, "lon": -77.04191166666666, "type": "electric_scooter", "fusion_lat": 0.0, "lat": 38.920496, "name": "118f716a8cc3591312f5941c69475aa6", "fusion_lon": 0.0, "bike_id": "118f716a8cc3591312f5941c69475aa6", "is_disabled": 0, "is_reserved": 0}, {"rental_uris": {"ios": "https://dc.lft.to/lastmile_qr_scan", "android": "https://dc.lft.to/lastmile_qr_scan"}, "lon": -77.03217316666667, "type": "electric_scooter", "fusion_lat": 0.0, "lat": 38.92000016666667, "name": "ac1432483633383e5df0bf100d15395d", "fusion_lon": 0.0, "bike_id": "ac1432483633383e5df0bf100d15395d", "is_disabled": 0, "is_reserved": 0}, {"rental_uris": {"ios": "https://dc.lft.to/lastmile_qr_scan", "android": "https://dc.lft.to/lastmile_qr_scan"}, "lon": -77.03200533333333, "type": "electric_scooter", "fusion_lat": 0.0, "lat": 38.918531, "name": "eae77a08c807f4b89320f0afad96a107", "fusion_lon": 0.0, "bike_id": "eae77a08c807f4b89320f0afad96a107", "is_disabled": 0, "is_reserved": 0}, {"rental_uris": {"ios": "https://dc.lft.to/lastmile_qr_scan", "android": "https://dc.lft.to/lastmile_qr_scan"}, "lon": -77.032112, "type": "electric_scooter", "fusion_lat": 0.0, "lat": 38.91265466666667, "name": "6d11c8acd6900f53dc848562cff6a936", "fusion_lon": 0.0, "bike_id": "6d11c8acd6900f53dc848562cff6a936", "is_disabled": 0, "is_reserved": 0}, {"rental_uris": {"ios": "https://dc.lft.to/lastmile_qr_scan", "android": "https://dc.lft.to/lastmile_qr_scan"}, "lon": -77.00208483333333, "type": "electric_scooter", "fusion_lat": 0.0, "lat": 38.90217833333333, "name": "2efc6b69f1c43474f7df0322c26d0cd4", "fusion_lon": 0.0, "bike_id": "2efc6b69f1c43474f7df0322c26d0cd4", "is_disabled": 0, "is_reserved": 0}, {"rental_uris": {"ios": "https://dc.lft.to/lastmile_qr_scan", "android": "https://dc.lft.to/lastmile_qr_scan"}, "lon": -76.94893583333334, "type": "electric_scooter", "fusion_lat": 0.0, "lat": 38.89527433333333, "name": "4e2a3b98f2d5a283238d79fdda9abe55", "fusion_lon": 0.0, "bike_id": "4e2a3b98f2d5a283238d79fdda9abe55", "is_disabled": 0, "is_reserved": 0}, {"rental_uris": {"ios": "https://dc.lft.to/lastmile_qr_scan", "android": "https://dc.lft.to/lastmile_qr_scan"}, "lon": -77.127331, "type": "electric_bike", "fusion_lat": 0.0, "lat": 38.89562133333333, "name": "0524bf4c8c6bf384c38dfe0e910d3b88", "fusion_lon": 0.0, "bike_id": "0524bf4c8c6bf384c38dfe0e910d3b88", "is_disabled": 0, "is_reserved": 0}, {"rental_uris": {"ios": "https://dc.lft.to/lastmile_qr_scan", "android": "https://dc.lft.to/lastmile_qr_scan"}, "lon": -77.03256616666667, "type": "electric_scooter", "fusion_lat": 0.0, "lat": 38.932361, "name": "34e46038aef82002c90ff22466fd8ae7", "fusion_lon": 0.0, "bike_id": "34e46038aef82002c90ff22466fd8ae7", "is_disabled": 0, "is_reserved": 0}, {"rental_uris": {"ios": "https://dc.lft.to/lastmile_qr_scan", "android": "https://dc.lft.to/lastmile_qr_scan"}, "lon": -76.91654266666667, "type": "electric_bike", "fusion_lat": 0.0, "lat": 38.868612, "name": "4399e2a11203a06934b41b80217e0397", "fusion_lon": 0.0, "bike_id": "4399e2a11203a06934b41b80217e0397", "is_disabled": 0, "is_reserved": 0}, {"rental_uris": {"ios": "https://dc.lft.to/lastmile_qr_scan", "android": "https://dc.lft.to/lastmile_qr_scan"}, "lon": -77.04165883333333, "type": "electric_scooter", "fusion_lat": 0.0, "lat": 38.9133885, "name": "5e0e49a45f72b2ee28d5b4024dca218a", "fusion_lon": 0.0, "bike_id": "5e0e49a45f72b2ee28d5b4024dca218a", "is_disabled": 0, "is_reserved": 0}, {"rental_uris": {"ios": "https://dc.lft.to/lastmile_qr_scan", "android": "https://dc.lft.to/lastmile_qr_scan"}, "lon": -77.071491, "type": "electric_scooter", "fusion_lat": 0.0, "lat": 38.9077555, "name": "a6796b49e11736176211fd17b679441f", "fusion_lon": 0.0, "bike_id": "a6796b49e11736176211fd17b679441f", "is_disabled": 0, "is_reserved": 0}, {"rental_uris": {"ios": "https://dc.lft.to/lastmile_qr_scan", "android": "https://dc.lft.to/lastmile_qr_scan"}, "lon": -77.00604466666667, "type": "electric_scooter", "fusion_lat": 0.0, "lat": 38.87206166666667, "name": "ae47da740dba93de6fd3ae427259f18c", "fusion_lon": 0.0, "bike_id": "ae47da740dba93de6fd3ae427259f18c", "is_disabled": 0, "is_reserved": 0}, {"rental_uris": {"ios": "https://dc.lft.to/lastmile_qr_scan", "android": "https://dc.lft.to/lastmile_qr_scan"}, "lon": -77.04474183333333, "type": "electric_scooter", "fusion_lat": 0.0, "lat": 38.9191915, "name": "565c113b7587066cfa93893d4bf0d8a3", "fusion_lon": 0.0, "bike_id": "565c113b7587066cfa93893d4bf0d8a3", "is_disabled": 0, "is_reserved": 0}, {"rental_uris": {"ios": "https://dc.lft.to/lastmile_qr_scan", "android": "https://dc.lft.to/lastmile_qr_scan"}, "lon": -77.03340033333333, "type": "electric_scooter", "fusion_lat": 0.0, "lat": 38.90137633333333, "name": "81b61cba92c94db485d05524f9e2ca7d", "fusion_lon": 0.0, "bike_id": "81b61cba92c94db485d05524f9e2ca7d", "is_disabled": 0, "is_reserved": 0}, {"rental_uris": {"ios": "https://dc.lft.to/lastmile_qr_scan", "android": "https://dc.lft.to/lastmile_qr_scan"}, "lon": -77.095612, "type": "electric_bike", "fusion_lat": 0.0, "lat": 38.91704033333333, "name": "c67abb519e82d3e2f5886e7ba5ee0bfa", "fusion_lon": 0.0, "bike_id": "c67abb519e82d3e2f5886e7ba5ee0bfa", "is_disabled": 0, "is_reserved": 0}, {"rental_uris": {"ios": "https://dc.lft.to/lastmile_qr_scan", "android": "https://dc.lft.to/lastmile_qr_scan"}, "lon": -77.01109783333334, "type": "electric_scooter", "fusion_lat": 0.0, "lat": 38.90353433333333, "name": "ddacf55ce8aee84a6a8c55719d78f6ce", "fusion_lon": 0.0, "bike_id": "ddacf55ce8aee84a6a8c55719d78f6ce", "is_disabled": 0, "is_reserved": 0}, {"rental_uris": {"ios": "https://dc.lft.to/lastmile_qr_scan", "android": "https://dc.lft.to/lastmile_qr_scan"}, "lon": -77.00803616666667, "type": "electric_scooter", "fusion_lat": 0.0, "lat": 38.883329833333335, "name": "fb92f8193ca972aea1210718e8605785", "fusion_lon": 0.0, "bike_id": "fb92f8193ca972aea1210718e8605785", "is_disabled": 0, "is_reserved": 0}, {"rental_uris": {"ios": "https://dc.lft.to/lastmile_qr_scan", "android": "https://dc.lft.to/lastmile_qr_scan"}, "lon": -77.02554033333334, "type": "electric_scooter", "fusion_lat": 0.0, "lat": 38.892238166666665, "name": "49ba98b51e604ea3811e2b0bf3cd2af8", "fusion_lon": 0.0, "bike_id": "49ba98b51e604ea3811e2b0bf3cd2af8", "is_disabled": 0, "is_reserved": 0}, {"rental_uris": {"ios": "https://dc.lft.to/lastmile_qr_scan", "android": "https://dc.lft.to/lastmile_qr_scan"}, "lon": -77.02578733333333, "type": "electric_scooter", "fusion_lat": 0.0, "lat": 38.91814933333333, "name": "a63434b3f623f367d737730b19a5da3a", "fusion_lon": 0.0, "bike_id": "a63434b3f623f367d737730b19a5da3a", "is_disabled": 0, "is_reserved": 0}, {"rental_uris": {"ios": "https://dc.lft.to/lastmile_qr_scan", "android": "https://dc.lft.to/lastmile_qr_scan"}, "lon": -77.00054116666666, "type": "electric_scooter", "fusion_lat": 0.0, "lat": 38.889000333333335, "name": "77db2437c49548b0014bab280d890336", "fusion_lon": 0.0, "bike_id": "77db2437c49548b0014bab280d890336", "is_disabled": 0, "is_reserved": 0}, {"rental_uris": {"ios": "https://dc.lft.to/lastmile_qr_scan", "android": "https://dc.lft.to/lastmile_qr_scan"}, "lon": -77.088444, "type": "electric_bike", "fusion_lat": 0.0, "lat": 38.84079833333333, "name": "2c9a1eab9d69a6ff8b0f219d09e860dc", "fusion_lon": 0.0, "bike_id": "2c9a1eab9d69a6ff8b0f219d09e860dc", "is_disabled": 0, "is_reserved": 0}, {"rental_uris": {"ios": "https://dc.lft.to/lastmile_qr_scan", "android": "https://dc.lft.to/lastmile_qr_scan"}, "lon": -77.01343183333333, "type": "electric_bike", "fusion_lat": 0.0, "lat": 38.999927666666665, "name": "f407cc11315572c8314b037a86951671", "fusion_lon": 0.0, "bike_id": "f407cc11315572c8314b037a86951671", "is_disabled": 0, "is_reserved": 0}, {"rental_uris": {"ios": "https://dc.lft.to/lastmile_qr_scan", "android": "https://dc.lft.to/lastmile_qr_scan"}, "lon": -76.99910633333333, "type": "electric_scooter", "fusion_lat": 0.0, "lat": 38.909443, "name": "734d962e85a7e0ddc29e2cbcf07a5c1c", "fusion_lon": 0.0, "bike_id": "734d962e85a7e0ddc29e2cbcf07a5c1c", "is_disabled": 0, "is_reserved": 0}, {"rental_uris": {"ios": "https://dc.lft.to/lastmile_qr_scan", "android": "https://dc.lft.to/lastmile_qr_scan"}, "lon": -77.03475666666667, "type": "electric_scooter", "fusion_lat": 0.0, "lat": 38.9086935, "name": "f1165de5dcdc86c7f233963d54760491", "fusion_lon": 0.0, "bike_id": "f1165de5dcdc86c7f233963d54760491", "is_disabled": 0, "is_reserved": 0}, {"rental_uris": {"ios": "https://dc.lft.to/lastmile_qr_scan", "android": "https://dc.lft.to/lastmile_qr_scan"}, "lon": -77.03185233333333, "type": "electric_scooter", "fusion_lat": 0.0, "lat": 38.913284833333336, "name": "0005455181c10f4672b4f8d65e804dc1", "fusion_lon": 0.0, "bike_id": "0005455181c10f4672b4f8d65e804dc1", "is_disabled": 0, "is_reserved": 0}, {"rental_uris": {"ios": "https://dc.lft.to/lastmile_qr_scan", "android": "https://dc.lft.to/lastmile_qr_scan"}, "lon": -77.01967016666667, "type": "electric_scooter", "fusion_lat": 0.0, "lat": 38.931884, "name": "d7c2da8d53fe9d3a6659f3c4db150d58", "fusion_lon": 0.0, "bike_id": "d7c2da8d53fe9d3a6659f3c4db150d58", "is_disabled": 0, "is_reserved": 0}, {"rental_uris": {"ios": "https://dc.lft.to/lastmile_qr_scan", "android": "https://dc.lft.to/lastmile_qr_scan"}, "lon": -77.02389283333333, "type": "electric_scooter", "fusion_lat": 0.0, "lat": 38.905834166666665, "name": "2637c093ea938dede99c0369550070a5", "fusion_lon": 0.0, "bike_id": "2637c093ea938dede99c0369550070a5", "is_disabled": 0, "is_reserved": 0}, {"rental_uris": {"ios": "https://dc.lft.to/lastmile_qr_scan", "android": "https://dc.lft.to/lastmile_qr_scan"}, "lon": -77.031885, "type": "electric_scooter", "fusion_lat": 0.0, "lat": 38.91858633333333, "name": "d83c4974fd9a79f2d90ef06b2e460508", "fusion_lon": 0.0, "bike_id": "d83c4974fd9a79f2d90ef06b2e460508", "is_disabled": 0, "is_reserved": 0}, {"rental_uris": {"ios": "https://dc.lft.to/lastmile_qr_scan", "android": "https://dc.lft.to/lastmile_qr_scan"}, "lon": -77.06711016666667, "type": "electric_scooter", "fusion_lat": 0.0, "lat": 38.910706166666664, "name": "b4cb5f999f4de9412c33005c310f6a7e", "fusion_lon": 0.0, "bike_id": "b4cb5f999f4de9412c33005c310f6a7e", "is_disabled": 0, "is_reserved": 0}, {"rental_uris": {"ios": "https://dc.lft.to/lastmile_qr_scan", "android": "https://dc.lft.to/lastmile_qr_scan"}, "lon": -77.115256, "type": "electric_bike", "fusion_lat": 0.0, "lat": 38.85489416666667, "name": "95f7f5397b8c01f8d75ea71829889a1e", "fusion_lon": 0.0, "bike_id": "95f7f5397b8c01f8d75ea71829889a1e", "is_disabled": 0, "is_reserved": 0}, {"rental_uris": {"ios": "https://dc.lft.to/lastmile_qr_scan", "android": "https://dc.lft.to/lastmile_qr_scan"}, "lon": -77.03184816666666, "type": "electric_scooter", "fusion_lat": 0.0, "lat": 38.887055833333335, "name": "b3e8109b3843cd0174490be1a46df2da", "fusion_lon": 0.0, "bike_id": "b3e8109b3843cd0174490be1a46df2da", "is_disabled": 0, "is_reserved": 0}, {"rental_uris": {"ios": "https://dc.lft.to/lastmile_qr_scan", "android": "https://dc.lft.to/lastmile_qr_scan"}, "lon": -77.03078133333334, "type": "electric_scooter", "fusion_lat": 0.0, "lat": 38.91186833333333, "name": "cd944fa5aaf728e03379b0363f4c7a9a", "fusion_lon": 0.0, "bike_id": "cd944fa5aaf728e03379b0363f4c7a9a", "is_disabled": 0, "is_reserved": 0}, {"rental_uris": {"ios": "https://dc.lft.to/lastmile_qr_scan", "android": "https://dc.lft.to/lastmile_qr_scan"}, "lon": -77.0575335, "type": "electric_scooter", "fusion_lat": 0.0, "lat": 38.93414216666667, "name": "7fe690a4da4e4c03e6abeaa7735afe7a", "fusion_lon": 0.0, "bike_id": "7fe690a4da4e4c03e6abeaa7735afe7a", "is_disabled": 0, "is_reserved": 0}, {"rental_uris": {"ios": "https://dc.lft.to/lastmile_qr_scan", "android": "https://dc.lft.to/lastmile_qr_scan"}, "lon": -77.0482045, "type": "electric_scooter", "fusion_lat": 0.0, "lat": 38.90383583333333, "name": "50aea3216518cf6664d595030a4b32da", "fusion_lon": 0.0, "bike_id": "50aea3216518cf6664d595030a4b32da", "is_disabled": 0, "is_reserved": 0}, {"rental_uris": {"ios": "https://dc.lft.to/lastmile_qr_scan", "android": "https://dc.lft.to/lastmile_qr_scan"}, "lon": -77.04593716666666, "type": "electric_scooter", "fusion_lat": 0.0, "lat": 38.917167, "name": "6f52f731939c344cba71f9c49ac424d2", "fusion_lon": 0.0, "bike_id": "6f52f731939c344cba71f9c49ac424d2", "is_disabled": 0, "is_reserved": 0}, {"rental_uris": {"ios": "https://dc.lft.to/lastmile_qr_scan", "android": "https://dc.lft.to/lastmile_qr_scan"}, "lon": -77.02963483333333, "type": "electric_scooter", "fusion_lat": 0.0, "lat": 38.93243983333333, "name": "29118cef924b54188c058dcc48e28a87", "fusion_lon": 0.0, "bike_id": "29118cef924b54188c058dcc48e28a87", "is_disabled": 0, "is_reserved": 0}, {"rental_uris": {"ios": "https://dc.lft.to/lastmile_qr_scan", "android": "https://dc.lft.to/lastmile_qr_scan"}, "lon": -77.03556483333334, "type": "electric_scooter", "fusion_lat": 0.0, "lat": 38.92679783333333, "name": "3cac1ce33a28099b6443b599c5943d13", "fusion_lon": 0.0, "bike_id": "3cac1ce33a28099b6443b599c5943d13", "is_disabled": 0, "is_reserved": 0}, {"rental_uris": {"ios": "https://dc.lft.to/lastmile_qr_scan", "android": "https://dc.lft.to/lastmile_qr_scan"}, "lon": -77.1359495, "type": "electric_bike", "fusion_lat": 0.0, "lat": 39.05344316666667, "name": "9ac28cbd84df1981b97c6ace5459f9a4", "fusion_lon": 0.0, "bike_id": "9ac28cbd84df1981b97c6ace5459f9a4", "is_disabled": 0, "is_reserved": 0}, {"rental_uris": {"ios": "https://dc.lft.to/lastmile_qr_scan", "android": "https://dc.lft.to/lastmile_qr_scan"}, "lon": -76.98633583333333, "type": "electric_scooter", "fusion_lat": 0.0, "lat": 38.868129833333334, "name": "3e058cacc2e739d4bd0f14171b13ac7b", "fusion_lon": 0.0, "bike_id": "3e058cacc2e739d4bd0f14171b13ac7b", "is_disabled": 0, "is_reserved": 0}, {"rental_uris": {"ios": "https://dc.lft.to/lastmile_qr_scan", "android": "https://dc.lft.to/lastmile_qr_scan"}, "lon": -77.0334145, "type": "electric_scooter", "fusion_lat": 0.0, "lat": 38.919117, "name": "e381ba921f473b9b2e8be250f2818c1c", "fusion_lon": 0.0, "bike_id": "e381ba921f473b9b2e8be250f2818c1c", "is_disabled": 0, "is_reserved": 0}, {"rental_uris": {"ios": "https://dc.lft.to/lastmile_qr_scan", "android": "https://dc.lft.to/lastmile_qr_scan"}, "lon": -77.05253983333333, "type": "electric_scooter", "fusion_lat": 0.0, "lat": 38.92375783333333, "name": "a4498349e68bfc24fd7dbf4e24a4d73a", "fusion_lon": 0.0, "bike_id": "a4498349e68bfc24fd7dbf4e24a4d73a", "is_disabled": 0, "is_reserved": 0}, {"rental_uris": {"ios": "https://dc.lft.to/lastmile_qr_scan", "android": "https://dc.lft.to/lastmile_qr_scan"}, "lon": -77.014273, "type": "electric_scooter", "fusion_lat": 0.0, "lat": 38.87744466666667, "name": "3e357a72f3ba9350697e8f5d6ab01b83", "fusion_lon": 0.0, "bike_id": "3e357a72f3ba9350697e8f5d6ab01b83", "is_disabled": 0, "is_reserved": 0}, {"rental_uris": {"ios": "https://dc.lft.to/lastmile_qr_scan", "android": "https://dc.lft.to/lastmile_qr_scan"}, "lon": -77.012584, "type": "electric_scooter", "fusion_lat": 0.0, "lat": 38.89964616666666, "name": "490603b2f080baef0736a91b1eaa4ea8", "fusion_lon": 0.0, "bike_id": "490603b2f080baef0736a91b1eaa4ea8", "is_disabled": 0, "is_reserved": 0}, {"rental_uris": {"ios": "https://dc.lft.to/lastmile_qr_scan", "android": "https://dc.lft.to/lastmile_qr_scan"}, "lon": -76.990042, "type": "electric_scooter", "fusion_lat": 0.0, "lat": 38.8650645, "name": "2859f5c165db3acb0f93fad5ba1cdfc1", "fusion_lon": 0.0, "bike_id": "2859f5c165db3acb0f93fad5ba1cdfc1", "is_disabled": 0, "is_reserved": 0}, {"rental_uris": {"ios": "https://dc.lft.to/lastmile_qr_scan", "android": "https://dc.lft.to/lastmile_qr_scan"}, "lon": -77.0111055, "type": "electric_scooter", "fusion_lat": 0.0, "lat": 38.895411833333334, "name": "353d72a4912b25f7c1ace2c33820443a", "fusion_lon": 0.0, "bike_id": "353d72a4912b25f7c1ace2c33820443a", "is_disabled": 0, "is_reserved": 0}, {"rental_uris": {"ios": "https://dc.lft.to/lastmile_qr_scan", "android": "https://dc.lft.to/lastmile_qr_scan"}, "lon": -77.02842016666666, "type": "electric_scooter", "fusion_lat": 0.0, "lat": 38.942612833333335, "name": "b320f92452d020efb0fe182749b32851", "fusion_lon": 0.0, "bike_id": "b320f92452d020efb0fe182749b32851", "is_disabled": 0, "is_reserved": 0}, {"rental_uris": {"ios": "https://dc.lft.to/lastmile_qr_scan", "android": "https://dc.lft.to/lastmile_qr_scan"}, "lon": -76.9988475, "type": "electric_scooter", "fusion_lat": 0.0, "lat": 38.907534166666665, "name": "179d5b293544d0c34c691f79a275b885", "fusion_lon": 0.0, "bike_id": "179d5b293544d0c34c691f79a275b885", "is_disabled": 0, "is_reserved": 0}, {"rental_uris": {"ios": "https://dc.lft.to/lastmile_qr_scan", "android": "https://dc.lft.to/lastmile_qr_scan"}, "lon": -77.04162566666666, "type": "electric_scooter", "fusion_lat": 0.0, "lat": 38.908401833333336, "name": "5ca24bd30af08428ced1563d8fca485b", "fusion_lon": 0.0, "bike_id": "5ca24bd30af08428ced1563d8fca485b", "is_disabled": 0, "is_reserved": 0}, {"rental_uris": {"ios": "https://dc.lft.to/lastmile_qr_scan", "android": "https://dc.lft.to/lastmile_qr_scan"}, "lon": -76.994891, "type": "electric_scooter", "fusion_lat": 0.0, "lat": 38.862380333333334, "name": "892b629215bb3e467b7f04819aacb33b", "fusion_lon": 0.0, "bike_id": "892b629215bb3e467b7f04819aacb33b", "is_disabled": 0, "is_reserved": 0}, {"rental_uris": {"ios": "https://dc.lft.to/lastmile_qr_scan", "android": "https://dc.lft.to/lastmile_qr_scan"}, "lon": -77.005769, "type": "electric_scooter", "fusion_lat": 0.0, "lat": 38.886002833333336, "name": "ca644311b596bcd826eef2038aa458f6", "fusion_lon": 0.0, "bike_id": "ca644311b596bcd826eef2038aa458f6", "is_disabled": 0, "is_reserved": 0}, {"rental_uris": {"ios": "https://dc.lft.to/lastmile_qr_scan", "android": "https://dc.lft.to/lastmile_qr_scan"}, "lon": -76.9317855, "type": "electric_scooter", "fusion_lat": 0.0, "lat": 38.8988385, "name": "c519eae2ff723cd8f3521011ea9cf92d", "fusion_lon": 0.0, "bike_id": "c519eae2ff723cd8f3521011ea9cf92d", "is_disabled": 0, "is_reserved": 0}, {"rental_uris": {"ios": "https://dc.lft.to/lastmile_qr_scan", "android": "https://dc.lft.to/lastmile_qr_scan"}, "lon": -77.35309566666666, "type": "electric_bike", "fusion_lat": 0.0, "lat": 38.9499985, "name": "e204c9fc92d3a56d8c70f60a39f7e894", "fusion_lon": 0.0, "bike_id": "e204c9fc92d3a56d8c70f60a39f7e894", "is_disabled": 0, "is_reserved": 0}, {"rental_uris": {"ios": "https://dc.lft.to/lastmile_qr_scan", "android": "https://dc.lft.to/lastmile_qr_scan"}, "lon": -77.02957166666667, "type": "electric_scooter", "fusion_lat": 0.0, "lat": 38.906189166666664, "name": "8ee5e1d90041f4f852acb5bd048a327f", "fusion_lon": 0.0, "bike_id": "8ee5e1d90041f4f852acb5bd048a327f", "is_disabled": 0, "is_reserved": 0}, {"rental_uris": {"ios": "https://dc.lft.to/lastmile_qr_scan", "android": "https://dc.lft.to/lastmile_qr_scan"}, "lon": -77.04371933333333, "type": "electric_scooter", "fusion_lat": 0.0, "lat": 38.903813166666666, "name": "b40818a3ea1627ef2ba9fe96fa4f0261", "fusion_lon": 0.0, "bike_id": "b40818a3ea1627ef2ba9fe96fa4f0261", "is_disabled": 0, "is_reserved": 0}, {"rental_uris": {"ios": "https://dc.lft.to/lastmile_qr_scan", "android": "https://dc.lft.to/lastmile_qr_scan"}, "lon": -77.04145833333334, "type": "electric_scooter", "fusion_lat": 0.0, "lat": 38.917084, "name": "d000164e07310dab0ac6ba6fe2c8b6fa", "fusion_lon": 0.0, "bike_id": "d000164e07310dab0ac6ba6fe2c8b6fa", "is_disabled": 0, "is_reserved": 0}, {"rental_uris": {"ios": "https://dc.lft.to/lastmile_qr_scan", "android": "https://dc.lft.to/lastmile_qr_scan"}, "lon": -77.02404683333333, "type": "electric_scooter", "fusion_lat": 0.0, "lat": 38.9159065, "name": "3c56b3b583ab036bb1f140466fc42701", "fusion_lon": 0.0, "bike_id": "3c56b3b583ab036bb1f140466fc42701", "is_disabled": 0, "is_reserved": 0}, {"rental_uris": {"ios": "https://dc.lft.to/lastmile_qr_scan", "android": "https://dc.lft.to/lastmile_qr_scan"}, "lon": -77.000547, "type": "electric_scooter", "fusion_lat": 0.0, "lat": 38.90881383333333, "name": "1334f43f339710be10c730de93c6eeb9", "fusion_lon": 0.0, "bike_id": "1334f43f339710be10c730de93c6eeb9", "is_disabled": 0, "is_reserved": 0}, {"rental_uris": {"ios": "https://dc.lft.to/lastmile_qr_scan", "android": "https://dc.lft.to/lastmile_qr_scan"}, "lon": -77.02711416666666, "type": "electric_scooter", "fusion_lat": 0.0, "lat": 38.88130983333333, "name": "c41e967ec9cf9ecd3de5f35bdd21d66c", "fusion_lon": 0.0, "bike_id": "c41e967ec9cf9ecd3de5f35bdd21d66c", "is_disabled": 0, "is_reserved": 0}, {"rental_uris": {"ios": "https://dc.lft.to/lastmile_qr_scan", "android": "https://dc.lft.to/lastmile_qr_scan"}, "lon": -77.04031033333334, "type": "electric_scooter", "fusion_lat": 0.0, "lat": 38.90362316666667, "name": "92342856859cf9e25c2c5a31b8db10ff", "fusion_lon": 0.0, "bike_id": "92342856859cf9e25c2c5a31b8db10ff", "is_disabled": 0, "is_reserved": 0}, {"rental_uris": {"ios": "https://dc.lft.to/lastmile_qr_scan", "android": "https://dc.lft.to/lastmile_qr_scan"}, "lon": -77.0436905, "type": "electric_scooter", "fusion_lat": 0.0, "lat": 38.93325566666667, "name": "c03bdb36421f26cece571db99393936d", "fusion_lon": 0.0, "bike_id": "c03bdb36421f26cece571db99393936d", "is_disabled": 0, "is_reserved": 0}, {"rental_uris": {"ios": "https://dc.lft.to/lastmile_qr_scan", "android": "https://dc.lft.to/lastmile_qr_scan"}, "lon": -77.03962566666667, "type": "electric_scooter", "fusion_lat": 0.0, "lat": 38.913596, "name": "8401f6aa6029c2f2f22b8bc34ee50a13", "fusion_lon": 0.0, "bike_id": "8401f6aa6029c2f2f22b8bc34ee50a13", "is_disabled": 0, "is_reserved": 0}, {"rental_uris": {"ios": "https://dc.lft.to/lastmile_qr_scan", "android": "https://dc.lft.to/lastmile_qr_scan"}, "lon": -77.026162, "type": "electric_scooter", "fusion_lat": 0.0, "lat": 38.88569566666666, "name": "aed4ccb00975908ad46b815e68a021b6", "fusion_lon": 0.0, "bike_id": "aed4ccb00975908ad46b815e68a021b6", "is_disabled": 0, "is_reserved": 0}, {"rental_uris": {"ios": "https://dc.lft.to/lastmile_qr_scan", "android": "https://dc.lft.to/lastmile_qr_scan"}, "lon": -77.0259935, "type": "electric_scooter", "fusion_lat": 0.0, "lat": 38.916897166666665, "name": "5b77b2d95d92d87390744c89cbeb080f", "fusion_lon": 0.0, "bike_id": "5b77b2d95d92d87390744c89cbeb080f", "is_disabled": 0, "is_reserved": 0}, {"rental_uris": {"ios": "https://dc.lft.to/lastmile_qr_scan", "android": "https://dc.lft.to/lastmile_qr_scan"}, "lon": -77.00939216666667, "type": "electric_scooter", "fusion_lat": 0.0, "lat": 38.876236166666665, "name": "e3ea5eb9757b45a27a1e3e928984ec2b", "fusion_lon": 0.0, "bike_id": "e3ea5eb9757b45a27a1e3e928984ec2b", "is_disabled": 0, "is_reserved": 0}, {"rental_uris": {"ios": "https://dc.lft.to/lastmile_qr_scan", "android": "https://dc.lft.to/lastmile_qr_scan"}, "lon": -76.97596266666666, "type": "electric_scooter", "fusion_lat": 0.0, "lat": 38.90331583333333, "name": "91ea148e34ac0dc4ce9d50daaf101a1b", "fusion_lon": 0.0, "bike_id": "91ea148e34ac0dc4ce9d50daaf101a1b", "is_disabled": 0, "is_reserved": 0}, {"rental_uris": {"ios": "https://dc.lft.to/lastmile_qr_scan", "android": "https://dc.lft.to/lastmile_qr_scan"}, "lon": -76.94624616666667, "type": "electric_bike", "fusion_lat": 0.0, "lat": 38.83231816666667, "name": "15e7e999879baad0c9ad2fcff39a264e", "fusion_lon": 0.0, "bike_id": "15e7e999879baad0c9ad2fcff39a264e", "is_disabled": 0, "is_reserved": 0}, {"rental_uris": {"ios": "https://dc.lft.to/lastmile_qr_scan", "android": "https://dc.lft.to/lastmile_qr_scan"}, "lon": -76.98095283333333, "type": "electric_bike", "fusion_lat": 0.0, "lat": 38.88132233333333, "name": "ef2a69310f21499a2b073a39589ddc17", "fusion_lon": 0.0, "bike_id": "ef2a69310f21499a2b073a39589ddc17", "is_disabled": 0, "is_reserved": 0}, {"rental_uris": {"ios": "https://dc.lft.to/lastmile_qr_scan", "android": "https://dc.lft.to/lastmile_qr_scan"}, "lon": -77.07725583333334, "type": "electric_scooter", "fusion_lat": 0.0, "lat": 38.9469775, "name": "0b67b2dd8225f978ff32e1b5bfd3602d", "fusion_lon": 0.0, "bike_id": "0b67b2dd8225f978ff32e1b5bfd3602d", "is_disabled": 0, "is_reserved": 0}, {"rental_uris": {"ios": "https://dc.lft.to/lastmile_qr_scan", "android": "https://dc.lft.to/lastmile_qr_scan"}, "lon": -77.0320605, "type": "electric_scooter", "fusion_lat": 0.0, "lat": 38.911557, "name": "1738e95d646e8db412fe23db6980b670", "fusion_lon": 0.0, "bike_id": "1738e95d646e8db412fe23db6980b670", "is_disabled": 0, "is_reserved": 0}, {"rental_uris": {"ios": "https://dc.lft.to/lastmile_qr_scan", "android": "https://dc.lft.to/lastmile_qr_scan"}, "lon": -76.98398633333333, "type": "electric_scooter", "fusion_lat": 0.0, "lat": 38.878360666666666, "name": "b498ca2a508e59f121ed5dc9724c2f5b", "fusion_lon": 0.0, "bike_id": "b498ca2a508e59f121ed5dc9724c2f5b", "is_disabled": 0, "is_reserved": 0}, {"rental_uris": {"ios": "https://dc.lft.to/lastmile_qr_scan", "android": "https://dc.lft.to/lastmile_qr_scan"}, "lon": -77.0346725, "type": "electric_scooter", "fusion_lat": 0.0, "lat": 38.923508, "name": "ad8addbc1b08a4a48d5e106c0c3973c1", "fusion_lon": 0.0, "bike_id": "ad8addbc1b08a4a48d5e106c0c3973c1", "is_disabled": 0, "is_reserved": 0}, {"rental_uris": {"ios": "https://dc.lft.to/lastmile_qr_scan", "android": "https://dc.lft.to/lastmile_qr_scan"}, "lon": -77.04249466666667, "type": "electric_scooter", "fusion_lat": 0.0, "lat": 38.922336, "name": "3ef9977164730ccf739031b76d2a765f", "fusion_lon": 0.0, "bike_id": "3ef9977164730ccf739031b76d2a765f", "is_disabled": 0, "is_reserved": 0}, {"rental_uris": {"ios": "https://dc.lft.to/lastmile_qr_scan", "android": "https://dc.lft.to/lastmile_qr_scan"}, "lon": -77.051725, "type": "electric_scooter", "fusion_lat": 0.0, "lat": 38.89758033333333, "name": "920d08dddc65c6a4b20fef9dd9b1890e", "fusion_lon": 0.0, "bike_id": "920d08dddc65c6a4b20fef9dd9b1890e", "is_disabled": 0, "is_reserved": 0}, {"rental_uris": {"ios": "https://dc.lft.to/lastmile_qr_scan", "android": "https://dc.lft.to/lastmile_qr_scan"}, "lon": -77.0120945, "type": "electric_bike", "fusion_lat": 0.0, "lat": 38.8708655, "name": "d168f18aa9e8e48622d59861f5d8bcc2", "fusion_lon": 0.0, "bike_id": "d168f18aa9e8e48622d59861f5d8bcc2", "is_disabled": 0, "is_reserved": 0}, {"rental_uris": {"ios": "https://dc.lft.to/lastmile_qr_scan", "android": "https://dc.lft.to/lastmile_qr_scan"}, "lon": -77.02183183333334, "type": "electric_scooter", "fusion_lat": 0.0, "lat": 38.88034783333333, "name": "7e29c4d12f2b083dfebda2ae9bf41fad", "fusion_lon": 0.0, "bike_id": "7e29c4d12f2b083dfebda2ae9bf41fad", "is_disabled": 0, "is_reserved": 0}, {"rental_uris": {"ios": "https://dc.lft.to/lastmile_qr_scan", "android": "https://dc.lft.to/lastmile_qr_scan"}, "lon": -77.04785466666667, "type": "electric_scooter", "fusion_lat": 0.0, "lat": 38.899596833333334, "name": "a4b4b0ab1248f7b512a2a95491213d4c", "fusion_lon": 0.0, "bike_id": "a4b4b0ab1248f7b512a2a95491213d4c", "is_disabled": 0, "is_reserved": 0}, {"rental_uris": {"ios": "https://dc.lft.to/lastmile_qr_scan", "android": "https://dc.lft.to/lastmile_qr_scan"}, "lon": -77.04178616666667, "type": "electric_scooter", "fusion_lat": 0.0, "lat": 38.91856966666667, "name": "75df7ac64989323a3faae549c266877f", "fusion_lon": 0.0, "bike_id": "75df7ac64989323a3faae549c266877f", "is_disabled": 0, "is_reserved": 0}, {"rental_uris": {"ios": "https://dc.lft.to/lastmile_qr_scan", "android": "https://dc.lft.to/lastmile_qr_scan"}, "lon": -77.07105433333334, "type": "electric_bike", "fusion_lat": 0.0, "lat": 38.9144875, "name": "4f6b6dee75d47b9e036df2cc9bb40f4c", "fusion_lon": 0.0, "bike_id": "4f6b6dee75d47b9e036df2cc9bb40f4c", "is_disabled": 0, "is_reserved": 0}, {"rental_uris": {"ios": "https://dc.lft.to/lastmile_qr_scan", "android": "https://dc.lft.to/lastmile_qr_scan"}, "lon": -77.032102, "type": "electric_scooter", "fusion_lat": 0.0, "lat": 38.91713566666667, "name": "161572e86e26df3ed45760efc0518b28", "fusion_lon": 0.0, "bike_id": "161572e86e26df3ed45760efc0518b28", "is_disabled": 0, "is_reserved": 0}, {"rental_uris": {"ios": "https://dc.lft.to/lastmile_qr_scan", "android": "https://dc.lft.to/lastmile_qr_scan"}, "lon": -77.03178266666667, "type": "electric_scooter", "fusion_lat": 0.0, "lat": 38.9127275, "name": "44374201a9c40ba9e842b0612d4a60ef", "fusion_lon": 0.0, "bike_id": "44374201a9c40ba9e842b0612d4a60ef", "is_disabled": 0, "is_reserved": 0}, {"rental_uris": {"ios": "https://dc.lft.to/lastmile_qr_scan", "android": "https://dc.lft.to/lastmile_qr_scan"}, "lon": -77.08941666666666, "type": "electric_bike", "fusion_lat": 0.0, "lat": 38.84107633333333, "name": "ffde63a235438399d59a22ac3557550d", "fusion_lon": 0.0, "bike_id": "ffde63a235438399d59a22ac3557550d", "is_disabled": 0, "is_reserved": 0}, {"rental_uris": {"ios": "https://dc.lft.to/lastmile_qr_scan", "android": "https://dc.lft.to/lastmile_qr_scan"}, "lon": -77.03962566666667, "type": "electric_bike", "fusion_lat": 0.0, "lat": 38.8052285, "name": "6ca00a9ebf3f02a2ad9d1e7809b0f1f0", "fusion_lon": 0.0, "bike_id": "6ca00a9ebf3f02a2ad9d1e7809b0f1f0", "is_disabled": 0, "is_reserved": 0}, {"rental_uris": {"ios": "https://dc.lft.to/lastmile_qr_scan", "android": "https://dc.lft.to/lastmile_qr_scan"},