{"data": {"bikes": [{"rental_uris": {"ios": "https://dc.lft.to/lastmile_qr_scan", "android": "https://dc.lft.to/lastmile_qr_scan"}, "type": "electric_scooter", "name": "d5cbf29c32666e96d6d3e35248763ff1", "is_reserved": 0, "lon": -77.03707766666666, "is_disabled": 0, "fusion_lat": 0.0, "lat": 38.92651866666667, "bike_id": "d5cbf29c32666e96d6d3e35248763ff1", "fusion_lon": 0.0}, {"rental_uris": {"ios": "https://dc.lft.to/lastmile_qr_scan", "android": "https://dc.lft.to/lastmile_qr_scan"}, "type": "electric_scooter", "name": "c8b9b01c53ec5a49f44b77c8991b2cba", "is_reserved": 0, "lon": -76.98034316666667, "is_disabled": 0, "fusion_lat": 0.0, "lat": 38.9000565, "bike_id": "c8b9b01c53ec5a49f44b77c8991b2cba", "fusion_lon": 0.0}, {"rental_uris": {"ios": "https://dc.lft.to/lastmile_qr_scan", "android": "https://dc.lft.to/lastmile_qr_scan"}, "type": "electric_scooter", "name": "ae4ee39a2dfae7229e6b9ab736d0d6d1", "is_reserved": 0, "lon": -77.01956716666666, "is_disabled": 0, "fusion_lat": 0.0, "lat": 38.92326583333333, "bike_id": "ae4ee39a2dfae7229e6b9ab736d0d6d1", "fusion_lon": 0.0}, {"rental_uris": {"ios": "https://dc.lft.to/lastmile_qr_scan", "android": "https://dc.lft.to/lastmile_qr_scan"}, "type": "electric_scooter", "name": "43736e22675619607a8cab86268fe2ab", "is_reserved": 0, "lon": -77.03895916666667, "is_disabled": 0, "fusion_lat": 0.0, "lat": 38.9035015, "bike_id": "43736e22675619607a8cab86268fe2ab", "fusion_lon": 0.0}, {"rental_uris": {"ios": "https://dc.lft.to/lastmile_qr_scan", "android": "https://dc.lft.to/lastmile_qr_scan"}, "type": "electric_scooter", "name": "14ae94a5cb790b19411fb06b397442bb", "is_reserved": 0, "lon": -77.05384366666667, "is_disabled": 0, "fusion_lat": 0.0, "lat": 38.923368333333336, "bike_id": "14ae94a5cb790b19411fb06b397442bb", "fusion_lon": 0.0}, {"rental_uris": {"ios": "https://dc.lft.to/lastmile_qr_scan", "android": "https://dc.lft.to/lastmile_qr_scan"}, "type": "electric_scooter", "name": "1e21e929a62356c77a1f972239dfbeb7", "is_reserved": 0, "lon": -77.0337045, "is_disabled": 0, "fusion_lat": 0.0, "lat": 38.91633616666667, "bike_id": "1e21e929a62356c77a1f972239dfbeb7", "fusion_lon": 0.0}, {"rental_uris": {"ios": "https://dc.lft.to/lastmile_qr_scan", "android": "https://dc.lft.to/lastmile_qr_scan"}, "type": "electric_bike", "name": "c6a09518d8c201f2b9ae3b3bfaea8a5b", "is_reserved": 0, "lon": -76.98247583333334, "is_disabled": 0, "fusion_lat": 0.0, "lat": 38.95233916666667, "bike_id": "c6a09518d8c201f2b9ae3b3bfaea8a5b", "fusion_lon": 0.0}, {"rental_uris": {"ios": "https://dc.lft.to/lastmile_qr_scan", "android": "https://dc.lft.to/lastmile_qr_scan"}, "type": "electric_scooter", "name": "f783b0cd4f98553a60600f89f6fffa1b", "is_reserved": 0, "lon": -77.01913416666666, "is_disabled": 0, "fusion_lat": 0.0, "lat": 38.89729716666667, "bike_id": "f783b0cd4f98553a60600f89f6fffa1b", "fusion_lon": 0.0}, {"rental_uris": {"ios": "https://dc.lft.to/lastmile_qr_scan", "android": "https://dc.lft.to/lastmile_qr_scan"}, "type": "electric_scooter", "name": "2d8e43f69bfcef155b6c49d9d836426b", "is_reserved": 0, "lon": -77.04080616666667, "is_disabled": 0, "fusion_lat": 0.0, "lat": 38.947857666666664, "bike_id": "2d8e43f69bfcef155b6c49d9d836426b", "fusion_lon": 0.0}, {"rental_uris": {"ios": "https://dc.lft.to/lastmile_qr_scan", "android": "https://dc.lft.to/lastmile_qr_scan"}, "type": "electric_scooter", "name": "9dadd64b1f9c9dc4fac134e821acc43f", "is_reserved": 0, "lon": -77.02984433333333, "is_disabled": 0, "fusion_lat": 0.0, "lat": 38.922615666666665, "bike_id": "9dadd64b1f9c9dc4fac134e821acc43f", "fusion_lon": 0.0}, {"rental_uris": {"ios": "https://dc.lft.to/lastmile_qr_scan", "android": "https://dc.lft.to/lastmile_qr_scan"}, "type": "electric_bike", "name": "a222d06ae98e468b736ed928e4d3e66d", "is_reserved": 0, "lon": -76.98020916666667, "is_disabled": 0, "fusion_lat": 0.0, "lat": 38.853105166666666, "bike_id": "a222d06ae98e468b736ed928e4d3e66d", "fusion_lon": 0.0}, {"rental_uris": {"ios": "https://dc.lft.to/lastmile_qr_scan", "android": "https://dc.lft.to/lastmile_qr_scan"}, "type": "electric_scooter", "name": "2304dd090c06f0f9d1c8e7cde02d4f2a", "is_reserved": 0, "lon": -77.05197166666666, "is_disabled": 0, "fusion_lat": 0.0, "lat": 38.90242766666667, "bike_id": "2304dd090c06f0f9d1c8e7cde02d4f2a", "fusion_lon": 0.0}, {"rental_uris": {"ios": "https://dc.lft.to/lastmile_qr_scan", "android": "https://dc.lft.to/lastmile_qr_scan"}, "type": "electric_scooter", "name": "555018db1e20a54cf2c99d9bf2ecbc25", "is_reserved": 0, "lon": -77.04494216666667, "is_disabled": 0, "fusion_lat": 0.0, "lat": 38.896133166666665, "bike_id": "555018db1e20a54cf2c99d9bf2ecbc25", "fusion_lon": 0.0}, {"rental_uris": {"ios": "https://dc.lft.to/lastmile_qr_scan", "android": "https://dc.lft.to/lastmile_qr_scan"}, "type": "electric_scooter", "name": "f59175583373acca266e4efab16dbc04", "is_reserved": 0, "lon": -77.0324815, "is_disabled": 0, "fusion_lat": 0.0, "lat": 38.915554166666666, "bike_id": "f59175583373acca266e4efab16dbc04", "fusion_lon": 0.0}, {"rental_uris": {"ios": "https://dc.lft.to/lastmile_qr_scan", "android": "https://dc.lft.to/lastmile_qr_scan"}, "type": "electric_scooter", "name": "9f478cc782d766d2a0e9e4b9553c65a9", "is_reserved": 0, "lon": -77.061254, "is_disabled": 0, "fusion_lat": 0.0, "lat": 38.906098666666665, "bike_id": "9f478cc782d766d2a0e9e4b9553c65a9", "fusion_lon": 0.0}, {"rental_uris": {"ios": "https://dc.lft.to/lastmile_qr_scan", "android": "https://dc.lft.to/lastmile_qr_scan"}, "type": "electric_scooter", "name": "6bb780fe6e48b81e34f5dc4501f54ce7", "is_reserved": 0, "lon": -77.04862966666667, "is_disabled": 0, "fusion_lat": 0.0, "lat": 38.89222, "bike_id": "6bb780fe6e48b81e34f5dc4501f54ce7", "fusion_lon": 0.0}, {"rental_uris": {"ios": "https://dc.lft.to/lastmile_qr_scan", "android": "https://dc.lft.to/lastmile_qr_scan"}, "type": "electric_bike", "name": "36439ef2915fda290e1e67aaf38ee62a", "is_reserved": 0, "lon": -76.98346366666667, "is_disabled": 0, "fusion_lat": 0.0, "lat": 38.862622333333334, "bike_id": "36439ef2915fda290e1e67aaf38ee62a", "fusion_lon": 0.0}, {"rental_uris": {"ios": "https://dc.lft.to/lastmile_qr_scan", "android": "https://dc.lft.to/lastmile_qr_scan"}, "type": "electric_scooter", "name": "a2ed27a1d9b15e3762efba637e400211", "is_reserved": 0, "lon": -77.0259115, "is_disabled": 0, "fusion_lat": 0.0, "lat": 38.96396283333333, "bike_id": "a2ed27a1d9b15e3762efba637e400211", "fusion_lon": 0.0}, {"rental_uris": {"ios": "https://dc.lft.to/lastmile_qr_scan", "android": "https://dc.lft.to/lastmile_qr_scan"}, "type": "electric_scooter", "name": "e5a730c718fdfb4332e29f2f64e59f83", "is_reserved": 0, "lon": -77.03636, "is_disabled": 0, "fusion_lat": 0.0, "lat": 38.917337833333335, "bike_id": "e5a730c718fdfb4332e29f2f64e59f83", "fusion_lon": 0.0}, {"rental_uris": {"ios": "https://dc.lft.to/lastmile_qr_scan", "android": "https://dc.lft.to/lastmile_qr_scan"}, "type": "electric_bike", "name": "c16c0d5952e2923783d84d6400fc5b24", "is_reserved": 0, "lon": -76.91801933333333, "is_disabled": 0, "fusion_lat": 0.0, "lat": 39.0000295, "bike_id": "c16c0d5952e2923783d84d6400fc5b24", "fusion_lon": 0.0}, {"rental_uris": {"ios": "https://dc.lft.to/lastmile_qr_scan", "android": "https://dc.lft.to/lastmile_qr_scan"}, "type": "electric_scooter", "name": "058afd901446522d900c37dd70f3aea1", "is_reserved": 0, "lon": -77.014498, "is_disabled": 0, "fusion_lat": 0.0, "lat": 38.899484666666666, "bike_id": "058afd901446522d900c37dd70f3aea1", "fusion_lon": 0.0}, {"rental_uris": {"ios": "https://dc.lft.to/lastmile_qr_scan", "android": "https://dc.lft.to/lastmile_qr_scan"}, "type": "electric_scooter", "name": "1200c0f795a0db227a79969c09e9f45f", "is_reserved": 0, "lon": -77.0281225, "is_disabled": 0, "fusion_lat": 0.0, "lat": 38.90560816666667, "bike_id": "1200c0f795a0db227a79969c09e9f45f", "fusion_lon": 0.0}, {"rental_uris": {"ios": "https://dc.lft.to/lastmile_qr_scan", "android": "https://dc.lft.to/lastmile_qr_scan"}, "type": "electric_scooter", "name": "3a30ed08bc324151369bad73d93a8376", "is_reserved": 0, "lon": -77.00549633333334, "is_disabled": 0, "fusion_lat": 0.0, "lat": 38.8753455, "bike_id": "3a30ed08bc324151369bad73d93a8376", "fusion_lon": 0.0}, {"rental_uris": {"ios": "https://dc.lft.to/lastmile_qr_scan", "android": "https://dc.lft.to/lastmile_qr_scan"}, "type": "electric_scooter", "name": "eea5b9fab801ba8c8120b7df76c551df", "is_reserved": 0, "lon": -77.03473483333333, "is_disabled": 0, "fusion_lat": 0.0, "lat": 38.92953083333333, "bike_id": "eea5b9fab801ba8c8120b7df76c551df", "fusion_lon": 0.0}, {"rental_uris": {"ios": "https://dc.lft.to/lastmile_qr_scan", "android": "https://dc.lft.to/lastmile_qr_scan"}, "type": "electric_scooter", "name": "22cd73f3bf724b111564d34314f2b0a4", "is_reserved": 0, "lon": -77.03758833333333, "is_disabled": 0, "fusion_lat": 0.0, "lat": 38.90144133333333, "bike_id": "22cd73f3bf724b111564d34314f2b0a4", "fusion_lon": 0.0}, {"rental_uris": {"ios": "https://dc.lft.to/lastmile_qr_scan", "android": "https://dc.lft.to/lastmile_qr_scan"}, "type": "electric_scooter", "name": "45303dd97aca8966f5acfa59aa4a6499", "is_reserved": 0, "lon": -77.05920333333333, "is_disabled": 0, "fusion_lat": 0.0, "lat": 38.9025275, "bike_id": "45303dd97aca8966f5acfa59aa4a6499", "fusion_lon": 0.0}, {"rental_uris": {"ios": "https://dc.lft.to/lastmile_qr_scan", "android": "https://dc.lft.to/lastmile_qr_scan"}, "type": "electric_scooter", "name": "bf53cc15b6b4668ee4084ee2ad7ff308", "is_reserved": 0, "lon": -76.93814933333333, "is_disabled": 0, "fusion_lat": 0.0, "lat": 38.898428833333334, "bike_id": "bf53cc15b6b4668ee4084ee2ad7ff308", "fusion_lon": 0.0}, {"rental_uris": {"ios": "https://dc.lft.to/lastmile_qr_scan", "android": "https://dc.lft.to/lastmile_qr_scan"}, "type": "electric_scooter", "name": "ec4beb0f99fefb7577b3f7895f2d0cda", "is_reserved": 0, "lon": -77.04197383333333, "is_disabled": 0, "fusion_lat": 0.0, "lat": 38.916748, "bike_id": "ec4beb0f99fefb7577b3f7895f2d0cda", "fusion_lon": 0.0}, {"rental_uris": {"ios": "https://dc.lft.to/lastmile_qr_scan", "android": "https://dc.lft.to/lastmile_qr_scan"}, "type": "electric_scooter", "name": "4f1d43ba82ad884bbdf3d88658d56c33", "is_reserved": 0, "lon": -77.017912, "is_disabled": 0, "fusion_lat": 0.0, "lat": 38.886039, "bike_id": "4f1d43ba82ad884bbdf3d88658d56c33", "fusion_lon": 0.0}, {"rental_uris": {"ios": "https://dc.lft.to/lastmile_qr_scan", "android": "https://dc.lft.to/lastmile_qr_scan"}, "type": "electric_bike", "name": "86bd5dc61319c80dea893acf79b6c570", "is_reserved": 0, "lon": -77.12976733333333, "is_disabled": 0, "fusion_lat": 0.0, "lat": 38.79986683333333, "bike_id": "86bd5dc61319c80dea893acf79b6c570", "fusion_lon": 0.0}, {"rental_uris": {"ios": "https://dc.lft.to/lastmile_qr_scan", "android": "https://dc.lft.to/lastmile_qr_scan"}, "type": "electric_scooter", "name": "608d9ed2690deae16b06c7c29cdf5fcf", "is_reserved": 0, "lon": -77.04157316666667, "is_disabled": 0, "fusion_lat": 0.0, "lat": 38.907607, "bike_id": "608d9ed2690deae16b06c7c29cdf5fcf", "fusion_lon": 0.0}, {"rental_uris": {"ios": "https://dc.lft.to/lastmile_qr_scan", "android": "https://dc.lft.to/lastmile_qr_scan"}, "type": "electric_scooter", "name": "903628edab7911fcb63758b3efc678af", "is_reserved": 0, "lon": -77.0009745, "is_disabled": 0, "fusion_lat": 0.0, "lat": 38.88126366666667, "bike_id": "903628edab7911fcb63758b3efc678af", "fusion_lon": 0.0}, {"rental_uris": {"ios": "https://dc.lft.to/lastmile_qr_scan", "android": "https://dc.lft.to/lastmile_qr_scan"}, "type": "electric_bike", "name": "a4ce4192fa9865e3144dd166ef48fe14", "is_reserved": 0, "lon": -77.02008933333333, "is_disabled": 0, "fusion_lat": 0.0, "lat": 38.96442416666667, "bike_id": "a4ce4192fa9865e3144dd166ef48fe14", "fusion_lon": 0.0}, {"rental_uris": {"ios": "https://dc.lft.to/lastmile_qr_scan", "android": "https://dc.lft.to/lastmile_qr_scan"}, "type": "electric_scooter", "name": "a2804613b44ce172660923d9fb1e486a", "is_reserved": 0, "lon": -77.01975883333333, "is_disabled": 0, "fusion_lat": 0.0, "lat": 38.89224016666667, "bike_id": "a2804613b44ce172660923d9fb1e486a", "fusion_lon": 0.0}, {"rental_uris": {"ios": "https://dc.lft.to/lastmile_qr_scan", "android": "https://dc.lft.to/lastmile_qr_scan"}, "type": "electric_scooter", "name": "2538193b7122c6d9027170b7bd9bb138", "is_reserved": 0, "lon": -76.98256866666667, "is_disabled": 0, "fusion_lat": 0.0, "lat": 38.866324166666665, "bike_id": "2538193b7122c6d9027170b7bd9bb138", "fusion_lon": 0.0}, {"rental_uris": {"ios": "https://dc.lft.to/lastmile_qr_scan", "android": "https://dc.lft.to/lastmile_qr_scan"}, "type": "electric_scooter", "name": "d13e33ec2c0c9a931a510c4afba44f41", "is_reserved": 0, "lon": -77.03252, "is_disabled": 0, "fusion_lat": 0.0, "lat": 38.9118355, "bike_id": "d13e33ec2c0c9a931a510c4afba44f41", "fusion_lon": 0.0}, {"rental_uris": {"ios": "https://dc.lft.to/lastmile_qr_scan", "android": "https://dc.lft.to/lastmile_qr_scan"}, "type": "electric_scooter", "name": "29790c6ef2023559d328bbfafe490083", "is_reserved": 0, "lon": -77.023305, "is_disabled": 0, "fusion_lat": 0.0, "lat": 38.92298983333333, "bike_id": "29790c6ef2023559d328bbfafe490083", "fusion_lon": 0.0}, {"rental_uris": {"ios": "https://dc.lft.to/lastmile_qr_scan", "android": "https://dc.lft.to/lastmile_qr_scan"}, "type": "electric_scooter", "name": "466a112d64a56bf399c680e3c1bb9d3f", "is_reserved": 0, "lon": -76.98357466666667, "is_disabled": 0, "fusion_lat": 0.0, "lat": 38.887403, "bike_id": "466a112d64a56bf399c680e3c1bb9d3f", "fusion_lon": 0.0}, {"rental_uris": {"ios": "https://dc.lft.to/lastmile_qr_scan", "android": "https://dc.lft.to/lastmile_qr_scan"}, "type": "electric_scooter", "name": "6a2cc0d1f625f408215db9c10322e181", "is_reserved": 0, "lon": -77.02590866666667, "is_disabled": 0, "fusion_lat": 0.0, "lat": 38.897546, "bike_id": "6a2cc0d1f625f408215db9c10322e181", "fusion_lon": 0.0}, {"rental_uris": {"ios": "https://dc.lft.to/lastmile_qr_scan", "android": "https://dc.lft.to/lastmile_qr_scan"}, "type": "electric_scooter", "name": "c23685b50e9be802eb4b76c610511b26", "is_reserved": 0, "lon": -77.01989033333334, "is_disabled": 0, "fusion_lat": 0.0, "lat": 38.89932533333333, "bike_id": "c23685b50e9be802eb4b76c610511b26", "fusion_lon": 0.0}, {"rental_uris": {"ios": "https://dc.lft.to/lastmile_qr_scan", "android": "https://dc.lft.to/lastmile_qr_scan"}, "type": "electric_scooter", "name": "850545f8add1c63f73c4a2ae5949b3e9", "is_reserved": 0, "lon": -77.0208855, "is_disabled": 0, "fusion_lat": 0.0, "lat": 38.927119166666664, "bike_id": "850545f8add1c63f73c4a2ae5949b3e9", "fusion_lon": 0.0}, {"rental_uris": {"ios": "https://dc.lft.to/lastmile_qr_scan", "android": "https://dc.lft.to/lastmile_qr_scan"}, "type": "electric_bike", "name": "c1859c6b2bd4bd9e2a6d78228d132f0b", "is_reserved": 0, "lon": -77.07950633333333, "is_disabled": 0, "fusion_lat": 0.0, "lat": 38.849056166666664, "bike_id": "c1859c6b2bd4bd9e2a6d78228d132f0b", "fusion_lon": 0.0}, {"rental_uris": {"ios": "https://dc.lft.to/lastmile_qr_scan", "android": "https://dc.lft.to/lastmile_qr_scan"}, "type": "electric_scooter", "name": "08b8bd3871e5c909f2025de5bfa74ae1", "is_reserved": 0, "lon": -77.04917766666667, "is_disabled": 0, "fusion_lat": 0.0, "lat": 38.90849083333333, "bike_id": "08b8bd3871e5c909f2025de5bfa74ae1", "fusion_lon": 0.0}, {"rental_uris": {"ios": "https://dc.lft.to/lastmile_qr_scan", "android": "https://dc.lft.to/lastmile_qr_scan"}, "type": "electric_scooter", "name": "a05e0f123204d294a6230f19047b66d0", "is_reserved": 0, "lon": -77.02689883333333, "is_disabled": 0, "fusion_lat": 0.0, "lat": 38.899778166666664, "bike_id": "a05e0f123204d294a6230f19047b66d0", "fusion_lon": 0.0}, {"rental_uris": {"ios": "https://dc.lft.to/lastmile_qr_scan", "android": "https://dc.lft.to/lastmile_qr_scan"}, "type": "electric_scooter", "name": "ebcb8f956e1f5aa1bd9cb4f8757a6d0b", "is_reserved": 0, "lon": -76.99527516666667, "is_disabled": 0, "fusion_lat": 0.0, "lat": 38.862721666666665, "bike_id": "ebcb8f956e1f5aa1bd9cb4f8757a6d0b", "fusion_lon": 0.0}, {"rental_uris": {"ios": "https://dc.lft.to/lastmile_qr_scan", "android": "https://dc.lft.to/lastmile_qr_scan"}, "type": "electric_scooter", "name": "e86c2a74d946fd5132376296a81ac3b7", "is_reserved": 0, "lon": -77.01431166666667, "is_disabled": 0, "fusion_lat": 0.0, "lat": 38.887456, "bike_id": "e86c2a74d946fd5132376296a81ac3b7", "fusion_lon": 0.0}, {"rental_uris": {"ios": "https://dc.lft.to/lastmile_qr_scan", "android": "https://dc.lft.to/lastmile_qr_scan"}, "type": "electric_scooter", "name": "316bfd22856355957f937f3288693a54", "is_reserved": 0, "lon": -77.038303, "is_disabled": 0, "fusion_lat": 0.0, "lat": 38.911803166666665, "bike_id": "316bfd22856355957f937f3288693a54", "fusion_lon": 0.0}, {"rental_uris": {"ios": "https://dc.lft.to/lastmile_qr_scan", "android": "https://dc.lft.to/lastmile_qr_scan"}, "type": "electric_scooter", "name": "1391b8f2e5dd900174648270105e6741", "is_reserved": 0, "lon": -77.07052183333333, "is_disabled": 0, "fusion_lat": 0.0, "lat": 38.899072, "bike_id": "1391b8f2e5dd900174648270105e6741", "fusion_lon": 0.0}, {"rental_uris": {"ios": "https://dc.lft.to/lastmile_qr_scan", "android": "https://dc.lft.to/lastmile_qr_scan"}, "type": "electric_scooter", "name": "4e641d65e8e1cf30551c30d706c6e3a2", "is_reserved": 0, "lon": -77.006844, "is_disabled": 0, "fusion_lat": 0.0, "lat": 38.884252333333336, "bike_id": "4e641d65e8e1cf30551c30d706c6e3a2", "fusion_lon": 0.0}, {"rental_uris": {"ios": "https://dc.lft.to/lastmile_qr_scan", "android": "https://dc.lft.to/lastmile_qr_scan"}, "type": "electric_scooter", "name": "2159cf84a49471239d4360da9a60a12f", "is_reserved": 0, "lon": -77.02815366666667, "is_disabled": 0, "fusion_lat": 0.0, "lat": 38.92313566666667, "bike_id": "2159cf84a49471239d4360da9a60a12f", "fusion_lon": 0.0}, {"rental_uris": {"ios": "https://dc.lft.to/lastmile_qr_scan", "android": "https://dc.lft.to/lastmile_qr_scan"}, "type": "electric_scooter", "name": "7411f4c5480c5fa7c09e20f57398a8a2", "is_reserved": 0, "lon": -77.07520566666666, "is_disabled": 0, "fusion_lat": 0.0, "lat": 38.93947516666667, "bike_id": "7411f4c5480c5fa7c09e20f57398a8a2", "fusion_lon": 0.0}, {"rental_uris": {"ios": "https://dc.lft.to/lastmile_qr_scan", "android": "https://dc.lft.to/lastmile_qr_scan"}, "type": "electric_scooter", "name": "61292489b664952a5ebdda045fee6ea3", "is_reserved": 0, "lon": -77.03789533333334, "is_disabled": 0, "fusion_lat": 0.0, "lat": 38.9154825, "bike_id": "61292489b664952a5ebdda045fee6ea3", "fusion_lon": 0.0}, {"rental_uris": {"ios": "https://dc.lft.to/lastmile_qr_scan", "android": "https://dc.lft.to/lastmile_qr_scan"}, "type": "electric_scooter", "name": "29cbf051e490206d1aff9afaf13d4fef", "is_reserved": 0, "lon": -77.009314, "is_disabled": 0, "fusion_lat": 0.0, "lat": 38.896322833333336, "bike_id": "29cbf051e490206d1aff9afaf13d4fef", "fusion_lon": 0.0}, {"rental_uris": {"ios": "https://dc.lft.to/lastmile_qr_scan", "android": "https://dc.lft.to/lastmile_qr_scan"}, "type": "electric_scooter", "name": "186c551e38719047fce0590f27b8001f", "is_reserved": 0, "lon": -77.02871183333333, "is_disabled": 0, "fusion_lat": 0.0, "lat": 38.90363633333333, "bike_id": "186c551e38719047fce0590f27b8001f", "fusion_lon": 0.0}, {"rental_uris": {"ios": "https://dc.lft.to/lastmile_qr_scan", "android": "https://dc.lft.to/lastmile_qr_scan"}, "type": "electric_scooter", "name": "357ea90fdaf2128a95a1ace4d16d63df", "is_reserved": 0, "lon": -77.01123633333333, "is_disabled": 0, "fusion_lat": 0.0, "lat": 38.91622183333333, "bike_id": "357ea90fdaf2128a95a1ace4d16d63df", "fusion_lon": 0.0}, {"rental_uris": {"ios": "https://dc.lft.to/lastmile_qr_scan", "android": "https://dc.lft.to/lastmile_qr_scan"}, "type": "electric_scooter", "name": "53ef925aade45c4d905d5aadeb3d6f14", "is_reserved": 0, "lon": -77.04348983333334, "is_disabled": 0, "fusion_lat": 0.0, "lat": 38.910493833333334, "bike_id": "53ef925aade45c4d905d5aadeb3d6f14", "fusion_lon": 0.0}, {"rental_uris": {"ios": "https://dc.lft.to/lastmile_qr_scan", "android": "https://dc.lft.to/lastmile_qr_scan"}, "type": "electric_scooter", "name": "668c493a57a02f94798841764c77ed49", "is_reserved": 0, "lon": -77.0293935, "is_disabled": 0, "fusion_lat": 0.0, "lat": 38.91550466666666, "bike_id": "668c493a57a02f94798841764c77ed49", "fusion_lon": 0.0}, {"rental_uris": {"ios": "https://dc.lft.to/lastmile_qr_scan", "android": "https://dc.lft.to/lastmile_qr_scan"}, "type": "electric_scooter", "name": "581fe67bb51bdb2b22692de443c34557", "is_reserved": 0, "lon": -77.01452483333334, "is_disabled": 0, "fusion_lat": 0.0, "lat": 38.9265495, "bike_id": "581fe67bb51bdb2b22692de443c34557", "fusion_lon": 0.0}, {"rental_uris": {"ios": "https://dc.lft.to/lastmile_qr_scan", "android": "https://dc.lft.to/lastmile_qr_scan"}, "type": "electric_scooter", "name": "283798783320953a1c5b55b1cda1a7e1", "is_reserved": 0, "lon": -77.05023816666667, "is_disabled": 0, "fusion_lat": 0.0, "lat": 38.923556833333336, "bike_id": "283798783320953a1c5b55b1cda1a7e1", "fusion_lon": 0.0}, {"rental_uris": {"ios": "https://dc.lft.to/lastmile_qr_scan", "android": "https://dc.lft.to/lastmile_qr_scan"}, "type": "electric_scooter", "name": "56a6aa48cc9b5557afff492e927d8529", "is_reserved": 0, "lon": -77.06259683333333, "is_disabled": 0, "fusion_lat": 0.0, "lat": 38.90521483333333, "bike_id": "56a6aa48cc9b5557afff492e927d8529", "fusion_lon": 0.0}, {"rental_uris": {"ios": "https://dc.lft.to/lastmile_qr_scan", "android": "https://dc.lft.to/lastmile_qr_scan"}, "type": "electric_scooter", "name": "be7ea8823294bbdbe8a6556dd27f3856", "is_reserved": 0, "lon": -77.00045866666666, "is_disabled": 0, "fusion_lat": 0.0, "lat": 38.875005, "bike_id": "be7ea8823294bbdbe8a6556dd27f3856", "fusion_lon": 0.0}, {"rental_uris": {"ios": "https://dc.lft.to/lastmile_qr_scan", "android": "https://dc.lft.to/lastmile_qr_scan"}, "type": "electric_scooter", "name": "c5520522ff5b6ee5587a14295c3818c6", "is_reserved": 0, "lon": -77.058744, "is_disabled": 0, "fusion_lat": 0.0, "lat": 38.9044405, "bike_id": "c5520522ff5b6ee5587a14295c3818c6", "fusion_lon": 0.0}, {"rental_uris": {"ios": "https://dc.lft.to/lastmile_qr_scan", "android": "https://dc.lft.to/lastmile_qr_scan"}, "type": "electric_scooter", "name": "1ddd2758a48931e2ffa3d3c91c7746fc", "is_reserved": 0, "lon": -77.06101416666667, "is_disabled": 0, "fusion_lat": 0.0, "lat": 38.902356, "bike_id": "1ddd2758a48931e2ffa3d3c91c7746fc", "fusion_lon": 0.0}, {"rental_uris": {"ios": "https://dc.lft.to/lastmile_qr_scan", "android": "https://dc.lft.to/lastmile_qr_scan"}, "type": "electric_scooter", "name": "33e96288ccf400a64c6f99bbea35649a", "is_reserved": 0, "lon": -77.00783166666666, "is_disabled": 0, "fusion_lat": 0.0, "lat": 38.87901433333333, "bike_id": "33e96288ccf400a64c6f99bbea35649a", "fusion_lon": 0.0}, {"rental_uris": {"ios": "https://dc.lft.to/lastmile_qr_scan", "android": "https://dc.lft.to/lastmile_qr_scan"}, "type": "electric_scooter", "name": "19688b1b3cfdeb3f7095c9d1a681dfa4", "is_reserved": 0, "lon": -77.03833983333334, "is_disabled": 0, "fusion_lat": 0.0, "lat": 38.911761166666665, "bike_id": "19688b1b3cfdeb3f7095c9d1a681dfa4", "fusion_lon": 0.0}, {"rental_uris": {"ios": "https://dc.lft.to/lastmile_qr_scan", "android": "https://dc.lft.to/lastmile_qr_scan"}, "type": "electric_scooter", "name": "22743118bbfb74d607328c50b1b13f1b", "is_reserved": 0, "lon": -77.03335783333333, "is_disabled": 0, "fusion_lat": 0.0, "lat": 38.917035166666665, "bike_id": "22743118bbfb74d607328c50b1b13f1b", "fusion_lon": 0.0}, {"rental_uris": {"ios": "https://dc.lft.to/lastmile_qr_scan", "android": "https://dc.lft.to/lastmile_qr_scan"}, "type": "electric_scooter", "name": "eba6b2e0c3643d50683b1a3a4b72ebb8", "is_reserved": 0, "lon": -77.0327965, "is_disabled": 0, "fusion_lat": 0.0, "lat": 38.89882, "bike_id": "eba6b2e0c3643d50683b1a3a4b72ebb8", "fusion_lon": 0.0}, {"rental_uris": {"ios": "https://dc.lft.to/lastmile_qr_scan", "android": "https://dc.lft.to/lastmile_qr_scan"}, "type": "electric_scooter", "name": "4ad13aa10939b2d155184fb936e5ce05", "is_reserved": 0, "lon": -77.06532266666666, "is_disabled": 0, "fusion_lat": 0.0, "lat": 38.905238833333335, "bike_id": "4ad13aa10939b2d155184fb936e5ce05", "fusion_lon": 0.0}, {"rental_uris": {"ios": "https://dc.lft.to/lastmile_qr_scan", "android": "https://dc.lft.to/lastmile_qr_scan"}, "type": "electric_bike", "name": "21166431cbc350869e0298e13ca9be5f", "is_reserved": 0, "lon": -77.221883, "is_disabled": 0, "fusion_lat": 0.0, "lat": 38.871737333333336, "bike_id": "21166431cbc350869e0298e13ca9be5f", "fusion_lon": 0.0}, {"rental_uris": {"ios": "https://dc.lft.to/lastmile_qr_scan", "android": "https://dc.lft.to/lastmile_qr_scan"}, "type": "electric_scooter", "name": "e6f64d66379ba24134aab7853fbbf6f7", "is_reserved": 0, "lon": -77.02970866666666, "is_disabled": 0, "fusion_lat": 0.0, "lat": 38.919099833333334, "bike_id": "e6f64d66379ba24134aab7853fbbf6f7", "fusion_lon": 0.0}, {"rental_uris": {"ios": "https://dc.lft.to/lastmile_qr_scan", "android": "https://dc.lft.to/lastmile_qr_scan"}, "type": "electric_scooter", "name": "d315a8efbc0cb4c3841564b9291b868e", "is_reserved": 0, "lon": -77.05139816666667, "is_disabled": 0, "fusion_lat": 0.0, "lat": 38.89748016666667, "bike_id": "d315a8efbc0cb4c3841564b9291b868e", "fusion_lon": 0.0}, {"rental_uris": {"ios": "https://dc.lft.to/lastmile_qr_scan", "android": "https://dc.lft.to/lastmile_qr_scan"}, "type": "electric_scooter", "name": "ed2d8df77fa5dc368d8ca17b58ede157", "is_reserved": 0, "lon": -77.03847666666667, "is_disabled": 0, "fusion_lat": 0.0, "lat": 38.91087316666667, "bike_id": "ed2d8df77fa5dc368d8ca17b58ede157", "fusion_lon": 0.0}, {"rental_uris": {"ios": "https://dc.lft.to/lastmile_qr_scan", "android": "https://dc.lft.to/lastmile_qr_scan"}, "type": "electric_scooter", "name": "e138f5a73b5588a8d479b729e12ac74a", "is_reserved": 0, "lon": -77.01222083333333, "is_disabled": 0, "fusion_lat": 0.0, "lat": 38.876631, "bike_id": "e138f5a73b5588a8d479b729e12ac74a", "fusion_lon": 0.0}, {"rental_uris": {"ios": "https://dc.lft.to/lastmile_qr_scan", "android": "https://dc.lft.to/lastmile_qr_scan"}, "type": "electric_scooter", "name": "fb7dbc9fd467de195020a48d8b973081", "is_reserved": 0, "lon": -77.0212415, "is_disabled": 0, "fusion_lat": 0.0, "lat": 38.923801, "bike_id": "fb7dbc9fd467de195020a48d8b973081", "fusion_lon": 0.0}, {"rental_uris": {"ios": "https://dc.lft.to/lastmile_qr_scan", "android": "https://dc.lft.to/lastmile_qr_scan"}, "type": "electric_scooter", "name": "b4f68428370825612488534e18d40c3e", "is_reserved": 0, "lon": -77.0385465, "is_disabled": 0, "fusion_lat": 0.0, "lat": 38.91548066666667, "bike_id": "b4f68428370825612488534e18d40c3e", "fusion_lon": 0.0}, {"rental_uris": {"ios": "https://dc.lft.to/lastmile_qr_scan", "android": "https://dc.lft.to/lastmile_qr_scan"}, "type": "electric_scooter", "name": "7868814ca27d6830d2e016b5b972cb67", "is_reserved": 0, "lon": -77.04057783333333, "is_disabled": 0, "fusion_lat": 0.0, "lat": 38.91749133333333, "bike_id": "7868814ca27d6830d2e016b5b972cb67", "fusion_lon": 0.0}, {"rental_uris": {"ios": "https://dc.lft.to/lastmile_qr_scan", "android": "https://dc.lft.to/lastmile_qr_scan"}, "type": "electric_scooter", "name": "d83390afe87be9eed5373de23e6be63f", "is_reserved": 0, "lon": -76.98096233333334, "is_disabled": 0, "fusion_lat": 0.0, "lat": 38.90398316666667, "bike_id": "d83390afe87be9eed5373de23e6be63f", "fusion_lon": 0.0}, {"rental_uris": {"ios": "https://dc.lft.to/lastmile_qr_scan", "android": "https://dc.lft.to/lastmile_qr_scan"}, "type": "electric_scooter", "name": "a80d44a1adeb1afb4da88e21db6ff8e5", "is_reserved": 0, "lon": -77.026627, "is_disabled": 0, "fusion_lat": 0.0, "lat": 38.9386165, "bike_id": "a80d44a1adeb1afb4da88e21db6ff8e5", "fusion_lon": 0.0}, {"rental_uris": {"ios": "https://dc.lft.to/lastmile_qr_scan", "android": "https://dc.lft.to/lastmile_qr_scan"}, "type": "electric_scooter", "name": "774ef779b9bc2a8247ceb34eebbdf3de", "is_reserved": 0, "lon": -77.038697, "is_disabled": 0, "fusion_lat": 0.0, "lat": 38.9188315, "bike_id": "774ef779b9bc2a8247ceb34eebbdf3de", "fusion_lon": 0.0}, {"rental_uris": {"ios": "https://dc.lft.to/lastmile_qr_scan", "android": "https://dc.lft.to/lastmile_qr_scan"}, "type": "electric_scooter", "name": "2a356ee0eba84c85d4b57c9991e302a6", "is_reserved": 0, "lon": -77.01185816666667, "is_disabled": 0, "fusion_lat": 0.0, "lat": 38.89704966666667, "bike_id": "2a356ee0eba84c85d4b57c9991e302a6", "fusion_lon": 0.0}, {"rental_uris": {"ios": "https://dc.lft.to/lastmile_qr_scan", "android": "https://dc.lft.to/lastmile_qr_scan"}, "type": "electric_bike", "name": "76cd0ed09da3b0aeeb16bd679a2cdfdc", "is_reserved": 0, "lon": -76.958228, "is_disabled": 0, "fusion_lat": 0.0, "lat": 38.919981666666665, "bike_id": "76cd0ed09da3b0aeeb16bd679a2cdfdc", "fusion_lon": 0.0}, {"rental_uris": {"ios": "https://dc.lft.to/lastmile_qr_scan", "android": "https://dc.lft.to/lastmile_qr_scan"}, "type": "electric_scooter", "name": "bff7f2529848340709fe362b4ed354cf", "is_reserved": 0, "lon": -77.0217145, "is_disabled": 0, "fusion_lat": 0.0, "lat": 38.89475483333333, "bike_id": "bff7f2529848340709fe362b4ed354cf", "fusion_lon": 0.0}, {"rental_uris": {"ios": "https://dc.lft.to/lastmile_qr_scan", "android": "https://dc.lft.to/lastmile_qr_scan"}, "type": "electric_scooter", "name": "866741bf83bfade651f01f88b0a739c4", "is_reserved": 0, "lon": -77.021336, "is_disabled": 0, "fusion_lat": 0.0, "lat": 38.9241705, "bike_id": "866741bf83bfade651f01f88b0a739c4", "fusion_lon": 0.0}, {"rental_uris": {"ios": "https://dc.lft.to/lastmile_qr_scan", "android": "https://dc.lft.to/lastmile_qr_scan"}, "type": "electric_scooter", "name": "6f691cc39519f0a3a7c486eab5705590", "is_reserved": 0, "lon": -77.0238835, "is_disabled": 0, "fusion_lat": 0.0, "lat": 38.931962666666664, "bike_id": "6f691cc39519f0a3a7c486eab5705590", "fusion_lon": 0.0}, {"rental_uris": {"ios": "https://dc.lft.to/lastmile_qr_scan", "android": "https://dc.lft.to/lastmile_qr_scan"}, "type": "electric_scooter", "name": "61ae7ec28a9ecd20e42ee7777b440ad7", "is_reserved": 0, "lon": -77.020776, "is_disabled": 0, "fusion_lat": 0.0, "lat": 38.9240925, "bike_id": "61ae7ec28a9ecd20e42ee7777b440ad7", "fusion_lon": 0.0}, {"rental_uris": {"ios": "https://dc.lft.to/lastmile_qr_scan", "android": "https://dc.lft.to/lastmile_qr_scan"}, "type": "electric_scooter", "name": "eb0a42a1cb806bf2fa35a0d376527ba4", "is_reserved": 0, "lon": -76.948531, "is_disabled": 0, "fusion_lat": 0.0, "lat": 38.88299766666667, "bike_id": "eb0a42a1cb806bf2fa35a0d376527ba4", "fusion_lon": 0.0}, {"rental_uris": {"ios": "https://dc.lft.to/lastmile_qr_scan", "android": "https://dc.lft.to/lastmile_qr_scan"}, "type": "electric_scooter", "name": "caf11e20d90f0f3264600ce11810ad00", "is_reserved": 0, "lon": -77.00370666666667, "is_disabled": 0, "fusion_lat": 0.0, "lat": 38.89265833333333, "bike_id": "caf11e20d90f0f3264600ce11810ad00", "fusion_lon": 0.0}, {"rental_uris": {"ios": "https://dc.lft.to/lastmile_qr_scan", "android": "https://dc.lft.to/lastmile_qr_scan"}, "type": "electric_scooter", "name": "ce4f2974af3decada1977fbd6cc21267", "is_reserved": 0, "lon": -77.02721216666667, "is_disabled": 0, "fusion_lat": 0.0, "lat": 38.910135333333336, "bike_id": "ce4f2974af3decada1977fbd6cc21267", "fusion_lon": 0.0}, {"rental_uris": {"ios": "https://dc.lft.to/lastmile_qr_scan", "android": "https://dc.lft.to/lastmile_qr_scan"}, "type": "electric_scooter", "name": "038379ef6bd60f46b0b67ec4161a115d", "is_reserved": 0, "lon": -77.0323445, "is_disabled": 0, "fusion_lat": 0.0, "lat": 38.91563266666667, "bike_id": "038379ef6bd60f46b0b67ec4161a115d", "fusion_lon": 0.0}, {"rental_uris": {"ios": "https://dc.lft.to/lastmile_qr_scan", "android": "https://dc.lft.to/lastmile_qr_scan"}, "type": "electric_scooter", "name": "85f76fb32d76dbe45090457fab3864e3", "is_reserved": 0, "lon": -77.0395345, "is_disabled": 0, "fusion_lat": 0.0, "lat": 38.8923835, "bike_id": "85f76fb32d76dbe45090457fab3864e3", "fusion_lon": 0.0}, {"rental_uris": {"ios": "https://dc.lft.to/lastmile_qr_scan", "android": "https://dc.lft.to/lastmile_qr_scan"}, "type": "electric_scooter", "name": "57ebbb1b0ea334f1196785855c5cb517", "is_reserved": 0, "lon": -77.0188395, "is_disabled": 0, "fusion_lat": 0.0, "lat": 38.89800433333333, "bike_id": "57ebbb1b0ea334f1196785855c5cb517", "fusion_lon": 0.0}, {"rental_uris": {"ios": "https://dc.lft.to/lastmile_qr_scan", "android": "https://dc.lft.to/lastmile_qr_scan"}, "type": "electric_scooter", "name": "c7bb0de60a9f9bd49a2ca2bf1b4349bd", "is_reserved": 0, "lon": -77.00449816666666, "is_disabled": 0, "fusion_lat": 0.0, "lat": 38.87645933333334, "bike_id": "c7bb0de60a9f9bd49a2ca2bf1b4349bd", "fusion_lon": 0.0}, {"rental_uris": {"ios": "https://dc.lft.to/lastmile_qr_scan", "android": "https://dc.lft.to/lastmile_qr_scan"}, "type": "electric_scooter", "name": "77d1cc9c29a45e429be63197d752669b", "is_reserved": 0, "lon": -77.02906616666667, "is_disabled": 0, "fusion_lat": 0.0, "lat": 38.94038966666667, "bike_id": "77d1cc9c29a45e429be63197d752669b", "fusion_lon": 0.0}, {"rental_uris": {"ios": "https://dc.lft.to/lastmile_qr_scan", "android": "https://dc.lft.to/lastmile_qr_scan"}, "type": "electric_scooter", "name": "1c6314fa30ac62f39c89154fb7575908", "is_reserved": 0, "lon": -76.99598983333334, "is_disabled": 0, "fusion_lat": 0.0, "lat": 38.8842885, "bike_id": "1c6314fa30ac62f39c89154fb7575908", "fusion_lon": 0.0}, {"rental_uris": {"ios": "https://dc.lft.to/lastmile_qr_scan", "android": "https://dc.lft.to/lastmile_qr_scan"}, "type": "electric_scooter", "name": "627a347158db58cf8dfb2d42a8ff5b2e", "is_reserved": 0, "lon": -77.03288533333334, "is_disabled": 0, "fusion_lat": 0.0, "lat": 38.956272166666665, "bike_id": "627a347158db58cf8dfb2d42a8ff5b2e", "fusion_lon": 0.0}, {"rental_uris": {"ios": "https://dc.lft.to/lastmile_qr_scan", "android": "https://dc.lft.to/lastmile_qr_scan"}, "type": "electric_bike", "name": "6ca3fb8448ccc837f4c5ca55b7055d8d", "is_reserved": 0, "lon": -77.0302055, "is_disabled": 0, "fusion_lat": 0.0, "lat": 38.87845683333333, "bike_id": "6ca3fb8448ccc837f4c5ca55b7055d8d", "fusion_lon": 0.0}, {"rental_uris": {"ios": "https://dc.lft.to/lastmile_qr_scan", "android": "https://dc.lft.to/lastmile_qr_scan"}, "type": "electric_scooter", "name": "2ad2e9a0a710b04a710c9517d8a2dd0b", "is_reserved": 0, "lon": -77.0384845, "is_disabled": 0, "fusion_lat": 0.0, "lat": 38.903738833333335, "bike_id": "2ad2e9a0a710b04a710c9517d8a2dd0b", "fusion_lon": 0.0}, {"rental_uris": {"ios": "https://dc.lft.to/lastmile_qr_scan", "android": "https://dc.lft.to/lastmile_qr_scan"}, "type": "electric_scooter", "name": "ba4c23c97c4d7f53a28f19fd1e2cb659", "is_reserved": 0, "lon": -76.97043583333334, "is_disabled": 0, "fusion_lat": 0.0, "lat": 38.8732565, "bike_id": "ba4c23c97c4d7f53a28f19fd1e2cb659", "fusion_lon": 0.0}, {"rental_uris": {"ios": "https://dc.lft.to/lastmile_qr_scan", "android": "https://dc.lft.to/lastmile_qr_scan"}, "type": "electric_scooter", "name": "1992a946279dcdce6464c1971ee6a681", "is_reserved": 0, "lon": -77.02818316666666, "is_disabled": 0, "fusion_lat": 0.0, "lat": 38.895509833333335, "bike_id": "1992a946279dcdce6464c1971ee6a681", "fusion_lon": 0.0}, {"rental_uris": {"ios": "https://dc.lft.to/lastmile_qr_scan", "android": "https://dc.lft.to/lastmile_qr_scan"}, "type": "electric_bike", "name": "f8534463b24761b352a02b39ec55d206", "is_reserved": 0, "lon": -77.06694266666666, "is_disabled": 0, "fusion_lat": 0.0, "lat": 38.831714166666664, "bike_id": "f8534463b24761b352a02b39ec55d206", "fusion_lon": 0.0}, {"rental_uris": {"ios": "https://dc.lft.to/lastmile_qr_scan", "android": "https://dc.lft.to/lastmile_qr_scan"}, "type": "electric_scooter", "name": "decdf5baccc77a4b0d834f540f36d848", "is_reserved": 0, "lon": -77.0004675, "is_disabled": 0, "fusion_lat": 0.0, "lat": 38.876243, "bike_id": "decdf5baccc77a4b0d834f540f36d848", "fusion_lon": 0.0}, {"rental_uris": {"ios": "https://dc.lft.to/lastmile_qr_scan", "android": "https://dc.lft.to/lastmile_qr_scan"}, "type": "electric_scooter", "name": "00a2a4e604650eced3f983533d239943", "is_reserved": 0, "lon": -77.02407133333334, "is_disabled": 0, "fusion_lat": 0.0, "lat": 38.89234733333333, "bike_id": "00a2a4e604650eced3f983533d239943", "fusion_lon": 0.0}, {"rental_uris": {"ios": "https://dc.lft.to/lastmile_qr_scan", "android": "https://dc.lft.to/lastmile_qr_scan"}, "type": "electric_scooter", "name": "41b5675029b40822b44ea2b694297f16", "is_reserved": 0, "lon": -76.99734983333333, "is_disabled": 0, "fusion_lat": 0.0, "lat": 38.92042766666667, "bike_id": "41b5675029b40822b44ea2b694297f16", "fusion_lon": 0.0}, {"rental_uris": {"ios": "https://dc.lft.to/lastmile_qr_scan", "android": "https://dc.lft.to/lastmile_qr_scan"}, "type": "electric_scooter", "name": "d5e4b3a23b1512c062536b9062142a53", "is_reserved": 0, "lon": -77.02148283333334, "is_disabled": 0, "fusion_lat": 0.0, "lat": 38.9029175, "bike_id": "d5e4b3a23b1512c062536b9062142a53", "fusion_lon": 0.0}, {"rental_uris": {"ios": "https://dc.lft.to/lastmile_qr_scan", "android": "https://dc.lft.to/lastmile_qr_scan"}, "type": "electric_scooter", "name": "e2584963e68fa6d51f1d03a9c6d368c3", "is_reserved": 0, "lon": -77.0296035, "is_disabled": 0, "fusion_lat": 0.0, "lat": 38.91690333333333, "bike_id": "e2584963e68fa6d51f1d03a9c6d368c3", "fusion_lon": 0.0}, {"rental_uris": {"ios": "https://dc.lft.to/lastmile_qr_scan", "android": "https://dc.lft.to/lastmile_qr_scan"}, "type": "electric_scooter", "name": "66037f4fb7a3545068414ee1349a0ec9", "is_reserved": 0, "lon": -77.04330416666667, "is_disabled": 0, "fusion_lat": 0.0, "lat": 38.908841, "bike_id": "66037f4fb7a3545068414ee1349a0ec9", "fusion_lon": 0.0}, {"rental_uris": {"ios": "https://dc.lft.to/lastmile_qr_scan", "android": "https://dc.lft.to/lastmile_qr_scan"}, "type": "electric_scooter", "name": "2f9eb62a97a701bd629a8d781e4bb899", "is_reserved": 0, "lon": -77.04653616666667, "is_disabled": 0, "fusion_lat": 0.0, "lat": 38.91051783333333, "bike_id": "2f9eb62a97a701bd629a8d781e4bb899", "fusion_lon": 0.0}, {"rental_uris": {"ios": "https://dc.lft.to/lastmile_qr_scan", "android": "https://dc.lft.to/lastmile_qr_scan"}, "type": "electric_bike", "name": "6465efb7ac5d05ac6d8c172ee03e6221", "is_reserved": 0, "lon": -77.0836605, "is_disabled": 0, "fusion_lat": 0.0, "lat": 38.854175833333336, "bike_id": "6465efb7ac5d05ac6d8c172ee03e6221", "fusion_lon": 0.0}, {"rental_uris": {"ios": "https://dc.lft.to/lastmile_qr_scan", "android": "https://dc.lft.to/lastmile_qr_scan"}, "type": "electric_scooter", "name": "b520a623abf47bc5eb2776bd4c33e27d", "is_reserved": 0, "lon": -76.96541166666667, "is_disabled": 0, "fusion_lat": 0.0, "lat": 38.878879, "bike_id": "b520a623abf47bc5eb2776bd4c33e27d", "fusion_lon": 0.0}, {"rental_uris": {"ios": "https://dc.lft.to/lastmile_qr_scan", "android": "https://dc.lft.to/lastmile_qr_scan"}, "type": "electric_scooter", "name": "1645d08ba62941e48501b7c07ba7e4d3", "is_reserved": 0, "lon": -77.040485, "is_disabled": 0, "fusion_lat": 0.0, "lat": 38.90405166666667, "bike_id": "1645d08ba62941e48501b7c07ba7e4d3", "fusion_lon": 0.0}, {"rental_uris": {"ios": "https://dc.lft.to/lastmile_qr_scan", "android": "https://dc.lft.to/lastmile_qr_scan"}, "type": "electric_scooter", "name": "374f2773bd413f18164cf73f3d661daa", "is_reserved": 0, "lon": -76.98778083333333, "is_disabled": 0, "fusion_lat": 0.0, "lat": 38.91197583333334, "bike_id": "374f2773bd413f18164cf73f3d661daa", "fusion_lon": 0.0}, {"rental_uris": {"ios": "https://dc.lft.to/lastmile_qr_scan", "android": "https://dc.lft.to/lastmile_qr_scan"}, "type": "electric_scooter", "name": "60d886fbd1f0dc37cac49f5e1514767a", "is_reserved": 0, "lon": -77.04758883333334, "is_disabled": 0, "fusion_lat": 0.0, "lat": 38.940952833333334, "bike_id": "60d886fbd1f0dc37cac49f5e1514767a", "fusion_lon": 0.0}, {"rental_uris": {"ios": "https://dc.lft.to/lastmile_qr_scan", "android": "https://dc.lft.to/lastmile_qr_scan"}, "type": "electric_scooter", "name": "474f0d40ffe1794f8aa2218adb72eae5", "is_reserved": 0, "lon": -77.021885, "is_disabled": 0, "fusion_lat": 0.0, "lat": 38.90353416666667, "bike_id": "474f0d40ffe1794f8aa2218adb72eae5", "fusion_lon": 0.0}, {"rental_uris": {"ios": "https://dc.lft.to/lastmile_qr_scan", "android": "https://dc.lft.to/lastmile_qr_scan"}, "type": "electric_scooter", "name": "962ab7b4c4390abe4f6b8b1ed8b5fff9", "is_reserved": 0, "lon": -77.0305885, "is_disabled": 0, "fusion_lat": 0.0, "lat": 38.924715, "bike_id": "962ab7b4c4390abe4f6b8b1ed8b5fff9", "fusion_lon": 0.0}, {"rental_uris": {"ios": "https://dc.lft.to/lastmile_qr_scan", "android": "https://dc.lft.to/lastmile_qr_scan"}, "type": "electric_scooter", "name": "8f83bf5b9d334e67f8f78d43e2cce415", "is_reserved": 0, "lon": -77.00750766666667, "is_disabled": 0, "fusion_lat": 0.0, "lat": 38.871325, "bike_id": "8f83bf5b9d334e67f8f78d43e2cce415", "fusion_lon": 0.0}, {"rental_uris": {"ios": "https://dc.lft.to/lastmile_qr_scan", "android": "https://dc.lft.to/lastmile_qr_scan"}, "type": "electric_bike", "name": "f03418ca50b813fcedc273aaf059a708", "is_reserved": 0, "lon": -76.9073315, "is_disabled": 0, "fusion_lat": 0.0, "lat": 38.896170833333336, "bike_id": "f03418ca50b813fcedc273aaf059a708", "fusion_lon": 0.0}, {"rental_uris": {"ios": "https://dc.lft.to/lastmile_qr_scan", "android": "https://dc.lft.to/lastmile_qr_scan"}, "type": "electric_scooter", "name": "176bc15f671c935e470ae28166990a59", "is_reserved": 0, "lon": -77.05327616666666, "is_disabled": 0, "fusion_lat": 0.0, "lat": 38.9025905, "bike_id": "176bc15f671c935e470ae28166990a59", "fusion_lon": 0.0}, {"rental_uris": {"ios": "https://dc.lft.to/lastmile_qr_scan", "android": "https://dc.lft.to/lastmile_qr_scan"}, "type": "electric_scooter", "name": "6b12564a791cc05e8c3c30b12e235465", "is_reserved": 0, "lon": -76.99234533333333, "is_disabled": 0, "fusion_lat": 0.0, "lat": 38.88748733333333, "bike_id": "6b12564a791cc05e8c3c30b12e235465", "fusion_lon": 0.0}, {"rental_uris": {"ios": "https://dc.lft.to/lastmile_qr_scan", "android": "https://dc.lft.to/lastmile_qr_scan"}, "type": "electric_scooter", "name": "01bb3446c847e435e79d3eedbaf32694", "is_reserved": 0, "lon": -77.05619166666666, "is_disabled": 0, "fusion_lat": 0.0, "lat": 38.906901, "bike_id": "01bb3446c847e435e79d3eedbaf32694", "fusion_lon": 0.0}, {"rental_uris": {"ios": "https://dc.lft.to/lastmile_qr_scan", "android": "https://dc.lft.to/lastmile_qr_scan"}, "type": "electric_scooter", "name": "5ffa5b7b2574bbc600e764384c6bd485", "is_reserved": 0, "lon": -77.024048, "is_disabled": 0, "fusion_lat": 0.0, "lat": 38.90674966666667, "bike_id": "5ffa5b7b2574bbc600e764384c6bd485", "fusion_lon": 0.0}, {"rental_uris": {"ios": "https://dc.lft.to/lastmile_qr_scan", "android": "https://dc.lft.to/lastmile_qr_scan"}, "type": "electric_scooter", "name": "ac2db3850c2cf1a327d28fc110b1c9e9", "is_reserved": 0, "lon": -76.996145, "is_disabled": 0, "fusion_lat": 0.0, "lat": 38.88520183333333, "bike_id": "ac2db3850c2cf1a327d28fc110b1c9e9", "fusion_lon": 0.0}, {"rental_uris": {"ios": "https://dc.lft.to/lastmile_qr_scan", "android": "https://dc.lft.to/lastmile_qr_scan"}, "type": "electric_scooter", "name": "0849d6eb5d878325ea297422bfa05c08", "is_reserved": 0, "lon": -77.038563, "is_disabled": 0, "fusion_lat": 0.0, "lat": 38.90133, "bike_id": "0849d6eb5d878325ea297422bfa05c08", "fusion_lon": 0.0}, {"rental_uris": {"ios": "https://dc.lft.to/lastmile_qr_scan", "android": "https://dc.lft.to/lastmile_qr_scan"}, "type": "electric_scooter", "name": "b1e4a9e06dd5b3be1cda84fcb3741fa5", "is_reserved": 0, "lon": -77.03971433333334, "is_disabled": 0, "fusion_lat": 0.0, "lat": 38.903064, "bike_id": "b1e4a9e06dd5b3be1cda84fcb3741fa5", "fusion_lon": 0.0}, {"rental_uris": {"ios": "https://dc.lft.to/lastmile_qr_scan", "android": "https://dc.lft.to/lastmile_qr_scan"}, "type": "electric_scooter", "name": "aaf59c2d394dc7718ba44fdb12d74008", "is_reserved": 0, "lon": -77.0082275, "is_disabled": 0, "fusion_lat": 0.0, "lat": 38.913755333333334, "bike_id": "aaf59c2d394dc7718ba44fdb12d74008", "fusion_lon": 0.0}, {"rental_uris": {"ios": "https://dc.lft.to/lastmile_qr_scan", "android": "https://dc.lft.to/lastmile_qr_scan"}, "type": "electric_scooter", "name": "e0d517c47c4011d42d9f1eb04788c4d9", "is_reserved": 0, "lon": -77.02073566666667, "is_disabled": 0, "fusion_lat": 0.0, "lat": 38.908659666666665, "bike_id": "e0d517c47c4011d42d9f1eb04788c4d9", "fusion_lon": 0.0}, {"rental_uris": {"ios": "https://dc.lft.to/lastmile_qr_scan", "android": "https://dc.lft.to/lastmile_qr_scan"}, "type": "electric_scooter", "name": "5e5abe560452fc372a3c6e344d1c5b3f", "is_reserved": 0, "lon": -76.99345983333333, "is_disabled": 0, "fusion_lat": 0.0, "lat": 38.8769265, "bike_id": "5e5abe560452fc372a3c6e344d1c5b3f", "fusion_lon": 0.0}, {"rental_uris": {"ios": "https://dc.lft.to/lastmile_qr_scan", "android": "https://dc.lft.to/lastmile_qr_scan"}, "type": "electric_scooter", "name": "2cef2f632d147aa496ae7e524f2305b1", "is_reserved": 0, "lon": -77.01769933333334, "is_disabled": 0, "fusion_lat": 0.0, "lat": 38.900407333333334, "bike_id": "2cef2f632d147aa496ae7e524f2305b1", "fusion_lon": 0.0}, {"rental_uris": {"ios": "https://dc.lft.to/lastmile_qr_scan", "android": "https://dc.lft.to/lastmile_qr_scan"}, "type": "electric_scooter", "name": "f22ccf351df76356d4005bfa0b8baa38", "is_reserved": 0, "lon": -77.0384925, "is_disabled": 0, "fusion_lat": 0.0, "lat": 38.9110245, "bike_id": "f22ccf351df76356d4005bfa0b8baa38", "fusion_lon": 0.0}, {"rental_uris": {"ios": "https://dc.lft.to/lastmile_qr_scan", "android": "https://dc.lft.to/lastmile_qr_scan"}, "type": "electric_scooter", "name": "90e6bf781168783b49d3d3916c44da07", "is_reserved": 0, "lon": -77.0312475, "is_disabled": 0, "fusion_lat": 0.0, "lat": 38.915538833333336, "bike_id": "90e6bf781168783b49d3d3916c44da07", "fusion_lon": 0.0}, {"rental_uris": {"ios": "https://dc.lft.to/lastmile_qr_scan", "android": "https://dc.lft.to/lastmile_qr_scan"}, "type": "electric_scooter", "name": "0fda3d9fa435078507c8281cefab6fe0", "is_reserved": 0, "lon": -76.98928983333333, "is_disabled": 0, "fusion_lat": 0.0, "lat": 38.87865016666667, "bike_id": "0fda3d9fa435078507c8281cefab6fe0", "fusion_lon": 0.0}, {"rental_uris": {"ios": "https://dc.lft.to/lastmile_qr_scan", "android": "https://dc.lft.to/lastmile_qr_scan"}, "type": "electric_scooter", "name": "5f0ded815bd73329f858e2be7b0c1c4a", "is_reserved": 0, "lon": -77.0591115, "is_disabled": 0, "fusion_lat": 0.0, "lat": 38.901653833333334, "bike_id": "5f0ded815bd73329f858e2be7b0c1c4a", "fusion_lon": 0.0}, {"rental_uris": {"ios": "https://dc.lft.to/lastmile_qr_scan", "android": "https://dc.lft.to/lastmile_qr_scan"}, "type": "electric_scooter", "name": "c12a2c01bae1795724ea956638ecbc7d", "is_reserved": 0, "lon": -76.9953705, "is_disabled": 0, "fusion_lat": 0.0, "lat": 38.8774915, "bike_id": "c12a2c01bae1795724ea956638ecbc7d", "fusion_lon": 0.0}, {"rental_uris": {"ios": "https://dc.lft.to/lastmile_qr_scan", "android": "https://dc.lft.to/lastmile_qr_scan"}, "type": "electric_scooter", "name": "30322211cc4fb870e7683e53e17969be", "is_reserved": 0, "lon": -77.04131133333334, "is_disabled": 0, "fusion_lat": 0.0, "lat": 38.93279833333333, "bike_id": "30322211cc4fb870e7683e53e17969be", "fusion_lon": 0.0}, {"rental_uris": {"ios": "https://dc.lft.to/lastmile_qr_scan", "android": "https://dc.lft.to/lastmile_qr_scan"}, "type": "electric_bike", "name": "4b50b951debfcb43a4d9144f3b7db8fb", "is_reserved": 0, "lon": -77.0503515, "is_disabled": 0, "fusion_lat": 0.0, "lat": 39.0389415, "bike_id": "4b50b951debfcb43a4d9144f3b7db8fb", "fusion_lon": 0.0}, {"rental_uris": {"ios": "https://dc.lft.to/lastmile_qr_scan", "android": "https://dc.lft.to/lastmile_qr_scan"}, "type": "electric_bike", "name": "22beebb02f55c6cfdb028e8e45df862f", "is_reserved": 0, "lon": -77.11360333333333, "is_disabled": 0, "fusion_lat": 0.0, "lat": 38.841946666666665, "bike_id": "22beebb02f55c6cfdb028e8e45df862f", "fusion_lon": 0.0}, {"rental_uris": {"ios": "https://dc.lft.to/lastmile_qr_scan", "android": "https://dc.lft.to/lastmile_qr_scan"}, "type": "electric_scooter", "name": "4be9d49e70cbbb055ea72d3b364023d7", "is_reserved": 0, "lon": -77.0434965, "is_disabled": 0, "fusion_lat": 0.0, "lat": 38.9104515, "bike_id": "4be9d49e70cbbb055ea72d3b364023d7", "fusion_lon": 0.0}, {"rental_uris": {"ios": "https://dc.lft.to/lastmile_qr_scan", "android": "https://dc.lft.to/lastmile_qr_scan"}, "type": "electric_scooter", "name": "def33d6f1d9d09055aae68e4943194e4", "is_reserved": 0, "lon": -77.07449783333334, "is_disabled": 0, "fusion_lat": 0.0, "lat": 38.93781633333333, "bike_id": "def33d6f1d9d09055aae68e4943194e4", "fusion_lon": 0.0}, {"rental_uris": {"ios": "https://dc.lft.to/lastmile_qr_scan", "android": "https://dc.lft.to/lastmile_qr_scan"}, "type": "electric_scooter", "name": "45268ff3e771a909b0a8d6e26121dc29", "is_reserved": 0, "lon": -77.02485183333333, "is_disabled": 0, "fusion_lat": 0.0, "lat": 38.917037, "bike_id": "45268ff3e771a909b0a8d6e26121dc29", "fusion_lon": 0.0}, {"rental_uris": {"ios": "https://dc.lft.to/lastmile_qr_scan", "android": "https://dc.lft.to/lastmile_qr_scan"}, "type": "electric_scooter", "name": "a84c477708ebc9c9143680ef243e11a7", "is_reserved": 0, "lon": -76.98108383333333, "is_disabled": 0, "fusion_lat": 0.0, "lat": 38.9024975, "bike_id": "a84c477708ebc9c9143680ef243e11a7", "fusion_lon": 0.0}, {"rental_uris": {"ios": "https://dc.lft.to/lastmile_qr_scan", "android": "https://dc.lft.to/lastmile_qr_scan"}, "type": "electric_scooter", "name": "dfbf367075d41863a4746677d843c89e", "is_reserved": 0, "lon": -76.99908383333333, "is_disabled": 0, "fusion_lat": 0.0, "lat": 38.921759333333334, "bike_id": "dfbf367075d41863a4746677d843c89e", "fusion_lon": 0.0}, {"rental_uris": {"ios": "https://dc.lft.to/lastmile_qr_scan", "android": "https://dc.lft.to/lastmile_qr_scan"}, "type": "electric_scooter", "name": "f9bacfe08b0ca863ebc810c8dd86b665", "is_reserved": 0, "lon": -77.03849533333333, "is_disabled": 0, "fusion_lat": 0.0, "lat": 38.91166233333333, "bike_id": "f9bacfe08b0ca863ebc810c8dd86b665", "fusion_lon": 0.0}, {"rental_uris": {"ios": "https://dc.lft.to/lastmile_qr_scan", "android": "https://dc.lft.to/lastmile_qr_scan"}, "type": "electric_bike", "name": "a66f2eefc522fc35fd471409869cc0f9", "is_reserved": 0, "lon": -77.02584633333333, "is_disabled": 0, "fusion_lat": 0.0, "lat": 38.97873716666667, "bike_id": "a66f2eefc522fc35fd471409869cc0f9", "fusion_lon": 0.0}, {"rental_uris": {"ios": "https://dc.lft.to/lastmile_qr_scan", "android": "https://dc.lft.to/lastmile_qr_scan"}, "type": "electric_scooter", "name": "1d202867536075a043932c2e822fa145", "is_reserved": 0, "lon": -77.03381116666667, "is_disabled": 0, "fusion_lat": 0.0, "lat": 38.89480066666667, "bike_id": "1d202867536075a043932c2e822fa145", "fusion_lon": 0.0}, {"rental_uris": {"ios": "https://dc.lft.to/lastmile_qr_scan", "android": "https://dc.lft.to/lastmile_qr_scan"}, "type": "electric_scooter", "name": "e27e87bcd1381104c2c7e52cab457ce0", "is_reserved": 0, "lon": -77.05296366666667, "is_disabled": 0, "fusion_lat": 0.0, "lat": 38.903425, "bike_id": "e27e87bcd1381104c2c7e52cab457ce0", "fusion_lon": 0.0}, {"rental_uris": {"ios": "https://dc.lft.to/lastmile_qr_scan", "android": "https://dc.lft.to/lastmile_qr_scan"}, "type": "electric_scooter", "name": "78e6acc20e606bb8b6a9b734ca513d6e", "is_reserved": 0, "lon": -77.03388783333334, "is_disabled": 0, "fusion_lat": 0.0, "lat": 38.928730333333334, "bike_id": "78e6acc20e606bb8b6a9b734ca513d6e", "fusion_lon": 0.0}, {"rental_uris": {"ios": "https://dc.lft.to/lastmile_qr_scan", "android": "https://dc.lft.to/lastmile_qr_scan"}, "type": "electric_scooter", "name": "ebce856e590181f94daf6061b70657e4", "is_reserved": 0, "lon": -76.9950195, "is_disabled": 0, "fusion_lat": 0.0, "lat": 38.86244633333333, "bike_id": "ebce856e590181f94daf6061b70657e4", "fusion_lon": 0.0}, {"rental_uris": {"ios": "https://dc.lft.to/lastmile_qr_scan", "android": "https://dc.lft.to/lastmile_qr_scan"}, "type": "electric_scooter", "name": "2c615f8cbe6ff0c669761a1510f4cd8e", "is_reserved": 0, "lon": -77.03096516666666, "is_disabled": 0, "fusion_lat": 0.0, "lat": 38.928597333333336, "bike_id": "2c615f8cbe6ff0c669761a1510f4cd8e", "fusion_lon": 0.0}, {"rental_uris": {"ios": "https://dc.lft.to/lastmile_qr_scan", "android": "https://dc.lft.to/lastmile_qr_scan"}, "type": "electric_bike", "name": "6892b33188b411a71dd9211d60e7d2af", "is_reserved": 0, "lon": -76.99914916666667, "is_disabled": 0, "fusion_lat": 0.0, "lat": 38.86446216666667, "bike_id": "6892b33188b411a71dd9211d60e7d2af", "fusion_lon": 0.0}, {"rental_uris": {"ios": "https://dc.lft.to/lastmile_qr_scan", "android": "https://dc.lft.to/lastmile_qr_scan"}, "type": "electric_scooter", "name": "f0f2aa6254dd51ef4835dbc15c098596", "is_reserved": 0, "lon": -77.02202433333333, "is_disabled": 0, "fusion_lat": 0.0, "lat": 38.905409, "bike_id": "f0f2aa6254dd51ef4835dbc15c098596", "fusion_lon": 0.0}, {"rental_uris": {"ios": "https://dc.lft.to/lastmile_qr_scan", "android": "https://dc.lft.to/lastmile_qr_scan"}, "type": "electric_scooter", "name": "a04bd3bf35f499afd21d7331fd959cb2", "is_reserved": 0, "lon": -77.04078, "is_disabled": 0, "fusion_lat": 0.0, "lat": 38.947799833333335, "bike_id": "a04bd3bf35f499afd21d7331fd959cb2", "fusion_lon": 0.0}, {"rental_uris": {"ios": "https://dc.lft.to/lastmile_qr_scan", "android": "https://dc.lft.to/lastmile_qr_scan"}, "type": "electric_scooter", "name": "515640a9b68d7031f2667b73e8f041ca", "is_reserved": 0, "lon": -77.01585716666666, "is_disabled": 0, "fusion_lat": 0.0, "lat": 38.916469666666664, "bike_id": "515640a9b68d7031f2667b73e8f041ca", "fusion_lon": 0.0}, {"rental_uris": {"ios": "https://dc.lft.to/lastmile_qr_scan", "android": "https://dc.lft.to/lastmile_qr_scan"}, "type": "electric_scooter", "name": "12528699fae6bdffc13c8193b6b41d5f", "is_reserved": 0, "lon": -77.034453, "is_disabled": 0, "fusion_lat": 0.0, "lat": 38.90734883333333, "bike_id": "12528699fae6bdffc13c8193b6b41d5f", "fusion_lon": 0.0}, {"rental_uris": {"ios": "https://dc.lft.to/lastmile_qr_scan", "android": "https://dc.lft.to/lastmile_qr_scan"}, "type": "electric_scooter", "name": "148215330bb852a48bbb9370ce466b33", "is_reserved": 0, "lon": -77.01088933333334, "is_disabled": 0, "fusion_lat": 0.0, "lat": 38.89803, "bike_id": "148215330bb852a48bbb9370ce466b33", "fusion_lon": 0.0}, {"rental_uris": {"ios": "https://dc.lft.to/lastmile_qr_scan", "android": "https://dc.lft.to/lastmile_qr_scan"}, "type": "electric_scooter", "name": "87ddc9645608123c6ae5c5ccbbf7735f", "is_reserved": 0, "lon": -77.00425816666667, "is_disabled": 0, "fusion_lat": 0.0, "lat": 38.877202, "bike_id": "87ddc9645608123c6ae5c5ccbbf7735f", "fusion_lon": 0.0}, {"rental_uris": {"ios": "https://dc.lft.to/lastmile_qr_scan", "android": "https://dc.lft.to/lastmile_qr_scan"}, "type": "electric_scooter", "name": "a2e0300c9859a652b4d729123ce2e949", "is_reserved": 0, "lon": -77.03516833333333, "is_disabled": 0, "fusion_lat": 0.0, "lat": 38.90963283333333, "bike_id": "a2e0300c9859a652b4d729123ce2e949", "fusion_lon": 0.0}, {"rental_uris": {"ios": "https://dc.lft.to/lastmile_qr_scan", "android": "https://dc.lft.to/lastmile_qr_scan"}, "type": "electric_scooter", "name": "ba4ef2eebcaacd59905b8e86b10576c1", "is_reserved": 0, "lon": -77.00920133333334, "is_disabled": 0, "fusion_lat": 0.0, "lat": 38.89881833333333, "bike_id": "ba4ef2eebcaacd59905b8e86b10576c1", "fusion_lon": 0.0}, {"rental_uris": {"ios": "https://dc.lft.to/lastmile_qr_scan", "android": "https://dc.lft.to/lastmile_qr_scan"}, "type": "electric_scooter", "name": "108d84261ad1c81b89e5e807e1083d7b", "is_reserved": 0, "lon": -77.07270766666667, "is_disabled": 0, "fusion_lat": 0.0, "lat": 38.922154166666665, "bike_id": "108d84261ad1c81b89e5e807e1083d7b", "fusion_lon": 0.0}, {"rental_uris": {"ios": "https://dc.lft.to/lastmile_qr_scan", "android": "https://dc.lft.to/lastmile_qr_scan"}, "type": "electric_scooter", "name": "73d0717636e46ae7a91828abe055f517", "is_reserved": 0, "lon": -77.01667883333333, "is_disabled": 0, "fusion_lat": 0.0, "lat": 38.935198, "bike_id": "73d0717636e46ae7a91828abe055f517", "fusion_lon": 0.0}, {"rental_uris": {"ios": "https://dc.lft.to/lastmile_qr_scan", "android": "https://dc.lft.to/lastmile_qr_scan"}, "type": "electric_scooter", "name": "f71437ae01ca29859274d54e38022a4b", "is_reserved": 0, "lon": -77.03297483333333, "is_disabled": 0, "fusion_lat": 0.0, "lat": 38.903822, "bike_id": "f71437ae01ca29859274d54e38022a4b", "fusion_lon": 0.0}, {"rental_uris": {"ios": "https://dc.lft.to/lastmile_qr_scan", "android": "https://dc.lft.to/lastmile_qr_scan"}, "type": "electric_scooter", "name": "16c9e4b44b761c9fc7afd2f79653eeb6", "is_reserved": 0, "lon": -77.00209466666666, "is_disabled": 0, "fusion_lat": 0.0, "lat": 38.89330316666667, "bike_id": "16c9e4b44b761c9fc7afd2f79653eeb6", "fusion_lon": 0.0}, {"rental_uris": {"ios": "https://dc.lft.to/lastmile_qr_scan", "android": "https://dc.lft.to/lastmile_qr_scan"}, "type": "electric_bike", "name": "e3c0e92f743d648fe5cc44d6dcbde39d", "is_reserved": 0, "lon": -76.96914566666666, "is_disabled": 0, "fusion_lat": 0.0, "lat": 38.8461305, "bike_id": "e3c0e92f743d648fe5cc44d6dcbde39d", "fusion_lon": 0.0}, {"rental_uris": {"ios": "https://dc.lft.to/lastmile_qr_scan", "android": "https://dc.lft.to/lastmile_qr_scan"}, "type": "electric_bike", "name": "279f6d129313ca136e4223560cbb1a5f", "is_reserved": 0, "lon": -77.0013575, "is_disabled": 0, "fusion_lat": 0.0, "lat": 38.99502716666667, "bike_id": "279f6d129313ca136e4223560cbb1a5f", "fusion_lon": 0.0}, {"rental_uris": {"ios": "https://dc.lft.to/lastmile_qr_scan", "android": "https://dc.lft.to/lastmile_qr_scan"}, "type": "electric_scooter", "name": "343567fb8341c54c55fdaa9ea3c4f06e", "is_reserved": 0, "lon": -77.0336035, "is_disabled": 0, "fusion_lat": 0.0, "lat": 38.88757716666667, "bike_id": "343567fb8341c54c55fdaa9ea3c4f06e", "fusion_lon": 0.0}, {"rental_uris": {"ios": "https://dc.lft.to/lastmile_qr_scan", "android": "https://dc.lft.to/lastmile_qr_scan"}, "type": "electric_scooter", "name": "45160a9fc98ce26e26541e7d4e2a9319", "is_reserved": 0, "lon": -76.97937416666667, "is_disabled": 0, "fusion_lat": 0.0, "lat": 38.906621, "bike_id": "45160a9fc98ce26e26541e7d4e2a9319", "fusion_lon": 0.0}, {"rental_uris": {"ios": "https://dc.lft.to/lastmile_qr_scan", "android": "https://dc.lft.to/lastmile_qr_scan"}, "type": "electric_scooter", "name": "249c73a7968af4d94692daa4129c7449", "is_reserved": 0, "lon": -77.0505505, "is_disabled": 0, "fusion_lat": 0.0, "lat": 38.9005375, "bike_id": "249c73a7968af4d94692daa4129c7449", "fusion_lon": 0.0}, {"rental_uris": {"ios": "https://dc.lft.to/lastmile_qr_scan", "android": "https://dc.lft.to/lastmile_qr_scan"}, "type": "electric_scooter", "name": "2d25c99bd263ee276395ffae28c4acb7", "is_reserved": 0, "lon": -77.05145416666667, "is_disabled": 0, "fusion_lat": 0.0, "lat": 38.904812, "bike_id": "2d25c99bd263ee276395ffae28c4acb7", "fusion_lon": 0.0}, {"rental_uris": {"ios": "https://dc.lft.to/lastmile_qr_scan", "android": "https://dc.lft.to/lastmile_qr_scan"}, "type": "electric_scooter", "name": "b7a895669eeaa4201b01c5f5c4bb42b7", "is_reserved": 0, "lon": -77.035035, "is_disabled": 0, "fusion_lat": 0.0, "lat": 38.9187825, "bike_id": "b7a895669eeaa4201b01c5f5c4bb42b7", "fusion_lon": 0.0}, {"rental_uris": {"ios": "https://dc.lft.to/lastmile_qr_scan", "android": "https://dc.lft.to/lastmile_qr_scan"}, "type": "electric_scooter", "name": "4ae9e50d40b3bc2116cdd3fe519651b0", "is_reserved": 0, "lon": -77.0300875, "is_disabled": 0, "fusion_lat": 0.0, "lat": 38.895529, "bike_id": "4ae9e50d40b3bc2116cdd3fe519651b0", "fusion_lon": 0.0}, {"rental_uris": {"ios": "https://dc.lft.to/lastmile_qr_scan", "android": "https://dc.lft.to/lastmile_qr_scan"}, "type": "electric_scooter", "name": "fb6bcb6404f09ae6bb7078449cb5e5e0", "is_reserved": 0, "lon": -77.04502916666667, "is_disabled": 0, "fusion_lat": 0.0, "lat": 38.8921955, "bike_id": "fb6bcb6404f09ae6bb7078449cb5e5e0", "fusion_lon": 0.0}, {"rental_uris": {"ios": "https://dc.lft.to/lastmile_qr_scan", "android": "https://dc.lft.to/lastmile_qr_scan"}, "type": "electric_bike", "name": "1f4435db652690ecfeac87f0074572a5", "is_reserved": 0, "lon": -76.99015083333333, "is_disabled": 0, "fusion_lat": 0.0, "lat": 38.95478283333333, "bike_id": "1f4435db652690ecfeac87f0074572a5", "fusion_lon": 0.0}, {"rental_uris": {"ios": "https://dc.lft.to/lastmile_qr_scan", "android": "https://dc.lft.to/lastmile_qr_scan"}, "type": "electric_bike", "name": "54ed2364aa9dbb6d6a64a3f758e36cf5", "is_reserved": 0, "lon": -76.987626, "is_disabled": 0, "fusion_lat": 0.0, "lat": 38.857683, "bike_id": "54ed2364aa9dbb6d6a64a3f758e36cf5", "fusion_lon": 0.0}, {"rental_uris": {"ios": "https://dc.lft.to/lastmile_qr_scan", "android": "https://dc.lft.to/lastmile_qr_scan"}, "type": "electric_scooter", "name": "7e7168b33cca4d78250f78236b0d57ec", "is_reserved": 0, "lon": -77.00006783333333, "is_disabled": 0, "fusion_lat": 0.0, "lat": 38.9075755, "bike_id": "7e7168b33cca4d78250f78236b0d57ec", "fusion_lon": 0.0}, {"rental_uris": {"ios": "https://dc.lft.to/lastmile_qr_scan", "android": "https://dc.lft.to/lastmile_qr_scan"}, "type": "electric_scooter", "name": "acbc6df6e85dd7b67beb59b25fb86bd4", "is_reserved": 0, "lon": -77.024089, "is_disabled": 0, "fusion_lat": 0.0, "lat": 38.89891716666666, "bike_id": "acbc6df6e85dd7b67beb59b25fb86bd4", "fusion_lon": 0.0}, {"rental_uris": {"ios": "https://dc.lft.to/lastmile_qr_scan", "android": "https://dc.lft.to/lastmile_qr_scan"}, "type": "electric_scooter", "name": "4ce9f51df1d8793dd3809475910d2394", "is_reserved": 0, "lon": -77.04607133333333, "is_disabled": 0, "fusion_lat": 0.0, "lat": 38.909567333333335, "bike_id": "4ce9f51df1d8793dd3809475910d2394", "fusion_lon": 0.0}, {"rental_uris": {"ios": "https://dc.lft.to/lastmile_qr_scan", "android": "https://dc.lft.to/lastmile_qr_scan"}, "type": "electric_scooter", "name": "da0c9d909deea82660fd8e3c101f5d63", "is_reserved": 0, "lon": -77.03950066666667, "is_disabled": 0, "fusion_lat": 0.0, "lat": 38.90272133333333, "bike_id": "da0c9d909deea82660fd8e3c101f5d63", "fusion_lon": 0.0}, {"rental_uris": {"ios": "https://dc.lft.to/lastmile_qr_scan", "android": "https://dc.lft.to/lastmile_qr_scan"}, "type": "electric_scooter", "name": "bb93db5edcecd2d44ac5de75b9ca940e", "is_reserved": 0, "lon": -76.98830333333333, "is_disabled": 0, "fusion_lat": 0.0, "lat": 38.89488733333334, "bike_id": "bb93db5edcecd2d44ac5de75b9ca940e", "fusion_lon": 0.0}, {"rental_uris": {"ios": "https://dc.lft.to/lastmile_qr_scan", "android": "https://dc.lft.to/lastmile_qr_scan"}, "type": "electric_scooter", "name": "dfee193c6f62f8e6e5b706485dbcaedc", "is_reserved": 0, "lon": -77.04877, "is_disabled": 0, "fusion_lat": 0.0, "lat": 38.89905183333333, "bike_id": "dfee193c6f62f8e6e5b706485dbcaedc", "fusion_lon": 0.0}, {"rental_uris": {"ios": "https://dc.lft.to/lastmile_qr_scan", "android": "https://dc.lft.to/lastmile_qr_scan"}, "type": "electric_scooter", "name": "f7ecf9d210036e1fe0c1741579664812", "is_reserved": 0, "lon": -77.03260733333333, "is_disabled": 0, "fusion_lat": 0.0, "lat": 38.9388675, "bike_id": "f7ecf9d210036e1fe0c1741579664812", "fusion_lon": 0.0}, {"rental_uris": {"ios": "https://dc.lft.to/lastmile_qr_scan", "android": "https://dc.lft.to/lastmile_qr_scan"}, "type": "electric_scooter", "name": "67e4ea84f2016bdc9c10c5461f297041", "is_reserved": 0, "lon": -76.9938645, "is_disabled": 0, "fusion_lat": 0.0, "lat": 38.91017466666667, "bike_id": "67e4ea84f2016bdc9c10c5461f297041", "fusion_lon": 0.0}, {"rental_uris": {"ios": "https://dc.lft.to/lastmile_qr_scan", "android": "https://dc.lft.to/lastmile_qr_scan"}, "type": "electric_scooter", "name": "ffab14d9138493660c10dc935db4f5b0", "is_reserved": 0, "lon": -77.007847, "is_disabled": 0, "fusion_lat": 0.0, "lat": 38.89724016666667, "bike_id": "ffab14d9138493660c10dc935db4f5b0", "fusion_lon": 0.0}, {"rental_uris": {"ios": "https://dc.lft.to/lastmile_qr_scan", "android": "https://dc.lft.to/lastmile_qr_scan"}, "type": "electric_scooter", "name": "56420929d256fb931e8da8c0d2c7fbbd", "is_reserved": 0, "lon": -77.02779833333334, "is_disabled": 0, "fusion_lat": 0.0, "lat": 38.91700816666667, "bike_id": "56420929d256fb931e8da8c0d2c7fbbd", "fusion_lon": 0.0}, {"rental_uris": {"ios": "https://dc.lft.to/lastmile_qr_scan", "android": "https://dc.lft.to/lastmile_qr_scan"}, "type": "electric_scooter", "name": "e205dac8174c84b69b29d57bb0626599", "is_reserved": 0, "lon": -77.02830816666666, "is_disabled": 0, "fusion_lat": 0.0, "lat": 38.93883783333333, "bike_id": "e205dac8174c84b69b29d57bb0626599", "fusion_lon": 0.0}, {"rental_uris": {"ios": "https://dc.lft.to/lastmile_qr_scan", "android": "https://dc.lft.to/lastmile_qr_scan"}, "type": "electric_scooter", "name": "21ed34632fe3a42e442ea2551895380c", "is_reserved": 0, "lon": -77.025786, "is_disabled": 0, "fusion_lat": 0.0, "lat": 38.887209166666665, "bike_id": "21ed34632fe3a42e442ea2551895380c", "fusion_lon": 0.0}, {"rental_uris": {"ios": "https://dc.lft.to/lastmile_qr_scan", "android": "https://dc.lft.to/lastmile_qr_scan"}, "type": "electric_scooter", "name": "a42b260361e62b245ec07ffe0414eecf", "is_reserved": 0, "lon": -76.996259, "is_disabled": 0, "fusion_lat": 0.0, "lat": 38.904481833333335, "bike_id": "a42b260361e62b245ec07ffe0414eecf", "fusion_lon": 0.0}, {"rental_uris": {"ios": "https://dc.lft.to/lastmile_qr_scan", "android": "https://dc.lft.to/lastmile_qr_scan"}, "type": "electric_scooter", "name": "2a0c6ee037f16ef7495a9e131db89318", "is_reserved": 0, "lon": -77.03708366666666, "is_disabled": 0, "fusion_lat": 0.0, "lat": 38.926547166666666, "bike_id": "2a0c6ee037f16ef7495a9e131db89318", "fusion_lon": 0.0}, {"rental_uris": {"ios": "https://dc.lft.to/lastmile_qr_scan", "android": "https://dc.lft.to/lastmile_qr_scan"}, "type": "electric_scooter", "name": "4a49a33b219f6b7e33e352d54dd181fe", "is_reserved": 0, "lon": -77.03079583333333, "is_disabled": 0, "fusion_lat": 0.0, "lat": 38.93879333333334, "bike_id": "4a49a33b219f6b7e33e352d54dd181fe", "fusion_lon": 0.0}, {"rental_uris": {"ios": "https://dc.lft.to/lastmile_qr_scan", "android": "https://dc.lft.to/lastmile_qr_scan"}, "type": "electric_scooter", "name": "bb35698b6be773c58f126b067bee70db", "is_reserved": 0, "lon": -77.02137016666667, "is_disabled": 0, "fusion_lat": 0.0, "lat": 38.9248995, "bike_id": "bb35698b6be773c58f126b067bee70db", "fusion_lon": 0.0}, {"rental_uris": {"ios": "https://dc.lft.to/lastmile_qr_scan", "android": "https://dc.lft.to/lastmile_qr_scan"}, "type": "electric_bike", "name": "bff7014dcaefe9d242fae64b43b5f494", "is_reserved": 0, "lon": -77.0634365, "is_disabled": 0, "fusion_lat": 0.0, "lat": 38.90842816666667, "bike_id": "bff7014dcaefe9d242fae64b43b5f494", "fusion_lon": 0.0}, {"rental_uris": {"ios": "https://dc.lft.to/lastmile_qr_scan", "android": "https://dc.lft.to/lastmile_qr_scan"}, "type": "electric_scooter", "name": "431ff3b09a668c8e090ae5fc661223b8", "is_reserved": 0, "lon": -77.01625733333333, "is_disabled": 0, "fusion_lat": 0.0, "lat": 38.908696666666664, "bike_id": "431ff3b09a668c8e090ae5fc661223b8", "fusion_lon": 0.0}, {"rental_uris": {"ios": "https://dc.lft.to/lastmile_qr_scan", "android": "https://dc.lft.to/lastmile_qr_scan"}, "type": "electric_scooter", "name": "f5ecf18bd107ccfa7bc2b1f45c049129", "is_reserved": 0, "lon": -77.0771525, "is_disabled": 0, "fusion_lat": 0.0, "lat": 38.9428815, "bike_id": "f5ecf18bd107ccfa7bc2b1f45c049129", "fusion_lon": 0.0}, {"rental_uris": {"ios": "https://dc.lft.to/lastmile_qr_scan", "android": "https://dc.lft.to/lastmile_qr_scan"}, "type": "electric_scooter", "name": "e13316d044dc94109281f78b57bf246d", "is_reserved": 0, "lon": -77.0228035, "is_disabled": 0, "fusion_lat": 0.0, "lat": 38.901468333333334, "bike_id": "e13316d044dc94109281f78b57bf246d", "fusion_lon": 0.0}, {"rental_uris": {"ios": "https://dc.lft.to/lastmile_qr_scan", "android": "https://dc.lft.to/lastmile_qr_scan"}, "type": "electric_scooter", "name": "519f396652ce691bbc4875cdbca41b1e", "is_reserved": 0, "lon": -77.028115, "is_disabled": 0, "fusion_lat": 0.0, "lat": 38.89549616666667, "bike_id": "519f396652ce691bbc4875cdbca41b1e", "fusion_lon": 0.0}, {"rental_uris": {"ios": "https://dc.lft.to/lastmile_qr_scan", "android": "https://dc.lft.to/lastmile_qr_scan"}, "type": "electric_scooter", "name": "8b9ba8c998b0f1e55cfb9c7430adfa07", "is_reserved": 0, "lon": -77.02806483333333, "is_disabled": 0, "fusion_lat": 0.0, "lat": 38.9073245, "bike_id": "8b9ba8c998b0f1e55cfb9c7430adfa07", "fusion_lon": 0.0}, {"rental_uris": {"ios": "https://dc.lft.to/lastmile_qr_scan", "android": "https://dc.lft.to/lastmile_qr_scan"}, "type": "electric_scooter", "name": "137541599910f1f67ed1e34c024043c0", "is_reserved": 0, "lon": -77.03441583333333, "is_disabled": 0, "fusion_lat": 0.0, "lat": 38.910301833333335, "bike_id": "137541599910f1f67ed1e34c024043c0", "fusion_lon": 0.0}, {"rental_uris": {"ios": "https://dc.lft.to/lastmile_qr_scan", "android": "https://dc.lft.to/lastmile_qr_scan"}, "type": "electric_bike", "name": "5d1c346d19e2e962e79642e6203915ec", "is_reserved": 0, "lon": -77.11319916666666, "is_disabled": 0, "fusion_lat": 0.0, "lat": 38.855809, "bike_id": "5d1c346d19e2e962e79642e6203915ec", "fusion_lon": 0.0}, {"rental_uris": {"ios": "https://dc.lft.to/lastmile_qr_scan", "android": "https://dc.lft.to/lastmile_qr_scan"}, "type": "electric_scooter", "name": "6ee43b9c1e5979d8555afc69eb74d1e3", "is_reserved": 0, "lon": -77.031808, "is_disabled": 0, "fusion_lat": 0.0, "lat": 38.924854333333336, "bike_id": "6ee43b9c1e5979d8555afc69eb74d1e3", "fusion_lon": 0.0}, {"rental_uris": {"ios": "https://dc.lft.to/lastmile_qr_scan", "android": "https://dc.lft.to/lastmile_qr_scan"}, "type": "electric_scooter", "name": "dba1c9ac125d1408e8bc97811c84e8f7", "is_reserved": 0, "lon": -77.0417155, "is_disabled": 0, "fusion_lat": 0.0, "lat": 38.90142566666667, "bike_id": "dba1c9ac125d1408e8bc97811c84e8f7", "fusion_lon": 0.0}, {"rental_uris": {"ios": "https://dc.lft.to/lastmile_qr_scan", "android": "https://dc.lft.to/lastmile_qr_scan"}, "type": "electric_scooter", "name": "e79431eaf65e6a7eaf0c310a5faf8b4a", "is_reserved": 0, "lon": -77.007425, "is_disabled": 0, "fusion_lat": 0.0, "lat": 38.898303, "bike_id": "e79431eaf65e6a7eaf0c310a5faf8b4a", "fusion_lon": 0.0}, {"rental_uris": {"ios": "https://dc.lft.to/lastmile_qr_scan", "android": "https://dc.lft.to/lastmile_qr_scan"}, "type": "electric_scooter", "name": "c95e14d796e1b1a0d0b87f66b27fa5b7", "is_reserved": 0, "lon": -77.0322865, "is_disabled": 0, "fusion_lat": 0.0, "lat": 38.9071215, "bike_id": "c95e14d796e1b1a0d0b87f66b27fa5b7", "fusion_lon": 0.0}, {"rental_uris": {"ios": "https://dc.lft.to/lastmile_qr_scan", "android": "https://dc.lft.to/lastmile_qr_scan"}, "type": "electric_scooter", "name": "a355a01101199396f29ffb59c55febef", "is_reserved": 0, "lon": -76.99101733333333, "is_disabled": 0, "fusion_lat": 0.0, "lat": 38.85728783333333, "bike_id": "a355a01101199396f29ffb59c55febef", "fusion_lon": 0.0}, {"rental_uris": {"ios": "https://dc.lft.to/lastmile_qr_scan", "android": "https://dc.lft.to/lastmile_qr_scan"}, "type": "electric_scooter", "name": "4de48762990813e2ab6c7a4a5587c57e", "is_reserved": 0, "lon": -77.05326666666667, "is_disabled": 0, "fusion_lat": 0.0, "lat": 38.902570833333336, "bike_id": "4de48762990813e2ab6c7a4a5587c57e", "fusion_lon": 0.0}, {"rental_uris": {"ios": "https://dc.lft.to/lastmile_qr_scan", "android": "https://dc.lft.to/lastmile_qr_scan"}, "type": "electric_scooter", "name": "ab8bb658702b8daaecfac7cba4572089", "is_reserved": 0, "lon": -77.03115066666666, "is_disabled": 0, "fusion_lat": 0.0, "lat": 38.918600166666664, "bike_id": "ab8bb658702b8daaecfac7cba4572089", "fusion_lon": 0.0}, {"rental_uris": {"ios": "https://dc.lft.to/lastmile_qr_scan", "android": "https://dc.lft.to/lastmile_qr_scan"}, "type": "electric_scooter", "name": "5c123fcb1612c3179324cc9012ccdef4", "is_reserved": 0, "lon": -76.98884533333333, "is_disabled": 0, "fusion_lat": 0.0, "lat": 38.899539, "bike_id": "5c123fcb1612c3179324cc9012ccdef4", "fusion_lon": 0.0}, {"rental_uris": {"ios": "https://dc.lft.to/lastmile_qr_scan", "android": "https://dc.lft.to/lastmile_qr_scan"}, "type": "electric_scooter", "name": "d18960ca8b5e409dc68e74411824b217", "is_reserved": 0, "lon": -77.03213516666666, "is_disabled": 0, "fusion_lat": 0.0, "lat": 38.892301833333335, "bike_id": "d18960ca8b5e409dc68e74411824b217", "fusion_lon": 0.0}, {"rental_uris": {"ios": "https://dc.lft.to/lastmile_qr_scan", "android": "https://dc.lft.to/lastmile_qr_scan"}, "type": "electric_scooter", "name": "2fd148ef8ac6dd5020bba667f9d24aaa", "is_reserved": 0, "lon": -77.0440175, "is_disabled": 0, "fusion_lat": 0.0, "lat": 38.92953266666667, "bike_id": "2fd148ef8ac6dd5020bba667f9d24aaa", "fusion_lon": 0.0}, {"rental_uris": {"ios": "https://dc.lft.to/lastmile_qr_scan", "android": "https://dc.lft.to/lastmile_qr_scan"}, "type": "electric_scooter", "name": "951f2c25706ac1be510c00f058eba623", "is_reserved": 0, "lon": -77.07334216666666, "is_disabled": 0, "fusion_lat": 0.0, "lat": 38.9077785, "bike_id": "951f2c25706ac1be510c00f058eba623", "fusion_lon": 0.0}, {"rental_uris": {"ios": "https://dc.lft.to/lastmile_qr_scan", "android": "https://dc.lft.to/lastmile_qr_scan"}, "type": "electric_scooter", "name": "1e7310561550624edaaed36f85c47e2a", "is_reserved": 0, "lon": -77.03833966666667, "is_disabled": 0, "fusion_lat": 0.0, "lat": 38.911893166666665, "bike_id": "1e7310561550624edaaed36f85c47e2a", "fusion_lon": 0.0}, {"rental_uris": {"ios": "https://dc.lft.to/lastmile_qr_scan", "android": "https://dc.lft.to/lastmile_qr_scan"}, "type": "electric_bike", "name": "5890f90138dcbbff0963a3efc237c904", "is_reserved": 0, "lon": -77.07011333333334, "is_disabled": 0, "fusion_lat": 0.0, "lat": 38.841122666666664, "bike_id": "5890f90138dcbbff0963a3efc237c904", "fusion_lon": 0.0}, {"rental_uris": {"ios": "https://dc.lft.to/lastmile_qr_scan", "android": "https://dc.lft.to/lastmile_qr_scan"}, "type": "electric_scooter", "name": "5ee63d7ebd4fdaf88f95940330eef08f", "is_reserved": 0, "lon": -76.943829, "is_disabled": 0, "fusion_lat": 0.0, "lat": 38.891185, "bike_id": "5ee63d7ebd4fdaf88f95940330eef08f", "fusion_lon": 0.0}, {"rental_uris": {"ios": "https://dc.lft.to/lastmile_qr_scan", "android": "https://dc.lft.to/lastmile_qr_scan"}, "type": "electric_scooter", "name": "c04ce58f20e8558576d5f07bbc1e30b1", "is_reserved": 0, "lon": -76.92308783333333, "is_disabled": 0, "fusion_lat": 0.0, "lat": 38.89385383333333, "bike_id": "c04ce58f20e8558576d5f07bbc1e30b1", "fusion_lon": 0.0}, {"rental_uris": {"ios": "https://dc.lft.to/lastmile_qr_scan", "android": "https://dc.lft.to/lastmile_qr_scan"}, "type": "electric_scooter", "name": "f87fd49c5026e31113521d0d482349cb", "is_reserved": 0, "lon": -77.07411583333334, "is_disabled": 0, "fusion_lat": 0.0, "lat": 38.89727383333334, "bike_id": "f87fd49c5026e31113521d0d482349cb", "fusion_lon": 0.0}, {"rental_uris": {"ios": "https://dc.lft.to/lastmile_qr_scan", "android": "https://dc.lft.to/lastmile_qr_scan"}, "type": "electric_scooter", "name": "18a4be874e9bad1e33b1968b725799f0", "is_reserved": 0, "lon": -77.027608, "is_disabled": 0, "fusion_lat": 0.0, "lat": 38.91345783333333, "bike_id": "18a4be874e9bad1e33b1968b725799f0", "fusion_lon": 0.0}, {"rental_uris": {"ios": "https://dc.lft.to/lastmile_qr_scan", "android": "https://dc.lft.to/lastmile_qr_scan"}, "type": "electric_scooter", "name": "6897ee3195f404b91849c00ca3be9e10", "is_reserved": 0, "lon": -76.98864266666666, "is_disabled": 0, "fusion_lat": 0.0, "lat": 38.9002875, "bike_id": "6897ee3195f404b91849c00ca3be9e10", "fusion_lon": 0.0}, {"rental_uris": {"ios": "https://dc.lft.to/lastmile_qr_scan", "android": "https://dc.lft.to/lastmile_qr_scan"}, "type": "electric_bike", "name": "9aa2d707c14b461396f2b4be1be54217", "is_reserved": 0, "lon": -77.01659033333334, "is_disabled": 0, "fusion_lat": 0.0, "lat": 38.881188, "bike_id": "9aa2d707c14b461396f2b4be1be54217", "fusion_lon": 0.0}, {"rental_uris": {"ios": "https://dc.lft.to/lastmile_qr_scan", "android": "https://dc.lft.to/lastmile_qr_scan"}, "type": "electric_scooter", "name": "2ccc05e6b92b29a61a4fda3af6e87acc", "is_reserved": 0, "lon": -77.02006516666667, "is_disabled": 0, "fusion_lat": 0.0, "lat": 38.92805033333333, "bike_id": "2ccc05e6b92b29a61a4fda3af6e87acc", "fusion_lon": 0.0}, {"rental_uris": {"ios": "https://dc.lft.to/lastmile_qr_scan", "android": "https://dc.lft.to/lastmile_qr_scan"}, "type": "electric_scooter", "name": "26d08e01ee8f771f1dacc2b053b78111", "is_reserved": 0, "lon": -76.98650883333333, "is_disabled": 0, "fusion_lat": 0.0, "lat": 38.905404833333336, "bike_id": "26d08e01ee8f771f1dacc2b053b78111", "fusion_lon": 0.0}, {"rental_uris": {"ios": "https://dc.lft.to/lastmile_qr_scan", "android": "https://dc.lft.to/lastmile_qr_scan"}, "type": "electric_scooter", "name": "7c564f6f408aa8e2cccd58e777bf2a95", "is_reserved": 0, "lon": -77.0246825, "is_disabled": 0, "fusion_lat": 0.0, "lat": 38.89818533333333, "bike_id": "7c564f6f408aa8e2cccd58e777bf2a95", "fusion_lon": 0.0}, {"rental_uris": {"ios": "https://dc.lft.to/lastmile_qr_scan", "android": "https://dc.lft.to/lastmile_qr_scan"}, "type": "electric_scooter", "name": "c35b86dafda1f0f0501b6657aba62aef", "is_reserved": 0, "lon": -77.00403483333334, "is_disabled": 0, "fusion_lat": 0.0, "lat": 38.87927616666666, "bike_id": "c35b86dafda1f0f0501b6657aba62aef", "fusion_lon": 0.0}, {"rental_uris": {"ios": "https://dc.lft.to/lastmile_qr_scan", "android": "https://dc.lft.to/lastmile_qr_scan"}, "type": "electric_scooter", "name": "dcb7d5916f97307a971ecbb138446b18", "is_reserved": 0, "lon": -77.0341555, "is_disabled": 0, "fusion_lat": 0.0, "lat": 38.90138916666667, "bike_id": "dcb7d5916f97307a971ecbb138446b18", "fusion_lon": 0.0}, {"rental_uris": {"ios": "https://dc.lft.to/lastmile_qr_scan", "android": "https://dc.lft.to/lastmile_qr_scan"}, "type": "electric_scooter", "name": "7d70325727cb1739cc80654df1981986", "is_reserved": 0, "lon": -77.0212805, "is_disabled": 0, "fusion_lat": 0.0, "lat": 38.924117333333335, "bike_id": "7d70325727cb1739cc80654df1981986", "fusion_lon": 0.0}, {"rental_uris": {"ios": "https://dc.lft.to/lastmile_qr_scan", "android": "https://dc.lft.to/lastmile_qr_scan"}, "type": "electric_scooter", "name": "49f803448e19127ba2667a0235913d11", "is_reserved": 0, "lon": -77.0479635, "is_disabled": 0, "fusion_lat": 0.0, "lat": 38.89741866666667, "bike_id": "49f803448e19127ba2667a0235913d11", "fusion_lon": 0.0}, {"rental_uris": {"ios": "https://dc.lft.to/lastmile_qr_scan", "android": "https://dc.lft.to/lastmile_qr_scan"}, "type": "electric_scooter", "name": "7a1299f90956293c3b34c5bb16050939", "is_reserved": 0, "lon": -77.03427566666667, "is_disabled": 0, "fusion_lat": 0.0, "lat": 38.9061655, "bike_id": "7a1299f90956293c3b34c5bb16050939", "fusion_lon": 0.0}, {"rental_uris": {"ios": "https://dc.lft.to/lastmile_qr_scan", "android": "https://dc.lft.to/lastmile_qr_scan"}, "type": "electric_scooter", "name": "b3995ab224a47cec169749bfc0329068", "is_reserved": 0, "lon": -76.99154366666667, "is_disabled": 0, "fusion_lat": 0.0, "lat": 38.900391666666664, "bike_id": "b3995ab224a47cec169749bfc0329068", "fusion_lon": 0.0}, {"rental_uris": {"ios": "https://dc.lft.to/lastmile_qr_scan", "android": "https://dc.lft.to/lastmile_qr_scan"}, "type": "electric_scooter", "name": "3f039bb0f08ac50af1acc73907194f9d", "is_reserved": 0, "lon": -77.03174616666666, "is_disabled": 0, "fusion_lat": 0.0, "lat": 38.90831433333334, "bike_id": "3f039bb0f08ac50af1acc73907194f9d", "fusion_lon": 0.0}, {"rental_uris": {"ios": "https://dc.lft.to/lastmile_qr_scan", "android": "https://dc.lft.to/lastmile_qr_scan"}, "type": "electric_scooter", "name": "320d74fd5b1792785aee43c21d523817", "is_reserved": 0, "lon": -77.01668583333333, "is_disabled": 0, "fusion_lat": 0.0, "lat": 38.916808, "bike_id": "320d74fd5b1792785aee43c21d523817", "fusion_lon": 0.0}, {"rental_uris": {"ios": "https://dc.lft.to/lastmile_qr_scan", "android": "https://dc.lft.to/lastmile_qr_scan"}, "type": "electric_scooter", "name": "2d1efa2ed68a7af705ba3e84280b5e28", "is_reserved": 0, "lon": -77.03619933333333, "is_disabled": 0, "fusion_lat": 0.0, "lat": 38.942882, "bike_id": "2d1efa2ed68a7af705ba3e84280b5e28", "fusion_lon": 0.0}, {"rental_uris": {"ios": "https://dc.lft.to/lastmile_qr_scan", "android": "https://dc.lft.to/lastmile_qr_scan"}, "type": "electric_bike", "name": "39afe10ea781953341e9b16e0995e60a", "is_reserved": 0, "lon": -77.01909783333333, "is_disabled": 0, "fusion_lat": 0.0, "lat": 38.97681583333333, "bike_id": "39afe10ea781953341e9b16e0995e60a", "fusion_lon": 0.0}, {"rental_uris": {"ios": "https://dc.lft.to/lastmile_qr_scan", "android": "https://dc.lft.to/lastmile_qr_scan"}, "type": "electric_scooter", "name": "fbe062d8a95a2d4ade0bbcf6729ae039", "is_reserved": 0, "lon": -76.98532783333333, "is_disabled": 0, "fusion_lat": 0.0, "lat": 38.91446583333333, "bike_id": "fbe062d8a95a2d4ade0bbcf6729ae039", "fusion_lon": 0.0}, {"rental_uris": {"ios": "https://dc.lft.to/lastmile_qr_scan", "android": "https://dc.lft.to/lastmile_qr_scan"}, "type": "electric_scooter", "name": "fba863dc89a0b2d36ef7cd2541c3fddd", "is_reserved": 0, "lon": -77.021036, "is_disabled": 0, "fusion_lat": 0.0, "lat": 38.966759, "bike_id": "fba863dc89a0b2d36ef7cd2541c3fddd", "fusion_lon": 0.0}, {"rental_uris": {"ios": "https://dc.lft.to/lastmile_qr_scan", "android": "https://dc.lft.to/lastmile_qr_scan"}, "type": "electric_scooter", "name": "ac95723021a033986cf3551921e6078c", "is_reserved": 0, "lon": -77.02989766666667, "is_disabled": 0, "fusion_lat": 0.0, "lat": 38.91706033333333, "bike_id": "ac95723021a033986cf3551921e6078c", "fusion_lon": 0.0}, {"rental_uris": {"ios": "https://dc.lft.to/lastmile_qr_scan", "android": "https://dc.lft.to/lastmile_qr_scan"}, "type": "electric_scooter", "name": "d14e9b274ca779914ea13bc01a876de9", "is_reserved": 0, "lon": -76.990318, "is_disabled": 0, "fusion_lat": 0.0, "lat": 38.888826, "bike_id": "d14e9b274ca779914ea13bc01a876de9", "fusion_lon": 0.0}, {"rental_uris": {"ios": "https://dc.lft.to/lastmile_qr_scan", "android": "https://dc.lft.to/lastmile_qr_scan"}, "type": "electric_scooter", "name": "c054dfaaa0335b2361d87c4bdf29651f", "is_reserved": 0, "lon": -76.98806883333333, "is_disabled": 0, "fusion_lat": 0.0, "lat": 38.90028266666667, "bike_id": "c054dfaaa0335b2361d87c4bdf29651f", "fusion_lon": 0.0}, {"rental_uris": {"ios": "https://dc.lft.to/lastmile_qr_scan", "android": "https://dc.lft.to/lastmile_qr_scan"}, "type": "electric_scooter", "name": "71176cfcd79b0bb629777b92765fa6be", "is_reserved": 0, "lon": -77.03874833333333, "is_disabled": 0, "fusion_lat": 0.0, "lat": 38.911175166666666, "bike_id": "71176cfcd79b0bb629777b92765fa6be", "fusion_lon": 0.0}, {"rental_uris": {"ios": "https://dc.lft.to/lastmile_qr_scan", "android": "https://dc.lft.to/lastmile_qr_scan"}, "type": "electric_bike", "name": "b526f1f5072129218a1d1345023cdf5a", "is_reserved": 0, "lon": -77.0206875, "is_disabled": 0, "fusion_lat": 0.0, "lat": 38.964455666666666, "bike_id": "b526f1f5072129218a1d1345023cdf5a", "fusion_lon": 0.0}, {"rental_uris": {"ios": "https://dc.lft.to/lastmile_qr_scan", "android": "https://dc.lft.to/lastmile_qr_scan"}, "type": "electric_scooter", "name": "f92fbe98404ff867c46354525f38b5f6", "is_reserved": 0, "lon": -77.00746283333334, "is_disabled": 0, "fusion_lat": 0.0, "lat": 38.91118766666666, "bike_id": "f92fbe98404ff867c46354525f38b5f6", "fusion_lon": 0.0}, {"rental_uris": {"ios": "https://dc.lft.to/lastmile_qr_scan", "android": "https://dc.lft.to/lastmile_qr_scan"}, "type": "electric_scooter", "name": "ee57aa1dc379a0979f03994c34c6eed3", "is_reserved": 0, "lon": -77.05175416666667, "is_disabled": 0, "fusion_lat": 0.0, "lat": 38.9234425, "bike_id": "ee57aa1dc379a0979f03994c34c6eed3", "fusion_lon": 0.0}, {"rental_uris": {"ios": "https://dc.lft.to/lastmile_qr_scan", "android": "https://dc.lft.to/lastmile_qr_scan"}, "type": "electric_bike", "name": "5b63c976c19195862b376b0a5d508e93", "is_reserved": 0, "lon": -76.9936705, "is_disabled": 0, "fusion_lat": 0.0, "lat": 38.92727333333333, "bike_id": "5b63c976c19195862b376b0a5d508e93", "fusion_lon": 0.0}, {"rental_uris": {"ios": "https://dc.lft.to/lastmile_qr_scan", "android": "https://dc.lft.to/lastmile_qr_scan"}, "type": "electric_scooter", "name": "b8633dec347cede223f5d730c2d47110", "is_reserved": 0, "lon": -77.03826783333334, "is_disabled": 0, "fusion_lat": 0.0, "lat": 38.91032233333333, "bike_id": "b8633dec347cede223f5d730c2d47110", "fusion_lon": 0.0}, {"rental_uris": {"ios": "https://dc.lft.to/lastmile_qr_scan", "android": "https://dc.lft.to/lastmile_qr_scan"}, "type": "electric_scooter", "name": "d57a7c2d7faec063af1129c2176810e0", "is_reserved": 0, "lon": -77.04518, "is_disabled": 0, "fusion_lat": 0.0, "lat": 38.909728333333334, "bike_id": "d57a7c2d7faec063af1129c2176810e0", "fusion_lon": 0.0}, {"rental_uris": {"ios": "https://dc.lft.to/lastmile_qr_scan", "android": "https://dc.lft.to/lastmile_qr_scan"}, "type": "electric_scooter", "name": "3880db5f97d22dac59020361ebf7e0ba", "is_reserved": 0, "lon": -77.02687066666667, "is_disabled": 0, "fusion_lat": 0.0, "lat": 38.9024295, "bike_id": "3880db5f97d22dac59020361ebf7e0ba", "fusion_lon": 0.0}, {"rental_uris": {"ios": "https://dc.lft.to/lastmile_qr_scan", "android": "https://dc.lft.to/lastmile_qr_scan"}, "type": "electric_scooter", "name": "b34494e3a96d856004258e997eec1b19", "is_reserved": 0, "lon": -77.02971933333333, "is_disabled": 0, "fusion_lat": 0.0, "lat": 38.916939, "bike_id": "b34494e3a96d856004258e997eec1b19", "fusion_lon": 0.0}, {"rental_uris": {"ios": "https://dc.lft.to/lastmile_qr_scan", "android": "https://dc.lft.to/lastmile_qr_scan"}, "type": "electric_scooter", "name": "2d38e7e777ad8b10234be9d6f5e031ef", "is_reserved": 0, "lon": -76.99593866666666, "is_disabled": 0, "fusion_lat": 0.0, "lat": 38.90027533333333, "bike_id": "2d38e7e777ad8b10234be9d6f5e031ef", "fusion_lon": 0.0}, {"rental_uris": {"ios": "https://dc.lft.to/lastmile_qr_scan", "android": "https://dc.lft.to/lastmile_qr_scan"}, "type": "electric_scooter", "name": "054137faeef794e434261ace2a370a88", "is_reserved": 0, "lon": -77.00066283333334, "is_disabled": 0, "fusion_lat": 0.0, "lat": 38.87681283333333, "bike_id": "054137faeef794e434261ace2a370a88", "fusion_lon": 0.0}, {"rental_uris": {"ios": "https://dc.lft.to/lastmile_qr_scan", "android": "https://dc.lft.to/lastmile_qr_scan"}, "type": "electric_scooter", "name": "1d00e97d3339fa0fc9497b288dfef4e5", "is_reserved": 0, "lon": -76.98567333333334, "is_disabled": 0, "fusion_lat": 0.0, "lat": 38.86002766666667, "bike_id": "1d00e97d3339fa0fc9497b288dfef4e5", "fusion_lon": 0.0}, {"rental_uris": {"ios": "https://dc.lft.to/lastmile_qr_scan", "android": "https://dc.lft.to/lastmile_qr_scan"}, "type": "electric_scooter", "name": "cc33e4fb2312dc79f02cb7123fb7965e", "is_reserved": 0, "lon": -77.04239066666666, "is_disabled": 0, "fusion_lat": 0.0, "lat": 38.922726, "bike_id": "cc33e4fb2312dc79f02cb7123fb7965e", "fusion_lon": 0.0}, {"rental_uris": {"ios": "https://dc.lft.to/lastmile_qr_scan", "android": "https://dc.lft.to/lastmile_qr_scan"}, "type": "electric_scooter", "name": "1f7d5eedd03ab4c7ff126da18e751eed", "is_reserved": 0, "lon": -77.044838, "is_disabled": 0, "fusion_lat": 0.0, "lat": 38.910870833333334, "bike_id": "1f7d5eedd03ab4c7ff126da18e751eed", "fusion_lon": 0.0}, {"rental_uris": {"ios": "https://dc.lft.to/lastmile_qr_scan", "android": "https://dc.lft.to/lastmile_qr_scan"}, "type": "electric_scooter", "name": "efc9e5479be0e3e384bad7eb9d537369", "is_reserved": 0, "lon": -77.06401316666667, "is_disabled": 0, "fusion_lat": 0.0, "lat": 38.908589166666665, "bike_id": "efc9e5479be0e3e384bad7eb9d537369", "fusion_lon": 0.0}, {"rental_uris": {"ios": "https://dc.lft.to/lastmile_qr_scan", "android": "https://dc.lft.to/lastmile_qr_scan"}, "type": "electric_bike", "name": "e2685288254e6765e62288f1a6666551", "is_reserved": 0, "lon": -77.12902283333334, "is_disabled": 0, "fusion_lat": 0.0, "lat": 38.90606616666667, "bike_id": "e2685288254e6765e62288f1a6666551", "fusion_lon": 0.0}, {"rental_uris": {"ios": "https://dc.lft.to/lastmile_qr_scan", "android": "https://dc.lft.to/lastmile_qr_scan"}, "type": "electric_scooter", "name": "0a21a06f449746230766613f53d51399", "is_reserved": 0, "lon": -77.05314533333333, "is_disabled": 0, "fusion_lat": 0.0, "lat": 38.940928, "bike_id": "0a21a06f449746230766613f53d51399", "fusion_lon": 0.0}, {"rental_uris": {"ios": "https://dc.lft.to/lastmile_qr_scan", "android": "https://dc.lft.to/lastmile_qr_scan"}, "type": "electric_scooter", "name": "f8ab1b3844da008ced461b7502dfe0d5", "is_reserved": 0, "lon": -77.04238433333333, "is_disabled": 0, "fusion_lat": 0.0, "lat": 38.922151, "bike_id": "f8ab1b3844da008ced461b7502dfe0d5", "fusion_lon": 0.0}, {"rental_uris": {"ios": "https://dc.lft.to/lastmile_qr_scan", "android": "https://dc.lft.to/lastmile_qr_scan"}, "type": "electric_scooter", "name": "8388b6745c64333013542613fcdce93d", "is_reserved": 0, "lon": -77.03891333333333, "is_disabled": 0, "fusion_lat": 0.0, "lat": 38.903616, "bike_id": "8388b6745c64333013542613fcdce93d", "fusion_lon": 0.0}, {"rental_uris": {"ios": "https://dc.lft.to/lastmile_qr_scan", "android": "https://dc.lft.to/lastmile_qr_scan"}, "type": "electric_bike", "name": "60f4609ed62b93737ee713244714cec9", "is_reserved": 0, "lon": -76.96894516666667, "is_disabled": 0, "fusion_lat": 0.0, "lat": 38.86986533333334, "bike_id": "60f4609ed62b93737ee713244714cec9", "fusion_lon": 0.0}, {"rental_uris": {"ios": "https://dc.lft.to/lastmile_qr_scan", "android": "https://dc.lft.to/lastmile_qr_scan"}, "type": "electric_scooter", "name": "0c8522c52bddbc9d49fe3a1d867c2b0d", "is_reserved": 0, "lon": -77.032827, "is_disabled": 0, "fusion_lat": 0.0, "lat": 38.928859, "bike_id": "0c8522c52bddbc9d49fe3a1d867c2b0d", "fusion_lon": 0.0}, {"rental_uris": {"ios": "https://dc.lft.to/lastmile_qr_scan", "android": "https://dc.lft.to/lastmile_qr_scan"}, "type": "electric_bike", "name": "257b6adff99542db4e9cc11afc90bbc7", "is_reserved": 0, "lon": -77.016424, "is_disabled": 0, "fusion_lat": 0.0, "lat": 38.8810305, "bike_id": "257b6adff99542db4e9cc11afc90bbc7", "fusion_lon": 0.0}, {"rental_uris": {"ios": "https://dc.lft.to/lastmile_qr_scan", "android": "https://dc.lft.to/lastmile_qr_scan"}, "type": "electric_bike", "name": "794a0750f3578389f133e6289c1e01cf", "is_reserved": 0, "lon": -76.98816933333333, "is_disabled": 0, "fusion_lat": 0.0, "lat": 38.842784, "bike_id": "794a0750f3578389f133e6289c1e01cf", "fusion_lon": 0.0}, {"rental_uris": {"ios": "https://dc.lft.to/lastmile_qr_scan", "android": "https://dc.lft.to/lastmile_qr_scan"}, "type": "electric_bike", "name": "2164ee322e203f06cdcd2b59c8d5d3e0", "is_reserved": 0, "lon": -77.04069516666667, "is_disabled": 0, "fusion_lat": 0.0, "lat": 38.9937925, "bike_id": "2164ee322e203f06cdcd2b59c8d5d3e0", "fusion_lon": 0.0}, {"rental_uris": {"ios": "https://dc.lft.to/lastmile_qr_scan", "android": "https://dc.lft.to/lastmile_qr_scan"}, "type": "electric_scooter", "name": "f15843736b213aa8c72a975568026fac", "is_reserved": 0, "lon": -77.03828716666666, "is_disabled": 0, "fusion_lat": 0.0, "lat": 38.91692616666667, "bike_id": "f15843736b213aa8c72a975568026fac", "fusion_lon": 0.0}, {"rental_uris": {"ios": "https://dc.lft.to/lastmile_qr_scan", "android": "https://dc.lft.to/lastmile_qr_scan"}, "type": "electric_scooter", "name": "d0078a9b904a18b04d8f52ccc42e43d5", "is_reserved": 0, "lon": -77.0352385, "is_disabled": 0, "fusion_lat": 0.0, "lat": 38.90967916666666, "bike_id": "d0078a9b904a18b04d8f52ccc42e43d5", "fusion_lon": 0.0}, {"rental_uris": {"ios": "https://dc.lft.to/lastmile_qr_scan", "android": "https://dc.lft.to/lastmile_qr_scan"}, "type": "electric_scooter", "name": "28ede0b308f8edee7c0c81453dfca46a", "is_reserved": 0, "lon": -77.045894, "is_disabled": 0, "fusion_lat": 0.0, "lat": 38.91861083333333, "bike_id": "28ede0b308f8edee7c0c81453dfca46a", "fusion_lon": 0.0}, {"rental_uris": {"ios": "https://dc.lft.to/lastmile_qr_scan", "android": "https://dc.lft.to/lastmile_qr_scan"}, "type": "electric_scooter", "name": "97d06b20f81cd34f5ce81c6a7d8eba6c", "is_reserved": 0, "lon": -77.02814366666667, "is_disabled": 0, "fusion_lat": 0.0, "lat": 38.923766, "bike_id": "97d06b20f81cd34f5ce81c6a7d8eba6c", "fusion_lon": 0.0}, {"rental_uris": {"ios": "https://dc.lft.to/lastmile_qr_scan", "android": "https://dc.lft.to/lastmile_qr_scan"}, "type": "electric_scooter", "name": "fc87732b87b8c7ebee2597f3c45b282c", "is_reserved": 0, "lon": -77.0033025, "is_disabled": 0, "fusion_lat": 0.0, "lat": 38.8771775, "bike_id": "fc87732b87b8c7ebee2597f3c45b282c", "fusion_lon": 0.0}, {"rental_uris": {"ios": "https://dc.lft.to/lastmile_qr_scan", "android": "https://dc.lft.to/lastmile_qr_scan"}, "type": "electric_scooter", "name": "743aa94f48ddfb52b4866abb00f6237b", "is_reserved": 0, "lon": -77.04197033333334, "is_disabled": 0, "fusion_lat": 0.0, "lat": 38.90625133333333, "bike_id": "743aa94f48ddfb52b4866abb00f6237b", "fusion_lon": 0.0}, {"rental_uris": {"ios": "https://dc.lft.to/lastmile_qr_scan", "android": "https://dc.lft.to/lastmile_qr_scan"}, "type": "electric_scooter", "name": "bf32880cdde08ed2fec5514bc1a6028a", "is_reserved": 0, "lon": -77.035831, "is_disabled": 0, "fusion_lat": 0.0, "lat": 38.91036883333334, "bike_id": "bf32880cdde08ed2fec5514bc1a6028a", "fusion_lon": 0.0}, {"rental_uris": {"ios": "https://dc.lft.to/lastmile_qr_scan", "android": "https://dc.lft.to/lastmile_qr_scan"}, "type": "electric_scooter", "name": "f70b07189201e704d66135996457fa66", "is_reserved": 0, "lon": -77.02589483333334, "is_disabled": 0, "fusion_lat": 0.0, "lat": 38.8840065, "bike_id": "f70b07189201e704d66135996457fa66", "fusion_lon": 0.0}, {"rental_uris": {"ios": "https://dc.lft.to/lastmile_qr_scan", "android": "https://dc.lft.to/lastmile_qr_scan"}, "type": "electric_scooter", "name": "150974b19df8e443a7f8f85c1975e645", "is_reserved": 0, "lon": -77.05228, "is_disabled": 0, "fusion_lat": 0.0, "lat": 38.89847283333334, "bike_id": "150974b19df8e443a7f8f85c1975e645", "fusion_lon": 0.0}, {"rental_uris": {"ios": "https://dc.lft.to/lastmile_qr_scan", "android": "https://dc.lft.to/lastmile_qr_scan"}, "type": "electric_scooter", "name": "f006a941e5b7e8f9a36829fdcfb487e7", "is_reserved": 0, "lon": -77.03831733333334, "is_disabled": 0, "fusion_lat": 0.0, "lat": 38.9155885, "bike_id": "f006a941e5b7e8f9a36829fdcfb487e7", "fusion_lon": 0.0}, {"rental_uris": {"ios": "https://dc.lft.to/lastmile_qr_scan", "android": "https://dc.lft.to/lastmile_qr_scan"}, "type": "electric_scooter", "name": "edcaef1bcf101cd25daa6e8990de66d0", "is_reserved": 0, "lon": -77.04529416666666, "is_disabled": 0, "fusion_lat": 0.0, "lat": 38.90071483333333, "bike_id": "edcaef1bcf101cd25daa6e8990de66d0", "fusion_lon": 0.0}, {"rental_uris": {"ios": "https://dc.lft.to/lastmile_qr_scan", "android": "https://dc.lft.to/lastmile_qr_scan"}, "type": "electric_scooter", "name": "2a55a390e9b2d02ce1819d1b1916cc65", "is_reserved": 0, "lon": -77.03815866666666, "is_disabled": 0, "fusion_lat": 0.0, "lat": 38.91518766666667, "bike_id": "2a55a390e9b2d02ce1819d1b1916cc65", "fusion_lon": 0.0}, {"rental_uris": {"ios": "https://dc.lft.to/lastmile_qr_scan", "android": "https://dc.lft.to/lastmile_qr_scan"}, "type": "electric_scooter", "name": "69d3db222910fb21bbc181553120ec6f", "is_reserved": 0, "lon": -77.0269335, "is_disabled": 0, "fusion_lat": 0.0, "lat": 38.9266905, "bike_id": "69d3db222910fb21bbc181553120ec6f", "fusion_lon": 0.0}, {"rental_uris": {"ios": "https://dc.lft.to/lastmile_qr_scan", "android": "https://dc.lft.to/lastmile_qr_scan"}, "type": "electric_scooter", "name": "47dabf0ace591b15246631c913169245", "is_reserved": 0, "lon": -77.00425283333334, "is_disabled": 0, "fusion_lat": 0.0, "lat": 38.88512866666667, "bike_id": "47dabf0ace591b15246631c913169245", "fusion_lon": 0.0}, {"rental_uris": {"ios": "https://dc.lft.to/lastmile_qr_scan", "android": "https://dc.lft.to/lastmile_qr_scan"}, "type": "electric_scooter", "name": "4f51935ab7829ceb283ab4b416029791", "is_reserved": 0, "lon": -76.9850495, "is_disabled": 0, "fusion_lat": 0.0, "lat": 38.88079116666667, "bike_id": "4f51935ab7829ceb283ab4b416029791", "fusion_lon": 0.0}, {"rental_uris": {"ios": "https://dc.lft.to/lastmile_qr_scan", "android": "https://dc.lft.to/lastmile_qr_scan"}, "type": "electric_scooter", "name": "438d834ccb1fe42b077680619e1ebdaf", "is_reserved": 0, "lon": -77.02763216666666, "is_disabled": 0, "fusion_lat": 0.0, "lat": 38.9121495, "bike_id": "438d834ccb1fe42b077680619e1ebdaf", "fusion_lon": 0.0}, {"rental_uris": {"ios": "https://dc.lft.to/lastmile_qr_scan", "android": "https://dc.lft.to/lastmile_qr_scan"}, "type": "electric_scooter", "name": "0bb39ac78b713e436e9d3ebff55553a8", "is_reserved": 0, "lon": -77.04672516666666, "is_disabled": 0, "fusion_lat": 0.0, "lat": 38.8923255, "bike_id": "0bb39ac78b713e436e9d3ebff55553a8", "fusion_lon": 0.0}, {"rental_uris": {"ios": "https://dc.lft.to/lastmile_qr_scan", "android": "https://dc.lft.to/lastmile_qr_scan"}, "type": "electric_scooter", "name": "805a97ed0e6642a6323b01c3fba35959", "is_reserved": 0, "lon": -77.02808433333334, "is_disabled": 0, "fusion_lat": 0.0, "lat": 38.90615833333333, "bike_id": "805a97ed0e6642a6323b01c3fba35959", "fusion_lon": 0.0}, {"rental_uris": {"ios": "https://dc.lft.to/lastmile_qr_scan", "android": "https://dc.lft.to/lastmile_qr_scan"}, "type": "electric_scooter", "name": "5130969e5570c4fe4470fb2fa9c03d8e", "is_reserved": 0, "lon": -77.04292, "is_disabled": 0, "fusion_lat": 0.0, "lat": 38.922391833333336, "bike_id": "5130969e5570c4fe4470fb2fa9c03d8e", "fusion_lon": 0.0}, {"rental_uris": {"ios": "https://dc.lft.to/lastmile_qr_scan", "android": "https://dc.lft.to/lastmile_qr_scan"}, "type": "electric_scooter", "name": "4845c8557f07f45c5c908b3fbdd8c1d1", "is_reserved": 0, "lon": -77.04248383333334, "is_disabled": 0, "fusion_lat": 0.0, "lat": 38.9222515, "bike_id": "4845c8557f07f45c5c908b3fbdd8c1d1", "fusion_lon": 0.0}, {"rental_uris": {"ios": "https://dc.lft.to/lastmile_qr_scan", "android": "https://dc.lft.to/lastmile_qr_scan"}, "type": "electric_scooter", "name": "95422476df21131093029603964ac829", "is_reserved": 0, "lon": -77.028398, "is_disabled": 0, "fusion_lat": 0.0, "lat": 38.886217333333335, "bike_id": "95422476df21131093029603964ac829", "fusion_lon": 0.0}, {"rental_uris": {"ios": "https://dc.lft.to/lastmile_qr_scan", "android": "https://dc.lft.to/lastmile_qr_scan"}, "type": "electric_scooter", "name": "575d69675031fbb823aacf5ab8bbfd1d", "is_reserved": 0, "lon": -77.03474716666666, "is_disabled": 0, "fusion_lat": 0.0, "lat": 38.905295833333334, "bike_id": "575d69675031fbb823aacf5ab8bbfd1d", "fusion_lon": 0.0}, {"rental_uris": {"ios": "https://dc.lft.to/lastmile_qr_scan", "android": "https://dc.lft.to/lastmile_qr_scan"}, "type": "electric_scooter", "name": "0868df297049d1e4b9866207fe09a6d8", "is_reserved": 0, "lon": -77.03836583333333, "is_disabled": 0, "fusion_lat": 0.0, "lat": 38.93112083333333, "bike_id": "0868df297049d1e4b9866207fe09a6d8", "fusion_lon": 0.0}, {"rental_uris": {"ios": "https://dc.lft.to/lastmile_qr_scan", "android": "https://dc.lft.to/lastmile_qr_scan"}, "type": "electric_scooter", "name": "c347855acdb3eb96644f76be6ead78f8", "is_reserved": 0, "lon": -77.041942, "is_disabled": 0, "fusion_lat": 0.0, "lat": 38.92009633333333, "bike_id": "c347855acdb3eb96644f76be6ead78f8", "fusion_lon": 0.0}, {"rental_uris": {"ios": "https://dc.lft.to/lastmile_qr_scan", "android": "https://dc.lft.to/lastmile_qr_scan"}, "type": "electric_scooter", "name": "e78235be732561f945b8fc08213ce537", "is_reserved": 0, "lon": -77.04553083333333, "is_disabled": 0, "fusion_lat": 0.0, "lat": 38.917740333333334, "bike_id": "e78235be732561f945b8fc08213ce537", "fusion_lon": 0.0}, {"rental_uris": {"ios": "https://dc.lft.to/lastmile_qr_scan", "android": "https://dc.lft.to/lastmile_qr_scan"}, "type": "electric_scooter", "name": "c7c3d10d45dac3fa36d8510e65f648ce", "is_reserved": 0, "lon": -77.02488416666667, "is_disabled": 0, "fusion_lat": 0.0, "lat": 38.9206505, "bike_id": "c7c3d10d45dac3fa36d8510e65f648ce", "fusion_lon": 0.0}, {"rental_uris": {"ios": "https://dc.lft.to/lastmile_qr_scan", "android": "https://dc.lft.to/lastmile_qr_scan"},