{"data": {"bikes": [{"is_reserved": 0, "type": "electric_scooter", "bike_id": "5c6844696e74d3199488ef9dcbe6e23d", "lat": 38.90059566666667, "lon": -77.04924616666666, "rental_uris": {"android": "https://dc.lft.to/lastmile_qr_scan", "ios": "https://dc.lft.to/lastmile_qr_scan"}, "is_disabled": 0, "fusion_lat": 0.0, "name": "5c6844696e74d3199488ef9dcbe6e23d", "fusion_lon": 0.0}, {"is_reserved": 0, "type": "electric_scooter", "bike_id": "631f62a794a3f037d31f7e91892b2258", "lat": 38.91428466666667, "lon": -77.03207966666666, "rental_uris": {"android": "https://dc.lft.to/lastmile_qr_scan", "ios": "https://dc.lft.to/lastmile_qr_scan"}, "is_disabled": 0, "fusion_lat": 0.0, "name": "631f62a794a3f037d31f7e91892b2258", "fusion_lon": 0.0}, {"is_reserved": 0, "type": "electric_scooter", "bike_id": "021bd9aedfbfaea055ec4d33c6a2287e", "lat": 38.9282095, "lon": -77.0225445, "rental_uris": {"android": "https://dc.lft.to/lastmile_qr_scan", "ios": "https://dc.lft.to/lastmile_qr_scan"}, "is_disabled": 0, "fusion_lat": 0.0, "name": "021bd9aedfbfaea055ec4d33c6a2287e", "fusion_lon": 0.0}, {"is_reserved": 0, "type": "electric_scooter", "bike_id": "cb67172e616cb8a708ecd57dc986c736", "lat": 38.91968516666667, "lon": -77.02373166666666, "rental_uris": {"android": "https://dc.lft.to/lastmile_qr_scan", "ios": "https://dc.lft.to/lastmile_qr_scan"}, "is_disabled": 0, "fusion_lat": 0.0, "name": "cb67172e616cb8a708ecd57dc986c736", "fusion_lon": 0.0}, {"is_reserved": 0, "type": "electric_scooter", "bike_id": "d12ece57943705813cacc5683b6d3437", "lat": 38.8779355, "lon": -77.00114866666667, "rental_uris": {"android": "https://dc.lft.to/lastmile_qr_scan", "ios": "https://dc.lft.to/lastmile_qr_scan"}, "is_disabled": 0, "fusion_lat": 0.0, "name": "d12ece57943705813cacc5683b6d3437", "fusion_lon": 0.0}, {"is_reserved": 0, "type": "electric_scooter", "bike_id": "da677c25f31beb815656c137a0488e08", "lat": 38.91796883333333, "lon": -77.03182783333334, "rental_uris": {"android": "https://dc.lft.to/lastmile_qr_scan", "ios": "https://dc.lft.to/lastmile_qr_scan"}, "is_disabled": 0, "fusion_lat": 0.0, "name": "da677c25f31beb815656c137a0488e08", "fusion_lon": 0.0}, {"is_reserved": 0, "type": "electric_scooter", "bike_id": "3f4c0e7b4276943a81fa9375b726bc63", "lat": 38.900659833333336, "lon": -76.927384, "rental_uris": {"android": "https://dc.lft.to/lastmile_qr_scan", "ios": "https://dc.lft.to/lastmile_qr_scan"}, "is_disabled": 0, "fusion_lat": 0.0, "name": "3f4c0e7b4276943a81fa9375b726bc63", "fusion_lon": 0.0}, {"is_reserved": 0, "type": "electric_scooter", "bike_id": "c43e2b042b75951e8cd7a3a14e3eb141", "lat": 38.94238283333333, "lon": -77.03581116666666, "rental_uris": {"android": "https://dc.lft.to/lastmile_qr_scan", "ios": "https://dc.lft.to/lastmile_qr_scan"}, "is_disabled": 0, "fusion_lat": 0.0, "name": "c43e2b042b75951e8cd7a3a14e3eb141", "fusion_lon": 0.0}, {"is_reserved": 0, "type": "electric_scooter", "bike_id": "642ace6a0590f4086b1a825344699c87", "lat": 38.88724166666667, "lon": -76.98358083333333, "rental_uris": {"android": "https://dc.lft.to/lastmile_qr_scan", "ios": "https://dc.lft.to/lastmile_qr_scan"}, "is_disabled": 0, "fusion_lat": 0.0, "name": "642ace6a0590f4086b1a825344699c87", "fusion_lon": 0.0}, {"is_reserved": 0, "type": "electric_scooter", "bike_id": "b430975b0f7203f7d36f3ca3a622c933", "lat": 38.933370333333336, "lon": -77.0239655, "rental_uris": {"android": "https://dc.lft.to/lastmile_qr_scan", "ios": "https://dc.lft.to/lastmile_qr_scan"}, "is_disabled": 0, "fusion_lat": 0.0, "name": "b430975b0f7203f7d36f3ca3a622c933", "fusion_lon": 0.0}, {"is_reserved": 0, "type": "electric_scooter", "bike_id": "376c9d79f05a2e8912d313415afd53cf", "lat": 38.8922195, "lon": -77.01553333333334, "rental_uris": {"android": "https://dc.lft.to/lastmile_qr_scan", "ios": "https://dc.lft.to/lastmile_qr_scan"}, "is_disabled": 0, "fusion_lat": 0.0, "name": "376c9d79f05a2e8912d313415afd53cf", "fusion_lon": 0.0}, {"is_reserved": 0, "type": "electric_scooter", "bike_id": "8b540894a669e41ee800230d1505b568", "lat": 38.909955, "lon": -77.0400995, "rental_uris": {"android": "https://dc.lft.to/lastmile_qr_scan", "ios": "https://dc.lft.to/lastmile_qr_scan"}, "is_disabled": 0, "fusion_lat": 0.0, "name": "8b540894a669e41ee800230d1505b568", "fusion_lon": 0.0}, {"is_reserved": 0, "type": "electric_scooter", "bike_id": "9ba09fdfc4b251085c84768c3c7dc1e3", "lat": 38.878104666666665, "lon": -76.994839, "rental_uris": {"android": "https://dc.lft.to/lastmile_qr_scan", "ios": "https://dc.lft.to/lastmile_qr_scan"}, "is_disabled": 0, "fusion_lat": 0.0, "name": "9ba09fdfc4b251085c84768c3c7dc1e3", "fusion_lon": 0.0}, {"is_reserved": 0, "type": "electric_scooter", "bike_id": "f640438d69eb87098d99eea85b5fed2a", "lat": 38.926412166666665, "lon": -77.03688266666667, "rental_uris": {"android": "https://dc.lft.to/lastmile_qr_scan", "ios": "https://dc.lft.to/lastmile_qr_scan"}, "is_disabled": 0, "fusion_lat": 0.0, "name": "f640438d69eb87098d99eea85b5fed2a", "fusion_lon": 0.0}, {"is_reserved": 0, "type": "electric_scooter", "bike_id": "ff609d5f36a797f69f4cd0080352b868", "lat": 38.9309035, "lon": -77.024096, "rental_uris": {"android": "https://dc.lft.to/lastmile_qr_scan", "ios": "https://dc.lft.to/lastmile_qr_scan"}, "is_disabled": 0, "fusion_lat": 0.0, "name": "ff609d5f36a797f69f4cd0080352b868", "fusion_lon": 0.0}, {"is_reserved": 0, "type": "electric_scooter", "bike_id": "a5a3b21c220709a976fe6d67f29a9355", "lat": 38.90537116666667, "lon": -77.00216333333333, "rental_uris": {"android": "https://dc.lft.to/lastmile_qr_scan", "ios": "https://dc.lft.to/lastmile_qr_scan"}, "is_disabled": 0, "fusion_lat": 0.0, "name": "a5a3b21c220709a976fe6d67f29a9355", "fusion_lon": 0.0}, {"is_reserved": 0, "type": "electric_scooter", "bike_id": "de26c125659285a1f5afad9a0b85d20e", "lat": 38.938809666666664, "lon": -77.03282866666666, "rental_uris": {"android": "https://dc.lft.to/lastmile_qr_scan", "ios": "https://dc.lft.to/lastmile_qr_scan"}, "is_disabled": 0, "fusion_lat": 0.0, "name": "de26c125659285a1f5afad9a0b85d20e", "fusion_lon": 0.0}, {"is_reserved": 0, "type": "electric_scooter", "bike_id": "ae925aad7b86c0b68fa653f5d436d726", "lat": 38.8988535, "lon": -76.9317785, "rental_uris": {"android": "https://dc.lft.to/lastmile_qr_scan", "ios": "https://dc.lft.to/lastmile_qr_scan"}, "is_disabled": 0, "fusion_lat": 0.0, "name": "ae925aad7b86c0b68fa653f5d436d726", "fusion_lon": 0.0}, {"is_reserved": 0, "type": "electric_scooter", "bike_id": "788e7bb8334eb70b57476fc31ddf1558", "lat": 38.896151, "lon": -77.0440805, "rental_uris": {"android": "https://dc.lft.to/lastmile_qr_scan", "ios": "https://dc.lft.to/lastmile_qr_scan"}, "is_disabled": 0, "fusion_lat": 0.0, "name": "788e7bb8334eb70b57476fc31ddf1558", "fusion_lon": 0.0}, {"is_reserved": 0, "type": "electric_scooter", "bike_id": "ec2cf404fb5763c0d5def473dce230ec", "lat": 38.90653266666666, "lon": -77.04650416666667, "rental_uris": {"android": "https://dc.lft.to/lastmile_qr_scan", "ios": "https://dc.lft.to/lastmile_qr_scan"}, "is_disabled": 0, "fusion_lat": 0.0, "name": "ec2cf404fb5763c0d5def473dce230ec", "fusion_lon": 0.0}, {"is_reserved": 0, "type": "electric_scooter", "bike_id": "57cfac8cab207ccb3f5d69a9c8c5d84c", "lat": 38.92947216666666, "lon": -77.00408616666667, "rental_uris": {"android": "https://dc.lft.to/lastmile_qr_scan", "ios": "https://dc.lft.to/lastmile_qr_scan"}, "is_disabled": 0, "fusion_lat": 0.0, "name": "57cfac8cab207ccb3f5d69a9c8c5d84c", "fusion_lon": 0.0}, {"is_reserved": 0, "type": "electric_scooter", "bike_id": "d5dac4eee8dfbd164e68e6c1d22d51e9", "lat": 38.91815033333334, "lon": -77.03021216666667, "rental_uris": {"android": "https://dc.lft.to/lastmile_qr_scan", "ios": "https://dc.lft.to/lastmile_qr_scan"}, "is_disabled": 0, "fusion_lat": 0.0, "name": "d5dac4eee8dfbd164e68e6c1d22d51e9", "fusion_lon": 0.0}, {"is_reserved": 0, "type": "electric_scooter", "bike_id": "a87d55d7dfbce9292d170a6b7a66c8d7", "lat": 38.907436833333335, "lon": -77.00314883333333, "rental_uris": {"android": "https://dc.lft.to/lastmile_qr_scan", "ios": "https://dc.lft.to/lastmile_qr_scan"}, "is_disabled": 0, "fusion_lat": 0.0, "name": "a87d55d7dfbce9292d170a6b7a66c8d7", "fusion_lon": 0.0}, {"is_reserved": 0, "type": "electric_scooter", "bike_id": "fff8f68c9fc50441397ebf18b791cacd", "lat": 38.9049965, "lon": -77.02949, "rental_uris": {"android": "https://dc.lft.to/lastmile_qr_scan", "ios": "https://dc.lft.to/lastmile_qr_scan"}, "is_disabled": 0, "fusion_lat": 0.0, "name": "fff8f68c9fc50441397ebf18b791cacd", "fusion_lon": 0.0}, {"is_reserved": 0, "type": "electric_scooter", "bike_id": "34f0bc91411600348d6cd64efe7d969e", "lat": 38.927712166666666, "lon": -77.027829, "rental_uris": {"android": "https://dc.lft.to/lastmile_qr_scan", "ios": "https://dc.lft.to/lastmile_qr_scan"}, "is_disabled": 0, "fusion_lat": 0.0, "name": "34f0bc91411600348d6cd64efe7d969e", "fusion_lon": 0.0}, {"is_reserved": 0, "type": "electric_scooter", "bike_id": "3140c9523edf247d126d5d09a0019ea6", "lat": 38.89365933333333, "lon": -77.01950066666667, "rental_uris": {"android": "https://dc.lft.to/lastmile_qr_scan", "ios": "https://dc.lft.to/lastmile_qr_scan"}, "is_disabled": 0, "fusion_lat": 0.0, "name": "3140c9523edf247d126d5d09a0019ea6", "fusion_lon": 0.0}, {"is_reserved": 0, "type": "electric_scooter", "bike_id": "c62ca4ed646485fcb74914d99d80a66b", "lat": 38.91017016666667, "lon": -76.9937085, "rental_uris": {"android": "https://dc.lft.to/lastmile_qr_scan", "ios": "https://dc.lft.to/lastmile_qr_scan"}, "is_disabled": 0, "fusion_lat": 0.0, "name": "c62ca4ed646485fcb74914d99d80a66b", "fusion_lon": 0.0}, {"is_reserved": 0, "type": "electric_scooter", "bike_id": "c39b00afd8be526316de1f2d8763ec97", "lat": 38.922063666666666, "lon": -77.02028816666666, "rental_uris": {"android": "https://dc.lft.to/lastmile_qr_scan", "ios": "https://dc.lft.to/lastmile_qr_scan"}, "is_disabled": 0, "fusion_lat": 0.0, "name": "c39b00afd8be526316de1f2d8763ec97", "fusion_lon": 0.0}, {"is_reserved": 0, "type": "electric_scooter", "bike_id": "a60c8757367083f68871f7c2ddc5683a", "lat": 38.906173333333335, "lon": -77.007246, "rental_uris": {"android": "https://dc.lft.to/lastmile_qr_scan", "ios": "https://dc.lft.to/lastmile_qr_scan"}, "is_disabled": 0, "fusion_lat": 0.0, "name": "a60c8757367083f68871f7c2ddc5683a", "fusion_lon": 0.0}, {"is_reserved": 0, "type": "electric_scooter", "bike_id": "dc07f4dd608f5d8277126b62c2d83e4d", "lat": 38.906346666666664, "lon": -77.0088905, "rental_uris": {"android": "https://dc.lft.to/lastmile_qr_scan", "ios": "https://dc.lft.to/lastmile_qr_scan"}, "is_disabled": 0, "fusion_lat": 0.0, "name": "dc07f4dd608f5d8277126b62c2d83e4d", "fusion_lon": 0.0}, {"is_reserved": 0, "type": "electric_scooter", "bike_id": "d3103b5e6eeaac125650834fbc97f936", "lat": 38.90065716666667, "lon": -77.05299066666667, "rental_uris": {"android": "https://dc.lft.to/lastmile_qr_scan", "ios": "https://dc.lft.to/lastmile_qr_scan"}, "is_disabled": 0, "fusion_lat": 0.0, "name": "d3103b5e6eeaac125650834fbc97f936", "fusion_lon": 0.0}, {"is_reserved": 0, "type": "electric_scooter", "bike_id": "d4d0fca266314d0b00749694727daa64", "lat": 38.892286, "lon": -77.031151, "rental_uris": {"android": "https://dc.lft.to/lastmile_qr_scan", "ios": "https://dc.lft.to/lastmile_qr_scan"}, "is_disabled": 0, "fusion_lat": 0.0, "name": "d4d0fca266314d0b00749694727daa64", "fusion_lon": 0.0}, {"is_reserved": 0, "type": "electric_scooter", "bike_id": "b90bf52677f8300df1d09e48340eed82", "lat": 38.89142966666667, "lon": -76.99942616666667, "rental_uris": {"android": "https://dc.lft.to/lastmile_qr_scan", "ios": "https://dc.lft.to/lastmile_qr_scan"}, "is_disabled": 0, "fusion_lat": 0.0, "name": "b90bf52677f8300df1d09e48340eed82", "fusion_lon": 0.0}, {"is_reserved": 0, "type": "electric_scooter", "bike_id": "20eaebb3aa81d5a7527af6b632ba1c87", "lat": 38.90555416666667, "lon": -77.02728766666667, "rental_uris": {"android": "https://dc.lft.to/lastmile_qr_scan", "ios": "https://dc.lft.to/lastmile_qr_scan"}, "is_disabled": 0, "fusion_lat": 0.0, "name": "20eaebb3aa81d5a7527af6b632ba1c87", "fusion_lon": 0.0}, {"is_reserved": 0, "type": "electric_scooter", "bike_id": "c75198ab64b4ca8e406cba93e432b2e1", "lat": 38.872891333333335, "lon": -77.00228966666667, "rental_uris": {"android": "https://dc.lft.to/lastmile_qr_scan", "ios": "https://dc.lft.to/lastmile_qr_scan"}, "is_disabled": 0, "fusion_lat": 0.0, "name": "c75198ab64b4ca8e406cba93e432b2e1", "fusion_lon": 0.0}, {"is_reserved": 0, "type": "electric_scooter", "bike_id": "8ff33d66f049010e41407ccab131a82a", "lat": 38.92796166666667, "lon": -77.0253225, "rental_uris": {"android": "https://dc.lft.to/lastmile_qr_scan", "ios": "https://dc.lft.to/lastmile_qr_scan"}, "is_disabled": 0, "fusion_lat": 0.0, "name": "8ff33d66f049010e41407ccab131a82a", "fusion_lon": 0.0}, {"is_reserved": 0, "type": "electric_scooter", "bike_id": "abd5b6f5c2c4e419921f853f71a731e8", "lat": 38.92041483333333, "lon": -77.04198883333333, "rental_uris": {"android": "https://dc.lft.to/lastmile_qr_scan", "ios": "https://dc.lft.to/lastmile_qr_scan"}, "is_disabled": 0, "fusion_lat": 0.0, "name": "abd5b6f5c2c4e419921f853f71a731e8", "fusion_lon": 0.0}, {"is_reserved": 0, "type": "electric_bike", "bike_id": "8d686c748eee70e38c546ed1676712fb", "lat": 38.947072666666664, "lon": -77.0650405, "rental_uris": {"android": "https://dc.lft.to/lastmile_qr_scan", "ios": "https://dc.lft.to/lastmile_qr_scan"}, "is_disabled": 0, "fusion_lat": 0.0, "name": "8d686c748eee70e38c546ed1676712fb", "fusion_lon": 0.0}, {"is_reserved": 0, "type": "electric_scooter", "bike_id": "339a79e51ccd3f48f7915609d86862a4", "lat": 38.9078685, "lon": -77.00212916666666, "rental_uris": {"android": "https://dc.lft.to/lastmile_qr_scan", "ios": "https://dc.lft.to/lastmile_qr_scan"}, "is_disabled": 0, "fusion_lat": 0.0, "name": "339a79e51ccd3f48f7915609d86862a4", "fusion_lon": 0.0}, {"is_reserved": 0, "type": "electric_scooter", "bike_id": "59dffb617dd94e2580a1e36b54e52aa1", "lat": 38.924423833333336, "lon": -76.99668166666666, "rental_uris": {"android": "https://dc.lft.to/lastmile_qr_scan", "ios": "https://dc.lft.to/lastmile_qr_scan"}, "is_disabled": 0, "fusion_lat": 0.0, "name": "59dffb617dd94e2580a1e36b54e52aa1", "fusion_lon": 0.0}, {"is_reserved": 0, "type": "electric_scooter", "bike_id": "84da3886286f321e735855ab6a222b07", "lat": 38.9260175, "lon": -77.03741183333334, "rental_uris": {"android": "https://dc.lft.to/lastmile_qr_scan", "ios": "https://dc.lft.to/lastmile_qr_scan"}, "is_disabled": 0, "fusion_lat": 0.0, "name": "84da3886286f321e735855ab6a222b07", "fusion_lon": 0.0}, {"is_reserved": 0, "type": "electric_scooter", "bike_id": "8114efff77085f4e4524adc78d500119", "lat": 38.90011833333333, "lon": -76.99164666666667, "rental_uris": {"android": "https://dc.lft.to/lastmile_qr_scan", "ios": "https://dc.lft.to/lastmile_qr_scan"}, "is_disabled": 0, "fusion_lat": 0.0, "name": "8114efff77085f4e4524adc78d500119", "fusion_lon": 0.0}, {"is_reserved": 0, "type": "electric_scooter", "bike_id": "d8f79e49d443fc67a1fbf6d898f83c09", "lat": 38.918165333333334, "lon": -77.01208166666666, "rental_uris": {"android": "https://dc.lft.to/lastmile_qr_scan", "ios": "https://dc.lft.to/lastmile_qr_scan"}, "is_disabled": 0, "fusion_lat": 0.0, "name": "d8f79e49d443fc67a1fbf6d898f83c09", "fusion_lon": 0.0}, {"is_reserved": 0, "type": "electric_scooter", "bike_id": "e56c50ddeca6c720697d69fdf49f9af3", "lat": 38.91880833333333, "lon": -77.041717, "rental_uris": {"android": "https://dc.lft.to/lastmile_qr_scan", "ios": "https://dc.lft.to/lastmile_qr_scan"}, "is_disabled": 0, "fusion_lat": 0.0, "name": "e56c50ddeca6c720697d69fdf49f9af3", "fusion_lon": 0.0}, {"is_reserved": 0, "type": "electric_bike", "bike_id": "61e8a711e83809f510f914b8a5e56bcc", "lat": 39.010916, "lon": -77.0495265, "rental_uris": {"android": "https://dc.lft.to/lastmile_qr_scan", "ios": "https://dc.lft.to/lastmile_qr_scan"}, "is_disabled": 0, "fusion_lat": 0.0, "name": "61e8a711e83809f510f914b8a5e56bcc", "fusion_lon": 0.0}, {"is_reserved": 0, "type": "electric_scooter", "bike_id": "96d19f766ea94d6d114bf2e5c776818f", "lat": 38.9264935, "lon": -77.0371005, "rental_uris": {"android": "https://dc.lft.to/lastmile_qr_scan", "ios": "https://dc.lft.to/lastmile_qr_scan"}, "is_disabled": 0, "fusion_lat": 0.0, "name": "96d19f766ea94d6d114bf2e5c776818f", "fusion_lon": 0.0}, {"is_reserved": 0, "type": "electric_bike", "bike_id": "cd5b87a6a802a21a279537e6c8134fa7", "lat": 38.923025833333334, "lon": -77.0535485, "rental_uris": {"android": "https://dc.lft.to/lastmile_qr_scan", "ios": "https://dc.lft.to/lastmile_qr_scan"}, "is_disabled": 0, "fusion_lat": 0.0, "name": "cd5b87a6a802a21a279537e6c8134fa7", "fusion_lon": 0.0}, {"is_reserved": 0, "type": "electric_scooter", "bike_id": "7e41d63cd651c48b836d7f53ec17ef03", "lat": 38.890452833333335, "lon": -76.93748133333334, "rental_uris": {"android": "https://dc.lft.to/lastmile_qr_scan", "ios": "https://dc.lft.to/lastmile_qr_scan"}, "is_disabled": 0, "fusion_lat": 0.0, "name": "7e41d63cd651c48b836d7f53ec17ef03", "fusion_lon": 0.0}, {"is_reserved": 0, "type": "electric_scooter", "bike_id": "48b9d615fdbe527310873e19b3034db5", "lat": 38.92218866666666, "lon": -77.02287833333334, "rental_uris": {"android": "https://dc.lft.to/lastmile_qr_scan", "ios": "https://dc.lft.to/lastmile_qr_scan"}, "is_disabled": 0, "fusion_lat": 0.0, "name": "48b9d615fdbe527310873e19b3034db5", "fusion_lon": 0.0}, {"is_reserved": 0, "type": "electric_bike", "bike_id": "af56ac8609d0280ab086c16fc3a0eae3", "lat": 38.80383966666667, "lon": -76.98817516666666, "rental_uris": {"android": "https://dc.lft.to/lastmile_qr_scan", "ios": "https://dc.lft.to/lastmile_qr_scan"}, "is_disabled": 0, "fusion_lat": 0.0, "name": "af56ac8609d0280ab086c16fc3a0eae3", "fusion_lon": 0.0}, {"is_reserved": 0, "type": "electric_scooter", "bike_id": "e0372bf17058e17a15d1ee65adff4579", "lat": 38.90270683333333, "lon": -77.03974466666666, "rental_uris": {"android": "https://dc.lft.to/lastmile_qr_scan", "ios": "https://dc.lft.to/lastmile_qr_scan"}, "is_disabled": 0, "fusion_lat": 0.0, "name": "e0372bf17058e17a15d1ee65adff4579", "fusion_lon": 0.0}, {"is_reserved": 0, "type": "electric_scooter", "bike_id": "65441420901a77ac228e3fdaf2f39ad4", "lat": 38.89734833333333, "lon": -77.00753316666666, "rental_uris": {"android": "https://dc.lft.to/lastmile_qr_scan", "ios": "https://dc.lft.to/lastmile_qr_scan"}, "is_disabled": 0, "fusion_lat": 0.0, "name": "65441420901a77ac228e3fdaf2f39ad4", "fusion_lon": 0.0}, {"is_reserved": 0, "type": "electric_scooter", "bike_id": "1abb23933ef7f2016ce6bbe980847f6b", "lat": 38.9325095, "lon": -77.03276683333333, "rental_uris": {"android": "https://dc.lft.to/lastmile_qr_scan", "ios": "https://dc.lft.to/lastmile_qr_scan"}, "is_disabled": 0, "fusion_lat": 0.0, "name": "1abb23933ef7f2016ce6bbe980847f6b", "fusion_lon": 0.0}, {"is_reserved": 0, "type": "electric_scooter", "bike_id": "3ee5b134c4cdd536ce97778affa20d56", "lat": 38.897821, "lon": -77.050143, "rental_uris": {"android": "https://dc.lft.to/lastmile_qr_scan", "ios": "https://dc.lft.to/lastmile_qr_scan"}, "is_disabled": 0, "fusion_lat": 0.0, "name": "3ee5b134c4cdd536ce97778affa20d56", "fusion_lon": 0.0}, {"is_reserved": 0, "type": "electric_scooter", "bike_id": "fc63d2ee56bfd0068db363ac912fc85c", "lat": 38.889338333333335, "lon": -76.99362666666667, "rental_uris": {"android": "https://dc.lft.to/lastmile_qr_scan", "ios": "https://dc.lft.to/lastmile_qr_scan"}, "is_disabled": 0, "fusion_lat": 0.0, "name": "fc63d2ee56bfd0068db363ac912fc85c", "fusion_lon": 0.0}, {"is_reserved": 0, "type": "electric_scooter", "bike_id": "6d7fe3d3dc930380b7d49cc8e8140747", "lat": 38.883654, "lon": -76.94153966666667, "rental_uris": {"android": "https://dc.lft.to/lastmile_qr_scan", "ios": "https://dc.lft.to/lastmile_qr_scan"}, "is_disabled": 0, "fusion_lat": 0.0, "name": "6d7fe3d3dc930380b7d49cc8e8140747", "fusion_lon": 0.0}, {"is_reserved": 0, "type": "electric_scooter", "bike_id": "d2601d506294376893f3709be2771b99", "lat": 38.903795833333334, "lon": -77.047338, "rental_uris": {"android": "https://dc.lft.to/lastmile_qr_scan", "ios": "https://dc.lft.to/lastmile_qr_scan"}, "is_disabled": 0, "fusion_lat": 0.0, "name": "d2601d506294376893f3709be2771b99", "fusion_lon": 0.0}, {"is_reserved": 0, "type": "electric_scooter", "bike_id": "fdbf9a7d57aba0c39eeeaa986e9cb4da", "lat": 38.892557333333336, "lon": -76.92764266666667, "rental_uris": {"android": "https://dc.lft.to/lastmile_qr_scan", "ios": "https://dc.lft.to/lastmile_qr_scan"}, "is_disabled": 0, "fusion_lat": 0.0, "name": "fdbf9a7d57aba0c39eeeaa986e9cb4da", "fusion_lon": 0.0}, {"is_reserved": 0, "type": "electric_scooter", "bike_id": "86a8c35f0cf73a39174c61e79f398220", "lat": 38.866894333333335, "lon": -76.9789805, "rental_uris": {"android": "https://dc.lft.to/lastmile_qr_scan", "ios": "https://dc.lft.to/lastmile_qr_scan"}, "is_disabled": 0, "fusion_lat": 0.0, "name": "86a8c35f0cf73a39174c61e79f398220", "fusion_lon": 0.0}, {"is_reserved": 0, "type": "electric_scooter", "bike_id": "5b5adc02994e92fa0a18f232c40926b0", "lat": 38.894587666666666, "lon": -77.01896783333333, "rental_uris": {"android": "https://dc.lft.to/lastmile_qr_scan", "ios": "https://dc.lft.to/lastmile_qr_scan"}, "is_disabled": 0, "fusion_lat": 0.0, "name": "5b5adc02994e92fa0a18f232c40926b0", "fusion_lon": 0.0}, {"is_reserved": 0, "type": "electric_scooter", "bike_id": "636150f8da56e9ba0e6f9dd21aeb46b7", "lat": 38.89251216666667, "lon": -76.99492716666667, "rental_uris": {"android": "https://dc.lft.to/lastmile_qr_scan", "ios": "https://dc.lft.to/lastmile_qr_scan"}, "is_disabled": 0, "fusion_lat": 0.0, "name": "636150f8da56e9ba0e6f9dd21aeb46b7", "fusion_lon": 0.0}, {"is_reserved": 0, "type": "electric_scooter", "bike_id": "25ef0fc69ceeb46fbfa0557147ef709d", "lat": 38.884214, "lon": -77.02553666666667, "rental_uris": {"android": "https://dc.lft.to/lastmile_qr_scan", "ios": "https://dc.lft.to/lastmile_qr_scan"}, "is_disabled": 0, "fusion_lat": 0.0, "name": "25ef0fc69ceeb46fbfa0557147ef709d", "fusion_lon": 0.0}, {"is_reserved": 0, "type": "electric_scooter", "bike_id": "1729bd5cfed860d35a20e55f85e4650e", "lat": 38.88728066666667, "lon": -77.02824316666667, "rental_uris": {"android": "https://dc.lft.to/lastmile_qr_scan", "ios": "https://dc.lft.to/lastmile_qr_scan"}, "is_disabled": 0, "fusion_lat": 0.0, "name": "1729bd5cfed860d35a20e55f85e4650e", "fusion_lon": 0.0}, {"is_reserved": 0, "type": "electric_scooter", "bike_id": "43a723d9ddea2a5fa0bf818f5fad6073", "lat": 38.896745, "lon": -77.00515783333333, "rental_uris": {"android": "https://dc.lft.to/lastmile_qr_scan", "ios": "https://dc.lft.to/lastmile_qr_scan"}, "is_disabled": 0, "fusion_lat": 0.0, "name": "43a723d9ddea2a5fa0bf818f5fad6073", "fusion_lon": 0.0}, {"is_reserved": 0, "type": "electric_scooter", "bike_id": "f43004aab7b3f675de243f1083fe0ff6", "lat": 38.917992166666664, "lon": -77.02701066666667, "rental_uris": {"android": "https://dc.lft.to/lastmile_qr_scan", "ios": "https://dc.lft.to/lastmile_qr_scan"}, "is_disabled": 0, "fusion_lat": 0.0, "name": "f43004aab7b3f675de243f1083fe0ff6", "fusion_lon": 0.0}, {"is_reserved": 0, "type": "electric_scooter", "bike_id": "cdb1b9880970736de754699e9e306fcd", "lat": 38.914774333333334, "lon": -77.03192016666667, "rental_uris": {"android": "https://dc.lft.to/lastmile_qr_scan", "ios": "https://dc.lft.to/lastmile_qr_scan"}, "is_disabled": 0, "fusion_lat": 0.0, "name": "cdb1b9880970736de754699e9e306fcd", "fusion_lon": 0.0}, {"is_reserved": 0, "type": "electric_scooter", "bike_id": "76dd9cadeddcb8e0509105b16dfec8c6", "lat": 38.88334866666667, "lon": -76.942946, "rental_uris": {"android": "https://dc.lft.to/lastmile_qr_scan", "ios": "https://dc.lft.to/lastmile_qr_scan"}, "is_disabled": 0, "fusion_lat": 0.0, "name": "76dd9cadeddcb8e0509105b16dfec8c6", "fusion_lon": 0.0}, {"is_reserved": 0, "type": "electric_bike", "bike_id": "fa09603da84a5673174d81f97128d325", "lat": 38.88757433333333, "lon": -77.08919966666667, "rental_uris": {"android": "https://dc.lft.to/lastmile_qr_scan", "ios": "https://dc.lft.to/lastmile_qr_scan"}, "is_disabled": 0, "fusion_lat": 0.0, "name": "fa09603da84a5673174d81f97128d325", "fusion_lon": 0.0}, {"is_reserved": 0, "type": "electric_scooter", "bike_id": "90a305564d1470718d236f6b52e99589", "lat": 38.91639766666667, "lon": -77.0210075, "rental_uris": {"android": "https://dc.lft.to/lastmile_qr_scan", "ios": "https://dc.lft.to/lastmile_qr_scan"}, "is_disabled": 0, "fusion_lat": 0.0, "name": "90a305564d1470718d236f6b52e99589", "fusion_lon": 0.0}, {"is_reserved": 0, "type": "electric_scooter", "bike_id": "c33ce0d115e9ec4862aaecb3bc9cb734", "lat": 38.90010766666666, "lon": -76.99685366666667, "rental_uris": {"android": "https://dc.lft.to/lastmile_qr_scan", "ios": "https://dc.lft.to/lastmile_qr_scan"}, "is_disabled": 0, "fusion_lat": 0.0, "name": "c33ce0d115e9ec4862aaecb3bc9cb734", "fusion_lon": 0.0}, {"is_reserved": 0, "type": "electric_scooter", "bike_id": "29dc6e7f618c5327ca2398c20da07983", "lat": 38.92603833333333, "lon": -77.05703083333333, "rental_uris": {"android": "https://dc.lft.to/lastmile_qr_scan", "ios": "https://dc.lft.to/lastmile_qr_scan"}, "is_disabled": 0, "fusion_lat": 0.0, "name": "29dc6e7f618c5327ca2398c20da07983", "fusion_lon": 0.0}, {"is_reserved": 0, "type": "electric_bike", "bike_id": "8dca84c6e1f1010d6201419f19744101", "lat": 38.8025635, "lon": -77.12165633333333, "rental_uris": {"android": "https://dc.lft.to/lastmile_qr_scan", "ios": "https://dc.lft.to/lastmile_qr_scan"}, "is_disabled": 0, "fusion_lat": 0.0, "name": "8dca84c6e1f1010d6201419f19744101", "fusion_lon": 0.0}, {"is_reserved": 0, "type": "electric_scooter", "bike_id": "7ebecdb834c724456e4451060e939d90", "lat": 38.912136833333335, "lon": -77.0759805, "rental_uris": {"android": "https://dc.lft.to/lastmile_qr_scan", "ios": "https://dc.lft.to/lastmile_qr_scan"}, "is_disabled": 0, "fusion_lat": 0.0, "name": "7ebecdb834c724456e4451060e939d90", "fusion_lon": 0.0}, {"is_reserved": 0, "type": "electric_scooter", "bike_id": "c613ba6f18300c66d3587b8c40db5edd", "lat": 38.921527166666664, "lon": -77.03352366666667, "rental_uris": {"android": "https://dc.lft.to/lastmile_qr_scan", "ios": "https://dc.lft.to/lastmile_qr_scan"}, "is_disabled": 0, "fusion_lat": 0.0, "name": "c613ba6f18300c66d3587b8c40db5edd", "fusion_lon": 0.0}, {"is_reserved": 0, "type": "electric_scooter", "bike_id": "15ac786b989f00160d2c3b915eacd390", "lat": 38.92665066666667, "lon": -77.03026883333334, "rental_uris": {"android": "https://dc.lft.to/lastmile_qr_scan", "ios": "https://dc.lft.to/lastmile_qr_scan"}, "is_disabled": 0, "fusion_lat": 0.0, "name": "15ac786b989f00160d2c3b915eacd390", "fusion_lon": 0.0}, {"is_reserved": 0, "type": "electric_scooter", "bike_id": "4af1e019d6aae53bc5ae989d3c9d46dd", "lat": 38.9063835, "lon": -77.051489, "rental_uris": {"android": "https://dc.lft.to/lastmile_qr_scan", "ios": "https://dc.lft.to/lastmile_qr_scan"}, "is_disabled": 0, "fusion_lat": 0.0, "name": "4af1e019d6aae53bc5ae989d3c9d46dd", "fusion_lon": 0.0}, {"is_reserved": 0, "type": "electric_scooter", "bike_id": "ee49e4132781fdab05cf78eb28ced87b", "lat": 38.838021, "lon": -76.9985605, "rental_uris": {"android": "https://dc.lft.to/lastmile_qr_scan", "ios": "https://dc.lft.to/lastmile_qr_scan"}, "is_disabled": 0, "fusion_lat": 0.0, "name": "ee49e4132781fdab05cf78eb28ced87b", "fusion_lon": 0.0}, {"is_reserved": 0, "type": "electric_scooter", "bike_id": "7c3f59e4d454832bbc35e10b11a5f9c2", "lat": 38.8996185, "lon": -77.04478483333334, "rental_uris": {"android": "https://dc.lft.to/lastmile_qr_scan", "ios": "https://dc.lft.to/lastmile_qr_scan"}, "is_disabled": 0, "fusion_lat": 0.0, "name": "7c3f59e4d454832bbc35e10b11a5f9c2", "fusion_lon": 0.0}, {"is_reserved": 0, "type": "electric_scooter", "bike_id": "efc24246d2077902bbf73e613f10b033", "lat": 38.91255866666667, "lon": -77.028546, "rental_uris": {"android": "https://dc.lft.to/lastmile_qr_scan", "ios": "https://dc.lft.to/lastmile_qr_scan"}, "is_disabled": 0, "fusion_lat": 0.0, "name": "efc24246d2077902bbf73e613f10b033", "fusion_lon": 0.0}, {"is_reserved": 0, "type": "electric_scooter", "bike_id": "d5984be84cc061f7c383ed37d24d8be5", "lat": 38.931009333333336, "lon": -77.0247995, "rental_uris": {"android": "https://dc.lft.to/lastmile_qr_scan", "ios": "https://dc.lft.to/lastmile_qr_scan"}, "is_disabled": 0, "fusion_lat": 0.0, "name": "d5984be84cc061f7c383ed37d24d8be5", "fusion_lon": 0.0}, {"is_reserved": 0, "type": "electric_scooter", "bike_id": "f4cbded78fba7efd2c46141842df56ee", "lat": 38.960304, "lon": -77.02429816666667, "rental_uris": {"android": "https://dc.lft.to/lastmile_qr_scan", "ios": "https://dc.lft.to/lastmile_qr_scan"}, "is_disabled": 0, "fusion_lat": 0.0, "name": "f4cbded78fba7efd2c46141842df56ee", "fusion_lon": 0.0}, {"is_reserved": 0, "type": "electric_bike", "bike_id": "81c90eb0a190c5d5f506996695e828a3", "lat": 38.900249, "lon": -76.9804005, "rental_uris": {"android": "https://dc.lft.to/lastmile_qr_scan", "ios": "https://dc.lft.to/lastmile_qr_scan"}, "is_disabled": 0, "fusion_lat": 0.0, "name": "81c90eb0a190c5d5f506996695e828a3", "fusion_lon": 0.0}, {"is_reserved": 0, "type": "electric_scooter", "bike_id": "53a735b1bc56211f8ced9595abfb35eb", "lat": 38.89828033333333, "lon": -76.94652866666667, "rental_uris": {"android": "https://dc.lft.to/lastmile_qr_scan", "ios": "https://dc.lft.to/lastmile_qr_scan"}, "is_disabled": 0, "fusion_lat": 0.0, "name": "53a735b1bc56211f8ced9595abfb35eb", "fusion_lon": 0.0}, {"is_reserved": 0, "type": "electric_scooter", "bike_id": "847ae0adfc8a42252699cc54b7cdd387", "lat": 38.936306333333334, "lon": -77.07297166666666, "rental_uris": {"android": "https://dc.lft.to/lastmile_qr_scan", "ios": "https://dc.lft.to/lastmile_qr_scan"}, "is_disabled": 0, "fusion_lat": 0.0, "name": "847ae0adfc8a42252699cc54b7cdd387", "fusion_lon": 0.0}, {"is_reserved": 0, "type": "electric_scooter", "bike_id": "f82b385b77c48ea19601363dfd6cfa99", "lat": 38.929142666666664, "lon": -77.03264916666667, "rental_uris": {"android": "https://dc.lft.to/lastmile_qr_scan", "ios": "https://dc.lft.to/lastmile_qr_scan"}, "is_disabled": 0, "fusion_lat": 0.0, "name": "f82b385b77c48ea19601363dfd6cfa99", "fusion_lon": 0.0}, {"is_reserved": 0, "type": "electric_scooter", "bike_id": "7f151fab0e76e1c7fd6f3d3b6f81bb79", "lat": 38.917523, "lon": -77.01462666666667, "rental_uris": {"android": "https://dc.lft.to/lastmile_qr_scan", "ios": "https://dc.lft.to/lastmile_qr_scan"}, "is_disabled": 0, "fusion_lat": 0.0, "name": "7f151fab0e76e1c7fd6f3d3b6f81bb79", "fusion_lon": 0.0}, {"is_reserved": 0, "type": "electric_scooter", "bike_id": "464504ffed897c46c9cf6e1dd2a4a9a2", "lat": 38.90163116666667, "lon": -76.9302045, "rental_uris": {"android": "https://dc.lft.to/lastmile_qr_scan", "ios": "https://dc.lft.to/lastmile_qr_scan"}, "is_disabled": 0, "fusion_lat": 0.0, "name": "464504ffed897c46c9cf6e1dd2a4a9a2", "fusion_lon": 0.0}, {"is_reserved": 0, "type": "electric_scooter", "bike_id": "1ace12e21de11f6c2aea80c70e6bdf9f", "lat": 38.91264566666667, "lon": -77.031442, "rental_uris": {"android": "https://dc.lft.to/lastmile_qr_scan", "ios": "https://dc.lft.to/lastmile_qr_scan"}, "is_disabled": 0, "fusion_lat": 0.0, "name": "1ace12e21de11f6c2aea80c70e6bdf9f", "fusion_lon": 0.0}, {"is_reserved": 0, "type": "electric_scooter", "bike_id": "d18e3428f16f299208284205bf04a3de", "lat": 38.91303, "lon": -77.02693966666666, "rental_uris": {"android": "https://dc.lft.to/lastmile_qr_scan", "ios": "https://dc.lft.to/lastmile_qr_scan"}, "is_disabled": 0, "fusion_lat": 0.0, "name": "d18e3428f16f299208284205bf04a3de", "fusion_lon": 0.0}, {"is_reserved": 0, "type": "electric_scooter", "bike_id": "1f2be38b319e288bca10f1f86441c584", "lat": 38.91883816666667, "lon": -77.02711116666667, "rental_uris": {"android": "https://dc.lft.to/lastmile_qr_scan", "ios": "https://dc.lft.to/lastmile_qr_scan"}, "is_disabled": 0, "fusion_lat": 0.0, "name": "1f2be38b319e288bca10f1f86441c584", "fusion_lon": 0.0}, {"is_reserved": 0, "type": "electric_scooter", "bike_id": "f7176939a6222477f26f57d95becd8dd", "lat": 38.89996633333333, "lon": -77.02706166666667, "rental_uris": {"android": "https://dc.lft.to/lastmile_qr_scan", "ios": "https://dc.lft.to/lastmile_qr_scan"}, "is_disabled": 0, "fusion_lat": 0.0, "name": "f7176939a6222477f26f57d95becd8dd", "fusion_lon": 0.0}, {"is_reserved": 0, "type": "electric_scooter", "bike_id": "38b987982bb0c86032edf999e1135922", "lat": 38.92600733333333, "lon": -77.02153933333334, "rental_uris": {"android": "https://dc.lft.to/lastmile_qr_scan", "ios": "https://dc.lft.to/lastmile_qr_scan"}, "is_disabled": 0, "fusion_lat": 0.0, "name": "38b987982bb0c86032edf999e1135922", "fusion_lon": 0.0}, {"is_reserved": 0, "type": "electric_scooter", "bike_id": "ed0bed3ee7599f231ba9aa9884089adb", "lat": 38.928924, "lon": -77.025537, "rental_uris": {"android": "https://dc.lft.to/lastmile_qr_scan", "ios": "https://dc.lft.to/lastmile_qr_scan"}, "is_disabled": 0, "fusion_lat": 0.0, "name": "ed0bed3ee7599f231ba9aa9884089adb", "fusion_lon": 0.0}, {"is_reserved": 0, "type": "electric_scooter", "bike_id": "65b04b1062463be4c8bf971ed88a900f", "lat": 38.94649616666667, "lon": -77.06558333333334, "rental_uris": {"android": "https://dc.lft.to/lastmile_qr_scan", "ios": "https://dc.lft.to/lastmile_qr_scan"}, "is_disabled": 0, "fusion_lat": 0.0, "name": "65b04b1062463be4c8bf971ed88a900f", "fusion_lon": 0.0}, {"is_reserved": 0, "type": "electric_bike", "bike_id": "da3c4aeefecf44dd27a110b1b2b106f7", "lat": 38.807321333333334, "lon": -76.99256533333333, "rental_uris": {"android": "https://dc.lft.to/lastmile_qr_scan", "ios": "https://dc.lft.to/lastmile_qr_scan"}, "is_disabled": 0, "fusion_lat": 0.0, "name": "da3c4aeefecf44dd27a110b1b2b106f7", "fusion_lon": 0.0}, {"is_reserved": 0, "type": "electric_scooter", "bike_id": "8b8ef740351444e86ce1f01a0245abb0", "lat": 38.9084595, "lon": -77.043472, "rental_uris": {"android": "https://dc.lft.to/lastmile_qr_scan", "ios": "https://dc.lft.to/lastmile_qr_scan"}, "is_disabled": 0, "fusion_lat": 0.0, "name": "8b8ef740351444e86ce1f01a0245abb0", "fusion_lon": 0.0}, {"is_reserved": 0, "type": "electric_bike", "bike_id": "f2011ce403a102e5e0288b91c8f772e9", "lat": 38.888397, "lon": -76.9574945, "rental_uris": {"android": "https://dc.lft.to/lastmile_qr_scan", "ios": "https://dc.lft.to/lastmile_qr_scan"}, "is_disabled": 0, "fusion_lat": 0.0, "name": "f2011ce403a102e5e0288b91c8f772e9", "fusion_lon": 0.0}, {"is_reserved": 0, "type": "electric_scooter", "bike_id": "c5997fb6f5aee724787e4b47eb7c551d", "lat": 38.930738, "lon": -77.02816183333333, "rental_uris": {"android": "https://dc.lft.to/lastmile_qr_scan", "ios": "https://dc.lft.to/lastmile_qr_scan"}, "is_disabled": 0, "fusion_lat": 0.0, "name": "c5997fb6f5aee724787e4b47eb7c551d", "fusion_lon": 0.0}, {"is_reserved": 0, "type": "electric_scooter", "bike_id": "44983b8e3f21556e0e6133c0ab47a237", "lat": 38.9236015, "lon": -77.0511015, "rental_uris": {"android": "https://dc.lft.to/lastmile_qr_scan", "ios": "https://dc.lft.to/lastmile_qr_scan"}, "is_disabled": 0, "fusion_lat": 0.0, "name": "44983b8e3f21556e0e6133c0ab47a237", "fusion_lon": 0.0}, {"is_reserved": 0, "type": "electric_scooter", "bike_id": "ead52cb2aa3214a2b1225b2ffde58c10", "lat": 38.9127055, "lon": -77.0121965, "rental_uris": {"android": "https://dc.lft.to/lastmile_qr_scan", "ios": "https://dc.lft.to/lastmile_qr_scan"}, "is_disabled": 0, "fusion_lat": 0.0, "name": "ead52cb2aa3214a2b1225b2ffde58c10", "fusion_lon": 0.0}, {"is_reserved": 0, "type": "electric_scooter", "bike_id": "29adba9f2dc3240f6e61bdf4913b690e", "lat": 38.975152333333334, "lon": -77.01738133333333, "rental_uris": {"android": "https://dc.lft.to/lastmile_qr_scan", "ios": "https://dc.lft.to/lastmile_qr_scan"}, "is_disabled": 0, "fusion_lat": 0.0, "name": "29adba9f2dc3240f6e61bdf4913b690e", "fusion_lon": 0.0}, {"is_reserved": 0, "type": "electric_scooter", "bike_id": "e97805737aaa3f1a3b9bd279d0fc24eb", "lat": 38.9260495, "lon": -77.0216385, "rental_uris": {"android": "https://dc.lft.to/lastmile_qr_scan", "ios": "https://dc.lft.to/lastmile_qr_scan"}, "is_disabled": 0, "fusion_lat": 0.0, "name": "e97805737aaa3f1a3b9bd279d0fc24eb", "fusion_lon": 0.0}, {"is_reserved": 0, "type": "electric_scooter", "bike_id": "536da7cb5ccad79b245896ca31450602", "lat": 38.93991483333333, "lon": -77.02000183333334, "rental_uris": {"android": "https://dc.lft.to/lastmile_qr_scan", "ios": "https://dc.lft.to/lastmile_qr_scan"}, "is_disabled": 0, "fusion_lat": 0.0, "name": "536da7cb5ccad79b245896ca31450602", "fusion_lon": 0.0}, {"is_reserved": 0, "type": "electric_scooter", "bike_id": "20edc25c23134b1b2991895b215e01d4", "lat": 38.91418633333333, "lon": -77.017979, "rental_uris": {"android": "https://dc.lft.to/lastmile_qr_scan", "ios": "https://dc.lft.to/lastmile_qr_scan"}, "is_disabled": 0, "fusion_lat": 0.0, "name": "20edc25c23134b1b2991895b215e01d4", "fusion_lon": 0.0}, {"is_reserved": 0, "type": "electric_scooter", "bike_id": "b2929787a78d4df1db532986739afd7c", "lat": 38.899955166666665, "lon": -77.02697716666667, "rental_uris": {"android": "https://dc.lft.to/lastmile_qr_scan", "ios": "https://dc.lft.to/lastmile_qr_scan"}, "is_disabled": 0, "fusion_lat": 0.0, "name": "b2929787a78d4df1db532986739afd7c", "fusion_lon": 0.0}, {"is_reserved": 0, "type": "electric_scooter", "bike_id": "7f57075940c6f37afe6e441375c6ad26", "lat": 38.901884333333335, "lon": -77.02180783333333, "rental_uris": {"android": "https://dc.lft.to/lastmile_qr_scan", "ios": "https://dc.lft.to/lastmile_qr_scan"}, "is_disabled": 0, "fusion_lat": 0.0, "name": "7f57075940c6f37afe6e441375c6ad26", "fusion_lon": 0.0}, {"is_reserved": 0, "type": "electric_scooter", "bike_id": "e3b8ea25f51b7ce7e2cb93f2e20ecc0b", "lat": 38.90347533333333, "lon": -76.986115, "rental_uris": {"android": "https://dc.lft.to/lastmile_qr_scan", "ios": "https://dc.lft.to/lastmile_qr_scan"}, "is_disabled": 0, "fusion_lat": 0.0, "name": "e3b8ea25f51b7ce7e2cb93f2e20ecc0b", "fusion_lon": 0.0}, {"is_reserved": 0, "type": "electric_bike", "bike_id": "30a4c5001809a0774e733b75c887e215", "lat": 38.957518, "lon": -76.980161, "rental_uris": {"android": "https://dc.lft.to/lastmile_qr_scan", "ios": "https://dc.lft.to/lastmile_qr_scan"}, "is_disabled": 0, "fusion_lat": 0.0, "name": "30a4c5001809a0774e733b75c887e215", "fusion_lon": 0.0}, {"is_reserved": 0, "type": "electric_scooter", "bike_id": "beee1a373b289303dd17d92b19024e63", "lat": 38.9086515, "lon": -77.03220483333334, "rental_uris": {"android": "https://dc.lft.to/lastmile_qr_scan", "ios": "https://dc.lft.to/lastmile_qr_scan"}, "is_disabled": 0, "fusion_lat": 0.0, "name": "beee1a373b289303dd17d92b19024e63", "fusion_lon": 0.0}, {"is_reserved": 0, "type": "electric_scooter", "bike_id": "e49548df93428ba9eb820394f0b6ddb6", "lat": 38.887694, "lon": -76.93262316666667, "rental_uris": {"android": "https://dc.lft.to/lastmile_qr_scan", "ios": "https://dc.lft.to/lastmile_qr_scan"}, "is_disabled": 0, "fusion_lat": 0.0, "name": "e49548df93428ba9eb820394f0b6ddb6", "fusion_lon": 0.0}, {"is_reserved": 0, "type": "electric_scooter", "bike_id": "f4745f274f75680ed81b801f18162277", "lat": 38.92026383333334, "lon": -76.98543383333333, "rental_uris": {"android": "https://dc.lft.to/lastmile_qr_scan", "ios": "https://dc.lft.to/lastmile_qr_scan"}, "is_disabled": 0, "fusion_lat": 0.0, "name": "f4745f274f75680ed81b801f18162277", "fusion_lon": 0.0}, {"is_reserved": 0, "type": "electric_scooter", "bike_id": "f7b48dc9388642e7f34dfb85bb174323", "lat": 38.87143566666667, "lon": -76.96585266666666, "rental_uris": {"android": "https://dc.lft.to/lastmile_qr_scan", "ios": "https://dc.lft.to/lastmile_qr_scan"}, "is_disabled": 0, "fusion_lat": 0.0, "name": "f7b48dc9388642e7f34dfb85bb174323", "fusion_lon": 0.0}, {"is_reserved": 0, "type": "electric_bike", "bike_id": "3cf2398f9370542abd12b487dc8d6cb4", "lat": 38.867531166666666, "lon": -76.94531283333333, "rental_uris": {"android": "https://dc.lft.to/lastmile_qr_scan", "ios": "https://dc.lft.to/lastmile_qr_scan"}, "is_disabled": 0, "fusion_lat": 0.0, "name": "3cf2398f9370542abd12b487dc8d6cb4", "fusion_lon": 0.0}, {"is_reserved": 0, "type": "electric_scooter", "bike_id": "2db116f73a5fe786d74aff763fa2a17d", "lat": 38.899593833333334, "lon": -77.0455885, "rental_uris": {"android": "https://dc.lft.to/lastmile_qr_scan", "ios": "https://dc.lft.to/lastmile_qr_scan"}, "is_disabled": 0, "fusion_lat": 0.0, "name": "2db116f73a5fe786d74aff763fa2a17d", "fusion_lon": 0.0}, {"is_reserved": 0, "type": "electric_scooter", "bike_id": "4b619cdb2e765cf7506a56e602114931", "lat": 38.89988066666667, "lon": -77.02202166666666, "rental_uris": {"android": "https://dc.lft.to/lastmile_qr_scan", "ios": "https://dc.lft.to/lastmile_qr_scan"}, "is_disabled": 0, "fusion_lat": 0.0, "name": "4b619cdb2e765cf7506a56e602114931", "fusion_lon": 0.0}, {"is_reserved": 0, "type": "electric_bike", "bike_id": "bdfd4871d8868716c68bead2de2e4d0f", "lat": 38.97516816666667, "lon": -77.01682316666667, "rental_uris": {"android": "https://dc.lft.to/lastmile_qr_scan", "ios": "https://dc.lft.to/lastmile_qr_scan"}, "is_disabled": 0, "fusion_lat": 0.0, "name": "bdfd4871d8868716c68bead2de2e4d0f", "fusion_lon": 0.0}, {"is_reserved": 0, "type": "electric_scooter", "bike_id": "73207d7f492cd151e05640afd6acd64a", "lat": 38.92287966666667, "lon": -77.03393183333333, "rental_uris": {"android": "https://dc.lft.to/lastmile_qr_scan", "ios": "https://dc.lft.to/lastmile_qr_scan"}, "is_disabled": 0, "fusion_lat": 0.0, "name": "73207d7f492cd151e05640afd6acd64a", "fusion_lon": 0.0}, {"is_reserved": 0, "type": "electric_scooter", "bike_id": "122bfdbbf3e674f49d5bb8ba0d649f84", "lat": 38.92379966666667, "lon": -77.0305475, "rental_uris": {"android": "https://dc.lft.to/lastmile_qr_scan", "ios": "https://dc.lft.to/lastmile_qr_scan"}, "is_disabled": 0, "fusion_lat": 0.0, "name": "122bfdbbf3e674f49d5bb8ba0d649f84", "fusion_lon": 0.0}, {"is_reserved": 0, "type": "electric_scooter", "bike_id": "2570425953b7ff48374ce5243e305e31", "lat": 38.8990995, "lon": -76.93364966666667, "rental_uris": {"android": "https://dc.lft.to/lastmile_qr_scan", "ios": "https://dc.lft.to/lastmile_qr_scan"}, "is_disabled": 0, "fusion_lat": 0.0, "name": "2570425953b7ff48374ce5243e305e31", "fusion_lon": 0.0}, {"is_reserved": 0, "type": "electric_scooter", "bike_id": "c184e4349a17ad684de868a393228d00", "lat": 38.91373933333333, "lon": -77.04603483333334, "rental_uris": {"android": "https://dc.lft.to/lastmile_qr_scan", "ios": "https://dc.lft.to/lastmile_qr_scan"}, "is_disabled": 0, "fusion_lat": 0.0, "name": "c184e4349a17ad684de868a393228d00", "fusion_lon": 0.0}, {"is_reserved": 0, "type": "electric_scooter", "bike_id": "9d57e9731869fe7f5ac08262bdbc33c5", "lat": 38.916915333333336, "lon": -77.032147, "rental_uris": {"android": "https://dc.lft.to/lastmile_qr_scan", "ios": "https://dc.lft.to/lastmile_qr_scan"}, "is_disabled": 0, "fusion_lat": 0.0, "name": "9d57e9731869fe7f5ac08262bdbc33c5", "fusion_lon": 0.0}, {"is_reserved": 0, "type": "electric_scooter", "bike_id": "82e5b13a252e4907e295f43ad3799a9c", "lat": 38.93494316666666, "lon": -77.04454816666667, "rental_uris": {"android": "https://dc.lft.to/lastmile_qr_scan", "ios": "https://dc.lft.to/lastmile_qr_scan"}, "is_disabled": 0, "fusion_lat": 0.0, "name": "82e5b13a252e4907e295f43ad3799a9c", "fusion_lon": 0.0}, {"is_reserved": 0, "type": "electric_scooter", "bike_id": "309ee7cf878ee7e66982ebfc9892e291", "lat": 38.89881166666667, "lon": -76.98837483333334, "rental_uris": {"android": "https://dc.lft.to/lastmile_qr_scan", "ios": "https://dc.lft.to/lastmile_qr_scan"}, "is_disabled": 0, "fusion_lat": 0.0, "name": "309ee7cf878ee7e66982ebfc9892e291", "fusion_lon": 0.0}, {"is_reserved": 0, "type": "electric_scooter", "bike_id": "9d79f6b8cfa20f5611fa98a81ba17c6e", "lat": 38.918136833333335, "lon": -77.02470866666667, "rental_uris": {"android": "https://dc.lft.to/lastmile_qr_scan", "ios": "https://dc.lft.to/lastmile_qr_scan"}, "is_disabled": 0, "fusion_lat": 0.0, "name": "9d79f6b8cfa20f5611fa98a81ba17c6e", "fusion_lon": 0.0}, {"is_reserved": 0, "type": "electric_scooter", "bike_id": "12094f6147317dfb4f23067d4628ee72", "lat": 38.8860865, "lon": -77.00343066666667, "rental_uris": {"android": "https://dc.lft.to/lastmile_qr_scan", "ios": "https://dc.lft.to/lastmile_qr_scan"}, "is_disabled": 0, "fusion_lat": 0.0, "name": "12094f6147317dfb4f23067d4628ee72", "fusion_lon": 0.0}, {"is_reserved": 0, "type": "electric_scooter", "bike_id": "35ced6680f25dcfc413bd1afa7be9094", "lat": 38.92738633333333, "lon": -77.022512, "rental_uris": {"android": "https://dc.lft.to/lastmile_qr_scan", "ios": "https://dc.lft.to/lastmile_qr_scan"}, "is_disabled": 0, "fusion_lat": 0.0, "name": "35ced6680f25dcfc413bd1afa7be9094", "fusion_lon": 0.0}, {"is_reserved": 0, "type": "electric_scooter", "bike_id": "8905b016f3f8eb859ff532be4b5d7935", "lat": 38.90481066666667, "lon": -77.00725883333334, "rental_uris": {"android": "https://dc.lft.to/lastmile_qr_scan", "ios": "https://dc.lft.to/lastmile_qr_scan"}, "is_disabled": 0, "fusion_lat": 0.0, "name": "8905b016f3f8eb859ff532be4b5d7935", "fusion_lon": 0.0}, {"is_reserved": 0, "type": "electric_scooter", "bike_id": "9323aa653accca012cf59f062795eb60", "lat": 38.92553983333333, "lon": -77.05317716666667, "rental_uris": {"android": "https://dc.lft.to/lastmile_qr_scan", "ios": "https://dc.lft.to/lastmile_qr_scan"}, "is_disabled": 0, "fusion_lat": 0.0, "name": "9323aa653accca012cf59f062795eb60", "fusion_lon": 0.0}, {"is_reserved": 0, "type": "electric_scooter", "bike_id": "e1e64a8d19073c8497f03d70c21583b6", "lat": 38.906321, "lon": -77.02500183333333, "rental_uris": {"android": "https://dc.lft.to/lastmile_qr_scan", "ios": "https://dc.lft.to/lastmile_qr_scan"}, "is_disabled": 0, "fusion_lat": 0.0, "name": "e1e64a8d19073c8497f03d70c21583b6", "fusion_lon": 0.0}, {"is_reserved": 0, "type": "electric_scooter", "bike_id": "baf280bb77eb99459bc5e497613978d1", "lat": 38.98987983333333, "lon": -77.0336045, "rental_uris": {"android": "https://dc.lft.to/lastmile_qr_scan", "ios": "https://dc.lft.to/lastmile_qr_scan"}, "is_disabled": 0, "fusion_lat": 0.0, "name": "baf280bb77eb99459bc5e497613978d1", "fusion_lon": 0.0}, {"is_reserved": 0, "type": "electric_scooter", "bike_id": "ff215abe690b0535f679afc42bbdab9b", "lat": 38.91816816666667, "lon": -77.0400385, "rental_uris": {"android": "https://dc.lft.to/lastmile_qr_scan", "ios": "https://dc.lft.to/lastmile_qr_scan"}, "is_disabled": 0, "fusion_lat": 0.0, "name": "ff215abe690b0535f679afc42bbdab9b", "fusion_lon": 0.0}, {"is_reserved": 0, "type": "electric_scooter", "bike_id": "8cb7ddd85d0702b2a5779c4ae6273cfe", "lat": 38.89867316666667, "lon": -76.94638166666667, "rental_uris": {"android": "https://dc.lft.to/lastmile_qr_scan", "ios": "https://dc.lft.to/lastmile_qr_scan"}, "is_disabled": 0, "fusion_lat": 0.0, "name": "8cb7ddd85d0702b2a5779c4ae6273cfe", "fusion_lon": 0.0}, {"is_reserved": 0, "type": "electric_bike", "bike_id": "f4ec8ea8559ccb9170204e3845629cbc", "lat": 38.98127083333333, "lon": -77.00756716666666, "rental_uris": {"android": "https://dc.lft.to/lastmile_qr_scan", "ios": "https://dc.lft.to/lastmile_qr_scan"}, "is_disabled": 0, "fusion_lat": 0.0, "name": "f4ec8ea8559ccb9170204e3845629cbc", "fusion_lon": 0.0}, {"is_reserved": 0, "type": "electric_scooter", "bike_id": "c641e82147942e206bcb9a65f08ea9b2", "lat": 38.90527383333333, "lon": -77.047457, "rental_uris": {"android": "https://dc.lft.to/lastmile_qr_scan", "ios": "https://dc.lft.to/lastmile_qr_scan"}, "is_disabled": 0, "fusion_lat": 0.0, "name": "c641e82147942e206bcb9a65f08ea9b2", "fusion_lon": 0.0}, {"is_reserved": 0, "type": "electric_scooter", "bike_id": "d747ee98e791afe060c88e5892bffc45", "lat": 38.91661233333333, "lon": -77.03853966666667, "rental_uris": {"android": "https://dc.lft.to/lastmile_qr_scan", "ios": "https://dc.lft.to/lastmile_qr_scan"}, "is_disabled": 0, "fusion_lat": 0.0, "name": "d747ee98e791afe060c88e5892bffc45", "fusion_lon": 0.0}, {"is_reserved": 0, "type": "electric_scooter", "bike_id": "db521eba6d256960fc44bbd31edb98fd", "lat": 38.92673766666667, "lon": -77.0074445, "rental_uris": {"android": "https://dc.lft.to/lastmile_qr_scan", "ios": "https://dc.lft.to/lastmile_qr_scan"}, "is_disabled": 0, "fusion_lat": 0.0, "name": "db521eba6d256960fc44bbd31edb98fd", "fusion_lon": 0.0}, {"is_reserved": 0, "type": "electric_scooter", "bike_id": "eb1272bc71548ecb9e803dba8c72463b", "lat": 38.89542466666666, "lon": -76.98338783333334, "rental_uris": {"android": "https://dc.lft.to/lastmile_qr_scan", "ios": "https://dc.lft.to/lastmile_qr_scan"}, "is_disabled": 0, "fusion_lat": 0.0, "name": "eb1272bc71548ecb9e803dba8c72463b", "fusion_lon": 0.0}, {"is_reserved": 0, "type": "electric_scooter", "bike_id": "93770a419784d0ea5ab8c919fa62758b", "lat": 38.9141915, "lon": -77.01877883333333, "rental_uris": {"android": "https://dc.lft.to/lastmile_qr_scan", "ios": "https://dc.lft.to/lastmile_qr_scan"}, "is_disabled": 0, "fusion_lat": 0.0, "name": "93770a419784d0ea5ab8c919fa62758b", "fusion_lon": 0.0}, {"is_reserved": 0, "type": "electric_bike", "bike_id": "fd48743fddb6f8a3917b5cb48e6128b1", "lat": 38.98527766666667, "lon": -76.95469083333333, "rental_uris": {"android": "https://dc.lft.to/lastmile_qr_scan", "ios": "https://dc.lft.to/lastmile_qr_scan"}, "is_disabled": 0, "fusion_lat": 0.0, "name": "fd48743fddb6f8a3917b5cb48e6128b1", "fusion_lon": 0.0}, {"is_reserved": 0, "type": "electric_bike", "bike_id": "977f23027f9edf6f0f19bcbd260f02dd", "lat": 38.84454783333334, "lon": -76.93166516666666, "rental_uris": {"android": "https://dc.lft.to/lastmile_qr_scan", "ios": "https://dc.lft.to/lastmile_qr_scan"}, "is_disabled": 0, "fusion_lat": 0.0, "name": "977f23027f9edf6f0f19bcbd260f02dd", "fusion_lon": 0.0}, {"is_reserved": 0, "type": "electric_bike", "bike_id": "2bb3e0a25b743f2a4a3b29b657abd134", "lat": 38.94796633333333, "lon": -76.9425095, "rental_uris": {"android": "https://dc.lft.to/lastmile_qr_scan", "ios": "https://dc.lft.to/lastmile_qr_scan"}, "is_disabled": 0, "fusion_lat": 0.0, "name": "2bb3e0a25b743f2a4a3b29b657abd134", "fusion_lon": 0.0}, {"is_reserved": 0, "type": "electric_scooter", "bike_id": "bbba9caad7ec48b51231401b209c4775", "lat": 38.907285333333334, "lon": -77.03990933333333, "rental_uris": {"android": "https://dc.lft.to/lastmile_qr_scan", "ios": "https://dc.lft.to/lastmile_qr_scan"}, "is_disabled": 0, "fusion_lat": 0.0, "name": "bbba9caad7ec48b51231401b209c4775", "fusion_lon": 0.0}, {"is_reserved": 0, "type": "electric_scooter", "bike_id": "98350c68bb291a68a0d4b6aaba960099", "lat": 38.923281, "lon": -77.03675666666666, "rental_uris": {"android": "https://dc.lft.to/lastmile_qr_scan", "ios": "https://dc.lft.to/lastmile_qr_scan"}, "is_disabled": 0, "fusion_lat": 0.0, "name": "98350c68bb291a68a0d4b6aaba960099", "fusion_lon": 0.0}, {"is_reserved": 0, "type": "electric_scooter", "bike_id": "68d0f4376a9065b0881ab5a8302f3bda", "lat": 38.915569833333336, "lon": -77.031185, "rental_uris": {"android": "https://dc.lft.to/lastmile_qr_scan", "ios": "https://dc.lft.to/lastmile_qr_scan"}, "is_disabled": 0, "fusion_lat": 0.0, "name": "68d0f4376a9065b0881ab5a8302f3bda", "fusion_lon": 0.0}, {"is_reserved": 0, "type": "electric_scooter", "bike_id": "b97eae009b5c15fc328e6ee448bbd43f", "lat": 38.911181666666664, "lon": -77.00252416666666, "rental_uris": {"android": "https://dc.lft.to/lastmile_qr_scan", "ios": "https://dc.lft.to/lastmile_qr_scan"}, "is_disabled": 0, "fusion_lat": 0.0, "name": "b97eae009b5c15fc328e6ee448bbd43f", "fusion_lon": 0.0}, {"is_reserved": 0, "type": "electric_scooter", "bike_id": "b293761578f70d592ed1738447810a1e", "lat": 38.913661833333336, "lon": -77.0656665, "rental_uris": {"android": "https://dc.lft.to/lastmile_qr_scan", "ios": "https://dc.lft.to/lastmile_qr_scan"}, "is_disabled": 0, "fusion_lat": 0.0, "name": "b293761578f70d592ed1738447810a1e", "fusion_lon": 0.0}, {"is_reserved": 0, "type": "electric_bike", "bike_id": "69e5cc5f073acdb344913ce74dd12677", "lat": 38.97340033333333, "lon": -76.99585833333333, "rental_uris": {"android": "https://dc.lft.to/lastmile_qr_scan", "ios": "https://dc.lft.to/lastmile_qr_scan"}, "is_disabled": 0, "fusion_lat": 0.0, "name": "69e5cc5f073acdb344913ce74dd12677", "fusion_lon": 0.0}, {"is_reserved": 0, "type": "electric_bike", "bike_id": "e27424314a0531d6ba78660db3f9f463", "lat": 38.9170725, "lon": -77.04118416666667, "rental_uris": {"android": "https://dc.lft.to/lastmile_qr_scan", "ios": "https://dc.lft.to/lastmile_qr_scan"}, "is_disabled": 0, "fusion_lat": 0.0, "name": "e27424314a0531d6ba78660db3f9f463", "fusion_lon": 0.0}, {"is_reserved": 0, "type": "electric_scooter", "bike_id": "bc81aa7e1a1e748ee0a6192c6e811ec8", "lat": 38.9521245, "lon": -77.015963, "rental_uris": {"android": "https://dc.lft.to/lastmile_qr_scan", "ios": "https://dc.lft.to/lastmile_qr_scan"}, "is_disabled": 0, "fusion_lat": 0.0, "name": "bc81aa7e1a1e748ee0a6192c6e811ec8", "fusion_lon": 0.0}, {"is_reserved": 0, "type": "electric_scooter", "bike_id": "4f7907c98ca0a0bbec001be04646e8cf", "lat": 38.973666333333334, "lon": -77.01862933333334, "rental_uris": {"android": "https://dc.lft.to/lastmile_qr_scan", "ios": "https://dc.lft.to/lastmile_qr_scan"}, "is_disabled": 0, "fusion_lat": 0.0, "name": "4f7907c98ca0a0bbec001be04646e8cf", "fusion_lon": 0.0}, {"is_reserved": 0, "type": "electric_scooter", "bike_id": "7c19371bdba872e7f391ac608a4b364b", "lat": 38.927824333333334, "lon": -77.025664, "rental_uris": {"android": "https://dc.lft.to/lastmile_qr_scan", "ios": "https://dc.lft.to/lastmile_qr_scan"}, "is_disabled": 0, "fusion_lat": 0.0, "name": "7c19371bdba872e7f391ac608a4b364b", "fusion_lon": 0.0}, {"is_reserved": 0, "type": "electric_scooter", "bike_id": "5f629703bdd8c5c852368440f87cd9b9", "lat": 38.880937833333334, "lon": -76.995038, "rental_uris": {"android": "https://dc.lft.to/lastmile_qr_scan", "ios": "https://dc.lft.to/lastmile_qr_scan"}, "is_disabled": 0, "fusion_lat": 0.0, "name": "5f629703bdd8c5c852368440f87cd9b9", "fusion_lon": 0.0}, {"is_reserved": 0, "type": "electric_scooter", "bike_id": "5d52dadd68bae812b47ebac558c546a8", "lat": 38.901226666666666, "lon": -77.02767, "rental_uris": {"android": "https://dc.lft.to/lastmile_qr_scan", "ios": "https://dc.lft.to/lastmile_qr_scan"}, "is_disabled": 0, "fusion_lat": 0.0, "name": "5d52dadd68bae812b47ebac558c546a8", "fusion_lon": 0.0}, {"is_reserved": 0, "type": "electric_scooter", "bike_id": "3cf2043987749d280c18a4d377053999", "lat": 38.90494116666667, "lon": -77.01991416666667, "rental_uris": {"android": "https://dc.lft.to/lastmile_qr_scan", "ios": "https://dc.lft.to/lastmile_qr_scan"}, "is_disabled": 0, "fusion_lat": 0.0, "name": "3cf2043987749d280c18a4d377053999", "fusion_lon": 0.0}, {"is_reserved": 0, "type": "electric_bike", "bike_id": "850d6112f95863322bd6575771e13663", "lat": 38.876824, "lon": -77.00007116666667, "rental_uris": {"android": "https://dc.lft.to/lastmile_qr_scan", "ios": "https://dc.lft.to/lastmile_qr_scan"}, "is_disabled": 0, "fusion_lat": 0.0, "name": "850d6112f95863322bd6575771e13663", "fusion_lon": 0.0}, {"is_reserved": 0, "type": "electric_scooter", "bike_id": "77c599bda61307a89237a99c04108797", "lat": 38.890086333333336, "lon": -76.93744433333333, "rental_uris": {"android": "https://dc.lft.to/lastmile_qr_scan", "ios": "https://dc.lft.to/lastmile_qr_scan"}, "is_disabled": 0, "fusion_lat": 0.0, "name": "77c599bda61307a89237a99c04108797", "fusion_lon": 0.0}, {"is_reserved": 0, "type": "electric_scooter", "bike_id": "4074cfce2c65431b8232a363009cf34e", "lat": 38.8972785, "lon": -77.01959266666667, "rental_uris": {"android": "https://dc.lft.to/lastmile_qr_scan", "ios": "https://dc.lft.to/lastmile_qr_scan"}, "is_disabled": 0, "fusion_lat": 0.0, "name": "4074cfce2c65431b8232a363009cf34e", "fusion_lon": 0.0}, {"is_reserved": 0, "type": "electric_bike", "bike_id": "ed93f759ce031df09bd3cfc3626903ab", "lat": 39.04236816666667, "lon": -76.9973305, "rental_uris": {"android": "https://dc.lft.to/lastmile_qr_scan", "ios": "https://dc.lft.to/lastmile_qr_scan"}, "is_disabled": 0, "fusion_lat": 0.0, "name": "ed93f759ce031df09bd3cfc3626903ab", "fusion_lon": 0.0}, {"is_reserved": 0, "type": "electric_scooter", "bike_id": "648eed6b5f964238a0ab34d9367a88a4", "lat": 38.9103395, "lon": -77.03328833333333, "rental_uris": {"android": "https://dc.lft.to/lastmile_qr_scan", "ios": "https://dc.lft.to/lastmile_qr_scan"}, "is_disabled": 0, "fusion_lat": 0.0, "name": "648eed6b5f964238a0ab34d9367a88a4", "fusion_lon": 0.0}, {"is_reserved": 0, "type": "electric_scooter", "bike_id": "05df772d109db9fe0a724c7c561a3287", "lat": 38.92504533333333, "lon": -77.05223066666667, "rental_uris": {"android": "https://dc.lft.to/lastmile_qr_scan", "ios": "https://dc.lft.to/lastmile_qr_scan"}, "is_disabled": 0, "fusion_lat": 0.0, "name": "05df772d109db9fe0a724c7c561a3287", "fusion_lon": 0.0}, {"is_reserved": 0, "type": "electric_scooter", "bike_id": "2eb724d4fbb7d9629ee11ebafb050812", "lat": 38.9296735, "lon": -77.02340383333333, "rental_uris": {"android": "https://dc.lft.to/lastmile_qr_scan", "ios": "https://dc.lft.to/lastmile_qr_scan"}, "is_disabled": 0, "fusion_lat": 0.0, "name": "2eb724d4fbb7d9629ee11ebafb050812", "fusion_lon": 0.0}, {"is_reserved": 0, "type": "electric_scooter", "bike_id": "97ee27cf1bcd6b808196428875d85f11", "lat": 38.94731566666667, "lon": -77.02451283333333, "rental_uris": {"android": "https://dc.lft.to/lastmile_qr_scan", "ios": "https://dc.lft.to/lastmile_qr_scan"}, "is_disabled": 0, "fusion_lat": 0.0, "name": "97ee27cf1bcd6b808196428875d85f11", "fusion_lon": 0.0}, {"is_reserved": 0, "type": "electric_scooter", "bike_id": "bdd1f1bf2b83d5064615f149cd85b83e", "lat": 38.925660666666666, "lon": -76.97007183333334, "rental_uris": {"android": "https://dc.lft.to/lastmile_qr_scan", "ios": "https://dc.lft.to/lastmile_qr_scan"}, "is_disabled": 0, "fusion_lat": 0.0, "name": "bdd1f1bf2b83d5064615f149cd85b83e", "fusion_lon": 0.0}, {"is_reserved": 0, "type": "electric_scooter", "bike_id": "e1045f8411cda19c949d5fed02c9d6b4", "lat": 38.917998, "lon": -77.02699616666666, "rental_uris": {"android": "https://dc.lft.to/lastmile_qr_scan", "ios": "https://dc.lft.to/lastmile_qr_scan"}, "is_disabled": 0, "fusion_lat": 0.0, "name": "e1045f8411cda19c949d5fed02c9d6b4", "fusion_lon": 0.0}, {"is_reserved": 0, "type": "electric_scooter", "bike_id": "c44124408f8bd61ea769627209bb204e", "lat": 38.916072666666665, "lon": -77.03732516666666, "rental_uris": {"android": "https://dc.lft.to/lastmile_qr_scan", "ios": "https://dc.lft.to/lastmile_qr_scan"}, "is_disabled": 0, "fusion_lat": 0.0, "name": "c44124408f8bd61ea769627209bb204e", "fusion_lon": 0.0}, {"is_reserved": 0, "type": "electric_scooter", "bike_id": "1926559fa59556750876f167fcc79f5c", "lat": 38.9505205, "lon": -77.0542135, "rental_uris": {"android": "https://dc.lft.to/lastmile_qr_scan", "ios": "https://dc.lft.to/lastmile_qr_scan"}, "is_disabled": 0, "fusion_lat": 0.0, "name": "1926559fa59556750876f167fcc79f5c", "fusion_lon": 0.0}, {"is_reserved": 0, "type": "electric_scooter", "bike_id": "4aa53c46b35e6a3f703339673bf25c5b", "lat": 38.931869666666664, "lon": -77.02376433333333, "rental_uris": {"android": "https://dc.lft.to/lastmile_qr_scan", "ios": "https://dc.lft.to/lastmile_qr_scan"}, "is_disabled": 0, "fusion_lat": 0.0, "name": "4aa53c46b35e6a3f703339673bf25c5b", "fusion_lon": 0.0}, {"is_reserved": 0, "type": "electric_bike", "bike_id": "1835b851c9b936539b5147d9f62c0f5b", "lat": 38.9447305, "lon": -76.98689116666667, "rental_uris": {"android": "https://dc.lft.to/lastmile_qr_scan", "ios": "https://dc.lft.to/lastmile_qr_scan"}, "is_disabled": 0, "fusion_lat": 0.0, "name": "1835b851c9b936539b5147d9f62c0f5b", "fusion_lon": 0.0}, {"is_reserved": 0, "type": "electric_scooter", "bike_id": "b89fe098dc2e477706971577c952917a", "lat": 38.87798816666667, "lon": -77.017479, "rental_uris": {"android": "https://dc.lft.to/lastmile_qr_scan", "ios": "https://dc.lft.to/lastmile_qr_scan"}, "is_disabled": 0, "fusion_lat": 0.0, "name": "b89fe098dc2e477706971577c952917a", "fusion_lon": 0.0}, {"is_reserved": 0, "type": "electric_scooter", "bike_id": "58a1efe8588eb4f6258d1f3bd46c70ae", "lat": 38.8923935, "lon": -77.01346533333333, "rental_uris": {"android": "https://dc.lft.to/lastmile_qr_scan", "ios": "https://dc.lft.to/lastmile_qr_scan"}, "is_disabled": 0, "fusion_lat": 0.0, "name": "58a1efe8588eb4f6258d1f3bd46c70ae", "fusion_lon": 0.0}, {"is_reserved": 0, "type": "electric_scooter", "bike_id": "d8fc134020e1876df71d679c85958153", "lat": 38.91915816666667, "lon": -77.04809216666666, "rental_uris": {"android": "https://dc.lft.to/lastmile_qr_scan", "ios": "https://dc.lft.to/lastmile_qr_scan"}, "is_disabled": 0, "fusion_lat": 0.0, "name": "d8fc134020e1876df71d679c85958153", "fusion_lon": 0.0}, {"is_reserved": 0, "type": "electric_scooter", "bike_id": "a65f21897d8bc772c9019d11186aca76", "lat": 38.896074666666664, "lon": -77.008966, "rental_uris": {"android": "https://dc.lft.to/lastmile_qr_scan", "ios": "https://dc.lft.to/lastmile_qr_scan"}, "is_disabled": 0, "fusion_lat": 0.0, "name": "a65f21897d8bc772c9019d11186aca76", "fusion_lon": 0.0}, {"is_reserved": 0, "type": "electric_scooter", "bike_id": "65aa72abca9869272230dfe75f3aa558", "lat": 38.924345, "lon": -77.00065733333334, "rental_uris": {"android": "https://dc.lft.to/lastmile_qr_scan", "ios": "https://dc.lft.to/lastmile_qr_scan"}, "is_disabled": 0, "fusion_lat": 0.0, "name": "65aa72abca9869272230dfe75f3aa558", "fusion_lon": 0.0}, {"is_reserved": 0, "type": "electric_scooter", "bike_id": "a0fa787714c09b6694443e995efbb419", "lat": 38.94325166666667, "lon": -77.01256816666667, "rental_uris": {"android": "https://dc.lft.to/lastmile_qr_scan", "ios": "https://dc.lft.to/lastmile_qr_scan"}, "is_disabled": 0, "fusion_lat": 0.0, "name": "a0fa787714c09b6694443e995efbb419", "fusion_lon": 0.0}, {"is_reserved": 0, "type": "electric_scooter", "bike_id": "ba952cea26d7d1b92424b006bec2fe37", "lat": 38.90897066666667, "lon": -76.99619916666667, "rental_uris": {"android": "https://dc.lft.to/lastmile_qr_scan", "ios": "https://dc.lft.to/lastmile_qr_scan"}, "is_disabled": 0, "fusion_lat": 0.0, "name": "ba952cea26d7d1b92424b006bec2fe37", "fusion_lon": 0.0}, {"is_reserved": 0, "type": "electric_scooter", "bike_id": "953d11e3c0516d0d969a90ce21bcefdd", "lat": 38.9370605, "lon": -77.023979, "rental_uris": {"android": "https://dc.lft.to/lastmile_qr_scan", "ios": "https://dc.lft.to/lastmile_qr_scan"}, "is_disabled": 0, "fusion_lat": 0.0, "name": "953d11e3c0516d0d969a90ce21bcefdd", "fusion_lon": 0.0}, {"is_reserved": 0, "type": "electric_scooter", "bike_id": "5ec7c59f3339fe24e4c215c6d2b1101b", "lat": 38.90592133333333, "lon": -77.029717, "rental_uris": {"android": "https://dc.lft.to/lastmile_qr_scan", "ios": "https://dc.lft.to/lastmile_qr_scan"}, "is_disabled": 0, "fusion_lat": 0.0, "name": "5ec7c59f3339fe24e4c215c6d2b1101b", "fusion_lon": 0.0}, {"is_reserved": 0, "type": "electric_scooter", "bike_id": "57b8c5ac82ceefe35b12d4e89121b6be", "lat": 38.975138, "lon": -77.01740216666667, "rental_uris": {"android": "https://dc.lft.to/lastmile_qr_scan", "ios": "https://dc.lft.to/lastmile_qr_scan"}, "is_disabled": 0, "fusion_lat": 0.0, "name": "57b8c5ac82ceefe35b12d4e89121b6be", "fusion_lon": 0.0}, {"is_reserved": 0, "type": "electric_scooter", "bike_id": "e36cee750875345e4877982e4e95b1aa", "lat": 38.9432505, "lon": -77.06520483333334, "rental_uris": {"android": "https://dc.lft.to/lastmile_qr_scan", "ios": "https://dc.lft.to/lastmile_qr_scan"}, "is_disabled": 0, "fusion_lat": 0.0, "name": "e36cee750875345e4877982e4e95b1aa", "fusion_lon": 0.0}, {"is_reserved": 0, "type": "electric_scooter", "bike_id": "83b075017099b2b464cdc5abc4e22927", "lat": 38.883797666666666, "lon": -77.046094, "rental_uris": {"android": "https://dc.lft.to/lastmile_qr_scan", "ios": "https://dc.lft.to/lastmile_qr_scan"}, "is_disabled": 0, "fusion_lat": 0.0, "name": "83b075017099b2b464cdc5abc4e22927", "fusion_lon": 0.0}, {"is_reserved": 0, "type": "electric_scooter", "bike_id": "3f71df69feaa8e022dbefc56d90665bd", "lat": 38.92342633333333, "lon": -77.05233316666667, "rental_uris": {"android": "https://dc.lft.to/lastmile_qr_scan", "ios": "https://dc.lft.to/lastmile_qr_scan"}, "is_disabled": 0, "fusion_lat": 0.0, "name": "3f71df69feaa8e022dbefc56d90665bd", "fusion_lon": 0.0}, {"is_reserved": 0, "type": "electric_scooter", "bike_id": "43fd3da3b36c8239bdba45e655b155f9", "lat": 38.892259833333334, "lon": -77.044871, "rental_uris": {"android": "https://dc.lft.to/lastmile_qr_scan", "ios": "https://dc.lft.to/lastmile_qr_scan"}, "is_disabled": 0, "fusion_lat": 0.0, "name": "43fd3da3b36c8239bdba45e655b155f9", "fusion_lon": 0.0}, {"is_reserved": 0, "type": "electric_scooter", "bike_id": "6a0799eeb942f0e70a3bb437c70e37bf", "lat": 38.93359483333333, "lon": -77.0572095, "rental_uris": {"android": "https://dc.lft.to/lastmile_qr_scan", "ios": "https://dc.lft.to/lastmile_qr_scan"}, "is_disabled": 0, "fusion_lat": 0.0, "name": "6a0799eeb942f0e70a3bb437c70e37bf", "fusion_lon": 0.0}, {"is_reserved": 0, "type": "electric_scooter", "bike_id": "6b986edf6247a319c66571e1ad27a475", "lat": 38.9181915, "lon": -77.01208116666666, "rental_uris": {"android": "https://dc.lft.to/lastmile_qr_scan", "ios": "https://dc.lft.to/lastmile_qr_scan"}, "is_disabled": 0, "fusion_lat": 0.0, "name": "6b986edf6247a319c66571e1ad27a475", "fusion_lon": 0.0}, {"is_reserved": 0, "type": "electric_scooter", "bike_id": "edbd383bf82301428b251fca4f324dcd", "lat": 38.8987875, "lon": -77.007406, "rental_uris": {"android": "https://dc.lft.to/lastmile_qr_scan", "ios": "https://dc.lft.to/lastmile_qr_scan"}, "is_disabled": 0, "fusion_lat": 0.0, "name": "edbd383bf82301428b251fca4f324dcd", "fusion_lon": 0.0}, {"is_reserved": 0, "type": "electric_scooter", "bike_id": "2439d5d55c317fe7a0b5ce1702f2639a", "lat": 38.92634433333333, "lon": -77.0424955, "rental_uris": {"android": "https://dc.lft.to/lastmile_qr_scan", "ios": "https://dc.lft.to/lastmile_qr_scan"}, "is_disabled": 0, "fusion_lat": 0.0, "name": "2439d5d55c317fe7a0b5ce1702f2639a", "fusion_lon": 0.0}, {"is_reserved": 0, "type": "electric_scooter", "bike_id": "8f4912bb795a2a83076db299bd3e5e76", "lat": 38.894366833333336, "lon": -77.02644866666667, "rental_uris": {"android": "https://dc.lft.to/lastmile_qr_scan", "ios": "https://dc.lft.to/lastmile_qr_scan"}, "is_disabled": 0, "fusion_lat": 0.0, "name": "8f4912bb795a2a83076db299bd3e5e76", "fusion_lon": 0.0}, {"is_reserved": 0, "type": "electric_scooter", "bike_id": "4998fac9f4c187536de6147a39cf6d9e", "lat": 38.92402333333333, "lon": -77.04259233333333, "rental_uris": {"android": "https://dc.lft.to/lastmile_qr_scan", "ios": "https://dc.lft.to/lastmile_qr_scan"}, "is_disabled": 0, "fusion_lat": 0.0, "name": "4998fac9f4c187536de6147a39cf6d9e", "fusion_lon": 0.0}, {"is_reserved": 0, "type": "electric_bike", "bike_id": "29e686ff401a3b2abd1698f08fa559d4", "lat": 38.9575385, "lon": -76.96757016666666, "rental_uris": {"android": "https://dc.lft.to/lastmile_qr_scan", "ios": "https://dc.lft.to/lastmile_qr_scan"}, "is_disabled": 0, "fusion_lat": 0.0, "name": "29e686ff401a3b2abd1698f08fa559d4", "fusion_lon": 0.0}, {"is_reserved": 0, "type": "electric_scooter", "bike_id": "38ce97aedcbe6202bec49c46e163dc8a", "lat": 38.919992666666666, "lon": -77.03877116666666, "rental_uris": {"android": "https://dc.lft.to/lastmile_qr_scan", "ios": "https://dc.lft.to/lastmile_qr_scan"}, "is_disabled": 0, "fusion_lat": 0.0, "name": "38ce97aedcbe6202bec49c46e163dc8a", "fusion_lon": 0.0}, {"is_reserved": 0, "type": "electric_bike", "bike_id": "3db919daf27aae54d8fcd45a6825b63b", "lat": 38.808651166666664, "lon": -77.11254766666667, "rental_uris": {"android": "https://dc.lft.to/lastmile_qr_scan", "ios": "https://dc.lft.to/lastmile_qr_scan"}, "is_disabled": 0, "fusion_lat": 0.0, "name": "3db919daf27aae54d8fcd45a6825b63b", "fusion_lon": 0.0}, {"is_reserved": 0, "type": "electric_scooter", "bike_id": "889c9f1a5fd401dc5aa1f8e788733b00", "lat": 38.89033166666667, "lon": -76.9375365, "rental_uris": {"android": "https://dc.lft.to/lastmile_qr_scan", "ios": "https://dc.lft.to/lastmile_qr_scan"}, "is_disabled": 0, "fusion_lat": 0.0, "name": "889c9f1a5fd401dc5aa1f8e788733b00", "fusion_lon": 0.0}, {"is_reserved": 0, "type": "electric_scooter", "bike_id": "8f7eadcd8ccb62d80c8930deb007b0ae", "lat": 38.92375416666667, "lon": -77.01911016666666, "rental_uris": {"android": "https://dc.lft.to/lastmile_qr_scan", "ios": "https://dc.lft.to/lastmile_qr_scan"}, "is_disabled": 0, "fusion_lat": 0.0, "name": "8f7eadcd8ccb62d80c8930deb007b0ae", "fusion_lon": 0.0}, {"is_reserved": 0, "type": "electric_scooter", "bike_id": "ee0bd747094b397733685a365ac6b6c2", "lat": 38.94647466666667, "lon": -77.06545416666667, "rental_uris": {"android": "https://dc.lft.to/lastmile_qr_scan", "ios": "https://dc.lft.to/lastmile_qr_scan"}, "is_disabled": 0, "fusion_lat": 0.0, "name": "ee0bd747094b397733685a365ac6b6c2", "fusion_lon": 0.0}, {"is_reserved": 0, "type": "electric_scooter", "bike_id": "e5cd21aa7dc1c8746a2ebeafcb1f1613", "lat": 38.871542166666664, "lon": -77.01319033333333, "rental_uris": {"android": "https://dc.lft.to/lastmile_qr_scan", "ios": "https://dc.lft.to/lastmile_qr_scan"}, "is_disabled": 0, "fusion_lat": 0.0, "name": "e5cd21aa7dc1c8746a2ebeafcb1f1613", "fusion_lon": 0.0}, {"is_reserved": 0, "type": "electric_scooter", "bike_id": "70c6fa2fb2ff673cc84187b06bd616b4", "lat": 38.872589166666664, "lon": -77.01708933333333, "rental_uris": {"android": "https://dc.lft.to/lastmile_qr_scan", "ios": "https://dc.lft.to/lastmile_qr_scan"}, "is_disabled": 0, "fusion_lat": 0.0, "name": "70c6fa2fb2ff673cc84187b06bd616b4", "fusion_lon": 0.0}, {"is_reserved": 0, "type": "electric_scooter", "bike_id": "053564078207c40a903d53c5c960b40d", "lat": 38.914113, "lon": -77.0220565, "rental_uris": {"android": "https://dc.lft.to/lastmile_qr_scan", "ios": "https://dc.lft.to/lastmile_qr_scan"}, "is_disabled": 0, "fusion_lat": 0.0, "name": "053564078207c40a903d53c5c960b40d", "fusion_lon": 0.0}, {"is_reserved": 0, "type": "electric_bike", "bike_id": "6be88c4dab3a290fc3807d51c5176468", "lat": 38.900472666666666, "lon": -76.97788833333334, "rental_uris": {"android": "https://dc.lft.to/lastmile_qr_scan", "ios": "https://dc.lft.to/lastmile_qr_scan"}, "is_disabled": 0, "fusion_lat": 0.0, "name": "6be88c4dab3a290fc3807d51c5176468", "fusion_lon": 0.0}, {"is_reserved": 0, "type": "electric_scooter", "bike_id": "096b4079e2f05760b81e4d77a9560235", "lat": 38.92106583333333, "lon": -77.04220533333333, "rental_uris": {"android": "https://dc.lft.to/lastmile_qr_scan", "ios": "https://dc.lft.to/lastmile_qr_scan"}, "is_disabled": 0, "fusion_lat": 0.0, "name": "096b4079e2f05760b81e4d77a9560235", "fusion_lon": 0.0}, {"is_reserved": 0, "type": "electric_scooter", "bike_id": "17b563c68bb9031e3fdcb10e0b70be0e", "lat": 38.91815233333333, "lon": -77.02476733333333, "rental_uris": {"android": "https://dc.lft.to/lastmile_qr_scan", "ios": "https://dc.lft.to/lastmile_qr_scan"}, "is_disabled": 0, "fusion_lat": 0.0, "name": "17b563c68bb9031e3fdcb10e0b70be0e", "fusion_lon": 0.0}, {"is_reserved": 0, "type": "electric_scooter", "bike_id": "4f6a8e2771d3e69d15fbdc6ec08dc46a", "lat": 38.89725266666667, "lon": -77.0552315, "rental_uris": {"android": "https://dc.lft.to/lastmile_qr_scan", "ios": "https://dc.lft.to/lastmile_qr_scan"}, "is_disabled": 0, "fusion_lat": 0.0, "name": "4f6a8e2771d3e69d15fbdc6ec08dc46a", "fusion_lon": 0.0}, {"is_reserved": 0, "type": "electric_scooter", "bike_id": "0bd67f54949dc249274d06baf080ad36", "lat": 38.912602, "lon": -77.03030233333334, "rental_uris": {"android": "https://dc.lft.to/lastmile_qr_scan", "ios": "https://dc.lft.to/lastmile_qr_scan"}, "is_disabled": 0, "fusion_lat": 0.0, "name": "0bd67f54949dc249274d06baf080ad36", "fusion_lon": 0.0}, {"is_reserved": 0, "type": "electric_scooter", "bike_id": "5903d80a4978067bfbf839d5cfd57ade", "lat": 38.930356, "lon": -77.0329305, "rental_uris": {"android": "https://dc.lft.to/lastmile_qr_scan", "ios": "https://dc.lft.to/lastmile_qr_scan"}, "is_disabled": 0, "fusion_lat": 0.0, "name": "5903d80a4978067bfbf839d5cfd57ade", "fusion_lon": 0.0}, {"is_reserved": 0, "type": "electric_scooter", "bike_id": "21ae6539f02f3378ca384065bcb1349c", "lat": 38.92556116666667, "lon": -77.036594, "rental_uris": {"android": "https://dc.lft.to/lastmile_qr_scan", "ios": "https://dc.lft.to/lastmile_qr_scan"}, "is_disabled": 0, "fusion_lat": 0.0, "name": "21ae6539f02f3378ca384065bcb1349c", "fusion_lon": 0.0}, {"is_reserved": 0, "type": "electric_scooter", "bike_id": "780c8cc53a7b250ae2b2e8d1327fcda7", "lat": 38.89220233333333, "lon": -77.024177, "rental_uris": {"android": "https://dc.lft.to/lastmile_qr_scan", "ios": "https://dc.lft.to/lastmile_qr_scan"}, "is_disabled": 0, "fusion_lat": 0.0, "name": "780c8cc53a7b250ae2b2e8d1327fcda7", "fusion_lon": 0.0}, {"is_reserved": 0, "type": "electric_scooter", "bike_id": "8b6a1721a396c890e9b4b58308a7a525", "lat": 38.917081833333334, "lon": -77.03218816666667, "rental_uris": {"android": "https://dc.lft.to/lastmile_qr_scan", "ios": "https://dc.lft.to/lastmile_qr_scan"}, "is_disabled": 0, "fusion_lat": 0.0, "name": "8b6a1721a396c890e9b4b58308a7a525", "fusion_lon": 0.0}, {"is_reserved": 0, "type": "electric_scooter", "bike_id": "2c7a114d870ccd3884e3a3935b1f3413", "lat": 38.905884, "lon": -77.03633433333333, "rental_uris": {"android": "https://dc.lft.to/lastmile_qr_scan", "ios": "https://dc.lft.to/lastmile_qr_scan"}, "is_disabled": 0, "fusion_lat": 0.0, "name": "2c7a114d870ccd3884e3a3935b1f3413", "fusion_lon": 0.0}, {"is_reserved": 0, "type": "electric_scooter", "bike_id": "6b3533c50c190413bad4a54d19bbccff", "lat": 38.918622166666665, "lon": -77.01350933333333, "rental_uris": {"android": "https://dc.lft.to/lastmile_qr_scan", "ios": "https://dc.lft.to/lastmile_qr_scan"}, "is_disabled": 0, "fusion_lat": 0.0, "name": "6b3533c50c190413bad4a54d19bbccff", "fusion_lon": 0.0}, {"is_reserved": 0, "type": "electric_scooter", "bike_id": "d95fb999602186a12eb31a79b8d9ff6b", "lat": 38.922611333333336, "lon": -77.03661616666666, "rental_uris": {"android": "https://dc.lft.to/lastmile_qr_scan", "ios": "https://dc.lft.to/lastmile_qr_scan"}, "is_disabled": 0, "fusion_lat": 0.0, "name": "d95fb999602186a12eb31a79b8d9ff6b", "fusion_lon": 0.0}, {"is_reserved": 0, "type": "electric_scooter", "bike_id": "97f34c86f02c7d4d0d8d92b52cebe42f", "lat": 38.938547, "lon": -77.02556966666667, "rental_uris": {"android": "https://dc.lft.to/lastmile_qr_scan", "ios": "https://dc.lft.to/lastmile_qr_scan"}, "is_disabled": 0, "fusion_lat": 0.0, "name": "97f34c86f02c7d4d0d8d92b52cebe42f", "fusion_lon": 0.0}, {"is_reserved": 0, "type": "electric_scooter", "bike_id": "9ef7b5c0550b1680a4813ed9bf27e2f1", "lat": 38.966475833333334, "lon": -77.00889383333333, "rental_uris": {"android": "https://dc.lft.to/lastmile_qr_scan", "ios": "https://dc.lft.to/lastmile_qr_scan"}, "is_disabled": 0, "fusion_lat": 0.0, "name": "9ef7b5c0550b1680a4813ed9bf27e2f1", "fusion_lon": 0.0}, {"is_reserved": 0, "type": "electric_scooter", "bike_id": "307cacede8cb779f9f1e3c3ab9898dc2", "lat": 38.926117833333336, "lon": -77.02152483333333, "rental_uris": {"android": "https://dc.lft.to/lastmile_qr_scan", "ios": "https://dc.lft.to/lastmile_qr_scan"}, "is_disabled": 0, "fusion_lat": 0.0, "name": "307cacede8cb779f9f1e3c3ab9898dc2", "fusion_lon": 0.0}, {"is_reserved": 0, "type": "electric_scooter", "bike_id": "1f2ffc63bd7c7ba6847c0a221e15030f", "lat": 38.90021433333333, "lon": -77.04501816666667, "rental_uris": {"android": "https://dc.lft.to/lastmile_qr_scan", "ios": "https://dc.lft.to/lastmile_qr_scan"}, "is_disabled": 0, "fusion_lat": 0.0, "name": "1f2ffc63bd7c7ba6847c0a221e15030f", "fusion_lon": 0.0}, {"is_reserved": 0, "type": "electric_scooter", "bike_id": "8b501100bf76496ae2bc28b3419afa63", "lat": 38.899925333333336, "lon": -77.0270905, "rental_uris": {"android": "https://dc.lft.to/lastmile_qr_scan", "ios": "https://dc.lft.to/lastmile_qr_scan"}, "is_disabled": 0, "fusion_lat": 0.0, "name": "8b501100bf76496ae2bc28b3419afa63", "fusion_lon": 0.0}, {"is_reserved": 0, "type": "electric_bike", "bike_id": "57a9bd155e3ae4e75119e68a10d17edd", "lat": 38.995213, "lon": -77.074588, "rental_uris": {"android": "https://dc.lft.to/lastmile_qr_scan", "ios": "https://dc.lft.to/lastmile_qr_scan"}, "is_disabled": 0, "fusion_lat": 0.0, "name": "57a9bd155e3ae4e75119e68a10d17edd", "fusion_lon": 0.0}, {"is_reserved": 0, "type": "electric_scooter", "bike_id": "e0541718c36ef7de58aedc598758c5ae", "lat": 38.92072183333333, "lon": -77.0239395, "rental_uris": {"android": "https://dc.lft.to/lastmile_qr_scan", "ios": "https://dc.lft.to/lastmile_qr_scan"}, "is_disabled": 0, "fusion_lat": 0.0, "name": "e0541718c36ef7de58aedc598758c5ae", "fusion_lon": 0.0}, {"is_reserved": 0, "type": "electric_scooter", "bike_id": "384499825e3b4379d3ee66a517f37214", "lat": 38.952492666666664, "lon": -77.02392033333334, "rental_uris": {"android": "https://dc.lft.to/lastmile_qr_scan", "ios": "https://dc.lft.to/lastmile_qr_scan"}, "is_disabled": 0, "fusion_lat": 0.0, "name": "384499825e3b4379d3ee66a517f37214", "fusion_lon": 0.0}, {"is_reserved": 0, "type": "electric_scooter", "bike_id": "7f5043e1a171f0bfabe456a7a3986008", "lat": 38.93758183333333, "lon": -77.03151933333334, "rental_uris": {"android": "https://dc.lft.to/lastmile_qr_scan", "ios": "https://dc.lft.to/lastmile_qr_scan"}, "is_disabled": 0, "fusion_lat": 0.0, "name": "7f5043e1a171f0bfabe456a7a3986008", "fusion_lon": 0.0}, {"is_reserved": 0, "type": "electric_scooter", "bike_id": "ae8f0e83e6590c0630f2544379c74612", "lat": 38.94028733333333, "lon": -77.02641916666667, "rental_uris": {"android": "https://dc.lft.to/lastmile_qr_scan", "ios": "https://dc.lft.to/lastmile_qr_scan"}, "is_disabled": 0, "fusion_lat": 0.0, "name": "ae8f0e83e6590c0630f2544379c74612", "fusion_lon": 0.0}, {"is_reserved": 0, "type": "electric_scooter", "bike_id": "bcdf269cfd758b4f111aa054d05a64be", "lat": 38.9117325, "lon": -77.02828416666667, "rental_uris": {"android": "https://dc.lft.to/lastmile_qr_scan", "ios": "https://dc.lft.to/lastmile_qr_scan"}, "is_disabled": 0, "fusion_lat": 0.0, "name": "bcdf269cfd758b4f111aa054d05a64be", "fusion_lon": 0.0}, {"is_reserved": 0, "type": "electric_scooter", "bike_id": "22cf58906d94454fa0d731190e2e40d0", "lat": 38.93460283333334, "lon": -77.02242116666666, "rental_uris": {"android": "https://dc.lft.to/lastmile_qr_scan", "ios": "https://dc.lft.to/lastmile_qr_scan"}, "is_disabled": 0, "fusion_lat": 0.0, "name": "22cf58906d94454fa0d731190e2e40d0", "fusion_lon": 0.0}, {"is_reserved": 0, "type": "electric_scooter", "bike_id": "86a1ad767aefeaff401c41fcd324ec05", "lat": 38.86429, "lon": -76.9986095, "rental_uris": {"android": "https://dc.lft.to/lastmile_qr_scan", "ios": "https://dc.lft.to/lastmile_qr_scan"}, "is_disabled": 0, "fusion_lat": 0.0, "name": "86a1ad767aefeaff401c41fcd324ec05", "fusion_lon": 0.0}, {"is_reserved": 0, "type": "electric_scooter", "bike_id": "db15db8b822e6c69139157f2fb0328c4", "lat": 38.92895516666667, "lon": -77.0225045, "rental_uris": {"android": "https://dc.lft.to/lastmile_qr_scan", "ios": "https://dc.lft.to/lastmile_qr_scan"}, "is_disabled": 0, "fusion_lat": 0.0, "name": "db15db8b822e6c69139157f2fb0328c4", "fusion_lon": 0.0}, {"is_reserved": 0, "type": "electric_bike", "bike_id": "611b27bd62e724a3fade00573eb98936", "lat": 38.895636, "lon": -77.12733583333333, "rental_uris": {"android": "https://dc.lft.to/lastmile_qr_scan", "ios": "https://dc.lft.to/lastmile_qr_scan"}, "is_disabled": 0, "fusion_lat": 0.0, "name": "611b27bd62e724a3fade00573eb98936", "fusion_lon": 0.0}, {"is_reserved": 0, "type": "electric_scooter", "bike_id": "5af81efc5c289c053640b48957e4a427", "lat": 38.91251916666667, "lon": -77.00152333333334, "rental_uris": {"android": "https://dc.lft.to/lastmile_qr_scan", "ios": "https://dc.lft.to/lastmile_qr_scan"}, "is_disabled": 0, "fusion_lat": 0.0, "name": "5af81efc5c289c053640b48957e4a427", "fusion_lon": 0.0}, {"is_reserved": 0, "type": "electric_scooter", "bike_id": "6d04256ee9326e97db6ed0923516adc8", "lat": 38.900603833333335, "lon": -76.98681733333333, "rental_uris": {"android": "https://dc.lft.to/lastmile_qr_scan", "ios": "https://dc.lft.to/lastmile_qr_scan"}, "is_disabled": 0, "fusion_lat": 0.0, "name": "6d04256ee9326e97db6ed0923516adc8", "fusion_lon": 0.0}, {"is_reserved": 0, "type": "electric_scooter", "bike_id": "d2dd032ce097a0749dfc557ba18f1340", "lat": 38.903512666666664, "lon": -77.01109466666666, "rental_uris": {"android": "https://dc.lft.to/lastmile_qr_scan", "ios": "https://dc.lft.to/lastmile_qr_scan"}, "is_disabled": 0, "fusion_lat": 0.0, "name": "d2dd032ce097a0749dfc557ba18f1340", "fusion_lon": 0.0}, {"is_reserved": 0, "type": "electric_scooter", "bike_id": "6451cdd68e617ef3b57c6fb21cf055e0", "lat": 38.930042, "lon": -77.02300366666667, "rental_uris": {"android": "https://dc.lft.to/lastmile_qr_scan", "ios": "https://dc.lft.to/lastmile_qr_scan"}, "is_disabled": 0, "fusion_lat": 0.0, "name": "6451cdd68e617ef3b57c6fb21cf055e0", "fusion_lon": 0.0}, {"is_reserved": 0, "type": "electric_scooter", "bike_id": "943953ad8d4e72a17d822a70bcb5baf5", "lat": 38.87657033333333, "lon": -77.00810283333334, "rental_uris": {"android": "https://dc.lft.to/lastmile_qr_scan", "ios": "https://dc.lft.to/lastmile_qr_scan"}, "is_disabled": 0, "fusion_lat": 0.0, "name": "943953ad8d4e72a17d822a70bcb5baf5", "fusion_lon": 0.0}, {"is_reserved": 0, "type": "electric_scooter", "bike_id": "6e54bc3f729127cd927df30436d2cd57", "lat": 38.898501833333334, "lon": -77.02217833333333, "rental_uris": {"android": "https://dc.lft.to/lastmile_qr_scan", "ios": "https://dc.lft.to/lastmile_qr_scan"}, "is_disabled": 0, "fusion_lat": 0.0, "name": "6e54bc3f729127cd927df30436d2cd57", "fusion_lon": 0.0}, {"is_reserved": 0, "type": "electric_scooter", "bike_id": "e14d3b2367a581c968bccf273e4372e1", "lat": 38.92396166666666, "lon": -77.04447816666666, "rental_uris": {"android": "https://dc.lft.to/lastmile_qr_scan", "ios": "https://dc.lft.to/lastmile_qr_scan"}, "is_disabled": 0, "fusion_lat": 0.0, "name": "e14d3b2367a581c968bccf273e4372e1", "fusion_lon": 0.0}, {"is_reserved": 0, "type": "electric_scooter", "bike_id": "48181a4f2711684d78bd22441fabfcdf", "lat": 38.9035475, "lon": -77.04037933333333, "rental_uris": {"android": "https://dc.lft.to/lastmile_qr_scan", "ios": "https://dc.lft.to/lastmile_qr_scan"}, "is_disabled": 0, "fusion_lat": 0.0, "name": "48181a4f2711684d78bd22441fabfcdf", "fusion_lon": 0.0}, {"is_reserved": 0, "type": "electric_scooter", "bike_id": "2c5211d63aeee404cf4091d45cd72c33", "lat": 38.898328, "lon": -77.030673, "rental_uris": {"android": "https://dc.lft.to/lastmile_qr_scan", "ios": "https://dc.lft.to/lastmile_qr_scan"}, "is_disabled": 0, "fusion_lat": 0.0, "name": "2c5211d63aeee404cf4091d45cd72c33", "fusion_lon": 0.0}, {"is_reserved": 0, "type": "electric_scooter", "bike_id": "9ca93ac64ad5db05e8807ecefd2435cd", "lat": 38.89518483333333, "lon": -77.03956683333334, "rental_uris": {"android": "https://dc.lft.to/lastmile_qr_scan", "ios": "https://dc.lft.to/lastmile_qr_scan"}, "is_disabled": 0, "fusion_lat": 0.0, "name": "9ca93ac64ad5db05e8807ecefd2435cd", "fusion_lon": 0.0}, {"is_reserved": 0, "type": "electric_scooter", "bike_id": "8029ad2b514d745e5322a00d784e6b25", "lat": 38.9167285, "lon": -77.03464566666666, "rental_uris": {"android": "https://dc.lft.to/lastmile_qr_scan", "ios": "https://dc.lft.to/lastmile_qr_scan"}, "is_disabled": 0, "fusion_lat": 0.0, "name": "8029ad2b514d745e5322a00d784e6b25", "fusion_lon": 0.0}, {"is_reserved": 0, "type": "electric_scooter", "bike_id": "79c9e9e7a2b31df1fea4f1d65c88ce1e", "lat": 38.89596133333333, "lon": -76.92986166666667, "rental_uris": {"android": "https://dc.lft.to/lastmile_qr_scan", "ios": "https://dc.lft.to/lastmile_qr_scan"}, "is_disabled": 0, "fusion_lat": 0.0, "name": "79c9e9e7a2b31df1fea4f1d65c88ce1e", "fusion_lon": 0.0}, {"is_reserved": 0, "type": "electric_scooter", "bike_id": "dd097dcff460ed1e0015a7f7e8562797", "lat": 38.97002916666667, "lon": -77.00907416666666, "rental_uris": {"android": "https://dc.lft.to/lastmile_qr_scan", "ios": "https://dc.lft.to/lastmile_qr_scan"}, "is_disabled": 0, "fusion_lat": 0.0, "name": "dd097dcff460ed1e0015a7f7e8562797", "fusion_lon": 0.0}, {"is_reserved": 0, "type": "electric_scooter", "bike_id": "29edde0c6816588d8196d023ed5be96d", "lat": 38.90549516666667, "lon": -77.03245116666666, "rental_uris": {"android": "https://dc.lft.to/lastmile_qr_scan", "ios": "https://dc.lft.to/lastmile_qr_scan"}, "is_disabled": 0, "fusion_lat": 0.0, "name": "29edde0c6816588d8196d023ed5be96d", "fusion_lon": 0.0}, {"is_reserved": 0, "type": "electric_scooter", "bike_id": "cecbb03ce751c8de683bc0e433966944", "lat": 38.892200333333335, "lon": -77.02411166666667, "rental_uris": {"android": "https://dc.lft.to/lastmile_qr_scan", "ios": "https://dc.lft.to/lastmile_qr_scan"}, "is_disabled": 0, "fusion_lat": 0.0, "name": "cecbb03ce751c8de683bc0e433966944", "fusion_lon": 0.0}, {"is_reserved": 0, "type": "electric_scooter", "bike_id": "b7443e04d70fd907bbae03a660b07cee", "lat": 38.9493995, "lon": -77.02698516666666, "rental_uris": {"android": "https://dc.lft.to/lastmile_qr_scan", "ios": "https://dc.lft.to/lastmile_qr_scan"}, "is_disabled": 0, "fusion_lat": 0.0, "name": "b7443e04d70fd907bbae03a660b07cee", "fusion_lon": 0.0}, {"is_reserved": 0, "type": "electric_scooter", "bike_id": "9157fc9978fe55e82acc49ac5275eef7", "lat": 38.916878833333335, "lon": -77.0280615, "rental_uris": {"android": "https://dc.lft.to/lastmile_qr_scan", "ios": "https://dc.lft.to/lastmile_qr_scan"}, "is_disabled": 0, "fusion_lat": 0.0, "name": "9157fc9978fe55e82acc49ac5275eef7", "fusion_lon": 0.0}, {"is_reserved": 0, "type": "electric_scooter", "bike_id": "05bd2fdbdf357dea352581e439632c63", "lat": 38.887364166666664, "lon": -77.02616383333333, "rental_uris": {"android": "https://dc.lft.to/lastmile_qr_scan", "ios": "https://dc.lft.to/lastmile_qr_scan"}, "is_disabled": 0, "fusion_lat": 0.0, "name": "05bd2fdbdf357dea352581e439632c63", "fusion_lon": 0.0}, {"is_reserved": 0, "type": "electric_scooter", "bike_id": "9eb67ce5ef06ecaae0e8ccf1e5d8f1a4", "lat": 38.893405, "lon": -76.99382366666667, "rental_uris": {"android": "https://dc.lft.to/lastmile_qr_scan", "ios": "https://dc.lft.to/lastmile_qr_scan"}, "is_disabled": 0, "fusion_lat": 0.0, "name": "9eb67ce5ef06ecaae0e8ccf1e5d8f1a4", "fusion_lon": 0.0}, {"is_reserved": 0, "type": "electric_scooter", "bike_id": "02b1727b0c7ec742539a56b03977f199", "lat": 38.902634666666664, "lon": -77.0355865, "rental_uris": {"android": "https://dc.lft.to/lastmile_qr_scan", "ios": "https://dc.lft.to/lastmile_qr_scan"}, "is_disabled": 0, "fusion_lat": 0.0, "name": "02b1727b0c7ec742539a56b03977f199", "fusion_lon": 0.0}, {"is_reserved": 0, "type": "electric_scooter", "bike_id": "e0c3c9abba111692c817ead674610cf3", "lat": 38.89982883333333, "lon": -77.02938116666667, "rental_uris": {"android": "https://dc.lft.to/lastmile_qr_scan", "ios": "https://dc.lft.to/lastmile_qr_scan"}, "is_disabled": 0, "fusion_lat": 0.0, "name": "e0c3c9abba111692c817ead674610cf3", "fusion_lon": 0.0}, {"is_reserved": 0, "type": "electric_scooter", "bike_id": "6235d6ab5605775e624bb9a03b9d0d23", "lat": 38.9310625, "lon": -77.0348745, "rental_uris": {"android": "https://dc.lft.to/lastmile_qr_scan", "ios": "https://dc.lft.to/lastmile_qr_scan"}, "is_disabled": 0, "fusion_lat": 0.0, "name": "6235d6ab5605775e624bb9a03b9d0d23", "fusion_lon": 0.0}, {"is_reserved": 0, "type": "electric_scooter", "bike_id": "91ff9ef8390c209ed467ca4be3700ec0", "lat": 38.9108995, "lon": -76.98475266666667, "rental_uris": {"android": "https://dc.lft.to/lastmile_qr_scan", "ios": "https://dc.lft.to/lastmile_qr_scan"}, "is_disabled": 0, "fusion_lat": 0.0, "name": "91ff9ef8390c209ed467ca4be3700ec0", "fusion_lon": 0.0}, {"is_reserved": 0, "type": "electric_scooter", "bike_id": "82ac56bd1d68b0b1c36ea99c6d42689a", "lat": 38.92329333333333, "lon": -77.02967783333334, "rental_uris": {"android": "https://dc.lft.to/lastmile_qr_scan", "ios": "https://dc.lft.to/lastmile_qr_scan"}, "is_disabled": 0, "fusion_lat": 0.0, "name": "82ac56bd1d68b0b1c36ea99c6d42689a", "fusion_lon": 0.0}, {"is_reserved": 0, "type": "electric_scooter", "bike_id": "6320c683fd75ef8acc3b50f8c7ba9c28", "lat": 38.915819, "lon": -76.9838775, "rental_uris": {"android": "https://dc.lft.to/lastmile_qr_scan", "ios": "https://dc.lft.to/lastmile_qr_scan"}, "is_disabled": 0, "fusion_lat": 0.0, "name": "6320c683fd75ef8acc3b50f8c7ba9c28", "fusion_lon": 0.0}, {"is_reserved": 0, "type": "electric_scooter", "bike_id": "6f77ce3d18aa3722e9cf0f5c8dfd7cf4", "lat": 38.89866133333334, "lon": -76.94663866666667, "rental_uris": {"android": "https://dc.lft.to/lastmile_qr_scan", "ios": "https://dc.lft.to/lastmile_qr_scan"}, "is_disabled": 0, "fusion_lat": 0.0, "name": "6f77ce3d18aa3722e9cf0f5c8dfd7cf4", "fusion_lon": 0.0}, {"is_reserved": 0, "type": "electric_bike", "bike_id": "19e5cab64a5c14296ee86f7592bd5093", "lat": 38.864457333333334, "lon": -76.98986266666667, "rental_uris": {"android": "https://dc.lft.to/lastmile_qr_scan", "ios": "https://dc.lft.to/lastmile_qr_scan"}, "is_disabled": 0, "fusion_lat": 0.0, "name": "19e5cab64a5c14296ee86f7592bd5093", "fusion_lon": 0.0}, {"is_reserved": 0, "type": "electric_scooter", "bike_id": "4f30520663ee5bf08f91c19a1f56ab92", "lat": 38.8921895, "lon": -77.01559766666666, "rental_uris": {"android": "https://dc.lft.to/lastmile_qr_scan", "ios": "https://dc.lft.to/lastmile_qr_scan"}, "is_disabled": 0, "fusion_lat": 0.0, "name": "4f30520663ee5bf08f91c19a1f56ab92", "fusion_lon": 0.0}, {"is_reserved": 0, "type": "electric_scooter", "bike_id": "dfea4bbfeede7908fc351f6e0455e28d", "lat": 38.89224033333333, "lon": -77.031794, "rental_uris": {"android": "https://dc.lft.to/lastmile_qr_scan", "ios": "https://dc.lft.to/lastmile_qr_scan"}, "is_disabled": 0, "fusion_lat": 0.0, "name": "dfea4bbfeede7908fc351f6e0455e28d", "fusion_lon": 0.0}, {"is_reserved": 0, "type": "electric_scooter", "bike_id": "e0eb0e82cc9cfd0631f3905e288b3601", "lat": 38.90722733333333, "lon": -77.01677166666667, "rental_uris": {"android": "https://dc.lft.to/lastmile_qr_scan", "ios": "https://dc.lft.to/lastmile_qr_scan"}, "is_disabled": 0, "fusion_lat": 0.0, "name": "e0eb0e82cc9cfd0631f3905e288b3601", "fusion_lon": 0.0}, {"is_reserved": 0, "type": "electric_scooter", "bike_id": "2315115fd736b1f9f2e00fb64a52b664", "lat": 38.93598866666667, "lon": -77.05872316666667, "rental_uris": {"android": "https://dc.lft.to/lastmile_qr_scan", "ios": "https://dc.lft.to/lastmile_qr_scan"}, "is_disabled": 0, "fusion_lat": 0.0, "name": "2315115fd736b1f9f2e00fb64a52b664", "fusion_lon": 0.0}, {"is_reserved": 0, "type": "electric_scooter", "bike_id": "79683b1c115210021ba3c05cb145ec92", "lat": 38.92392366666667, "lon": -77.05059683333333, "rental_uris": {"android": "https://dc.lft.to/lastmile_qr_scan", "ios": "https://dc.lft.to/lastmile_qr_scan"}, "is_disabled": 0, "fusion_lat": 0.0, "name": "79683b1c115210021ba3c05cb145ec92", "fusion_lon": 0.0}, {"is_reserved": 0, "type": "electric_scooter", "bike_id": "1fdcd6d2d8d0bdd03c597c7bd7193ec3", "lat": 38.89222866666667, "lon": -77.03111583333333, "rental_uris": {"android": "https://dc.lft.to/lastmile_qr_scan", "ios": "https://dc.lft.to/lastmile_qr_scan"}, "is_disabled": 0, "fusion_lat": 0.0, "name": "1fdcd6d2d8d0bdd03c597c7bd7193ec3", "fusion_lon": 0.0}, {"is_reserved": 0, "type": "electric_scooter", "bike_id": "e58c0fdf5ecc25c0a25c9f4fe18ab037", "lat": 38.90040716666667, "lon": -77.02599616666667, "rental_uris": {"android": "https://dc.lft.to/lastmile_qr_scan", "ios": "https://dc.lft.to/lastmile_qr_scan"}, "is_disabled": 0, "fusion_lat": 0.0, "name": "e58c0fdf5ecc25c0a25c9f4fe18ab037", "fusion_lon": 0.0}, {"is_reserved": 0, "type": "electric_scooter", "bike_id": "47aaf61dfee97dc251bb4ebc70a6c2d8", "lat": 38.92431633333333, "lon": -77.00318683333333, "rental_uris": {"android": "https://dc.lft.to/lastmile_qr_scan", "ios": "https://dc.lft.to/lastmile_qr_scan"}, "is_disabled": 0, "fusion_lat": 0.0, "name": "47aaf61dfee97dc251bb4ebc70a6c2d8", "fusion_lon": 0.0}, {"is_reserved": 0, "type": "electric_scooter", "bike_id": "a62d1ee9a8715631781a192e06dcc3f3", "lat": 38.909218333333335, "lon": -77.03957383333334, "rental_uris": {"android": "https://dc.lft.to/lastmile_qr_scan", "ios": "https://dc.lft.to/lastmile_qr_scan"}, "is_disabled": 0, "fusion_lat": 0.0, "name": "a62d1ee9a8715631781a192e06dcc3f3", "fusion_lon": 0.0}, {"is_reserved": 0, "type": "electric_scooter", "bike_id": "9fc96248d87cb53948b7bf9717e19e82", "lat": 38.928417, "lon": -77.05506066666666, "rental_uris": {"android": "https://dc.lft.to/lastmile_qr_scan", "ios": "https://dc.lft.to/lastmile_qr_scan"}, "is_disabled": 0, "fusion_lat": 0.0, "name": "9fc96248d87cb53948b7bf9717e19e82", "fusion_lon": 0.0}, {"is_reserved": 0, "type": "electric_scooter", "bike_id": "abef7b152a300ed22d7950bbaac1c830", "lat": 38.917382333333336, "lon": -77.027752, "rental_uris": {"android": "https://dc.lft.to/lastmile_qr_scan", "ios": "https://dc.lft.to/lastmile_qr_scan"}, "is_disabled": 0, "fusion_lat": 0.0, "name": "abef7b152a300ed22d7950bbaac1c830", "fusion_lon": 0.0}, {"is_reserved": 0, "type": "electric_scooter", "bike_id": "30bc3f46dd793d5fcaae1d6622f138ac", "lat": 38.8972675, "lon": -77.02148583333333, "rental_uris": {"android": "https://dc.lft.to/lastmile_qr_scan", "ios": "https://dc.lft.to/lastmile_qr_scan"}, "is_disabled": 0, "fusion_lat": 0.0, "name": "30bc3f46dd793d5fcaae1d6622f138ac", "fusion_lon": 0.0}, {"is_reserved": 0, "type": "electric_scooter", "bike_id": "29b60f4d6f523f404ca69aad28d63dfd", "lat": 38.90204, "lon": -77.048563, "rental_uris": {"android": "https://dc.lft.to/lastmile_qr_scan", "ios": "https://dc.lft.to/lastmile_qr_scan"}, "is_disabled": 0, "fusion_lat": 0.0, "name": "29b60f4d6f523f404ca69aad28d63dfd", "fusion_lon": 0.0}, {"is_reserved": 0, "type": "electric_scooter", "bike_id": "6e0ef82d232cc8aa45215f00b4376ba1", "lat": 38.929340833333335, "lon": -77.0326115, "rental_uris": {"android": "https://dc.lft.to/lastmile_qr_scan", "ios": "https://dc.lft.to/lastmile_qr_scan"}, "is_disabled": 0, "fusion_lat": 0.0, "name": "6e0ef82d232cc8aa45215f00b4376ba1", "fusion_lon": 0.0}, {"is_reserved": 0, "type": "electric_scooter", "bike_id": "60ccfc864882a38929c67b398fcc1977", "lat": 38.89187066666667, "lon": -76.99851483333333, "rental_uris": {"android": "https://dc.lft.to/lastmile_qr_scan", "ios": "https://dc.lft.to/lastmile_qr_scan"}, "is_disabled": 0, "fusion_lat": 0.0, "name": "60ccfc864882a38929c67b398fcc1977", "fusion_lon": 0.0}, {"is_reserved": 0, "type": "electric_scooter", "bike_id": "e9dd0f6bbe6a3bdb67b7073d4ffb8d1a", "lat": 38.90396766666667, "lon": -77.06296166666667, "rental_uris": {"android": "https://dc.lft.to/lastmile_qr_scan", "ios": "https://dc.lft.to/lastmile_qr_scan"}, "is_disabled": 0, "fusion_lat": 0.0, "name": "e9dd0f6bbe6a3bdb67b7073d4ffb8d1a", "fusion_lon": 0.0}, {"is_reserved": 0, "type": "electric_scooter", "bike_id": "edbda83a5f723df19bc8d93a60e5b6aa", "lat": 38.91920366666667, "lon": -77.03424533333333, "rental_uris": {"android": "https://dc.lft.to/lastmile_qr_scan", "ios": "https://dc.lft.to/lastmile_qr_scan"}, "is_disabled": 0, "fusion_lat": 0.0, "name": "edbda83a5f723df19bc8d93a60e5b6aa", "fusion_lon": 0.0}, {"is_reserved": 0, "type": "electric_scooter", "bike_id": "97ae688b5b8cea77fd119ea5366c4be1", "lat": 38.929720333333336, "lon": -77.03262666666667, "rental_uris": {"android": "https://dc.lft.to/lastmile_qr_scan", "ios": "https://dc.lft.to/lastmile_qr_scan"}, "is_disabled": 0, "fusion_lat": 0.0, "name": "97ae688b5b8cea77fd119ea5366c4be1", "fusion_lon": 0.0}, {"is_reserved": 0, "type": "electric_scooter", "bike_id": "a68cb8b471814ca678d75f87deda95cc", "lat": 38.920586666666665, "lon": -77.02506283333334, "rental_uris": {"android": "https://dc.lft.to/lastmile_qr_scan", "ios": "https://dc.lft.to/lastmile_qr_scan"}, "is_disabled": 0, "fusion_lat": 0.0, "name": "a68cb8b471814ca678d75f87deda95cc", "fusion_lon": 0.0}, {"is_reserved": 0, "type": "electric_scooter", "bike_id": "a85113a932a548d08df7c8d685d6ee1d", "lat": 38.893201, "lon": -77.02976633333333, "rental_uris": {"android": "https://dc.lft.to/lastmile_qr_scan", "ios": "https://dc.lft.to/lastmile_qr_scan"}, "is_disabled": 0, "fusion_lat": 0.0, "name": "a85113a932a548d08df7c8d685d6ee1d", "fusion_lon": 0.0}, {"is_reserved": 0, "type": "electric_bike", "bike_id": "2d6f1e147680685e5aaa2a3a5a96fc22", "lat": 38.8381195, "lon": -77.09519683333333, "rental_uris": {"android": "https://dc.lft.to/lastmile_qr_scan", "ios": "https://dc.lft.to/lastmile_qr_scan"}, "is_disabled": 0, "fusion_lat": 0.0, "name": "2d6f1e147680685e5aaa2a3a5a96fc22", "fusion_lon": 0.0}, {"is_reserved": 0, "type": "electric_scooter", "bike_id": "5e958b491bd8853e9472be17c752bdcc", "lat": 38.931975, "lon": -76.99625683333333, "rental_uris": {"android": "https://dc.lft.to/lastmile_qr_scan", "ios": "https://dc.lft.to/lastmile_qr_scan"}, "is_disabled": 0, "fusion_lat": 0.0, "name": "5e958b491bd8853e9472be17c752bdcc", "fusion_lon": 0.0}, {"is_reserved": 0, "type": "electric_scooter", "bike_id": "c3488e1e1346e930b17d6cc0f8a9a53d", "lat": 38.90176983333333, "lon": -77.00117583333333, "rental_uris": {"android": "https://dc.lft.to/lastmile_qr_scan", "ios": "https://dc.lft.to/lastmile_qr_scan"}, "is_disabled": 0, "fusion_lat": 0.0, "name": "c3488e1e1346e930b17d6cc0f8a9a53d", "fusion_lon": 0.0}, {"is_reserved": 0, "type": "electric_bike", "bike_id": "9e9245b5bd27b82cbd65ecc870f111ab", "lat": 38.84033633333333, "lon": -76.97622233333334, "rental_uris": {"android": "https://dc.lft.to/lastmile_qr_scan", "ios": "https://dc.lft.to/lastmile_qr_scan"}, "is_disabled": 0, "fusion_lat": 0.0, "name": "9e9245b5bd27b82cbd65ecc870f111ab", "fusion_lon": 0.0}, {"is_reserved": 0, "type": "electric_scooter", "bike_id": "9807eb5226038fc88aa6ae85b7359795", "lat": 38.892239833333335, "lon": -77.02625466666667, "rental_uris": {"android": "https://dc.lft.to/lastmile_qr_scan", "ios": "https://dc.lft.to/lastmile_qr_scan"}, "is_disabled": 0, "fusion_lat": 0.0, "name": "9807eb5226038fc88aa6ae85b7359795", "fusion_lon": 0.0}, {"is_reserved": 0, "type": "electric_scooter", "bike_id": "03575a51e7d03e42367fcbcd2b8f1054", "lat": 38.9024615, "lon": -77.027349, "rental_uris": {"android": "https://dc.lft.to/lastmile_qr_scan", "ios": "https://dc.lft.to/lastmile_qr_scan"}, "is_disabled": 0, "fusion_lat": 0.0, "name": "03575a51e7d03e42367fcbcd2b8f1054", "fusion_lon": 0.0}, {"is_reserved": 0, "type": "electric_scooter", "bike_id": "c7604a6b8ae2dafea32f8f1d02564844", "lat": 38.93658666666666, "lon": -77.05499733333333, "rental_uris": {"android": "https://dc.lft.to/lastmile_qr_scan", "ios": "https://dc.lft.to/lastmile_qr_scan"}, "is_disabled": 0, "fusion_lat": 0.0, "name": "c7604a6b8ae2dafea32f8f1d02564844", "fusion_lon": 0.0}, {"is_reserved": 0, "type": "electric_scooter", "bike_id": "cfc6ad3bfbe97447036e5a35e9cfece3", "lat": 38.905034666666666, "lon": -77.02941833333334, "rental_uris": {"android": "https://dc.lft.to/lastmile_qr_scan", "ios": "https://dc.lft.to/lastmile_qr_scan"}, "is_disabled": 0, "fusion_lat": 0.0, "name": "cfc6ad3bfbe97447036e5a35e9cfece3", "fusion_lon": 0.0}, {"is_reserved": 0, "type": "electric_scooter", "bike_id": "60f3d3709192af65e5dbd3f5c4aa4234", "lat": 38.9170495, "lon": -77.03899616666666, "rental_uris": {"android": "https://dc.lft.to/lastmile_qr_scan", "ios": "https://dc.lft.to/lastmile_qr_scan"}, "is_disabled": 0, "fusion_lat": 0.0, "name": "60f3d3709192af65e5dbd3f5c4aa4234", "fusion_lon": 0.0}, {"is_reserved": 0, "type": "electric_scooter", "bike_id": "2f081cc5677c9301e9921ffc761db6f3", "lat": 38.935045, "lon": -77.020042, "rental_uris": {"android": "https://dc.lft.to/lastmile_qr_scan", "ios": "https://dc.lft.to/lastmile_qr_scan"}, "is_disabled": 0, "fusion_lat": 0.0, "name": "2f081cc5677c9301e9921ffc761db6f3", "fusion_lon": 0.0}, {"is_reserved": 0, "type": "electric_scooter", "bike_id": "73ab2022883ec5c8c2f405ed7a656658", "lat": 38.89567266666667, "lon": -77.02971283333333, "rental_uris": {"android": "https://dc.lft.to/lastmile_qr_scan", "ios": "https://dc.lft.to/lastmile_qr_scan"}, "is_disabled": 0, "fusion_lat": 0.0, "name": "73ab2022883ec5c8c2f405ed7a656658", "fusion_lon": 0.0},