{"data": {"bikes": [{"is_disabled": 0, "fusion_lat": 0.0, "lat": 38.85766533333333, "type": "electric_bike", "lon": -76.98768133333333, "is_reserved": 0, "fusion_lon": 0.0, "bike_id": "6a57e1d1d1aa415046372b3891016be5", "name": "6a57e1d1d1aa415046372b3891016be5", "rental_uris": {"ios": "https://dc.lft.to/lastmile_qr_scan", "android": "https://dc.lft.to/lastmile_qr_scan"}}, {"is_disabled": 0, "fusion_lat": 0.0, "lat": 38.901218, "type": "electric_scooter", "lon": -77.00277116666666, "is_reserved": 0, "fusion_lon": 0.0, "bike_id": "2f79e8d0ee2546103995917628a2c2af", "name": "2f79e8d0ee2546103995917628a2c2af", "rental_uris": {"ios": "https://dc.lft.to/lastmile_qr_scan", "android": "https://dc.lft.to/lastmile_qr_scan"}}, {"is_disabled": 0, "fusion_lat": 0.0, "lat": 38.842913, "type": "electric_scooter", "lon": -76.99948566666667, "is_reserved": 0, "fusion_lon": 0.0, "bike_id": "0b3a61b399ffc1dacd4a5269be9d2263", "name": "0b3a61b399ffc1dacd4a5269be9d2263", "rental_uris": {"ios": "https://dc.lft.to/lastmile_qr_scan", "android": "https://dc.lft.to/lastmile_qr_scan"}}, {"is_disabled": 0, "fusion_lat": 0.0, "lat": 38.893739333333336, "type": "electric_scooter", "lon": -76.95001833333333, "is_reserved": 0, "fusion_lon": 0.0, "bike_id": "02ae6218c69beb0991270e195e492af6", "name": "02ae6218c69beb0991270e195e492af6", "rental_uris": {"ios": "https://dc.lft.to/lastmile_qr_scan", "android": "https://dc.lft.to/lastmile_qr_scan"}}, {"is_disabled": 0, "fusion_lat": 0.0, "lat": 38.91885416666667, "type": "electric_scooter", "lon": -77.02970433333333, "is_reserved": 0, "fusion_lon": 0.0, "bike_id": "819018347627fd976a5ce8974307ba61", "name": "819018347627fd976a5ce8974307ba61", "rental_uris": {"ios": "https://dc.lft.to/lastmile_qr_scan", "android": "https://dc.lft.to/lastmile_qr_scan"}}, {"is_disabled": 0, "fusion_lat": 0.0, "lat": 38.905654166666665, "type": "electric_scooter", "lon": -77.00713783333333, "is_reserved": 0, "fusion_lon": 0.0, "bike_id": "1577030ca2b53a2cad763e7d174234b9", "name": "1577030ca2b53a2cad763e7d174234b9", "rental_uris": {"ios": "https://dc.lft.to/lastmile_qr_scan", "android": "https://dc.lft.to/lastmile_qr_scan"}}, {"is_disabled": 0, "fusion_lat": 0.0, "lat": 38.8847835, "type": "electric_scooter", "lon": -77.01535066666666, "is_reserved": 0, "fusion_lon": 0.0, "bike_id": "8a50b900ca0f1e1c46086ec2e954cf68", "name": "8a50b900ca0f1e1c46086ec2e954cf68", "rental_uris": {"ios": "https://dc.lft.to/lastmile_qr_scan", "android": "https://dc.lft.to/lastmile_qr_scan"}}, {"is_disabled": 0, "fusion_lat": 0.0, "lat": 38.907082, "type": "electric_scooter", "lon": -77.04356483333333, "is_reserved": 0, "fusion_lon": 0.0, "bike_id": "11cb5754138fbf625ffcc10c3dd0273b", "name": "11cb5754138fbf625ffcc10c3dd0273b", "rental_uris": {"ios": "https://dc.lft.to/lastmile_qr_scan", "android": "https://dc.lft.to/lastmile_qr_scan"}}, {"is_disabled": 0, "fusion_lat": 0.0, "lat": 38.96392983333333, "type": "electric_scooter", "lon": -77.02592916666667, "is_reserved": 0, "fusion_lon": 0.0, "bike_id": "77a197fefe9e85bbdcc88f0a40fc1a92", "name": "77a197fefe9e85bbdcc88f0a40fc1a92", "rental_uris": {"ios": "https://dc.lft.to/lastmile_qr_scan", "android": "https://dc.lft.to/lastmile_qr_scan"}}, {"is_disabled": 0, "fusion_lat": 0.0, "lat": 38.92143633333333, "type": "electric_scooter", "lon": -77.01806033333334, "is_reserved": 0, "fusion_lon": 0.0, "bike_id": "e16a822b77aea0dc42ee3dbce9f86962", "name": "e16a822b77aea0dc42ee3dbce9f86962", "rental_uris": {"ios": "https://dc.lft.to/lastmile_qr_scan", "android": "https://dc.lft.to/lastmile_qr_scan"}}, {"is_disabled": 0, "fusion_lat": 0.0, "lat": 38.8492925, "type": "electric_bike", "lon": -77.10017866666666, "is_reserved": 0, "fusion_lon": 0.0, "bike_id": "4c1dce9eea9bbd531a5aecec4d89adce", "name": "4c1dce9eea9bbd531a5aecec4d89adce", "rental_uris": {"ios": "https://dc.lft.to/lastmile_qr_scan", "android": "https://dc.lft.to/lastmile_qr_scan"}}, {"is_disabled": 0, "fusion_lat": 0.0, "lat": 38.91488533333333, "type": "electric_scooter", "lon": -76.9835445, "is_reserved": 0, "fusion_lon": 0.0, "bike_id": "f01cc32126da3b8d7d7b10be003ad3ff", "name": "f01cc32126da3b8d7d7b10be003ad3ff", "rental_uris": {"ios": "https://dc.lft.to/lastmile_qr_scan", "android": "https://dc.lft.to/lastmile_qr_scan"}}, {"is_disabled": 0, "fusion_lat": 0.0, "lat": 38.92013716666666, "type": "electric_scooter", "lon": -77.03206016666667, "is_reserved": 0, "fusion_lon": 0.0, "bike_id": "7419cd9779d979c1a7c2ae722a883ef0", "name": "7419cd9779d979c1a7c2ae722a883ef0", "rental_uris": {"ios": "https://dc.lft.to/lastmile_qr_scan", "android": "https://dc.lft.to/lastmile_qr_scan"}}, {"is_disabled": 0, "fusion_lat": 0.0, "lat": 38.905705833333336, "type": "electric_scooter", "lon": -77.0382825, "is_reserved": 0, "fusion_lon": 0.0, "bike_id": "9c3541db68235c7447e48dfdbf5cc05c", "name": "9c3541db68235c7447e48dfdbf5cc05c", "rental_uris": {"ios": "https://dc.lft.to/lastmile_qr_scan", "android": "https://dc.lft.to/lastmile_qr_scan"}}, {"is_disabled": 0, "fusion_lat": 0.0, "lat": 38.9307595, "type": "electric_scooter", "lon": -77.0374955, "is_reserved": 0, "fusion_lon": 0.0, "bike_id": "94f3c57b42b0f3d050ec637ac0b4243a", "name": "94f3c57b42b0f3d050ec637ac0b4243a", "rental_uris": {"ios": "https://dc.lft.to/lastmile_qr_scan", "android": "https://dc.lft.to/lastmile_qr_scan"}}, {"is_disabled": 0, "fusion_lat": 0.0, "lat": 38.962206, "type": "electric_bike", "lon": -77.02628566666667, "is_reserved": 0, "fusion_lon": 0.0, "bike_id": "e775c7e0bf7726cc57e9cde6635ad361", "name": "e775c7e0bf7726cc57e9cde6635ad361", "rental_uris": {"ios": "https://dc.lft.to/lastmile_qr_scan", "android": "https://dc.lft.to/lastmile_qr_scan"}}, {"is_disabled": 0, "fusion_lat": 0.0, "lat": 38.93059016666667, "type": "electric_scooter", "lon": -77.02658266666667, "is_reserved": 0, "fusion_lon": 0.0, "bike_id": "cebe9eb99ed437926060d64a51055fdb", "name": "cebe9eb99ed437926060d64a51055fdb", "rental_uris": {"ios": "https://dc.lft.to/lastmile_qr_scan", "android": "https://dc.lft.to/lastmile_qr_scan"}}, {"is_disabled": 0, "fusion_lat": 0.0, "lat": 38.8662115, "type": "electric_scooter", "lon": -76.98698816666666, "is_reserved": 0, "fusion_lon": 0.0, "bike_id": "8242387670b6c629dfb981425e063753", "name": "8242387670b6c629dfb981425e063753", "rental_uris": {"ios": "https://dc.lft.to/lastmile_qr_scan", "android": "https://dc.lft.to/lastmile_qr_scan"}}, {"is_disabled": 0, "fusion_lat": 0.0, "lat": 38.907916166666666, "type": "electric_scooter", "lon": -77.04481033333333, "is_reserved": 0, "fusion_lon": 0.0, "bike_id": "cd6c30dec4340ade872a0728a18b2174", "name": "cd6c30dec4340ade872a0728a18b2174", "rental_uris": {"ios": "https://dc.lft.to/lastmile_qr_scan", "android": "https://dc.lft.to/lastmile_qr_scan"}}, {"is_disabled": 0, "fusion_lat": 0.0, "lat": 38.926364666666665, "type": "electric_scooter", "lon": -77.01337983333333, "is_reserved": 0, "fusion_lon": 0.0, "bike_id": "54ac0a09be09379714529a5ecde934b8", "name": "54ac0a09be09379714529a5ecde934b8", "rental_uris": {"ios": "https://dc.lft.to/lastmile_qr_scan", "android": "https://dc.lft.to/lastmile_qr_scan"}}, {"is_disabled": 0, "fusion_lat": 0.0, "lat": 38.95258033333333, "type": "electric_bike", "lon": -77.0698265, "is_reserved": 0, "fusion_lon": 0.0, "bike_id": "40763e1140b6d3b3734e5c878d9e715e", "name": "40763e1140b6d3b3734e5c878d9e715e", "rental_uris": {"ios": "https://dc.lft.to/lastmile_qr_scan", "android": "https://dc.lft.to/lastmile_qr_scan"}}, {"is_disabled": 0, "fusion_lat": 0.0, "lat": 38.89897833333333, "type": "electric_scooter", "lon": -77.00739116666666, "is_reserved": 0, "fusion_lon": 0.0, "bike_id": "27116feccc328a86fb5fff4a3ab3a3e9", "name": "27116feccc328a86fb5fff4a3ab3a3e9", "rental_uris": {"ios": "https://dc.lft.to/lastmile_qr_scan", "android": "https://dc.lft.to/lastmile_qr_scan"}}, {"is_disabled": 0, "fusion_lat": 0.0, "lat": 38.92603316666667, "type": "electric_scooter", "lon": -77.056928, "is_reserved": 0, "fusion_lon": 0.0, "bike_id": "a79f3f053096d0cf65bf4e564ee1cdf9", "name": "a79f3f053096d0cf65bf4e564ee1cdf9", "rental_uris": {"ios": "https://dc.lft.to/lastmile_qr_scan", "android": "https://dc.lft.to/lastmile_qr_scan"}}, {"is_disabled": 0, "fusion_lat": 0.0, "lat": 38.82085333333333, "type": "electric_bike", "lon": -77.05366733333334, "is_reserved": 0, "fusion_lon": 0.0, "bike_id": "531d1751b79ed44fe9ff0d9222b594ed", "name": "531d1751b79ed44fe9ff0d9222b594ed", "rental_uris": {"ios": "https://dc.lft.to/lastmile_qr_scan", "android": "https://dc.lft.to/lastmile_qr_scan"}}, {"is_disabled": 0, "fusion_lat": 0.0, "lat": 38.91822633333334, "type": "electric_scooter", "lon": -77.03526966666666, "is_reserved": 0, "fusion_lon": 0.0, "bike_id": "3cde00b8840975c64f8b0ec9d94015b3", "name": "3cde00b8840975c64f8b0ec9d94015b3", "rental_uris": {"ios": "https://dc.lft.to/lastmile_qr_scan", "android": "https://dc.lft.to/lastmile_qr_scan"}}, {"is_disabled": 0, "fusion_lat": 0.0, "lat": 38.923214333333334, "type": "electric_scooter", "lon": -77.03893266666667, "is_reserved": 0, "fusion_lon": 0.0, "bike_id": "9f0af11d2d69d68c3b122eb507db1974", "name": "9f0af11d2d69d68c3b122eb507db1974", "rental_uris": {"ios": "https://dc.lft.to/lastmile_qr_scan", "android": "https://dc.lft.to/lastmile_qr_scan"}}, {"is_disabled": 0, "fusion_lat": 0.0, "lat": 38.95084166666667, "type": "electric_scooter", "lon": -77.02832416666666, "is_reserved": 0, "fusion_lon": 0.0, "bike_id": "e5f0dadbc52a617bc503d1adb610fbc6", "name": "e5f0dadbc52a617bc503d1adb610fbc6", "rental_uris": {"ios": "https://dc.lft.to/lastmile_qr_scan", "android": "https://dc.lft.to/lastmile_qr_scan"}}, {"is_disabled": 0, "fusion_lat": 0.0, "lat": 38.90970333333333, "type": "electric_scooter", "lon": -77.0386845, "is_reserved": 0, "fusion_lon": 0.0, "bike_id": "8e2fd8d7e4d438194580908e04c1dc30", "name": "8e2fd8d7e4d438194580908e04c1dc30", "rental_uris": {"ios": "https://dc.lft.to/lastmile_qr_scan", "android": "https://dc.lft.to/lastmile_qr_scan"}}, {"is_disabled": 0, "fusion_lat": 0.0, "lat": 38.940865333333335, "type": "electric_scooter", "lon": -77.02722766666666, "is_reserved": 0, "fusion_lon": 0.0, "bike_id": "be4052156f2f542dd1c53f01da3631f3", "name": "be4052156f2f542dd1c53f01da3631f3", "rental_uris": {"ios": "https://dc.lft.to/lastmile_qr_scan", "android": "https://dc.lft.to/lastmile_qr_scan"}}, {"is_disabled": 0, "fusion_lat": 0.0, "lat": 38.919629, "type": "electric_scooter", "lon": -77.03210016666667, "is_reserved": 0, "fusion_lon": 0.0, "bike_id": "7e4b96787b707fba3a5595268b5d9374", "name": "7e4b96787b707fba3a5595268b5d9374", "rental_uris": {"ios": "https://dc.lft.to/lastmile_qr_scan", "android": "https://dc.lft.to/lastmile_qr_scan"}}, {"is_disabled": 0, "fusion_lat": 0.0, "lat": 38.906677333333334, "type": "electric_scooter", "lon": -77.0271635, "is_reserved": 0, "fusion_lon": 0.0, "bike_id": "40d5e0f070148fa628002231b3d717cb", "name": "40d5e0f070148fa628002231b3d717cb", "rental_uris": {"ios": "https://dc.lft.to/lastmile_qr_scan", "android": "https://dc.lft.to/lastmile_qr_scan"}}, {"is_disabled": 0, "fusion_lat": 0.0, "lat": 38.91923083333333, "type": "electric_scooter", "lon": -77.034174, "is_reserved": 0, "fusion_lon": 0.0, "bike_id": "27aabba26e4a5db461da104b20c74183", "name": "27aabba26e4a5db461da104b20c74183", "rental_uris": {"ios": "https://dc.lft.to/lastmile_qr_scan", "android": "https://dc.lft.to/lastmile_qr_scan"}}, {"is_disabled": 0, "fusion_lat": 0.0, "lat": 38.93764383333333, "type": "electric_scooter", "lon": -77.02116733333334, "is_reserved": 0, "fusion_lon": 0.0, "bike_id": "bc83792becfe786afc3c3918e254dfc1", "name": "bc83792becfe786afc3c3918e254dfc1", "rental_uris": {"ios": "https://dc.lft.to/lastmile_qr_scan", "android": "https://dc.lft.to/lastmile_qr_scan"}}, {"is_disabled": 0, "fusion_lat": 0.0, "lat": 38.935332, "type": "electric_scooter", "lon": -77.023492, "is_reserved": 0, "fusion_lon": 0.0, "bike_id": "f3fdb5d90e91116b0e1d094189a47c02", "name": "f3fdb5d90e91116b0e1d094189a47c02", "rental_uris": {"ios": "https://dc.lft.to/lastmile_qr_scan", "android": "https://dc.lft.to/lastmile_qr_scan"}}, {"is_disabled": 0, "fusion_lat": 0.0, "lat": 38.91957333333333, "type": "electric_scooter", "lon": -77.032093, "is_reserved": 0, "fusion_lon": 0.0, "bike_id": "6290fb8876d1f2392737a55d7fb8f0e5", "name": "6290fb8876d1f2392737a55d7fb8f0e5", "rental_uris": {"ios": "https://dc.lft.to/lastmile_qr_scan", "android": "https://dc.lft.to/lastmile_qr_scan"}}, {"is_disabled": 0, "fusion_lat": 0.0, "lat": 38.929693666666665, "type": "electric_scooter", "lon": -77.02823416666666, "is_reserved": 0, "fusion_lon": 0.0, "bike_id": "3e1352f164a916162fe40f380b198b6f", "name": "3e1352f164a916162fe40f380b198b6f", "rental_uris": {"ios": "https://dc.lft.to/lastmile_qr_scan", "android": "https://dc.lft.to/lastmile_qr_scan"}}, {"is_disabled": 0, "fusion_lat": 0.0, "lat": 38.90718616666667, "type": "electric_scooter", "lon": -77.04349783333333, "is_reserved": 0, "fusion_lon": 0.0, "bike_id": "2521a19241d338db9ad030021e53c0d2", "name": "2521a19241d338db9ad030021e53c0d2", "rental_uris": {"ios": "https://dc.lft.to/lastmile_qr_scan", "android": "https://dc.lft.to/lastmile_qr_scan"}}, {"is_disabled": 0, "fusion_lat": 0.0, "lat": 38.90559183333333, "type": "electric_scooter", "lon": -77.0383025, "is_reserved": 0, "fusion_lon": 0.0, "bike_id": "8fa1188e7651225f11a947597cb166b0", "name": "8fa1188e7651225f11a947597cb166b0", "rental_uris": {"ios": "https://dc.lft.to/lastmile_qr_scan", "android": "https://dc.lft.to/lastmile_qr_scan"}}, {"is_disabled": 0, "fusion_lat": 0.0, "lat": 38.8819775, "type": "electric_scooter", "lon": -77.00604116666666, "is_reserved": 0, "fusion_lon": 0.0, "bike_id": "1faf3cc1f9bd9f800d5f204826e4e15b", "name": "1faf3cc1f9bd9f800d5f204826e4e15b", "rental_uris": {"ios": "https://dc.lft.to/lastmile_qr_scan", "android": "https://dc.lft.to/lastmile_qr_scan"}}, {"is_disabled": 0, "fusion_lat": 0.0, "lat": 38.94625083333333, "type": "electric_scooter", "lon": -77.02517466666667, "is_reserved": 0, "fusion_lon": 0.0, "bike_id": "449f15ffd8933848a440d89a9f58368c", "name": "449f15ffd8933848a440d89a9f58368c", "rental_uris": {"ios": "https://dc.lft.to/lastmile_qr_scan", "android": "https://dc.lft.to/lastmile_qr_scan"}}, {"is_disabled": 0, "fusion_lat": 0.0, "lat": 38.91472066666667, "type": "electric_bike", "lon": -76.98370883333334, "is_reserved": 0, "fusion_lon": 0.0, "bike_id": "cb9db63d195237dda3129e18c05e37d8", "name": "cb9db63d195237dda3129e18c05e37d8", "rental_uris": {"ios": "https://dc.lft.to/lastmile_qr_scan", "android": "https://dc.lft.to/lastmile_qr_scan"}}, {"is_disabled": 0, "fusion_lat": 0.0, "lat": 38.899692333333334, "type": "electric_scooter", "lon": -77.047789, "is_reserved": 0, "fusion_lon": 0.0, "bike_id": "7127bb44e5ab36e327523ae869fcb6a2", "name": "7127bb44e5ab36e327523ae869fcb6a2", "rental_uris": {"ios": "https://dc.lft.to/lastmile_qr_scan", "android": "https://dc.lft.to/lastmile_qr_scan"}}, {"is_disabled": 0, "fusion_lat": 0.0, "lat": 38.94333366666667, "type": "electric_scooter", "lon": -77.0325985, "is_reserved": 0, "fusion_lon": 0.0, "bike_id": "cef7153b5c9ca0c4187d1ce6609760b0", "name": "cef7153b5c9ca0c4187d1ce6609760b0", "rental_uris": {"ios": "https://dc.lft.to/lastmile_qr_scan", "android": "https://dc.lft.to/lastmile_qr_scan"}}, {"is_disabled": 0, "fusion_lat": 0.0, "lat": 38.926762, "type": "electric_scooter", "lon": -77.09570916666667, "is_reserved": 0, "fusion_lon": 0.0, "bike_id": "5d72e8e5f2a1d1f01e1ddca62fcfa630", "name": "5d72e8e5f2a1d1f01e1ddca62fcfa630", "rental_uris": {"ios": "https://dc.lft.to/lastmile_qr_scan", "android": "https://dc.lft.to/lastmile_qr_scan"}}, {"is_disabled": 0, "fusion_lat": 0.0, "lat": 38.89228416666667, "type": "electric_scooter", "lon": -77.02207666666666, "is_reserved": 0, "fusion_lon": 0.0, "bike_id": "03e46123aa2a025ff421550ce7c4d1d4", "name": "03e46123aa2a025ff421550ce7c4d1d4", "rental_uris": {"ios": "https://dc.lft.to/lastmile_qr_scan", "android": "https://dc.lft.to/lastmile_qr_scan"}}, {"is_disabled": 0, "fusion_lat": 0.0, "lat": 38.91339083333333, "type": "electric_scooter", "lon": -77.010635, "is_reserved": 0, "fusion_lon": 0.0, "bike_id": "184b210c7f325a2ab5c3e4cee5a50823", "name": "184b210c7f325a2ab5c3e4cee5a50823", "rental_uris": {"ios": "https://dc.lft.to/lastmile_qr_scan", "android": "https://dc.lft.to/lastmile_qr_scan"}}, {"is_disabled": 0, "fusion_lat": 0.0, "lat": 38.93148633333333, "type": "electric_scooter", "lon": -77.03835466666666, "is_reserved": 0, "fusion_lon": 0.0, "bike_id": "97fe1148031ec05cff08d5067be7c506", "name": "97fe1148031ec05cff08d5067be7c506", "rental_uris": {"ios": "https://dc.lft.to/lastmile_qr_scan", "android": "https://dc.lft.to/lastmile_qr_scan"}}, {"is_disabled": 0, "fusion_lat": 0.0, "lat": 38.8919685, "type": "electric_scooter", "lon": -77.023816, "is_reserved": 0, "fusion_lon": 0.0, "bike_id": "ce661f5ecd45285d0db8e4c49bb9d1b6", "name": "ce661f5ecd45285d0db8e4c49bb9d1b6", "rental_uris": {"ios": "https://dc.lft.to/lastmile_qr_scan", "android": "https://dc.lft.to/lastmile_qr_scan"}}, {"is_disabled": 0, "fusion_lat": 0.0, "lat": 38.9360885, "type": "electric_scooter", "lon": -77.05727366666666, "is_reserved": 0, "fusion_lon": 0.0, "bike_id": "3ec7f18a06c21f13f706c05069182146", "name": "3ec7f18a06c21f13f706c05069182146", "rental_uris": {"ios": "https://dc.lft.to/lastmile_qr_scan", "android": "https://dc.lft.to/lastmile_qr_scan"}}, {"is_disabled": 0, "fusion_lat": 0.0, "lat": 38.92235466666666, "type": "electric_scooter", "lon": -77.03341266666666, "is_reserved": 0, "fusion_lon": 0.0, "bike_id": "09573051fead48248e946d821f1547fd", "name": "09573051fead48248e946d821f1547fd", "rental_uris": {"ios": "https://dc.lft.to/lastmile_qr_scan", "android": "https://dc.lft.to/lastmile_qr_scan"}}, {"is_disabled": 0, "fusion_lat": 0.0, "lat": 38.920144, "type": "electric_scooter", "lon": -77.02178483333333, "is_reserved": 0, "fusion_lon": 0.0, "bike_id": "aadc10703b9372671a077a9ab9a64560", "name": "aadc10703b9372671a077a9ab9a64560", "rental_uris": {"ios": "https://dc.lft.to/lastmile_qr_scan", "android": "https://dc.lft.to/lastmile_qr_scan"}}, {"is_disabled": 0, "fusion_lat": 0.0, "lat": 38.901288666666666, "type": "electric_scooter", "lon": -76.99709683333333, "is_reserved": 0, "fusion_lon": 0.0, "bike_id": "b80ca32fafb29ea6c86943b29d3a1ad0", "name": "b80ca32fafb29ea6c86943b29d3a1ad0", "rental_uris": {"ios": "https://dc.lft.to/lastmile_qr_scan", "android": "https://dc.lft.to/lastmile_qr_scan"}}, {"is_disabled": 0, "fusion_lat": 0.0, "lat": 38.911567166666664, "type": "electric_scooter", "lon": -76.98660316666667, "is_reserved": 0, "fusion_lon": 0.0, "bike_id": "d295d7cabc3a6de6c46578587d6ecbdf", "name": "d295d7cabc3a6de6c46578587d6ecbdf", "rental_uris": {"ios": "https://dc.lft.to/lastmile_qr_scan", "android": "https://dc.lft.to/lastmile_qr_scan"}}, {"is_disabled": 0, "fusion_lat": 0.0, "lat": 38.952722, "type": "electric_scooter", "lon": -77.06864433333334, "is_reserved": 0, "fusion_lon": 0.0, "bike_id": "6a5453c61e213ac3d845bb9ce6c781d5", "name": "6a5453c61e213ac3d845bb9ce6c781d5", "rental_uris": {"ios": "https://dc.lft.to/lastmile_qr_scan", "android": "https://dc.lft.to/lastmile_qr_scan"}}, {"is_disabled": 0, "fusion_lat": 0.0, "lat": 38.9270995, "type": "electric_scooter", "lon": -77.04053433333333, "is_reserved": 0, "fusion_lon": 0.0, "bike_id": "df97dd8aa7d06061e089fc4eadd78d72", "name": "df97dd8aa7d06061e089fc4eadd78d72", "rental_uris": {"ios": "https://dc.lft.to/lastmile_qr_scan", "android": "https://dc.lft.to/lastmile_qr_scan"}}, {"is_disabled": 0, "fusion_lat": 0.0, "lat": 38.92012666666667, "type": "electric_scooter", "lon": -77.04077416666667, "is_reserved": 0, "fusion_lon": 0.0, "bike_id": "59f591e561d543b7d0fb6286ee98a10b", "name": "59f591e561d543b7d0fb6286ee98a10b", "rental_uris": {"ios": "https://dc.lft.to/lastmile_qr_scan", "android": "https://dc.lft.to/lastmile_qr_scan"}}, {"is_disabled": 0, "fusion_lat": 0.0, "lat": 38.8904935, "type": "electric_scooter", "lon": -76.93752033333334, "is_reserved": 0, "fusion_lon": 0.0, "bike_id": "972281a878e344e327d95bce5716ff87", "name": "972281a878e344e327d95bce5716ff87", "rental_uris": {"ios": "https://dc.lft.to/lastmile_qr_scan", "android": "https://dc.lft.to/lastmile_qr_scan"}}, {"is_disabled": 0, "fusion_lat": 0.0, "lat": 38.92046416666667, "type": "electric_scooter", "lon": -77.04182233333333, "is_reserved": 0, "fusion_lon": 0.0, "bike_id": "2288bfbf4bb746b64c98c4e8f8fd9863", "name": "2288bfbf4bb746b64c98c4e8f8fd9863", "rental_uris": {"ios": "https://dc.lft.to/lastmile_qr_scan", "android": "https://dc.lft.to/lastmile_qr_scan"}}, {"is_disabled": 0, "fusion_lat": 0.0, "lat": 38.90795633333333, "type": "electric_scooter", "lon": -76.99700733333333, "is_reserved": 0, "fusion_lon": 0.0, "bike_id": "251ff681b701f515a08d84f643035e54", "name": "251ff681b701f515a08d84f643035e54", "rental_uris": {"ios": "https://dc.lft.to/lastmile_qr_scan", "android": "https://dc.lft.to/lastmile_qr_scan"}}, {"is_disabled": 0, "fusion_lat": 0.0, "lat": 38.94182033333333, "type": "electric_scooter", "lon": -77.03093283333334, "is_reserved": 0, "fusion_lon": 0.0, "bike_id": "85731d7817622c0903e3e1462e41c459", "name": "85731d7817622c0903e3e1462e41c459", "rental_uris": {"ios": "https://dc.lft.to/lastmile_qr_scan", "android": "https://dc.lft.to/lastmile_qr_scan"}}, {"is_disabled": 0, "fusion_lat": 0.0, "lat": 38.9205435, "type": "electric_scooter", "lon": -77.033766, "is_reserved": 0, "fusion_lon": 0.0, "bike_id": "d33ec3c0bde81864a26068bdb8cef62c", "name": "d33ec3c0bde81864a26068bdb8cef62c", "rental_uris": {"ios": "https://dc.lft.to/lastmile_qr_scan", "android": "https://dc.lft.to/lastmile_qr_scan"}}, {"is_disabled": 0, "fusion_lat": 0.0, "lat": 38.874661, "type": "electric_scooter", "lon": -77.00935, "is_reserved": 0, "fusion_lon": 0.0, "bike_id": "1f69c74defbb77b1376ea946e5e23553", "name": "1f69c74defbb77b1376ea946e5e23553", "rental_uris": {"ios": "https://dc.lft.to/lastmile_qr_scan", "android": "https://dc.lft.to/lastmile_qr_scan"}}, {"is_disabled": 0, "fusion_lat": 0.0, "lat": 38.930545, "type": "electric_scooter", "lon": -77.04177, "is_reserved": 0, "fusion_lon": 0.0, "bike_id": "f3afe06241c5cef707eac71ca564d213", "name": "f3afe06241c5cef707eac71ca564d213", "rental_uris": {"ios": "https://dc.lft.to/lastmile_qr_scan", "android": "https://dc.lft.to/lastmile_qr_scan"}}, {"is_disabled": 0, "fusion_lat": 0.0, "lat": 38.91718383333333, "type": "electric_scooter", "lon": -77.03836916666667, "is_reserved": 0, "fusion_lon": 0.0, "bike_id": "cd4172286dbef68e3ebee34dcbca7eb6", "name": "cd4172286dbef68e3ebee34dcbca7eb6", "rental_uris": {"ios": "https://dc.lft.to/lastmile_qr_scan", "android": "https://dc.lft.to/lastmile_qr_scan"}}, {"is_disabled": 0, "fusion_lat": 0.0, "lat": 38.902686, "type": "electric_scooter", "lon": -77.01721616666667, "is_reserved": 0, "fusion_lon": 0.0, "bike_id": "5eef449b5f96467acf11532791c60fa1", "name": "5eef449b5f96467acf11532791c60fa1", "rental_uris": {"ios": "https://dc.lft.to/lastmile_qr_scan", "android": "https://dc.lft.to/lastmile_qr_scan"}}, {"is_disabled": 0, "fusion_lat": 0.0, "lat": 38.899102666666664, "type": "electric_scooter", "lon": -76.93349816666667, "is_reserved": 0, "fusion_lon": 0.0, "bike_id": "40d184af3329bf13c9055e971853fb5d", "name": "40d184af3329bf13c9055e971853fb5d", "rental_uris": {"ios": "https://dc.lft.to/lastmile_qr_scan", "android": "https://dc.lft.to/lastmile_qr_scan"}}, {"is_disabled": 0, "fusion_lat": 0.0, "lat": 38.9161705, "type": "electric_scooter", "lon": -77.03199716666667, "is_reserved": 0, "fusion_lon": 0.0, "bike_id": "64f89cf3de9a3043b5d10bc256e6d1e3", "name": "64f89cf3de9a3043b5d10bc256e6d1e3", "rental_uris": {"ios": "https://dc.lft.to/lastmile_qr_scan", "android": "https://dc.lft.to/lastmile_qr_scan"}}, {"is_disabled": 0, "fusion_lat": 0.0, "lat": 38.858092666666664, "type": "electric_scooter", "lon": -76.98656833333334, "is_reserved": 0, "fusion_lon": 0.0, "bike_id": "c88ac816a634637a9d24da0c3d6d9a5f", "name": "c88ac816a634637a9d24da0c3d6d9a5f", "rental_uris": {"ios": "https://dc.lft.to/lastmile_qr_scan", "android": "https://dc.lft.to/lastmile_qr_scan"}}, {"is_disabled": 0, "fusion_lat": 0.0, "lat": 38.890114, "type": "electric_scooter", "lon": -76.93744283333334, "is_reserved": 0, "fusion_lon": 0.0, "bike_id": "990bd3c0580c0b29f753ea9fb9fb6e25", "name": "990bd3c0580c0b29f753ea9fb9fb6e25", "rental_uris": {"ios": "https://dc.lft.to/lastmile_qr_scan", "android": "https://dc.lft.to/lastmile_qr_scan"}}, {"is_disabled": 0, "fusion_lat": 0.0, "lat": 38.9086325, "type": "electric_scooter", "lon": -77.085901, "is_reserved": 0, "fusion_lon": 0.0, "bike_id": "fa6455e90f8d4e3ce29d923c86e93be5", "name": "fa6455e90f8d4e3ce29d923c86e93be5", "rental_uris": {"ios": "https://dc.lft.to/lastmile_qr_scan", "android": "https://dc.lft.to/lastmile_qr_scan"}}, {"is_disabled": 0, "fusion_lat": 0.0, "lat": 38.9013515, "type": "electric_scooter", "lon": -77.0402875, "is_reserved": 0, "fusion_lon": 0.0, "bike_id": "dfdf796705f259f11787261aeb061d20", "name": "dfdf796705f259f11787261aeb061d20", "rental_uris": {"ios": "https://dc.lft.to/lastmile_qr_scan", "android": "https://dc.lft.to/lastmile_qr_scan"}}, {"is_disabled": 0, "fusion_lat": 0.0, "lat": 38.9303395, "type": "electric_scooter", "lon": -77.0321265, "is_reserved": 0, "fusion_lon": 0.0, "bike_id": "f7eb5b26b28fcbcff0c0b667f76b8954", "name": "f7eb5b26b28fcbcff0c0b667f76b8954", "rental_uris": {"ios": "https://dc.lft.to/lastmile_qr_scan", "android": "https://dc.lft.to/lastmile_qr_scan"}}, {"is_disabled": 0, "fusion_lat": 0.0, "lat": 38.901093333333336, "type": "electric_scooter", "lon": -77.05156133333334, "is_reserved": 0, "fusion_lon": 0.0, "bike_id": "00152989790d12019388c49222fe7f05", "name": "00152989790d12019388c49222fe7f05", "rental_uris": {"ios": "https://dc.lft.to/lastmile_qr_scan", "android": "https://dc.lft.to/lastmile_qr_scan"}}, {"is_disabled": 0, "fusion_lat": 0.0, "lat": 38.915466333333335, "type": "electric_scooter", "lon": -77.041566, "is_reserved": 0, "fusion_lon": 0.0, "bike_id": "fff0bb8fdb8940f27ab230329af14952", "name": "fff0bb8fdb8940f27ab230329af14952", "rental_uris": {"ios": "https://dc.lft.to/lastmile_qr_scan", "android": "https://dc.lft.to/lastmile_qr_scan"}}, {"is_disabled": 0, "fusion_lat": 0.0, "lat": 38.918283833333334, "type": "electric_scooter", "lon": -77.03642533333333, "is_reserved": 0, "fusion_lon": 0.0, "bike_id": "ab39c57ca2bf3be83494e06a0f27cdc1", "name": "ab39c57ca2bf3be83494e06a0f27cdc1", "rental_uris": {"ios": "https://dc.lft.to/lastmile_qr_scan", "android": "https://dc.lft.to/lastmile_qr_scan"}}, {"is_disabled": 0, "fusion_lat": 0.0, "lat": 38.92433883333333, "type": "electric_scooter", "lon": -77.05730533333333, "is_reserved": 0, "fusion_lon": 0.0, "bike_id": "a7c7bfc79bf31b1ad845d96bcb13bb17", "name": "a7c7bfc79bf31b1ad845d96bcb13bb17", "rental_uris": {"ios": "https://dc.lft.to/lastmile_qr_scan", "android": "https://dc.lft.to/lastmile_qr_scan"}}, {"is_disabled": 0, "fusion_lat": 0.0, "lat": 38.91100516666667, "type": "electric_scooter", "lon": -77.042046, "is_reserved": 0, "fusion_lon": 0.0, "bike_id": "6574ada080bbc557e941cf36bb349fca", "name": "6574ada080bbc557e941cf36bb349fca", "rental_uris": {"ios": "https://dc.lft.to/lastmile_qr_scan", "android": "https://dc.lft.to/lastmile_qr_scan"}}, {"is_disabled": 0, "fusion_lat": 0.0, "lat": 38.93268483333333, "type": "electric_bike", "lon": -77.03985616666667, "is_reserved": 0, "fusion_lon": 0.0, "bike_id": "3c4e9e201d0292c4f765e62874a0a49a", "name": "3c4e9e201d0292c4f765e62874a0a49a", "rental_uris": {"ios": "https://dc.lft.to/lastmile_qr_scan", "android": "https://dc.lft.to/lastmile_qr_scan"}}, {"is_disabled": 0, "fusion_lat": 0.0, "lat": 39.052050333333334, "type": "electric_bike", "lon": -77.10914616666666, "is_reserved": 0, "fusion_lon": 0.0, "bike_id": "6589f8af98dd4f7d8c9b1fc3a1402a14", "name": "6589f8af98dd4f7d8c9b1fc3a1402a14", "rental_uris": {"ios": "https://dc.lft.to/lastmile_qr_scan", "android": "https://dc.lft.to/lastmile_qr_scan"}}, {"is_disabled": 0, "fusion_lat": 0.0, "lat": 38.90996833333333, "type": "electric_scooter", "lon": -77.0400885, "is_reserved": 0, "fusion_lon": 0.0, "bike_id": "22c730c1c0749c345b16947a1d4c5ff1", "name": "22c730c1c0749c345b16947a1d4c5ff1", "rental_uris": {"ios": "https://dc.lft.to/lastmile_qr_scan", "android": "https://dc.lft.to/lastmile_qr_scan"}}, {"is_disabled": 0, "fusion_lat": 0.0, "lat": 38.915518, "type": "electric_scooter", "lon": -77.00967183333333, "is_reserved": 0, "fusion_lon": 0.0, "bike_id": "7260d4966e3a059d07bc3ea3cb9fe1f5", "name": "7260d4966e3a059d07bc3ea3cb9fe1f5", "rental_uris": {"ios": "https://dc.lft.to/lastmile_qr_scan", "android": "https://dc.lft.to/lastmile_qr_scan"}}, {"is_disabled": 0, "fusion_lat": 0.0, "lat": 38.92458216666667, "type": "electric_scooter", "lon": -77.07866466666667, "is_reserved": 0, "fusion_lon": 0.0, "bike_id": "39202254e0ccd64a38704de1c063ef4a", "name": "39202254e0ccd64a38704de1c063ef4a", "rental_uris": {"ios": "https://dc.lft.to/lastmile_qr_scan", "android": "https://dc.lft.to/lastmile_qr_scan"}}, {"is_disabled": 0, "fusion_lat": 0.0, "lat": 38.922498166666664, "type": "electric_scooter", "lon": -77.04253383333334, "is_reserved": 0, "fusion_lon": 0.0, "bike_id": "2581a1de1825f834837597943f3c9cd2", "name": "2581a1de1825f834837597943f3c9cd2", "rental_uris": {"ios": "https://dc.lft.to/lastmile_qr_scan", "android": "https://dc.lft.to/lastmile_qr_scan"}}, {"is_disabled": 0, "fusion_lat": 0.0, "lat": 38.907833833333335, "type": "electric_scooter", "lon": -77.03862716666667, "is_reserved": 0, "fusion_lon": 0.0, "bike_id": "3e288b92c592eddca05a13f022407971", "name": "3e288b92c592eddca05a13f022407971", "rental_uris": {"ios": "https://dc.lft.to/lastmile_qr_scan", "android": "https://dc.lft.to/lastmile_qr_scan"}}, {"is_disabled": 0, "fusion_lat": 0.0, "lat": 38.89833316666667, "type": "electric_scooter", "lon": -76.94633766666666, "is_reserved": 0, "fusion_lon": 0.0, "bike_id": "2f2019d1c4988d5b8cead20bc25b6c83", "name": "2f2019d1c4988d5b8cead20bc25b6c83", "rental_uris": {"ios": "https://dc.lft.to/lastmile_qr_scan", "android": "https://dc.lft.to/lastmile_qr_scan"}}, {"is_disabled": 0, "fusion_lat": 0.0, "lat": 38.90146166666667, "type": "electric_scooter", "lon": -77.04237633333334, "is_reserved": 0, "fusion_lon": 0.0, "bike_id": "2b95f1351281d991d201b3060646a75e", "name": "2b95f1351281d991d201b3060646a75e", "rental_uris": {"ios": "https://dc.lft.to/lastmile_qr_scan", "android": "https://dc.lft.to/lastmile_qr_scan"}}, {"is_disabled": 0, "fusion_lat": 0.0, "lat": 38.904237, "type": "electric_scooter", "lon": -77.04859783333333, "is_reserved": 0, "fusion_lon": 0.0, "bike_id": "8ac2b048678a583fde9d1af5b879872c", "name": "8ac2b048678a583fde9d1af5b879872c", "rental_uris": {"ios": "https://dc.lft.to/lastmile_qr_scan", "android": "https://dc.lft.to/lastmile_qr_scan"}}, {"is_disabled": 0, "fusion_lat": 0.0, "lat": 38.9192185, "type": "electric_scooter", "lon": -77.03422716666667, "is_reserved": 0, "fusion_lon": 0.0, "bike_id": "ef567a08f00b78492f3eede49598b92b", "name": "ef567a08f00b78492f3eede49598b92b", "rental_uris": {"ios": "https://dc.lft.to/lastmile_qr_scan", "android": "https://dc.lft.to/lastmile_qr_scan"}}, {"is_disabled": 0, "fusion_lat": 0.0, "lat": 38.9282575, "type": "electric_scooter", "lon": -77.02254733333334, "is_reserved": 0, "fusion_lon": 0.0, "bike_id": "049650f4fd7198bdb33d178a9c69d4c5", "name": "049650f4fd7198bdb33d178a9c69d4c5", "rental_uris": {"ios": "https://dc.lft.to/lastmile_qr_scan", "android": "https://dc.lft.to/lastmile_qr_scan"}}, {"is_disabled": 0, "fusion_lat": 0.0, "lat": 38.918088, "type": "electric_scooter", "lon": -77.03345433333334, "is_reserved": 0, "fusion_lon": 0.0, "bike_id": "46414a45aac7b958300dc0946b25a620", "name": "46414a45aac7b958300dc0946b25a620", "rental_uris": {"ios": "https://dc.lft.to/lastmile_qr_scan", "android": "https://dc.lft.to/lastmile_qr_scan"}}, {"is_disabled": 0, "fusion_lat": 0.0, "lat": 38.93087516666667, "type": "electric_scooter", "lon": -76.96719433333334, "is_reserved": 0, "fusion_lon": 0.0, "bike_id": "6304fb7e0ffdb5c9639e82dfa453e1e9", "name": "6304fb7e0ffdb5c9639e82dfa453e1e9", "rental_uris": {"ios": "https://dc.lft.to/lastmile_qr_scan", "android": "https://dc.lft.to/lastmile_qr_scan"}}, {"is_disabled": 0, "fusion_lat": 0.0, "lat": 38.90766433333334, "type": "electric_scooter", "lon": -77.06915966666666, "is_reserved": 0, "fusion_lon": 0.0, "bike_id": "1d6080e20716429de1c81af10032dfa8", "name": "1d6080e20716429de1c81af10032dfa8", "rental_uris": {"ios": "https://dc.lft.to/lastmile_qr_scan", "android": "https://dc.lft.to/lastmile_qr_scan"}}, {"is_disabled": 0, "fusion_lat": 0.0, "lat": 39.000091833333336, "type": "electric_bike", "lon": -76.91049183333334, "is_reserved": 0, "fusion_lon": 0.0, "bike_id": "8b1565d0516cbe4b40ba24e786a8ec22", "name": "8b1565d0516cbe4b40ba24e786a8ec22", "rental_uris": {"ios": "https://dc.lft.to/lastmile_qr_scan", "android": "https://dc.lft.to/lastmile_qr_scan"}}, {"is_disabled": 0, "fusion_lat": 0.0, "lat": 38.92185966666667, "type": "electric_scooter", "lon": -77.018356, "is_reserved": 0, "fusion_lon": 0.0, "bike_id": "7045388069e975cd78c665995cfa57ef", "name": "7045388069e975cd78c665995cfa57ef", "rental_uris": {"ios": "https://dc.lft.to/lastmile_qr_scan", "android": "https://dc.lft.to/lastmile_qr_scan"}}, {"is_disabled": 0, "fusion_lat": 0.0, "lat": 38.936140333333334, "type": "electric_scooter", "lon": -77.03215433333334, "is_reserved": 0, "fusion_lon": 0.0, "bike_id": "af7fbc054f21185a2f45036bf18e94fa", "name": "af7fbc054f21185a2f45036bf18e94fa", "rental_uris": {"ios": "https://dc.lft.to/lastmile_qr_scan", "android": "https://dc.lft.to/lastmile_qr_scan"}}, {"is_disabled": 0, "fusion_lat": 0.0, "lat": 38.915725, "type": "electric_scooter", "lon": -77.03209633333333, "is_reserved": 0, "fusion_lon": 0.0, "bike_id": "c666eede591ab639ecb52a53b6bcd8cb", "name": "c666eede591ab639ecb52a53b6bcd8cb", "rental_uris": {"ios": "https://dc.lft.to/lastmile_qr_scan", "android": "https://dc.lft.to/lastmile_qr_scan"}}, {"is_disabled": 0, "fusion_lat": 0.0, "lat": 39.03043566666667, "type": "electric_bike", "lon": -77.0948545, "is_reserved": 0, "fusion_lon": 0.0, "bike_id": "8dce29467ddfb1a292d0ae42b0be3e1a", "name": "8dce29467ddfb1a292d0ae42b0be3e1a", "rental_uris": {"ios": "https://dc.lft.to/lastmile_qr_scan", "android": "https://dc.lft.to/lastmile_qr_scan"}}, {"is_disabled": 0, "fusion_lat": 0.0, "lat": 38.893869333333335, "type": "electric_scooter", "lon": -76.99867116666667, "is_reserved": 0, "fusion_lon": 0.0, "bike_id": "ff5a6627bedad6d00a391e6d3045f835", "name": "ff5a6627bedad6d00a391e6d3045f835", "rental_uris": {"ios": "https://dc.lft.to/lastmile_qr_scan", "android": "https://dc.lft.to/lastmile_qr_scan"}}, {"is_disabled": 0, "fusion_lat": 0.0, "lat": 38.9182765, "type": "electric_scooter", "lon": -77.03841833333334, "is_reserved": 0, "fusion_lon": 0.0, "bike_id": "c216b8e8984ae1ec42f31999144922b6", "name": "c216b8e8984ae1ec42f31999144922b6", "rental_uris": {"ios": "https://dc.lft.to/lastmile_qr_scan", "android": "https://dc.lft.to/lastmile_qr_scan"}}, {"is_disabled": 0, "fusion_lat": 0.0, "lat": 39.02428283333333, "type": "electric_bike", "lon": -77.13096433333334, "is_reserved": 0, "fusion_lon": 0.0, "bike_id": "270ce436303d428d45521606090344b3", "name": "270ce436303d428d45521606090344b3", "rental_uris": {"ios": "https://dc.lft.to/lastmile_qr_scan", "android": "https://dc.lft.to/lastmile_qr_scan"}}, {"is_disabled": 0, "fusion_lat": 0.0, "lat": 38.897957, "type": "electric_scooter", "lon": -77.019099, "is_reserved": 0, "fusion_lon": 0.0, "bike_id": "05872dc5ee3a19535c3b97ba8b183425", "name": "05872dc5ee3a19535c3b97ba8b183425", "rental_uris": {"ios": "https://dc.lft.to/lastmile_qr_scan", "android": "https://dc.lft.to/lastmile_qr_scan"}}, {"is_disabled": 0, "fusion_lat": 0.0, "lat": 38.913001666666666, "type": "electric_bike", "lon": -77.08292566666667, "is_reserved": 0, "fusion_lon": 0.0, "bike_id": "de15f34ace99383611deea12ac48276b", "name": "de15f34ace99383611deea12ac48276b", "rental_uris": {"ios": "https://dc.lft.to/lastmile_qr_scan", "android": "https://dc.lft.to/lastmile_qr_scan"}}, {"is_disabled": 0, "fusion_lat": 0.0, "lat": 38.87918483333333, "type": "electric_scooter", "lon": -76.992502, "is_reserved": 0, "fusion_lon": 0.0, "bike_id": "0ce9a417afb5c4a709b58e11110887ee", "name": "0ce9a417afb5c4a709b58e11110887ee", "rental_uris": {"ios": "https://dc.lft.to/lastmile_qr_scan", "android": "https://dc.lft.to/lastmile_qr_scan"}}, {"is_disabled": 0, "fusion_lat": 0.0, "lat": 38.937926, "type": "electric_scooter", "lon": -77.06000283333333, "is_reserved": 0, "fusion_lon": 0.0, "bike_id": "62442494fb3eeb753fbdd4cc97051dd1", "name": "62442494fb3eeb753fbdd4cc97051dd1", "rental_uris": {"ios": "https://dc.lft.to/lastmile_qr_scan", "android": "https://dc.lft.to/lastmile_qr_scan"}}, {"is_disabled": 0, "fusion_lat": 0.0, "lat": 38.92287433333333, "type": "electric_scooter", "lon": -77.04139033333334, "is_reserved": 0, "fusion_lon": 0.0, "bike_id": "69bc5cac0dc157dfc97b9383a5ce1850", "name": "69bc5cac0dc157dfc97b9383a5ce1850", "rental_uris": {"ios": "https://dc.lft.to/lastmile_qr_scan", "android": "https://dc.lft.to/lastmile_qr_scan"}}, {"is_disabled": 0, "fusion_lat": 0.0, "lat": 38.912479166666664, "type": "electric_scooter", "lon": -77.02228533333333, "is_reserved": 0, "fusion_lon": 0.0, "bike_id": "10a32b6ad47878a3736c47221c45b26f", "name": "10a32b6ad47878a3736c47221c45b26f", "rental_uris": {"ios": "https://dc.lft.to/lastmile_qr_scan", "android": "https://dc.lft.to/lastmile_qr_scan"}}, {"is_disabled": 0, "fusion_lat": 0.0, "lat": 38.93362833333333, "type": "electric_scooter", "lon": -77.03447083333333, "is_reserved": 0, "fusion_lon": 0.0, "bike_id": "46b75b8749c6e71743bff8fa7974ef74", "name": "46b75b8749c6e71743bff8fa7974ef74", "rental_uris": {"ios": "https://dc.lft.to/lastmile_qr_scan", "android": "https://dc.lft.to/lastmile_qr_scan"}}, {"is_disabled": 0, "fusion_lat": 0.0, "lat": 38.91693083333333, "type": "electric_scooter", "lon": -77.01233483333333, "is_reserved": 0, "fusion_lon": 0.0, "bike_id": "423995a382e39678e12adf8b93614f67", "name": "423995a382e39678e12adf8b93614f67", "rental_uris": {"ios": "https://dc.lft.to/lastmile_qr_scan", "android": "https://dc.lft.to/lastmile_qr_scan"}}, {"is_disabled": 0, "fusion_lat": 0.0, "lat": 38.913253166666664, "type": "electric_scooter", "lon": -77.04817416666667, "is_reserved": 0, "fusion_lon": 0.0, "bike_id": "21333393a759ca75539a853fbbf3bbe6", "name": "21333393a759ca75539a853fbbf3bbe6", "rental_uris": {"ios": "https://dc.lft.to/lastmile_qr_scan", "android": "https://dc.lft.to/lastmile_qr_scan"}}, {"is_disabled": 0, "fusion_lat": 0.0, "lat": 38.923819, "type": "electric_scooter", "lon": -77.00066766666667, "is_reserved": 0, "fusion_lon": 0.0, "bike_id": "e4d2bca2c8c7ffba5d80799e2624091a", "name": "e4d2bca2c8c7ffba5d80799e2624091a", "rental_uris": {"ios": "https://dc.lft.to/lastmile_qr_scan", "android": "https://dc.lft.to/lastmile_qr_scan"}}, {"is_disabled": 0, "fusion_lat": 0.0, "lat": 38.94926483333333, "type": "electric_scooter", "lon": -77.01937383333333, "is_reserved": 0, "fusion_lon": 0.0, "bike_id": "0a98ffa417696ea28ca724f821134aa0", "name": "0a98ffa417696ea28ca724f821134aa0", "rental_uris": {"ios": "https://dc.lft.to/lastmile_qr_scan", "android": "https://dc.lft.to/lastmile_qr_scan"}}, {"is_disabled": 0, "fusion_lat": 0.0, "lat": 38.927369166666665, "type": "electric_bike", "lon": -76.99365616666667, "is_reserved": 0, "fusion_lon": 0.0, "bike_id": "5b9c6044dddf1578c0f583923db795da", "name": "5b9c6044dddf1578c0f583923db795da", "rental_uris": {"ios": "https://dc.lft.to/lastmile_qr_scan", "android": "https://dc.lft.to/lastmile_qr_scan"}}, {"is_disabled": 0, "fusion_lat": 0.0, "lat": 38.9056575, "type": "electric_scooter", "lon": -77.02984166666667, "is_reserved": 0, "fusion_lon": 0.0, "bike_id": "de823c683b5870c3580e422d969888f1", "name": "de823c683b5870c3580e422d969888f1", "rental_uris": {"ios": "https://dc.lft.to/lastmile_qr_scan", "android": "https://dc.lft.to/lastmile_qr_scan"}}, {"is_disabled": 0, "fusion_lat": 0.0, "lat": 38.9237495, "type": "electric_scooter", "lon": -77.01915933333333, "is_reserved": 0, "fusion_lon": 0.0, "bike_id": "d5c656e53853bde0b84117b7697a9bf6", "name": "d5c656e53853bde0b84117b7697a9bf6", "rental_uris": {"ios": "https://dc.lft.to/lastmile_qr_scan", "android": "https://dc.lft.to/lastmile_qr_scan"}}, {"is_disabled": 0, "fusion_lat": 0.0, "lat": 38.93083983333333, "type": "electric_scooter", "lon": -77.07791366666666, "is_reserved": 0, "fusion_lon": 0.0, "bike_id": "e7621470bb778c36355b940729f15fa3", "name": "e7621470bb778c36355b940729f15fa3", "rental_uris": {"ios": "https://dc.lft.to/lastmile_qr_scan", "android": "https://dc.lft.to/lastmile_qr_scan"}}, {"is_disabled": 0, "fusion_lat": 0.0, "lat": 38.89843116666667, "type": "electric_scooter", "lon": -77.03952883333334, "is_reserved": 0, "fusion_lon": 0.0, "bike_id": "4aac17eeccc56c1654eef95092173ddc", "name": "4aac17eeccc56c1654eef95092173ddc", "rental_uris": {"ios": "https://dc.lft.to/lastmile_qr_scan", "android": "https://dc.lft.to/lastmile_qr_scan"}}, {"is_disabled": 0, "fusion_lat": 0.0, "lat": 38.864518833333335, "type": "electric_bike", "lon": -76.9454795, "is_reserved": 0, "fusion_lon": 0.0, "bike_id": "2746032636c40a96d297a0e871f74f33", "name": "2746032636c40a96d297a0e871f74f33", "rental_uris": {"ios": "https://dc.lft.to/lastmile_qr_scan", "android": "https://dc.lft.to/lastmile_qr_scan"}}, {"is_disabled": 0, "fusion_lat": 0.0, "lat": 38.95636233333333, "type": "electric_scooter", "lon": -77.03300083333333, "is_reserved": 0, "fusion_lon": 0.0, "bike_id": "16667b62473a9f53c60c7bc3092c5b23", "name": "16667b62473a9f53c60c7bc3092c5b23", "rental_uris": {"ios": "https://dc.lft.to/lastmile_qr_scan", "android": "https://dc.lft.to/lastmile_qr_scan"}}, {"is_disabled": 0, "fusion_lat": 0.0, "lat": 38.871440166666666, "type": "electric_bike", "lon": -76.93700683333333, "is_reserved": 0, "fusion_lon": 0.0, "bike_id": "1a7f11860ce836ddcd6fb6db8ce71295", "name": "1a7f11860ce836ddcd6fb6db8ce71295", "rental_uris": {"ios": "https://dc.lft.to/lastmile_qr_scan", "android": "https://dc.lft.to/lastmile_qr_scan"}}, {"is_disabled": 0, "fusion_lat": 0.0, "lat": 38.89801, "type": "electric_scooter", "lon": -76.9916765, "is_reserved": 0, "fusion_lon": 0.0, "bike_id": "ff87bdb0c9adbf88709b3b1b7fea5632", "name": "ff87bdb0c9adbf88709b3b1b7fea5632", "rental_uris": {"ios": "https://dc.lft.to/lastmile_qr_scan", "android": "https://dc.lft.to/lastmile_qr_scan"}}, {"is_disabled": 0, "fusion_lat": 0.0, "lat": 38.916617333333335, "type": "electric_scooter", "lon": -77.0415855, "is_reserved": 0, "fusion_lon": 0.0, "bike_id": "8d547adce0b269c5ae7d76c1965e8041", "name": "8d547adce0b269c5ae7d76c1965e8041", "rental_uris": {"ios": "https://dc.lft.to/lastmile_qr_scan", "android": "https://dc.lft.to/lastmile_qr_scan"}}, {"is_disabled": 0, "fusion_lat": 0.0, "lat": 38.91566066666667, "type": "electric_scooter", "lon": -77.020756, "is_reserved": 0, "fusion_lon": 0.0, "bike_id": "2fbdf32806c702d780d0a26fea3f85eb", "name": "2fbdf32806c702d780d0a26fea3f85eb", "rental_uris": {"ios": "https://dc.lft.to/lastmile_qr_scan", "android": "https://dc.lft.to/lastmile_qr_scan"}}, {"is_disabled": 0, "fusion_lat": 0.0, "lat": 38.917017666666666, "type": "electric_scooter", "lon": -77.00722766666667, "is_reserved": 0, "fusion_lon": 0.0, "bike_id": "e8ede8307ef3315e57530c6bad1391bc", "name": "e8ede8307ef3315e57530c6bad1391bc", "rental_uris": {"ios": "https://dc.lft.to/lastmile_qr_scan", "android": "https://dc.lft.to/lastmile_qr_scan"}}, {"is_disabled": 0, "fusion_lat": 0.0, "lat": 38.93671233333333, "type": "electric_bike", "lon": -76.95226933333333, "is_reserved": 0, "fusion_lon": 0.0, "bike_id": "54f525feb6efd57b3c634b364f31ed4b", "name": "54f525feb6efd57b3c634b364f31ed4b", "rental_uris": {"ios": "https://dc.lft.to/lastmile_qr_scan", "android": "https://dc.lft.to/lastmile_qr_scan"}}, {"is_disabled": 0, "fusion_lat": 0.0, "lat": 38.870074, "type": "electric_bike", "lon": -76.9602135, "is_reserved": 0, "fusion_lon": 0.0, "bike_id": "7ca35dcf80a066a4edf4ee1a341aa9eb", "name": "7ca35dcf80a066a4edf4ee1a341aa9eb", "rental_uris": {"ios": "https://dc.lft.to/lastmile_qr_scan", "android": "https://dc.lft.to/lastmile_qr_scan"}}, {"is_disabled": 0, "fusion_lat": 0.0, "lat": 38.917563, "type": "electric_scooter", "lon": -77.0319115, "is_reserved": 0, "fusion_lon": 0.0, "bike_id": "db2e9221efec708b77da89e67dc64aa0", "name": "db2e9221efec708b77da89e67dc64aa0", "rental_uris": {"ios": "https://dc.lft.to/lastmile_qr_scan", "android": "https://dc.lft.to/lastmile_qr_scan"}}, {"is_disabled": 0, "fusion_lat": 0.0, "lat": 38.8368745, "type": "electric_scooter", "lon": -77.00587766666666, "is_reserved": 0, "fusion_lon": 0.0, "bike_id": "3fbf16d8ebc7c1680f56b86cf9daa35b", "name": "3fbf16d8ebc7c1680f56b86cf9daa35b", "rental_uris": {"ios": "https://dc.lft.to/lastmile_qr_scan", "android": "https://dc.lft.to/lastmile_qr_scan"}}, {"is_disabled": 0, "fusion_lat": 0.0, "lat": 38.91839266666667, "type": "electric_scooter", "lon": -77.03208933333333, "is_reserved": 0, "fusion_lon": 0.0, "bike_id": "ea72b01c65569ec59426516dd66f0fc8", "name": "ea72b01c65569ec59426516dd66f0fc8", "rental_uris": {"ios": "https://dc.lft.to/lastmile_qr_scan", "android": "https://dc.lft.to/lastmile_qr_scan"}}, {"is_disabled": 0, "fusion_lat": 0.0, "lat": 38.90260383333333, "type": "electric_scooter", "lon": -77.01769166666666, "is_reserved": 0, "fusion_lon": 0.0, "bike_id": "54a1e9a94bd1b0b179d157b2e99cb152", "name": "54a1e9a94bd1b0b179d157b2e99cb152", "rental_uris": {"ios": "https://dc.lft.to/lastmile_qr_scan", "android": "https://dc.lft.to/lastmile_qr_scan"}}, {"is_disabled": 0, "fusion_lat": 0.0, "lat": 38.900274833333334, "type": "electric_scooter", "lon": -76.99749666666666, "is_reserved": 0, "fusion_lon": 0.0, "bike_id": "35bc8da530d67fd3bc7c4ed2a26e8d25", "name": "35bc8da530d67fd3bc7c4ed2a26e8d25", "rental_uris": {"ios": "https://dc.lft.to/lastmile_qr_scan", "android": "https://dc.lft.to/lastmile_qr_scan"}}, {"is_disabled": 0, "fusion_lat": 0.0, "lat": 38.9277195, "type": "electric_scooter", "lon": -77.02710366666666, "is_reserved": 0, "fusion_lon": 0.0, "bike_id": "e7ef66e7f6fe6b3ebdbfd5549b9b5fa5", "name": "e7ef66e7f6fe6b3ebdbfd5549b9b5fa5", "rental_uris": {"ios": "https://dc.lft.to/lastmile_qr_scan", "android": "https://dc.lft.to/lastmile_qr_scan"}}, {"is_disabled": 0, "fusion_lat": 0.0, "lat": 38.93850316666666, "type": "electric_scooter", "lon": -77.03386066666667, "is_reserved": 0, "fusion_lon": 0.0, "bike_id": "64f5b9e64ecf2cda24218d965738806c", "name": "64f5b9e64ecf2cda24218d965738806c", "rental_uris": {"ios": "https://dc.lft.to/lastmile_qr_scan", "android": "https://dc.lft.to/lastmile_qr_scan"}}, {"is_disabled": 0, "fusion_lat": 0.0, "lat": 38.93610916666667, "type": "electric_scooter", "lon": -77.08177966666666, "is_reserved": 0, "fusion_lon": 0.0, "bike_id": "efa3f48a41dfa21971c05515ec26ea9d", "name": "efa3f48a41dfa21971c05515ec26ea9d", "rental_uris": {"ios": "https://dc.lft.to/lastmile_qr_scan", "android": "https://dc.lft.to/lastmile_qr_scan"}}, {"is_disabled": 0, "fusion_lat": 0.0, "lat": 38.923585833333334, "type": "electric_scooter", "lon": -77.05085366666667, "is_reserved": 0, "fusion_lon": 0.0, "bike_id": "68c5567d4b2a9b6929a4598dcb769f88", "name": "68c5567d4b2a9b6929a4598dcb769f88", "rental_uris": {"ios": "https://dc.lft.to/lastmile_qr_scan", "android": "https://dc.lft.to/lastmile_qr_scan"}}, {"is_disabled": 0, "fusion_lat": 0.0, "lat": 38.93497083333333, "type": "electric_scooter", "lon": -77.058033, "is_reserved": 0, "fusion_lon": 0.0, "bike_id": "a71a42b5b970dcbad01a492d145e79be", "name": "a71a42b5b970dcbad01a492d145e79be", "rental_uris": {"ios": "https://dc.lft.to/lastmile_qr_scan", "android": "https://dc.lft.to/lastmile_qr_scan"}}, {"is_disabled": 0, "fusion_lat": 0.0, "lat": 38.88034866666667, "type": "electric_scooter", "lon": -77.01929266666667, "is_reserved": 0, "fusion_lon": 0.0, "bike_id": "82f15a6f1321a714746f4a1fe3536c31", "name": "82f15a6f1321a714746f4a1fe3536c31", "rental_uris": {"ios": "https://dc.lft.to/lastmile_qr_scan", "android": "https://dc.lft.to/lastmile_qr_scan"}}, {"is_disabled": 0, "fusion_lat": 0.0, "lat": 38.90037183333333, "type": "electric_scooter", "lon": -77.00198616666667, "is_reserved": 0, "fusion_lon": 0.0, "bike_id": "d0b6c4809095969dfc21fe16a6a52e90", "name": "d0b6c4809095969dfc21fe16a6a52e90", "rental_uris": {"ios": "https://dc.lft.to/lastmile_qr_scan", "android": "https://dc.lft.to/lastmile_qr_scan"}}, {"is_disabled": 0, "fusion_lat": 0.0, "lat": 38.905053, "type": "electric_scooter", "lon": -76.97924233333333, "is_reserved": 0, "fusion_lon": 0.0, "bike_id": "693b8d9e959af3845e0380ca7239dcec", "name": "693b8d9e959af3845e0380ca7239dcec", "rental_uris": {"ios": "https://dc.lft.to/lastmile_qr_scan", "android": "https://dc.lft.to/lastmile_qr_scan"}}, {"is_disabled": 0, "fusion_lat": 0.0, "lat": 39.02933016666667, "type": "electric_bike", "lon": -77.04926216666667, "is_reserved": 0, "fusion_lon": 0.0, "bike_id": "d17496bc944f6ff2ae34aecb7b0cbf9f", "name": "d17496bc944f6ff2ae34aecb7b0cbf9f", "rental_uris": {"ios": "https://dc.lft.to/lastmile_qr_scan", "android": "https://dc.lft.to/lastmile_qr_scan"}}, {"is_disabled": 0, "fusion_lat": 0.0, "lat": 38.90857233333333, "type": "electric_bike", "lon": -77.08078466666667, "is_reserved": 0, "fusion_lon": 0.0, "bike_id": "ecc62d6831c8fbcd66beb897badf94e8", "name": "ecc62d6831c8fbcd66beb897badf94e8", "rental_uris": {"ios": "https://dc.lft.to/lastmile_qr_scan", "android": "https://dc.lft.to/lastmile_qr_scan"}}, {"is_disabled": 0, "fusion_lat": 0.0, "lat": 38.935263666666664, "type": "electric_scooter", "lon": -77.02369983333334, "is_reserved": 0, "fusion_lon": 0.0, "bike_id": "282047287ec276be230eef31897e0b03", "name": "282047287ec276be230eef31897e0b03", "rental_uris": {"ios": "https://dc.lft.to/lastmile_qr_scan", "android": "https://dc.lft.to/lastmile_qr_scan"}}, {"is_disabled": 0, "fusion_lat": 0.0, "lat": 38.91098866666667, "type": "electric_scooter", "lon": -77.04202666666667, "is_reserved": 0, "fusion_lon": 0.0, "bike_id": "502ab9855e62ed91c9ce5b88cd9d43ad", "name": "502ab9855e62ed91c9ce5b88cd9d43ad", "rental_uris": {"ios": "https://dc.lft.to/lastmile_qr_scan", "android": "https://dc.lft.to/lastmile_qr_scan"}}, {"is_disabled": 0, "fusion_lat": 0.0, "lat": 38.95641466666667, "type": "electric_scooter", "lon": -76.99794433333334, "is_reserved": 0, "fusion_lon": 0.0, "bike_id": "fc7cab02bea364cd5317165942219fa0", "name": "fc7cab02bea364cd5317165942219fa0", "rental_uris": {"ios": "https://dc.lft.to/lastmile_qr_scan", "android": "https://dc.lft.to/lastmile_qr_scan"}}, {"is_disabled": 0, "fusion_lat": 0.0, "lat": 38.88229483333333, "type": "electric_scooter", "lon": -76.99092533333334, "is_reserved": 0, "fusion_lon": 0.0, "bike_id": "bec9c1ad4f9e4e02df835b058fdf7752", "name": "bec9c1ad4f9e4e02df835b058fdf7752", "rental_uris": {"ios": "https://dc.lft.to/lastmile_qr_scan", "android": "https://dc.lft.to/lastmile_qr_scan"}}, {"is_disabled": 0, "fusion_lat": 0.0, "lat": 38.88608633333333, "type": "electric_scooter", "lon": -77.01968666666667, "is_reserved": 0, "fusion_lon": 0.0, "bike_id": "6898c015b4bd0989dcdaad7bd944d0e5", "name": "6898c015b4bd0989dcdaad7bd944d0e5", "rental_uris": {"ios": "https://dc.lft.to/lastmile_qr_scan", "android": "https://dc.lft.to/lastmile_qr_scan"}}, {"is_disabled": 0, "fusion_lat": 0.0, "lat": 38.879764333333334, "type": "electric_scooter", "lon": -76.985451, "is_reserved": 0, "fusion_lon": 0.0, "bike_id": "5f40bd69433d2b0805b2340780db110a", "name": "5f40bd69433d2b0805b2340780db110a", "rental_uris": {"ios": "https://dc.lft.to/lastmile_qr_scan", "android": "https://dc.lft.to/lastmile_qr_scan"}}, {"is_disabled": 0, "fusion_lat": 0.0, "lat": 38.991441, "type": "electric_scooter", "lon": -77.04738566666667, "is_reserved": 0, "fusion_lon": 0.0, "bike_id": "228a260291c3d58a1e8e0b4a30dd80c4", "name": "228a260291c3d58a1e8e0b4a30dd80c4", "rental_uris": {"ios": "https://dc.lft.to/lastmile_qr_scan", "android": "https://dc.lft.to/lastmile_qr_scan"}}, {"is_disabled": 0, "fusion_lat": 0.0, "lat": 38.88738466666667, "type": "electric_scooter", "lon": -77.02022783333334, "is_reserved": 0, "fusion_lon": 0.0, "bike_id": "09d128f84bce08c0c2bef26f2136ae0d", "name": "09d128f84bce08c0c2bef26f2136ae0d", "rental_uris": {"ios": "https://dc.lft.to/lastmile_qr_scan", "android": "https://dc.lft.to/lastmile_qr_scan"}}, {"is_disabled": 0, "fusion_lat": 0.0, "lat": 38.90404783333334, "type": "electric_scooter", "lon": -77.05322983333333, "is_reserved": 0, "fusion_lon": 0.0, "bike_id": "4d472e5159fb0290300532605b68d886", "name": "4d472e5159fb0290300532605b68d886", "rental_uris": {"ios": "https://dc.lft.to/lastmile_qr_scan", "android": "https://dc.lft.to/lastmile_qr_scan"}}, {"is_disabled": 0, "fusion_lat": 0.0, "lat": 38.91984383333333, "type": "electric_scooter", "lon": -76.973079, "is_reserved": 0, "fusion_lon": 0.0, "bike_id": "0d0d15b1e637284d04e71e080b39d9cc", "name": "0d0d15b1e637284d04e71e080b39d9cc", "rental_uris": {"ios": "https://dc.lft.to/lastmile_qr_scan", "android": "https://dc.lft.to/lastmile_qr_scan"}}, {"is_disabled": 0, "fusion_lat": 0.0, "lat": 38.960211, "type": "electric_bike", "lon": -77.01732016666666, "is_reserved": 0, "fusion_lon": 0.0, "bike_id": "81e13bcaa0197acc42167e2057369abe", "name": "81e13bcaa0197acc42167e2057369abe", "rental_uris": {"ios": "https://dc.lft.to/lastmile_qr_scan", "android": "https://dc.lft.to/lastmile_qr_scan"}}, {"is_disabled": 0, "fusion_lat": 0.0, "lat": 38.936063833333336, "type": "electric_scooter", "lon": -77.03757366666666, "is_reserved": 0, "fusion_lon": 0.0, "bike_id": "948a198bdbd818f2deedb84acc977deb", "name": "948a198bdbd818f2deedb84acc977deb", "rental_uris": {"ios": "https://dc.lft.to/lastmile_qr_scan", "android": "https://dc.lft.to/lastmile_qr_scan"}}, {"is_disabled": 0, "fusion_lat": 0.0, "lat": 38.9026035, "type": "electric_scooter", "lon": -77.0384395, "is_reserved": 0, "fusion_lon": 0.0, "bike_id": "e2d33574e09d765266047e3dbbdbf6b2", "name": "e2d33574e09d765266047e3dbbdbf6b2", "rental_uris": {"ios": "https://dc.lft.to/lastmile_qr_scan", "android": "https://dc.lft.to/lastmile_qr_scan"}}, {"is_disabled": 0, "fusion_lat": 0.0, "lat": 38.902002333333336, "type": "electric_scooter", "lon": -77.02214333333333, "is_reserved": 0, "fusion_lon": 0.0, "bike_id": "010caf49f6a79c3fbe15f5ba48821454", "name": "010caf49f6a79c3fbe15f5ba48821454", "rental_uris": {"ios": "https://dc.lft.to/lastmile_qr_scan", "android": "https://dc.lft.to/lastmile_qr_scan"}}, {"is_disabled": 0, "fusion_lat": 0.0, "lat": 38.9110145, "type": "electric_scooter", "lon": -77.041999, "is_reserved": 0, "fusion_lon": 0.0, "bike_id": "3c22a9cd7085f9dc3bcc5a46144d88d3", "name": "3c22a9cd7085f9dc3bcc5a46144d88d3", "rental_uris": {"ios": "https://dc.lft.to/lastmile_qr_scan", "android": "https://dc.lft.to/lastmile_qr_scan"}}, {"is_disabled": 0, "fusion_lat": 0.0, "lat": 38.915482, "type": "electric_scooter", "lon": -77.03846033333333, "is_reserved": 0, "fusion_lon": 0.0, "bike_id": "f4ac91ff59d6ba64342b8c200f2ccce7", "name": "f4ac91ff59d6ba64342b8c200f2ccce7", "rental_uris": {"ios": "https://dc.lft.to/lastmile_qr_scan", "android": "https://dc.lft.to/lastmile_qr_scan"}}, {"is_disabled": 0, "fusion_lat": 0.0, "lat": 38.92154466666667, "type": "electric_scooter", "lon": -77.0354475, "is_reserved": 0, "fusion_lon": 0.0, "bike_id": "6b769d2a61d0d32541a9075401dd2eab", "name": "6b769d2a61d0d32541a9075401dd2eab", "rental_uris": {"ios": "https://dc.lft.to/lastmile_qr_scan", "android": "https://dc.lft.to/lastmile_qr_scan"}}, {"is_disabled": 0, "fusion_lat": 0.0, "lat": 38.90838466666666, "type": "electric_scooter", "lon": -77.0269865, "is_reserved": 0, "fusion_lon": 0.0, "bike_id": "f6a67130534da11d52012a6a58be4acc", "name": "f6a67130534da11d52012a6a58be4acc", "rental_uris": {"ios": "https://dc.lft.to/lastmile_qr_scan", "android": "https://dc.lft.to/lastmile_qr_scan"}}, {"is_disabled": 0, "fusion_lat": 0.0, "lat": 38.92038516666667, "type": "electric_scooter", "lon": -76.979069, "is_reserved": 0, "fusion_lon": 0.0, "bike_id": "ff279a9e0ae059709e1fd54da79ef839", "name": "ff279a9e0ae059709e1fd54da79ef839", "rental_uris": {"ios": "https://dc.lft.to/lastmile_qr_scan", "android": "https://dc.lft.to/lastmile_qr_scan"}}, {"is_disabled": 0, "fusion_lat": 0.0, "lat": 38.90319316666667, "type": "electric_scooter", "lon": -77.0378875, "is_reserved": 0, "fusion_lon": 0.0, "bike_id": "d3141ce42d50d98cf5642871be2b0630", "name": "d3141ce42d50d98cf5642871be2b0630", "rental_uris": {"ios": "https://dc.lft.to/lastmile_qr_scan", "android": "https://dc.lft.to/lastmile_qr_scan"}}, {"is_disabled": 0, "fusion_lat": 0.0, "lat": 38.894831333333336, "type": "electric_scooter", "lon": -77.02182016666667, "is_reserved": 0, "fusion_lon": 0.0, "bike_id": "4afbc1323d84eae7dd553186fc53bddd", "name": "4afbc1323d84eae7dd553186fc53bddd", "rental_uris": {"ios": "https://dc.lft.to/lastmile_qr_scan", "android": "https://dc.lft.to/lastmile_qr_scan"}}, {"is_disabled": 0, "fusion_lat": 0.0, "lat": 38.905067, "type": "electric_scooter", "lon": -77.0478615, "is_reserved": 0, "fusion_lon": 0.0, "bike_id": "1fe4b09e7762b5fe495b11bd8bc4e122", "name": "1fe4b09e7762b5fe495b11bd8bc4e122", "rental_uris": {"ios": "https://dc.lft.to/lastmile_qr_scan", "android": "https://dc.lft.to/lastmile_qr_scan"}}, {"is_disabled": 0, "fusion_lat": 0.0, "lat": 38.914022, "type": "electric_scooter", "lon": -77.0184535, "is_reserved": 0, "fusion_lon": 0.0, "bike_id": "5db6682d57018dedd7b429f190cd74a7", "name": "5db6682d57018dedd7b429f190cd74a7", "rental_uris": {"ios": "https://dc.lft.to/lastmile_qr_scan", "android": "https://dc.lft.to/lastmile_qr_scan"}}, {"is_disabled": 0, "fusion_lat": 0.0, "lat": 38.90622966666667, "type": "electric_scooter", "lon": -77.03967983333334, "is_reserved": 0, "fusion_lon": 0.0, "bike_id": "b83463d27a7a6cbb0179541b4ce225ae", "name": "b83463d27a7a6cbb0179541b4ce225ae", "rental_uris": {"ios": "https://dc.lft.to/lastmile_qr_scan", "android": "https://dc.lft.to/lastmile_qr_scan"}}, {"is_disabled": 0, "fusion_lat": 0.0, "lat": 38.892238, "type": "electric_scooter", "lon": -77.04637866666667, "is_reserved": 0, "fusion_lon": 0.0, "bike_id": "dd3e47cac86b19fd27340228a4f2ebde", "name": "dd3e47cac86b19fd27340228a4f2ebde", "rental_uris": {"ios": "https://dc.lft.to/lastmile_qr_scan", "android": "https://dc.lft.to/lastmile_qr_scan"}}, {"is_disabled": 0, "fusion_lat": 0.0, "lat": 38.89368983333333, "type": "electric_scooter", "lon": -76.94960983333333, "is_reserved": 0, "fusion_lon": 0.0, "bike_id": "fb38a8e1265b8d31bffa33db8f0f40ec", "name": "fb38a8e1265b8d31bffa33db8f0f40ec", "rental_uris": {"ios": "https://dc.lft.to/lastmile_qr_scan", "android": "https://dc.lft.to/lastmile_qr_scan"}}, {"is_disabled": 0, "fusion_lat": 0.0, "lat": 38.9291495, "type": "electric_scooter", "lon": -77.03182583333333, "is_reserved": 0, "fusion_lon": 0.0, "bike_id": "f495c5e7967e7ea8d60a67b712c5f087", "name": "f495c5e7967e7ea8d60a67b712c5f087", "rental_uris": {"ios": "https://dc.lft.to/lastmile_qr_scan", "android": "https://dc.lft.to/lastmile_qr_scan"}}, {"is_disabled": 0, "fusion_lat": 0.0, "lat": 38.8718345, "type": "electric_bike", "lon": -77.0840325, "is_reserved": 0, "fusion_lon": 0.0, "bike_id": "86709b13adbb26116e7bbc0043ec8066", "name": "86709b13adbb26116e7bbc0043ec8066", "rental_uris": {"ios": "https://dc.lft.to/lastmile_qr_scan", "android": "https://dc.lft.to/lastmile_qr_scan"}}, {"is_disabled": 0, "fusion_lat": 0.0, "lat": 38.9285005, "type": "electric_scooter", "lon": -77.054285, "is_reserved": 0, "fusion_lon": 0.0, "bike_id": "1b2d9f75992f3dc736e0c7a3796ca1eb", "name": "1b2d9f75992f3dc736e0c7a3796ca1eb", "rental_uris": {"ios": "https://dc.lft.to/lastmile_qr_scan", "android": "https://dc.lft.to/lastmile_qr_scan"}}, {"is_disabled": 0, "fusion_lat": 0.0, "lat": 38.9324065, "type": "electric_scooter", "lon": -77.03284733333334, "is_reserved": 0, "fusion_lon": 0.0, "bike_id": "26439e0ae9a54d5a1f100c455420dd29", "name": "26439e0ae9a54d5a1f100c455420dd29", "rental_uris": {"ios": "https://dc.lft.to/lastmile_qr_scan", "android": "https://dc.lft.to/lastmile_qr_scan"}}, {"is_disabled": 0, "fusion_lat": 0.0, "lat": 38.932821, "type": "electric_scooter", "lon": -77.03976583333333, "is_reserved": 0, "fusion_lon": 0.0, "bike_id": "972091272776bb5eed0c958e911aa2b5", "name": "972091272776bb5eed0c958e911aa2b5", "rental_uris": {"ios": "https://dc.lft.to/lastmile_qr_scan", "android": "https://dc.lft.to/lastmile_qr_scan"}}, {"is_disabled": 0, "fusion_lat": 0.0, "lat": 38.909591666666664, "type": "electric_scooter", "lon": -77.04046433333333, "is_reserved": 0, "fusion_lon": 0.0, "bike_id": "e5857722556dd5e07788e24884aa10ef", "name": "e5857722556dd5e07788e24884aa10ef", "rental_uris": {"ios": "https://dc.lft.to/lastmile_qr_scan", "android": "https://dc.lft.to/lastmile_qr_scan"}}, {"is_disabled": 0, "fusion_lat": 0.0, "lat": 38.9111, "type": "electric_scooter", "lon": -77.04842116666667, "is_reserved": 0, "fusion_lon": 0.0, "bike_id": "61018f08445547301deb19fa9e92c92f", "name": "61018f08445547301deb19fa9e92c92f", "rental_uris": {"ios": "https://dc.lft.to/lastmile_qr_scan", "android": "https://dc.lft.to/lastmile_qr_scan"}}, {"is_disabled": 0, "fusion_lat": 0.0, "lat": 38.898232166666666, "type": "electric_scooter", "lon": -77.03310066666667, "is_reserved": 0, "fusion_lon": 0.0, "bike_id": "e75874698958ea15ea25244c42542d53", "name": "e75874698958ea15ea25244c42542d53", "rental_uris": {"ios": "https://dc.lft.to/lastmile_qr_scan", "android": "https://dc.lft.to/lastmile_qr_scan"}}, {"is_disabled": 0, "fusion_lat": 0.0, "lat": 38.894906666666664, "type": "electric_scooter", "lon": -77.02292466666667, "is_reserved": 0, "fusion_lon": 0.0, "bike_id": "ce677853234b549e486dc4817f08b99c", "name": "ce677853234b549e486dc4817f08b99c", "rental_uris": {"ios": "https://dc.lft.to/lastmile_qr_scan", "android": "https://dc.lft.to/lastmile_qr_scan"}}, {"is_disabled": 0, "fusion_lat": 0.0, "lat": 38.896204, "type": "electric_scooter", "lon": -76.998484, "is_reserved": 0, "fusion_lon": 0.0, "bike_id": "86a2588654353ee8fd504e04def274c2", "name": "86a2588654353ee8fd504e04def274c2", "rental_uris": {"ios": "https://dc.lft.to/lastmile_qr_scan", "android": "https://dc.lft.to/lastmile_qr_scan"}}, {"is_disabled": 0, "fusion_lat": 0.0, "lat": 38.9056655, "type": "electric_scooter", "lon": -77.030758, "is_reserved": 0, "fusion_lon": 0.0, "bike_id": "cafd80fed5c6eabe49b3494a459099e9", "name": "cafd80fed5c6eabe49b3494a459099e9", "rental_uris": {"ios": "https://dc.lft.to/lastmile_qr_scan", "android": "https://dc.lft.to/lastmile_qr_scan"}}, {"is_disabled": 0, "fusion_lat": 0.0, "lat": 38.892194, "type": "electric_scooter", "lon": -77.04637416666667, "is_reserved": 0, "fusion_lon": 0.0, "bike_id": "c7473fa5e664fae4101fd5ea258e87a2", "name": "c7473fa5e664fae4101fd5ea258e87a2", "rental_uris": {"ios": "https://dc.lft.to/lastmile_qr_scan", "android": "https://dc.lft.to/lastmile_qr_scan"}}, {"is_disabled": 0, "fusion_lat": 0.0, "lat": 38.927231, "type": "electric_scooter", "lon": -77.02085483333333, "is_reserved": 0, "fusion_lon": 0.0, "bike_id": "37ea482dec489670e39991efa408d5f9", "name": "37ea482dec489670e39991efa408d5f9", "rental_uris": {"ios": "https://dc.lft.to/lastmile_qr_scan", "android": "https://dc.lft.to/lastmile_qr_scan"}}, {"is_disabled": 0, "fusion_lat": 0.0, "lat": 38.86908283333333, "type": "electric_bike", "lon": -77.1318145, "is_reserved": 0, "fusion_lon": 0.0, "bike_id": "3ee7f467763959df6989832a8dbcbc0f", "name": "3ee7f467763959df6989832a8dbcbc0f", "rental_uris": {"ios": "https://dc.lft.to/lastmile_qr_scan", "android": "https://dc.lft.to/lastmile_qr_scan"}}, {"is_disabled": 0, "fusion_lat": 0.0, "lat": 38.819857999999996, "type": "electric_bike", "lon": -76.99814733333334, "is_reserved": 0, "fusion_lon": 0.0, "bike_id": "3554c65884ede2e90cf953b9dfcd5bd3", "name": "3554c65884ede2e90cf953b9dfcd5bd3", "rental_uris": {"ios": "https://dc.lft.to/lastmile_qr_scan", "android": "https://dc.lft.to/lastmile_qr_scan"}}, {"is_disabled": 0, "fusion_lat": 0.0, "lat": 38.932412, "type": "electric_scooter", "lon": -77.0311105, "is_reserved": 0, "fusion_lon": 0.0, "bike_id": "d1531a20df597ddd472b2273149b0d63", "name": "d1531a20df597ddd472b2273149b0d63", "rental_uris": {"ios": "https://dc.lft.to/lastmile_qr_scan", "android": "https://dc.lft.to/lastmile_qr_scan"}}, {"is_disabled": 0, "fusion_lat": 0.0, "lat": 38.941488, "type": "electric_scooter", "lon": -77.0298455, "is_reserved": 0, "fusion_lon": 0.0, "bike_id": "1c93b418c02158d049f8c431ffc0f3fb", "name": "1c93b418c02158d049f8c431ffc0f3fb", "rental_uris": {"ios": "https://dc.lft.to/lastmile_qr_scan", "android": "https://dc.lft.to/lastmile_qr_scan"}}, {"is_disabled": 0, "fusion_lat": 0.0, "lat": 38.92770933333333, "type": "electric_scooter", "lon": -77.027068, "is_reserved": 0, "fusion_lon": 0.0, "bike_id": "725c7ae34bca1add2cfab032faf8684b", "name": "725c7ae34bca1add2cfab032faf8684b", "rental_uris": {"ios": "https://dc.lft.to/lastmile_qr_scan", "android": "https://dc.lft.to/lastmile_qr_scan"}}, {"is_disabled": 0, "fusion_lat": 0.0, "lat": 38.8990925, "type": "electric_scooter", "lon": -77.033316, "is_reserved": 0, "fusion_lon": 0.0, "bike_id": "0015b97d9ddfde91e66ff241cf29af1f", "name": "0015b97d9ddfde91e66ff241cf29af1f", "rental_uris": {"ios": "https://dc.lft.to/lastmile_qr_scan", "android": "https://dc.lft.to/lastmile_qr_scan"}}, {"is_disabled": 0, "fusion_lat": 0.0, "lat": 38.907379166666665, "type": "electric_scooter", "lon": -77.02404666666666, "is_reserved": 0, "fusion_lon": 0.0, "bike_id": "fa21c64c9660fea2c6abb045035ff5a4", "name": "fa21c64c9660fea2c6abb045035ff5a4", "rental_uris": {"ios": "https://dc.lft.to/lastmile_qr_scan", "android": "https://dc.lft.to/lastmile_qr_scan"}}, {"is_disabled": 0, "fusion_lat": 0.0, "lat": 38.934310333333336, "type": "electric_scooter", "lon": -77.03443183333333, "is_reserved": 0, "fusion_lon": 0.0, "bike_id": "b1b2fc6a33c4e67f0503da10ff899c87", "name": "b1b2fc6a33c4e67f0503da10ff899c87", "rental_uris": {"ios": "https://dc.lft.to/lastmile_qr_scan", "android": "https://dc.lft.to/lastmile_qr_scan"}}, {"is_disabled": 0, "fusion_lat": 0.0, "lat": 38.9617405, "type": "electric_bike", "lon": -76.99591066666666, "is_reserved": 0, "fusion_lon": 0.0, "bike_id": "f1d1d0a2adf0bac2575494da17931076", "name": "f1d1d0a2adf0bac2575494da17931076", "rental_uris": {"ios": "https://dc.lft.to/lastmile_qr_scan", "android": "https://dc.lft.to/lastmile_qr_scan"}}, {"is_disabled": 0, "fusion_lat": 0.0, "lat": 38.893699833333336, "type": "electric_scooter", "lon": -76.9499985, "is_reserved": 0, "fusion_lon": 0.0, "bike_id": "5aeafbcafbc49dbb7923d1d182387c08", "name": "5aeafbcafbc49dbb7923d1d182387c08", "rental_uris": {"ios": "https://dc.lft.to/lastmile_qr_scan", "android": "https://dc.lft.to/lastmile_qr_scan"}}, {"is_disabled": 0, "fusion_lat": 0.0, "lat": 38.884315666666666, "type": "electric_scooter", "lon": -76.957593, "is_reserved": 0, "fusion_lon": 0.0, "bike_id": "f859779dac975301b042a6f560c21b85", "name": "f859779dac975301b042a6f560c21b85", "rental_uris": {"ios": "https://dc.lft.to/lastmile_qr_scan", "android": "https://dc.lft.to/lastmile_qr_scan"}}, {"is_disabled": 0, "fusion_lat": 0.0, "lat": 38.89340683333333, "type": "electric_scooter", "lon": -77.01203883333334, "is_reserved": 0, "fusion_lon": 0.0, "bike_id": "731105b684c9db95db5b8ee564f42ae5", "name": "731105b684c9db95db5b8ee564f42ae5", "rental_uris": {"ios": "https://dc.lft.to/lastmile_qr_scan", "android": "https://dc.lft.to/lastmile_qr_scan"}}, {"is_disabled": 0, "fusion_lat": 0.0, "lat": 38.907549333333336, "type": "electric_scooter", "lon": -77.00085666666666, "is_reserved": 0, "fusion_lon": 0.0, "bike_id": "6091ca58e77e0b418b0075e6c3e22509", "name": "6091ca58e77e0b418b0075e6c3e22509", "rental_uris": {"ios": "https://dc.lft.to/lastmile_qr_scan", "android": "https://dc.lft.to/lastmile_qr_scan"}}, {"is_disabled": 0, "fusion_lat": 0.0, "lat": 38.938386666666666, "type": "electric_scooter", "lon": -77.02443866666667, "is_reserved": 0, "fusion_lon": 0.0, "bike_id": "075456745736c98281e4fae0e37b78f2", "name": "075456745736c98281e4fae0e37b78f2", "rental_uris": {"ios": "https://dc.lft.to/lastmile_qr_scan", "android": "https://dc.lft.to/lastmile_qr_scan"}}, {"is_disabled": 0, "fusion_lat": 0.0, "lat": 38.882253, "type": "electric_scooter", "lon": -76.92659683333333, "is_reserved": 0, "fusion_lon": 0.0, "bike_id": "696d0a4a268bbbad95e5e14e6ef97dd8", "name": "696d0a4a268bbbad95e5e14e6ef97dd8", "rental_uris": {"ios": "https://dc.lft.to/lastmile_qr_scan", "android": "https://dc.lft.to/lastmile_qr_scan"}}, {"is_disabled": 0, "fusion_lat": 0.0, "lat": 38.91550983333333, "type": "electric_scooter", "lon": -77.01996433333333, "is_reserved": 0, "fusion_lon": 0.0, "bike_id": "812e91b0e358fec8d5162bb36ff072a9", "name": "812e91b0e358fec8d5162bb36ff072a9", "rental_uris": {"ios": "https://dc.lft.to/lastmile_qr_scan", "android": "https://dc.lft.to/lastmile_qr_scan"}}, {"is_disabled": 0, "fusion_lat": 0.0, "lat": 38.92497383333333, "type": "electric_scooter", "lon": -77.008906, "is_reserved": 0, "fusion_lon": 0.0, "bike_id": "0a4aebe1feebc94085fdfdf56ff7d9b8", "name": "0a4aebe1feebc94085fdfdf56ff7d9b8", "rental_uris": {"ios": "https://dc.lft.to/lastmile_qr_scan", "android": "https://dc.lft.to/lastmile_qr_scan"}}, {"is_disabled": 0, "fusion_lat": 0.0, "lat": 38.839270666666664, "type": "electric_bike", "lon": -77.07896116666667, "is_reserved": 0, "fusion_lon": 0.0, "bike_id": "aafd3e961e1742bed4708f45c6e78ea5", "name": "aafd3e961e1742bed4708f45c6e78ea5", "rental_uris": {"ios": "https://dc.lft.to/lastmile_qr_scan", "android": "https://dc.lft.to/lastmile_qr_scan"}}, {"is_disabled": 0, "fusion_lat": 0.0, "lat": 38.918207333333335, "type": "electric_scooter", "lon": -77.0364595, "is_reserved": 0, "fusion_lon": 0.0, "bike_id": "42ac917c3649884418d4ebe14b7812a1", "name": "42ac917c3649884418d4ebe14b7812a1", "rental_uris": {"ios": "https://dc.lft.to/lastmile_qr_scan", "android": "https://dc.lft.to/lastmile_qr_scan"}}, {"is_disabled": 0, "fusion_lat": 0.0, "lat": 38.899228666666666, "type": "electric_scooter", "lon": -77.040661, "is_reserved": 0, "fusion_lon": 0.0, "bike_id": "f6deb24b3f968dddcc5c7e32541d1266", "name": "f6deb24b3f968dddcc5c7e32541d1266", "rental_uris": {"ios": "https://dc.lft.to/lastmile_qr_scan", "android": "https://dc.lft.to/lastmile_qr_scan"}}, {"is_disabled": 0, "fusion_lat": 0.0, "lat": 38.910104833333335, "type": "electric_scooter", "lon": -76.99388083333334, "is_reserved": 0, "fusion_lon": 0.0, "bike_id": "b022fc2fc6fafbdb9b50310de429850e", "name": "b022fc2fc6fafbdb9b50310de429850e", "rental_uris": {"ios": "https://dc.lft.to/lastmile_qr_scan", "android": "https://dc.lft.to/lastmile_qr_scan"}}, {"is_disabled": 0, "fusion_lat": 0.0, "lat": 38.92334183333333, "type": "electric_scooter", "lon": -77.01901483333333, "is_reserved": 0, "fusion_lon": 0.0, "bike_id": "de9e5e95e68f9f26735c4c8bb028b4be", "name": "de9e5e95e68f9f26735c4c8bb028b4be", "rental_uris": {"ios": "https://dc.lft.to/lastmile_qr_scan", "android": "https://dc.lft.to/lastmile_qr_scan"}}, {"is_disabled": 0, "fusion_lat": 0.0, "lat": 38.870909166666664, "type": "electric_scooter", "lon": -77.0120995, "is_reserved": 0, "fusion_lon": 0.0, "bike_id": "3586e28ccb017973e0a14b807dd6e077", "name": "3586e28ccb017973e0a14b807dd6e077", "rental_uris": {"ios": "https://dc.lft.to/lastmile_qr_scan", "android": "https://dc.lft.to/lastmile_qr_scan"}}, {"is_disabled": 0, "fusion_lat": 0.0, "lat": 38.88339083333334, "type": "electric_scooter", "lon": -77.0314415, "is_reserved": 0, "fusion_lon": 0.0, "bike_id": "a7dbb1c1f1c110efe6552cb526c07365", "name": "a7dbb1c1f1c110efe6552cb526c07365", "rental_uris": {"ios": "https://dc.lft.to/lastmile_qr_scan", "android": "https://dc.lft.to/lastmile_qr_scan"}}, {"is_disabled": 0, "fusion_lat": 0.0, "lat": 38.913373166666666, "type": "electric_scooter", "lon": -77.00219516666667, "is_reserved": 0, "fusion_lon": 0.0, "bike_id": "3e7386f0f1d04e9180608f96f9fa9f27", "name": "3e7386f0f1d04e9180608f96f9fa9f27", "rental_uris": {"ios": "https://dc.lft.to/lastmile_qr_scan", "android": "https://dc.lft.to/lastmile_qr_scan"}}, {"is_disabled": 0, "fusion_lat": 0.0, "lat": 38.90805433333333, "type": "electric_scooter", "lon": -77.04347183333333, "is_reserved": 0, "fusion_lon": 0.0, "bike_id": "d99fbe04c4af568de4a11a959920c287", "name": "d99fbe04c4af568de4a11a959920c287", "rental_uris": {"ios": "https://dc.lft.to/lastmile_qr_scan", "android": "https://dc.lft.to/lastmile_qr_scan"}}, {"is_disabled": 0, "fusion_lat": 0.0, "lat": 38.91265583333333, "type": "electric_scooter", "lon": -77.03079766666667, "is_reserved": 0, "fusion_lon": 0.0, "bike_id": "41c6ffc7825fc19fd77291e0e76c566b", "name": "41c6ffc7825fc19fd77291e0e76c566b", "rental_uris": {"ios": "https://dc.lft.to/lastmile_qr_scan", "android": "https://dc.lft.to/lastmile_qr_scan"}}, {"is_disabled": 0, "fusion_lat": 0.0, "lat": 38.9058495, "type": "electric_scooter", "lon": -77.065219, "is_reserved": 0, "fusion_lon": 0.0, "bike_id": "9f9fdd6ef1d5524f3b8bee15d328ed2d", "name": "9f9fdd6ef1d5524f3b8bee15d328ed2d", "rental_uris": {"ios": "https://dc.lft.to/lastmile_qr_scan", "android": "https://dc.lft.to/lastmile_qr_scan"}}, {"is_disabled": 0, "fusion_lat": 0.0, "lat": 38.86101, "type": "electric_scooter", "lon": -76.9677425, "is_reserved": 0, "fusion_lon": 0.0, "bike_id": "282a9148209a5e92e4f89380165ab622", "name": "282a9148209a5e92e4f89380165ab622", "rental_uris": {"ios": "https://dc.lft.to/lastmile_qr_scan", "android": "https://dc.lft.to/lastmile_qr_scan"}}, {"is_disabled": 0, "fusion_lat": 0.0, "lat": 38.9076435, "type": "electric_scooter", "lon": -77.04354566666666, "is_reserved": 0, "fusion_lon": 0.0, "bike_id": "1fd3133a4b43afe6723f1f35858b1d47", "name": "1fd3133a4b43afe6723f1f35858b1d47", "rental_uris": {"ios": "https://dc.lft.to/lastmile_qr_scan", "android": "https://dc.lft.to/lastmile_qr_scan"}}, {"is_disabled": 0, "fusion_lat": 0.0, "lat": 38.86101016666667, "type": "electric_scooter", "lon": -76.98363983333333, "is_reserved": 0, "fusion_lon": 0.0, "bike_id": "fd5cd0553e734af4e605d316eeb040d1", "name": "fd5cd0553e734af4e605d316eeb040d1", "rental_uris": {"ios": "https://dc.lft.to/lastmile_qr_scan", "android": "https://dc.lft.to/lastmile_qr_scan"}}, {"is_disabled": 0, "fusion_lat": 0.0, "lat": 38.897736, "type": "electric_scooter", "lon": -77.0317655, "is_reserved": 0, "fusion_lon": 0.0, "bike_id": "4aa91bc079ed73cc7eec782fbb9eaed4", "name": "4aa91bc079ed73cc7eec782fbb9eaed4", "rental_uris": {"ios": "https://dc.lft.to/lastmile_qr_scan", "android": "https://dc.lft.to/lastmile_qr_scan"}}, {"is_disabled": 0, "fusion_lat": 0.0, "lat": 38.89076633333333, "type": "electric_scooter", "lon": -76.98354333333333, "is_reserved": 0, "fusion_lon": 0.0, "bike_id": "60e7f63d9048ea55f1a70eb7b09c5dd2", "name": "60e7f63d9048ea55f1a70eb7b09c5dd2", "rental_uris": {"ios": "https://dc.lft.to/lastmile_qr_scan", "android": "https://dc.lft.to/lastmile_qr_scan"}}, {"is_disabled": 0, "fusion_lat": 0.0, "lat": 38.905514, "type": "electric_scooter", "lon": -77.02488416666667, "is_reserved": 0, "fusion_lon": 0.0, "bike_id": "635cefc285945e129629fdf4fbee8e37", "name": "635cefc285945e129629fdf4fbee8e37", "rental_uris": {"ios": "https://dc.lft.to/lastmile_qr_scan", "android": "https://dc.lft.to/lastmile_qr_scan"}}, {"is_disabled": 0, "fusion_lat": 0.0, "lat": 38.93683266666667, "type": "electric_scooter", "lon": -77.036268, "is_reserved": 0, "fusion_lon": 0.0, "bike_id": "9141af2450aeec64815a645d4ad3cec5", "name": "9141af2450aeec64815a645d4ad3cec5", "rental_uris": {"ios": "https://dc.lft.to/lastmile_qr_scan", "android": "https://dc.lft.to/lastmile_qr_scan"}}, {"is_disabled": 0, "fusion_lat": 0.0, "lat": 38.9278995, "type": "electric_scooter", "lon": -77.02719366666666, "is_reserved": 0, "fusion_lon": 0.0, "bike_id": "558505ce7d3378e2ea4a40dbcc562ce9", "name": "558505ce7d3378e2ea4a40dbcc562ce9", "rental_uris": {"ios": "https://dc.lft.to/lastmile_qr_scan", "android": "https://dc.lft.to/lastmile_qr_scan"}}, {"is_disabled": 0, "fusion_lat": 0.0, "lat": 38.92008216666667, "type": "electric_scooter", "lon": -77.071135, "is_reserved": 0, "fusion_lon": 0.0, "bike_id": "9c36f200127d173bf5a6a1e9073d9c7d", "name": "9c36f200127d173bf5a6a1e9073d9c7d", "rental_uris": {"ios": "https://dc.lft.to/lastmile_qr_scan", "android": "https://dc.lft.to/lastmile_qr_scan"}}, {"is_disabled": 0, "fusion_lat": 0.0, "lat": 38.928287, "type": "electric_scooter", "lon": -77.05504866666666, "is_reserved": 0, "fusion_lon": 0.0, "bike_id": "14babda6c0d1992fcb8daab80c72249a", "name": "14babda6c0d1992fcb8daab80c72249a", "rental_uris": {"ios": "https://dc.lft.to/lastmile_qr_scan", "android": "https://dc.lft.to/lastmile_qr_scan"}}, {"is_disabled": 0, "fusion_lat": 0.0, "lat": 38.917020666666666, "type": "electric_scooter", "lon": -77.03110116666667, "is_reserved": 0, "fusion_lon": 0.0, "bike_id": "d619421bb37e774dcf6cb9483903bb59", "name": "d619421bb37e774dcf6cb9483903bb59", "rental_uris": {"ios": "https://dc.lft.to/lastmile_qr_scan", "android": "https://dc.lft.to/lastmile_qr_scan"}}, {"is_disabled": 0, "fusion_lat": 0.0, "lat": 38.918688333333336, "type": "electric_scooter", "lon": -77.03556366666666, "is_reserved": 0, "fusion_lon": 0.0, "bike_id": "190d61cdef49e90f5f948f545511fd82", "name": "190d61cdef49e90f5f948f545511fd82", "rental_uris": {"ios": "https://dc.lft.to/lastmile_qr_scan", "android": "https://dc.lft.to/lastmile_qr_scan"}}, {"is_disabled": 0, "fusion_lat": 0.0, "lat": 38.90978466666667, "type": "electric_scooter", "lon": -77.03183283333334, "is_reserved": 0, "fusion_lon": 0.0, "bike_id": "8c67bea54355b644e6d6e7c2daf1e170", "name": "8c67bea54355b644e6d6e7c2daf1e170", "rental_uris": {"ios": "https://dc.lft.to/lastmile_qr_scan", "android": "https://dc.lft.to/lastmile_qr_scan"}}, {"is_disabled": 0, "fusion_lat": 0.0, "lat": 38.88416616666667, "type": "electric_scooter", "lon": -77.02576683333334, "is_reserved": 0, "fusion_lon": 0.0, "bike_id": "189740f348b4f7820b1d8d3e8c36231c", "name": "189740f348b4f7820b1d8d3e8c36231c", "rental_uris": {"ios": "https://dc.lft.to/lastmile_qr_scan", "android": "https://dc.lft.to/lastmile_qr_scan"}}, {"is_disabled": 0, "fusion_lat": 0.0, "lat": 38.9247825, "type": "electric_scooter", "lon": -77.02839216666666, "is_reserved": 0, "fusion_lon": 0.0, "bike_id": "d633d9de063bcda0363204508d8c695f", "name": "d633d9de063bcda0363204508d8c695f", "rental_uris": {"ios": "https://dc.lft.to/lastmile_qr_scan", "android": "https://dc.lft.to/lastmile_qr_scan"}}, {"is_disabled": 0, "fusion_lat": 0.0, "lat": 38.925594, "type": "electric_scooter", "lon": -77.03913666666666, "is_reserved": 0, "fusion_lon": 0.0, "bike_id": "3105fd84f046a030336b6b6fd2eb9db9", "name": "3105fd84f046a030336b6b6fd2eb9db9", "rental_uris": {"ios": "https://dc.lft.to/lastmile_qr_scan", "android": "https://dc.lft.to/lastmile_qr_scan"}}, {"is_disabled": 0, "fusion_lat": 0.0, "lat": 38.900306666666665, "type": "electric_scooter", "lon": -76.998645, "is_reserved": 0, "fusion_lon": 0.0, "bike_id": "473fef11ab5e832d78b7c86531f4fc00", "name": "473fef11ab5e832d78b7c86531f4fc00", "rental_uris": {"ios": "https://dc.lft.to/lastmile_qr_scan", "android": "https://dc.lft.to/lastmile_qr_scan"}}, {"is_disabled": 0, "fusion_lat": 0.0, "lat": 38.92112016666667, "type": "electric_scooter", "lon": -77.04577466666667, "is_reserved": 0, "fusion_lon": 0.0, "bike_id": "ffc41b723a381f8373fbdc47618352af", "name": "ffc41b723a381f8373fbdc47618352af", "rental_uris": {"ios": "https://dc.lft.to/lastmile_qr_scan", "android": "https://dc.lft.to/lastmile_qr_scan"}}, {"is_disabled": 0, "fusion_lat": 0.0, "lat": 38.87627283333333, "type": "electric_scooter", "lon": -76.965277, "is_reserved": 0, "fusion_lon": 0.0, "bike_id": "7d46799e940124b69f6ad5fdd820ba0f", "name": "7d46799e940124b69f6ad5fdd820ba0f", "rental_uris": {"ios": "https://dc.lft.to/lastmile_qr_scan", "android": "https://dc.lft.to/lastmile_qr_scan"}}, {"is_disabled": 0, "fusion_lat": 0.0, "lat": 38.919586, "type": "electric_scooter", "lon": -77.02711516666666, "is_reserved": 0, "fusion_lon": 0.0, "bike_id": "f45f50a2239da8deb093ff02c8e82a05", "name": "f45f50a2239da8deb093ff02c8e82a05", "rental_uris": {"ios": "https://dc.lft.to/lastmile_qr_scan", "android": "https://dc.lft.to/lastmile_qr_scan"}}, {"is_disabled": 0, "fusion_lat": 0.0, "lat": 38.9126655, "type": "electric_scooter", "lon": -77.03386233333333, "is_reserved": 0, "fusion_lon": 0.0, "bike_id": "4b1bda4f7ee1634c5df7ed7f82d16159", "name": "4b1bda4f7ee1634c5df7ed7f82d16159", "rental_uris": {"ios": "https://dc.lft.to/lastmile_qr_scan", "android": "https://dc.lft.to/lastmile_qr_scan"}}, {"is_disabled": 0, "fusion_lat": 0.0, "lat": 38.90835283333333, "type": "electric_scooter", "lon": -77.0269405, "is_reserved": 0, "fusion_lon": 0.0, "bike_id": "4fd295bf2b3cbe18d8bc7965c97c37a3", "name": "4fd295bf2b3cbe18d8bc7965c97c37a3", "rental_uris": {"ios": "https://dc.lft.to/lastmile_qr_scan", "android": "https://dc.lft.to/lastmile_qr_scan"}}, {"is_disabled": 0, "fusion_lat": 0.0, "lat": 38.866593333333334, "type": "electric_scooter", "lon": -76.98903916666667, "is_reserved": 0, "fusion_lon": 0.0, "bike_id": "9fea36e765c2df745635ffd87cca9871", "name": "9fea36e765c2df745635ffd87cca9871", "rental_uris": {"ios": "https://dc.lft.to/lastmile_qr_scan", "android": "https://dc.lft.to/lastmile_qr_scan"}}, {"is_disabled": 0, "fusion_lat": 0.0, "lat": 38.92562266666667, "type": "electric_scooter", "lon": -77.05267416666666, "is_reserved": 0, "fusion_lon": 0.0, "bike_id": "1085d7837b62c6eef42a71ec91aa7f77", "name": "1085d7837b62c6eef42a71ec91aa7f77", "rental_uris": {"ios": "https://dc.lft.to/lastmile_qr_scan", "android": "https://dc.lft.to/lastmile_qr_scan"}}, {"is_disabled": 0, "fusion_lat": 0.0, "lat": 38.946237333333336, "type": "electric_scooter", "lon": -77.018429, "is_reserved": 0, "fusion_lon": 0.0, "bike_id": "496a9f05f65d2a8e82b72617b6227c34", "name": "496a9f05f65d2a8e82b72617b6227c34", "rental_uris": {"ios": "https://dc.lft.to/lastmile_qr_scan", "android": "https://dc.lft.to/lastmile_qr_scan"}}, {"is_disabled": 0, "fusion_lat": 0.0, "lat": 38.865238833333336, "type": "electric_scooter", "lon": -76.99030283333333, "is_reserved": 0, "fusion_lon": 0.0, "bike_id": "fd3c2f42708b065d04009991e15a9b45", "name": "fd3c2f42708b065d04009991e15a9b45", "rental_uris": {"ios": "https://dc.lft.to/lastmile_qr_scan", "android": "https://dc.lft.to/lastmile_qr_scan"}}, {"is_disabled": 0, "fusion_lat": 0.0, "lat": 38.838121, "type": "electric_bike", "lon": -77.09524733333333, "is_reserved": 0, "fusion_lon": 0.0, "bike_id": "9d5b1518a338423597be99dc703e6292", "name": "9d5b1518a338423597be99dc703e6292", "rental_uris": {"ios": "https://dc.lft.to/lastmile_qr_scan", "android": "https://dc.lft.to/lastmile_qr_scan"}}, {"is_disabled": 0, "fusion_lat": 0.0, "lat": 38.83867383333333, "type": "electric_bike", "lon": -76.99693866666667, "is_reserved": 0, "fusion_lon": 0.0, "bike_id": "016e56838c00e7b5acc04c3c627c4dfb", "name": "016e56838c00e7b5acc04c3c627c4dfb", "rental_uris": {"ios": "https://dc.lft.to/lastmile_qr_scan", "android": "https://dc.lft.to/lastmile_qr_scan"}}, {"is_disabled": 0, "fusion_lat": 0.0, "lat": 38.89738, "type": "electric_scooter", "lon": -76.9384365, "is_reserved": 0, "fusion_lon": 0.0, "bike_id": "787465fad625174df4ea6056aedfb571", "name": "787465fad625174df4ea6056aedfb571", "rental_uris": {"ios": "https://dc.lft.to/lastmile_qr_scan", "android": "https://dc.lft.to/lastmile_qr_scan"}}, {"is_disabled": 0, "fusion_lat": 0.0, "lat": 38.9146895, "type": "electric_scooter", "lon": -76.98435266666667, "is_reserved": 0, "fusion_lon": 0.0, "bike_id": "0cf31e0dbe825e1b7fed5f3958679714", "name": "0cf31e0dbe825e1b7fed5f3958679714", "rental_uris": {"ios": "https://dc.lft.to/lastmile_qr_scan", "android": "https://dc.lft.to/lastmile_qr_scan"}}, {"is_disabled": 0, "fusion_lat": 0.0, "lat": 38.95549416666667, "type": "electric_bike", "lon": -76.93535566666667, "is_reserved": 0, "fusion_lon": 0.0, "bike_id": "47f496ac1d0c3a41bd2136be99712975", "name": "47f496ac1d0c3a41bd2136be99712975", "rental_uris": {"ios": "https://dc.lft.to/lastmile_qr_scan", "android": "https://dc.lft.to/lastmile_qr_scan"}}, {"is_disabled": 0, "fusion_lat": 0.0, "lat": 38.921261333333334, "type": "electric_scooter", "lon": -77.04426083333334, "is_reserved": 0, "fusion_lon": 0.0, "bike_id": "b56b2ddb359650e0eaef1ade34e64c82", "name": "b56b2ddb359650e0eaef1ade34e64c82", "rental_uris": {"ios": "https://dc.lft.to/lastmile_qr_scan", "android": "https://dc.lft.to/lastmile_qr_scan"}}, {"is_disabled": 0, "fusion_lat": 0.0, "lat": 38.8634695, "type": "electric_scooter", "lon": -76.9899855, "is_reserved": 0, "fusion_lon": 0.0, "bike_id": "358b2871243ce73ff0f19b9e60fc84c7", "name": "358b2871243ce73ff0f19b9e60fc84c7", "rental_uris": {"ios": "https://dc.lft.to/lastmile_qr_scan", "android": "https://dc.lft.to/lastmile_qr_scan"}}, {"is_disabled": 0, "fusion_lat": 0.0, "lat": 38.89830366666666, "type": "electric_scooter", "lon": -77.03288716666667, "is_reserved": 0, "fusion_lon": 0.0, "bike_id": "3d825009ebeb2ca08992de58a3025132", "name": "3d825009ebeb2ca08992de58a3025132", "rental_uris": {"ios": "https://dc.lft.to/lastmile_qr_scan", "android": "https://dc.lft.to/lastmile_qr_scan"}}, {"is_disabled": 0, "fusion_lat": 0.0, "lat": 38.92789716666667, "type": "electric_scooter", "lon": -77.02720966666666, "is_reserved": 0, "fusion_lon": 0.0, "bike_id": "4b11289b3661dfe67175da2ddc97874d", "name": "4b11289b3661dfe67175da2ddc97874d", "rental_uris": {"ios": "https://dc.lft.to/lastmile_qr_scan", "android": "https://dc.lft.to/lastmile_qr_scan"}}, {"is_disabled": 0, "fusion_lat": 0.0, "lat": 38.9071875, "type": "electric_scooter", "lon": -77.02506133333333, "is_reserved": 0, "fusion_lon": 0.0, "bike_id": "2913615a0b0bcf479fdb84208a613c6c", "name": "2913615a0b0bcf479fdb84208a613c6c", "rental_uris": {"ios": "https://dc.lft.to/lastmile_qr_scan", "android": "https://dc.lft.to/lastmile_qr_scan"}}, {"is_disabled": 0, "fusion_lat": 0.0, "lat": 38.90332683333333, "type": "electric_scooter", "lon": -77.06597483333333, "is_reserved": 0, "fusion_lon": 0.0, "bike_id": "d3675f31e4b2cb0050c3c013e197a1dd", "name": "d3675f31e4b2cb0050c3c013e197a1dd", "rental_uris": {"ios": "https://dc.lft.to/lastmile_qr_scan", "android": "https://dc.lft.to/lastmile_qr_scan"}}, {"is_disabled": 0, "fusion_lat": 0.0, "lat": 38.899156, "type": "electric_scooter", "lon": -76.93381916666667, "is_reserved": 0, "fusion_lon": 0.0, "bike_id": "0461edd2e31095d811b7fd95027bb97a", "name": "0461edd2e31095d811b7fd95027bb97a", "rental_uris": {"ios": "https://dc.lft.to/lastmile_qr_scan", "android": "https://dc.lft.to/lastmile_qr_scan"}}, {"is_disabled": 0, "fusion_lat": 0.0, "lat": 38.84289966666667, "type": "electric_scooter", "lon": -76.999504, "is_reserved": 0, "fusion_lon": 0.0, "bike_id": "f5ae41006103c1d2e1e8ed713034b125", "name": "f5ae41006103c1d2e1e8ed713034b125", "rental_uris": {"ios": "https://dc.lft.to/lastmile_qr_scan", "android": "https://dc.lft.to/lastmile_qr_scan"}}, {"is_disabled": 0, "fusion_lat": 0.0, "lat": 38.9577435, "type": "electric_scooter", "lon": -77.02461366666667, "is_reserved": 0, "fusion_lon": 0.0, "bike_id": "be08fa3e0dbb36e423f060501be70a98", "name": "be08fa3e0dbb36e423f060501be70a98", "rental_uris": {"ios": "https://dc.lft.to/lastmile_qr_scan", "android": "https://dc.lft.to/lastmile_qr_scan"}}, {"is_disabled": 0, "fusion_lat": 0.0, "lat": 38.965729333333336, "type": "electric_bike", "lon": -77.01625183333333, "is_reserved": 0, "fusion_lon": 0.0, "bike_id": "2f98aa741b5d4d44825d849f75640673", "name": "2f98aa741b5d4d44825d849f75640673", "rental_uris": {"ios": "https://dc.lft.to/lastmile_qr_scan", "android": "https://dc.lft.to/lastmile_qr_scan"}}, {"is_disabled": 0, "fusion_lat": 0.0, "lat": 38.92524, "type": "electric_scooter", "lon": -77.04423516666667, "is_reserved": 0, "fusion_lon": 0.0, "bike_id": "21a445ee778670526fae7096ae9f270e", "name": "21a445ee778670526fae7096ae9f270e", "rental_uris": {"ios": "https://dc.lft.to/lastmile_qr_scan", "android": "https://dc.lft.to/lastmile_qr_scan"}}, {"is_disabled": 0, "fusion_lat": 0.0, "lat": 38.89732266666667, "type": "electric_scooter", "lon": -77.04495416666667, "is_reserved": 0, "fusion_lon": 0.0, "bike_id": "700bef5112d819ff56d50f6913c40636", "name": "700bef5112d819ff56d50f6913c40636", "rental_uris": {"ios": "https://dc.lft.to/lastmile_qr_scan", "android": "https://dc.lft.to/lastmile_qr_scan"}}, {"is_disabled": 0, "fusion_lat": 0.0, "lat": 38.931669, "type": "electric_scooter", "lon": -77.02841183333334, "is_reserved": 0, "fusion_lon": 0.0, "bike_id": "8fe0bc606891baff4ffaa2647227dae3", "name": "8fe0bc606891baff4ffaa2647227dae3", "rental_uris": {"ios": "https://dc.lft.to/lastmile_qr_scan", "android": "https://dc.lft.to/lastmile_qr_scan"}}, {"is_disabled": 0, "fusion_lat": 0.0, "lat": 38.90420066666667, "type": "electric_scooter", "lon": -77.0327995, "is_reserved": 0, "fusion_lon": 0.0, "bike_id": "e219f97ca5d26477cc5572a344d0ff14", "name": "e219f97ca5d26477cc5572a344d0ff14", "rental_uris": {"ios": "https://dc.lft.to/lastmile_qr_scan", "android": "https://dc.lft.to/lastmile_qr_scan"}}, {"is_disabled": 0, "fusion_lat": 0.0, "lat": 38.91165383333333, "type": "electric_scooter", "lon": -77.00367633333333, "is_reserved": 0, "fusion_lon": 0.0, "bike_id": "a845b9985b8d7a12e8342c41e111dd12", "name": "a845b9985b8d7a12e8342c41e111dd12", "rental_uris": {"ios": "https://dc.lft.to/lastmile_qr_scan", "android": "https://dc.lft.to/lastmile_qr_scan"}}, {"is_disabled": 0, "fusion_lat": 0.0, "lat": 38.9067225, "type": "electric_scooter", "lon": -77.00057916666667, "is_reserved": 0, "fusion_lon": 0.0, "bike_id": "c21f0b95405715f5704a346f08997f9d", "name": "c21f0b95405715f5704a346f08997f9d", "rental_uris": {"ios": "https://dc.lft.to/lastmile_qr_scan", "android": "https://dc.lft.to/lastmile_qr_scan"}}, {"is_disabled": 0, "fusion_lat": 0.0, "lat": 38.9119145, "type": "electric_scooter", "lon": -77.0105585, "is_reserved": 0, "fusion_lon": 0.0, "bike_id": "faccf51759382b172efa2096e1f31b84", "name": "faccf51759382b172efa2096e1f31b84", "rental_uris": {"ios": "https://dc.lft.to/lastmile_qr_scan", "android": "https://dc.lft.to/lastmile_qr_scan"}}, {"is_disabled": 0, "fusion_lat": 0.0, "lat": 38.91011866666667, "type": "electric_scooter", "lon": -77.03854483333333, "is_reserved": 0, "fusion_lon": 0.0, "bike_id": "776f09dff4e46003aba78e750d4085b4", "name": "776f09dff4e46003aba78e750d4085b4", "rental_uris": {"ios": "https://dc.lft.to/lastmile_qr_scan", "android": "https://dc.lft.to/lastmile_qr_scan"}}, {"is_disabled": 0, "fusion_lat": 0.0, "lat": 38.902334833333335, "type": "electric_scooter", "lon": -77.001991, "is_reserved": 0, "fusion_lon": 0.0, "bike_id": "c6aa2dd4c6b560e784379d287a2745c2", "name": "c6aa2dd4c6b560e784379d287a2745c2", "rental_uris": {"ios": "https://dc.lft.to/lastmile_qr_scan", "android": "https://dc.lft.to/lastmile_qr_scan"}}, {"is_disabled": 0, "fusion_lat": 0.0, "lat": 38.904980333333334, "type": "electric_scooter", "lon": -76.99013133333334, "is_reserved": 0, "fusion_lon": 0.0, "bike_id": "732c95b4d3e93a924042485c40b577df", "name": "732c95b4d3e93a924042485c40b577df", "rental_uris": {"ios": "https://dc.lft.to/lastmile_qr_scan", "android": "https://dc.lft.to/lastmile_qr_scan"}}, {"is_disabled": 0, "fusion_lat": 0.0, "lat": 38.92368366666667, "type": "electric_scooter", "lon": -77.031321, "is_reserved": 0, "fusion_lon": 0.0, "bike_id": "02d9478a9b4571e4e50fff1de8989ed0", "name": "02d9478a9b4571e4e50fff1de8989ed0", "rental_uris": {"ios": "https://dc.lft.to/lastmile_qr_scan", "android": "https://dc.lft.to/lastmile_qr_scan"}}, {"is_disabled": 0, "fusion_lat": 0.0, "lat": 38.902689, "type": "electric_scooter", "lon": -77.015582, "is_reserved": 0, "fusion_lon": 0.0, "bike_id": "517feb56d06b9a36ac41e85069de45b5", "name": "517feb56d06b9a36ac41e85069de45b5", "rental_uris": {"ios": "https://dc.lft.to/lastmile_qr_scan", "android": "https://dc.lft.to/lastmile_qr_scan"}}, {"is_disabled": 0, "fusion_lat": 0.0, "lat": 38.901971, "type": "electric_scooter", "lon": -77.02370883333333, "is_reserved": 0, "fusion_lon": 0.0, "bike_id": "cfb5a7fc487f4b9a166d610cc965df54", "name": "cfb5a7fc487f4b9a166d610cc965df54", "rental_uris": {"ios": "https://dc.lft.to/lastmile_qr_scan", "android": "https://dc.lft.to/lastmile_qr_scan"}}, {"is_disabled": 0, "fusion_lat": 0.0, "lat": 38.904967, "type": "electric_scooter", "lon": -77.02956, "is_reserved": 0, "fusion_lon": 0.0, "bike_id": "15eda57f933e42c0d62bcb06b7736b03", "name": "15eda57f933e42c0d62bcb06b7736b03", "rental_uris": {"ios": "https://dc.lft.to/lastmile_qr_scan", "android": "https://dc.lft.to/lastmile_qr_scan"}}, {"is_disabled": 0, "fusion_lat": 0.0, "lat": 38.90627583333333, "type": "electric_bike", "lon": -76.98609183333333, "is_reserved": 0, "fusion_lon": 0.0, "bike_id": "fad23b88043c7525d5c2095439ef5ada", "name": "fad23b88043c7525d5c2095439ef5ada", "rental_uris": {"ios": "https://dc.lft.to/lastmile_qr_scan", "android": "https://dc.lft.to/lastmile_qr_scan"}}, {"is_disabled": 0, "fusion_lat": 0.0, "lat": 38.8766035, "type": "electric_scooter", "lon": -77.00438016666666, "is_reserved": 0, "fusion_lon": 0.0, "bike_id": "03a7727359b51a49e771bafb50afd4da", "name": "03a7727359b51a49e771bafb50afd4da", "rental_uris": {"ios": "https://dc.lft.to/lastmile_qr_scan", "android": "https://dc.lft.to/lastmile_qr_scan"}}, {"is_disabled": 0, "fusion_lat": 0.0, "lat": 38.90404783333334, "type": "electric_scooter", "lon": -77.02069033333333, "is_reserved": 0, "fusion_lon": 0.0, "bike_id": "24d091dde4873cf242c3f4e257148d62", "name": "24d091dde4873cf242c3f4e257148d62", "rental_uris": {"ios": "https://dc.lft.to/lastmile_qr_scan", "android": "https://dc.lft.to/lastmile_qr_scan"}}, {"is_disabled": 0, "fusion_lat": 0.0, "lat": 38.960215166666664, "type": "electric_scooter", "lon": -77.02829366666667, "is_reserved": 0, "fusion_lon": 0.0, "bike_id": "49dd15646ab23cdb01e940952e637e50", "name": "49dd15646ab23cdb01e940952e637e50", "rental_uris": {"ios": "https://dc.lft.to/lastmile_qr_scan", "android": "https://dc.lft.to/lastmile_qr_scan"}}, {"is_disabled": 0, "fusion_lat": 0.0, "lat": 38.912698666666664, "type": "electric_scooter", "lon": -77.01685583333334, "is_reserved": 0, "fusion_lon": 0.0, "bike_id": "fd880e1d220696b308f923fe11201611", "name": "fd880e1d220696b308f923fe11201611", "rental_uris": {"ios": "https://dc.lft.to/lastmile_qr_scan", "android": "https://dc.lft.to/lastmile_qr_scan"}}, {"is_disabled": 0, "fusion_lat": 0.0, "lat": 38.902513666666664, "type": "electric_scooter", "lon": -77.04296183333334, "is_reserved": 0, "fusion_lon": 0.0, "bike_id": "6aa767e94add1aef4a953567b9036b92", "name": "6aa767e94add1aef4a953567b9036b92", "rental_uris": {"ios": "https://dc.lft.to/lastmile_qr_scan", "android": "https://dc.lft.to/lastmile_qr_scan"}}, {"is_disabled": 0, "fusion_lat": 0.0, "lat": 39.094346, "type": "electric_bike", "lon": -77.13457966666667, "is_reserved": 0, "fusion_lon": 0.0, "bike_id": "c4afb4798a07995692fdd4810952259f", "name": "c4afb4798a07995692fdd4810952259f", "rental_uris": {"ios": "https://dc.lft.to/lastmile_qr_scan", "android": "https://dc.lft.to/lastmile_qr_scan"}}, {"is_disabled": 0, "fusion_lat": 0.0, "lat": 38.92669583333333, "type": "electric_bike", "lon": -77.00819283333334, "is_reserved": 0, "fusion_lon": 0.0, "bike_id": "0f75f383eed62f583db09c86e39b4df2", "name": "0f75f383eed62f583db09c86e39b4df2", "rental_uris": {"ios": "https://dc.lft.to/lastmile_qr_scan", "android": "https://dc.lft.to/lastmile_qr_scan"}}, {"is_disabled": 0, "fusion_lat": 0.0, "lat": 38.934019666666664, "type": "electric_bike", "lon": -77.04129916666666, "is_reserved": 0, "fusion_lon": 0.0, "bike_id": "1441b1cb66c920ab869e136945806d22", "name": "1441b1cb66c920ab869e136945806d22", "rental_uris": {"ios": "https://dc.lft.to/lastmile_qr_scan", "android": "https://dc.lft.to/lastmile_qr_scan"}}, {"is_disabled": 0, "fusion_lat": 0.0, "lat": 38.8628585, "type": "electric_scooter", "lon": -76.99241266666667, "is_reserved": 0, "fusion_lon": 0.0, "bike_id": "186403753c8783da3f24b50cc067b0ce", "name": "186403753c8783da3f24b50cc067b0ce", "rental_uris": {"ios": "https://dc.lft.to/lastmile_qr_scan", "android": "https://dc.lft.to/lastmile_qr_scan"}}, {"is_disabled": 0, "fusion_lat": 0.0, "lat": 38.930927833333335, "type": "electric_scooter", "lon": -77.03766933333333, "is_reserved": 0, "fusion_lon": 0.0, "bike_id": "36c4fb38d4dfd2b20c6100c0103aef70", "name": "36c4fb38d4dfd2b20c6100c0103aef70", "rental_uris": {"ios": "https://dc.lft.to/lastmile_qr_scan", "android": "https://dc.lft.to/lastmile_qr_scan"}}, {"is_disabled": 0, "fusion_lat": 0.0, "lat": 38.93305516666667, "type": "electric_bike", "lon": -77.02159516666667, "is_reserved": 0, "fusion_lon": 0.0, "bike_id": "5b389add8b553cddce20a09850a69c87", "name": "5b389add8b553cddce20a09850a69c87", "rental_uris": {"ios": "https://dc.lft.to/lastmile_qr_scan", "android": "https://dc.lft.to/lastmile_qr_scan"}}, {"is_disabled": 0, "fusion_lat": 0.0, "lat": 38.87257783333333, "type": "electric_bike", "lon": -76.97911083333334, "is_reserved": 0, "fusion_lon": 0.0, "bike_id": "7486b2929d0674b322a04edeb4f6d769", "name": "7486b2929d0674b322a04edeb4f6d769", "rental_uris": {"ios": "https://dc.lft.to/lastmile_qr_scan", "android": "https://dc.lft.to/lastmile_qr_scan"}}, {"is_disabled": 0, "fusion_lat": 0.0, "lat": 38.926943333333334, "type": "electric_scooter", "lon": -77.02427916666667, "is_reserved": 0, "fusion_lon": 0.0, "bike_id": "ddccc99b16d0c966e22f41e1a90dab44", "name": "ddccc99b16d0c966e22f41e1a90dab44", "rental_uris": {"ios": "https://dc.lft.to/lastmile_qr_scan", "android": "https://dc.lft.to/lastmile_qr_scan"}}, {"is_disabled": 0, "fusion_lat": 0.0, "lat": 38.93462483333333, "type": "electric_scooter", "lon": -77.029342, "is_reserved": 0, "fusion_lon": 0.0, "bike_id": "ab9ce09af94ec76e252977e493342d39", "name": "ab9ce09af94ec76e252977e493342d39", "rental_uris": {"ios": "https://dc.lft.to/lastmile_qr_scan", "android": "https://dc.lft.to/lastmile_qr_scan"}}, {"is_disabled": 0, "fusion_lat": 0.0, "lat": 38.88704666666667, "type": "electric_scooter", "lon": -77.01374233333334, "is_reserved": 0, "fusion_lon": 0.0, "bike_id": "2074cfebd001ab731a69860a299657c2", "name": "2074cfebd001ab731a69860a299657c2", "rental_uris": {"ios": "https://dc.lft.to/lastmile_qr_scan", "android": "https://dc.lft.to/lastmile_qr_scan"}}, {"is_disabled": 0, "fusion_lat": 0.0, "lat": 38.877947166666665, "type": "electric_bike", "lon": -77.00753616666667, "is_reserved": 0, "fusion_lon": 0.0, "bike_id": "b7637586eb36f42598171ce2a6fab765", "name": "b7637586eb36f42598171ce2a6fab765", "rental_uris": {"ios": "https://dc.lft.to/lastmile_qr_scan", "android": "https://dc.lft.to/lastmile_qr_scan"}}, {"is_disabled": 0, "fusion_lat": 0.0, "lat": 38.89841666666667, "type": "electric_scooter", "lon": -76.94476633333333, "is_reserved": 0, "fusion_lon": 0.0, "bike_id": "d45d8031d5624aea06bfa574b7e62a58", "name": "d45d8031d5624aea06bfa574b7e62a58", "rental_uris": {"ios": "https://dc.lft.to/lastmile_qr_scan", "android": "https://dc.lft.to/lastmile_qr_scan"}}, {"is_disabled": 0, "fusion_lat": 0.0, "lat": 38.950117166666665, "type": "electric_bike", "lon": -77.01560166666667, "is_reserved": 0, "fusion_lon": 0.0, "bike_id": "a42dc97e6dec8cbb7469b537b4a5a533", "name": "a42dc97e6dec8cbb7469b537b4a5a533", "rental_uris": {"ios": "https://dc.lft.to/lastmile_qr_scan", "android": "https://dc.lft.to/lastmile_qr_scan"}}, {"is_disabled": 0, "fusion_lat": 0.0, "lat": 38.91681283333333, "type": "electric_scooter", "lon": -77.0295355, "is_reserved": 0, "fusion_lon": 0.0, "bike_id": "d817b39dc1c00b95fc52109840a2cd0e", "name": "d817b39dc1c00b95fc52109840a2cd0e", "rental_uris": {"ios": "https://dc.lft.to/lastmile_qr_scan", "android": "https://dc.lft.to/lastmile_qr_scan"}},