{"data": {"bikes": [{"is_reserved": 0, "bike_id": "b8a3ab2a39ad738b2c7e4119e919e06c", "type": "electric_scooter", "name": "b8a3ab2a39ad738b2c7e4119e919e06c", "is_disabled": 0, "fusion_lon": 0.0, "rental_uris": {"android": "https://dc.lft.to/lastmile_qr_scan", "ios": "https://dc.lft.to/lastmile_qr_scan"}, "lat": 38.85516333333333, "lon": -76.9863825, "fusion_lat": 0.0}, {"is_reserved": 0, "bike_id": "5cdaeb685eefc86bc6602412c95afd61", "type": "electric_scooter", "name": "5cdaeb685eefc86bc6602412c95afd61", "is_disabled": 0, "fusion_lon": 0.0, "rental_uris": {"android": "https://dc.lft.to/lastmile_qr_scan", "ios": "https://dc.lft.to/lastmile_qr_scan"}, "lat": 38.92827033333333, "lon": -77.022552, "fusion_lat": 0.0}, {"is_reserved": 0, "bike_id": "0752f9b18c7683b1e006ee38e11f278f", "type": "electric_scooter", "name": "0752f9b18c7683b1e006ee38e11f278f", "is_disabled": 0, "fusion_lon": 0.0, "rental_uris": {"android": "https://dc.lft.to/lastmile_qr_scan", "ios": "https://dc.lft.to/lastmile_qr_scan"}, "lat": 38.92125516666667, "lon": -77.01799183333334, "fusion_lat": 0.0}, {"is_reserved": 0, "bike_id": "979f090bb1949b0772056e8f8f3195f8", "type": "electric_scooter", "name": "979f090bb1949b0772056e8f8f3195f8", "is_disabled": 0, "fusion_lon": 0.0, "rental_uris": {"android": "https://dc.lft.to/lastmile_qr_scan", "ios": "https://dc.lft.to/lastmile_qr_scan"}, "lat": 38.8787705, "lon": -77.00053833333334, "fusion_lat": 0.0}, {"is_reserved": 0, "bike_id": "b15ef61690e5373c05f293ad333a9e01", "type": "electric_scooter", "name": "b15ef61690e5373c05f293ad333a9e01", "is_disabled": 0, "fusion_lon": 0.0, "rental_uris": {"android": "https://dc.lft.to/lastmile_qr_scan", "ios": "https://dc.lft.to/lastmile_qr_scan"}, "lat": 38.924641666666666, "lon": -77.0523785, "fusion_lat": 0.0}, {"is_reserved": 0, "bike_id": "42a2610adfcc31bc2e4a2f900f94bc09", "type": "electric_scooter", "name": "42a2610adfcc31bc2e4a2f900f94bc09", "is_disabled": 0, "fusion_lon": 0.0, "rental_uris": {"android": "https://dc.lft.to/lastmile_qr_scan", "ios": "https://dc.lft.to/lastmile_qr_scan"}, "lat": 38.911964, "lon": -77.03217566666666, "fusion_lat": 0.0}, {"is_reserved": 0, "bike_id": "394e51aba8b0ead109b527891db2c998", "type": "electric_scooter", "name": "394e51aba8b0ead109b527891db2c998", "is_disabled": 0, "fusion_lon": 0.0, "rental_uris": {"android": "https://dc.lft.to/lastmile_qr_scan", "ios": "https://dc.lft.to/lastmile_qr_scan"}, "lat": 38.895437, "lon": -77.00914633333333, "fusion_lat": 0.0}, {"is_reserved": 0, "bike_id": "aa46472012cae402b9eafd146065a7de", "type": "electric_scooter", "name": "aa46472012cae402b9eafd146065a7de", "is_disabled": 0, "fusion_lon": 0.0, "rental_uris": {"android": "https://dc.lft.to/lastmile_qr_scan", "ios": "https://dc.lft.to/lastmile_qr_scan"}, "lat": 38.916137666666664, "lon": -77.04862983333334, "fusion_lat": 0.0}, {"is_reserved": 0, "bike_id": "052803f9ffd148b9184dc94cd519eca1", "type": "electric_scooter", "name": "052803f9ffd148b9184dc94cd519eca1", "is_disabled": 0, "fusion_lon": 0.0, "rental_uris": {"android": "https://dc.lft.to/lastmile_qr_scan", "ios": "https://dc.lft.to/lastmile_qr_scan"}, "lat": 38.87789633333333, "lon": -77.001222, "fusion_lat": 0.0}, {"is_reserved": 0, "bike_id": "047ae0aa7f978077f191d39f49dbdaba", "type": "electric_scooter", "name": "047ae0aa7f978077f191d39f49dbdaba", "is_disabled": 0, "fusion_lon": 0.0, "rental_uris": {"android": "https://dc.lft.to/lastmile_qr_scan", "ios": "https://dc.lft.to/lastmile_qr_scan"}, "lat": 38.895368500000004, "lon": -76.98244966666667, "fusion_lat": 0.0}, {"is_reserved": 0, "bike_id": "80ce3f651ba4ce059792fdd034c0ba1d", "type": "electric_bike", "name": "80ce3f651ba4ce059792fdd034c0ba1d", "is_disabled": 0, "fusion_lon": 0.0, "rental_uris": {"android": "https://dc.lft.to/lastmile_qr_scan", "ios": "https://dc.lft.to/lastmile_qr_scan"}, "lat": 38.904726333333336, "lon": -76.929501, "fusion_lat": 0.0}, {"is_reserved": 0, "bike_id": "0e6d51c75db5211bdc89f23f95abd6cc", "type": "electric_scooter", "name": "0e6d51c75db5211bdc89f23f95abd6cc", "is_disabled": 0, "fusion_lon": 0.0, "rental_uris": {"android": "https://dc.lft.to/lastmile_qr_scan", "ios": "https://dc.lft.to/lastmile_qr_scan"}, "lat": 38.89723983333333, "lon": -76.9259555, "fusion_lat": 0.0}, {"is_reserved": 0, "bike_id": "cf54e1c2bc6888e791c6da1ab991b1f8", "type": "electric_scooter", "name": "cf54e1c2bc6888e791c6da1ab991b1f8", "is_disabled": 0, "fusion_lon": 0.0, "rental_uris": {"android": "https://dc.lft.to/lastmile_qr_scan", "ios": "https://dc.lft.to/lastmile_qr_scan"}, "lat": 38.91937516666667, "lon": -77.018039, "fusion_lat": 0.0}, {"is_reserved": 0, "bike_id": "34c53d2c19653050155d16700ee96465", "type": "electric_scooter", "name": "34c53d2c19653050155d16700ee96465", "is_disabled": 0, "fusion_lon": 0.0, "rental_uris": {"android": "https://dc.lft.to/lastmile_qr_scan", "ios": "https://dc.lft.to/lastmile_qr_scan"}, "lat": 38.906977, "lon": -77.03229116666667, "fusion_lat": 0.0}, {"is_reserved": 0, "bike_id": "91cbd635520d3a47d859ab0217b9db63", "type": "electric_scooter", "name": "91cbd635520d3a47d859ab0217b9db63", "is_disabled": 0, "fusion_lon": 0.0, "rental_uris": {"android": "https://dc.lft.to/lastmile_qr_scan", "ios": "https://dc.lft.to/lastmile_qr_scan"}, "lat": 38.920575666666664, "lon": -77.02357416666666, "fusion_lat": 0.0}, {"is_reserved": 0, "bike_id": "a29fe0508ef030840681c4f3e3d9b188", "type": "electric_bike", "name": "a29fe0508ef030840681c4f3e3d9b188", "is_disabled": 0, "fusion_lon": 0.0, "rental_uris": {"android": "https://dc.lft.to/lastmile_qr_scan", "ios": "https://dc.lft.to/lastmile_qr_scan"}, "lat": 38.9056405, "lon": -77.01852733333334, "fusion_lat": 0.0}, {"is_reserved": 0, "bike_id": "0d3baab5a2b7a37d5eec34bb89982763", "type": "electric_scooter", "name": "0d3baab5a2b7a37d5eec34bb89982763", "is_disabled": 0, "fusion_lon": 0.0, "rental_uris": {"android": "https://dc.lft.to/lastmile_qr_scan", "ios": "https://dc.lft.to/lastmile_qr_scan"}, "lat": 38.91415833333333, "lon": -77.021751, "fusion_lat": 0.0}, {"is_reserved": 0, "bike_id": "f114cc960fe74950d5d4db8c8a7a6b24", "type": "electric_scooter", "name": "f114cc960fe74950d5d4db8c8a7a6b24", "is_disabled": 0, "fusion_lon": 0.0, "rental_uris": {"android": "https://dc.lft.to/lastmile_qr_scan", "ios": "https://dc.lft.to/lastmile_qr_scan"}, "lat": 38.901424166666665, "lon": -77.03193433333334, "fusion_lat": 0.0}, {"is_reserved": 0, "bike_id": "59ba1f4ad9201a6ee4b0006a27aa464e", "type": "electric_scooter", "name": "59ba1f4ad9201a6ee4b0006a27aa464e", "is_disabled": 0, "fusion_lon": 0.0, "rental_uris": {"android": "https://dc.lft.to/lastmile_qr_scan", "ios": "https://dc.lft.to/lastmile_qr_scan"}, "lat": 38.90706516666667, "lon": -77.0298335, "fusion_lat": 0.0}, {"is_reserved": 0, "bike_id": "f71c0cb59901221da2713bd07a53b497", "type": "electric_scooter", "name": "f71c0cb59901221da2713bd07a53b497", "is_disabled": 0, "fusion_lon": 0.0, "rental_uris": {"android": "https://dc.lft.to/lastmile_qr_scan", "ios": "https://dc.lft.to/lastmile_qr_scan"}, "lat": 38.900324499999996, "lon": -76.9890955, "fusion_lat": 0.0}, {"is_reserved": 0, "bike_id": "53d7dc6155ca69517fd796edc792f06b", "type": "electric_scooter", "name": "53d7dc6155ca69517fd796edc792f06b", "is_disabled": 0, "fusion_lon": 0.0, "rental_uris": {"android": "https://dc.lft.to/lastmile_qr_scan", "ios": "https://dc.lft.to/lastmile_qr_scan"}, "lat": 38.923462666666666, "lon": -77.051824, "fusion_lat": 0.0}, {"is_reserved": 0, "bike_id": "cf4a8774fd44ac45ffeafbd11f03588e", "type": "electric_scooter", "name": "cf4a8774fd44ac45ffeafbd11f03588e", "is_disabled": 0, "fusion_lon": 0.0, "rental_uris": {"android": "https://dc.lft.to/lastmile_qr_scan", "ios": "https://dc.lft.to/lastmile_qr_scan"}, "lat": 38.92622183333334, "lon": -77.03312683333333, "fusion_lat": 0.0}, {"is_reserved": 0, "bike_id": "e77ed782bb7690cde479dbb41bb8860b", "type": "electric_scooter", "name": "e77ed782bb7690cde479dbb41bb8860b", "is_disabled": 0, "fusion_lon": 0.0, "rental_uris": {"android": "https://dc.lft.to/lastmile_qr_scan", "ios": "https://dc.lft.to/lastmile_qr_scan"}, "lat": 38.9042715, "lon": -77.028456, "fusion_lat": 0.0}, {"is_reserved": 0, "bike_id": "86cec998a60090f5537a8bd22eb9c3e3", "type": "electric_bike", "name": "86cec998a60090f5537a8bd22eb9c3e3", "is_disabled": 0, "fusion_lon": 0.0, "rental_uris": {"android": "https://dc.lft.to/lastmile_qr_scan", "ios": "https://dc.lft.to/lastmile_qr_scan"}, "lat": 38.99498783333333, "lon": -77.00134966666667, "fusion_lat": 0.0}, {"is_reserved": 0, "bike_id": "aa7c5dd9d6548e7090d1888c41c05c0d", "type": "electric_scooter", "name": "aa7c5dd9d6548e7090d1888c41c05c0d", "is_disabled": 0, "fusion_lon": 0.0, "rental_uris": {"android": "https://dc.lft.to/lastmile_qr_scan", "ios": "https://dc.lft.to/lastmile_qr_scan"}, "lat": 38.9265175, "lon": -77.0373105, "fusion_lat": 0.0}, {"is_reserved": 0, "bike_id": "60da267334688c78fac428d5dfa5406d", "type": "electric_scooter", "name": "60da267334688c78fac428d5dfa5406d", "is_disabled": 0, "fusion_lon": 0.0, "rental_uris": {"android": "https://dc.lft.to/lastmile_qr_scan", "ios": "https://dc.lft.to/lastmile_qr_scan"}, "lat": 38.941887, "lon": -77.0309845, "fusion_lat": 0.0}, {"is_reserved": 0, "bike_id": "f0f51103a8ff5fb7e704dc2a8523a8eb", "type": "electric_bike", "name": "f0f51103a8ff5fb7e704dc2a8523a8eb", "is_disabled": 0, "fusion_lon": 0.0, "rental_uris": {"android": "https://dc.lft.to/lastmile_qr_scan", "ios": "https://dc.lft.to/lastmile_qr_scan"}, "lat": 38.91741716666667, "lon": -77.00766383333334, "fusion_lat": 0.0}, {"is_reserved": 0, "bike_id": "7e67d32ba46e3124bee5c77eb8d181f4", "type": "electric_scooter", "name": "7e67d32ba46e3124bee5c77eb8d181f4", "is_disabled": 0, "fusion_lon": 0.0, "rental_uris": {"android": "https://dc.lft.to/lastmile_qr_scan", "ios": "https://dc.lft.to/lastmile_qr_scan"}, "lat": 38.89200066666667, "lon": -76.9570355, "fusion_lat": 0.0}, {"is_reserved": 0, "bike_id": "922db90f8f40ae85016bdebaab96dd8f", "type": "electric_scooter", "name": "922db90f8f40ae85016bdebaab96dd8f", "is_disabled": 0, "fusion_lon": 0.0, "rental_uris": {"android": "https://dc.lft.to/lastmile_qr_scan", "ios": "https://dc.lft.to/lastmile_qr_scan"}, "lat": 38.8761965, "lon": -77.0011975, "fusion_lat": 0.0}, {"is_reserved": 0, "bike_id": "9564f84c9b90d06d4c89243efa87ae1c", "type": "electric_scooter", "name": "9564f84c9b90d06d4c89243efa87ae1c", "is_disabled": 0, "fusion_lon": 0.0, "rental_uris": {"android": "https://dc.lft.to/lastmile_qr_scan", "ios": "https://dc.lft.to/lastmile_qr_scan"}, "lat": 38.9097305, "lon": -77.08127566666667, "fusion_lat": 0.0}, {"is_reserved": 0, "bike_id": "2e011110ab3aad706d8dfe71a50e17f5", "type": "electric_scooter", "name": "2e011110ab3aad706d8dfe71a50e17f5", "is_disabled": 0, "fusion_lon": 0.0, "rental_uris": {"android": "https://dc.lft.to/lastmile_qr_scan", "ios": "https://dc.lft.to/lastmile_qr_scan"}, "lat": 38.908645666666665, "lon": -77.08592766666666, "fusion_lat": 0.0}, {"is_reserved": 0, "bike_id": "3df8e394b94c008a87e82be42fdcf754", "type": "electric_scooter", "name": "3df8e394b94c008a87e82be42fdcf754", "is_disabled": 0, "fusion_lon": 0.0, "rental_uris": {"android": "https://dc.lft.to/lastmile_qr_scan", "ios": "https://dc.lft.to/lastmile_qr_scan"}, "lat": 38.887266, "lon": -76.98358616666667, "fusion_lat": 0.0}, {"is_reserved": 0, "bike_id": "267b65db6bec0dadcd30b5ded1ab6a78", "type": "electric_scooter", "name": "267b65db6bec0dadcd30b5ded1ab6a78", "is_disabled": 0, "fusion_lon": 0.0, "rental_uris": {"android": "https://dc.lft.to/lastmile_qr_scan", "ios": "https://dc.lft.to/lastmile_qr_scan"}, "lat": 38.929523833333334, "lon": -77.0440665, "fusion_lat": 0.0}, {"is_reserved": 0, "bike_id": "c7d4e58e7cf644f7c6b0bcde02b90839", "type": "electric_scooter", "name": "c7d4e58e7cf644f7c6b0bcde02b90839", "is_disabled": 0, "fusion_lon": 0.0, "rental_uris": {"android": "https://dc.lft.to/lastmile_qr_scan", "ios": "https://dc.lft.to/lastmile_qr_scan"}, "lat": 38.875444333333334, "lon": -77.00542283333333, "fusion_lat": 0.0}, {"is_reserved": 0, "bike_id": "64383fc5e3d86ed96187d9ecc6657343", "type": "electric_scooter", "name": "64383fc5e3d86ed96187d9ecc6657343", "is_disabled": 0, "fusion_lon": 0.0, "rental_uris": {"android": "https://dc.lft.to/lastmile_qr_scan", "ios": "https://dc.lft.to/lastmile_qr_scan"}, "lat": 38.92166533333334, "lon": -77.01917283333333, "fusion_lat": 0.0}, {"is_reserved": 0, "bike_id": "ef0c51cc05c17c68462b1adc9b2e49f8", "type": "electric_scooter", "name": "ef0c51cc05c17c68462b1adc9b2e49f8", "is_disabled": 0, "fusion_lon": 0.0, "rental_uris": {"android": "https://dc.lft.to/lastmile_qr_scan", "ios": "https://dc.lft.to/lastmile_qr_scan"}, "lat": 38.87912133333333, "lon": -76.98538883333333, "fusion_lat": 0.0}, {"is_reserved": 0, "bike_id": "44e1bd0492995513b988d650db2235c1", "type": "electric_scooter", "name": "44e1bd0492995513b988d650db2235c1", "is_disabled": 0, "fusion_lon": 0.0, "rental_uris": {"android": "https://dc.lft.to/lastmile_qr_scan", "ios": "https://dc.lft.to/lastmile_qr_scan"}, "lat": 38.90612183333333, "lon": -77.05685733333334, "fusion_lat": 0.0}, {"is_reserved": 0, "bike_id": "afddc73f0275cc09ea99dabe87b3b266", "type": "electric_scooter", "name": "afddc73f0275cc09ea99dabe87b3b266", "is_disabled": 0, "fusion_lon": 0.0, "rental_uris": {"android": "https://dc.lft.to/lastmile_qr_scan", "ios": "https://dc.lft.to/lastmile_qr_scan"}, "lat": 38.90236816666667, "lon": -77.00200633333333, "fusion_lat": 0.0}, {"is_reserved": 0, "bike_id": "f55a5852dd6eadef9ac05f0173020710", "type": "electric_scooter", "name": "f55a5852dd6eadef9ac05f0173020710", "is_disabled": 0, "fusion_lon": 0.0, "rental_uris": {"android": "https://dc.lft.to/lastmile_qr_scan", "ios": "https://dc.lft.to/lastmile_qr_scan"}, "lat": 38.872889, "lon": -77.00983, "fusion_lat": 0.0}, {"is_reserved": 0, "bike_id": "6f892dd1d34bf2efdc83f0c99cab76e7", "type": "electric_bike", "name": "6f892dd1d34bf2efdc83f0c99cab76e7", "is_disabled": 0, "fusion_lon": 0.0, "rental_uris": {"android": "https://dc.lft.to/lastmile_qr_scan", "ios": "https://dc.lft.to/lastmile_qr_scan"}, "lat": 38.90351066666667, "lon": -77.03174883333334, "fusion_lat": 0.0}, {"is_reserved": 0, "bike_id": "5a01a6b28bf38ec08cce93f5274af198", "type": "electric_scooter", "name": "5a01a6b28bf38ec08cce93f5274af198", "is_disabled": 0, "fusion_lon": 0.0, "rental_uris": {"android": "https://dc.lft.to/lastmile_qr_scan", "ios": "https://dc.lft.to/lastmile_qr_scan"}, "lat": 38.89908, "lon": -77.04328716666667, "fusion_lat": 0.0}, {"is_reserved": 0, "bike_id": "93598e10cd13a397dceb350b0c439d8e", "type": "electric_scooter", "name": "93598e10cd13a397dceb350b0c439d8e", "is_disabled": 0, "fusion_lon": 0.0, "rental_uris": {"android": "https://dc.lft.to/lastmile_qr_scan", "ios": "https://dc.lft.to/lastmile_qr_scan"}, "lat": 38.928371, "lon": -77.01425616666667, "fusion_lat": 0.0}, {"is_reserved": 0, "bike_id": "dd0ca5d52cf228a51777075aa7ef29e7", "type": "electric_scooter", "name": "dd0ca5d52cf228a51777075aa7ef29e7", "is_disabled": 0, "fusion_lon": 0.0, "rental_uris": {"android": "https://dc.lft.to/lastmile_qr_scan", "ios": "https://dc.lft.to/lastmile_qr_scan"}, "lat": 38.898149833333335, "lon": -77.04995633333333, "fusion_lat": 0.0}, {"is_reserved": 0, "bike_id": "f855ca7d9af56a9a89bbe90e1ba32895", "type": "electric_scooter", "name": "f855ca7d9af56a9a89bbe90e1ba32895", "is_disabled": 0, "fusion_lon": 0.0, "rental_uris": {"android": "https://dc.lft.to/lastmile_qr_scan", "ios": "https://dc.lft.to/lastmile_qr_scan"}, "lat": 38.881355666666664, "lon": -77.0234635, "fusion_lat": 0.0}, {"is_reserved": 0, "bike_id": "db8ff51af4363d3e9aed0266140261fc", "type": "electric_scooter", "name": "db8ff51af4363d3e9aed0266140261fc", "is_disabled": 0, "fusion_lon": 0.0, "rental_uris": {"android": "https://dc.lft.to/lastmile_qr_scan", "ios": "https://dc.lft.to/lastmile_qr_scan"}, "lat": 38.9026235, "lon": -77.017465, "fusion_lat": 0.0}, {"is_reserved": 0, "bike_id": "957357e6682e59304f913af4077cedfe", "type": "electric_scooter", "name": "957357e6682e59304f913af4077cedfe", "is_disabled": 0, "fusion_lon": 0.0, "rental_uris": {"android": "https://dc.lft.to/lastmile_qr_scan", "ios": "https://dc.lft.to/lastmile_qr_scan"}, "lat": 38.91057983333334, "lon": -77.0528925, "fusion_lat": 0.0}, {"is_reserved": 0, "bike_id": "124f7d0b4a9f92f15ea56792d7df067d", "type": "electric_scooter", "name": "124f7d0b4a9f92f15ea56792d7df067d", "is_disabled": 0, "fusion_lon": 0.0, "rental_uris": {"android": "https://dc.lft.to/lastmile_qr_scan", "ios": "https://dc.lft.to/lastmile_qr_scan"}, "lat": 38.902068666666665, "lon": -77.04335633333334, "fusion_lat": 0.0}, {"is_reserved": 0, "bike_id": "ad4ba71d685284c0f24ca396508d43fc", "type": "electric_scooter", "name": "ad4ba71d685284c0f24ca396508d43fc", "is_disabled": 0, "fusion_lon": 0.0, "rental_uris": {"android": "https://dc.lft.to/lastmile_qr_scan", "ios": "https://dc.lft.to/lastmile_qr_scan"}, "lat": 38.91110033333333, "lon": -77.05032966666667, "fusion_lat": 0.0}, {"is_reserved": 0, "bike_id": "8267d65ef0e713e22c3c41da4d255179", "type": "electric_scooter", "name": "8267d65ef0e713e22c3c41da4d255179", "is_disabled": 0, "fusion_lon": 0.0, "rental_uris": {"android": "https://dc.lft.to/lastmile_qr_scan", "ios": "https://dc.lft.to/lastmile_qr_scan"}, "lat": 38.877804, "lon": -76.9941155, "fusion_lat": 0.0}, {"is_reserved": 0, "bike_id": "4b60f13bc15fa52a2294501ddfc96083", "type": "electric_scooter", "name": "4b60f13bc15fa52a2294501ddfc96083", "is_disabled": 0, "fusion_lon": 0.0, "rental_uris": {"android": "https://dc.lft.to/lastmile_qr_scan", "ios": "https://dc.lft.to/lastmile_qr_scan"}, "lat": 38.9360845, "lon": -77.05893066666667, "fusion_lat": 0.0}, {"is_reserved": 0, "bike_id": "4ac09fc65ba609a65f7c1f02b20ba10b", "type": "electric_scooter", "name": "4ac09fc65ba609a65f7c1f02b20ba10b", "is_disabled": 0, "fusion_lon": 0.0, "rental_uris": {"android": "https://dc.lft.to/lastmile_qr_scan", "ios": "https://dc.lft.to/lastmile_qr_scan"}, "lat": 38.91631616666667, "lon": -77.03211233333333, "fusion_lat": 0.0}, {"is_reserved": 0, "bike_id": "f250bdf5a25229c7c777eafade78d9b4", "type": "electric_scooter", "name": "f250bdf5a25229c7c777eafade78d9b4", "is_disabled": 0, "fusion_lon": 0.0, "rental_uris": {"android": "https://dc.lft.to/lastmile_qr_scan", "ios": "https://dc.lft.to/lastmile_qr_scan"}, "lat": 38.92651033333333, "lon": -77.03729866666667, "fusion_lat": 0.0}, {"is_reserved": 0, "bike_id": "239bb84034eca6096911cc1cb7c7c776", "type": "electric_scooter", "name": "239bb84034eca6096911cc1cb7c7c776", "is_disabled": 0, "fusion_lon": 0.0, "rental_uris": {"android": "https://dc.lft.to/lastmile_qr_scan", "ios": "https://dc.lft.to/lastmile_qr_scan"}, "lat": 38.9193145, "lon": -77.0342345, "fusion_lat": 0.0}, {"is_reserved": 0, "bike_id": "dc6adb71c8554ad6c38b79b47a5f7c9c", "type": "electric_scooter", "name": "dc6adb71c8554ad6c38b79b47a5f7c9c", "is_disabled": 0, "fusion_lon": 0.0, "rental_uris": {"android": "https://dc.lft.to/lastmile_qr_scan", "ios": "https://dc.lft.to/lastmile_qr_scan"}, "lat": 38.88969933333333, "lon": -77.04022283333333, "fusion_lat": 0.0}, {"is_reserved": 0, "bike_id": "9f5c9b9a30560d3f737428c60530ee2a", "type": "electric_scooter", "name": "9f5c9b9a30560d3f737428c60530ee2a", "is_disabled": 0, "fusion_lon": 0.0, "rental_uris": {"android": "https://dc.lft.to/lastmile_qr_scan", "ios": "https://dc.lft.to/lastmile_qr_scan"}, "lat": 38.91393083333333, "lon": -77.010159, "fusion_lat": 0.0}, {"is_reserved": 0, "bike_id": "c7b583a8ee5b9d2496c693852701ca9c", "type": "electric_scooter", "name": "c7b583a8ee5b9d2496c693852701ca9c", "is_disabled": 0, "fusion_lon": 0.0, "rental_uris": {"android": "https://dc.lft.to/lastmile_qr_scan", "ios": "https://dc.lft.to/lastmile_qr_scan"}, "lat": 38.903470166666665, "lon": -76.92943683333333, "fusion_lat": 0.0}, {"is_reserved": 0, "bike_id": "51ce28209e9c7a0e62ef19f5e5f8e0be", "type": "electric_scooter", "name": "51ce28209e9c7a0e62ef19f5e5f8e0be", "is_disabled": 0, "fusion_lon": 0.0, "rental_uris": {"android": "https://dc.lft.to/lastmile_qr_scan", "ios": "https://dc.lft.to/lastmile_qr_scan"}, "lat": 38.909808166666664, "lon": -77.06603516666667, "fusion_lat": 0.0}, {"is_reserved": 0, "bike_id": "483a6c5882673257b5109d316f27091a", "type": "electric_scooter", "name": "483a6c5882673257b5109d316f27091a", "is_disabled": 0, "fusion_lon": 0.0, "rental_uris": {"android": "https://dc.lft.to/lastmile_qr_scan", "ios": "https://dc.lft.to/lastmile_qr_scan"}, "lat": 38.91666883333333, "lon": -77.02207933333334, "fusion_lat": 0.0}, {"is_reserved": 0, "bike_id": "b1f6d4e1e30dc585e2bca5529559b5d9", "type": "electric_scooter", "name": "b1f6d4e1e30dc585e2bca5529559b5d9", "is_disabled": 0, "fusion_lon": 0.0, "rental_uris": {"android": "https://dc.lft.to/lastmile_qr_scan", "ios": "https://dc.lft.to/lastmile_qr_scan"}, "lat": 38.92785766666667, "lon": -77.03150983333333, "fusion_lat": 0.0}, {"is_reserved": 0, "bike_id": "244518863c6ba5ab5048d62bb0016318", "type": "electric_scooter", "name": "244518863c6ba5ab5048d62bb0016318", "is_disabled": 0, "fusion_lon": 0.0, "rental_uris": {"android": "https://dc.lft.to/lastmile_qr_scan", "ios": "https://dc.lft.to/lastmile_qr_scan"}, "lat": 38.9265985, "lon": -77.02275833333333, "fusion_lat": 0.0}, {"is_reserved": 0, "bike_id": "f8cb3f8161c27935f2cabd38f32751d0", "type": "electric_scooter", "name": "f8cb3f8161c27935f2cabd38f32751d0", "is_disabled": 0, "fusion_lon": 0.0, "rental_uris": {"android": "https://dc.lft.to/lastmile_qr_scan", "ios": "https://dc.lft.to/lastmile_qr_scan"}, "lat": 38.919288, "lon": -77.02508483333334, "fusion_lat": 0.0}, {"is_reserved": 0, "bike_id": "d153bb1fb69dfac6c252ef9ab5bffa8d", "type": "electric_bike", "name": "d153bb1fb69dfac6c252ef9ab5bffa8d", "is_disabled": 0, "fusion_lon": 0.0, "rental_uris": {"android": "https://dc.lft.to/lastmile_qr_scan", "ios": "https://dc.lft.to/lastmile_qr_scan"}, "lat": 38.95876833333333, "lon": -77.0102585, "fusion_lat": 0.0}, {"is_reserved": 0, "bike_id": "7f9540917e753cb8cc03ed327742cda2", "type": "electric_scooter", "name": "7f9540917e753cb8cc03ed327742cda2", "is_disabled": 0, "fusion_lon": 0.0, "rental_uris": {"android": "https://dc.lft.to/lastmile_qr_scan", "ios": "https://dc.lft.to/lastmile_qr_scan"}, "lat": 38.919639, "lon": -77.03856266666666, "fusion_lat": 0.0}, {"is_reserved": 0, "bike_id": "2db0948ef2454eb9bec9c5e55d2e4c9b", "type": "electric_scooter", "name": "2db0948ef2454eb9bec9c5e55d2e4c9b", "is_disabled": 0, "fusion_lon": 0.0, "rental_uris": {"android": "https://dc.lft.to/lastmile_qr_scan", "ios": "https://dc.lft.to/lastmile_qr_scan"}, "lat": 38.922178333333335, "lon": -77.04439583333334, "fusion_lat": 0.0}, {"is_reserved": 0, "bike_id": "4288fa4744f404db92fcbbab35e94365", "type": "electric_bike", "name": "4288fa4744f404db92fcbbab35e94365", "is_disabled": 0, "fusion_lon": 0.0, "rental_uris": {"android": "https://dc.lft.to/lastmile_qr_scan", "ios": "https://dc.lft.to/lastmile_qr_scan"}, "lat": 38.876657, "lon": -77.00012283333334, "fusion_lat": 0.0}, {"is_reserved": 0, "bike_id": "542bd21b6d5416011096dc8961e08141", "type": "electric_scooter", "name": "542bd21b6d5416011096dc8961e08141", "is_disabled": 0, "fusion_lon": 0.0, "rental_uris": {"android": "https://dc.lft.to/lastmile_qr_scan", "ios": "https://dc.lft.to/lastmile_qr_scan"}, "lat": 38.96221033333333, "lon": -77.027882, "fusion_lat": 0.0}, {"is_reserved": 0, "bike_id": "b6d02110a50f6a93a48afb0dca902aa5", "type": "electric_scooter", "name": "b6d02110a50f6a93a48afb0dca902aa5", "is_disabled": 0, "fusion_lon": 0.0, "rental_uris": {"android": "https://dc.lft.to/lastmile_qr_scan", "ios": "https://dc.lft.to/lastmile_qr_scan"}, "lat": 38.90303566666667, "lon": -77.036752, "fusion_lat": 0.0}, {"is_reserved": 0, "bike_id": "5ea6eefb28b61edc2ba98ff1a786e6c4", "type": "electric_scooter", "name": "5ea6eefb28b61edc2ba98ff1a786e6c4", "is_disabled": 0, "fusion_lon": 0.0, "rental_uris": {"android": "https://dc.lft.to/lastmile_qr_scan", "ios": "https://dc.lft.to/lastmile_qr_scan"}, "lat": 38.92019916666667, "lon": -77.071377, "fusion_lat": 0.0}, {"is_reserved": 0, "bike_id": "f6c83b39e0a875023247bd6dad35a011", "type": "electric_bike", "name": "f6c83b39e0a875023247bd6dad35a011", "is_disabled": 0, "fusion_lon": 0.0, "rental_uris": {"android": "https://dc.lft.to/lastmile_qr_scan", "ios": "https://dc.lft.to/lastmile_qr_scan"}, "lat": 38.89949, "lon": -77.04968366666667, "fusion_lat": 0.0}, {"is_reserved": 0, "bike_id": "108b3699cac2e3ae3f64699b6954d0d6", "type": "electric_scooter", "name": "108b3699cac2e3ae3f64699b6954d0d6", "is_disabled": 0, "fusion_lon": 0.0, "rental_uris": {"android": "https://dc.lft.to/lastmile_qr_scan", "ios": "https://dc.lft.to/lastmile_qr_scan"}, "lat": 38.8986955, "lon": -76.94665666666667, "fusion_lat": 0.0}, {"is_reserved": 0, "bike_id": "13e05172ef3d88976fd8f472e38bdd57", "type": "electric_scooter", "name": "13e05172ef3d88976fd8f472e38bdd57", "is_disabled": 0, "fusion_lon": 0.0, "rental_uris": {"android": "https://dc.lft.to/lastmile_qr_scan", "ios": "https://dc.lft.to/lastmile_qr_scan"}, "lat": 38.9102725, "lon": -77.0326975, "fusion_lat": 0.0}, {"is_reserved": 0, "bike_id": "5a08fc6642706e63c2502c6ef3293417", "type": "electric_bike", "name": "5a08fc6642706e63c2502c6ef3293417", "is_disabled": 0, "fusion_lon": 0.0, "rental_uris": {"android": "https://dc.lft.to/lastmile_qr_scan", "ios": "https://dc.lft.to/lastmile_qr_scan"}, "lat": 38.90901816666667, "lon": -77.0900535, "fusion_lat": 0.0}, {"is_reserved": 0, "bike_id": "46130b24367f0380b87afa84ec4bd594", "type": "electric_scooter", "name": "46130b24367f0380b87afa84ec4bd594", "is_disabled": 0, "fusion_lon": 0.0, "rental_uris": {"android": "https://dc.lft.to/lastmile_qr_scan", "ios": "https://dc.lft.to/lastmile_qr_scan"}, "lat": 38.910047666666664, "lon": -76.99389333333333, "fusion_lat": 0.0}, {"is_reserved": 0, "bike_id": "4605fd7c262050ff3dac1f6414d370e3", "type": "electric_scooter", "name": "4605fd7c262050ff3dac1f6414d370e3", "is_disabled": 0, "fusion_lon": 0.0, "rental_uris": {"android": "https://dc.lft.to/lastmile_qr_scan", "ios": "https://dc.lft.to/lastmile_qr_scan"}, "lat": 38.918493166666664, "lon": -77.01296683333334, "fusion_lat": 0.0}, {"is_reserved": 0, "bike_id": "dcc670d9c92793d3b1455f4daa962c9a", "type": "electric_scooter", "name": "dcc670d9c92793d3b1455f4daa962c9a", "is_disabled": 0, "fusion_lon": 0.0, "rental_uris": {"android": "https://dc.lft.to/lastmile_qr_scan", "ios": "https://dc.lft.to/lastmile_qr_scan"}, "lat": 38.93532666666667, "lon": -77.02352033333334, "fusion_lat": 0.0}, {"is_reserved": 0, "bike_id": "c3475860639eee00d0b98f40139fb0aa", "type": "electric_scooter", "name": "c3475860639eee00d0b98f40139fb0aa", "is_disabled": 0, "fusion_lon": 0.0, "rental_uris": {"android": "https://dc.lft.to/lastmile_qr_scan", "ios": "https://dc.lft.to/lastmile_qr_scan"}, "lat": 38.91921766666667, "lon": -77.0799775, "fusion_lat": 0.0}, {"is_reserved": 0, "bike_id": "9361373a0d291829c9435532b80a40c5", "type": "electric_scooter", "name": "9361373a0d291829c9435532b80a40c5", "is_disabled": 0, "fusion_lon": 0.0, "rental_uris": {"android": "https://dc.lft.to/lastmile_qr_scan", "ios": "https://dc.lft.to/lastmile_qr_scan"}, "lat": 38.91194566666667, "lon": -77.03255916666667, "fusion_lat": 0.0}, {"is_reserved": 0, "bike_id": "b180e2ff2ba4abdbedf7ef2ecd7d3c72", "type": "electric_scooter", "name": "b180e2ff2ba4abdbedf7ef2ecd7d3c72", "is_disabled": 0, "fusion_lon": 0.0, "rental_uris": {"android": "https://dc.lft.to/lastmile_qr_scan", "ios": "https://dc.lft.to/lastmile_qr_scan"}, "lat": 38.900883, "lon": -76.9834115, "fusion_lat": 0.0}, {"is_reserved": 0, "bike_id": "45efc18198701e7f6ff1ae9276422883", "type": "electric_scooter", "name": "45efc18198701e7f6ff1ae9276422883", "is_disabled": 0, "fusion_lon": 0.0, "rental_uris": {"android": "https://dc.lft.to/lastmile_qr_scan", "ios": "https://dc.lft.to/lastmile_qr_scan"}, "lat": 38.904080666666665, "lon": -76.9732895, "fusion_lat": 0.0}, {"is_reserved": 0, "bike_id": "5a54755da8a540d8866b582028631456", "type": "electric_scooter", "name": "5a54755da8a540d8866b582028631456", "is_disabled": 0, "fusion_lon": 0.0, "rental_uris": {"android": "https://dc.lft.to/lastmile_qr_scan", "ios": "https://dc.lft.to/lastmile_qr_scan"}, "lat": 38.912337666666666, "lon": -77.018925, "fusion_lat": 0.0}, {"is_reserved": 0, "bike_id": "c7974f5e4ed4a8e6095ad984e477e861", "type": "electric_scooter", "name": "c7974f5e4ed4a8e6095ad984e477e861", "is_disabled": 0, "fusion_lon": 0.0, "rental_uris": {"android": "https://dc.lft.to/lastmile_qr_scan", "ios": "https://dc.lft.to/lastmile_qr_scan"}, "lat": 38.90288266666667, "lon": -77.00204733333334, "fusion_lat": 0.0}, {"is_reserved": 0, "bike_id": "73f65875ca1af5c35901637c665d7a12", "type": "electric_scooter", "name": "73f65875ca1af5c35901637c665d7a12", "is_disabled": 0, "fusion_lon": 0.0, "rental_uris": {"android": "https://dc.lft.to/lastmile_qr_scan", "ios": "https://dc.lft.to/lastmile_qr_scan"}, "lat": 38.94414583333333, "lon": -77.0633935, "fusion_lat": 0.0}, {"is_reserved": 0, "bike_id": "0e4e68cf6356337934aab35c580439c5", "type": "electric_scooter", "name": "0e4e68cf6356337934aab35c580439c5", "is_disabled": 0, "fusion_lon": 0.0, "rental_uris": {"android": "https://dc.lft.to/lastmile_qr_scan", "ios": "https://dc.lft.to/lastmile_qr_scan"}, "lat": 38.9287175, "lon": -77.03303116666666, "fusion_lat": 0.0}, {"is_reserved": 0, "bike_id": "f9c93ab5b21820729583276304d74cc0", "type": "electric_scooter", "name": "f9c93ab5b21820729583276304d74cc0", "is_disabled": 0, "fusion_lon": 0.0, "rental_uris": {"android": "https://dc.lft.to/lastmile_qr_scan", "ios": "https://dc.lft.to/lastmile_qr_scan"}, "lat": 38.9152885, "lon": -77.04469333333333, "fusion_lat": 0.0}, {"is_reserved": 0, "bike_id": "580bec00cb370ae875968017271299f0", "type": "electric_scooter", "name": "580bec00cb370ae875968017271299f0", "is_disabled": 0, "fusion_lon": 0.0, "rental_uris": {"android": "https://dc.lft.to/lastmile_qr_scan", "ios": "https://dc.lft.to/lastmile_qr_scan"}, "lat": 38.891358, "lon": -76.99034016666667, "fusion_lat": 0.0}, {"is_reserved": 0, "bike_id": "883450eef55ba131bcb22aa3cdb092ed", "type": "electric_scooter", "name": "883450eef55ba131bcb22aa3cdb092ed", "is_disabled": 0, "fusion_lon": 0.0, "rental_uris": {"android": "https://dc.lft.to/lastmile_qr_scan", "ios": "https://dc.lft.to/lastmile_qr_scan"}, "lat": 38.896805666666666, "lon": -77.00498366666666, "fusion_lat": 0.0}, {"is_reserved": 0, "bike_id": "98adc920d1027c47c2f2c80803e51432", "type": "electric_scooter", "name": "98adc920d1027c47c2f2c80803e51432", "is_disabled": 0, "fusion_lon": 0.0, "rental_uris": {"android": "https://dc.lft.to/lastmile_qr_scan", "ios": "https://dc.lft.to/lastmile_qr_scan"}, "lat": 38.93616883333333, "lon": -77.03283783333333, "fusion_lat": 0.0}, {"is_reserved": 0, "bike_id": "abefc0a9a0aee8bcba05478196c56fa3", "type": "electric_scooter", "name": "abefc0a9a0aee8bcba05478196c56fa3", "is_disabled": 0, "fusion_lon": 0.0, "rental_uris": {"android": "https://dc.lft.to/lastmile_qr_scan", "ios": "https://dc.lft.to/lastmile_qr_scan"}, "lat": 38.90120816666666, "lon": -77.043977, "fusion_lat": 0.0}, {"is_reserved": 0, "bike_id": "bb419c5161433c7df78f4f23e9f4cdba", "type": "electric_scooter", "name": "bb419c5161433c7df78f4f23e9f4cdba", "is_disabled": 0, "fusion_lon": 0.0, "rental_uris": {"android": "https://dc.lft.to/lastmile_qr_scan", "ios": "https://dc.lft.to/lastmile_qr_scan"}, "lat": 38.93263616666667, "lon": -77.0327255, "fusion_lat": 0.0}, {"is_reserved": 0, "bike_id": "547bd1f04f7334d49632ace8e4f318c5", "type": "electric_scooter", "name": "547bd1f04f7334d49632ace8e4f318c5", "is_disabled": 0, "fusion_lon": 0.0, "rental_uris": {"android": "https://dc.lft.to/lastmile_qr_scan", "ios": "https://dc.lft.to/lastmile_qr_scan"}, "lat": 38.8874135, "lon": -77.02130516666666, "fusion_lat": 0.0}, {"is_reserved": 0, "bike_id": "85057a84aee932d5c40285869b3f981b", "type": "electric_scooter", "name": "85057a84aee932d5c40285869b3f981b", "is_disabled": 0, "fusion_lon": 0.0, "rental_uris": {"android": "https://dc.lft.to/lastmile_qr_scan", "ios": "https://dc.lft.to/lastmile_qr_scan"}, "lat": 38.91678816666666, "lon": -77.036863, "fusion_lat": 0.0}, {"is_reserved": 0, "bike_id": "68eaacf60052cc80666ecf70605a6678", "type": "electric_scooter", "name": "68eaacf60052cc80666ecf70605a6678", "is_disabled": 0, "fusion_lon": 0.0, "rental_uris": {"android": "https://dc.lft.to/lastmile_qr_scan", "ios": "https://dc.lft.to/lastmile_qr_scan"}, "lat": 38.90011416666667, "lon": -77.01121283333333, "fusion_lat": 0.0}, {"is_reserved": 0, "bike_id": "638c80c5aea35cdcfb8c072111bc0b81", "type": "electric_scooter", "name": "638c80c5aea35cdcfb8c072111bc0b81", "is_disabled": 0, "fusion_lon": 0.0, "rental_uris": {"android": "https://dc.lft.to/lastmile_qr_scan", "ios": "https://dc.lft.to/lastmile_qr_scan"}, "lat": 38.872332666666665, "lon": -76.96814833333333, "fusion_lat": 0.0}, {"is_reserved": 0, "bike_id": "b676a5f9ae8ba570ef6d3a75b135c258", "type": "electric_scooter", "name": "b676a5f9ae8ba570ef6d3a75b135c258", "is_disabled": 0, "fusion_lon": 0.0, "rental_uris": {"android": "https://dc.lft.to/lastmile_qr_scan", "ios": "https://dc.lft.to/lastmile_qr_scan"}, "lat": 38.9028085, "lon": -77.01756666666667, "fusion_lat": 0.0}, {"is_reserved": 0, "bike_id": "e11bda20fefd8b2a996934d15595280a", "type": "electric_scooter", "name": "e11bda20fefd8b2a996934d15595280a", "is_disabled": 0, "fusion_lon": 0.0, "rental_uris": {"android": "https://dc.lft.to/lastmile_qr_scan", "ios": "https://dc.lft.to/lastmile_qr_scan"}, "lat": 38.914416833333334, "lon": -77.0229235, "fusion_lat": 0.0}, {"is_reserved": 0, "bike_id": "149849ea0e66cc4f337b271650b4351c", "type": "electric_scooter", "name": "149849ea0e66cc4f337b271650b4351c", "is_disabled": 0, "fusion_lon": 0.0, "rental_uris": {"android": "https://dc.lft.to/lastmile_qr_scan", "ios": "https://dc.lft.to/lastmile_qr_scan"}, "lat": 38.910635166666665, "lon": -77.05389983333333, "fusion_lat": 0.0}, {"is_reserved": 0, "bike_id": "fbac6deade9a746cc727138b96441eed", "type": "electric_scooter", "name": "fbac6deade9a746cc727138b96441eed", "is_disabled": 0, "fusion_lon": 0.0, "rental_uris": {"android": "https://dc.lft.to/lastmile_qr_scan", "ios": "https://dc.lft.to/lastmile_qr_scan"}, "lat": 38.91707366666667, "lon": -77.03871716666667, "fusion_lat": 0.0}, {"is_reserved": 0, "bike_id": "fde7206271375a60ba411a88ab0fcbc3", "type": "electric_scooter", "name": "fde7206271375a60ba411a88ab0fcbc3", "is_disabled": 0, "fusion_lon": 0.0, "rental_uris": {"android": "https://dc.lft.to/lastmile_qr_scan", "ios": "https://dc.lft.to/lastmile_qr_scan"}, "lat": 38.90599916666667, "lon": -77.02111483333333, "fusion_lat": 0.0}, {"is_reserved": 0, "bike_id": "b9b69e8eda9488315b3b3f03647bdb53", "type": "electric_scooter", "name": "b9b69e8eda9488315b3b3f03647bdb53", "is_disabled": 0, "fusion_lon": 0.0, "rental_uris": {"android": "https://dc.lft.to/lastmile_qr_scan", "ios": "https://dc.lft.to/lastmile_qr_scan"}, "lat": 38.8989245, "lon": -77.039307, "fusion_lat": 0.0}, {"is_reserved": 0, "bike_id": "03d33e751518796770659d727c812315", "type": "electric_scooter", "name": "03d33e751518796770659d727c812315", "is_disabled": 0, "fusion_lon": 0.0, "rental_uris": {"android": "https://dc.lft.to/lastmile_qr_scan", "ios": "https://dc.lft.to/lastmile_qr_scan"}, "lat": 38.8847495, "lon": -77.0335875, "fusion_lat": 0.0}, {"is_reserved": 0, "bike_id": "5ba85146f64554e09abee6da8f9829f1", "type": "electric_scooter", "name": "5ba85146f64554e09abee6da8f9829f1", "is_disabled": 0, "fusion_lon": 0.0, "rental_uris": {"android": "https://dc.lft.to/lastmile_qr_scan", "ios": "https://dc.lft.to/lastmile_qr_scan"}, "lat": 38.89959433333333, "lon": -77.01617416666667, "fusion_lat": 0.0}, {"is_reserved": 0, "bike_id": "c261bcebcb9e28d97f029ca81ebe5e19", "type": "electric_bike", "name": "c261bcebcb9e28d97f029ca81ebe5e19", "is_disabled": 0, "fusion_lon": 0.0, "rental_uris": {"android": "https://dc.lft.to/lastmile_qr_scan", "ios": "https://dc.lft.to/lastmile_qr_scan"}, "lat": 38.99098216666667, "lon": -76.99370633333334, "fusion_lat": 0.0}, {"is_reserved": 0, "bike_id": "5ba21dac78d82291f4481f4244e2d8f9", "type": "electric_scooter", "name": "5ba21dac78d82291f4481f4244e2d8f9", "is_disabled": 0, "fusion_lon": 0.0, "rental_uris": {"android": "https://dc.lft.to/lastmile_qr_scan", "ios": "https://dc.lft.to/lastmile_qr_scan"}, "lat": 38.92040383333333, "lon": -77.04187383333333, "fusion_lat": 0.0}, {"is_reserved": 0, "bike_id": "9cf2d25d3c240de0628094e4c8c5e98c", "type": "electric_scooter", "name": "9cf2d25d3c240de0628094e4c8c5e98c", "is_disabled": 0, "fusion_lon": 0.0, "rental_uris": {"android": "https://dc.lft.to/lastmile_qr_scan", "ios": "https://dc.lft.to/lastmile_qr_scan"}, "lat": 38.89868833333333, "lon": -77.0318955, "fusion_lat": 0.0}, {"is_reserved": 0, "bike_id": "f930c6500ed50373038f4fe67a72ed2c", "type": "electric_scooter", "name": "f930c6500ed50373038f4fe67a72ed2c", "is_disabled": 0, "fusion_lon": 0.0, "rental_uris": {"android": "https://dc.lft.to/lastmile_qr_scan", "ios": "https://dc.lft.to/lastmile_qr_scan"}, "lat": 38.91993183333334, "lon": -77.023833, "fusion_lat": 0.0}, {"is_reserved": 0, "bike_id": "62a42e666d052a4ecc1bbeaf2818cdcb", "type": "electric_scooter", "name": "62a42e666d052a4ecc1bbeaf2818cdcb", "is_disabled": 0, "fusion_lon": 0.0, "rental_uris": {"android": "https://dc.lft.to/lastmile_qr_scan", "ios": "https://dc.lft.to/lastmile_qr_scan"}, "lat": 38.934250666666664, "lon": -77.04001733333334, "fusion_lat": 0.0}, {"is_reserved": 0, "bike_id": "a630a8469505d73fa6160aec0ce905d2", "type": "electric_scooter", "name": "a630a8469505d73fa6160aec0ce905d2", "is_disabled": 0, "fusion_lon": 0.0, "rental_uris": {"android": "https://dc.lft.to/lastmile_qr_scan", "ios": "https://dc.lft.to/lastmile_qr_scan"}, "lat": 38.92617, "lon": -77.02160816666667, "fusion_lat": 0.0}, {"is_reserved": 0, "bike_id": "15eb4977e00fe115a8276760435d9237", "type": "electric_scooter", "name": "15eb4977e00fe115a8276760435d9237", "is_disabled": 0, "fusion_lon": 0.0, "rental_uris": {"android": "https://dc.lft.to/lastmile_qr_scan", "ios": "https://dc.lft.to/lastmile_qr_scan"}, "lat": 38.926951, "lon": -77.02083066666667, "fusion_lat": 0.0}, {"is_reserved": 0, "bike_id": "caadc87a6024d75662570d1af4036cfa", "type": "electric_scooter", "name": "caadc87a6024d75662570d1af4036cfa", "is_disabled": 0, "fusion_lon": 0.0, "rental_uris": {"android": "https://dc.lft.to/lastmile_qr_scan", "ios": "https://dc.lft.to/lastmile_qr_scan"}, "lat": 38.92071033333333, "lon": -77.02318083333333, "fusion_lat": 0.0}, {"is_reserved": 0, "bike_id": "63c5da997a784c4e33e8319ddf7a2231", "type": "electric_scooter", "name": "63c5da997a784c4e33e8319ddf7a2231", "is_disabled": 0, "fusion_lon": 0.0, "rental_uris": {"android": "https://dc.lft.to/lastmile_qr_scan", "ios": "https://dc.lft.to/lastmile_qr_scan"}, "lat": 38.87447733333333, "lon": -77.00106033333333, "fusion_lat": 0.0}, {"is_reserved": 0, "bike_id": "4cddcb22c759f5b8a71601cdc20a4ca2", "type": "electric_scooter", "name": "4cddcb22c759f5b8a71601cdc20a4ca2", "is_disabled": 0, "fusion_lon": 0.0, "rental_uris": {"android": "https://dc.lft.to/lastmile_qr_scan", "ios": "https://dc.lft.to/lastmile_qr_scan"}, "lat": 38.8834495, "lon": -76.93634833333333, "fusion_lat": 0.0}, {"is_reserved": 0, "bike_id": "49e04c590814ffa99241b0e3c6ed78dc", "type": "electric_bike", "name": "49e04c590814ffa99241b0e3c6ed78dc", "is_disabled": 0, "fusion_lon": 0.0, "rental_uris": {"android": "https://dc.lft.to/lastmile_qr_scan", "ios": "https://dc.lft.to/lastmile_qr_scan"}, "lat": 38.967791, "lon": -76.9965225, "fusion_lat": 0.0}, {"is_reserved": 0, "bike_id": "0735da8e44e44d15626b089600ecf196", "type": "electric_scooter", "name": "0735da8e44e44d15626b089600ecf196", "is_disabled": 0, "fusion_lon": 0.0, "rental_uris": {"android": "https://dc.lft.to/lastmile_qr_scan", "ios": "https://dc.lft.to/lastmile_qr_scan"}, "lat": 38.89135233333333, "lon": -77.0141775, "fusion_lat": 0.0}, {"is_reserved": 0, "bike_id": "f52efbf51566f50b6a786af3723cf50f", "type": "electric_scooter", "name": "f52efbf51566f50b6a786af3723cf50f", "is_disabled": 0, "fusion_lon": 0.0, "rental_uris": {"android": "https://dc.lft.to/lastmile_qr_scan", "ios": "https://dc.lft.to/lastmile_qr_scan"}, "lat": 38.895574333333336, "lon": -77.02988283333333, "fusion_lat": 0.0}, {"is_reserved": 0, "bike_id": "5c3af7f343cf2d17296eefa32cc3328f", "type": "electric_scooter", "name": "5c3af7f343cf2d17296eefa32cc3328f", "is_disabled": 0, "fusion_lon": 0.0, "rental_uris": {"android": "https://dc.lft.to/lastmile_qr_scan", "ios": "https://dc.lft.to/lastmile_qr_scan"}, "lat": 38.89875083333333, "lon": -76.93183283333333, "fusion_lat": 0.0}, {"is_reserved": 0, "bike_id": "001a7d916e7e523b338195e515275fbf", "type": "electric_scooter", "name": "001a7d916e7e523b338195e515275fbf", "is_disabled": 0, "fusion_lon": 0.0, "rental_uris": {"android": "https://dc.lft.to/lastmile_qr_scan", "ios": "https://dc.lft.to/lastmile_qr_scan"}, "lat": 38.9069125, "lon": -76.985708, "fusion_lat": 0.0}, {"is_reserved": 0, "bike_id": "f24157e8391ed3081cd75210e9ef66e0", "type": "electric_scooter", "name": "f24157e8391ed3081cd75210e9ef66e0", "is_disabled": 0, "fusion_lon": 0.0, "rental_uris": {"android": "https://dc.lft.to/lastmile_qr_scan", "ios": "https://dc.lft.to/lastmile_qr_scan"}, "lat": 38.92356316666667, "lon": -77.05473916666666, "fusion_lat": 0.0}, {"is_reserved": 0, "bike_id": "3ca5b1f833a0355a9597e6c9d2497dec", "type": "electric_bike", "name": "3ca5b1f833a0355a9597e6c9d2497dec", "is_disabled": 0, "fusion_lon": 0.0, "rental_uris": {"android": "https://dc.lft.to/lastmile_qr_scan", "ios": "https://dc.lft.to/lastmile_qr_scan"}, "lat": 38.985496499999996, "lon": -77.00399916666667, "fusion_lat": 0.0}, {"is_reserved": 0, "bike_id": "199cfe14e68e706182103f83b2fcfc11", "type": "electric_scooter", "name": "199cfe14e68e706182103f83b2fcfc11", "is_disabled": 0, "fusion_lon": 0.0, "rental_uris": {"android": "https://dc.lft.to/lastmile_qr_scan", "ios": "https://dc.lft.to/lastmile_qr_scan"}, "lat": 38.89587733333333, "lon": -77.02176716666666, "fusion_lat": 0.0}, {"is_reserved": 0, "bike_id": "188375ddaa05921e8dd35f1a84500d0f", "type": "electric_scooter", "name": "188375ddaa05921e8dd35f1a84500d0f", "is_disabled": 0, "fusion_lon": 0.0, "rental_uris": {"android": "https://dc.lft.to/lastmile_qr_scan", "ios": "https://dc.lft.to/lastmile_qr_scan"}, "lat": 38.920996333333335, "lon": -77.02507566666667, "fusion_lat": 0.0}, {"is_reserved": 0, "bike_id": "76ca82264819a8281a5b3037482f3d53", "type": "electric_scooter", "name": "76ca82264819a8281a5b3037482f3d53", "is_disabled": 0, "fusion_lon": 0.0, "rental_uris": {"android": "https://dc.lft.to/lastmile_qr_scan", "ios": "https://dc.lft.to/lastmile_qr_scan"}, "lat": 38.921071833333336, "lon": -77.04014483333333, "fusion_lat": 0.0}, {"is_reserved": 0, "bike_id": "7ed136ed6c6974cff9f569a5af9a99dc", "type": "electric_scooter", "name": "7ed136ed6c6974cff9f569a5af9a99dc", "is_disabled": 0, "fusion_lon": 0.0, "rental_uris": {"android": "https://dc.lft.to/lastmile_qr_scan", "ios": "https://dc.lft.to/lastmile_qr_scan"}, "lat": 38.9309055, "lon": -77.02553416666667, "fusion_lat": 0.0}, {"is_reserved": 0, "bike_id": "aee2d3f46b555dcb2dfb801f05d51c7b", "type": "electric_scooter", "name": "aee2d3f46b555dcb2dfb801f05d51c7b", "is_disabled": 0, "fusion_lon": 0.0, "rental_uris": {"android": "https://dc.lft.to/lastmile_qr_scan", "ios": "https://dc.lft.to/lastmile_qr_scan"}, "lat": 38.90542166666667, "lon": -77.048099, "fusion_lat": 0.0}, {"is_reserved": 0, "bike_id": "3f270f3c631261e7cf219901a77b7222", "type": "electric_scooter", "name": "3f270f3c631261e7cf219901a77b7222", "is_disabled": 0, "fusion_lon": 0.0, "rental_uris": {"android": "https://dc.lft.to/lastmile_qr_scan", "ios": "https://dc.lft.to/lastmile_qr_scan"}, "lat": 38.91641666666666, "lon": -77.0227285, "fusion_lat": 0.0}, {"is_reserved": 0, "bike_id": "d007a64b66b595b52845b9720b9557d9", "type": "electric_scooter", "name": "d007a64b66b595b52845b9720b9557d9", "is_disabled": 0, "fusion_lon": 0.0, "rental_uris": {"android": "https://dc.lft.to/lastmile_qr_scan", "ios": "https://dc.lft.to/lastmile_qr_scan"}, "lat": 38.925001, "lon": -77.02149783333333, "fusion_lat": 0.0}, {"is_reserved": 0, "bike_id": "8bdf9e04de9e0a476df82fb0d0c89c5f", "type": "electric_scooter", "name": "8bdf9e04de9e0a476df82fb0d0c89c5f", "is_disabled": 0, "fusion_lon": 0.0, "rental_uris": {"android": "https://dc.lft.to/lastmile_qr_scan", "ios": "https://dc.lft.to/lastmile_qr_scan"}, "lat": 38.93285, "lon": -77.03984, "fusion_lat": 0.0}, {"is_reserved": 0, "bike_id": "5894a70fbe74e64152fda7a4a5c4b95a", "type": "electric_scooter", "name": "5894a70fbe74e64152fda7a4a5c4b95a", "is_disabled": 0, "fusion_lon": 0.0, "rental_uris": {"android": "https://dc.lft.to/lastmile_qr_scan", "ios": "https://dc.lft.to/lastmile_qr_scan"}, "lat": 38.89898066666667, "lon": -76.976026, "fusion_lat": 0.0}, {"is_reserved": 0, "bike_id": "90eb8025f7585d75b85b07e4cacd5646", "type": "electric_bike", "name": "90eb8025f7585d75b85b07e4cacd5646", "is_disabled": 0, "fusion_lon": 0.0, "rental_uris": {"android": "https://dc.lft.to/lastmile_qr_scan", "ios": "https://dc.lft.to/lastmile_qr_scan"}, "lat": 38.85063366666667, "lon": -76.958301, "fusion_lat": 0.0}, {"is_reserved": 0, "bike_id": "4006bd6ae152136fc66ea6f5511e0afc", "type": "electric_bike", "name": "4006bd6ae152136fc66ea6f5511e0afc", "is_disabled": 0, "fusion_lon": 0.0, "rental_uris": {"android": "https://dc.lft.to/lastmile_qr_scan", "ios": "https://dc.lft.to/lastmile_qr_scan"}, "lat": 38.9426065, "lon": -76.99071483333333, "fusion_lat": 0.0}, {"is_reserved": 0, "bike_id": "a03a13b05190521960ec635da7a10b31", "type": "electric_scooter", "name": "a03a13b05190521960ec635da7a10b31", "is_disabled": 0, "fusion_lon": 0.0, "rental_uris": {"android": "https://dc.lft.to/lastmile_qr_scan", "ios": "https://dc.lft.to/lastmile_qr_scan"}, "lat": 38.92074016666667, "lon": -77.02316433333333, "fusion_lat": 0.0}, {"is_reserved": 0, "bike_id": "99559953b6678522d661bbbd2de8ae02", "type": "electric_scooter", "name": "99559953b6678522d661bbbd2de8ae02", "is_disabled": 0, "fusion_lon": 0.0, "rental_uris": {"android": "https://dc.lft.to/lastmile_qr_scan", "ios": "https://dc.lft.to/lastmile_qr_scan"}, "lat": 38.91810533333334, "lon": -77.02772583333334, "fusion_lat": 0.0}, {"is_reserved": 0, "bike_id": "4713190556a53c655a48dfd5c121eb70", "type": "electric_scooter", "name": "4713190556a53c655a48dfd5c121eb70", "is_disabled": 0, "fusion_lon": 0.0, "rental_uris": {"android": "https://dc.lft.to/lastmile_qr_scan", "ios": "https://dc.lft.to/lastmile_qr_scan"}, "lat": 38.9259195, "lon": -77.02622366666667, "fusion_lat": 0.0}, {"is_reserved": 0, "bike_id": "e27f2cf3052b96d5d656dac98770f771", "type": "electric_scooter", "name": "e27f2cf3052b96d5d656dac98770f771", "is_disabled": 0, "fusion_lon": 0.0, "rental_uris": {"android": "https://dc.lft.to/lastmile_qr_scan", "ios": "https://dc.lft.to/lastmile_qr_scan"}, "lat": 38.90041033333333, "lon": -77.03413383333333, "fusion_lat": 0.0}, {"is_reserved": 0, "bike_id": "57117b2786559dd76850d6850a9a6967", "type": "electric_scooter", "name": "57117b2786559dd76850d6850a9a6967", "is_disabled": 0, "fusion_lon": 0.0, "rental_uris": {"android": "https://dc.lft.to/lastmile_qr_scan", "ios": "https://dc.lft.to/lastmile_qr_scan"}, "lat": 38.92060583333333, "lon": -77.023591, "fusion_lat": 0.0}, {"is_reserved": 0, "bike_id": "50bfe2552122fae2fb1cf30a97439509", "type": "electric_scooter", "name": "50bfe2552122fae2fb1cf30a97439509", "is_disabled": 0, "fusion_lon": 0.0, "rental_uris": {"android": "https://dc.lft.to/lastmile_qr_scan", "ios": "https://dc.lft.to/lastmile_qr_scan"}, "lat": 38.9027865, "lon": -77.01758166666667, "fusion_lat": 0.0}, {"is_reserved": 0, "bike_id": "de5b9cfaae8d1b2eb5e33f2b4eeeb0da", "type": "electric_scooter", "name": "de5b9cfaae8d1b2eb5e33f2b4eeeb0da", "is_disabled": 0, "fusion_lon": 0.0, "rental_uris": {"android": "https://dc.lft.to/lastmile_qr_scan", "ios": "https://dc.lft.to/lastmile_qr_scan"}, "lat": 38.9188, "lon": -77.03502766666666, "fusion_lat": 0.0}, {"is_reserved": 0, "bike_id": "a4f9891b769dd64f680e21eabf0f66d4", "type": "electric_scooter", "name": "a4f9891b769dd64f680e21eabf0f66d4", "is_disabled": 0, "fusion_lon": 0.0, "rental_uris": {"android": "https://dc.lft.to/lastmile_qr_scan", "ios": "https://dc.lft.to/lastmile_qr_scan"}, "lat": 38.920899666666664, "lon": -77.02591866666667, "fusion_lat": 0.0}, {"is_reserved": 0, "bike_id": "d43e7f94692ba07a2e65fce18ac036db", "type": "electric_scooter", "name": "d43e7f94692ba07a2e65fce18ac036db", "is_disabled": 0, "fusion_lon": 0.0, "rental_uris": {"android": "https://dc.lft.to/lastmile_qr_scan", "ios": "https://dc.lft.to/lastmile_qr_scan"}, "lat": 38.949804666666665, "lon": -77.02697633333334, "fusion_lat": 0.0}, {"is_reserved": 0, "bike_id": "e1f09be62fac9cbb9ff64017d5cb86db", "type": "electric_scooter", "name": "e1f09be62fac9cbb9ff64017d5cb86db", "is_disabled": 0, "fusion_lon": 0.0, "rental_uris": {"android": "https://dc.lft.to/lastmile_qr_scan", "ios": "https://dc.lft.to/lastmile_qr_scan"}, "lat": 38.906552166666664, "lon": -77.05139666666666, "fusion_lat": 0.0}, {"is_reserved": 0, "bike_id": "8d5d2ce35463a720833f3ab6c8b37b2c", "type": "electric_scooter", "name": "8d5d2ce35463a720833f3ab6c8b37b2c", "is_disabled": 0, "fusion_lon": 0.0, "rental_uris": {"android": "https://dc.lft.to/lastmile_qr_scan", "ios": "https://dc.lft.to/lastmile_qr_scan"}, "lat": 38.942886666666666, "lon": -77.03619966666666, "fusion_lat": 0.0}, {"is_reserved": 0, "bike_id": "b9c98c702700c6757d3014b78dabfc69", "type": "electric_scooter", "name": "b9c98c702700c6757d3014b78dabfc69", "is_disabled": 0, "fusion_lon": 0.0, "rental_uris": {"android": "https://dc.lft.to/lastmile_qr_scan", "ios": "https://dc.lft.to/lastmile_qr_scan"}, "lat": 38.858315833333336, "lon": -76.99012216666667, "fusion_lat": 0.0}, {"is_reserved": 0, "bike_id": "27fb42dec416c9400f5c1db29bdcacfd", "type": "electric_scooter", "name": "27fb42dec416c9400f5c1db29bdcacfd", "is_disabled": 0, "fusion_lon": 0.0, "rental_uris": {"android": "https://dc.lft.to/lastmile_qr_scan", "ios": "https://dc.lft.to/lastmile_qr_scan"}, "lat": 38.9046815, "lon": -77.021427, "fusion_lat": 0.0}, {"is_reserved": 0, "bike_id": "534290d753d702b3443c986c599b4746", "type": "electric_scooter", "name": "534290d753d702b3443c986c599b4746", "is_disabled": 0, "fusion_lon": 0.0, "rental_uris": {"android": "https://dc.lft.to/lastmile_qr_scan", "ios": "https://dc.lft.to/lastmile_qr_scan"}, "lat": 38.924667166666666, "lon": -77.05236116666667, "fusion_lat": 0.0}, {"is_reserved": 0, "bike_id": "401e2cab8d53b307af8b1e0d68ed55ef", "type": "electric_scooter", "name": "401e2cab8d53b307af8b1e0d68ed55ef", "is_disabled": 0, "fusion_lon": 0.0, "rental_uris": {"android": "https://dc.lft.to/lastmile_qr_scan", "ios": "https://dc.lft.to/lastmile_qr_scan"}, "lat": 38.894782, "lon": -76.99138683333334, "fusion_lat": 0.0}, {"is_reserved": 0, "bike_id": "71caa28010e4981a258edd541da2b027", "type": "electric_scooter", "name": "71caa28010e4981a258edd541da2b027", "is_disabled": 0, "fusion_lon": 0.0, "rental_uris": {"android": "https://dc.lft.to/lastmile_qr_scan", "ios": "https://dc.lft.to/lastmile_qr_scan"}, "lat": 38.91770233333333, "lon": -77.04311166666666, "fusion_lat": 0.0}, {"is_reserved": 0, "bike_id": "9dd3607eea64b97f5cc43b8af2589e38", "type": "electric_scooter", "name": "9dd3607eea64b97f5cc43b8af2589e38", "is_disabled": 0, "fusion_lon": 0.0, "rental_uris": {"android": "https://dc.lft.to/lastmile_qr_scan", "ios": "https://dc.lft.to/lastmile_qr_scan"}, "lat": 38.90534066666667, "lon": -77.02208983333334, "fusion_lat": 0.0}, {"is_reserved": 0, "bike_id": "63fef9fac0d679b17dba9305b2370ead", "type": "electric_scooter", "name": "63fef9fac0d679b17dba9305b2370ead", "is_disabled": 0, "fusion_lon": 0.0, "rental_uris": {"android": "https://dc.lft.to/lastmile_qr_scan", "ios": "https://dc.lft.to/lastmile_qr_scan"}, "lat": 38.93961766666666, "lon": -77.03286566666667, "fusion_lat": 0.0}, {"is_reserved": 0, "bike_id": "3453d0d17e82e199446a222be89eb226", "type": "electric_bike", "name": "3453d0d17e82e199446a222be89eb226", "is_disabled": 0, "fusion_lon": 0.0, "rental_uris": {"android": "https://dc.lft.to/lastmile_qr_scan", "ios": "https://dc.lft.to/lastmile_qr_scan"}, "lat": 38.9166665, "lon": -77.03701316666667, "fusion_lat": 0.0}, {"is_reserved": 0, "bike_id": "fb0d247f6202003bafd80693248aef21", "type": "electric_scooter", "name": "fb0d247f6202003bafd80693248aef21", "is_disabled": 0, "fusion_lon": 0.0, "rental_uris": {"android": "https://dc.lft.to/lastmile_qr_scan", "ios": "https://dc.lft.to/lastmile_qr_scan"}, "lat": 38.92711883333333, "lon": -77.0210205, "fusion_lat": 0.0}, {"is_reserved": 0, "bike_id": "82fe6112e7a9566e19caf7d722d3492d", "type": "electric_scooter", "name": "82fe6112e7a9566e19caf7d722d3492d", "is_disabled": 0, "fusion_lon": 0.0, "rental_uris": {"android": "https://dc.lft.to/lastmile_qr_scan", "ios": "https://dc.lft.to/lastmile_qr_scan"}, "lat": 38.916238, "lon": -77.0092535, "fusion_lat": 0.0}, {"is_reserved": 0, "bike_id": "a7470d2e8a21888775e3666d7d3466e2", "type": "electric_scooter", "name": "a7470d2e8a21888775e3666d7d3466e2", "is_disabled": 0, "fusion_lon": 0.0, "rental_uris": {"android": "https://dc.lft.to/lastmile_qr_scan", "ios": "https://dc.lft.to/lastmile_qr_scan"}, "lat": 38.9165665, "lon": -77.02191283333333, "fusion_lat": 0.0}, {"is_reserved": 0, "bike_id": "c32e083098c886a5847e17236590030f", "type": "electric_scooter", "name": "c32e083098c886a5847e17236590030f", "is_disabled": 0, "fusion_lon": 0.0, "rental_uris": {"android": "https://dc.lft.to/lastmile_qr_scan", "ios": "https://dc.lft.to/lastmile_qr_scan"}, "lat": 38.88730133333333, "lon": -77.031736, "fusion_lat": 0.0}, {"is_reserved": 0, "bike_id": "4b104211d44851073e3738fff21d3ec7", "type": "electric_scooter", "name": "4b104211d44851073e3738fff21d3ec7", "is_disabled": 0, "fusion_lon": 0.0, "rental_uris": {"android": "https://dc.lft.to/lastmile_qr_scan", "ios": "https://dc.lft.to/lastmile_qr_scan"}, "lat": 38.9198055, "lon": -77.0379255, "fusion_lat": 0.0}, {"is_reserved": 0, "bike_id": "1e28c13e50d9d92301ffa27da01cf0b0", "type": "electric_scooter", "name": "1e28c13e50d9d92301ffa27da01cf0b0", "is_disabled": 0, "fusion_lon": 0.0, "rental_uris": {"android": "https://dc.lft.to/lastmile_qr_scan", "ios": "https://dc.lft.to/lastmile_qr_scan"}, "lat": 38.89631166666667, "lon": -76.92962516666667, "fusion_lat": 0.0}, {"is_reserved": 0, "bike_id": "5962fefbc314d0101bba99356bd7936c", "type": "electric_scooter", "name": "5962fefbc314d0101bba99356bd7936c", "is_disabled": 0, "fusion_lon": 0.0, "rental_uris": {"android": "https://dc.lft.to/lastmile_qr_scan", "ios": "https://dc.lft.to/lastmile_qr_scan"}, "lat": 38.89879783333333, "lon": -77.020031, "fusion_lat": 0.0}, {"is_reserved": 0, "bike_id": "a586e756c771043e73dec9a44d425362", "type": "electric_scooter", "name": "a586e756c771043e73dec9a44d425362", "is_disabled": 0, "fusion_lon": 0.0, "rental_uris": {"android": "https://dc.lft.to/lastmile_qr_scan", "ios": "https://dc.lft.to/lastmile_qr_scan"}, "lat": 38.90572566666667, "lon": -77.00607483333333, "fusion_lat": 0.0}, {"is_reserved": 0, "bike_id": "098ad0c03bab7a6ade8b6546e3833d24", "type": "electric_scooter", "name": "098ad0c03bab7a6ade8b6546e3833d24", "is_disabled": 0, "fusion_lon": 0.0, "rental_uris": {"android": "https://dc.lft.to/lastmile_qr_scan", "ios": "https://dc.lft.to/lastmile_qr_scan"}, "lat": 38.916997, "lon": -77.0040995, "fusion_lat": 0.0}, {"is_reserved": 0, "bike_id": "e540b9f787e5706457ee4ce56e047dae", "type": "electric_scooter", "name": "e540b9f787e5706457ee4ce56e047dae", "is_disabled": 0, "fusion_lon": 0.0, "rental_uris": {"android": "https://dc.lft.to/lastmile_qr_scan", "ios": "https://dc.lft.to/lastmile_qr_scan"}, "lat": 38.903486, "lon": -76.98618516666667, "fusion_lat": 0.0}, {"is_reserved": 0, "bike_id": "622323d5cc8689ea346c35622d26b7a2", "type": "electric_bike", "name": "622323d5cc8689ea346c35622d26b7a2", "is_disabled": 0, "fusion_lon": 0.0, "rental_uris": {"android": "https://dc.lft.to/lastmile_qr_scan", "ios": "https://dc.lft.to/lastmile_qr_scan"}, "lat": 38.8659415, "lon": -77.1294085, "fusion_lat": 0.0}, {"is_reserved": 0, "bike_id": "318a0ed7e539b593dbefca55dd2c5581", "type": "electric_scooter", "name": "318a0ed7e539b593dbefca55dd2c5581", "is_disabled": 0, "fusion_lon": 0.0, "rental_uris": {"android": "https://dc.lft.to/lastmile_qr_scan", "ios": "https://dc.lft.to/lastmile_qr_scan"}, "lat": 38.9140365, "lon": -77.022068, "fusion_lat": 0.0}, {"is_reserved": 0, "bike_id": "4b27d72a84a74d674378062da4e34dc2", "type": "electric_scooter", "name": "4b27d72a84a74d674378062da4e34dc2", "is_disabled": 0, "fusion_lon": 0.0, "rental_uris": {"android": "https://dc.lft.to/lastmile_qr_scan", "ios": "https://dc.lft.to/lastmile_qr_scan"}, "lat": 38.9230315, "lon": -77.042079, "fusion_lat": 0.0}, {"is_reserved": 0, "bike_id": "8d16319a62319078a8e505e18802000d", "type": "electric_scooter", "name": "8d16319a62319078a8e505e18802000d", "is_disabled": 0, "fusion_lon": 0.0, "rental_uris": {"android": "https://dc.lft.to/lastmile_qr_scan", "ios": "https://dc.lft.to/lastmile_qr_scan"}, "lat": 38.8850475, "lon": -77.00566783333333, "fusion_lat": 0.0}, {"is_reserved": 0, "bike_id": "b3a577c44e2732caa7b7ae7798c339b3", "type": "electric_scooter", "name": "b3a577c44e2732caa7b7ae7798c339b3", "is_disabled": 0, "fusion_lon": 0.0, "rental_uris": {"android": "https://dc.lft.to/lastmile_qr_scan", "ios": "https://dc.lft.to/lastmile_qr_scan"}, "lat": 38.8621795, "lon": -76.99489433333333, "fusion_lat": 0.0}, {"is_reserved": 0, "bike_id": "b699f429a7d051103bc8c08e1825da5e", "type": "electric_scooter", "name": "b699f429a7d051103bc8c08e1825da5e", "is_disabled": 0, "fusion_lon": 0.0, "rental_uris": {"android": "https://dc.lft.to/lastmile_qr_scan", "ios": "https://dc.lft.to/lastmile_qr_scan"}, "lat": 38.9154895, "lon": -77.03797166666666, "fusion_lat": 0.0}, {"is_reserved": 0, "bike_id": "6b3ce9454c2470414c0dd5d518a21d0d", "type": "electric_scooter", "name": "6b3ce9454c2470414c0dd5d518a21d0d", "is_disabled": 0, "fusion_lon": 0.0, "rental_uris": {"android": "https://dc.lft.to/lastmile_qr_scan", "ios": "https://dc.lft.to/lastmile_qr_scan"}, "lat": 38.916093333333336, "lon": -77.03291166666666, "fusion_lat": 0.0}, {"is_reserved": 0, "bike_id": "0bb8fc0916cba0941ba8fced8bdc6c8b", "type": "electric_scooter", "name": "0bb8fc0916cba0941ba8fced8bdc6c8b", "is_disabled": 0, "fusion_lon": 0.0, "rental_uris": {"android": "https://dc.lft.to/lastmile_qr_scan", "ios": "https://dc.lft.to/lastmile_qr_scan"}, "lat": 38.91816883333333, "lon": -77.02478183333334, "fusion_lat": 0.0}, {"is_reserved": 0, "bike_id": "aa490eda0609c7496809ff020186cc8d", "type": "electric_scooter", "name": "aa490eda0609c7496809ff020186cc8d", "is_disabled": 0, "fusion_lon": 0.0, "rental_uris": {"android": "https://dc.lft.to/lastmile_qr_scan", "ios": "https://dc.lft.to/lastmile_qr_scan"}, "lat": 38.908788666666666, "lon": -76.9910035, "fusion_lat": 0.0}, {"is_reserved": 0, "bike_id": "93603b345c9b65c3e03cb5aefbcaaef0", "type": "electric_scooter", "name": "93603b345c9b65c3e03cb5aefbcaaef0", "is_disabled": 0, "fusion_lon": 0.0, "rental_uris": {"android": "https://dc.lft.to/lastmile_qr_scan", "ios": "https://dc.lft.to/lastmile_qr_scan"}, "lat": 38.907995, "lon": -77.04175116666667, "fusion_lat": 0.0}, {"is_reserved": 0, "bike_id": "3542d9dcb358449539470d15d0a62516", "type": "electric_scooter", "name": "3542d9dcb358449539470d15d0a62516", "is_disabled": 0, "fusion_lon": 0.0, "rental_uris": {"android": "https://dc.lft.to/lastmile_qr_scan", "ios": "https://dc.lft.to/lastmile_qr_scan"}, "lat": 38.905707, "lon": -77.00423316666667, "fusion_lat": 0.0}, {"is_reserved": 0, "bike_id": "3ae0c6775b46e3c5ae1ed365fd036eec", "type": "electric_scooter", "name": "3ae0c6775b46e3c5ae1ed365fd036eec", "is_disabled": 0, "fusion_lon": 0.0, "rental_uris": {"android": "https://dc.lft.to/lastmile_qr_scan", "ios": "https://dc.lft.to/lastmile_qr_scan"}, "lat": 38.913098833333336, "lon": -77.01926266666666, "fusion_lat": 0.0}, {"is_reserved": 0, "bike_id": "ac07aad9d68b94c932e3961bbd480606", "type": "electric_scooter", "name": "ac07aad9d68b94c932e3961bbd480606", "is_disabled": 0, "fusion_lon": 0.0, "rental_uris": {"android": "https://dc.lft.to/lastmile_qr_scan", "ios": "https://dc.lft.to/lastmile_qr_scan"}, "lat": 38.91467016666667, "lon": -77.03646883333333, "fusion_lat": 0.0}, {"is_reserved": 0, "bike_id": "cd4cb4b16d719f1b217445b57629c57e", "type": "electric_scooter", "name": "cd4cb4b16d719f1b217445b57629c57e", "is_disabled": 0, "fusion_lon": 0.0, "rental_uris": {"android": "https://dc.lft.to/lastmile_qr_scan", "ios": "https://dc.lft.to/lastmile_qr_scan"}, "lat": 38.916825833333334, "lon": -77.02951683333333, "fusion_lat": 0.0}, {"is_reserved": 0, "bike_id": "be1d6c97469a3d645f3f9d81e9b1773c", "type": "electric_scooter", "name": "be1d6c97469a3d645f3f9d81e9b1773c", "is_disabled": 0, "fusion_lon": 0.0, "rental_uris": {"android": "https://dc.lft.to/lastmile_qr_scan", "ios": "https://dc.lft.to/lastmile_qr_scan"}, "lat": 38.89042416666667, "lon": -76.9901205, "fusion_lat": 0.0}, {"is_reserved": 0, "bike_id": "844f2eb20859f9f4c87262be759da7c7", "type": "electric_scooter", "name": "844f2eb20859f9f4c87262be759da7c7", "is_disabled": 0, "fusion_lon": 0.0, "rental_uris": {"android": "https://dc.lft.to/lastmile_qr_scan", "ios": "https://dc.lft.to/lastmile_qr_scan"}, "lat": 38.9023465, "lon": -77.00582983333334, "fusion_lat": 0.0}, {"is_reserved": 0, "bike_id": "047fee92265e37e681f8757a40839f0c", "type": "electric_scooter", "name": "047fee92265e37e681f8757a40839f0c", "is_disabled": 0, "fusion_lon": 0.0, "rental_uris": {"android": "https://dc.lft.to/lastmile_qr_scan", "ios": "https://dc.lft.to/lastmile_qr_scan"}, "lat": 38.929044833333336, "lon": -77.0580715, "fusion_lat": 0.0}, {"is_reserved": 0, "bike_id": "ee11e7527fa965c78d9a0ef493ce6cfa", "type": "electric_scooter", "name": "ee11e7527fa965c78d9a0ef493ce6cfa", "is_disabled": 0, "fusion_lon": 0.0, "rental_uris": {"android": "https://dc.lft.to/lastmile_qr_scan", "ios": "https://dc.lft.to/lastmile_qr_scan"}, "lat": 38.8803045, "lon": -77.02503266666666, "fusion_lat": 0.0}, {"is_reserved": 0, "bike_id": "1f9f7e11322b9739faa70f241c886b1d", "type": "electric_bike", "name": "1f9f7e11322b9739faa70f241c886b1d", "is_disabled": 0, "fusion_lon": 0.0, "rental_uris": {"android": "https://dc.lft.to/lastmile_qr_scan", "ios": "https://dc.lft.to/lastmile_qr_scan"}, "lat": 38.81539466666667, "lon": -77.04642883333334, "fusion_lat": 0.0}, {"is_reserved": 0, "bike_id": "7b4611fe72167927567170726453aad0", "type": "electric_scooter", "name": "7b4611fe72167927567170726453aad0", "is_disabled": 0, "fusion_lon": 0.0, "rental_uris": {"android": "https://dc.lft.to/lastmile_qr_scan", "ios": "https://dc.lft.to/lastmile_qr_scan"}, "lat": 38.8979625, "lon": -76.97934316666667, "fusion_lat": 0.0}, {"is_reserved": 0, "bike_id": "780d9160e631fa32b782e4beeb8f0526", "type": "electric_scooter", "name": "780d9160e631fa32b782e4beeb8f0526", "is_disabled": 0, "fusion_lon": 0.0, "rental_uris": {"android": "https://dc.lft.to/lastmile_qr_scan", "ios": "https://dc.lft.to/lastmile_qr_scan"}, "lat": 38.939599333333334, "lon": -77.03284466666666, "fusion_lat": 0.0}, {"is_reserved": 0, "bike_id": "815e643d7f4a8febc6e9bcaf3e66dce9", "type": "electric_scooter", "name": "815e643d7f4a8febc6e9bcaf3e66dce9", "is_disabled": 0, "fusion_lon": 0.0, "rental_uris": {"android": "https://dc.lft.to/lastmile_qr_scan", "ios": "https://dc.lft.to/lastmile_qr_scan"}, "lat": 38.895457666666665, "lon": -76.98335316666666, "fusion_lat": 0.0}, {"is_reserved": 0, "bike_id": "94f24056f2f9484dc042eba08762c803", "type": "electric_bike", "name": "94f24056f2f9484dc042eba08762c803", "is_disabled": 0, "fusion_lon": 0.0, "rental_uris": {"android": "https://dc.lft.to/lastmile_qr_scan", "ios": "https://dc.lft.to/lastmile_qr_scan"}, "lat": 38.93626583333333, "lon": -76.96072266666667, "fusion_lat": 0.0}, {"is_reserved": 0, "bike_id": "a5207c0d7250361bd3668275bbc64162", "type": "electric_scooter", "name": "a5207c0d7250361bd3668275bbc64162", "is_disabled": 0, "fusion_lon": 0.0, "rental_uris": {"android": "https://dc.lft.to/lastmile_qr_scan", "ios": "https://dc.lft.to/lastmile_qr_scan"}, "lat": 38.87998266666666, "lon": -76.985453, "fusion_lat": 0.0}, {"is_reserved": 0, "bike_id": "48621ee290a60e7be18c2a62d59500a8", "type": "electric_scooter", "name": "48621ee290a60e7be18c2a62d59500a8", "is_disabled": 0, "fusion_lon": 0.0, "rental_uris": {"android": "https://dc.lft.to/lastmile_qr_scan", "ios": "https://dc.lft.to/lastmile_qr_scan"}, "lat": 38.92601966666667, "lon": -77.0215625, "fusion_lat": 0.0}, {"is_reserved": 0, "bike_id": "c4f3dd91c69dceab9290b584dccd34db", "type": "electric_scooter", "name": "c4f3dd91c69dceab9290b584dccd34db", "is_disabled": 0, "fusion_lon": 0.0, "rental_uris": {"android": "https://dc.lft.to/lastmile_qr_scan", "ios": "https://dc.lft.to/lastmile_qr_scan"}, "lat": 38.952032333333335, "lon": -77.0273535, "fusion_lat": 0.0}, {"is_reserved": 0, "bike_id": "8f6e66a2f968aac936acbe9e464939ff", "type": "electric_scooter", "name": "8f6e66a2f968aac936acbe9e464939ff", "is_disabled": 0, "fusion_lon": 0.0, "rental_uris": {"android": "https://dc.lft.to/lastmile_qr_scan", "ios": "https://dc.lft.to/lastmile_qr_scan"}, "lat": 38.90956116666667, "lon": -77.00764416666667, "fusion_lat": 0.0}, {"is_reserved": 0, "bike_id": "a0c0e47d87e77e022e52d19ac1159502", "type": "electric_scooter", "name": "a0c0e47d87e77e022e52d19ac1159502", "is_disabled": 0, "fusion_lon": 0.0, "rental_uris": {"android": "https://dc.lft.to/lastmile_qr_scan", "ios": "https://dc.lft.to/lastmile_qr_scan"}, "lat": 38.902, "lon": -77.05022666666666, "fusion_lat": 0.0}, {"is_reserved": 0, "bike_id": "e7ab4840550619f0279d69f7cb01adfa", "type": "electric_scooter", "name": "e7ab4840550619f0279d69f7cb01adfa", "is_disabled": 0, "fusion_lon": 0.0, "rental_uris": {"android": "https://dc.lft.to/lastmile_qr_scan", "ios": "https://dc.lft.to/lastmile_qr_scan"}, "lat": 38.913088, "lon": -77.042595, "fusion_lat": 0.0}, {"is_reserved": 0, "bike_id": "34386fe5c6ee3c507f47811937c5cacc", "type": "electric_scooter", "name": "34386fe5c6ee3c507f47811937c5cacc", "is_disabled": 0, "fusion_lon": 0.0, "rental_uris": {"android": "https://dc.lft.to/lastmile_qr_scan", "ios": "https://dc.lft.to/lastmile_qr_scan"}, "lat": 38.920555, "lon": -77.0258435, "fusion_lat": 0.0}, {"is_reserved": 0, "bike_id": "aa833db6aa78dfba5aec8219aaa75276", "type": "electric_scooter", "name": "aa833db6aa78dfba5aec8219aaa75276", "is_disabled": 0, "fusion_lon": 0.0, "rental_uris": {"android": "https://dc.lft.to/lastmile_qr_scan", "ios": "https://dc.lft.to/lastmile_qr_scan"}, "lat": 38.89633466666667, "lon": -77.033267, "fusion_lat": 0.0}, {"is_reserved": 0, "bike_id": "5d0deef86326558c0fb2f1e9ffd270e3", "type": "electric_scooter", "name": "5d0deef86326558c0fb2f1e9ffd270e3", "is_disabled": 0, "fusion_lon": 0.0, "rental_uris": {"android": "https://dc.lft.to/lastmile_qr_scan", "ios": "https://dc.lft.to/lastmile_qr_scan"}, "lat": 38.906414833333336, "lon": -77.01686816666667, "fusion_lat": 0.0}, {"is_reserved": 0, "bike_id": "98b870b3fe4fa0dd7f932daa75c1ae9e", "type": "electric_scooter", "name": "98b870b3fe4fa0dd7f932daa75c1ae9e", "is_disabled": 0, "fusion_lon": 0.0, "rental_uris": {"android": "https://dc.lft.to/lastmile_qr_scan", "ios": "https://dc.lft.to/lastmile_qr_scan"}, "lat": 38.911316666666664, "lon": -77.02199783333333, "fusion_lat": 0.0}, {"is_reserved": 0, "bike_id": "77e50f2877587c9ab2fe3cb0f05d6e72", "type": "electric_scooter", "name": "77e50f2877587c9ab2fe3cb0f05d6e72", "is_disabled": 0, "fusion_lon": 0.0, "rental_uris": {"android": "https://dc.lft.to/lastmile_qr_scan", "ios": "https://dc.lft.to/lastmile_qr_scan"}, "lat": 38.910950666666665, "lon": -77.02547333333334, "fusion_lat": 0.0}, {"is_reserved": 0, "bike_id": "bfab999e41ee90394ab5bfc19d5a620d", "type": "electric_scooter", "name": "bfab999e41ee90394ab5bfc19d5a620d", "is_disabled": 0, "fusion_lon": 0.0, "rental_uris": {"android": "https://dc.lft.to/lastmile_qr_scan", "ios": "https://dc.lft.to/lastmile_qr_scan"}, "lat": 38.94878333333333, "lon": -77.06454516666666, "fusion_lat": 0.0}, {"is_reserved": 0, "bike_id": "bbb1b505e760e8c3ca1d8760c93ae51c", "type": "electric_scooter", "name": "bbb1b505e760e8c3ca1d8760c93ae51c", "is_disabled": 0, "fusion_lon": 0.0, "rental_uris": {"android": "https://dc.lft.to/lastmile_qr_scan", "ios": "https://dc.lft.to/lastmile_qr_scan"}, "lat": 38.885993666666664, "lon": -76.9249985, "fusion_lat": 0.0}, {"is_reserved": 0, "bike_id": "d12cc62290977f808c0eb40e7e3cd91c", "type": "electric_scooter", "name": "d12cc62290977f808c0eb40e7e3cd91c", "is_disabled": 0, "fusion_lon": 0.0, "rental_uris": {"android": "https://dc.lft.to/lastmile_qr_scan", "ios": "https://dc.lft.to/lastmile_qr_scan"}, "lat": 38.883502666666665, "lon": -77.030778, "fusion_lat": 0.0}, {"is_reserved": 0, "bike_id": "5d246471bbde7ba2371a86f7bee55810", "type": "electric_scooter", "name": "5d246471bbde7ba2371a86f7bee55810", "is_disabled": 0, "fusion_lon": 0.0, "rental_uris": {"android": "https://dc.lft.to/lastmile_qr_scan", "ios": "https://dc.lft.to/lastmile_qr_scan"}, "lat": 38.9111685, "lon": -77.038312, "fusion_lat": 0.0}, {"is_reserved": 0, "bike_id": "ad025a4a7b73c238c719dc8e8996ff43", "type": "electric_scooter", "name": "ad025a4a7b73c238c719dc8e8996ff43", "is_disabled": 0, "fusion_lon": 0.0, "rental_uris": {"android": "https://dc.lft.to/lastmile_qr_scan", "ios": "https://dc.lft.to/lastmile_qr_scan"}, "lat": 38.920598166666664, "lon": -77.03256166666667, "fusion_lat": 0.0}, {"is_reserved": 0, "bike_id": "7e6133886c32f2dabea00162cc1f7f90", "type": "electric_scooter", "name": "7e6133886c32f2dabea00162cc1f7f90", "is_disabled": 0, "fusion_lon": 0.0, "rental_uris": {"android": "https://dc.lft.to/lastmile_qr_scan", "ios": "https://dc.lft.to/lastmile_qr_scan"}, "lat": 38.876791, "lon": -77.00353283333334, "fusion_lat": 0.0}, {"is_reserved": 0, "bike_id": "ec6280189439fe973d172622e91585c7", "type": "electric_bike", "name": "ec6280189439fe973d172622e91585c7", "is_disabled": 0, "fusion_lon": 0.0, "rental_uris": {"android": "https://dc.lft.to/lastmile_qr_scan", "ios": "https://dc.lft.to/lastmile_qr_scan"}, "lat": 38.950237666666666, "lon": -77.02723716666667, "fusion_lat": 0.0}, {"is_reserved": 0, "bike_id": "fefec57e7d191f3472b4325c6926985d", "type": "electric_scooter", "name": "fefec57e7d191f3472b4325c6926985d", "is_disabled": 0, "fusion_lon": 0.0, "rental_uris": {"android": "https://dc.lft.to/lastmile_qr_scan", "ios": "https://dc.lft.to/lastmile_qr_scan"}, "lat": 38.924792833333335, "lon": -77.02226883333333, "fusion_lat": 0.0}, {"is_reserved": 0, "bike_id": "e140c9eb095cb01d73460f2637fb415a", "type": "electric_bike", "name": "e140c9eb095cb01d73460f2637fb415a", "is_disabled": 0, "fusion_lon": 0.0, "rental_uris": {"android": "https://dc.lft.to/lastmile_qr_scan", "ios": "https://dc.lft.to/lastmile_qr_scan"}, "lat": 39.021172, "lon": -77.04496566666667, "fusion_lat": 0.0}, {"is_reserved": 0, "bike_id": "94a91da2b2ad48312792ae106067474c", "type": "electric_scooter", "name": "94a91da2b2ad48312792ae106067474c", "is_disabled": 0, "fusion_lon": 0.0, "rental_uris": {"android": "https://dc.lft.to/lastmile_qr_scan", "ios": "https://dc.lft.to/lastmile_qr_scan"}, "lat": 38.949753666666666, "lon": -77.0244765, "fusion_lat": 0.0}, {"is_reserved": 0, "bike_id": "29f995ce1a4f6bdfb5f272df508c9c9a", "type": "electric_scooter", "name": "29f995ce1a4f6bdfb5f272df508c9c9a", "is_disabled": 0, "fusion_lon": 0.0, "rental_uris": {"android": "https://dc.lft.to/lastmile_qr_scan", "ios": "https://dc.lft.to/lastmile_qr_scan"}, "lat": 38.899906666666666, "lon": -77.0068, "fusion_lat": 0.0}, {"is_reserved": 0, "bike_id": "f338e03c89df4c875b12af68bb7ff251", "type": "electric_scooter", "name": "f338e03c89df4c875b12af68bb7ff251", "is_disabled": 0, "fusion_lon": 0.0, "rental_uris": {"android": "https://dc.lft.to/lastmile_qr_scan", "ios": "https://dc.lft.to/lastmile_qr_scan"}, "lat": 38.920024, "lon": -76.9850535, "fusion_lat": 0.0}, {"is_reserved": 0, "bike_id": "bac8caedf8bbcc46e9cb0c78ea9d35e4", "type": "electric_scooter", "name": "bac8caedf8bbcc46e9cb0c78ea9d35e4", "is_disabled": 0, "fusion_lon": 0.0, "rental_uris": {"android": "https://dc.lft.to/lastmile_qr_scan", "ios": "https://dc.lft.to/lastmile_qr_scan"}, "lat": 38.924821, "lon": -77.03637966666666, "fusion_lat": 0.0}, {"is_reserved": 0, "bike_id": "7ae484792c5e87603821feb9156dcc05", "type": "electric_scooter", "name": "7ae484792c5e87603821feb9156dcc05", "is_disabled": 0, "fusion_lon": 0.0, "rental_uris": {"android": "https://dc.lft.to/lastmile_qr_scan", "ios": "https://dc.lft.to/lastmile_qr_scan"}, "lat": 38.94180883333333, "lon": -77.03348133333333, "fusion_lat": 0.0}, {"is_reserved": 0, "bike_id": "dfb8913f7f739a921699310d188e5301", "type": "electric_scooter", "name": "dfb8913f7f739a921699310d188e5301", "is_disabled": 0, "fusion_lon": 0.0, "rental_uris": {"android": "https://dc.lft.to/lastmile_qr_scan", "ios": "https://dc.lft.to/lastmile_qr_scan"}, "lat": 38.901079833333334, "lon": -77.048794, "fusion_lat": 0.0}, {"is_reserved": 0, "bike_id": "3ca7ec36025bad4b1da3970c1a2f90a6", "type": "electric_scooter", "name": "3ca7ec36025bad4b1da3970c1a2f90a6", "is_disabled": 0, "fusion_lon": 0.0, "rental_uris": {"android": "https://dc.lft.to/lastmile_qr_scan", "ios": "https://dc.lft.to/lastmile_qr_scan"}, "lat": 38.902552666666665, "lon": -77.0614605, "fusion_lat": 0.0}, {"is_reserved": 0, "bike_id": "e833f02f8031b4fc381465a293602169", "type": "electric_scooter", "name": "e833f02f8031b4fc381465a293602169", "is_disabled": 0, "fusion_lon": 0.0, "rental_uris": {"android": "https://dc.lft.to/lastmile_qr_scan", "ios": "https://dc.lft.to/lastmile_qr_scan"}, "lat": 38.903611, "lon": -77.01880416666667, "fusion_lat": 0.0}, {"is_reserved": 0, "bike_id": "c28f0c860ce8612981e8f04b13133a8f", "type": "electric_scooter", "name": "c28f0c860ce8612981e8f04b13133a8f", "is_disabled": 0, "fusion_lon": 0.0, "rental_uris": {"android": "https://dc.lft.to/lastmile_qr_scan", "ios": "https://dc.lft.to/lastmile_qr_scan"}, "lat": 38.91768916666667, "lon": -77.04772516666667, "fusion_lat": 0.0}, {"is_reserved": 0, "bike_id": "3fe82314e0375540fa0fb255c8b5fa59", "type": "electric_scooter", "name": "3fe82314e0375540fa0fb255c8b5fa59", "is_disabled": 0, "fusion_lon": 0.0, "rental_uris": {"android": "https://dc.lft.to/lastmile_qr_scan", "ios": "https://dc.lft.to/lastmile_qr_scan"}, "lat": 38.904287, "lon": -77.02842533333333, "fusion_lat": 0.0}, {"is_reserved": 0, "bike_id": "8d31d12ab59c40986746fe49b040f262", "type": "electric_scooter", "name": "8d31d12ab59c40986746fe49b040f262", "is_disabled": 0, "fusion_lon": 0.0, "rental_uris": {"android": "https://dc.lft.to/lastmile_qr_scan", "ios": "https://dc.lft.to/lastmile_qr_scan"}, "lat": 38.921061333333334, "lon": -77.03172166666667, "fusion_lat": 0.0}, {"is_reserved": 0, "bike_id": "9b64cf598bf7b537d1a9c806aef09d36", "type": "electric_scooter", "name": "9b64cf598bf7b537d1a9c806aef09d36", "is_disabled": 0, "fusion_lon": 0.0, "rental_uris": {"android": "https://dc.lft.to/lastmile_qr_scan", "ios": "https://dc.lft.to/lastmile_qr_scan"}, "lat": 38.9351925, "lon": -77.03686366666666, "fusion_lat": 0.0}, {"is_reserved": 0, "bike_id": "7183e4f9ccf51914b80bdc7c3da7261e", "type": "electric_scooter", "name": "7183e4f9ccf51914b80bdc7c3da7261e", "is_disabled": 0, "fusion_lon": 0.0, "rental_uris": {"android": "https://dc.lft.to/lastmile_qr_scan", "ios": "https://dc.lft.to/lastmile_qr_scan"}, "lat": 38.9029665, "lon": -77.03067766666666, "fusion_lat": 0.0}, {"is_reserved": 0, "bike_id": "68ad420d1865afadc94620c18d6fcf87", "type": "electric_scooter", "name": "68ad420d1865afadc94620c18d6fcf87", "is_disabled": 0, "fusion_lon": 0.0, "rental_uris": {"android": "https://dc.lft.to/lastmile_qr_scan", "ios": "https://dc.lft.to/lastmile_qr_scan"}, "lat": 38.93722116666667, "lon": -77.01909333333333, "fusion_lat": 0.0}, {"is_reserved": 0, "bike_id": "086825772d80d86ed0b0e85c247f04a1", "type": "electric_scooter", "name": "086825772d80d86ed0b0e85c247f04a1", "is_disabled": 0, "fusion_lon": 0.0, "rental_uris": {"android": "https://dc.lft.to/lastmile_qr_scan", "ios": "https://dc.lft.to/lastmile_qr_scan"}, "lat": 38.92285566666666, "lon": -77.04288266666667, "fusion_lat": 0.0}, {"is_reserved": 0, "bike_id": "273f3db5173cafc86cdfc8a33db8e221", "type": "electric_scooter", "name": "273f3db5173cafc86cdfc8a33db8e221", "is_disabled": 0, "fusion_lon": 0.0, "rental_uris": {"android": "https://dc.lft.to/lastmile_qr_scan", "ios": "https://dc.lft.to/lastmile_qr_scan"}, "lat": 38.895266, "lon": -77.03350483333334, "fusion_lat": 0.0}, {"is_reserved": 0, "bike_id": "f9540a0ff0aa7d13a87e4815d064fdd1", "type": "electric_scooter", "name": "f9540a0ff0aa7d13a87e4815d064fdd1", "is_disabled": 0, "fusion_lon": 0.0, "rental_uris": {"android": "https://dc.lft.to/lastmile_qr_scan", "ios": "https://dc.lft.to/lastmile_qr_scan"}, "lat": 38.918164166666664, "lon": -77.02478316666667, "fusion_lat": 0.0}, {"is_reserved": 0, "bike_id": "da588482d5fd1e3d42116489a03a7fcd", "type": "electric_scooter", "name": "da588482d5fd1e3d42116489a03a7fcd", "is_disabled": 0, "fusion_lon": 0.0, "rental_uris": {"android": "https://dc.lft.to/lastmile_qr_scan", "ios": "https://dc.lft.to/lastmile_qr_scan"}, "lat": 38.91634, "lon": -77.022284, "fusion_lat": 0.0}, {"is_reserved": 0, "bike_id": "33a1eedebec9325083273ddc8aaa46d1", "type": "electric_scooter", "name": "33a1eedebec9325083273ddc8aaa46d1", "is_disabled": 0, "fusion_lon": 0.0, "rental_uris": {"android": "https://dc.lft.to/lastmile_qr_scan", "ios": "https://dc.lft.to/lastmile_qr_scan"}, "lat": 38.935794333333334, "lon": -77.02125333333333, "fusion_lat": 0.0}, {"is_reserved": 0, "bike_id": "64fe923833d0c48420596c1a95de0b9b", "type": "electric_scooter", "name": "64fe923833d0c48420596c1a95de0b9b", "is_disabled": 0, "fusion_lon": 0.0, "rental_uris": {"android": "https://dc.lft.to/lastmile_qr_scan", "ios": "https://dc.lft.to/lastmile_qr_scan"}, "lat": 38.905217666666665, "lon": -77.05004483333333, "fusion_lat": 0.0}, {"is_reserved": 0, "bike_id": "bc8de8a865c6ad1d94de482e541fa0f2", "type": "electric_scooter", "name": "bc8de8a865c6ad1d94de482e541fa0f2", "is_disabled": 0, "fusion_lon": 0.0, "rental_uris": {"android": "https://dc.lft.to/lastmile_qr_scan", "ios": "https://dc.lft.to/lastmile_qr_scan"}, "lat": 38.89924233333333, "lon": -77.05000983333333, "fusion_lat": 0.0}, {"is_reserved": 0, "bike_id": "7b8427ee39b6a83ade6a8bc5843c3a89", "type": "electric_scooter", "name": "7b8427ee39b6a83ade6a8bc5843c3a89", "is_disabled": 0, "fusion_lon": 0.0, "rental_uris": {"android": "https://dc.lft.to/lastmile_qr_scan", "ios": "https://dc.lft.to/lastmile_qr_scan"}, "lat": 38.926893, "lon": -77.04050266666667, "fusion_lat": 0.0}, {"is_reserved": 0, "bike_id": "7507cfb3e6d1e9f293381fd12d3276cb", "type": "electric_scooter", "name": "7507cfb3e6d1e9f293381fd12d3276cb", "is_disabled": 0, "fusion_lon": 0.0, "rental_uris": {"android": "https://dc.lft.to/lastmile_qr_scan", "ios": "https://dc.lft.to/lastmile_qr_scan"}, "lat": 38.88867533333333, "lon": -77.0399975, "fusion_lat": 0.0}, {"is_reserved": 0, "bike_id": "8af772bcf9a7ca2f9b78ef26d4d6c4f8", "type": "electric_scooter", "name": "8af772bcf9a7ca2f9b78ef26d4d6c4f8", "is_disabled": 0, "fusion_lon": 0.0, "rental_uris": {"android": "https://dc.lft.to/lastmile_qr_scan", "ios": "https://dc.lft.to/lastmile_qr_scan"}, "lat": 38.8926525, "lon": -76.98371566666667, "fusion_lat": 0.0}, {"is_reserved": 0, "bike_id": "8cce3f6683524ccad27115d1777908fc", "type": "electric_scooter", "name": "8cce3f6683524ccad27115d1777908fc", "is_disabled": 0, "fusion_lon": 0.0, "rental_uris": {"android": "https://dc.lft.to/lastmile_qr_scan", "ios": "https://dc.lft.to/lastmile_qr_scan"}, "lat": 38.921573, "lon": -77.0338295, "fusion_lat": 0.0}, {"is_reserved": 0, "bike_id": "56f7b918517132a8963dbf58ccee72ff", "type": "electric_scooter", "name": "56f7b918517132a8963dbf58ccee72ff", "is_disabled": 0, "fusion_lon": 0.0, "rental_uris": {"android": "https://dc.lft.to/lastmile_qr_scan", "ios": "https://dc.lft.to/lastmile_qr_scan"}, "lat": 38.8998555, "lon": -77.02187566666667, "fusion_lat": 0.0}, {"is_reserved": 0, "bike_id": "e18957d7246a79b4d70a28ade48535ae", "type": "electric_scooter", "name": "e18957d7246a79b4d70a28ade48535ae", "is_disabled": 0, "fusion_lon": 0.0, "rental_uris": {"android": "https://dc.lft.to/lastmile_qr_scan", "ios": "https://dc.lft.to/lastmile_qr_scan"}, "lat": 38.920900833333334, "lon": -77.02543016666667, "fusion_lat": 0.0}, {"is_reserved": 0, "bike_id": "f6dbee75709e72b1cd9df29527a3a7ad", "type": "electric_scooter", "name": "f6dbee75709e72b1cd9df29527a3a7ad", "is_disabled": 0, "fusion_lon": 0.0, "rental_uris": {"android": "https://dc.lft.to/lastmile_qr_scan", "ios": "https://dc.lft.to/lastmile_qr_scan"}, "lat": 38.902004, "lon": -77.03839066666667, "fusion_lat": 0.0}, {"is_reserved": 0, "bike_id": "6e888756fc16616db44b2cb9776d7ff5", "type": "electric_scooter", "name": "6e888756fc16616db44b2cb9776d7ff5", "is_disabled": 0, "fusion_lon": 0.0, "rental_uris": {"android": "https://dc.lft.to/lastmile_qr_scan", "ios": "https://dc.lft.to/lastmile_qr_scan"}, "lat": 38.93940666666667, "lon": -77.03278866666666, "fusion_lat": 0.0}, {"is_reserved": 0, "bike_id": "4c6b53d00e9c9a39445e69076a78c2d6", "type": "electric_scooter", "name": "4c6b53d00e9c9a39445e69076a78c2d6", "is_disabled": 0, "fusion_lon": 0.0, "rental_uris": {"android": "https://dc.lft.to/lastmile_qr_scan", "ios": "https://dc.lft.to/lastmile_qr_scan"}, "lat": 38.92154716666667, "lon": -77.03461316666667, "fusion_lat": 0.0}, {"is_reserved": 0, "bike_id": "055676388318a430c06e6658a5590910", "type": "electric_scooter", "name": "055676388318a430c06e6658a5590910", "is_disabled": 0, "fusion_lon": 0.0, "rental_uris": {"android": "https://dc.lft.to/lastmile_qr_scan", "ios": "https://dc.lft.to/lastmile_qr_scan"}, "lat": 38.930596666666666, "lon": -77.03946316666666, "fusion_lat": 0.0}, {"is_reserved": 0, "bike_id": "12fe9a144bdba4a20db92b71b42007e7", "type": "electric_scooter", "name": "12fe9a144bdba4a20db92b71b42007e7", "is_disabled": 0, "fusion_lon": 0.0, "rental_uris": {"android": "https://dc.lft.to/lastmile_qr_scan", "ios": "https://dc.lft.to/lastmile_qr_scan"}, "lat": 38.916322666666666, "lon": -77.03500583333333, "fusion_lat": 0.0}, {"is_reserved": 0, "bike_id": "18fc7249d730d52a5ede99ef41f6461f", "type": "electric_scooter", "name": "18fc7249d730d52a5ede99ef41f6461f", "is_disabled": 0, "fusion_lon": 0.0, "rental_uris": {"android": "https://dc.lft.to/lastmile_qr_scan", "ios": "https://dc.lft.to/lastmile_qr_scan"}, "lat": 38.918749, "lon": -77.031836, "fusion_lat": 0.0}, {"is_reserved": 0, "bike_id": "bb4b6bd66800b255389b5f2c6c4d336b", "type": "electric_scooter", "name": "bb4b6bd66800b255389b5f2c6c4d336b", "is_disabled": 0, "fusion_lon": 0.0, "rental_uris": {"android": "https://dc.lft.to/lastmile_qr_scan", "ios": "https://dc.lft.to/lastmile_qr_scan"}, "lat": 38.92337933333334, "lon": -77.05682766666666, "fusion_lat": 0.0}, {"is_reserved": 0, "bike_id": "66d2a2174fe532319716e6eb7edd87f9", "type": "electric_scooter", "name": "66d2a2174fe532319716e6eb7edd87f9", "is_disabled": 0, "fusion_lon": 0.0, "rental_uris": {"android": "https://dc.lft.to/lastmile_qr_scan", "ios": "https://dc.lft.to/lastmile_qr_scan"}, "lat": 38.924290666666664, "lon": -77.04241416666666, "fusion_lat": 0.0}, {"is_reserved": 0, "bike_id": "38b035a4f9e5ebfe65956968c896acae", "type": "electric_scooter", "name": "38b035a4f9e5ebfe65956968c896acae", "is_disabled": 0, "fusion_lon": 0.0, "rental_uris": {"android": "https://dc.lft.to/lastmile_qr_scan", "ios": "https://dc.lft.to/lastmile_qr_scan"}, "lat": 38.90590783333333, "lon": -77.012237, "fusion_lat": 0.0}, {"is_reserved": 0, "bike_id": "a1774c096f7515c446f753653cdbbc54", "type": "electric_scooter", "name": "a1774c096f7515c446f753653cdbbc54", "is_disabled": 0, "fusion_lon": 0.0, "rental_uris": {"android": "https://dc.lft.to/lastmile_qr_scan", "ios": "https://dc.lft.to/lastmile_qr_scan"}, "lat": 38.93070816666667, "lon": -77.02333733333333, "fusion_lat": 0.0}, {"is_reserved": 0, "bike_id": "b3a737680b387075eab5b08a647b07e1", "type": "electric_scooter", "name": "b3a737680b387075eab5b08a647b07e1", "is_disabled": 0, "fusion_lon": 0.0, "rental_uris": {"android": "https://dc.lft.to/lastmile_qr_scan", "ios": "https://dc.lft.to/lastmile_qr_scan"}, "lat": 38.90014633333333, "lon": -77.011233, "fusion_lat": 0.0}, {"is_reserved": 0, "bike_id": "5519d13857d74ce27ed954d16f82e167", "type": "electric_scooter", "name": "5519d13857d74ce27ed954d16f82e167", "is_disabled": 0, "fusion_lon": 0.0, "rental_uris": {"android": "https://dc.lft.to/lastmile_qr_scan", "ios": "https://dc.lft.to/lastmile_qr_scan"}, "lat": 38.891824, "lon": -77.0153355, "fusion_lat": 0.0}, {"is_reserved": 0, "bike_id": "9535c986527335216ffcaae4e02c0f5f", "type": "electric_scooter", "name": "9535c986527335216ffcaae4e02c0f5f", "is_disabled": 0, "fusion_lon": 0.0, "rental_uris": {"android": "https://dc.lft.to/lastmile_qr_scan", "ios": "https://dc.lft.to/lastmile_qr_scan"}, "lat": 38.932053, "lon": -77.04124866666666, "fusion_lat": 0.0}, {"is_reserved": 0, "bike_id": "1ed0772ad83406bbfc64697d3690fddd", "type": "electric_scooter", "name": "1ed0772ad83406bbfc64697d3690fddd", "is_disabled": 0, "fusion_lon": 0.0, "rental_uris": {"android": "https://dc.lft.to/lastmile_qr_scan", "ios": "https://dc.lft.to/lastmile_qr_scan"}, "lat": 38.901391833333335, "lon": -77.04171066666666, "fusion_lat": 0.0}, {"is_reserved": 0, "bike_id": "cb605c9a582a9cf050cf2ad64b1aa140", "type": "electric_scooter", "name": "cb605c9a582a9cf050cf2ad64b1aa140", "is_disabled": 0, "fusion_lon": 0.0, "rental_uris": {"android": "https://dc.lft.to/lastmile_qr_scan", "ios": "https://dc.lft.to/lastmile_qr_scan"}, "lat": 38.92501933333333, "lon": -77.02358066666666, "fusion_lat": 0.0}, {"is_reserved": 0, "bike_id": "9d28de91de831c6b27fc5e936375ef0c", "type": "electric_bike", "name": "9d28de91de831c6b27fc5e936375ef0c", "is_disabled": 0, "fusion_lon": 0.0, "rental_uris": {"android": "https://dc.lft.to/lastmile_qr_scan", "ios": "https://dc.lft.to/lastmile_qr_scan"}, "lat": 38.894219, "lon": -76.9998355, "fusion_lat": 0.0}, {"is_reserved": 0, "bike_id": "04568da79442380d792279fc37c64300", "type": "electric_bike", "name": "04568da79442380d792279fc37c64300", "is_disabled": 0, "fusion_lon": 0.0, "rental_uris": {"android": "https://dc.lft.to/lastmile_qr_scan", "ios": "https://dc.lft.to/lastmile_qr_scan"}, "lat": 38.87278033333333, "lon": -77.233208, "fusion_lat": 0.0}, {"is_reserved": 0, "bike_id": "7d42510e39e8b1e3210374ad95343a4a", "type": "electric_scooter", "name": "7d42510e39e8b1e3210374ad95343a4a", "is_disabled": 0, "fusion_lon": 0.0, "rental_uris": {"android": "https://dc.lft.to/lastmile_qr_scan", "ios": "https://dc.lft.to/lastmile_qr_scan"}, "lat": 38.91663366666667, "lon": -77.038497, "fusion_lat": 0.0}, {"is_reserved": 0, "bike_id": "dd57c6897a4b2dbb60b9acdb927ced3c", "type": "electric_bike", "name": "dd57c6897a4b2dbb60b9acdb927ced3c", "is_disabled": 0, "fusion_lon": 0.0, "rental_uris": {"android": "https://dc.lft.to/lastmile_qr_scan", "ios": "https://dc.lft.to/lastmile_qr_scan"}, "lat": 38.8907045, "lon": -77.18306066666666, "fusion_lat": 0.0}, {"is_reserved": 0, "bike_id": "ee52e91032f2a4af3e0c2899186e0740", "type": "electric_scooter", "name": "ee52e91032f2a4af3e0c2899186e0740", "is_disabled": 0, "fusion_lon": 0.0, "rental_uris": {"android": "https://dc.lft.to/lastmile_qr_scan", "ios": "https://dc.lft.to/lastmile_qr_scan"}, "lat": 38.91558366666667, "lon": -77.03873066666667, "fusion_lat": 0.0}, {"is_reserved": 0, "bike_id": "e0ea9691c6827d7b5dbe52880cddb57b", "type": "electric_scooter", "name": "e0ea9691c6827d7b5dbe52880cddb57b", "is_disabled": 0, "fusion_lon": 0.0, "rental_uris": {"android": "https://dc.lft.to/lastmile_qr_scan", "ios": "https://dc.lft.to/lastmile_qr_scan"}, "lat": 38.9230915, "lon": -77.029075, "fusion_lat": 0.0}, {"is_reserved": 0, "bike_id": "683030d6c773aea144b1513ccb6e5cbe", "type": "electric_scooter", "name": "683030d6c773aea144b1513ccb6e5cbe", "is_disabled": 0, "fusion_lon": 0.0, "rental_uris": {"android": "https://dc.lft.to/lastmile_qr_scan", "ios": "https://dc.lft.to/lastmile_qr_scan"}, "lat": 38.928658, "lon": -77.01362666666667, "fusion_lat": 0.0}, {"is_reserved": 0, "bike_id": "246dacb2fd8763e4d5ca5827f69e6e97", "type": "electric_bike", "name": "246dacb2fd8763e4d5ca5827f69e6e97", "is_disabled": 0, "fusion_lon": 0.0, "rental_uris": {"android": "https://dc.lft.to/lastmile_qr_scan", "ios": "https://dc.lft.to/lastmile_qr_scan"}, "lat": 38.86555366666666, "lon": -76.9734335, "fusion_lat": 0.0}, {"is_reserved": 0, "bike_id": "b604d08336ace34f96125787627215cd", "type": "electric_scooter", "name": "b604d08336ace34f96125787627215cd", "is_disabled": 0, "fusion_lon": 0.0, "rental_uris": {"android": "https://dc.lft.to/lastmile_qr_scan", "ios": "https://dc.lft.to/lastmile_qr_scan"}, "lat": 38.8873155, "lon": -77.01530416666667, "fusion_lat": 0.0}, {"is_reserved": 0, "bike_id": "9348d93d0abe492b3484314cf24118b6", "type": "electric_scooter", "name": "9348d93d0abe492b3484314cf24118b6", "is_disabled": 0, "fusion_lon": 0.0, "rental_uris": {"android": "https://dc.lft.to/lastmile_qr_scan", "ios": "https://dc.lft.to/lastmile_qr_scan"}, "lat": 38.892280666666665, "lon": -77.0279205, "fusion_lat": 0.0}, {"is_reserved": 0, "bike_id": "75f059a63d2673df5c1a52a16d186137", "type": "electric_scooter", "name": "75f059a63d2673df5c1a52a16d186137", "is_disabled": 0, "fusion_lon": 0.0, "rental_uris": {"android": "https://dc.lft.to/lastmile_qr_scan", "ios": "https://dc.lft.to/lastmile_qr_scan"}, "lat": 38.92066716666667, "lon": -77.02427783333333, "fusion_lat": 0.0}, {"is_reserved": 0, "bike_id": "3dbfc3edf479352ca2bcc3cfb96e093c", "type": "electric_scooter", "name": "3dbfc3edf479352ca2bcc3cfb96e093c", "is_disabled": 0, "fusion_lon": 0.0, "rental_uris": {"android": "https://dc.lft.to/lastmile_qr_scan", "ios": "https://dc.lft.to/lastmile_qr_scan"}, "lat": 38.93576216666666, "lon": -77.02449066666667, "fusion_lat": 0.0}, {"is_reserved": 0, "bike_id": "0294300cf0f3a644e5c68e0a6733d66e", "type": "electric_bike", "name": "0294300cf0f3a644e5c68e0a6733d66e", "is_disabled": 0, "fusion_lon": 0.0, "rental_uris": {"android": "https://dc.lft.to/lastmile_qr_scan", "ios": "https://dc.lft.to/lastmile_qr_scan"}, "lat": 38.8378655, "lon": -77.09352783333334, "fusion_lat": 0.0}, {"is_reserved": 0, "bike_id": "2e7a4b916c54c39df106c08e8b122de0", "type": "electric_scooter", "name": "2e7a4b916c54c39df106c08e8b122de0", "is_disabled": 0, "fusion_lon": 0.0, "rental_uris": {"android": "https://dc.lft.to/lastmile_qr_scan", "ios": "https://dc.lft.to/lastmile_qr_scan"}, "lat": 38.90295616666667, "lon": -77.036821, "fusion_lat": 0.0}, {"is_reserved": 0, "bike_id": "e015c5c004ebaf97329da98ff6fa3825", "type": "electric_scooter", "name": "e015c5c004ebaf97329da98ff6fa3825", "is_disabled": 0, "fusion_lon": 0.0, "rental_uris": {"android": "https://dc.lft.to/lastmile_qr_scan", "ios": "https://dc.lft.to/lastmile_qr_scan"}, "lat": 38.93995866666667, "lon": -77.02740566666667, "fusion_lat": 0.0}, {"is_reserved": 0, "bike_id": "dc3ea275481262d1ea48aee5dff8580c", "type": "electric_scooter", "name": "dc3ea275481262d1ea48aee5dff8580c", "is_disabled": 0, "fusion_lon": 0.0, "rental_uris": {"android": "https://dc.lft.to/lastmile_qr_scan", "ios": "https://dc.lft.to/lastmile_qr_scan"}, "lat": 38.9012705, "lon": -77.03870483333333, "fusion_lat": 0.0}, {"is_reserved": 0, "bike_id": "7e138e22c87d46a3e369c91b62affdb1", "type": "electric_bike", "name": "7e138e22c87d46a3e369c91b62affdb1", "is_disabled": 0, "fusion_lon": 0.0, "rental_uris": {"android": "https://dc.lft.to/lastmile_qr_scan", "ios": "https://dc.lft.to/lastmile_qr_scan"}, "lat": 38.83064, "lon": -77.040806, "fusion_lat": 0.0}, {"is_reserved": 0, "bike_id": "05d949e1f4c59226f0732e2445e3d22d", "type": "electric_scooter", "name": "05d949e1f4c59226f0732e2445e3d22d", "is_disabled": 0, "fusion_lon": 0.0, "rental_uris": {"android": "https://dc.lft.to/lastmile_qr_scan", "ios": "https://dc.lft.to/lastmile_qr_scan"}, "lat": 38.903324, "lon": -77.0309535, "fusion_lat": 0.0}, {"is_reserved": 0, "bike_id": "10d88fffd275729b183b9832bfd923b2", "type": "electric_bike", "name": "10d88fffd275729b183b9832bfd923b2", "is_disabled": 0, "fusion_lon": 0.0, "rental_uris": {"android": "https://dc.lft.to/lastmile_qr_scan", "ios": "https://dc.lft.to/lastmile_qr_scan"}, "lat": 38.92112266666667, "lon": -76.988804, "fusion_lat": 0.0}, {"is_reserved": 0, "bike_id": "2882c31ddfe49643dcbc935da06e2342", "type": "electric_scooter", "name": "2882c31ddfe49643dcbc935da06e2342", "is_disabled": 0, "fusion_lon": 0.0, "rental_uris": {"android": "https://dc.lft.to/lastmile_qr_scan", "ios": "https://dc.lft.to/lastmile_qr_scan"}, "lat": 38.88724083333334, "lon": -77.02582733333334, "fusion_lat": 0.0}, {"is_reserved": 0, "bike_id": "26e75f4da0fdf1a9f104363c3b6aa419", "type": "electric_scooter", "name": "26e75f4da0fdf1a9f104363c3b6aa419", "is_disabled": 0, "fusion_lon": 0.0, "rental_uris": {"android": "https://dc.lft.to/lastmile_qr_scan", "ios": "https://dc.lft.to/lastmile_qr_scan"}, "lat": 38.923435833333336, "lon": -77.046245, "fusion_lat": 0.0}, {"is_reserved": 0, "bike_id": "085cef381ceb0497f30174a194547690", "type": "electric_scooter", "name": "085cef381ceb0497f30174a194547690", "is_disabled": 0, "fusion_lon": 0.0, "rental_uris": {"android": "https://dc.lft.to/lastmile_qr_scan", "ios": "https://dc.lft.to/lastmile_qr_scan"}, "lat": 38.90374516666667, "lon": -76.98714783333334, "fusion_lat": 0.0}, {"is_reserved": 0, "bike_id": "80a54d054fc9a14b46d599ca06384ce7", "type": "electric_scooter", "name": "80a54d054fc9a14b46d599ca06384ce7", "is_disabled": 0, "fusion_lon": 0.0, "rental_uris": {"android": "https://dc.lft.to/lastmile_qr_scan", "ios": "https://dc.lft.to/lastmile_qr_scan"}, "lat": 38.90611066666666, "lon": -77.05142166666667, "fusion_lat": 0.0}, {"is_reserved": 0, "bike_id": "9f905a1c1bb5c1a7f5156034ad3c01b2", "type": "electric_scooter", "name": "9f905a1c1bb5c1a7f5156034ad3c01b2", "is_disabled": 0, "fusion_lon": 0.0, "rental_uris": {"android": "https://dc.lft.to/lastmile_qr_scan", "ios": "https://dc.lft.to/lastmile_qr_scan"}, "lat": 38.9184905, "lon": -77.03884483333333, "fusion_lat": 0.0}, {"is_reserved": 0, "bike_id": "ecd27fc8fbc8cb3eddb27335ecdddf3c", "type": "electric_scooter", "name": "ecd27fc8fbc8cb3eddb27335ecdddf3c", "is_disabled": 0, "fusion_lon": 0.0, "rental_uris": {"android": "https://dc.lft.to/lastmile_qr_scan", "ios": "https://dc.lft.to/lastmile_qr_scan"}, "lat": 38.91903116666667, "lon": -77.03125233333333, "fusion_lat": 0.0}, {"is_reserved": 0, "bike_id": "2792ba26e63faea08615accb7c49a6a1", "type": "electric_scooter", "name": "2792ba26e63faea08615accb7c49a6a1", "is_disabled": 0, "fusion_lon": 0.0, "rental_uris": {"android": "https://dc.lft.to/lastmile_qr_scan", "ios": "https://dc.lft.to/lastmile_qr_scan"}, "lat": 38.930964833333334, "lon": -77.02664783333333, "fusion_lat": 0.0}, {"is_reserved": 0, "bike_id": "cdf21450878971cf291fe598bc82295e", "type": "electric_scooter", "name": "cdf21450878971cf291fe598bc82295e", "is_disabled": 0, "fusion_lon": 0.0, "rental_uris": {"android": "https://dc.lft.to/lastmile_qr_scan", "ios": "https://dc.lft.to/lastmile_qr_scan"}, "lat": 38.9193965, "lon": -77.0180155, "fusion_lat": 0.0}, {"is_reserved": 0, "bike_id": "44030f293f19f5507d15035bda422def", "type": "electric_scooter", "name": "44030f293f19f5507d15035bda422def", "is_disabled": 0, "fusion_lon": 0.0, "rental_uris": {"android": "https://dc.lft.to/lastmile_qr_scan", "ios": "https://dc.lft.to/lastmile_qr_scan"}, "lat": 38.902226, "lon": -77.03224366666667, "fusion_lat": 0.0}, {"is_reserved": 0, "bike_id": "994000be5638e5ae29bae967aae5f5de", "type": "electric_scooter", "name": "994000be5638e5ae29bae967aae5f5de", "is_disabled": 0, "fusion_lon": 0.0, "rental_uris": {"android": "https://dc.lft.to/lastmile_qr_scan", "ios": "https://dc.lft.to/lastmile_qr_scan"}, "lat": 38.91191283333333, "lon": -77.00727066666667, "fusion_lat": 0.0}, {"is_reserved": 0, "bike_id": "6318002b399f3953aab2853b20d9be4a", "type": "electric_scooter", "name": "6318002b399f3953aab2853b20d9be4a", "is_disabled": 0, "fusion_lon": 0.0, "rental_uris": {"android": "https://dc.lft.to/lastmile_qr_scan", "ios": "https://dc.lft.to/lastmile_qr_scan"}, "lat": 38.915356333333335, "lon": -77.01224983333333, "fusion_lat": 0.0}, {"is_reserved": 0, "bike_id": "f3823ceb60a777e13b1cc3ae7a667c12", "type": "electric_scooter", "name": "f3823ceb60a777e13b1cc3ae7a667c12", "is_disabled": 0, "fusion_lon": 0.0, "rental_uris": {"android": "https://dc.lft.to/lastmile_qr_scan", "ios": "https://dc.lft.to/lastmile_qr_scan"}, "lat": 38.924259666666664, "lon": -77.01944683333333, "fusion_lat": 0.0}, {"is_reserved": 0, "bike_id": "65a0db7ed11f962677f00ff468dbebb3", "type": "electric_scooter", "name": "65a0db7ed11f962677f00ff468dbebb3", "is_disabled": 0, "fusion_lon": 0.0, "rental_uris": {"android": "https://dc.lft.to/lastmile_qr_scan", "ios": "https://dc.lft.to/lastmile_qr_scan"}, "lat": 38.9178815, "lon": -77.024109, "fusion_lat": 0.0}, {"is_reserved": 0, "bike_id": "a92dfefc8f9379aa3a08cfc417f330e1", "type": "electric_scooter", "name": "a92dfefc8f9379aa3a08cfc417f330e1", "is_disabled": 0, "fusion_lon": 0.0, "rental_uris": {"android": "https://dc.lft.to/lastmile_qr_scan", "ios": "https://dc.lft.to/lastmile_qr_scan"}, "lat": 38.921218833333334, "lon": -77.03163533333333, "fusion_lat": 0.0}, {"is_reserved": 0, "bike_id": "a5fe387045f0d3f0b78b62d297bd4baf", "type": "electric_scooter", "name": "a5fe387045f0d3f0b78b62d297bd4baf", "is_disabled": 0, "fusion_lon": 0.0, "rental_uris": {"android": "https://dc.lft.to/lastmile_qr_scan", "ios": "https://dc.lft.to/lastmile_qr_scan"}, "lat": 38.8909665, "lon": -76.9882145, "fusion_lat": 0.0}, {"is_reserved": 0, "bike_id": "7e64e5493781c4a7caa81ef8f9b6e83d", "type": "electric_scooter", "name": "7e64e5493781c4a7caa81ef8f9b6e83d", "is_disabled": 0, "fusion_lon": 0.0, "rental_uris": {"android": "https://dc.lft.to/lastmile_qr_scan", "ios": "https://dc.lft.to/lastmile_qr_scan"}, "lat": 38.893790833333334, "lon": -77.01544116666666, "fusion_lat": 0.0}, {"is_reserved": 0, "bike_id": "e334e8063efc0ad18fbfbd703c87bf7b", "type": "electric_scooter", "name": "e334e8063efc0ad18fbfbd703c87bf7b", "is_disabled": 0, "fusion_lon": 0.0, "rental_uris": {"android": "https://dc.lft.to/lastmile_qr_scan", "ios": "https://dc.lft.to/lastmile_qr_scan"}, "lat": 38.873865, "lon": -77.00022833333334, "fusion_lat": 0.0}, {"is_reserved": 0, "bike_id": "a3d8576af71f25f7df2e97f89a3bdec0", "type": "electric_scooter", "name": "a3d8576af71f25f7df2e97f89a3bdec0", "is_disabled": 0, "fusion_lon": 0.0, "rental_uris": {"android": "https://dc.lft.to/lastmile_qr_scan", "ios": "https://dc.lft.to/lastmile_qr_scan"}, "lat": 38.908242333333334, "lon": -76.9967215, "fusion_lat": 0.0}, {"is_reserved": 0, "bike_id": "dde7646dbadd786404ed14243655cc4f", "type": "electric_bike", "name": "dde7646dbadd786404ed14243655cc4f", "is_disabled": 0, "fusion_lon": 0.0, "rental_uris": {"android": "https://dc.lft.to/lastmile_qr_scan", "ios": "https://dc.lft.to/lastmile_qr_scan"}, "lat": 38.88869033333334, "lon": -76.97842916666667, "fusion_lat": 0.0}, {"is_reserved": 0, "bike_id": "e610d509b62756bf6141a94783bc5edd", "type": "electric_scooter", "name": "e610d509b62756bf6141a94783bc5edd", "is_disabled": 0, "fusion_lon": 0.0, "rental_uris": {"android": "https://dc.lft.to/lastmile_qr_scan", "ios": "https://dc.lft.to/lastmile_qr_scan"}, "lat": 38.887143, "lon": -77.02217883333333, "fusion_lat": 0.0}, {"is_reserved": 0, "bike_id": "31f6328912b1d313c00f95d79d429a02", "type": "electric_bike", "name": "31f6328912b1d313c00f95d79d429a02", "is_disabled": 0, "fusion_lon": 0.0, "rental_uris": {"android": "https://dc.lft.to/lastmile_qr_scan", "ios": "https://dc.lft.to/lastmile_qr_scan"},