{"data": {"bikes": [{"bike_id": "e385f74d9a34fe2cddbaa3aca109f5f0", "type": "electric_scooter", "is_disabled": 0, "lat": 38.91502716666667, "rental_uris": {"ios": "https://dc.lft.to/lastmile_qr_scan", "android": "https://dc.lft.to/lastmile_qr_scan"}, "is_reserved": 0, "fusion_lon": 0.0, "fusion_lat": 0.0, "lon": -77.03180466666667, "name": "e385f74d9a34fe2cddbaa3aca109f5f0"}, {"bike_id": "ab7450345d5f1adeee429ec290571260", "type": "electric_scooter", "is_disabled": 0, "lat": 38.892463166666666, "rental_uris": {"ios": "https://dc.lft.to/lastmile_qr_scan", "android": "https://dc.lft.to/lastmile_qr_scan"}, "is_reserved": 0, "fusion_lon": 0.0, "fusion_lat": 0.0, "lon": -77.01723216666667, "name": "ab7450345d5f1adeee429ec290571260"}, {"bike_id": "01f37e2669b2c5eb19747cb45187fb20", "type": "electric_scooter", "is_disabled": 0, "lat": 38.908329333333334, "rental_uris": {"ios": "https://dc.lft.to/lastmile_qr_scan", "android": "https://dc.lft.to/lastmile_qr_scan"}, "is_reserved": 0, "fusion_lon": 0.0, "fusion_lat": 0.0, "lon": -77.03344466666667, "name": "01f37e2669b2c5eb19747cb45187fb20"}, {"bike_id": "105f8afc09deb67c7f48e6aa03d95a08", "type": "electric_scooter", "is_disabled": 0, "lat": 38.900499333333336, "rental_uris": {"ios": "https://dc.lft.to/lastmile_qr_scan", "android": "https://dc.lft.to/lastmile_qr_scan"}, "is_reserved": 0, "fusion_lon": 0.0, "fusion_lat": 0.0, "lon": -77.0337825, "name": "105f8afc09deb67c7f48e6aa03d95a08"}, {"bike_id": "2df3a5161a5eef8089e05b927e5e9a48", "type": "electric_scooter", "is_disabled": 0, "lat": 38.89967883333333, "rental_uris": {"ios": "https://dc.lft.to/lastmile_qr_scan", "android": "https://dc.lft.to/lastmile_qr_scan"}, "is_reserved": 0, "fusion_lon": 0.0, "fusion_lat": 0.0, "lon": -77.01510866666666, "name": "2df3a5161a5eef8089e05b927e5e9a48"}, {"bike_id": "8cfb1aa63e59fd3471ff304daf9b2e19", "type": "electric_scooter", "is_disabled": 0, "lat": 38.88216833333333, "rental_uris": {"ios": "https://dc.lft.to/lastmile_qr_scan", "android": "https://dc.lft.to/lastmile_qr_scan"}, "is_reserved": 0, "fusion_lon": 0.0, "fusion_lat": 0.0, "lon": -77.02904533333333, "name": "8cfb1aa63e59fd3471ff304daf9b2e19"}, {"bike_id": "c29bb64eb2869216892a6b54d182c3c9", "type": "electric_scooter", "is_disabled": 0, "lat": 38.93037833333333, "rental_uris": {"ios": "https://dc.lft.to/lastmile_qr_scan", "android": "https://dc.lft.to/lastmile_qr_scan"}, "is_reserved": 0, "fusion_lon": 0.0, "fusion_lat": 0.0, "lon": -77.01828483333334, "name": "c29bb64eb2869216892a6b54d182c3c9"}, {"bike_id": "90177e365031804007576e1119fe932c", "type": "electric_scooter", "is_disabled": 0, "lat": 38.91843333333333, "rental_uris": {"ios": "https://dc.lft.to/lastmile_qr_scan", "android": "https://dc.lft.to/lastmile_qr_scan"}, "is_reserved": 0, "fusion_lon": 0.0, "fusion_lat": 0.0, "lon": -76.9655055, "name": "90177e365031804007576e1119fe932c"}, {"bike_id": "6050befa58d6ea6fff403b9c4760226d", "type": "electric_scooter", "is_disabled": 0, "lat": 38.90193133333333, "rental_uris": {"ios": "https://dc.lft.to/lastmile_qr_scan", "android": "https://dc.lft.to/lastmile_qr_scan"}, "is_reserved": 0, "fusion_lon": 0.0, "fusion_lat": 0.0, "lon": -76.99682483333333, "name": "6050befa58d6ea6fff403b9c4760226d"}, {"bike_id": "8476947b699e90c394fc6eefd590a2c0", "type": "electric_scooter", "is_disabled": 0, "lat": 38.88432483333333, "rental_uris": {"ios": "https://dc.lft.to/lastmile_qr_scan", "android": "https://dc.lft.to/lastmile_qr_scan"}, "is_reserved": 0, "fusion_lon": 0.0, "fusion_lat": 0.0, "lon": -76.95759033333333, "name": "8476947b699e90c394fc6eefd590a2c0"}, {"bike_id": "661495ed2b772c26e1633e789d350f01", "type": "electric_scooter", "is_disabled": 0, "lat": 38.90810533333333, "rental_uris": {"ios": "https://dc.lft.to/lastmile_qr_scan", "android": "https://dc.lft.to/lastmile_qr_scan"}, "is_reserved": 0, "fusion_lon": 0.0, "fusion_lat": 0.0, "lon": -77.026049, "name": "661495ed2b772c26e1633e789d350f01"}, {"bike_id": "8f7ab050c25781ed38b5d1ca9ea9f07b", "type": "electric_bike", "is_disabled": 0, "lat": 38.86520016666667, "rental_uris": {"ios": "https://dc.lft.to/lastmile_qr_scan", "android": "https://dc.lft.to/lastmile_qr_scan"}, "is_reserved": 0, "fusion_lon": 0.0, "fusion_lat": 0.0, "lon": -77.12932816666667, "name": "8f7ab050c25781ed38b5d1ca9ea9f07b"}, {"bike_id": "a583ff9cb0f6aee20fec723f44e9b04d", "type": "electric_bike", "is_disabled": 0, "lat": 38.803917, "rental_uris": {"ios": "https://dc.lft.to/lastmile_qr_scan", "android": "https://dc.lft.to/lastmile_qr_scan"}, "is_reserved": 0, "fusion_lon": 0.0, "fusion_lat": 0.0, "lon": -77.05561866666666, "name": "a583ff9cb0f6aee20fec723f44e9b04d"}, {"bike_id": "c36d60919337eb6e1e615024f821f70d", "type": "electric_scooter", "is_disabled": 0, "lat": 38.89222083333333, "rental_uris": {"ios": "https://dc.lft.to/lastmile_qr_scan", "android": "https://dc.lft.to/lastmile_qr_scan"}, "is_reserved": 0, "fusion_lon": 0.0, "fusion_lat": 0.0, "lon": -77.0431065, "name": "c36d60919337eb6e1e615024f821f70d"}, {"bike_id": "e024f985c8ab3e540c352d4af3cc3246", "type": "electric_scooter", "is_disabled": 0, "lat": 38.897066333333335, "rental_uris": {"ios": "https://dc.lft.to/lastmile_qr_scan", "android": "https://dc.lft.to/lastmile_qr_scan"}, "is_reserved": 0, "fusion_lon": 0.0, "fusion_lat": 0.0, "lon": -76.93001033333333, "name": "e024f985c8ab3e540c352d4af3cc3246"}, {"bike_id": "df613395e6942a2d08ba1296c4429ab3", "type": "electric_scooter", "is_disabled": 0, "lat": 38.9009395, "rental_uris": {"ios": "https://dc.lft.to/lastmile_qr_scan", "android": "https://dc.lft.to/lastmile_qr_scan"}, "is_reserved": 0, "fusion_lon": 0.0, "fusion_lat": 0.0, "lon": -77.05071716666667, "name": "df613395e6942a2d08ba1296c4429ab3"}, {"bike_id": "577aa48a4d52a561fca9b3b5080c6b0f", "type": "electric_scooter", "is_disabled": 0, "lat": 38.87635133333333, "rental_uris": {"ios": "https://dc.lft.to/lastmile_qr_scan", "android": "https://dc.lft.to/lastmile_qr_scan"}, "is_reserved": 0, "fusion_lon": 0.0, "fusion_lat": 0.0, "lon": -77.009583, "name": "577aa48a4d52a561fca9b3b5080c6b0f"}, {"bike_id": "24479c8e0e49dca21039743a44e8c46e", "type": "electric_scooter", "is_disabled": 0, "lat": 38.91555616666667, "rental_uris": {"ios": "https://dc.lft.to/lastmile_qr_scan", "android": "https://dc.lft.to/lastmile_qr_scan"}, "is_reserved": 0, "fusion_lon": 0.0, "fusion_lat": 0.0, "lon": -77.0213965, "name": "24479c8e0e49dca21039743a44e8c46e"}, {"bike_id": "d8fb56f37e87daba2de29e4df7d23d59", "type": "electric_scooter", "is_disabled": 0, "lat": 38.965622, "rental_uris": {"ios": "https://dc.lft.to/lastmile_qr_scan", "android": "https://dc.lft.to/lastmile_qr_scan"}, "is_reserved": 0, "fusion_lon": 0.0, "fusion_lat": 0.0, "lon": -77.02023833333334, "name": "d8fb56f37e87daba2de29e4df7d23d59"}, {"bike_id": "c45271b34c03f6080e4e9dca83805435", "type": "electric_scooter", "is_disabled": 0, "lat": 38.92771533333333, "rental_uris": {"ios": "https://dc.lft.to/lastmile_qr_scan", "android": "https://dc.lft.to/lastmile_qr_scan"}, "is_reserved": 0, "fusion_lon": 0.0, "fusion_lat": 0.0, "lon": -76.96096483333334, "name": "c45271b34c03f6080e4e9dca83805435"}, {"bike_id": "55e00a558b9047e33a9d4a4e70b0e1a7", "type": "electric_scooter", "is_disabled": 0, "lat": 38.93995183333333, "rental_uris": {"ios": "https://dc.lft.to/lastmile_qr_scan", "android": "https://dc.lft.to/lastmile_qr_scan"}, "is_reserved": 0, "fusion_lon": 0.0, "fusion_lat": 0.0, "lon": -77.01753083333334, "name": "55e00a558b9047e33a9d4a4e70b0e1a7"}, {"bike_id": "abc861b025b83b81334b20bc24772e3d", "type": "electric_scooter", "is_disabled": 0, "lat": 38.90048083333333, "rental_uris": {"ios": "https://dc.lft.to/lastmile_qr_scan", "android": "https://dc.lft.to/lastmile_qr_scan"}, "is_reserved": 0, "fusion_lon": 0.0, "fusion_lat": 0.0, "lon": -77.01705266666667, "name": "abc861b025b83b81334b20bc24772e3d"}, {"bike_id": "432297b9b9ecd454ded288859d4c9fbc", "type": "electric_scooter", "is_disabled": 0, "lat": 38.86733816666667, "rental_uris": {"ios": "https://dc.lft.to/lastmile_qr_scan", "android": "https://dc.lft.to/lastmile_qr_scan"}, "is_reserved": 0, "fusion_lon": 0.0, "fusion_lat": 0.0, "lon": -76.97864416666667, "name": "432297b9b9ecd454ded288859d4c9fbc"}, {"bike_id": "0d562ca6621f3e32f932238189230faf", "type": "electric_scooter", "is_disabled": 0, "lat": 38.918699333333336, "rental_uris": {"ios": "https://dc.lft.to/lastmile_qr_scan", "android": "https://dc.lft.to/lastmile_qr_scan"}, "is_reserved": 0, "fusion_lon": 0.0, "fusion_lat": 0.0, "lon": -76.96555433333333, "name": "0d562ca6621f3e32f932238189230faf"}, {"bike_id": "9f5e206eab653b0744d383e15d0f922b", "type": "electric_scooter", "is_disabled": 0, "lat": 38.9233095, "rental_uris": {"ios": "https://dc.lft.to/lastmile_qr_scan", "android": "https://dc.lft.to/lastmile_qr_scan"}, "is_reserved": 0, "fusion_lon": 0.0, "fusion_lat": 0.0, "lon": -77.03810583333333, "name": "9f5e206eab653b0744d383e15d0f922b"}, {"bike_id": "90649d637c5571a8ef3adb7020d633e5", "type": "electric_scooter", "is_disabled": 0, "lat": 38.9216155, "rental_uris": {"ios": "https://dc.lft.to/lastmile_qr_scan", "android": "https://dc.lft.to/lastmile_qr_scan"}, "is_reserved": 0, "fusion_lon": 0.0, "fusion_lat": 0.0, "lon": -77.03510833333333, "name": "90649d637c5571a8ef3adb7020d633e5"}, {"bike_id": "ed44c7087981a0fd15f633a7a9c49070", "type": "electric_scooter", "is_disabled": 0, "lat": 38.92605733333333, "rental_uris": {"ios": "https://dc.lft.to/lastmile_qr_scan", "android": "https://dc.lft.to/lastmile_qr_scan"}, "is_reserved": 0, "fusion_lon": 0.0, "fusion_lat": 0.0, "lon": -77.02385966666667, "name": "ed44c7087981a0fd15f633a7a9c49070"}, {"bike_id": "63d087bd2728f106b57c208757a593aa", "type": "electric_scooter", "is_disabled": 0, "lat": 38.909380166666665, "rental_uris": {"ios": "https://dc.lft.to/lastmile_qr_scan", "android": "https://dc.lft.to/lastmile_qr_scan"}, "is_reserved": 0, "fusion_lon": 0.0, "fusion_lat": 0.0, "lon": -77.05556833333333, "name": "63d087bd2728f106b57c208757a593aa"}, {"bike_id": "7e24abf4b662a63a17b7e70dab3ab3e1", "type": "electric_scooter", "is_disabled": 0, "lat": 38.9141775, "rental_uris": {"ios": "https://dc.lft.to/lastmile_qr_scan", "android": "https://dc.lft.to/lastmile_qr_scan"}, "is_reserved": 0, "fusion_lon": 0.0, "fusion_lat": 0.0, "lon": -77.02214233333333, "name": "7e24abf4b662a63a17b7e70dab3ab3e1"}, {"bike_id": "c13200c1e7c99e582f121303af52135a", "type": "electric_scooter", "is_disabled": 0, "lat": 38.918413666666666, "rental_uris": {"ios": "https://dc.lft.to/lastmile_qr_scan", "android": "https://dc.lft.to/lastmile_qr_scan"}, "is_reserved": 0, "fusion_lon": 0.0, "fusion_lat": 0.0, "lon": -76.965541, "name": "c13200c1e7c99e582f121303af52135a"}, {"bike_id": "dc4af8bac3dd5f75419fe27401e9e4f0", "type": "electric_scooter", "is_disabled": 0, "lat": 38.92892583333333, "rental_uris": {"ios": "https://dc.lft.to/lastmile_qr_scan", "android": "https://dc.lft.to/lastmile_qr_scan"}, "is_reserved": 0, "fusion_lon": 0.0, "fusion_lat": 0.0, "lon": -77.03252483333333, "name": "dc4af8bac3dd5f75419fe27401e9e4f0"}, {"bike_id": "55620bd97ee59c0e521757e0e68cb3e6", "type": "electric_scooter", "is_disabled": 0, "lat": 38.91188566666667, "rental_uris": {"ios": "https://dc.lft.to/lastmile_qr_scan", "android": "https://dc.lft.to/lastmile_qr_scan"}, "is_reserved": 0, "fusion_lon": 0.0, "fusion_lat": 0.0, "lon": -77.03209816666667, "name": "55620bd97ee59c0e521757e0e68cb3e6"}, {"bike_id": "f2194a7a33eeb54d292125e9ca3d7a5b", "type": "electric_scooter", "is_disabled": 0, "lat": 38.922357, "rental_uris": {"ios": "https://dc.lft.to/lastmile_qr_scan", "android": "https://dc.lft.to/lastmile_qr_scan"}, "is_reserved": 0, "fusion_lon": 0.0, "fusion_lat": 0.0, "lon": -77.04266466666667, "name": "f2194a7a33eeb54d292125e9ca3d7a5b"}, {"bike_id": "50404cb83e4d02325d97c5ecd59a5cb9", "type": "electric_scooter", "is_disabled": 0, "lat": 38.89295766666667, "rental_uris": {"ios": "https://dc.lft.to/lastmile_qr_scan", "android": "https://dc.lft.to/lastmile_qr_scan"}, "is_reserved": 0, "fusion_lon": 0.0, "fusion_lat": 0.0, "lon": -77.04476216666667, "name": "50404cb83e4d02325d97c5ecd59a5cb9"}, {"bike_id": "ef24e9412d00d3b758b068d712a90de8", "type": "electric_scooter", "is_disabled": 0, "lat": 38.93344333333334, "rental_uris": {"ios": "https://dc.lft.to/lastmile_qr_scan", "android": "https://dc.lft.to/lastmile_qr_scan"}, "is_reserved": 0, "fusion_lon": 0.0, "fusion_lat": 0.0, "lon": -77.03992983333333, "name": "ef24e9412d00d3b758b068d712a90de8"}, {"bike_id": "5136b3ec41153a0fe07dbb74e328911f", "type": "electric_scooter", "is_disabled": 0, "lat": 38.9003845, "rental_uris": {"ios": "https://dc.lft.to/lastmile_qr_scan", "android": "https://dc.lft.to/lastmile_qr_scan"}, "is_reserved": 0, "fusion_lon": 0.0, "fusion_lat": 0.0, "lon": -77.001891, "name": "5136b3ec41153a0fe07dbb74e328911f"}, {"bike_id": "42dad1a25bba54f2d0cffab22a46c3d7", "type": "electric_scooter", "is_disabled": 0, "lat": 38.9429535, "rental_uris": {"ios": "https://dc.lft.to/lastmile_qr_scan", "android": "https://dc.lft.to/lastmile_qr_scan"}, "is_reserved": 0, "fusion_lon": 0.0, "fusion_lat": 0.0, "lon": -77.02174883333333, "name": "42dad1a25bba54f2d0cffab22a46c3d7"}, {"bike_id": "0219aa1b5a2d621fd324368893a852e3", "type": "electric_scooter", "is_disabled": 0, "lat": 38.916340166666664, "rental_uris": {"ios": "https://dc.lft.to/lastmile_qr_scan", "android": "https://dc.lft.to/lastmile_qr_scan"}, "is_reserved": 0, "fusion_lon": 0.0, "fusion_lat": 0.0, "lon": -77.040154, "name": "0219aa1b5a2d621fd324368893a852e3"}, {"bike_id": "24073b33ec4ef862730c568c9c1d31a0", "type": "electric_scooter", "is_disabled": 0, "lat": 38.90793166666667, "rental_uris": {"ios": "https://dc.lft.to/lastmile_qr_scan", "android": "https://dc.lft.to/lastmile_qr_scan"}, "is_reserved": 0, "fusion_lon": 0.0, "fusion_lat": 0.0, "lon": -77.063728, "name": "24073b33ec4ef862730c568c9c1d31a0"}, {"bike_id": "ef1737009fc267c611ab9d940791e8d0", "type": "electric_scooter", "is_disabled": 0, "lat": 38.9393045, "rental_uris": {"ios": "https://dc.lft.to/lastmile_qr_scan", "android": "https://dc.lft.to/lastmile_qr_scan"}, "is_reserved": 0, "fusion_lon": 0.0, "fusion_lat": 0.0, "lon": -77.06050833333333, "name": "ef1737009fc267c611ab9d940791e8d0"}, {"bike_id": "3f130b17c333cd5a98cf28e60cd6378e", "type": "electric_scooter", "is_disabled": 0, "lat": 38.8877415, "rental_uris": {"ios": "https://dc.lft.to/lastmile_qr_scan", "android": "https://dc.lft.to/lastmile_qr_scan"}, "is_reserved": 0, "fusion_lon": 0.0, "fusion_lat": 0.0, "lon": -77.0172615, "name": "3f130b17c333cd5a98cf28e60cd6378e"}, {"bike_id": "493795a99a5b4e097c289af87ff7279c", "type": "electric_scooter", "is_disabled": 0, "lat": 38.92039833333333, "rental_uris": {"ios": "https://dc.lft.to/lastmile_qr_scan", "android": "https://dc.lft.to/lastmile_qr_scan"}, "is_reserved": 0, "fusion_lon": 0.0, "fusion_lat": 0.0, "lon": -77.013072, "name": "493795a99a5b4e097c289af87ff7279c"}, {"bike_id": "68346923c161747d56b002018b2bb5ed", "type": "electric_scooter", "is_disabled": 0, "lat": 38.89856233333333, "rental_uris": {"ios": "https://dc.lft.to/lastmile_qr_scan", "android": "https://dc.lft.to/lastmile_qr_scan"}, "is_reserved": 0, "fusion_lon": 0.0, "fusion_lat": 0.0, "lon": -77.031148, "name": "68346923c161747d56b002018b2bb5ed"}, {"bike_id": "9753dce511e7d97b8672f8a649aa902e", "type": "electric_scooter", "is_disabled": 0, "lat": 38.8923495, "rental_uris": {"ios": "https://dc.lft.to/lastmile_qr_scan", "android": "https://dc.lft.to/lastmile_qr_scan"}, "is_reserved": 0, "fusion_lon": 0.0, "fusion_lat": 0.0, "lon": -77.0467225, "name": "9753dce511e7d97b8672f8a649aa902e"}, {"bike_id": "12762c765143d3fd1686f3420672f30f", "type": "electric_scooter", "is_disabled": 0, "lat": 38.923465, "rental_uris": {"ios": "https://dc.lft.to/lastmile_qr_scan", "android": "https://dc.lft.to/lastmile_qr_scan"}, "is_reserved": 0, "fusion_lon": 0.0, "fusion_lat": 0.0, "lon": -77.05117883333334, "name": "12762c765143d3fd1686f3420672f30f"}, {"bike_id": "162256ac1c966406c7bb791b2dd2f289", "type": "electric_scooter", "is_disabled": 0, "lat": 38.9255695, "rental_uris": {"ios": "https://dc.lft.to/lastmile_qr_scan", "android": "https://dc.lft.to/lastmile_qr_scan"}, "is_reserved": 0, "fusion_lon": 0.0, "fusion_lat": 0.0, "lon": -77.03489766666667, "name": "162256ac1c966406c7bb791b2dd2f289"}, {"bike_id": "c4ca750dc68371d8ca7aa2d6b5740caf", "type": "electric_scooter", "is_disabled": 0, "lat": 38.9173675, "rental_uris": {"ios": "https://dc.lft.to/lastmile_qr_scan", "android": "https://dc.lft.to/lastmile_qr_scan"}, "is_reserved": 0, "fusion_lon": 0.0, "fusion_lat": 0.0, "lon": -77.02884333333333, "name": "c4ca750dc68371d8ca7aa2d6b5740caf"}, {"bike_id": "0b43129945f27f4b9d447add371e341f", "type": "electric_scooter", "is_disabled": 0, "lat": 38.915627, "rental_uris": {"ios": "https://dc.lft.to/lastmile_qr_scan", "android": "https://dc.lft.to/lastmile_qr_scan"}, "is_reserved": 0, "fusion_lon": 0.0, "fusion_lat": 0.0, "lon": -77.06782466666667, "name": "0b43129945f27f4b9d447add371e341f"}, {"bike_id": "f5d845477aa8abdf1832e9f664e15e6b", "type": "electric_scooter", "is_disabled": 0, "lat": 38.91947, "rental_uris": {"ios": "https://dc.lft.to/lastmile_qr_scan", "android": "https://dc.lft.to/lastmile_qr_scan"}, "is_reserved": 0, "fusion_lon": 0.0, "fusion_lat": 0.0, "lon": -77.02524933333333, "name": "f5d845477aa8abdf1832e9f664e15e6b"}, {"bike_id": "3586f6659cd3e9ecffdf793c5f2646f0", "type": "electric_scooter", "is_disabled": 0, "lat": 38.92265066666667, "rental_uris": {"ios": "https://dc.lft.to/lastmile_qr_scan", "android": "https://dc.lft.to/lastmile_qr_scan"}, "is_reserved": 0, "fusion_lon": 0.0, "fusion_lat": 0.0, "lon": -77.03060633333334, "name": "3586f6659cd3e9ecffdf793c5f2646f0"}, {"bike_id": "6a6c9edb6c5ef1062da63865debf1607", "type": "electric_scooter", "is_disabled": 0, "lat": 38.9183985, "rental_uris": {"ios": "https://dc.lft.to/lastmile_qr_scan", "android": "https://dc.lft.to/lastmile_qr_scan"}, "is_reserved": 0, "fusion_lon": 0.0, "fusion_lat": 0.0, "lon": -76.96556633333333, "name": "6a6c9edb6c5ef1062da63865debf1607"}, {"bike_id": "87cdc7f45f33cdc258655ce69ff13c7c", "type": "electric_bike", "is_disabled": 0, "lat": 38.87315016666667, "rental_uris": {"ios": "https://dc.lft.to/lastmile_qr_scan", "android": "https://dc.lft.to/lastmile_qr_scan"}, "is_reserved": 0, "fusion_lon": 0.0, "fusion_lat": 0.0, "lon": -77.1392415, "name": "87cdc7f45f33cdc258655ce69ff13c7c"}, {"bike_id": "c316405217da12e3435ec0824c97b200", "type": "electric_scooter", "is_disabled": 0, "lat": 38.933195, "rental_uris": {"ios": "https://dc.lft.to/lastmile_qr_scan", "android": "https://dc.lft.to/lastmile_qr_scan"}, "is_reserved": 0, "fusion_lon": 0.0, "fusion_lat": 0.0, "lon": -77.02380283333333, "name": "c316405217da12e3435ec0824c97b200"}, {"bike_id": "8db4ea6db01671f2cc13a8cc140f9c05", "type": "electric_scooter", "is_disabled": 0, "lat": 38.876530333333335, "rental_uris": {"ios": "https://dc.lft.to/lastmile_qr_scan", "android": "https://dc.lft.to/lastmile_qr_scan"}, "is_reserved": 0, "fusion_lon": 0.0, "fusion_lat": 0.0, "lon": -76.96503216666666, "name": "8db4ea6db01671f2cc13a8cc140f9c05"}, {"bike_id": "968a1d31f9146a3044489b3acbab2a0e", "type": "electric_scooter", "is_disabled": 0, "lat": 38.922544, "rental_uris": {"ios": "https://dc.lft.to/lastmile_qr_scan", "android": "https://dc.lft.to/lastmile_qr_scan"}, "is_reserved": 0, "fusion_lon": 0.0, "fusion_lat": 0.0, "lon": -77.04251083333334, "name": "968a1d31f9146a3044489b3acbab2a0e"}, {"bike_id": "35e0f3c25082c380a41e395d805867a7", "type": "electric_scooter", "is_disabled": 0, "lat": 38.928774, "rental_uris": {"ios": "https://dc.lft.to/lastmile_qr_scan", "android": "https://dc.lft.to/lastmile_qr_scan"}, "is_reserved": 0, "fusion_lon": 0.0, "fusion_lat": 0.0, "lon": -77.01371, "name": "35e0f3c25082c380a41e395d805867a7"}, {"bike_id": "608387ee5ab6d968b40004842e76c792", "type": "electric_bike", "is_disabled": 0, "lat": 38.908655333333336, "rental_uris": {"ios": "https://dc.lft.to/lastmile_qr_scan", "android": "https://dc.lft.to/lastmile_qr_scan"}, "is_reserved": 0, "fusion_lon": 0.0, "fusion_lat": 0.0, "lon": -76.99140666666666, "name": "608387ee5ab6d968b40004842e76c792"}, {"bike_id": "1c11b438ff274d79053e58363ad75782", "type": "electric_scooter", "is_disabled": 0, "lat": 38.91106633333333, "rental_uris": {"ios": "https://dc.lft.to/lastmile_qr_scan", "android": "https://dc.lft.to/lastmile_qr_scan"}, "is_reserved": 0, "fusion_lon": 0.0, "fusion_lat": 0.0, "lon": -77.04211483333333, "name": "1c11b438ff274d79053e58363ad75782"}, {"bike_id": "37bfaea536625d30067fa79837018f36", "type": "electric_scooter", "is_disabled": 0, "lat": 38.91846566666667, "rental_uris": {"ios": "https://dc.lft.to/lastmile_qr_scan", "android": "https://dc.lft.to/lastmile_qr_scan"}, "is_reserved": 0, "fusion_lon": 0.0, "fusion_lat": 0.0, "lon": -76.96552216666667, "name": "37bfaea536625d30067fa79837018f36"}, {"bike_id": "573fad79d3e4d02d5d5b9acc50b3f71f", "type": "electric_scooter", "is_disabled": 0, "lat": 38.913867, "rental_uris": {"ios": "https://dc.lft.to/lastmile_qr_scan", "android": "https://dc.lft.to/lastmile_qr_scan"}, "is_reserved": 0, "fusion_lon": 0.0, "fusion_lat": 0.0, "lon": -77.017027, "name": "573fad79d3e4d02d5d5b9acc50b3f71f"}, {"bike_id": "260fa2d682732eb47658f8036c5f786d", "type": "electric_scooter", "is_disabled": 0, "lat": 38.8998735, "rental_uris": {"ios": "https://dc.lft.to/lastmile_qr_scan", "android": "https://dc.lft.to/lastmile_qr_scan"}, "is_reserved": 0, "fusion_lon": 0.0, "fusion_lat": 0.0, "lon": -77.01621516666667, "name": "260fa2d682732eb47658f8036c5f786d"}, {"bike_id": "553666eb7aa95a866c999bd9de0927a6", "type": "electric_scooter", "is_disabled": 0, "lat": 38.87910083333333, "rental_uris": {"ios": "https://dc.lft.to/lastmile_qr_scan", "android": "https://dc.lft.to/lastmile_qr_scan"}, "is_reserved": 0, "fusion_lon": 0.0, "fusion_lat": 0.0, "lon": -77.02196633333334, "name": "553666eb7aa95a866c999bd9de0927a6"}, {"bike_id": "bbed53f0cad3858f575df74efabcd710", "type": "electric_scooter", "is_disabled": 0, "lat": 38.89897666666667, "rental_uris": {"ios": "https://dc.lft.to/lastmile_qr_scan", "android": "https://dc.lft.to/lastmile_qr_scan"}, "is_reserved": 0, "fusion_lon": 0.0, "fusion_lat": 0.0, "lon": -77.02175033333333, "name": "bbed53f0cad3858f575df74efabcd710"}, {"bike_id": "37ed2d227fef013b92466e756b9dcfe9", "type": "electric_scooter", "is_disabled": 0, "lat": 38.92521933333333, "rental_uris": {"ios": "https://dc.lft.to/lastmile_qr_scan", "android": "https://dc.lft.to/lastmile_qr_scan"}, "is_reserved": 0, "fusion_lon": 0.0, "fusion_lat": 0.0, "lon": -77.03792316666667, "name": "37ed2d227fef013b92466e756b9dcfe9"}, {"bike_id": "2f64178bc49b17aafc496a1b06eb383a", "type": "electric_scooter", "is_disabled": 0, "lat": 38.9172345, "rental_uris": {"ios": "https://dc.lft.to/lastmile_qr_scan", "android": "https://dc.lft.to/lastmile_qr_scan"}, "is_reserved": 0, "fusion_lon": 0.0, "fusion_lat": 0.0, "lon": -77.028785, "name": "2f64178bc49b17aafc496a1b06eb383a"}, {"bike_id": "dbd4bc828fb1f8b213f38afc8f5fac1b", "type": "electric_scooter", "is_disabled": 0, "lat": 38.880305666666665, "rental_uris": {"ios": "https://dc.lft.to/lastmile_qr_scan", "android": "https://dc.lft.to/lastmile_qr_scan"}, "is_reserved": 0, "fusion_lon": 0.0, "fusion_lat": 0.0, "lon": -77.01005433333333, "name": "dbd4bc828fb1f8b213f38afc8f5fac1b"}, {"bike_id": "744c9b43309b0c7d5df7924d97e6b71c", "type": "electric_scooter", "is_disabled": 0, "lat": 38.92873, "rental_uris": {"ios": "https://dc.lft.to/lastmile_qr_scan", "android": "https://dc.lft.to/lastmile_qr_scan"}, "is_reserved": 0, "fusion_lon": 0.0, "fusion_lat": 0.0, "lon": -77.03282583333333, "name": "744c9b43309b0c7d5df7924d97e6b71c"}, {"bike_id": "44d617b974b12ff1f269836dc9e41ce5", "type": "electric_scooter", "is_disabled": 0, "lat": 38.914191333333335, "rental_uris": {"ios": "https://dc.lft.to/lastmile_qr_scan", "android": "https://dc.lft.to/lastmile_qr_scan"}, "is_reserved": 0, "fusion_lon": 0.0, "fusion_lat": 0.0, "lon": -77.03221766666667, "name": "44d617b974b12ff1f269836dc9e41ce5"}, {"bike_id": "06544ebe63cb8f4fc1a9cffc8504944f", "type": "electric_scooter", "is_disabled": 0, "lat": 38.924546666666664, "rental_uris": {"ios": "https://dc.lft.to/lastmile_qr_scan", "android": "https://dc.lft.to/lastmile_qr_scan"}, "is_reserved": 0, "fusion_lon": 0.0, "fusion_lat": 0.0, "lon": -77.04397016666667, "name": "06544ebe63cb8f4fc1a9cffc8504944f"}, {"bike_id": "ec0c5c5ed11ddbb852359a424742f104", "type": "electric_scooter", "is_disabled": 0, "lat": 38.915075333333334, "rental_uris": {"ios": "https://dc.lft.to/lastmile_qr_scan", "android": "https://dc.lft.to/lastmile_qr_scan"}, "is_reserved": 0, "fusion_lon": 0.0, "fusion_lat": 0.0, "lon": -77.0177415, "name": "ec0c5c5ed11ddbb852359a424742f104"}, {"bike_id": "d8197e30a57874530d39a8da7d10980b", "type": "electric_scooter", "is_disabled": 0, "lat": 38.9184565, "rental_uris": {"ios": "https://dc.lft.to/lastmile_qr_scan", "android": "https://dc.lft.to/lastmile_qr_scan"}, "is_reserved": 0, "fusion_lon": 0.0, "fusion_lat": 0.0, "lon": -76.96555266666667, "name": "d8197e30a57874530d39a8da7d10980b"}, {"bike_id": "fd7d33912309318251cd76739730c02f", "type": "electric_scooter", "is_disabled": 0, "lat": 38.88659, "rental_uris": {"ios": "https://dc.lft.to/lastmile_qr_scan", "android": "https://dc.lft.to/lastmile_qr_scan"}, "is_reserved": 0, "fusion_lon": 0.0, "fusion_lat": 0.0, "lon": -77.00118, "name": "fd7d33912309318251cd76739730c02f"}, {"bike_id": "5ba8dcba9a2ce303d1e4d8244c4030b0", "type": "electric_scooter", "is_disabled": 0, "lat": 38.90717083333333, "rental_uris": {"ios": "https://dc.lft.to/lastmile_qr_scan", "android": "https://dc.lft.to/lastmile_qr_scan"}, "is_reserved": 0, "fusion_lon": 0.0, "fusion_lat": 0.0, "lon": -77.03931866666667, "name": "5ba8dcba9a2ce303d1e4d8244c4030b0"}, {"bike_id": "37793719085751f8f8489129c1531e6b", "type": "electric_scooter", "is_disabled": 0, "lat": 38.88703666666667, "rental_uris": {"ios": "https://dc.lft.to/lastmile_qr_scan", "android": "https://dc.lft.to/lastmile_qr_scan"}, "is_reserved": 0, "fusion_lon": 0.0, "fusion_lat": 0.0, "lon": -76.99609233333334, "name": "37793719085751f8f8489129c1531e6b"}, {"bike_id": "4eed783b00e384ea33ba3797f63b810e", "type": "electric_scooter", "is_disabled": 0, "lat": 38.90173516666667, "rental_uris": {"ios": "https://dc.lft.to/lastmile_qr_scan", "android": "https://dc.lft.to/lastmile_qr_scan"}, "is_reserved": 0, "fusion_lon": 0.0, "fusion_lat": 0.0, "lon": -76.93023733333334, "name": "4eed783b00e384ea33ba3797f63b810e"}, {"bike_id": "c6d11fa6608a2dcb0b299a1e830ebe05", "type": "electric_scooter", "is_disabled": 0, "lat": 38.9324465, "rental_uris": {"ios": "https://dc.lft.to/lastmile_qr_scan", "android": "https://dc.lft.to/lastmile_qr_scan"}, "is_reserved": 0, "fusion_lon": 0.0, "fusion_lat": 0.0, "lon": -77.03872016666666, "name": "c6d11fa6608a2dcb0b299a1e830ebe05"}, {"bike_id": "f09404906bd20d33fdd823e4b73027bb", "type": "electric_scooter", "is_disabled": 0, "lat": 38.95661183333333, "rental_uris": {"ios": "https://dc.lft.to/lastmile_qr_scan", "android": "https://dc.lft.to/lastmile_qr_scan"}, "is_reserved": 0, "fusion_lon": 0.0, "fusion_lat": 0.0, "lon": -77.00999316666666, "name": "f09404906bd20d33fdd823e4b73027bb"}, {"bike_id": "f3fd484842321589f69cdca20ca50079", "type": "electric_scooter", "is_disabled": 0, "lat": 38.95629016666667, "rental_uris": {"ios": "https://dc.lft.to/lastmile_qr_scan", "android": "https://dc.lft.to/lastmile_qr_scan"}, "is_reserved": 0, "fusion_lon": 0.0, "fusion_lat": 0.0, "lon": -77.0115085, "name": "f3fd484842321589f69cdca20ca50079"}, {"bike_id": "1cc56a7663acc15698e43e772885a9c8", "type": "electric_bike", "is_disabled": 0, "lat": 38.874774333333335, "rental_uris": {"ios": "https://dc.lft.to/lastmile_qr_scan", "android": "https://dc.lft.to/lastmile_qr_scan"}, "is_reserved": 0, "fusion_lon": 0.0, "fusion_lat": 0.0, "lon": -76.965291, "name": "1cc56a7663acc15698e43e772885a9c8"}, {"bike_id": "7726e941b12fc8aa675fb1558c081e5e", "type": "electric_scooter", "is_disabled": 0, "lat": 38.905239, "rental_uris": {"ios": "https://dc.lft.to/lastmile_qr_scan", "android": "https://dc.lft.to/lastmile_qr_scan"}, "is_reserved": 0, "fusion_lon": 0.0, "fusion_lat": 0.0, "lon": -77.06382133333334, "name": "7726e941b12fc8aa675fb1558c081e5e"}, {"bike_id": "2cbbf9ce7ce59bfbf7064f6e1a03619a", "type": "electric_scooter", "is_disabled": 0, "lat": 38.90058066666667, "rental_uris": {"ios": "https://dc.lft.to/lastmile_qr_scan", "android": "https://dc.lft.to/lastmile_qr_scan"}, "is_reserved": 0, "fusion_lon": 0.0, "fusion_lat": 0.0, "lon": -77.01219583333334, "name": "2cbbf9ce7ce59bfbf7064f6e1a03619a"}, {"bike_id": "dcd3be49ca78ecf0f5dda6ca6550afd1", "type": "electric_scooter", "is_disabled": 0, "lat": 38.9157295, "rental_uris": {"ios": "https://dc.lft.to/lastmile_qr_scan", "android": "https://dc.lft.to/lastmile_qr_scan"}, "is_reserved": 0, "fusion_lon": 0.0, "fusion_lat": 0.0, "lon": -77.04007833333333, "name": "dcd3be49ca78ecf0f5dda6ca6550afd1"}, {"bike_id": "8087cbf0dfc19ba6d2458563ad294bd7", "type": "electric_bike", "is_disabled": 0, "lat": 38.81329866666667, "rental_uris": {"ios": "https://dc.lft.to/lastmile_qr_scan", "android": "https://dc.lft.to/lastmile_qr_scan"}, "is_reserved": 0, "fusion_lon": 0.0, "fusion_lat": 0.0, "lon": -77.05082166666666, "name": "8087cbf0dfc19ba6d2458563ad294bd7"}, {"bike_id": "1743b83ffe1aab6531a57cdef60cee03", "type": "electric_scooter", "is_disabled": 0, "lat": 38.9204825, "rental_uris": {"ios": "https://dc.lft.to/lastmile_qr_scan", "android": "https://dc.lft.to/lastmile_qr_scan"}, "is_reserved": 0, "fusion_lon": 0.0, "fusion_lat": 0.0, "lon": -77.02445666666667, "name": "1743b83ffe1aab6531a57cdef60cee03"}, {"bike_id": "2af6c5daa78cb10c61741fc49eb4ba68", "type": "electric_scooter", "is_disabled": 0, "lat": 38.9156075, "rental_uris": {"ios": "https://dc.lft.to/lastmile_qr_scan", "android": "https://dc.lft.to/lastmile_qr_scan"}, "is_reserved": 0, "fusion_lon": 0.0, "fusion_lat": 0.0, "lon": -77.02046733333333, "name": "2af6c5daa78cb10c61741fc49eb4ba68"}, {"bike_id": "52b851689230412c23c9c960bf704647", "type": "electric_scooter", "is_disabled": 0, "lat": 38.9170855, "rental_uris": {"ios": "https://dc.lft.to/lastmile_qr_scan", "android": "https://dc.lft.to/lastmile_qr_scan"}, "is_reserved": 0, "fusion_lon": 0.0, "fusion_lat": 0.0, "lon": -77.0386535, "name": "52b851689230412c23c9c960bf704647"}, {"bike_id": "cc62ce2d4a3661483e21ed793d375184", "type": "electric_scooter", "is_disabled": 0, "lat": 38.897907000000004, "rental_uris": {"ios": "https://dc.lft.to/lastmile_qr_scan", "android": "https://dc.lft.to/lastmile_qr_scan"}, "is_reserved": 0, "fusion_lon": 0.0, "fusion_lat": 0.0, "lon": -76.94733133333334, "name": "cc62ce2d4a3661483e21ed793d375184"}, {"bike_id": "d7acfdbe3996552ef80ab4dab3e72807", "type": "electric_scooter", "is_disabled": 0, "lat": 38.924907, "rental_uris": {"ios": "https://dc.lft.to/lastmile_qr_scan", "android": "https://dc.lft.to/lastmile_qr_scan"}, "is_reserved": 0, "fusion_lon": 0.0, "fusion_lat": 0.0, "lon": -77.0283435, "name": "d7acfdbe3996552ef80ab4dab3e72807"}, {"bike_id": "0a97020f9a4bc189ca857875ecf415d4", "type": "electric_scooter", "is_disabled": 0, "lat": 38.86702983333333, "rental_uris": {"ios": "https://dc.lft.to/lastmile_qr_scan", "android": "https://dc.lft.to/lastmile_qr_scan"}, "is_reserved": 0, "fusion_lon": 0.0, "fusion_lat": 0.0, "lon": -76.985484, "name": "0a97020f9a4bc189ca857875ecf415d4"}, {"bike_id": "c99372c9185b125d6bc1e8f293f62ea8", "type": "electric_scooter", "is_disabled": 0, "lat": 38.9126985, "rental_uris": {"ios": "https://dc.lft.to/lastmile_qr_scan", "android": "https://dc.lft.to/lastmile_qr_scan"}, "is_reserved": 0, "fusion_lon": 0.0, "fusion_lat": 0.0, "lon": -77.011377, "name": "c99372c9185b125d6bc1e8f293f62ea8"}, {"bike_id": "c6fbe31fc062ae841ae25d09962f0c2d", "type": "electric_scooter", "is_disabled": 0, "lat": 38.924546666666664, "rental_uris": {"ios": "https://dc.lft.to/lastmile_qr_scan", "android": "https://dc.lft.to/lastmile_qr_scan"}, "is_reserved": 0, "fusion_lon": 0.0, "fusion_lat": 0.0, "lon": -77.03339216666667, "name": "c6fbe31fc062ae841ae25d09962f0c2d"}, {"bike_id": "4e6171c82a8e64b6c737e79666c41c13", "type": "electric_bike", "is_disabled": 0, "lat": 38.815132, "rental_uris": {"ios": "https://dc.lft.to/lastmile_qr_scan", "android": "https://dc.lft.to/lastmile_qr_scan"}, "is_reserved": 0, "fusion_lon": 0.0, "fusion_lat": 0.0, "lon": -77.12650916666666, "name": "4e6171c82a8e64b6c737e79666c41c13"}, {"bike_id": "50b89af842f6d370ce18463808932c3d", "type": "electric_scooter", "is_disabled": 0, "lat": 38.88127716666666, "rental_uris": {"ios": "https://dc.lft.to/lastmile_qr_scan", "android": "https://dc.lft.to/lastmile_qr_scan"}, "is_reserved": 0, "fusion_lon": 0.0, "fusion_lat": 0.0, "lon": -77.00075116666666, "name": "50b89af842f6d370ce18463808932c3d"}, {"bike_id": "6e8c6b747e03359562bef3906685e734", "type": "electric_bike", "is_disabled": 0, "lat": 38.79605633333333, "rental_uris": {"ios": "https://dc.lft.to/lastmile_qr_scan", "android": "https://dc.lft.to/lastmile_qr_scan"}, "is_reserved": 0, "fusion_lon": 0.0, "fusion_lat": 0.0, "lon": -76.99748616666666, "name": "6e8c6b747e03359562bef3906685e734"}, {"bike_id": "afafd8cdc6c61d00cb17d28451fc99d1", "type": "electric_scooter", "is_disabled": 0, "lat": 38.906859, "rental_uris": {"ios": "https://dc.lft.to/lastmile_qr_scan", "android": "https://dc.lft.to/lastmile_qr_scan"}, "is_reserved": 0, "fusion_lon": 0.0, "fusion_lat": 0.0, "lon": -77.026918, "name": "afafd8cdc6c61d00cb17d28451fc99d1"}, {"bike_id": "4df266617465b033b505c059b1f294ee", "type": "electric_scooter", "is_disabled": 0, "lat": 38.9048475, "rental_uris": {"ios": "https://dc.lft.to/lastmile_qr_scan", "android": "https://dc.lft.to/lastmile_qr_scan"}, "is_reserved": 0, "fusion_lon": 0.0, "fusion_lat": 0.0, "lon": -77.06107733333333, "name": "4df266617465b033b505c059b1f294ee"}, {"bike_id": "e3e828fed81e195b112df9d27350d314", "type": "electric_scooter", "is_disabled": 0, "lat": 38.923323333333336, "rental_uris": {"ios": "https://dc.lft.to/lastmile_qr_scan", "android": "https://dc.lft.to/lastmile_qr_scan"}, "is_reserved": 0, "fusion_lon": 0.0, "fusion_lat": 0.0, "lon": -77.05424083333334, "name": "e3e828fed81e195b112df9d27350d314"}, {"bike_id": "fd2069d88287cc4a688aaf3aef2d5798", "type": "electric_scooter", "is_disabled": 0, "lat": 38.917716166666665, "rental_uris": {"ios": "https://dc.lft.to/lastmile_qr_scan", "android": "https://dc.lft.to/lastmile_qr_scan"}, "is_reserved": 0, "fusion_lon": 0.0, "fusion_lat": 0.0, "lon": -77.04059566666666, "name": "fd2069d88287cc4a688aaf3aef2d5798"}, {"bike_id": "f4110e6bb1e5d6d75e12f91df1993f72", "type": "electric_scooter", "is_disabled": 0, "lat": 38.887334, "rental_uris": {"ios": "https://dc.lft.to/lastmile_qr_scan", "android": "https://dc.lft.to/lastmile_qr_scan"}, "is_reserved": 0, "fusion_lon": 0.0, "fusion_lat": 0.0, "lon": -77.031773, "name": "f4110e6bb1e5d6d75e12f91df1993f72"}, {"bike_id": "762f2186a4fad5b3c434d1ab7775b2d7", "type": "electric_scooter", "is_disabled": 0, "lat": 38.89844033333333, "rental_uris": {"ios": "https://dc.lft.to/lastmile_qr_scan", "android": "https://dc.lft.to/lastmile_qr_scan"}, "is_reserved": 0, "fusion_lon": 0.0, "fusion_lat": 0.0, "lon": -76.94634833333333, "name": "762f2186a4fad5b3c434d1ab7775b2d7"}, {"bike_id": "764e45f39b8ce3d678846f1c59b48ac4", "type": "electric_scooter", "is_disabled": 0, "lat": 38.97679316666667, "rental_uris": {"ios": "https://dc.lft.to/lastmile_qr_scan", "android": "https://dc.lft.to/lastmile_qr_scan"}, "is_reserved": 0, "fusion_lon": 0.0, "fusion_lat": 0.0, "lon": -77.01660933333334, "name": "764e45f39b8ce3d678846f1c59b48ac4"}, {"bike_id": "ad6f5e6c1371a03c6b40bb90f0b864f6", "type": "electric_scooter", "is_disabled": 0, "lat": 38.90431433333333, "rental_uris": {"ios": "https://dc.lft.to/lastmile_qr_scan", "android": "https://dc.lft.to/lastmile_qr_scan"}, "is_reserved": 0, "fusion_lon": 0.0, "fusion_lat": 0.0, "lon": -77.02501066666666, "name": "ad6f5e6c1371a03c6b40bb90f0b864f6"}, {"bike_id": "28716ecacc1125dac1f3d2dcb41d1425", "type": "electric_scooter", "is_disabled": 0, "lat": 38.920203666666666, "rental_uris": {"ios": "https://dc.lft.to/lastmile_qr_scan", "android": "https://dc.lft.to/lastmile_qr_scan"}, "is_reserved": 0, "fusion_lon": 0.0, "fusion_lat": 0.0, "lon": -76.99568566666667, "name": "28716ecacc1125dac1f3d2dcb41d1425"}, {"bike_id": "9e80c516c7e30a8e70dae9b3c416dc10", "type": "electric_scooter", "is_disabled": 0, "lat": 38.904592, "rental_uris": {"ios": "https://dc.lft.to/lastmile_qr_scan", "android": "https://dc.lft.to/lastmile_qr_scan"}, "is_reserved": 0, "fusion_lon": 0.0, "fusion_lat": 0.0, "lon": -77.02889833333333, "name": "9e80c516c7e30a8e70dae9b3c416dc10"}, {"bike_id": "6e1e825178697f73104998f3d5a2501b", "type": "electric_scooter", "is_disabled": 0, "lat": 38.86698, "rental_uris": {"ios": "https://dc.lft.to/lastmile_qr_scan", "android": "https://dc.lft.to/lastmile_qr_scan"}, "is_reserved": 0, "fusion_lon": 0.0, "fusion_lat": 0.0, "lon": -76.98715916666667, "name": "6e1e825178697f73104998f3d5a2501b"}, {"bike_id": "c99468ec61cb370fb1f287361e85bd7c", "type": "electric_bike", "is_disabled": 0, "lat": 39.024392666666664, "rental_uris": {"ios": "https://dc.lft.to/lastmile_qr_scan", "android": "https://dc.lft.to/lastmile_qr_scan"}, "is_reserved": 0, "fusion_lon": 0.0, "fusion_lat": 0.0, "lon": -77.13101533333334, "name": "c99468ec61cb370fb1f287361e85bd7c"}, {"bike_id": "e575874b7684684baf10a9bfa5ecc124", "type": "electric_bike", "is_disabled": 0, "lat": 38.898524, "rental_uris": {"ios": "https://dc.lft.to/lastmile_qr_scan", "android": "https://dc.lft.to/lastmile_qr_scan"}, "is_reserved": 0, "fusion_lon": 0.0, "fusion_lat": 0.0, "lon": -77.052992, "name": "e575874b7684684baf10a9bfa5ecc124"}, {"bike_id": "07ebe89d8baacee610ffd2540ddb1314", "type": "electric_scooter", "is_disabled": 0, "lat": 38.90871166666667, "rental_uris": {"ios": "https://dc.lft.to/lastmile_qr_scan", "android": "https://dc.lft.to/lastmile_qr_scan"}, "is_reserved": 0, "fusion_lon": 0.0, "fusion_lat": 0.0, "lon": -77.034678, "name": "07ebe89d8baacee610ffd2540ddb1314"}, {"bike_id": "4ae1abc5afe57c548f58e2dd2115f663", "type": "electric_scooter", "is_disabled": 0, "lat": 38.8999125, "rental_uris": {"ios": "https://dc.lft.to/lastmile_qr_scan", "android": "https://dc.lft.to/lastmile_qr_scan"}, "is_reserved": 0, "fusion_lon": 0.0, "fusion_lat": 0.0, "lon": -77.0322005, "name": "4ae1abc5afe57c548f58e2dd2115f663"}, {"bike_id": "901e8a7ca9f60cb4780701166e656c06", "type": "electric_scooter", "is_disabled": 0, "lat": 38.9204435, "rental_uris": {"ios": "https://dc.lft.to/lastmile_qr_scan", "android": "https://dc.lft.to/lastmile_qr_scan"}, "is_reserved": 0, "fusion_lon": 0.0, "fusion_lat": 0.0, "lon": -77.04198783333334, "name": "901e8a7ca9f60cb4780701166e656c06"}, {"bike_id": "75cf8fe363d588f8577e383737afab6e", "type": "electric_scooter", "is_disabled": 0, "lat": 38.931527833333334, "rental_uris": {"ios": "https://dc.lft.to/lastmile_qr_scan", "android": "https://dc.lft.to/lastmile_qr_scan"}, "is_reserved": 0, "fusion_lon": 0.0, "fusion_lat": 0.0, "lon": -77.04250366666666, "name": "75cf8fe363d588f8577e383737afab6e"}, {"bike_id": "85fafc1e9fcc7394988cd42157de2f69", "type": "electric_scooter", "is_disabled": 0, "lat": 38.90099933333333, "rental_uris": {"ios": "https://dc.lft.to/lastmile_qr_scan", "android": "https://dc.lft.to/lastmile_qr_scan"}, "is_reserved": 0, "fusion_lon": 0.0, "fusion_lat": 0.0, "lon": -77.01935, "name": "85fafc1e9fcc7394988cd42157de2f69"}, {"bike_id": "f996823e45135efcf56cfb7f5dcaf977", "type": "electric_scooter", "is_disabled": 0, "lat": 38.90960333333334, "rental_uris": {"ios": "https://dc.lft.to/lastmile_qr_scan", "android": "https://dc.lft.to/lastmile_qr_scan"}, "is_reserved": 0, "fusion_lon": 0.0, "fusion_lat": 0.0, "lon": -77.02118283333333, "name": "f996823e45135efcf56cfb7f5dcaf977"}, {"bike_id": "8be32da5fa06a038498f532fe3c54c1d", "type": "electric_scooter", "is_disabled": 0, "lat": 38.934616166666665, "rental_uris": {"ios": "https://dc.lft.to/lastmile_qr_scan", "android": "https://dc.lft.to/lastmile_qr_scan"}, "is_reserved": 0, "fusion_lon": 0.0, "fusion_lat": 0.0, "lon": -76.9643775, "name": "8be32da5fa06a038498f532fe3c54c1d"}, {"bike_id": "f76aad9be22f376ff449c09aa3684eee", "type": "electric_scooter", "is_disabled": 0, "lat": 38.8996335, "rental_uris": {"ios": "https://dc.lft.to/lastmile_qr_scan", "android": "https://dc.lft.to/lastmile_qr_scan"}, "is_reserved": 0, "fusion_lon": 0.0, "fusion_lat": 0.0, "lon": -77.01623133333334, "name": "f76aad9be22f376ff449c09aa3684eee"}, {"bike_id": "3935ba5390378de96e56afec59a41d38", "type": "electric_bike", "is_disabled": 0, "lat": 38.957133666666664, "rental_uris": {"ios": "https://dc.lft.to/lastmile_qr_scan", "android": "https://dc.lft.to/lastmile_qr_scan"}, "is_reserved": 0, "fusion_lon": 0.0, "fusion_lat": 0.0, "lon": -77.02397766666667, "name": "3935ba5390378de96e56afec59a41d38"}, {"bike_id": "13aebe9285543a7cd5127b34320cd279", "type": "electric_scooter", "is_disabled": 0, "lat": 38.91685666666667, "rental_uris": {"ios": "https://dc.lft.to/lastmile_qr_scan", "android": "https://dc.lft.to/lastmile_qr_scan"}, "is_reserved": 0, "fusion_lon": 0.0, "fusion_lat": 0.0, "lon": -77.02880483333334, "name": "13aebe9285543a7cd5127b34320cd279"}, {"bike_id": "11e698c3065a7a383cbf9cd393a06a1f", "type": "electric_scooter", "is_disabled": 0, "lat": 38.92123016666667, "rental_uris": {"ios": "https://dc.lft.to/lastmile_qr_scan", "android": "https://dc.lft.to/lastmile_qr_scan"}, "is_reserved": 0, "fusion_lon": 0.0, "fusion_lat": 0.0, "lon": -77.036777, "name": "11e698c3065a7a383cbf9cd393a06a1f"}, {"bike_id": "50d9081e8228ca5a7d4f4fe7eef13212", "type": "electric_scooter", "is_disabled": 0, "lat": 38.92339233333333, "rental_uris": {"ios": "https://dc.lft.to/lastmile_qr_scan", "android": "https://dc.lft.to/lastmile_qr_scan"}, "is_reserved": 0, "fusion_lon": 0.0, "fusion_lat": 0.0, "lon": -77.0529485, "name": "50d9081e8228ca5a7d4f4fe7eef13212"}, {"bike_id": "6106c5dd904b7900a8f4be8b592f23dc", "type": "electric_scooter", "is_disabled": 0, "lat": 38.909796166666666, "rental_uris": {"ios": "https://dc.lft.to/lastmile_qr_scan", "android": "https://dc.lft.to/lastmile_qr_scan"}, "is_reserved": 0, "fusion_lon": 0.0, "fusion_lat": 0.0, "lon": -77.032095, "name": "6106c5dd904b7900a8f4be8b592f23dc"}, {"bike_id": "c610837606469f13535b2b48b398f44f", "type": "electric_scooter", "is_disabled": 0, "lat": 38.93825133333333, "rental_uris": {"ios": "https://dc.lft.to/lastmile_qr_scan", "android": "https://dc.lft.to/lastmile_qr_scan"}, "is_reserved": 0, "fusion_lon": 0.0, "fusion_lat": 0.0, "lon": -77.07164916666666, "name": "c610837606469f13535b2b48b398f44f"}, {"bike_id": "d50870246b16fdadda484d07fb46b5f1", "type": "electric_scooter", "is_disabled": 0, "lat": 38.942161, "rental_uris": {"ios": "https://dc.lft.to/lastmile_qr_scan", "android": "https://dc.lft.to/lastmile_qr_scan"}, "is_reserved": 0, "fusion_lon": 0.0, "fusion_lat": 0.0, "lon": -77.0258545, "name": "d50870246b16fdadda484d07fb46b5f1"}, {"bike_id": "7fbd900ee3427e45bb5942dd0caf9fc6", "type": "electric_scooter", "is_disabled": 0, "lat": 38.923444, "rental_uris": {"ios": "https://dc.lft.to/lastmile_qr_scan", "android": "https://dc.lft.to/lastmile_qr_scan"}, "is_reserved": 0, "fusion_lon": 0.0, "fusion_lat": 0.0, "lon": -77.051122, "name": "7fbd900ee3427e45bb5942dd0caf9fc6"}, {"bike_id": "505ada0f2dd7ef42dc4a585f1b2cc08e", "type": "electric_scooter", "is_disabled": 0, "lat": 38.94787566666667, "rental_uris": {"ios": "https://dc.lft.to/lastmile_qr_scan", "android": "https://dc.lft.to/lastmile_qr_scan"}, "is_reserved": 0, "fusion_lon": 0.0, "fusion_lat": 0.0, "lon": -77.079354, "name": "505ada0f2dd7ef42dc4a585f1b2cc08e"}, {"bike_id": "0d220aab0ab4e8885f05ab73b32ef4b6", "type": "electric_scooter", "is_disabled": 0, "lat": 38.91130483333333, "rental_uris": {"ios": "https://dc.lft.to/lastmile_qr_scan", "android": "https://dc.lft.to/lastmile_qr_scan"}, "is_reserved": 0, "fusion_lon": 0.0, "fusion_lat": 0.0, "lon": -77.032552, "name": "0d220aab0ab4e8885f05ab73b32ef4b6"}, {"bike_id": "be317e5edb25c4c3d89c95e739e291ef", "type": "electric_scooter", "is_disabled": 0, "lat": 38.91693883333333, "rental_uris": {"ios": "https://dc.lft.to/lastmile_qr_scan", "android": "https://dc.lft.to/lastmile_qr_scan"}, "is_reserved": 0, "fusion_lon": 0.0, "fusion_lat": 0.0, "lon": -77.0377485, "name": "be317e5edb25c4c3d89c95e739e291ef"}, {"bike_id": "24b62113e927515c97e717bcaafc0443", "type": "electric_bike", "is_disabled": 0, "lat": 39.05636233333333, "rental_uris": {"ios": "https://dc.lft.to/lastmile_qr_scan", "android": "https://dc.lft.to/lastmile_qr_scan"}, "is_reserved": 0, "fusion_lon": 0.0, "fusion_lat": 0.0, "lon": -77.12526866666667, "name": "24b62113e927515c97e717bcaafc0443"}, {"bike_id": "942a537720095eb5ca6c1e95b8da1202", "type": "electric_scooter", "is_disabled": 0, "lat": 38.894883, "rental_uris": {"ios": "https://dc.lft.to/lastmile_qr_scan", "android": "https://dc.lft.to/lastmile_qr_scan"}, "is_reserved": 0, "fusion_lon": 0.0, "fusion_lat": 0.0, "lon": -77.0022125, "name": "942a537720095eb5ca6c1e95b8da1202"}, {"bike_id": "3db926e767e6f68d04f524676f06929e", "type": "electric_scooter", "is_disabled": 0, "lat": 38.896043666666664, "rental_uris": {"ios": "https://dc.lft.to/lastmile_qr_scan", "android": "https://dc.lft.to/lastmile_qr_scan"}, "is_reserved": 0, "fusion_lon": 0.0, "fusion_lat": 0.0, "lon": -77.00926016666666, "name": "3db926e767e6f68d04f524676f06929e"}, {"bike_id": "29cc80a1e8f9a5289572be4cbc73b532", "type": "electric_scooter", "is_disabled": 0, "lat": 38.91121416666667, "rental_uris": {"ios": "https://dc.lft.to/lastmile_qr_scan", "android": "https://dc.lft.to/lastmile_qr_scan"}, "is_reserved": 0, "fusion_lon": 0.0, "fusion_lat": 0.0, "lon": -77.0386595, "name": "29cc80a1e8f9a5289572be4cbc73b532"}, {"bike_id": "0a8be82d1d0fd31750f2024ac8f9c27f", "type": "electric_scooter", "is_disabled": 0, "lat": 38.92715716666667, "rental_uris": {"ios": "https://dc.lft.to/lastmile_qr_scan", "android": "https://dc.lft.to/lastmile_qr_scan"}, "is_reserved": 0, "fusion_lon": 0.0, "fusion_lat": 0.0, "lon": -77.0208505, "name": "0a8be82d1d0fd31750f2024ac8f9c27f"}, {"bike_id": "739531824804c27422a1fe24a0bcceb3", "type": "electric_scooter", "is_disabled": 0, "lat": 38.863799666666665, "rental_uris": {"ios": "https://dc.lft.to/lastmile_qr_scan", "android": "https://dc.lft.to/lastmile_qr_scan"}, "is_reserved": 0, "fusion_lon": 0.0, "fusion_lat": 0.0, "lon": -76.99056833333333, "name": "739531824804c27422a1fe24a0bcceb3"}, {"bike_id": "41aa30fd1a13463dc823be70544a3808", "type": "electric_scooter", "is_disabled": 0, "lat": 38.928680666666665, "rental_uris": {"ios": "https://dc.lft.to/lastmile_qr_scan", "android": "https://dc.lft.to/lastmile_qr_scan"}, "is_reserved": 0, "fusion_lon": 0.0, "fusion_lat": 0.0, "lon": -77.03710166666667, "name": "41aa30fd1a13463dc823be70544a3808"}, {"bike_id": "a681f103096b93e824f408fa3664645b", "type": "electric_scooter", "is_disabled": 0, "lat": 38.902719, "rental_uris": {"ios": "https://dc.lft.to/lastmile_qr_scan", "android": "https://dc.lft.to/lastmile_qr_scan"}, "is_reserved": 0, "fusion_lon": 0.0, "fusion_lat": 0.0, "lon": -77.005826, "name": "a681f103096b93e824f408fa3664645b"}, {"bike_id": "0965b0c13e50a261b9eb0b4776b60294", "type": "electric_scooter", "is_disabled": 0, "lat": 38.89220383333333, "rental_uris": {"ios": "https://dc.lft.to/lastmile_qr_scan", "android": "https://dc.lft.to/lastmile_qr_scan"}, "is_reserved": 0, "fusion_lon": 0.0, "fusion_lat": 0.0, "lon": -77.0316165, "name": "0965b0c13e50a261b9eb0b4776b60294"}, {"bike_id": "a25391415a8eef85f19258e139c0c0ef", "type": "electric_scooter", "is_disabled": 0, "lat": 38.955811, "rental_uris": {"ios": "https://dc.lft.to/lastmile_qr_scan", "android": "https://dc.lft.to/lastmile_qr_scan"}, "is_reserved": 0, "fusion_lon": 0.0, "fusion_lat": 0.0, "lon": -77.080389, "name": "a25391415a8eef85f19258e139c0c0ef"}, {"bike_id": "83ace8a548c5b05fe14cc3db6899ceeb", "type": "electric_scooter", "is_disabled": 0, "lat": 38.912652333333334, "rental_uris": {"ios": "https://dc.lft.to/lastmile_qr_scan", "android": "https://dc.lft.to/lastmile_qr_scan"}, "is_reserved": 0, "fusion_lon": 0.0, "fusion_lat": 0.0, "lon": -77.04175416666666, "name": "83ace8a548c5b05fe14cc3db6899ceeb"}, {"bike_id": "abf205df17201554ff267b99b9f1852a", "type": "electric_bike", "is_disabled": 0, "lat": 38.809849, "rental_uris": {"ios": "https://dc.lft.to/lastmile_qr_scan", "android": "https://dc.lft.to/lastmile_qr_scan"}, "is_reserved": 0, "fusion_lon": 0.0, "fusion_lat": 0.0, "lon": -77.08626133333334, "name": "abf205df17201554ff267b99b9f1852a"}, {"bike_id": "98db0a25b0f5d4a8f585e61135fcee34", "type": "electric_scooter", "is_disabled": 0, "lat": 38.91768733333333, "rental_uris": {"ios": "https://dc.lft.to/lastmile_qr_scan", "android": "https://dc.lft.to/lastmile_qr_scan"}, "is_reserved": 0, "fusion_lon": 0.0, "fusion_lat": 0.0, "lon": -77.04766966666666, "name": "98db0a25b0f5d4a8f585e61135fcee34"}, {"bike_id": "2bccdf784af1cc2e4d21ccd59f9ba219", "type": "electric_scooter", "is_disabled": 0, "lat": 38.886608333333335, "rental_uris": {"ios": "https://dc.lft.to/lastmile_qr_scan", "android": "https://dc.lft.to/lastmile_qr_scan"}, "is_reserved": 0, "fusion_lon": 0.0, "fusion_lat": 0.0, "lon": -77.02835216666666, "name": "2bccdf784af1cc2e4d21ccd59f9ba219"}, {"bike_id": "b60807c64bf22cf37688f315f09f71ac", "type": "electric_scooter", "is_disabled": 0, "lat": 38.91590866666667, "rental_uris": {"ios": "https://dc.lft.to/lastmile_qr_scan", "android": "https://dc.lft.to/lastmile_qr_scan"}, "is_reserved": 0, "fusion_lon": 0.0, "fusion_lat": 0.0, "lon": -77.04650816666667, "name": "b60807c64bf22cf37688f315f09f71ac"}, {"bike_id": "768cde4ee05a6b173c7eaf24941f08ae", "type": "electric_bike", "is_disabled": 0, "lat": 38.9552555, "rental_uris": {"ios": "https://dc.lft.to/lastmile_qr_scan", "android": "https://dc.lft.to/lastmile_qr_scan"}, "is_reserved": 0, "fusion_lon": 0.0, "fusion_lat": 0.0, "lon": -76.93908483333334, "name": "768cde4ee05a6b173c7eaf24941f08ae"}, {"bike_id": "636af58622a37babddb43f020ee00ce3", "type": "electric_scooter", "is_disabled": 0, "lat": 38.897159, "rental_uris": {"ios": "https://dc.lft.to/lastmile_qr_scan", "android": "https://dc.lft.to/lastmile_qr_scan"}, "is_reserved": 0, "fusion_lon": 0.0, "fusion_lat": 0.0, "lon": -77.02296, "name": "636af58622a37babddb43f020ee00ce3"}, {"bike_id": "c533af4dbf959de565b69a3b7b45cd14", "type": "electric_scooter", "is_disabled": 0, "lat": 38.903253, "rental_uris": {"ios": "https://dc.lft.to/lastmile_qr_scan", "android": "https://dc.lft.to/lastmile_qr_scan"}, "is_reserved": 0, "fusion_lon": 0.0, "fusion_lat": 0.0, "lon": -76.99130883333333, "name": "c533af4dbf959de565b69a3b7b45cd14"}, {"bike_id": "fda474623be214951dfb7a46991717e9", "type": "electric_scooter", "is_disabled": 0, "lat": 38.91177616666667, "rental_uris": {"ios": "https://dc.lft.to/lastmile_qr_scan", "android": "https://dc.lft.to/lastmile_qr_scan"}, "is_reserved": 0, "fusion_lon": 0.0, "fusion_lat": 0.0, "lon": -77.03188916666667, "name": "fda474623be214951dfb7a46991717e9"}, {"bike_id": "4b2c31a40a2615775ec0aecf9a474efb", "type": "electric_scooter", "is_disabled": 0, "lat": 38.881594, "rental_uris": {"ios": "https://dc.lft.to/lastmile_qr_scan", "android": "https://dc.lft.to/lastmile_qr_scan"}, "is_reserved": 0, "fusion_lon": 0.0, "fusion_lat": 0.0, "lon": -77.02765083333334, "name": "4b2c31a40a2615775ec0aecf9a474efb"}, {"bike_id": "dd811059671da74f0b1d8004a5c7a847", "type": "electric_scooter", "is_disabled": 0, "lat": 38.90721083333333, "rental_uris": {"ios": "https://dc.lft.to/lastmile_qr_scan", "android": "https://dc.lft.to/lastmile_qr_scan"}, "is_reserved": 0, "fusion_lon": 0.0, "fusion_lat": 0.0, "lon": -77.0502215, "name": "dd811059671da74f0b1d8004a5c7a847"}, {"bike_id": "55dc06df262848653d63e863f865455d", "type": "electric_scooter", "is_disabled": 0, "lat": 38.907327, "rental_uris": {"ios": "https://dc.lft.to/lastmile_qr_scan", "android": "https://dc.lft.to/lastmile_qr_scan"}, "is_reserved": 0, "fusion_lon": 0.0, "fusion_lat": 0.0, "lon": -77.048241, "name": "55dc06df262848653d63e863f865455d"}, {"bike_id": "30ee79933ccf538e03894a34d1c8850e", "type": "electric_scooter", "is_disabled": 0, "lat": 38.89230633333333, "rental_uris": {"ios": "https://dc.lft.to/lastmile_qr_scan", "android": "https://dc.lft.to/lastmile_qr_scan"}, "is_reserved": 0, "fusion_lon": 0.0, "fusion_lat": 0.0, "lon": -77.04652416666667, "name": "30ee79933ccf538e03894a34d1c8850e"}, {"bike_id": "251e669ac1c40011d23003622b5647e1", "type": "electric_scooter", "is_disabled": 0, "lat": 38.91189383333333, "rental_uris": {"ios": "https://dc.lft.to/lastmile_qr_scan", "android": "https://dc.lft.to/lastmile_qr_scan"}, "is_reserved": 0, "fusion_lon": 0.0, "fusion_lat": 0.0, "lon": -77.03866816666667, "name": "251e669ac1c40011d23003622b5647e1"}, {"bike_id": "dcd9e78fd0c1baff5a9e49d043667e8e", "type": "electric_scooter", "is_disabled": 0, "lat": 38.892296333333334, "rental_uris": {"ios": "https://dc.lft.to/lastmile_qr_scan", "android": "https://dc.lft.to/lastmile_qr_scan"}, "is_reserved": 0, "fusion_lon": 0.0, "fusion_lat": 0.0, "lon": -77.04673766666667, "name": "dcd9e78fd0c1baff5a9e49d043667e8e"}, {"bike_id": "226d5bca95ff85164694286973b5c000", "type": "electric_scooter", "is_disabled": 0, "lat": 38.916206333333335, "rental_uris": {"ios": "https://dc.lft.to/lastmile_qr_scan", "android": "https://dc.lft.to/lastmile_qr_scan"}, "is_reserved": 0, "fusion_lon": 0.0, "fusion_lat": 0.0, "lon": -77.0229175, "name": "226d5bca95ff85164694286973b5c000"}, {"bike_id": "2e95a9602ac56d9e71a3154eef23b666", "type": "electric_scooter", "is_disabled": 0, "lat": 38.91772316666667, "rental_uris": {"ios": "https://dc.lft.to/lastmile_qr_scan", "android": "https://dc.lft.to/lastmile_qr_scan"}, "is_reserved": 0, "fusion_lon": 0.0, "fusion_lat": 0.0, "lon": -77.04059116666667, "name": "2e95a9602ac56d9e71a3154eef23b666"}, {"bike_id": "c318fd8f482dea0995411bca814b0c7d", "type": "electric_scooter", "is_disabled": 0, "lat": 38.9569315, "rental_uris": {"ios": "https://dc.lft.to/lastmile_qr_scan", "android": "https://dc.lft.to/lastmile_qr_scan"}, "is_reserved": 0, "fusion_lon": 0.0, "fusion_lat": 0.0, "lon": -77.023976, "name": "c318fd8f482dea0995411bca814b0c7d"}, {"bike_id": "16b09e7fabe630b19fad87db6518e139", "type": "electric_scooter", "is_disabled": 0, "lat": 38.9013225, "rental_uris": {"ios": "https://dc.lft.to/lastmile_qr_scan", "android": "https://dc.lft.to/lastmile_qr_scan"}, "is_reserved": 0, "fusion_lon": 0.0, "fusion_lat": 0.0, "lon": -77.03632366666666, "name": "16b09e7fabe630b19fad87db6518e139"}, {"bike_id": "e1d381837fa8f977a0a0f092746df166", "type": "electric_scooter", "is_disabled": 0, "lat": 38.890114, "rental_uris": {"ios": "https://dc.lft.to/lastmile_qr_scan", "android": "https://dc.lft.to/lastmile_qr_scan"}, "is_reserved": 0, "fusion_lon": 0.0, "fusion_lat": 0.0, "lon": -76.93748566666666, "name": "e1d381837fa8f977a0a0f092746df166"}, {"bike_id": "fdff3a9dead04a2677bcf123b49eed78", "type": "electric_scooter", "is_disabled": 0, "lat": 38.919291, "rental_uris": {"ios": "https://dc.lft.to/lastmile_qr_scan", "android": "https://dc.lft.to/lastmile_qr_scan"}, "is_reserved": 0, "fusion_lon": 0.0, "fusion_lat": 0.0, "lon": -77.02581283333333, "name": "fdff3a9dead04a2677bcf123b49eed78"}, {"bike_id": "fae8f38c8b7624385713c30345251e78", "type": "electric_scooter", "is_disabled": 0, "lat": 38.90732966666667, "rental_uris": {"ios": "https://dc.lft.to/lastmile_qr_scan", "android": "https://dc.lft.to/lastmile_qr_scan"}, "is_reserved": 0, "fusion_lon": 0.0, "fusion_lat": 0.0, "lon": -77.04649016666667, "name": "fae8f38c8b7624385713c30345251e78"}, {"bike_id": "2cc384c4216542ef905a48f9b3a1ea8e", "type": "electric_scooter", "is_disabled": 0, "lat": 38.93007466666667, "rental_uris": {"ios": "https://dc.lft.to/lastmile_qr_scan", "android": "https://dc.lft.to/lastmile_qr_scan"}, "is_reserved": 0, "fusion_lon": 0.0, "fusion_lat": 0.0, "lon": -77.032323, "name": "2cc384c4216542ef905a48f9b3a1ea8e"}, {"bike_id": "676fae3c517fed4ff806a9cd55199f6b", "type": "electric_scooter", "is_disabled": 0, "lat": 38.9068825, "rental_uris": {"ios": "https://dc.lft.to/lastmile_qr_scan", "android": "https://dc.lft.to/lastmile_qr_scan"}, "is_reserved": 0, "fusion_lon": 0.0, "fusion_lat": 0.0, "lon": -77.026943, "name": "676fae3c517fed4ff806a9cd55199f6b"}, {"bike_id": "664a158e8bf15701707c0cd345d3d8ae", "type": "electric_scooter", "is_disabled": 0, "lat": 38.87293616666667, "rental_uris": {"ios": "https://dc.lft.to/lastmile_qr_scan", "android": "https://dc.lft.to/lastmile_qr_scan"}, "is_reserved": 0, "fusion_lon": 0.0, "fusion_lat": 0.0, "lon": -77.00984716666666, "name": "664a158e8bf15701707c0cd345d3d8ae"}, {"bike_id": "5734e8efc87f9a06e89724210551b1a0", "type": "electric_scooter", "is_disabled": 0, "lat": 38.910211333333336, "rental_uris": {"ios": "https://dc.lft.to/lastmile_qr_scan", "android": "https://dc.lft.to/lastmile_qr_scan"}, "is_reserved": 0, "fusion_lon": 0.0, "fusion_lat": 0.0, "lon": -77.02822583333334, "name": "5734e8efc87f9a06e89724210551b1a0"}, {"bike_id": "f6e1cd9406d959201fc9a0a9bf2a0e46", "type": "electric_scooter", "is_disabled": 0, "lat": 38.902603666666664, "rental_uris": {"ios": "https://dc.lft.to/lastmile_qr_scan", "android": "https://dc.lft.to/lastmile_qr_scan"}, "is_reserved": 0, "fusion_lon": 0.0, "fusion_lat": 0.0, "lon": -77.003505, "name": "f6e1cd9406d959201fc9a0a9bf2a0e46"}, {"bike_id": "0c0d43dd0ea80c735e1366e6eb53432e", "type": "electric_scooter", "is_disabled": 0, "lat": 38.986970166666666, "rental_uris": {"ios": "https://dc.lft.to/lastmile_qr_scan", "android": "https://dc.lft.to/lastmile_qr_scan"}, "is_reserved": 0, "fusion_lon": 0.0, "fusion_lat": 0.0, "lon": -77.0297765, "name": "0c0d43dd0ea80c735e1366e6eb53432e"}, {"bike_id": "0ba242e27b7207a5005da92c4f945b91", "type": "electric_scooter", "is_disabled": 0, "lat": 38.918536333333336, "rental_uris": {"ios": "https://dc.lft.to/lastmile_qr_scan", "android": "https://dc.lft.to/lastmile_qr_scan"}, "is_reserved": 0, "fusion_lon": 0.0, "fusion_lat": 0.0, "lon": -76.9655705, "name": "0ba242e27b7207a5005da92c4f945b91"}, {"bike_id": "700fe87564c7ba5f3d0d5599264846f6", "type": "electric_scooter", "is_disabled": 0, "lat": 38.91776516666667, "rental_uris": {"ios": "https://dc.lft.to/lastmile_qr_scan", "android": "https://dc.lft.to/lastmile_qr_scan"}, "is_reserved": 0, "fusion_lon": 0.0, "fusion_lat": 0.0, "lon": -77.02409516666667, "name": "700fe87564c7ba5f3d0d5599264846f6"}, {"bike_id": "cead9fb6c26c90ab25945805995a211c", "type": "electric_scooter", "is_disabled": 0, "lat": 38.887189, "rental_uris": {"ios": "https://dc.lft.to/lastmile_qr_scan", "android": "https://dc.lft.to/lastmile_qr_scan"}, "is_reserved": 0, "fusion_lon": 0.0, "fusion_lat": 0.0, "lon": -77.02203183333333, "name": "cead9fb6c26c90ab25945805995a211c"}, {"bike_id": "889b5c65a8e8ff5d776b481e21220202", "type": "electric_scooter", "is_disabled": 0, "lat": 38.928789, "rental_uris": {"ios": "https://dc.lft.to/lastmile_qr_scan", "android": "https://dc.lft.to/lastmile_qr_scan"}, "is_reserved": 0, "fusion_lon": 0.0, "fusion_lat": 0.0, "lon": -77.03282666666667, "name": "889b5c65a8e8ff5d776b481e21220202"}, {"bike_id": "f8937f1b9d15d73c7b60c27dc2328f9d", "type": "electric_scooter", "is_disabled": 0, "lat": 38.906855666666665, "rental_uris": {"ios": "https://dc.lft.to/lastmile_qr_scan", "android": "https://dc.lft.to/lastmile_qr_scan"}, "is_reserved": 0, "fusion_lon": 0.0, "fusion_lat": 0.0, "lon": -77.05314133333333, "name": "f8937f1b9d15d73c7b60c27dc2328f9d"}, {"bike_id": "d67307dfe362739dd153c8ee1eec829d", "type": "electric_scooter", "is_disabled": 0, "lat": 38.928444666666664, "rental_uris": {"ios": "https://dc.lft.to/lastmile_qr_scan", "android": "https://dc.lft.to/lastmile_qr_scan"}, "is_reserved": 0, "fusion_lon": 0.0, "fusion_lat": 0.0, "lon": -77.03280516666666, "name": "d67307dfe362739dd153c8ee1eec829d"}, {"bike_id": "24db8321e3cbfd7a4127cd66299d4418", "type": "electric_scooter", "is_disabled": 0, "lat": 38.909111833333334, "rental_uris": {"ios": "https://dc.lft.to/lastmile_qr_scan", "android": "https://dc.lft.to/lastmile_qr_scan"}, "is_reserved": 0, "fusion_lon": 0.0, "fusion_lat": 0.0, "lon": -77.04209666666667, "name": "24db8321e3cbfd7a4127cd66299d4418"}, {"bike_id": "a70765df2bd69316f80792ab0820e6d6", "type": "electric_scooter", "is_disabled": 0, "lat": 38.91713466666667, "rental_uris": {"ios": "https://dc.lft.to/lastmile_qr_scan", "android": "https://dc.lft.to/lastmile_qr_scan"}, "is_reserved": 0, "fusion_lon": 0.0, "fusion_lat": 0.0, "lon": -77.031662, "name": "a70765df2bd69316f80792ab0820e6d6"}, {"bike_id": "72ef6d15b3bca8eee8afdc533e7c097f", "type": "electric_scooter", "is_disabled": 0, "lat": 38.88657216666667, "rental_uris": {"ios": "https://dc.lft.to/lastmile_qr_scan", "android": "https://dc.lft.to/lastmile_qr_scan"}, "is_reserved": 0, "fusion_lon": 0.0, "fusion_lat": 0.0, "lon": -77.02825366666667, "name": "72ef6d15b3bca8eee8afdc533e7c097f"}, {"bike_id": "07f8b4902f024966e240b9a9f07681c7", "type": "electric_scooter", "is_disabled": 0, "lat": 38.905606, "rental_uris": {"ios": "https://dc.lft.to/lastmile_qr_scan", "android": "https://dc.lft.to/lastmile_qr_scan"}, "is_reserved": 0, "fusion_lon": 0.0, "fusion_lat": 0.0, "lon": -77.0435605, "name": "07f8b4902f024966e240b9a9f07681c7"}, {"bike_id": "cdee561a9ddd5d397b70dde1178d7b20", "type": "electric_scooter", "is_disabled": 0, "lat": 38.892236, "rental_uris": {"ios": "https://dc.lft.to/lastmile_qr_scan", "android": "https://dc.lft.to/lastmile_qr_scan"}, "is_reserved": 0, "fusion_lon": 0.0, "fusion_lat": 0.0, "lon": -77.03981266666666, "name": "cdee561a9ddd5d397b70dde1178d7b20"}, {"bike_id": "077cdb079a3299540ed30106d1760966", "type": "electric_scooter", "is_disabled": 0, "lat": 38.91562483333333, "rental_uris": {"ios": "https://dc.lft.to/lastmile_qr_scan", "android": "https://dc.lft.to/lastmile_qr_scan"}, "is_reserved": 0, "fusion_lon": 0.0, "fusion_lat": 0.0, "lon": -77.03260633333333, "name": "077cdb079a3299540ed30106d1760966"}, {"bike_id": "0a203b68b69f9bc6c8af4eedb8b77224", "type": "electric_scooter", "is_disabled": 0, "lat": 38.909434, "rental_uris": {"ios": "https://dc.lft.to/lastmile_qr_scan", "android": "https://dc.lft.to/lastmile_qr_scan"}, "is_reserved": 0, "fusion_lon": 0.0, "fusion_lat": 0.0, "lon": -77.05562583333334, "name": "0a203b68b69f9bc6c8af4eedb8b77224"}, {"bike_id": "8472f4e89d1e2889cc5c2ba28e02b3fc", "type": "electric_scooter", "is_disabled": 0, "lat": 38.86627466666667, "rental_uris": {"ios": "https://dc.lft.to/lastmile_qr_scan", "android": "https://dc.lft.to/lastmile_qr_scan"}, "is_reserved": 0, "fusion_lon": 0.0, "fusion_lat": 0.0, "lon": -76.98714466666667, "name": "8472f4e89d1e2889cc5c2ba28e02b3fc"}, {"bike_id": "d3e8c95f1f3bc28a12082bd6a6d0afa4", "type": "electric_scooter", "is_disabled": 0, "lat": 38.9228905, "rental_uris": {"ios": "https://dc.lft.to/lastmile_qr_scan", "android": "https://dc.lft.to/lastmile_qr_scan"}, "is_reserved": 0, "fusion_lon": 0.0, "fusion_lat": 0.0, "lon": -77.04473683333333, "name": "d3e8c95f1f3bc28a12082bd6a6d0afa4"}, {"bike_id": "acd4d333edd441b5ff75b100eb161ea2", "type": "electric_scooter", "is_disabled": 0, "lat": 38.896694833333335, "rental_uris": {"ios": "https://dc.lft.to/lastmile_qr_scan", "android": "https://dc.lft.to/lastmile_qr_scan"}, "is_reserved": 0, "fusion_lon": 0.0, "fusion_lat": 0.0, "lon": -77.07106433333334, "name": "acd4d333edd441b5ff75b100eb161ea2"}, {"bike_id": "7559a2748180b8c73dc500952d3c61fb", "type": "electric_scooter", "is_disabled": 0, "lat": 38.91017633333333, "rental_uris": {"ios": "https://dc.lft.to/lastmile_qr_scan", "android": "https://dc.lft.to/lastmile_qr_scan"}, "is_reserved": 0, "fusion_lon": 0.0, "fusion_lat": 0.0, "lon": -77.0320135, "name": "7559a2748180b8c73dc500952d3c61fb"}, {"bike_id": "7c683ab2fbfddfb0f36502339a67b660", "type": "electric_scooter", "is_disabled": 0, "lat": 38.90683283333333, "rental_uris": {"ios": "https://dc.lft.to/lastmile_qr_scan", "android": "https://dc.lft.to/lastmile_qr_scan"}, "is_reserved": 0, "fusion_lon": 0.0, "fusion_lat": 0.0, "lon": -77.0269345, "name": "7c683ab2fbfddfb0f36502339a67b660"}, {"bike_id": "191779b7d806b5ac0a15fb9f18260666", "type": "electric_scooter", "is_disabled": 0, "lat": 38.9184625, "rental_uris": {"ios": "https://dc.lft.to/lastmile_qr_scan", "android": "https://dc.lft.to/lastmile_qr_scan"}, "is_reserved": 0, "fusion_lon": 0.0, "fusion_lat": 0.0, "lon": -77.02320483333334, "name": "191779b7d806b5ac0a15fb9f18260666"}, {"bike_id": "be2050bb142fa69d9644fad9f270a310", "type": "electric_scooter", "is_disabled": 0, "lat": 38.90253883333333, "rental_uris": {"ios": "https://dc.lft.to/lastmile_qr_scan", "android": "https://dc.lft.to/lastmile_qr_scan"}, "is_reserved": 0, "fusion_lon": 0.0, "fusion_lat": 0.0, "lon": -77.033887, "name": "be2050bb142fa69d9644fad9f270a310"}, {"bike_id": "2df97844ae7dd76804f1b3361eb58f8e", "type": "electric_scooter", "is_disabled": 0, "lat": 38.919659333333335, "rental_uris": {"ios": "https://dc.lft.to/lastmile_qr_scan", "android": "https://dc.lft.to/lastmile_qr_scan"}, "is_reserved": 0, "fusion_lon": 0.0, "fusion_lat": 0.0, "lon": -77.0396385, "name": "2df97844ae7dd76804f1b3361eb58f8e"}, {"bike_id": "37e2bdd6f73276fe93839cc0f7b3ce9b", "type": "electric_bike", "is_disabled": 0, "lat": 38.93145, "rental_uris": {"ios": "https://dc.lft.to/lastmile_qr_scan", "android": "https://dc.lft.to/lastmile_qr_scan"}, "is_reserved": 0, "fusion_lon": 0.0, "fusion_lat": 0.0, "lon": -77.0784685, "name": "37e2bdd6f73276fe93839cc0f7b3ce9b"}, {"bike_id": "9ab2764ff22c6f9e94cfc40523edc8d8", "type": "electric_scooter", "is_disabled": 0, "lat": 38.88777566666667, "rental_uris": {"ios": "https://dc.lft.to/lastmile_qr_scan", "android": "https://dc.lft.to/lastmile_qr_scan"}, "is_reserved": 0, "fusion_lon": 0.0, "fusion_lat": 0.0, "lon": -76.95528383333334, "name": "9ab2764ff22c6f9e94cfc40523edc8d8"}, {"bike_id": "2366fe7e399888912b86f31db64d024e", "type": "electric_scooter", "is_disabled": 0, "lat": 38.90800933333333, "rental_uris": {"ios": "https://dc.lft.to/lastmile_qr_scan", "android": "https://dc.lft.to/lastmile_qr_scan"}, "is_reserved": 0, "fusion_lon": 0.0, "fusion_lat": 0.0, "lon": -77.04822533333333, "name": "2366fe7e399888912b86f31db64d024e"}, {"bike_id": "8db480586b67ec645a0f352c78958de6", "type": "electric_scooter", "is_disabled": 0, "lat": 38.91400983333333, "rental_uris": {"ios": "https://dc.lft.to/lastmile_qr_scan", "android": "https://dc.lft.to/lastmile_qr_scan"}, "is_reserved": 0, "fusion_lon": 0.0, "fusion_lat": 0.0, "lon": -77.0393495, "name": "8db480586b67ec645a0f352c78958de6"}, {"bike_id": "b82a934c6752b91dc8e59f0515df028e", "type": "electric_scooter", "is_disabled": 0, "lat": 38.899883333333335, "rental_uris": {"ios": "https://dc.lft.to/lastmile_qr_scan", "android": "https://dc.lft.to/lastmile_qr_scan"}, "is_reserved": 0, "fusion_lon": 0.0, "fusion_lat": 0.0, "lon": -76.94997733333334, "name": "b82a934c6752b91dc8e59f0515df028e"}, {"bike_id": "21a363bb11ac3900ed78c3bdbbb58935", "type": "electric_scooter", "is_disabled": 0, "lat": 38.859088, "rental_uris": {"ios": "https://dc.lft.to/lastmile_qr_scan", "android": "https://dc.lft.to/lastmile_qr_scan"}, "is_reserved": 0, "fusion_lon": 0.0, "fusion_lat": 0.0, "lon": -76.9973265, "name": "21a363bb11ac3900ed78c3bdbbb58935"}, {"bike_id": "6971b73879d2f33459c7b43b55bd1f2c", "type": "electric_scooter", "is_disabled": 0, "lat": 38.920024, "rental_uris": {"ios": "https://dc.lft.to/lastmile_qr_scan", "android": "https://dc.lft.to/lastmile_qr_scan"}, "is_reserved": 0, "fusion_lon": 0.0, "fusion_lat": 0.0, "lon": -77.0321715, "name": "6971b73879d2f33459c7b43b55bd1f2c"}, {"bike_id": "09033776f12c72a4cf23f32879500870", "type": "electric_scooter", "is_disabled": 0, "lat": 38.89856983333333, "rental_uris": {"ios": "https://dc.lft.to/lastmile_qr_scan", "android": "https://dc.lft.to/lastmile_qr_scan"}, "is_reserved": 0, "fusion_lon": 0.0, "fusion_lat": 0.0, "lon": -77.02789983333334, "name": "09033776f12c72a4cf23f32879500870"}, {"bike_id": "7578a22db4ea4c9e157ee18be6498ccd", "type": "electric_scooter", "is_disabled": 0, "lat": 38.878151, "rental_uris": {"ios": "https://dc.lft.to/lastmile_qr_scan", "android": "https://dc.lft.to/lastmile_qr_scan"}, "is_reserved": 0, "fusion_lon": 0.0, "fusion_lat": 0.0, "lon": -76.97172416666666, "name": "7578a22db4ea4c9e157ee18be6498ccd"}, {"bike_id": "73cf8c201bb546b89a93fa0e83746d7e", "type": "electric_scooter", "is_disabled": 0, "lat": 38.9150205, "rental_uris": {"ios": "https://dc.lft.to/lastmile_qr_scan", "android": "https://dc.lft.to/lastmile_qr_scan"}, "is_reserved": 0, "fusion_lon": 0.0, "fusion_lat": 0.0, "lon": -77.03183533333333, "name": "73cf8c201bb546b89a93fa0e83746d7e"}, {"bike_id": "e8a783bed31bf0c636b2012e444c252d", "type": "electric_scooter", "is_disabled": 0, "lat": 38.9378255, "rental_uris": {"ios": "https://dc.lft.to/lastmile_qr_scan", "android": "https://dc.lft.to/lastmile_qr_scan"}, "is_reserved": 0, "fusion_lon": 0.0, "fusion_lat": 0.0, "lon": -77.01969033333333, "name": "e8a783bed31bf0c636b2012e444c252d"}, {"bike_id": "6044b59593f15a92b2c106f82622180b", "type": "electric_scooter", "is_disabled": 0, "lat": 38.911078333333336, "rental_uris": {"ios": "https://dc.lft.to/lastmile_qr_scan", "android": "https://dc.lft.to/lastmile_qr_scan"}, "is_reserved": 0, "fusion_lon": 0.0, "fusion_lat": 0.0, "lon": -77.0021625, "name": "6044b59593f15a92b2c106f82622180b"}, {"bike_id": "f5032daf50281dcbaf2b569dadf6343d", "type": "electric_scooter", "is_disabled": 0, "lat": 38.902335666666666, "rental_uris": {"ios": "https://dc.lft.to/lastmile_qr_scan", "android": "https://dc.lft.to/lastmile_qr_scan"}, "is_reserved": 0, "fusion_lon": 0.0, "fusion_lat": 0.0, "lon": -77.02165683333334, "name": "f5032daf50281dcbaf2b569dadf6343d"}, {"bike_id": "fecd423e54c988a78e7b2cc114ca9468", "type": "electric_scooter", "is_disabled": 0, "lat": 38.9172075, "rental_uris": {"ios": "https://dc.lft.to/lastmile_qr_scan", "android": "https://dc.lft.to/lastmile_qr_scan"}, "is_reserved": 0, "fusion_lon": 0.0, "fusion_lat": 0.0, "lon": -77.02806266666667, "name": "fecd423e54c988a78e7b2cc114ca9468"}, {"bike_id": "2a35b3e8895926fd54ce52dfd4913dd6", "type": "electric_scooter", "is_disabled": 0, "lat": 38.8816705, "rental_uris": {"ios": "https://dc.lft.to/lastmile_qr_scan", "android": "https://dc.lft.to/lastmile_qr_scan"}, "is_reserved": 0, "fusion_lon": 0.0, "fusion_lat": 0.0, "lon": -77.02742066666667, "name": "2a35b3e8895926fd54ce52dfd4913dd6"}, {"bike_id": "81d8fe1f57591d086572d7beeb92f137", "type": "electric_scooter", "is_disabled": 0, "lat": 38.9200115, "rental_uris": {"ios": "https://dc.lft.to/lastmile_qr_scan", "android": "https://dc.lft.to/lastmile_qr_scan"}, "is_reserved": 0, "fusion_lon": 0.0, "fusion_lat": 0.0, "lon": -77.02067333333333, "name": "81d8fe1f57591d086572d7beeb92f137"}, {"bike_id": "176f5c6df7122403ff44d1529be0069e", "type": "electric_scooter", "is_disabled": 0, "lat": 38.9585585, "rental_uris": {"ios": "https://dc.lft.to/lastmile_qr_scan", "android": "https://dc.lft.to/lastmile_qr_scan"}, "is_reserved": 0, "fusion_lon": 0.0, "fusion_lat": 0.0, "lon": -77.02789716666666, "name": "176f5c6df7122403ff44d1529be0069e"}, {"bike_id": "9d31560dd4c00d6691261cc9a95e02a0", "type": "electric_scooter", "is_disabled": 0, "lat": 38.902788, "rental_uris": {"ios": "https://dc.lft.to/lastmile_qr_scan", "android": "https://dc.lft.to/lastmile_qr_scan"}, "is_reserved": 0, "fusion_lon": 0.0, "fusion_lat": 0.0, "lon": -77.02181483333334, "name": "9d31560dd4c00d6691261cc9a95e02a0"}, {"bike_id": "25afc984b7d0c2f3a9b184c85fe4b210", "type": "electric_scooter", "is_disabled": 0, "lat": 38.9056995, "rental_uris": {"ios": "https://dc.lft.to/lastmile_qr_scan", "android": "https://dc.lft.to/lastmile_qr_scan"}, "is_reserved": 0, "fusion_lon": 0.0, "fusion_lat": 0.0, "lon": -77.02818583333334, "name": "25afc984b7d0c2f3a9b184c85fe4b210"}, {"bike_id": "03aed854979333962268a3ba9bebbbb3", "type": "electric_scooter", "is_disabled": 0, "lat": 38.9307985, "rental_uris": {"ios": "https://dc.lft.to/lastmile_qr_scan", "android": "https://dc.lft.to/lastmile_qr_scan"}, "is_reserved": 0, "fusion_lon": 0.0, "fusion_lat": 0.0, "lon": -77.03735016666667, "name": "03aed854979333962268a3ba9bebbbb3"}, {"bike_id": "5f3565a6fde8053070c81f233981dbed", "type": "electric_scooter", "is_disabled": 0, "lat": 38.899146333333334, "rental_uris": {"ios": "https://dc.lft.to/lastmile_qr_scan", "android": "https://dc.lft.to/lastmile_qr_scan"}, "is_reserved": 0, "fusion_lon": 0.0, "fusion_lat": 0.0, "lon": -76.93364233333334, "name": "5f3565a6fde8053070c81f233981dbed"}, {"bike_id": "bd61922482ca2307d123df20c198b83a", "type": "electric_scooter", "is_disabled": 0, "lat": 38.92838833333333, "rental_uris": {"ios": "https://dc.lft.to/lastmile_qr_scan", "android": "https://dc.lft.to/lastmile_qr_scan"}, "is_reserved": 0, "fusion_lon": 0.0, "fusion_lat": 0.0, "lon": -77.06049483333334, "name": "bd61922482ca2307d123df20c198b83a"}, {"bike_id": "fde41d7c97c1997108f086ca5069c05b", "type": "electric_scooter", "is_disabled": 0, "lat": 38.915308833333334, "rental_uris": {"ios": "https://dc.lft.to/lastmile_qr_scan", "android": "https://dc.lft.to/lastmile_qr_scan"}, "is_reserved": 0, "fusion_lon": 0.0, "fusion_lat": 0.0, "lon": -77.0318525, "name": "fde41d7c97c1997108f086ca5069c05b"}, {"bike_id": "03df489f515fb6045a472026a9ac8af4", "type": "electric_scooter", "is_disabled": 0, "lat": 38.89719633333333, "rental_uris": {"ios": "https://dc.lft.to/lastmile_qr_scan", "android": "https://dc.lft.to/lastmile_qr_scan"}, "is_reserved": 0, "fusion_lon": 0.0, "fusion_lat": 0.0, "lon": -77.04881816666666, "name": "03df489f515fb6045a472026a9ac8af4"}, {"bike_id": "639704f2e5e0f6a6f4075f31eb0529eb", "type": "electric_scooter", "is_disabled": 0, "lat": 38.9480075, "rental_uris": {"ios": "https://dc.lft.to/lastmile_qr_scan", "android": "https://dc.lft.to/lastmile_qr_scan"}, "is_reserved": 0, "fusion_lon": 0.0, "fusion_lat": 0.0, "lon": -77.02126066666666, "name": "639704f2e5e0f6a6f4075f31eb0529eb"}, {"bike_id": "55103afd8ee76b3289e032f87068d5c6", "type": "electric_scooter", "is_disabled": 0, "lat": 38.91687783333333, "rental_uris": {"ios": "https://dc.lft.to/lastmile_qr_scan", "android": "https://dc.lft.to/lastmile_qr_scan"}, "is_reserved": 0, "fusion_lon": 0.0, "fusion_lat": 0.0, "lon": -77.02950733333333, "name": "55103afd8ee76b3289e032f87068d5c6"}, {"bike_id": "0e76dc546b1b28b0e5f3926c615c97ff", "type": "electric_scooter", "is_disabled": 0, "lat": 38.88136866666667, "rental_uris": {"ios": "https://dc.lft.to/lastmile_qr_scan", "android": "https://dc.lft.to/lastmile_qr_scan"}, "is_reserved": 0, "fusion_lon": 0.0, "fusion_lat": 0.0, "lon": -77.00210183333333, "name": "0e76dc546b1b28b0e5f3926c615c97ff"}, {"bike_id": "afcccf87642034768afe62b7f5017ead", "type": "electric_scooter", "is_disabled": 0, "lat": 38.90534516666666, "rental_uris": {"ios": "https://dc.lft.to/lastmile_qr_scan", "android": "https://dc.lft.to/lastmile_qr_scan"}, "is_reserved": 0, "fusion_lon": 0.0, "fusion_lat": 0.0, "lon": -77.05022083333333, "name": "afcccf87642034768afe62b7f5017ead"}, {"bike_id": "9f90af2d520a96a201fa7d8a4bdac8f8", "type": "electric_scooter", "is_disabled": 0, "lat": 38.9055375, "rental_uris": {"ios": "https://dc.lft.to/lastmile_qr_scan", "android": "https://dc.lft.to/lastmile_qr_scan"}, "is_reserved": 0, "fusion_lon": 0.0, "fusion_lat": 0.0, "lon": -76.996221, "name": "9f90af2d520a96a201fa7d8a4bdac8f8"}, {"bike_id": "e8202d94438adfcbb46f4323327d63ed", "type": "electric_scooter", "is_disabled": 0, "lat": 38.884281666666666, "rental_uris": {"ios": "https://dc.lft.to/lastmile_qr_scan", "android": "https://dc.lft.to/lastmile_qr_scan"}, "is_reserved": 0, "fusion_lon": 0.0, "fusion_lat": 0.0, "lon": -76.95753416666666, "name": "e8202d94438adfcbb46f4323327d63ed"}, {"bike_id": "0c21327326d6d5cd920b1ecb2370596f", "type": "electric_scooter", "is_disabled": 0, "lat": 38.88734266666667, "rental_uris": {"ios": "https://dc.lft.to/lastmile_qr_scan", "android": "https://dc.lft.to/lastmile_qr_scan"}, "is_reserved": 0, "fusion_lon": 0.0, "fusion_lat": 0.0, "lon": -77.031847, "name": "0c21327326d6d5cd920b1ecb2370596f"}, {"bike_id": "fb670ea5a3209476318f51992d47ab5e", "type": "electric_scooter", "is_disabled": 0, "lat": 38.92290333333333, "rental_uris": {"ios": "https://dc.lft.to/lastmile_qr_scan", "android": "https://dc.lft.to/lastmile_qr_scan"}, "is_reserved": 0, "fusion_lon": 0.0, "fusion_lat": 0.0, "lon": -76.99454983333334, "name": "fb670ea5a3209476318f51992d47ab5e"}, {"bike_id": "ba647168bb5dd2601464397151f0a7c6", "type": "electric_bike", "is_disabled": 0, "lat": 38.9001995, "rental_uris": {"ios": "https://dc.lft.to/lastmile_qr_scan", "android": "https://dc.lft.to/lastmile_qr_scan"}, "is_reserved": 0, "fusion_lon": 0.0, "fusion_lat": 0.0, "lon": -77.07549816666666, "name": "ba647168bb5dd2601464397151f0a7c6"}, {"bike_id": "78a48fbde30bad97c0608fc7043fb717", "type": "electric_scooter", "is_disabled": 0, "lat": 38.89467366666667, "rental_uris": {"ios": "https://dc.lft.to/lastmile_qr_scan", "android": "https://dc.lft.to/lastmile_qr_scan"}, "is_reserved": 0, "fusion_lon": 0.0, "fusion_lat": 0.0, "lon": -77.02801183333334, "name": "78a48fbde30bad97c0608fc7043fb717"}, {"bike_id": "39a4908f537ad8dbcd9f24ac5803103e", "type": "electric_scooter", "is_disabled": 0, "lat": 38.90571766666667, "rental_uris": {"ios": "https://dc.lft.to/lastmile_qr_scan", "android": "https://dc.lft.to/lastmile_qr_scan"}, "is_reserved": 0, "fusion_lon": 0.0, "fusion_lat": 0.0, "lon": -77.005668, "name": "39a4908f537ad8dbcd9f24ac5803103e"}, {"bike_id": "798e70675148eb8fa7ef1e18aadc4de2", "type": "electric_bike", "is_disabled": 0, "lat": 38.80417283333333, "rental_uris": {"ios": "https://dc.lft.to/lastmile_qr_scan", "android": "https://dc.lft.to/lastmile_qr_scan"}, "is_reserved": 0, "fusion_lon": 0.0, "fusion_lat": 0.0, "lon": -77.0555775, "name": "798e70675148eb8fa7ef1e18aadc4de2"}, {"bike_id": "a1ddff5a7be4cdf685c343d11427aef8", "type": "electric_scooter", "is_disabled": 0, "lat": 38.919827166666664, "rental_uris": {"ios": "https://dc.lft.to/lastmile_qr_scan", "android": "https://dc.lft.to/lastmile_qr_scan"}, "is_reserved": 0, "fusion_lon": 0.0, "fusion_lat": 0.0, "lon": -77.01198066666667, "name": "a1ddff5a7be4cdf685c343d11427aef8"}, {"bike_id": "7078f329a3efd6e2f7c8407d77f57e18", "type": "electric_scooter", "is_disabled": 0, "lat": 38.91712283333333, "rental_uris": {"ios": "https://dc.lft.to/lastmile_qr_scan", "android": "https://dc.lft.to/lastmile_qr_scan"}, "is_reserved": 0, "fusion_lon": 0.0, "fusion_lat": 0.0, "lon": -77.034911, "name": "7078f329a3efd6e2f7c8407d77f57e18"}, {"bike_id": "27c60a5d372670d6a42868cea02589e8", "type": "electric_scooter", "is_disabled": 0, "lat": 38.934022166666665, "rental_uris": {"ios": "https://dc.lft.to/lastmile_qr_scan", "android": "https://dc.lft.to/lastmile_qr_scan"}, "is_reserved": 0, "fusion_lon": 0.0, "fusion_lat": 0.0, "lon": -77.03219266666666, "name": "27c60a5d372670d6a42868cea02589e8"}, {"bike_id": "2b389f8041e2724d1f4e68e25daa55b5", "type": "electric_scooter", "is_disabled": 0, "lat": 38.919734166666665, "rental_uris": {"ios": "https://dc.lft.to/lastmile_qr_scan", "android": "https://dc.lft.to/lastmile_qr_scan"}, "is_reserved": 0, "fusion_lon": 0.0, "fusion_lat": 0.0, "lon": -77.0421365, "name": "2b389f8041e2724d1f4e68e25daa55b5"}, {"bike_id": "b41bfbe3dafd56e66dae9d6b4a8c53a9", "type": "electric_bike", "is_disabled": 0, "lat": 38.95531366666667, "rental_uris": {"ios": "https://dc.lft.to/lastmile_qr_scan", "android": "https://dc.lft.to/lastmile_qr_scan"}, "is_reserved": 0, "fusion_lon": 0.0, "fusion_lat": 0.0, "lon": -76.968236, "name": "b41bfbe3dafd56e66dae9d6b4a8c53a9"}, {"bike_id": "f397500a2c213e2f4bd04d6148be25e9", "type": "electric_bike", "is_disabled": 0, "lat": 38.8116765, "rental_uris": {"ios": "https://dc.lft.to/lastmile_qr_scan", "android": "https://dc.lft.to/lastmile_qr_scan"}, "is_reserved": 0, "fusion_lon": 0.0, "fusion_lat": 0.0, "lon": -77.06949666666667, "name": "f397500a2c213e2f4bd04d6148be25e9"}, {"bike_id": "cf53639cb2e3b8ceed6dfd86072084de", "type": "electric_scooter", "is_disabled": 0, "lat": 38.90546966666667, "rental_uris": {"ios": "https://dc.lft.to/lastmile_qr_scan", "android": "https://dc.lft.to/lastmile_qr_scan"}, "is_reserved": 0, "fusion_lon": 0.0, "fusion_lat": 0.0, "lon": -77.05710316666666, "name": "cf53639cb2e3b8ceed6dfd86072084de"}, {"bike_id": "66479701826ab52ff42f373c973331a5", "type": "electric_scooter", "is_disabled": 0, "lat": 38.914065, "rental_uris": {"ios": "https://dc.lft.to/lastmile_qr_scan", "android": "https://dc.lft.to/lastmile_qr_scan"}, "is_reserved": 0, "fusion_lon": 0.0, "fusion_lat": 0.0, "lon": -77.03225083333334, "name": "66479701826ab52ff42f373c973331a5"}, {"bike_id": "b7043b3f40a3d058e7439520fb137dff", "type": "electric_scooter", "is_disabled": 0, "lat": 38.873839, "rental_uris": {"ios": "https://dc.lft.to/lastmile_qr_scan", "android": "https://dc.lft.to/lastmile_qr_scan"}, "is_reserved": 0, "fusion_lon": 0.0, "fusion_lat": 0.0, "lon": -77.04347233333333, "name": "b7043b3f40a3d058e7439520fb137dff"}, {"bike_id": "8a790c24895052caae0b91965696226f", "type": "electric_scooter", "is_disabled": 0, "lat": 38.93657433333333, "rental_uris": {"ios": "https://dc.lft.to/lastmile_qr_scan", "android": "https://dc.lft.to/lastmile_qr_scan"}, "is_reserved": 0, "fusion_lon": 0.0, "fusion_lat": 0.0, "lon": -77.02433216666667, "name": "8a790c24895052caae0b91965696226f"}, {"bike_id": "f53248e49dcb517fa6406d24b0aa2ec8", "type": "electric_scooter", "is_disabled": 0, "lat": 38.901042333333336, "rental_uris": {"ios": "https://dc.lft.to/lastmile_qr_scan", "android": "https://dc.lft.to/lastmile_qr_scan"}, "is_reserved": 0, "fusion_lon": 0.0, "fusion_lat": 0.0, "lon": -76.983375, "name": "f53248e49dcb517fa6406d24b0aa2ec8"}, {"bike_id": "9750b34b7e66ba5e9251b90564c36cc4", "type": "electric_scooter", "is_disabled": 0, "lat": 38.878187, "rental_uris": {"ios": "https://dc.lft.to/lastmile_qr_scan", "android": "https://dc.lft.to/lastmile_qr_scan"}, "is_reserved": 0, "fusion_lon": 0.0, "fusion_lat": 0.0, "lon": -77.02242666666666, "name": "9750b34b7e66ba5e9251b90564c36cc4"}, {"bike_id": "addae598a71e8eb5e77e2eab3f91b62e", "type": "electric_scooter", "is_disabled": 0, "lat": 38.89228883333333, "rental_uris": {"ios": "https://dc.lft.to/lastmile_qr_scan", "android": "https://dc.lft.to/lastmile_qr_scan"}, "is_reserved": 0, "fusion_lon": 0.0, "fusion_lat": 0.0, "lon": -77.0451665, "name": "addae598a71e8eb5e77e2eab3f91b62e"}, {"bike_id": "77577088e9c887ccef16fd6cc7043409", "type": "electric_scooter", "is_disabled": 0, "lat": 38.92246216666667, "rental_uris": {"ios": "https://dc.lft.to/lastmile_qr_scan", "android": "https://dc.lft.to/lastmile_qr_scan"}, "is_reserved": 0, "fusion_lon": 0.0, "fusion_lat": 0.0, "lon": -77.042463, "name": "77577088e9c887ccef16fd6cc7043409"}, {"bike_id": "fb85e7a39b8c036865da251b510c65e9", "type": "electric_scooter", "is_disabled": 0, "lat": 38.91175033333333, "rental_uris": {"ios": "https://dc.lft.to/lastmile_qr_scan", "android": "https://dc.lft.to/lastmile_qr_scan"}, "is_reserved": 0, "fusion_lon": 0.0, "fusion_lat": 0.0, "lon": -77.00460333333334, "name": "fb85e7a39b8c036865da251b510c65e9"}, {"bike_id": "75801ede851350c15102a1c77dab5e02", "type": "electric_scooter", "is_disabled": 0, "lat": 38.90142133333333, "rental_uris": {"ios": "https://dc.lft.to/lastmile_qr_scan", "android": "https://dc.lft.to/lastmile_qr_scan"}, "is_reserved": 0, "fusion_lon": 0.0, "fusion_lat": 0.0, "lon": -77.06073316666667, "name": "75801ede851350c15102a1c77dab5e02"}, {"bike_id": "0d0e96a42410bb5479b366d53a55d72c", "type": "electric_scooter", "is_disabled": 0, "lat": 38.89231016666667, "rental_uris": {"ios": "https://dc.lft.to/lastmile_qr_scan", "android": "https://dc.lft.to/lastmile_qr_scan"}, "is_reserved": 0, "fusion_lon": 0.0, "fusion_lat": 0.0, "lon": -77.03375783333334, "name": "0d0e96a42410bb5479b366d53a55d72c"}, {"bike_id": "9b2c66e7eb56fe8851bfa12a33a5d367", "type": "electric_scooter", "is_disabled": 0, "lat": 38.89336866666667, "rental_uris": {"ios": "https://dc.lft.to/lastmile_qr_scan", "android": "https://dc.lft.to/lastmile_qr_scan"}, "is_reserved": 0, "fusion_lon": 0.0, "fusion_lat": 0.0, "lon": -76.95062916666667, "name": "9b2c66e7eb56fe8851bfa12a33a5d367"}, {"bike_id": "e4492c69d3ec82726d962fb995429bf1", "type": "electric_scooter", "is_disabled": 0, "lat": 38.9004215, "rental_uris": {"ios": "https://dc.lft.to/lastmile_qr_scan", "android": "https://dc.lft.to/lastmile_qr_scan"}, "is_reserved": 0, "fusion_lon": 0.0, "fusion_lat": 0.0, "lon": -77.0131915, "name": "e4492c69d3ec82726d962fb995429bf1"}, {"bike_id": "7d27b59cfb7d153b5d118ae61699d359", "type": "electric_bike", "is_disabled": 0, "lat": 38.88643716666667, "rental_uris": {"ios": "https://dc.lft.to/lastmile_qr_scan", "android": "https://dc.lft.to/lastmile_qr_scan"}, "is_reserved": 0, "fusion_lon": 0.0, "fusion_lat": 0.0, "lon": -77.12981516666666, "name": "7d27b59cfb7d153b5d118ae61699d359"}, {"bike_id": "1d87a4d6dda49c713899a5c77c79bee6", "type": "electric_scooter", "is_disabled": 0, "lat": 38.876323166666666, "rental_uris": {"ios": "https://dc.lft.to/lastmile_qr_scan", "android": "https://dc.lft.to/lastmile_qr_scan"}, "is_reserved": 0, "fusion_lon": 0.0, "fusion_lat": 0.0, "lon": -76.96527983333333, "name": "1d87a4d6dda49c713899a5c77c79bee6"}, {"bike_id": "119073a139a05ece0d9c3138b8df0a1a", "type": "electric_scooter", "is_disabled": 0, "lat": 38.900633166666665, "rental_uris": {"ios": "https://dc.lft.to/lastmile_qr_scan", "android": "https://dc.lft.to/lastmile_qr_scan"}, "is_reserved": 0, "fusion_lon": 0.0, "fusion_lat": 0.0, "lon": -76.92741633333333, "name": "119073a139a05ece0d9c3138b8df0a1a"}, {"bike_id": "a03498f5a3086f0209a788fba6eccbaa", "type": "electric_scooter", "is_disabled": 0, "lat": 38.950079833333334, "rental_uris": {"ios": "https://dc.lft.to/lastmile_qr_scan", "android": "https://dc.lft.to/lastmile_qr_scan"}, "is_reserved": 0, "fusion_lon": 0.0, "fusion_lat": 0.0, "lon": -77.01830366666667, "name": "a03498f5a3086f0209a788fba6eccbaa"}, {"bike_id": "f180ebff32a85805ca292ef22c7b1243", "type": "electric_scooter", "is_disabled": 0, "lat": 38.90583483333333, "rental_uris": {"ios": "https://dc.lft.to/lastmile_qr_scan", "android": "https://dc.lft.to/lastmile_qr_scan"}, "is_reserved": 0, "fusion_lon": 0.0, "fusion_lat": 0.0, "lon": -77.05142883333333, "name": "f180ebff32a85805ca292ef22c7b1243"}, {"bike_id": "ef291fd21e99e837424def6f11572503", "type": "electric_scooter", "is_disabled": 0, "lat": 38.9171035, "rental_uris": {"ios": "https://dc.lft.to/lastmile_qr_scan", "android": "https://dc.lft.to/lastmile_qr_scan"}, "is_reserved": 0, "fusion_lon": 0.0, "fusion_lat": 0.0, "lon": -77.034865, "name": "ef291fd21e99e837424def6f11572503"}, {"bike_id": "1afaf31546544244be46c4d0c86b927e", "type": "electric_scooter", "is_disabled": 0, "lat": 38.905040666666665, "rental_uris": {"ios": "https://dc.lft.to/lastmile_qr_scan", "android": "https://dc.lft.to/lastmile_qr_scan"}, "is_reserved": 0, "fusion_lon": 0.0, "fusion_lat": 0.0, "lon": -77.0688525, "name": "1afaf31546544244be46c4d0c86b927e"}, {"bike_id": "a557cf3c9de2a581e0613967bdb7abad", "type": "electric_scooter", "is_disabled": 0, "lat": 38.916330333333335, "rental_uris": {"ios": "https://dc.lft.to/lastmile_qr_scan", "android": "https://dc.lft.to/lastmile_qr_scan"}, "is_reserved": 0, "fusion_lon": 0.0, "fusion_lat": 0.0, "lon": -77.03200333333334, "name": "a557cf3c9de2a581e0613967bdb7abad"}, {"bike_id": "8708f2a1e2e62bf1cd7f414071312503", "type": "electric_scooter", "is_disabled": 0, "lat": 38.93936516666667, "rental_uris": {"ios": "https://dc.lft.to/lastmile_qr_scan", "android": "https://dc.lft.to/lastmile_qr_scan"}, "is_reserved": 0, "fusion_lon": 0.0, "fusion_lat": 0.0, "lon": -77.0368535, "name": "8708f2a1e2e62bf1cd7f414071312503"}, {"bike_id": "5ab028b91701c63a5cc44d67b6930abe", "type": "electric_scooter", "is_disabled": 0, "lat": 38.906104, "rental_uris": {"ios": "https://dc.lft.to/lastmile_qr_scan", "android": "https://dc.lft.to/lastmile_qr_scan"}, "is_reserved": 0, "fusion_lon": 0.0, "fusion_lat": 0.0, "lon": -77.00723616666667, "name": "5ab028b91701c63a5cc44d67b6930abe"}, {"bike_id": "f1a393acb5728532bafbb75ef4a32fbd", "type": "electric_scooter", "is_disabled": 0, "lat": 38.9183305, "rental_uris": {"ios": "https://dc.lft.to/lastmile_qr_scan", "android": "https://dc.lft.to/lastmile_qr_scan"}, "is_reserved": 0, "fusion_lon": 0.0, "fusion_lat": 0.0, "lon": -77.03944783333333, "name": "f1a393acb5728532bafbb75ef4a32fbd"}, {"bike_id": "521a6a23b9ad866b11a98aeb56f32893", "type": "electric_scooter", "is_disabled": 0, "lat": 38.92288883333333, "rental_uris": {"ios": "https://dc.lft.to/lastmile_qr_scan", "android": "https://dc.lft.to/lastmile_qr_scan"}, "is_reserved": 0, "fusion_lon": 0.0, "fusion_lat": 0.0, "lon": -77.07319766666667, "name": "521a6a23b9ad866b11a98aeb56f32893"}, {"bike_id": "1d1b7f00fbef1eabb7b0356279caf42e", "type": "electric_scooter", "is_disabled": 0, "lat": 38.93693366666667, "rental_uris": {"ios": "https://dc.lft.to/lastmile_qr_scan", "android": "https://dc.lft.to/lastmile_qr_scan"}, "is_reserved": 0, "fusion_lon": 0.0, "fusion_lat": 0.0, "lon": -77.06615466666666, "name": "1d1b7f00fbef1eabb7b0356279caf42e"}, {"bike_id": "22ebdf8c73661d3808213e9b28255d1b", "type": "electric_scooter", "is_disabled": 0, "lat": 38.91759366666667, "rental_uris": {"ios": "https://dc.lft.to/lastmile_qr_scan", "android": "https://dc.lft.to/lastmile_qr_scan"}, "is_reserved": 0, "fusion_lon": 0.0, "fusion_lat": 0.0, "lon": -77.02399833333334, "name": "22ebdf8c73661d3808213e9b28255d1b"}, {"bike_id": "8cd6abd2abbec20177d94fcad36f8e4d", "type": "electric_scooter", "is_disabled": 0, "lat": 38.922163166666664, "rental_uris": {"ios": "https://dc.lft.to/lastmile_qr_scan", "android": "https://dc.lft.to/lastmile_qr_scan"}, "is_reserved": 0, "fusion_lon": 0.0, "fusion_lat": 0.0, "lon": -77.042379, "name": "8cd6abd2abbec20177d94fcad36f8e4d"}, {"bike_id": "2b0a479945c64a4967c85332290bbe73", "type": "electric_scooter", "is_disabled": 0, "lat": 38.892449666666664, "rental_uris": {"ios": "https://dc.lft.to/lastmile_qr_scan", "android": "https://dc.lft.to/lastmile_qr_scan"}, "is_reserved": 0, "fusion_lon": 0.0, "fusion_lat": 0.0, "lon": -77.01722866666667, "name": "2b0a479945c64a4967c85332290bbe73"}, {"bike_id": "dfa6339735d4bedf15f63aad9c11a28a", "type": "electric_scooter", "is_disabled": 0, "lat": 38.9088085, "rental_uris": {"ios": "https://dc.lft.to/lastmile_qr_scan", "android": "https://dc.lft.to/lastmile_qr_scan"}, "is_reserved": 0, "fusion_lon": 0.0, "fusion_lat": 0.0, "lon": -77.04495516666667, "name": "dfa6339735d4bedf15f63aad9c11a28a"}, {"bike_id": "88988aea6590a4f67ddccd1f14bc70a1", "type": "electric_scooter", "is_disabled": 0, "lat": 38.887113, "rental_uris": {"ios": "https://dc.lft.to/lastmile_qr_scan", "android": "https://dc.lft.to/lastmile_qr_scan"}, "is_reserved": 0, "fusion_lon": 0.0, "fusion_lat": 0.0, "lon": -77.0220715, "name": "88988aea6590a4f67ddccd1f14bc70a1"}, {"bike_id": "3ddc891f0e4c68fd85aa63409c8fbbb9", "type": "electric_scooter", "is_disabled": 0, "lat": 38.93127716666667, "rental_uris": {"ios": "https://dc.lft.to/lastmile_qr_scan", "android": "https://dc.lft.to/lastmile_qr_scan"}, "is_reserved": 0, "fusion_lon": 0.0, "fusion_lat": 0.0, "lon": -77.03846066666667, "name": "3ddc891f0e4c68fd85aa63409c8fbbb9"}, {"bike_id": "40ea5e3a3958aebc74b06d3e0bfe7932", "type": "electric_scooter", "is_disabled": 0, "lat": 38.915614166666664, "rental_uris": {"ios": "https://dc.lft.to/lastmile_qr_scan", "android": "https://dc.lft.to/lastmile_qr_scan"}, "is_reserved": 0, "fusion_lon": 0.0, "fusion_lat": 0.0, "lon": -77.0317265, "name": "40ea5e3a3958aebc74b06d3e0bfe7932"}, {"bike_id": "9f9714c4de56a6a795d4188ac59118de", "type": "electric_scooter", "is_disabled": 0, "lat": 38.907209333333334, "rental_uris": {"ios": "https://dc.lft.to/lastmile_qr_scan", "android": "https://dc.lft.to/lastmile_qr_scan"}, "is_reserved": 0, "fusion_lon": 0.0, "fusion_lat": 0.0, "lon": -77.00067533333333, "name": "9f9714c4de56a6a795d4188ac59118de"}, {"bike_id": "cdd127071ec7d0ed65b18a793a0f60db", "type": "electric_scooter", "is_disabled": 0, "lat": 38.892978166666666, "rental_uris": {"ios": "https://dc.lft.to/lastmile_qr_scan", "android": "https://dc.lft.to/lastmile_qr_scan"}, "is_reserved": 0, "fusion_lon": 0.0, "fusion_lat": 0.0, "lon": -77.04881166666667, "name": "cdd127071ec7d0ed65b18a793a0f60db"}, {"bike_id": "1e2f2ace83ebf5caed16a9456f582928", "type": "electric_scooter", "is_disabled": 0, "lat": 38.892193, "rental_uris": {"ios": "https://dc.lft.to/lastmile_qr_scan", "android": "https://dc.lft.to/lastmile_qr_scan"}, "is_reserved": 0, "fusion_lon": 0.0, "fusion_lat": 0.0, "lon": -77.02910083333333, "name": "1e2f2ace83ebf5caed16a9456f582928"}, {"bike_id": "6e5937134c7c84d9846338843ca14942", "type": "electric_scooter", "is_disabled": 0, "lat": 38.90508166666667, "rental_uris": {"ios": "https://dc.lft.to/lastmile_qr_scan", "android": "https://dc.lft.to/lastmile_qr_scan"}, "is_reserved": 0, "fusion_lon": 0.0, "fusion_lat": 0.0, "lon": -77.06912183333333, "name": "6e5937134c7c84d9846338843ca14942"}, {"bike_id": "3ea5222913e4a21d8766af869d5eeb07", "type": "electric_scooter", "is_disabled": 0, "lat": 38.88272466666667, "rental_uris": {"ios": "https://dc.lft.to/lastmile_qr_scan", "android": "https://dc.lft.to/lastmile_qr_scan"}, "is_reserved": 0, "fusion_lon": 0.0, "fusion_lat": 0.0, "lon": -76.993609, "name": "3ea5222913e4a21d8766af869d5eeb07"}, {"bike_id": "e4c4fe35c9d71b294b75d1f034dee144", "type": "electric_scooter", "is_disabled": 0, "lat": 38.892336666666665, "rental_uris": {"ios": "https://dc.lft.to/lastmile_qr_scan", "android": "https://dc.lft.to/lastmile_qr_scan"}, "is_reserved": 0, "fusion_lon": 0.0, "fusion_lat": 0.0, "lon": -77.05001733333333, "name": "e4c4fe35c9d71b294b75d1f034dee144"}, {"bike_id": "f43379131019151d07cb04bc258e3d8f", "type": "electric_scooter", "is_disabled": 0, "lat": 38.93075266666666, "rental_uris": {"ios": "https://dc.lft.to/lastmile_qr_scan", "android": "https://dc.lft.to/lastmile_qr_scan"}, "is_reserved": 0, "fusion_lon": 0.0, "fusion_lat": 0.0, "lon": -77.019844, "name": "f43379131019151d07cb04bc258e3d8f"}, {"bike_id": "72ee314f84e7aa8c3f3fdcb44842864c", "type": "electric_scooter", "is_disabled": 0, "lat": 38.942060166666664, "rental_uris": {"ios": "https://dc.lft.to/lastmile_qr_scan", "android": "https://dc.lft.to/lastmile_qr_scan"}, "is_reserved": 0, "fusion_lon": 0.0, "fusion_lat": 0.0, "lon": -77.02590216666667, "name": "72ee314f84e7aa8c3f3fdcb44842864c"}, {"bike_id": "54886bff71bf5e00b0239565abad933f", "type": "electric_scooter", "is_disabled": 0, "lat": 38.9060665, "rental_uris": {"ios": "https://dc.lft.to/lastmile_qr_scan", "android": "https://dc.lft.to/lastmile_qr_scan"}, "is_reserved": 0, "fusion_lon": 0.0, "fusion_lat": 0.0, "lon": -77.06129916666667, "name": "54886bff71bf5e00b0239565abad933f"}, {"bike_id": "9bd5864c35bb94e330a943a45d93913d", "type": "electric_scooter", "is_disabled": 0, "lat": 38.901817333333334, "rental_uris": {"ios": "https://dc.lft.to/lastmile_qr_scan", "android": "https://dc.lft.to/lastmile_qr_scan"}, "is_reserved": 0, "fusion_lon": 0.0, "fusion_lat": 0.0, "lon": -77.02010983333334, "name": "9bd5864c35bb94e330a943a45d93913d"}, {"bike_id": "f8a3ed27c06090e906875cb4b1086f80", "type": "electric_scooter", "is_disabled": 0, "lat": 38.909699, "rental_uris": {"ios": "https://dc.lft.to/lastmile_qr_scan", "android": "https://dc.lft.to/lastmile_qr_scan"}, "is_reserved": 0, "fusion_lon": 0.0, "fusion_lat": 0.0, "lon": -77.03058533333333, "name": "f8a3ed27c06090e906875cb4b1086f80"}, {"bike_id": "fdd19a2557dee294d16a496189793a8f", "type": "electric_scooter", "is_disabled": 0, "lat": 38.91509816666667, "rental_uris": {"ios": "https://dc.lft.to/lastmile_qr_scan", "android": "https://dc.lft.to/lastmile_qr_scan"}, "is_reserved": 0, "fusion_lon": 0.0, "fusion_lat": 0.0, "lon": -77.01776766666667, "name": "fdd19a2557dee294d16a496189793a8f"}, {"bike_id": "c5bc9587317e0cade19b9ccf73642a80", "type": "electric_scooter", "is_disabled": 0, "lat": 38.901279833333334, "rental_uris": {"ios": "https://dc.lft.to/lastmile_qr_scan", "android": "https://dc.lft.to/lastmile_qr_scan"}, "is_reserved": 0, "fusion_lon": 0.0, "fusion_lat": 0.0, "lon": -77.01816116666667, "name": "c5bc9587317e0cade19b9ccf73642a80"}, {"bike_id": "7ded6587139df6eb121f3ca019b1efbc", "type": "electric_scooter", "is_disabled": 0, "lat": 38.9128245, "rental_uris": {"ios": "https://dc.lft.to/lastmile_qr_scan", "android": "https://dc.lft.to/lastmile_qr_scan"}, "is_reserved": 0, "fusion_lon": 0.0, "fusion_lat": 0.0, "lon": -77.03203233333333, "name": "7ded6587139df6eb121f3ca019b1efbc"}, {"bike_id": "a584b65c0aebde3803212142d97f5498", "type": "electric_scooter", "is_disabled": 0, "lat": 38.911219833333334, "rental_uris": {"ios": "https://dc.lft.to/lastmile_qr_scan", "android": "https://dc.lft.to/lastmile_qr_scan"}, "is_reserved": 0, "fusion_lon": 0.0, "fusion_lat": 0.0, "lon": -77.01148533333334, "name": "a584b65c0aebde3803212142d97f5498"}, {"bike_id": "7ce5fb2ab0e431f9b9e6fac33d443afb", "type": "electric_scooter", "is_disabled": 0, "lat": 38.87512733333333, "rental_uris": {"ios": "https://dc.lft.to/lastmile_qr_scan", "android": "https://dc.lft.to/lastmile_qr_scan"}, "is_reserved": 0, "fusion_lon": 0.0, "fusion_lat": 0.0, "lon": -77.0010115, "name": "7ce5fb2ab0e431f9b9e6fac33d443afb"}, {"bike_id": "b28909413ff885f75b399094e65e2b78", "type": "electric_scooter", "is_disabled": 0, "lat": 38.91575566666667, "rental_uris": {"ios": "https://dc.lft.to/lastmile_qr_scan", "android": "https://dc.lft.to/lastmile_qr_scan"}, "is_reserved": 0, "fusion_lon": 0.0, "fusion_lat": 0.0, "lon": -77.02570166666666, "name": "b28909413ff885f75b399094e65e2b78"}, {"bike_id": "28d3c7a600c29f70ac578ce8547de30b", "type": "electric_scooter", "is_disabled": 0, "lat": 38.92160233333333, "rental_uris": {"ios": "https://dc.lft.to/lastmile_qr_scan", "android": "https://dc.lft.to/lastmile_qr_scan"}, "is_reserved": 0, "fusion_lon": 0.0, "fusion_lat": 0.0, "lon": -77.03514566666666, "name": "28d3c7a600c29f70ac578ce8547de30b"}, {"bike_id": "9eae9e3f28975932cf8a2b16f3ffb165", "type": "electric_bike", "is_disabled": 0, "lat": 38.85359366666667, "rental_uris": {"ios": "https://dc.lft.to/lastmile_qr_scan", "android": "https://dc.lft.to/lastmile_qr_scan"}, "is_reserved": 0, "fusion_lon": 0.0, "fusion_lat": 0.0, "lon": -77.08684366666667, "name": "9eae9e3f28975932cf8a2b16f3ffb165"}, {"bike_id": "abdcdbc7ba326b978fc89202ddab5870", "type": "electric_scooter", "is_disabled": 0, "lat": 38.957386, "rental_uris": {"ios": "https://dc.lft.to/lastmile_qr_scan", "android": "https://dc.lft.to/lastmile_qr_scan"}, "is_reserved": 0, "fusion_lon": 0.0, "fusion_lat": 0.0, "lon": -77.02796583333334, "name": "abdcdbc7ba326b978fc89202ddab5870"}, {"bike_id": "deed9a354781c7f482d1925f71fa5768", "type": "electric_scooter", "is_disabled": 0, "lat": 38.914925833333335, "rental_uris": {"ios": "https://dc.lft.to/lastmile_qr_scan", "android": "https://dc.lft.to/lastmile_qr_scan"}, "is_reserved": 0, "fusion_lon": 0.0, "fusion_lat": 0.0, "lon": -77.00284716666667, "name": "deed9a354781c7f482d1925f71fa5768"}, {"bike_id": "1251bbbe00282e7e60443025d4c9bb8f", "type": "electric_scooter", "is_disabled": 0, "lat": 38.865070833333334, "rental_uris": {"ios": "https://dc.lft.to/lastmile_qr_scan", "android": "https://dc.lft.to/lastmile_qr_scan"}, "is_reserved": 0, "fusion_lon": 0.0, "fusion_lat": 0.0, "lon": -76.99002933333334, "name": "1251bbbe00282e7e60443025d4c9bb8f"},