{"data": {"bikes": [{"is_reserved": 0, "lat": 38.94696533333333, "is_disabled": 0, "type": "electric_scooter", "fusion_lat": 0.0, "bike_id": "0e66eebcdb87fe65476fb07f720063d1", "rental_uris": {"ios": "https://dc.lft.to/lastmile_qr_scan", "android": "https://dc.lft.to/lastmile_qr_scan"}, "fusion_lon": 0.0, "name": "0e66eebcdb87fe65476fb07f720063d1", "lon": -77.01946966666667}, {"is_reserved": 0, "lat": 38.8747075, "is_disabled": 0, "type": "electric_scooter", "fusion_lat": 0.0, "bike_id": "6bfb47eeb91b399abab60edab17511bf", "rental_uris": {"ios": "https://dc.lft.to/lastmile_qr_scan", "android": "https://dc.lft.to/lastmile_qr_scan"}, "fusion_lon": 0.0, "name": "6bfb47eeb91b399abab60edab17511bf", "lon": -77.00498816666666}, {"is_reserved": 0, "lat": 38.91026383333333, "is_disabled": 0, "type": "electric_scooter", "fusion_lat": 0.0, "bike_id": "52ae42a6d85d86f52f790f45c524fd7c", "rental_uris": {"ios": "https://dc.lft.to/lastmile_qr_scan", "android": "https://dc.lft.to/lastmile_qr_scan"}, "fusion_lon": 0.0, "name": "52ae42a6d85d86f52f790f45c524fd7c", "lon": -77.02294366666666}, {"is_reserved": 0, "lat": 39.0390045, "is_disabled": 0, "type": "electric_bike", "fusion_lat": 0.0, "bike_id": "0cc769ecee268ca31b86ca537ede3276", "rental_uris": {"ios": "https://dc.lft.to/lastmile_qr_scan", "android": "https://dc.lft.to/lastmile_qr_scan"}, "fusion_lon": 0.0, "name": "0cc769ecee268ca31b86ca537ede3276", "lon": -77.05040833333334}, {"is_reserved": 0, "lat": 38.897220833333336, "is_disabled": 0, "type": "electric_scooter", "fusion_lat": 0.0, "bike_id": "5c14079129f4e88286c9ceab409cc57a", "rental_uris": {"ios": "https://dc.lft.to/lastmile_qr_scan", "android": "https://dc.lft.to/lastmile_qr_scan"}, "fusion_lon": 0.0, "name": "5c14079129f4e88286c9ceab409cc57a", "lon": -77.02922016666666}, {"is_reserved": 0, "lat": 38.8057665, "is_disabled": 0, "type": "electric_bike", "fusion_lat": 0.0, "bike_id": "4ab0cd977abed3244d6f9ad3562eded7", "rental_uris": {"ios": "https://dc.lft.to/lastmile_qr_scan", "android": "https://dc.lft.to/lastmile_qr_scan"}, "fusion_lon": 0.0, "name": "4ab0cd977abed3244d6f9ad3562eded7", "lon": -77.0686465}, {"is_reserved": 0, "lat": 38.924619666666665, "is_disabled": 0, "type": "electric_scooter", "fusion_lat": 0.0, "bike_id": "6ce7808e1f613476d90a68ad4b008b00", "rental_uris": {"ios": "https://dc.lft.to/lastmile_qr_scan", "android": "https://dc.lft.to/lastmile_qr_scan"}, "fusion_lon": 0.0, "name": "6ce7808e1f613476d90a68ad4b008b00", "lon": -77.03895783333333}, {"is_reserved": 0, "lat": 38.889641, "is_disabled": 0, "type": "electric_scooter", "fusion_lat": 0.0, "bike_id": "f46bbba9bb49cf5d66ea25358c19659b", "rental_uris": {"ios": "https://dc.lft.to/lastmile_qr_scan", "android": "https://dc.lft.to/lastmile_qr_scan"}, "fusion_lon": 0.0, "name": "f46bbba9bb49cf5d66ea25358c19659b", "lon": -76.92737433333333}, {"is_reserved": 0, "lat": 38.8987305, "is_disabled": 0, "type": "electric_scooter", "fusion_lat": 0.0, "bike_id": "ccb9c0227f578d70e3004940410998ef", "rental_uris": {"ios": "https://dc.lft.to/lastmile_qr_scan", "android": "https://dc.lft.to/lastmile_qr_scan"}, "fusion_lon": 0.0, "name": "ccb9c0227f578d70e3004940410998ef", "lon": -76.9315995}, {"is_reserved": 0, "lat": 38.866570333333335, "is_disabled": 0, "type": "electric_scooter", "fusion_lat": 0.0, "bike_id": "f2abbc49d13935daf9d0fce48da8aece", "rental_uris": {"ios": "https://dc.lft.to/lastmile_qr_scan", "android": "https://dc.lft.to/lastmile_qr_scan"}, "fusion_lon": 0.0, "name": "f2abbc49d13935daf9d0fce48da8aece", "lon": -76.98495883333334}, {"is_reserved": 0, "lat": 38.8858175, "is_disabled": 0, "type": "electric_scooter", "fusion_lat": 0.0, "bike_id": "6ca1c8f0f6fa6db888a2ae69fa0b65b8", "rental_uris": {"ios": "https://dc.lft.to/lastmile_qr_scan", "android": "https://dc.lft.to/lastmile_qr_scan"}, "fusion_lon": 0.0, "name": "6ca1c8f0f6fa6db888a2ae69fa0b65b8", "lon": -77.01762483333333}, {"is_reserved": 0, "lat": 38.9066715, "is_disabled": 0, "type": "electric_scooter", "fusion_lat": 0.0, "bike_id": "650aea0d1b7510b9f0970bd5f4e09060", "rental_uris": {"ios": "https://dc.lft.to/lastmile_qr_scan", "android": "https://dc.lft.to/lastmile_qr_scan"}, "fusion_lon": 0.0, "name": "650aea0d1b7510b9f0970bd5f4e09060", "lon": -77.00909733333333}, {"is_reserved": 0, "lat": 38.928823333333334, "is_disabled": 0, "type": "electric_scooter", "fusion_lat": 0.0, "bike_id": "ad33a3a07b8d9135aa4f55409521a367", "rental_uris": {"ios": "https://dc.lft.to/lastmile_qr_scan", "android": "https://dc.lft.to/lastmile_qr_scan"}, "fusion_lon": 0.0, "name": "ad33a3a07b8d9135aa4f55409521a367", "lon": -77.023378}, {"is_reserved": 0, "lat": 38.922090833333336, "is_disabled": 0, "type": "electric_bike", "fusion_lat": 0.0, "bike_id": "80863bbc3233f107e0e574503bed92f2", "rental_uris": {"ios": "https://dc.lft.to/lastmile_qr_scan", "android": "https://dc.lft.to/lastmile_qr_scan"}, "fusion_lon": 0.0, "name": "80863bbc3233f107e0e574503bed92f2", "lon": -76.9879905}, {"is_reserved": 0, "lat": 38.89984533333333, "is_disabled": 0, "type": "electric_bike", "fusion_lat": 0.0, "bike_id": "7ce90607ffba3ba2f6a95e2d51156989", "rental_uris": {"ios": "https://dc.lft.to/lastmile_qr_scan", "android": "https://dc.lft.to/lastmile_qr_scan"}, "fusion_lon": 0.0, "name": "7ce90607ffba3ba2f6a95e2d51156989", "lon": -77.0293685}, {"is_reserved": 0, "lat": 38.924218, "is_disabled": 0, "type": "electric_scooter", "fusion_lat": 0.0, "bike_id": "331033e7cf0f5ddf897374eee2489179", "rental_uris": {"ios": "https://dc.lft.to/lastmile_qr_scan", "android": "https://dc.lft.to/lastmile_qr_scan"}, "fusion_lon": 0.0, "name": "331033e7cf0f5ddf897374eee2489179", "lon": -77.05747433333333}, {"is_reserved": 0, "lat": 38.908957666666666, "is_disabled": 0, "type": "electric_scooter", "fusion_lat": 0.0, "bike_id": "65885d5dda2989508c7cf0d5d70a9cb8", "rental_uris": {"ios": "https://dc.lft.to/lastmile_qr_scan", "android": "https://dc.lft.to/lastmile_qr_scan"}, "fusion_lon": 0.0, "name": "65885d5dda2989508c7cf0d5d70a9cb8", "lon": -77.0344655}, {"is_reserved": 0, "lat": 38.895858, "is_disabled": 0, "type": "electric_scooter", "fusion_lat": 0.0, "bike_id": "900e1d2d4728560be9fb20be89dda7a6", "rental_uris": {"ios": "https://dc.lft.to/lastmile_qr_scan", "android": "https://dc.lft.to/lastmile_qr_scan"}, "fusion_lon": 0.0, "name": "900e1d2d4728560be9fb20be89dda7a6", "lon": -77.0320945}, {"is_reserved": 0, "lat": 38.9120455, "is_disabled": 0, "type": "electric_scooter", "fusion_lat": 0.0, "bike_id": "b2da0da19c7829930899f9bb1a176dca", "rental_uris": {"ios": "https://dc.lft.to/lastmile_qr_scan", "android": "https://dc.lft.to/lastmile_qr_scan"}, "fusion_lon": 0.0, "name": "b2da0da19c7829930899f9bb1a176dca", "lon": -77.075992}, {"is_reserved": 0, "lat": 38.90592683333333, "is_disabled": 0, "type": "electric_scooter", "fusion_lat": 0.0, "bike_id": "35600996b451d159e883d3835e183827", "rental_uris": {"ios": "https://dc.lft.to/lastmile_qr_scan", "android": "https://dc.lft.to/lastmile_qr_scan"}, "fusion_lon": 0.0, "name": "35600996b451d159e883d3835e183827", "lon": -77.0382555}, {"is_reserved": 0, "lat": 38.904166833333335, "is_disabled": 0, "type": "electric_scooter", "fusion_lat": 0.0, "bike_id": "cb95b6a445cacaada7ddcdb8d615c8f9", "rental_uris": {"ios": "https://dc.lft.to/lastmile_qr_scan", "android": "https://dc.lft.to/lastmile_qr_scan"}, "fusion_lon": 0.0, "name": "cb95b6a445cacaada7ddcdb8d615c8f9", "lon": -77.04669483333333}, {"is_reserved": 0, "lat": 38.898843, "is_disabled": 0, "type": "electric_scooter", "fusion_lat": 0.0, "bike_id": "254e2b8e57a062e0c9b426e6abb747f1", "rental_uris": {"ios": "https://dc.lft.to/lastmile_qr_scan", "android": "https://dc.lft.to/lastmile_qr_scan"}, "fusion_lon": 0.0, "name": "254e2b8e57a062e0c9b426e6abb747f1", "lon": -76.9322855}, {"is_reserved": 0, "lat": 38.904691666666665, "is_disabled": 0, "type": "electric_scooter", "fusion_lat": 0.0, "bike_id": "48cb25b3f5c83ea4e3da1b398a1e780e", "rental_uris": {"ios": "https://dc.lft.to/lastmile_qr_scan", "android": "https://dc.lft.to/lastmile_qr_scan"}, "fusion_lon": 0.0, "name": "48cb25b3f5c83ea4e3da1b398a1e780e", "lon": -77.04170933333333}, {"is_reserved": 0, "lat": 38.902842, "is_disabled": 0, "type": "electric_scooter", "fusion_lat": 0.0, "bike_id": "8f4cd9add6b624653c09b8f7d0cf784e", "rental_uris": {"ios": "https://dc.lft.to/lastmile_qr_scan", "android": "https://dc.lft.to/lastmile_qr_scan"}, "fusion_lon": 0.0, "name": "8f4cd9add6b624653c09b8f7d0cf784e", "lon": -77.04598183333333}, {"is_reserved": 0, "lat": 38.998296, "is_disabled": 0, "type": "electric_bike", "fusion_lat": 0.0, "bike_id": "761e1e5a6de7971d728b621bd353d4e5", "rental_uris": {"ios": "https://dc.lft.to/lastmile_qr_scan", "android": "https://dc.lft.to/lastmile_qr_scan"}, "fusion_lon": 0.0, "name": "761e1e5a6de7971d728b621bd353d4e5", "lon": -76.8837425}, {"is_reserved": 0, "lat": 38.89034016666667, "is_disabled": 0, "type": "electric_scooter", "fusion_lat": 0.0, "bike_id": "10f83553e8de5f7bc7435c6abe8b658b", "rental_uris": {"ios": "https://dc.lft.to/lastmile_qr_scan", "android": "https://dc.lft.to/lastmile_qr_scan"}, "fusion_lon": 0.0, "name": "10f83553e8de5f7bc7435c6abe8b658b", "lon": -76.95142333333334}, {"is_reserved": 0, "lat": 38.902714833333334, "is_disabled": 0, "type": "electric_scooter", "fusion_lat": 0.0, "bike_id": "b25a73e4416dabc89680ec907bab773c", "rental_uris": {"ios": "https://dc.lft.to/lastmile_qr_scan", "android": "https://dc.lft.to/lastmile_qr_scan"}, "fusion_lon": 0.0, "name": "b25a73e4416dabc89680ec907bab773c", "lon": -77.03845066666666}, {"is_reserved": 0, "lat": 38.92282183333333, "is_disabled": 0, "type": "electric_scooter", "fusion_lat": 0.0, "bike_id": "ea7fcc2132a3d1523f484264f363fbe5", "rental_uris": {"ios": "https://dc.lft.to/lastmile_qr_scan", "android": "https://dc.lft.to/lastmile_qr_scan"}, "fusion_lon": 0.0, "name": "ea7fcc2132a3d1523f484264f363fbe5", "lon": -77.03662283333334}, {"is_reserved": 0, "lat": 38.908924999999996, "is_disabled": 0, "type": "electric_scooter", "fusion_lat": 0.0, "bike_id": "8e90fa7aa2abd564d512da4b349a2e0d", "rental_uris": {"ios": "https://dc.lft.to/lastmile_qr_scan", "android": "https://dc.lft.to/lastmile_qr_scan"}, "fusion_lon": 0.0, "name": "8e90fa7aa2abd564d512da4b349a2e0d", "lon": -77.04292983333333}, {"is_reserved": 0, "lat": 38.90849883333333, "is_disabled": 0, "type": "electric_scooter", "fusion_lat": 0.0, "bike_id": "bd758b2cbffb5e82f8b2205de867cc2f", "rental_uris": {"ios": "https://dc.lft.to/lastmile_qr_scan", "android": "https://dc.lft.to/lastmile_qr_scan"}, "fusion_lon": 0.0, "name": "bd758b2cbffb5e82f8b2205de867cc2f", "lon": -77.0348045}, {"is_reserved": 0, "lat": 38.895614333333334, "is_disabled": 0, "type": "electric_scooter", "fusion_lat": 0.0, "bike_id": "eb12d0670282c6fff4abf77496c806ec", "rental_uris": {"ios": "https://dc.lft.to/lastmile_qr_scan", "android": "https://dc.lft.to/lastmile_qr_scan"}, "fusion_lon": 0.0, "name": "eb12d0670282c6fff4abf77496c806ec", "lon": -77.02981566666666}, {"is_reserved": 0, "lat": 38.91978233333333, "is_disabled": 0, "type": "electric_scooter", "fusion_lat": 0.0, "bike_id": "3df7209cd03905b0b3e8a7a1d9b6d30e", "rental_uris": {"ios": "https://dc.lft.to/lastmile_qr_scan", "android": "https://dc.lft.to/lastmile_qr_scan"}, "fusion_lon": 0.0, "name": "3df7209cd03905b0b3e8a7a1d9b6d30e", "lon": -77.04181216666667}, {"is_reserved": 0, "lat": 38.949118166666665, "is_disabled": 0, "type": "electric_bike", "fusion_lat": 0.0, "bike_id": "f3ef79fffb478ea0a20832382dae4e2d", "rental_uris": {"ios": "https://dc.lft.to/lastmile_qr_scan", "android": "https://dc.lft.to/lastmile_qr_scan"}, "fusion_lon": 0.0, "name": "f3ef79fffb478ea0a20832382dae4e2d", "lon": -76.97703933333334}, {"is_reserved": 0, "lat": 38.939562, "is_disabled": 0, "type": "electric_bike", "fusion_lat": 0.0, "bike_id": "a6360e41f9c15dfdae5219ac10f4553f", "rental_uris": {"ios": "https://dc.lft.to/lastmile_qr_scan", "android": "https://dc.lft.to/lastmile_qr_scan"}, "fusion_lon": 0.0, "name": "a6360e41f9c15dfdae5219ac10f4553f", "lon": -77.360876}, {"is_reserved": 0, "lat": 38.9059615, "is_disabled": 0, "type": "electric_scooter", "fusion_lat": 0.0, "bike_id": "06759b3addd8a7e80d53f1337ec93e48", "rental_uris": {"ios": "https://dc.lft.to/lastmile_qr_scan", "android": "https://dc.lft.to/lastmile_qr_scan"}, "fusion_lon": 0.0, "name": "06759b3addd8a7e80d53f1337ec93e48", "lon": -77.0700555}, {"is_reserved": 0, "lat": 38.962241166666665, "is_disabled": 0, "type": "electric_bike", "fusion_lat": 0.0, "bike_id": "9339e9cf5a60d0ad9bc0f663ce99371e", "rental_uris": {"ios": "https://dc.lft.to/lastmile_qr_scan", "android": "https://dc.lft.to/lastmile_qr_scan"}, "fusion_lon": 0.0, "name": "9339e9cf5a60d0ad9bc0f663ce99371e", "lon": -77.02623716666666}, {"is_reserved": 0, "lat": 38.9003275, "is_disabled": 0, "type": "electric_scooter", "fusion_lat": 0.0, "bike_id": "90c0b47338bb19de7c85edcfd5799b87", "rental_uris": {"ios": "https://dc.lft.to/lastmile_qr_scan", "android": "https://dc.lft.to/lastmile_qr_scan"}, "fusion_lon": 0.0, "name": "90c0b47338bb19de7c85edcfd5799b87", "lon": -77.03299966666667}, {"is_reserved": 0, "lat": 38.911952666666664, "is_disabled": 0, "type": "electric_scooter", "fusion_lat": 0.0, "bike_id": "ba50a302758050c80dc98116f5576d12", "rental_uris": {"ios": "https://dc.lft.to/lastmile_qr_scan", "android": "https://dc.lft.to/lastmile_qr_scan"}, "fusion_lon": 0.0, "name": "ba50a302758050c80dc98116f5576d12", "lon": -77.03976783333333}, {"is_reserved": 0, "lat": 38.916441666666664, "is_disabled": 0, "type": "electric_scooter", "fusion_lat": 0.0, "bike_id": "66589d8b66ff63462b99121b656177de", "rental_uris": {"ios": "https://dc.lft.to/lastmile_qr_scan", "android": "https://dc.lft.to/lastmile_qr_scan"}, "fusion_lon": 0.0, "name": "66589d8b66ff63462b99121b656177de", "lon": -77.02179916666667}, {"is_reserved": 0, "lat": 38.9052115, "is_disabled": 0, "type": "electric_scooter", "fusion_lat": 0.0, "bike_id": "25fe2aa03c7572af22f5d42e7db26dac", "rental_uris": {"ios": "https://dc.lft.to/lastmile_qr_scan", "android": "https://dc.lft.to/lastmile_qr_scan"}, "fusion_lon": 0.0, "name": "25fe2aa03c7572af22f5d42e7db26dac", "lon": -77.05144666666666}, {"is_reserved": 0, "lat": 38.90805983333333, "is_disabled": 0, "type": "electric_scooter", "fusion_lat": 0.0, "bike_id": "797bda8aaeb1b3ab1f8d78fae2b55519", "rental_uris": {"ios": "https://dc.lft.to/lastmile_qr_scan", "android": "https://dc.lft.to/lastmile_qr_scan"}, "fusion_lon": 0.0, "name": "797bda8aaeb1b3ab1f8d78fae2b55519", "lon": -77.04325433333334}, {"is_reserved": 0, "lat": 38.902929, "is_disabled": 0, "type": "electric_scooter", "fusion_lat": 0.0, "bike_id": "3174761241e01ab4b83805fed7a58b6b", "rental_uris": {"ios": "https://dc.lft.to/lastmile_qr_scan", "android": "https://dc.lft.to/lastmile_qr_scan"}, "fusion_lon": 0.0, "name": "3174761241e01ab4b83805fed7a58b6b", "lon": -76.99478633333334}, {"is_reserved": 0, "lat": 38.895638, "is_disabled": 0, "type": "electric_bike", "fusion_lat": 0.0, "bike_id": "5900791cae47d7c3833cbfb3db379cdb", "rental_uris": {"ios": "https://dc.lft.to/lastmile_qr_scan", "android": "https://dc.lft.to/lastmile_qr_scan"}, "fusion_lon": 0.0, "name": "5900791cae47d7c3833cbfb3db379cdb", "lon": -77.0256295}, {"is_reserved": 0, "lat": 38.899845666666664, "is_disabled": 0, "type": "electric_scooter", "fusion_lat": 0.0, "bike_id": "649cadd130998fa009d2d966765bbfe4", "rental_uris": {"ios": "https://dc.lft.to/lastmile_qr_scan", "android": "https://dc.lft.to/lastmile_qr_scan"}, "fusion_lon": 0.0, "name": "649cadd130998fa009d2d966765bbfe4", "lon": -77.04180983333333}, {"is_reserved": 0, "lat": 38.92243766666667, "is_disabled": 0, "type": "electric_scooter", "fusion_lat": 0.0, "bike_id": "c3ffe1100d93b3b31b781510317cb9ee", "rental_uris": {"ios": "https://dc.lft.to/lastmile_qr_scan", "android": "https://dc.lft.to/lastmile_qr_scan"}, "fusion_lon": 0.0, "name": "c3ffe1100d93b3b31b781510317cb9ee", "lon": -77.044826}, {"is_reserved": 0, "lat": 38.89178033333334, "is_disabled": 0, "type": "electric_scooter", "fusion_lat": 0.0, "bike_id": "67c9cac5050bdacbb35c1e79a7919a3d", "rental_uris": {"ios": "https://dc.lft.to/lastmile_qr_scan", "android": "https://dc.lft.to/lastmile_qr_scan"}, "fusion_lon": 0.0, "name": "67c9cac5050bdacbb35c1e79a7919a3d", "lon": -77.01582683333334}, {"is_reserved": 0, "lat": 38.8991555, "is_disabled": 0, "type": "electric_scooter", "fusion_lat": 0.0, "bike_id": "23cae97d6c5542f025c32d76af3a81ad", "rental_uris": {"ios": "https://dc.lft.to/lastmile_qr_scan", "android": "https://dc.lft.to/lastmile_qr_scan"}, "fusion_lon": 0.0, "name": "23cae97d6c5542f025c32d76af3a81ad", "lon": -77.02795566666667}, {"is_reserved": 0, "lat": 38.8665835, "is_disabled": 0, "type": "electric_scooter", "fusion_lat": 0.0, "bike_id": "f79b2abf9ca53a6a00039a147b357c3f", "rental_uris": {"ios": "https://dc.lft.to/lastmile_qr_scan", "android": "https://dc.lft.to/lastmile_qr_scan"}, "fusion_lon": 0.0, "name": "f79b2abf9ca53a6a00039a147b357c3f", "lon": -76.9849755}, {"is_reserved": 0, "lat": 38.95553016666667, "is_disabled": 0, "type": "electric_bike", "fusion_lat": 0.0, "bike_id": "f72c4c14ed9571de5615a85dd85276f6", "rental_uris": {"ios": "https://dc.lft.to/lastmile_qr_scan", "android": "https://dc.lft.to/lastmile_qr_scan"}, "fusion_lon": 0.0, "name": "f72c4c14ed9571de5615a85dd85276f6", "lon": -76.93545233333333}, {"is_reserved": 0, "lat": 38.900088333333336, "is_disabled": 0, "type": "electric_scooter", "fusion_lat": 0.0, "bike_id": "da50eda003ea38c125ace30a695e0c6b", "rental_uris": {"ios": "https://dc.lft.to/lastmile_qr_scan", "android": "https://dc.lft.to/lastmile_qr_scan"}, "fusion_lon": 0.0, "name": "da50eda003ea38c125ace30a695e0c6b", "lon": -77.0449635}, {"is_reserved": 0, "lat": 38.9009035, "is_disabled": 0, "type": "electric_scooter", "fusion_lat": 0.0, "bike_id": "539289523fdb8c868e2e46b23073e597", "rental_uris": {"ios": "https://dc.lft.to/lastmile_qr_scan", "android": "https://dc.lft.to/lastmile_qr_scan"}, "fusion_lon": 0.0, "name": "539289523fdb8c868e2e46b23073e597", "lon": -77.0202375}, {"is_reserved": 0, "lat": 38.91480283333333, "is_disabled": 0, "type": "electric_scooter", "fusion_lat": 0.0, "bike_id": "5fd862fc4ae57ffbb3e54e0bb87a84b5", "rental_uris": {"ios": "https://dc.lft.to/lastmile_qr_scan", "android": "https://dc.lft.to/lastmile_qr_scan"}, "fusion_lon": 0.0, "name": "5fd862fc4ae57ffbb3e54e0bb87a84b5", "lon": -77.0252795}, {"is_reserved": 0, "lat": 39.08855483333333, "is_disabled": 0, "type": "electric_bike", "fusion_lat": 0.0, "bike_id": "228637802be05a0b40e2abf79279f047", "rental_uris": {"ios": "https://dc.lft.to/lastmile_qr_scan", "android": "https://dc.lft.to/lastmile_qr_scan"}, "fusion_lon": 0.0, "name": "228637802be05a0b40e2abf79279f047", "lon": -77.1784625}, {"is_reserved": 0, "lat": 38.915802666666664, "is_disabled": 0, "type": "electric_bike", "fusion_lat": 0.0, "bike_id": "a6cd3248c9efd3758d8618bd7af7f5d7", "rental_uris": {"ios": "https://dc.lft.to/lastmile_qr_scan", "android": "https://dc.lft.to/lastmile_qr_scan"}, "fusion_lon": 0.0, "name": "a6cd3248c9efd3758d8618bd7af7f5d7", "lon": -76.97897683333333}, {"is_reserved": 0, "lat": 38.916807166666665, "is_disabled": 0, "type": "electric_scooter", "fusion_lat": 0.0, "bike_id": "a9feefc4c5620c4ab4b7d0ac578cc84d", "rental_uris": {"ios": "https://dc.lft.to/lastmile_qr_scan", "android": "https://dc.lft.to/lastmile_qr_scan"}, "fusion_lon": 0.0, "name": "a9feefc4c5620c4ab4b7d0ac578cc84d", "lon": -77.04182283333333}, {"is_reserved": 0, "lat": 38.88194983333333, "is_disabled": 0, "type": "electric_bike", "fusion_lat": 0.0, "bike_id": "f3367526194ff4d9e57191a08baba9d8", "rental_uris": {"ios": "https://dc.lft.to/lastmile_qr_scan", "android": "https://dc.lft.to/lastmile_qr_scan"}, "fusion_lon": 0.0, "name": "f3367526194ff4d9e57191a08baba9d8", "lon": -77.01763516666666}, {"is_reserved": 0, "lat": 38.89667383333333, "is_disabled": 0, "type": "electric_scooter", "fusion_lat": 0.0, "bike_id": "a6c0f9008047dc4923801899c68d26a4", "rental_uris": {"ios": "https://dc.lft.to/lastmile_qr_scan", "android": "https://dc.lft.to/lastmile_qr_scan"}, "fusion_lon": 0.0, "name": "a6c0f9008047dc4923801899c68d26a4", "lon": -77.02314216666667}, {"is_reserved": 0, "lat": 38.92849366666667, "is_disabled": 0, "type": "electric_bike", "fusion_lat": 0.0, "bike_id": "ffce38542382b49b999195553c8aaff5", "rental_uris": {"ios": "https://dc.lft.to/lastmile_qr_scan", "android": "https://dc.lft.to/lastmile_qr_scan"}, "fusion_lon": 0.0, "name": "ffce38542382b49b999195553c8aaff5", "lon": -77.222071}, {"is_reserved": 0, "lat": 38.899746, "is_disabled": 0, "type": "electric_scooter", "fusion_lat": 0.0, "bike_id": "097cf4ab33f9b384444ffb08145e130b", "rental_uris": {"ios": "https://dc.lft.to/lastmile_qr_scan", "android": "https://dc.lft.to/lastmile_qr_scan"}, "fusion_lon": 0.0, "name": "097cf4ab33f9b384444ffb08145e130b", "lon": -76.93994366666666}, {"is_reserved": 0, "lat": 38.874727666666665, "is_disabled": 0, "type": "electric_bike", "fusion_lat": 0.0, "bike_id": "fa5f94ca645a935a8059b44c9c5a9bd5", "rental_uris": {"ios": "https://dc.lft.to/lastmile_qr_scan", "android": "https://dc.lft.to/lastmile_qr_scan"}, "fusion_lon": 0.0, "name": "fa5f94ca645a935a8059b44c9c5a9bd5", "lon": -76.96518833333333}, {"is_reserved": 0, "lat": 38.927321, "is_disabled": 0, "type": "electric_scooter", "fusion_lat": 0.0, "bike_id": "a3ea55a0b3bbb18d9f2fe1bd9b8c8d49", "rental_uris": {"ios": "https://dc.lft.to/lastmile_qr_scan", "android": "https://dc.lft.to/lastmile_qr_scan"}, "fusion_lon": 0.0, "name": "a3ea55a0b3bbb18d9f2fe1bd9b8c8d49", "lon": -77.03259516666667}, {"is_reserved": 0, "lat": 38.91297733333333, "is_disabled": 0, "type": "electric_scooter", "fusion_lat": 0.0, "bike_id": "42b657a956423f9ccfe07f28330f9088", "rental_uris": {"ios": "https://dc.lft.to/lastmile_qr_scan", "android": "https://dc.lft.to/lastmile_qr_scan"}, "fusion_lon": 0.0, "name": "42b657a956423f9ccfe07f28330f9088", "lon": -77.06167283333333}, {"is_reserved": 0, "lat": 38.92058766666667, "is_disabled": 0, "type": "electric_scooter", "fusion_lat": 0.0, "bike_id": "b7d79d4291f0262f2055db2607664546", "rental_uris": {"ios": "https://dc.lft.to/lastmile_qr_scan", "android": "https://dc.lft.to/lastmile_qr_scan"}, "fusion_lon": 0.0, "name": "b7d79d4291f0262f2055db2607664546", "lon": -76.99536383333333}, {"is_reserved": 0, "lat": 38.916917, "is_disabled": 0, "type": "electric_scooter", "fusion_lat": 0.0, "bike_id": "8751c20ea9e01be22917d4e69ed7762b", "rental_uris": {"ios": "https://dc.lft.to/lastmile_qr_scan", "android": "https://dc.lft.to/lastmile_qr_scan"}, "fusion_lon": 0.0, "name": "8751c20ea9e01be22917d4e69ed7762b", "lon": -77.03407816666666}, {"is_reserved": 0, "lat": 38.917072833333336, "is_disabled": 0, "type": "electric_scooter", "fusion_lat": 0.0, "bike_id": "4e3a413df726d71153ca79396641665e", "rental_uris": {"ios": "https://dc.lft.to/lastmile_qr_scan", "android": "https://dc.lft.to/lastmile_qr_scan"}, "fusion_lon": 0.0, "name": "4e3a413df726d71153ca79396641665e", "lon": -77.03864466666667}, {"is_reserved": 0, "lat": 38.914010166666664, "is_disabled": 0, "type": "electric_scooter", "fusion_lat": 0.0, "bike_id": "6121ee8f310db6f7ac0cf38e040c4130", "rental_uris": {"ios": "https://dc.lft.to/lastmile_qr_scan", "android": "https://dc.lft.to/lastmile_qr_scan"}, "fusion_lon": 0.0, "name": "6121ee8f310db6f7ac0cf38e040c4130", "lon": -77.03229516666667}, {"is_reserved": 0, "lat": 38.90062133333333, "is_disabled": 0, "type": "electric_scooter", "fusion_lat": 0.0, "bike_id": "e7db6a4fa4a195e3ae0d92540092d367", "rental_uris": {"ios": "https://dc.lft.to/lastmile_qr_scan", "android": "https://dc.lft.to/lastmile_qr_scan"}, "fusion_lon": 0.0, "name": "e7db6a4fa4a195e3ae0d92540092d367", "lon": -77.00209316666667}, {"is_reserved": 0, "lat": 38.876273833333336, "is_disabled": 0, "type": "electric_scooter", "fusion_lat": 0.0, "bike_id": "7f3f3473c0f85d26132950e444f50175", "rental_uris": {"ios": "https://dc.lft.to/lastmile_qr_scan", "android": "https://dc.lft.to/lastmile_qr_scan"}, "fusion_lon": 0.0, "name": "7f3f3473c0f85d26132950e444f50175", "lon": -76.9653265}, {"is_reserved": 0, "lat": 38.89754716666667, "is_disabled": 0, "type": "electric_scooter", "fusion_lat": 0.0, "bike_id": "1b5f975af7a4d9fe061a5b5ee2fe70ac", "rental_uris": {"ios": "https://dc.lft.to/lastmile_qr_scan", "android": "https://dc.lft.to/lastmile_qr_scan"}, "fusion_lon": 0.0, "name": "1b5f975af7a4d9fe061a5b5ee2fe70ac", "lon": -76.94185383333334}, {"is_reserved": 0, "lat": 38.90853283333333, "is_disabled": 0, "type": "electric_scooter", "fusion_lat": 0.0, "bike_id": "b9c8abba40f44de00992882819114689", "rental_uris": {"ios": "https://dc.lft.to/lastmile_qr_scan", "android": "https://dc.lft.to/lastmile_qr_scan"}, "fusion_lon": 0.0, "name": "b9c8abba40f44de00992882819114689", "lon": -77.04499933333334}, {"is_reserved": 0, "lat": 38.9101335, "is_disabled": 0, "type": "electric_scooter", "fusion_lat": 0.0, "bike_id": "2a82625596886444ac68adf14660d9bc", "rental_uris": {"ios": "https://dc.lft.to/lastmile_qr_scan", "android": "https://dc.lft.to/lastmile_qr_scan"}, "fusion_lon": 0.0, "name": "2a82625596886444ac68adf14660d9bc", "lon": -77.03849183333334}, {"is_reserved": 0, "lat": 38.92210016666667, "is_disabled": 0, "type": "electric_scooter", "fusion_lat": 0.0, "bike_id": "0bc48f0116ce60a7101f02383aa88c6a", "rental_uris": {"ios": "https://dc.lft.to/lastmile_qr_scan", "android": "https://dc.lft.to/lastmile_qr_scan"}, "fusion_lon": 0.0, "name": "0bc48f0116ce60a7101f02383aa88c6a", "lon": -77.03541266666667}, {"is_reserved": 0, "lat": 38.893470666666666, "is_disabled": 0, "type": "electric_scooter", "fusion_lat": 0.0, "bike_id": "63777fb26e429836f43c5957c9b62005", "rental_uris": {"ios": "https://dc.lft.to/lastmile_qr_scan", "android": "https://dc.lft.to/lastmile_qr_scan"}, "fusion_lon": 0.0, "name": "63777fb26e429836f43c5957c9b62005", "lon": -77.00204066666667}, {"is_reserved": 0, "lat": 38.89219833333333, "is_disabled": 0, "type": "electric_scooter", "fusion_lat": 0.0, "bike_id": "64358ee9447e10ed3f6bf55b5cca9296", "rental_uris": {"ios": "https://dc.lft.to/lastmile_qr_scan", "android": "https://dc.lft.to/lastmile_qr_scan"}, "fusion_lon": 0.0, "name": "64358ee9447e10ed3f6bf55b5cca9296", "lon": -77.04519166666667}, {"is_reserved": 0, "lat": 38.8551295, "is_disabled": 0, "type": "electric_bike", "fusion_lat": 0.0, "bike_id": "6015b5c1585d2c70c81cefcc96b0fa7e", "rental_uris": {"ios": "https://dc.lft.to/lastmile_qr_scan", "android": "https://dc.lft.to/lastmile_qr_scan"}, "fusion_lon": 0.0, "name": "6015b5c1585d2c70c81cefcc96b0fa7e", "lon": -77.12028366666667}, {"is_reserved": 0, "lat": 38.92239433333334, "is_disabled": 0, "type": "electric_scooter", "fusion_lat": 0.0, "bike_id": "d0a67ead0beba5b00d7d41e5eb1b3f2f", "rental_uris": {"ios": "https://dc.lft.to/lastmile_qr_scan", "android": "https://dc.lft.to/lastmile_qr_scan"}, "fusion_lon": 0.0, "name": "d0a67ead0beba5b00d7d41e5eb1b3f2f", "lon": -77.03421016666667}, {"is_reserved": 0, "lat": 38.8969005, "is_disabled": 0, "type": "electric_scooter", "fusion_lat": 0.0, "bike_id": "4f5176a246195126084d952d3d9f0725", "rental_uris": {"ios": "https://dc.lft.to/lastmile_qr_scan", "android": "https://dc.lft.to/lastmile_qr_scan"}, "fusion_lon": 0.0, "name": "4f5176a246195126084d952d3d9f0725", "lon": -77.00496433333333}, {"is_reserved": 0, "lat": 38.8935535, "is_disabled": 0, "type": "electric_scooter", "fusion_lat": 0.0, "bike_id": "28725abaf044b9109bda1273ccbbf529", "rental_uris": {"ios": "https://dc.lft.to/lastmile_qr_scan", "android": "https://dc.lft.to/lastmile_qr_scan"}, "fusion_lon": 0.0, "name": "28725abaf044b9109bda1273ccbbf529", "lon": -77.04189466666666}, {"is_reserved": 0, "lat": 38.9140635, "is_disabled": 0, "type": "electric_scooter", "fusion_lat": 0.0, "bike_id": "923334a4ae7bab8e9eb9688554db7a56", "rental_uris": {"ios": "https://dc.lft.to/lastmile_qr_scan", "android": "https://dc.lft.to/lastmile_qr_scan"}, "fusion_lon": 0.0, "name": "923334a4ae7bab8e9eb9688554db7a56", "lon": -77.0322755}, {"is_reserved": 0, "lat": 38.902778166666664, "is_disabled": 0, "type": "electric_scooter", "fusion_lat": 0.0, "bike_id": "b9edf5a2879b1e231e80f5c392ac2ab0", "rental_uris": {"ios": "https://dc.lft.to/lastmile_qr_scan", "android": "https://dc.lft.to/lastmile_qr_scan"}, "fusion_lon": 0.0, "name": "b9edf5a2879b1e231e80f5c392ac2ab0", "lon": -77.04521866666667}, {"is_reserved": 0, "lat": 38.87565566666667, "is_disabled": 0, "type": "electric_scooter", "fusion_lat": 0.0, "bike_id": "9b7f9c8d1282a10808b6543500132fa9", "rental_uris": {"ios": "https://dc.lft.to/lastmile_qr_scan", "android": "https://dc.lft.to/lastmile_qr_scan"}, "fusion_lon": 0.0, "name": "9b7f9c8d1282a10808b6543500132fa9", "lon": -77.02079616666667}, {"is_reserved": 0, "lat": 38.884775, "is_disabled": 0, "type": "electric_scooter", "fusion_lat": 0.0, "bike_id": "51e3a99aea1202d0a1f7c12eee812865", "rental_uris": {"ios": "https://dc.lft.to/lastmile_qr_scan", "android": "https://dc.lft.to/lastmile_qr_scan"}, "fusion_lon": 0.0, "name": "51e3a99aea1202d0a1f7c12eee812865", "lon": -77.019837}, {"is_reserved": 0, "lat": 38.908707666666665, "is_disabled": 0, "type": "electric_scooter", "fusion_lat": 0.0, "bike_id": "db841050c30cc890f9b6877d392a6af4", "rental_uris": {"ios": "https://dc.lft.to/lastmile_qr_scan", "android": "https://dc.lft.to/lastmile_qr_scan"}, "fusion_lon": 0.0, "name": "db841050c30cc890f9b6877d392a6af4", "lon": -77.026959}, {"is_reserved": 0, "lat": 38.9049245, "is_disabled": 0, "type": "electric_scooter", "fusion_lat": 0.0, "bike_id": "47b8806f330a7bea130cd78a7fd9b33c", "rental_uris": {"ios": "https://dc.lft.to/lastmile_qr_scan", "android": "https://dc.lft.to/lastmile_qr_scan"}, "fusion_lon": 0.0, "name": "47b8806f330a7bea130cd78a7fd9b33c", "lon": -77.02958683333334}, {"is_reserved": 0, "lat": 38.90401116666666, "is_disabled": 0, "type": "electric_scooter", "fusion_lat": 0.0, "bike_id": "3c6867c91e1687a49d881013a2befa8c", "rental_uris": {"ios": "https://dc.lft.to/lastmile_qr_scan", "android": "https://dc.lft.to/lastmile_qr_scan"}, "fusion_lon": 0.0, "name": "3c6867c91e1687a49d881013a2befa8c", "lon": -77.04034316666667}, {"is_reserved": 0, "lat": 38.900267, "is_disabled": 0, "type": "electric_scooter", "fusion_lat": 0.0, "bike_id": "887caf1044e5814b56a5009004890b18", "rental_uris": {"ios": "https://dc.lft.to/lastmile_qr_scan", "android": "https://dc.lft.to/lastmile_qr_scan"}, "fusion_lon": 0.0, "name": "887caf1044e5814b56a5009004890b18", "lon": -76.98825866666667}, {"is_reserved": 0, "lat": 38.90389716666667, "is_disabled": 0, "type": "electric_scooter", "fusion_lat": 0.0, "bike_id": "afc854154f4376d2695b561543d4ef0d", "rental_uris": {"ios": "https://dc.lft.to/lastmile_qr_scan", "android": "https://dc.lft.to/lastmile_qr_scan"}, "fusion_lon": 0.0, "name": "afc854154f4376d2695b561543d4ef0d", "lon": -77.03872133333333}, {"is_reserved": 0, "lat": 38.9021835, "is_disabled": 0, "type": "electric_scooter", "fusion_lat": 0.0, "bike_id": "9fda508afdaf289397348aff20527283", "rental_uris": {"ios": "https://dc.lft.to/lastmile_qr_scan", "android": "https://dc.lft.to/lastmile_qr_scan"}, "fusion_lon": 0.0, "name": "9fda508afdaf289397348aff20527283", "lon": -77.0468105}, {"is_reserved": 0, "lat": 38.904463, "is_disabled": 0, "type": "electric_scooter", "fusion_lat": 0.0, "bike_id": "edeecdc6ad7c51c37ed26a630f7904eb", "rental_uris": {"ios": "https://dc.lft.to/lastmile_qr_scan", "android": "https://dc.lft.to/lastmile_qr_scan"}, "fusion_lon": 0.0, "name": "edeecdc6ad7c51c37ed26a630f7904eb", "lon": -76.97430466666667}, {"is_reserved": 0, "lat": 39.0304875, "is_disabled": 0, "type": "electric_bike", "fusion_lat": 0.0, "bike_id": "969447e77a88564096ea17658c48c2b3", "rental_uris": {"ios": "https://dc.lft.to/lastmile_qr_scan", "android": "https://dc.lft.to/lastmile_qr_scan"}, "fusion_lon": 0.0, "name": "969447e77a88564096ea17658c48c2b3", "lon": -77.094895}, {"is_reserved": 0, "lat": 38.9247325, "is_disabled": 0, "type": "electric_scooter", "fusion_lat": 0.0, "bike_id": "321413dd27a7acb7c690a2eabd85462e", "rental_uris": {"ios": "https://dc.lft.to/lastmile_qr_scan", "android": "https://dc.lft.to/lastmile_qr_scan"}, "fusion_lon": 0.0, "name": "321413dd27a7acb7c690a2eabd85462e", "lon": -77.02337683333333}, {"is_reserved": 0, "lat": 38.90996666666667, "is_disabled": 0, "type": "electric_scooter", "fusion_lat": 0.0, "bike_id": "24d01a8cb6255a0e4d68c4e34daef0f8", "rental_uris": {"ios": "https://dc.lft.to/lastmile_qr_scan", "android": "https://dc.lft.to/lastmile_qr_scan"}, "fusion_lon": 0.0, "name": "24d01a8cb6255a0e4d68c4e34daef0f8", "lon": -77.03672583333334}, {"is_reserved": 0, "lat": 38.914680833333335, "is_disabled": 0, "type": "electric_scooter", "fusion_lat": 0.0, "bike_id": "695d4886ce0562f18c3399ac1275ce04", "rental_uris": {"ios": "https://dc.lft.to/lastmile_qr_scan", "android": "https://dc.lft.to/lastmile_qr_scan"}, "fusion_lon": 0.0, "name": "695d4886ce0562f18c3399ac1275ce04", "lon": -77.03211}, {"is_reserved": 0, "lat": 38.890160333333334, "is_disabled": 0, "type": "electric_scooter", "fusion_lat": 0.0, "bike_id": "6322758b6611035b69f060f4f08f33d0", "rental_uris": {"ios": "https://dc.lft.to/lastmile_qr_scan", "android": "https://dc.lft.to/lastmile_qr_scan"}, "fusion_lon": 0.0, "name": "6322758b6611035b69f060f4f08f33d0", "lon": -76.937364}, {"is_reserved": 0, "lat": 38.932425333333335, "is_disabled": 0, "type": "electric_scooter", "fusion_lat": 0.0, "bike_id": "bcd223d20f976e5589871c0290f78604", "rental_uris": {"ios": "https://dc.lft.to/lastmile_qr_scan", "android": "https://dc.lft.to/lastmile_qr_scan"}, "fusion_lon": 0.0, "name": "bcd223d20f976e5589871c0290f78604", "lon": -77.02956683333333}, {"is_reserved": 0, "lat": 38.9027195, "is_disabled": 0, "type": "electric_scooter", "fusion_lat": 0.0, "bike_id": "782ce6362c6489c698093e88e45b2e70", "rental_uris": {"ios": "https://dc.lft.to/lastmile_qr_scan", "android": "https://dc.lft.to/lastmile_qr_scan"}, "fusion_lon": 0.0, "name": "782ce6362c6489c698093e88e45b2e70", "lon": -77.0265345}, {"is_reserved": 0, "lat": 38.867483666666665, "is_disabled": 0, "type": "electric_scooter", "fusion_lat": 0.0, "bike_id": "225c2c9e07227bb05baab6f9fd79bbdb", "rental_uris": {"ios": "https://dc.lft.to/lastmile_qr_scan", "android": "https://dc.lft.to/lastmile_qr_scan"}, "fusion_lon": 0.0, "name": "225c2c9e07227bb05baab6f9fd79bbdb", "lon": -77.0385615}, {"is_reserved": 0, "lat": 38.97519066666667, "is_disabled": 0, "type": "electric_scooter", "fusion_lat": 0.0, "bike_id": "dad342986ca1e29dfc923760cb6728e3", "rental_uris": {"ios": "https://dc.lft.to/lastmile_qr_scan", "android": "https://dc.lft.to/lastmile_qr_scan"}, "fusion_lon": 0.0, "name": "dad342986ca1e29dfc923760cb6728e3", "lon": -77.01737033333333}, {"is_reserved": 0, "lat": 38.87141866666666, "is_disabled": 0, "type": "electric_scooter", "fusion_lat": 0.0, "bike_id": "6251659b29d94e5cc641051cf40e9f96", "rental_uris": {"ios": "https://dc.lft.to/lastmile_qr_scan", "android": "https://dc.lft.to/lastmile_qr_scan"}, "fusion_lon": 0.0, "name": "6251659b29d94e5cc641051cf40e9f96", "lon": -76.993346}, {"is_reserved": 0, "lat": 38.915094333333336, "is_disabled": 0, "type": "electric_scooter", "fusion_lat": 0.0, "bike_id": "689f06ba4cc673d91df482549b39ad89", "rental_uris": {"ios": "https://dc.lft.to/lastmile_qr_scan", "android": "https://dc.lft.to/lastmile_qr_scan"}, "fusion_lon": 0.0, "name": "689f06ba4cc673d91df482549b39ad89", "lon": -77.019043}, {"is_reserved": 0, "lat": 38.9282965, "is_disabled": 0, "type": "electric_scooter", "fusion_lat": 0.0, "bike_id": "76ff086f779d30f1b10c1586f6bd3222", "rental_uris": {"ios": "https://dc.lft.to/lastmile_qr_scan", "android": "https://dc.lft.to/lastmile_qr_scan"}, "fusion_lon": 0.0, "name": "76ff086f779d30f1b10c1586f6bd3222", "lon": -77.05512}, {"is_reserved": 0, "lat": 38.95476633333333, "is_disabled": 0, "type": "electric_bike", "fusion_lat": 0.0, "bike_id": "f5b8c84bcbcfe935c6d9d4e7edb2cc2b", "rental_uris": {"ios": "https://dc.lft.to/lastmile_qr_scan", "android": "https://dc.lft.to/lastmile_qr_scan"}, "fusion_lon": 0.0, "name": "f5b8c84bcbcfe935c6d9d4e7edb2cc2b", "lon": -76.98872516666667}, {"is_reserved": 0, "lat": 38.893996666666666, "is_disabled": 0, "type": "electric_bike", "fusion_lat": 0.0, "bike_id": "adb429c19401e41e0aac09a5d3f50097", "rental_uris": {"ios": "https://dc.lft.to/lastmile_qr_scan", "android": "https://dc.lft.to/lastmile_qr_scan"}, "fusion_lon": 0.0, "name": "adb429c19401e41e0aac09a5d3f50097", "lon": -76.94799416666666}, {"is_reserved": 0, "lat": 38.870823, "is_disabled": 0, "type": "electric_bike", "fusion_lat": 0.0, "bike_id": "0e23db71fc6a3d9bfc8ac35e56e289d2", "rental_uris": {"ios": "https://dc.lft.to/lastmile_qr_scan", "android": "https://dc.lft.to/lastmile_qr_scan"}, "fusion_lon": 0.0, "name": "0e23db71fc6a3d9bfc8ac35e56e289d2", "lon": -76.97845933333333}, {"is_reserved": 0, "lat": 38.90959983333333, "is_disabled": 0, "type": "electric_scooter", "fusion_lat": 0.0, "bike_id": "0774a84b34b9e9ec8462bd459e01b2b8", "rental_uris": {"ios": "https://dc.lft.to/lastmile_qr_scan", "android": "https://dc.lft.to/lastmile_qr_scan"}, "fusion_lon": 0.0, "name": "0774a84b34b9e9ec8462bd459e01b2b8", "lon": -77.0445915}, {"is_reserved": 0, "lat": 38.881540333333334, "is_disabled": 0, "type": "electric_scooter", "fusion_lat": 0.0, "bike_id": "b2a99202dc14d796a4fdf2b83f7e7611", "rental_uris": {"ios": "https://dc.lft.to/lastmile_qr_scan", "android": "https://dc.lft.to/lastmile_qr_scan"}, "fusion_lon": 0.0, "name": "b2a99202dc14d796a4fdf2b83f7e7611", "lon": -77.02695883333334}, {"is_reserved": 0, "lat": 38.81326466666667, "is_disabled": 0, "type": "electric_bike", "fusion_lat": 0.0, "bike_id": "33059ce45d2d550164bfe3f762dae1f1", "rental_uris": {"ios": "https://dc.lft.to/lastmile_qr_scan", "android": "https://dc.lft.to/lastmile_qr_scan"}, "fusion_lon": 0.0, "name": "33059ce45d2d550164bfe3f762dae1f1", "lon": -77.05078416666667}, {"is_reserved": 0, "lat": 38.84095633333333, "is_disabled": 0, "type": "electric_bike", "fusion_lat": 0.0, "bike_id": "fb8d65800ff4cb82e7ff26d0306cae6e", "rental_uris": {"ios": "https://dc.lft.to/lastmile_qr_scan", "android": "https://dc.lft.to/lastmile_qr_scan"}, "fusion_lon": 0.0, "name": "fb8d65800ff4cb82e7ff26d0306cae6e", "lon": -77.0893465}, {"is_reserved": 0, "lat": 38.88625233333333, "is_disabled": 0, "type": "electric_scooter", "fusion_lat": 0.0, "bike_id": "aeab658e1bd8071a6852447c3a556c43", "rental_uris": {"ios": "https://dc.lft.to/lastmile_qr_scan", "android": "https://dc.lft.to/lastmile_qr_scan"}, "fusion_lon": 0.0, "name": "aeab658e1bd8071a6852447c3a556c43", "lon": -77.0150785}, {"is_reserved": 0, "lat": 38.909059666666664, "is_disabled": 0, "type": "electric_scooter", "fusion_lat": 0.0, "bike_id": "b32f52ee37f3c8f10a6fb9c3bc9b8d28", "rental_uris": {"ios": "https://dc.lft.to/lastmile_qr_scan", "android": "https://dc.lft.to/lastmile_qr_scan"}, "fusion_lon": 0.0, "name": "b32f52ee37f3c8f10a6fb9c3bc9b8d28", "lon": -76.99788816666667}, {"is_reserved": 0, "lat": 38.941709833333334, "is_disabled": 0, "type": "electric_bike", "fusion_lat": 0.0, "bike_id": "d10c5926f38dfdf1c65bdb91cdbf562e", "rental_uris": {"ios": "https://dc.lft.to/lastmile_qr_scan", "android": "https://dc.lft.to/lastmile_qr_scan"}, "fusion_lon": 0.0, "name": "d10c5926f38dfdf1c65bdb91cdbf562e", "lon": -77.02871166666667}, {"is_reserved": 0, "lat": 38.909488833333334, "is_disabled": 0, "type": "electric_scooter", "fusion_lat": 0.0, "bike_id": "f4e6fc13f2d3eab2ea352caab1b007a9", "rental_uris": {"ios": "https://dc.lft.to/lastmile_qr_scan", "android": "https://dc.lft.to/lastmile_qr_scan"}, "fusion_lon": 0.0, "name": "f4e6fc13f2d3eab2ea352caab1b007a9", "lon": -77.03446383333333}, {"is_reserved": 0, "lat": 38.910143, "is_disabled": 0, "type": "electric_scooter", "fusion_lat": 0.0, "bike_id": "5912b64bd34afc46d345dd233fee7e26", "rental_uris": {"ios": "https://dc.lft.to/lastmile_qr_scan", "android": "https://dc.lft.to/lastmile_qr_scan"}, "fusion_lon": 0.0, "name": "5912b64bd34afc46d345dd233fee7e26", "lon": -77.02178533333333}, {"is_reserved": 0, "lat": 38.899505833333336, "is_disabled": 0, "type": "electric_scooter", "fusion_lat": 0.0, "bike_id": "48f1fbd668bb68b63e96abc6625b4737", "rental_uris": {"ios": "https://dc.lft.to/lastmile_qr_scan", "android": "https://dc.lft.to/lastmile_qr_scan"}, "fusion_lon": 0.0, "name": "48f1fbd668bb68b63e96abc6625b4737", "lon": -77.04671133333333}, {"is_reserved": 0, "lat": 38.881235, "is_disabled": 0, "type": "electric_scooter", "fusion_lat": 0.0, "bike_id": "f68b8d7cc38a9ea53ea4207e4c2a198d", "rental_uris": {"ios": "https://dc.lft.to/lastmile_qr_scan", "android": "https://dc.lft.to/lastmile_qr_scan"}, "fusion_lon": 0.0, "name": "f68b8d7cc38a9ea53ea4207e4c2a198d", "lon": -77.016757}, {"is_reserved": 0, "lat": 39.07494766666667, "is_disabled": 0, "type": "electric_bike", "fusion_lat": 0.0, "bike_id": "e6cdc49250c14374cd0f5d6a81dcf5e9", "rental_uris": {"ios": "https://dc.lft.to/lastmile_qr_scan", "android": "https://dc.lft.to/lastmile_qr_scan"}, "fusion_lon": 0.0, "name": "e6cdc49250c14374cd0f5d6a81dcf5e9", "lon": -77.11601766666666}, {"is_reserved": 0, "lat": 38.91559816666667, "is_disabled": 0, "type": "electric_scooter", "fusion_lat": 0.0, "bike_id": "148399b3a135dbddd4ade29fa0102a18", "rental_uris": {"ios": "https://dc.lft.to/lastmile_qr_scan", "android": "https://dc.lft.to/lastmile_qr_scan"}, "fusion_lon": 0.0, "name": "148399b3a135dbddd4ade29fa0102a18", "lon": -76.98271566666666}, {"is_reserved": 0, "lat": 38.91582833333333, "is_disabled": 0, "type": "electric_scooter", "fusion_lat": 0.0, "bike_id": "0df7359e0f0e03e5860e66a61a514d32", "rental_uris": {"ios": "https://dc.lft.to/lastmile_qr_scan", "android": "https://dc.lft.to/lastmile_qr_scan"}, "fusion_lon": 0.0, "name": "0df7359e0f0e03e5860e66a61a514d32", "lon": -77.01129333333333}, {"is_reserved": 0, "lat": 38.96614433333333, "is_disabled": 0, "type": "electric_bike", "fusion_lat": 0.0, "bike_id": "77c9af2ead519a2ec7af2422c27cf545", "rental_uris": {"ios": "https://dc.lft.to/lastmile_qr_scan", "android": "https://dc.lft.to/lastmile_qr_scan"}, "fusion_lon": 0.0, "name": "77c9af2ead519a2ec7af2422c27cf545", "lon": -77.03432616666667}, {"is_reserved": 0, "lat": 38.9039, "is_disabled": 0, "type": "electric_bike", "fusion_lat": 0.0, "bike_id": "93409dc636e826a48b6982173dec99cc", "rental_uris": {"ios": "https://dc.lft.to/lastmile_qr_scan", "android": "https://dc.lft.to/lastmile_qr_scan"}, "fusion_lon": 0.0, "name": "93409dc636e826a48b6982173dec99cc", "lon": -77.0398725}, {"is_reserved": 0, "lat": 38.874925833333336, "is_disabled": 0, "type": "electric_scooter", "fusion_lat": 0.0, "bike_id": "307e384bddfb2abc38441135aed08d8f", "rental_uris": {"ios": "https://dc.lft.to/lastmile_qr_scan", "android": "https://dc.lft.to/lastmile_qr_scan"}, "fusion_lon": 0.0, "name": "307e384bddfb2abc38441135aed08d8f", "lon": -76.99797116666667}, {"is_reserved": 0, "lat": 38.90375683333333, "is_disabled": 0, "type": "electric_scooter", "fusion_lat": 0.0, "bike_id": "e7323efb158e20f1befba853b9accea6", "rental_uris": {"ios": "https://dc.lft.to/lastmile_qr_scan", "android": "https://dc.lft.to/lastmile_qr_scan"}, "fusion_lon": 0.0, "name": "e7323efb158e20f1befba853b9accea6", "lon": -77.0344735}, {"is_reserved": 0, "lat": 38.921264, "is_disabled": 0, "type": "electric_scooter", "fusion_lat": 0.0, "bike_id": "0e7edfb06351210aad9f25d3951fdfae", "rental_uris": {"ios": "https://dc.lft.to/lastmile_qr_scan", "android": "https://dc.lft.to/lastmile_qr_scan"}, "fusion_lon": 0.0, "name": "0e7edfb06351210aad9f25d3951fdfae", "lon": -77.041314}, {"is_reserved": 0, "lat": 38.87626383333333, "is_disabled": 0, "type": "electric_scooter", "fusion_lat": 0.0, "bike_id": "1d6f03beda0bdc3c31330a716c8fee44", "rental_uris": {"ios": "https://dc.lft.to/lastmile_qr_scan", "android": "https://dc.lft.to/lastmile_qr_scan"}, "fusion_lon": 0.0, "name": "1d6f03beda0bdc3c31330a716c8fee44", "lon": -76.9653125}, {"is_reserved": 0, "lat": 38.91095516666667, "is_disabled": 0, "type": "electric_scooter", "fusion_lat": 0.0, "bike_id": "e8943ec1d4c45f6ca56866d0c579c886", "rental_uris": {"ios": "https://dc.lft.to/lastmile_qr_scan", "android": "https://dc.lft.to/lastmile_qr_scan"}, "fusion_lon": 0.0, "name": "e8943ec1d4c45f6ca56866d0c579c886", "lon": -77.02192583333333}, {"is_reserved": 0, "lat": 38.873751666666664, "is_disabled": 0, "type": "electric_bike", "fusion_lat": 0.0, "bike_id": "2629732b394b7c092b0e56c41b4592ef", "rental_uris": {"ios": "https://dc.lft.to/lastmile_qr_scan", "android": "https://dc.lft.to/lastmile_qr_scan"}, "fusion_lon": 0.0, "name": "2629732b394b7c092b0e56c41b4592ef", "lon": -77.11804416666666}, {"is_reserved": 0, "lat": 38.92068416666667, "is_disabled": 0, "type": "electric_scooter", "fusion_lat": 0.0, "bike_id": "b47238928d48fbf1e1b8a35b93275071", "rental_uris": {"ios": "https://dc.lft.to/lastmile_qr_scan", "android": "https://dc.lft.to/lastmile_qr_scan"}, "fusion_lon": 0.0, "name": "b47238928d48fbf1e1b8a35b93275071", "lon": -77.028235}, {"is_reserved": 0, "lat": 38.96925183333333, "is_disabled": 0, "type": "electric_bike", "fusion_lat": 0.0, "bike_id": "ffd0bc9fff3941152023d52cb0b82664", "rental_uris": {"ios": "https://dc.lft.to/lastmile_qr_scan", "android": "https://dc.lft.to/lastmile_qr_scan"}, "fusion_lon": 0.0, "name": "ffd0bc9fff3941152023d52cb0b82664", "lon": -77.02617333333333}, {"is_reserved": 0, "lat": 38.909975833333334, "is_disabled": 0, "type": "electric_scooter", "fusion_lat": 0.0, "bike_id": "2d81d46afc8d634aea2f18387c9e05aa", "rental_uris": {"ios": "https://dc.lft.to/lastmile_qr_scan", "android": "https://dc.lft.to/lastmile_qr_scan"}, "fusion_lon": 0.0, "name": "2d81d46afc8d634aea2f18387c9e05aa", "lon": -77.03842516666667}, {"is_reserved": 0, "lat": 38.89016483333333, "is_disabled": 0, "type": "electric_scooter", "fusion_lat": 0.0, "bike_id": "d4c3ab71720a09ec8a16e8e8119d5f0a", "rental_uris": {"ios": "https://dc.lft.to/lastmile_qr_scan", "android": "https://dc.lft.to/lastmile_qr_scan"}, "fusion_lon": 0.0, "name": "d4c3ab71720a09ec8a16e8e8119d5f0a", "lon": -76.9373655}, {"is_reserved": 0, "lat": 38.9265075, "is_disabled": 0, "type": "electric_scooter", "fusion_lat": 0.0, "bike_id": "047eb45441fb82b41f0382c95a72b274", "rental_uris": {"ios": "https://dc.lft.to/lastmile_qr_scan", "android": "https://dc.lft.to/lastmile_qr_scan"}, "fusion_lon": 0.0, "name": "047eb45441fb82b41f0382c95a72b274", "lon": -77.024191}, {"is_reserved": 0, "lat": 38.90598283333333, "is_disabled": 0, "type": "electric_scooter", "fusion_lat": 0.0, "bike_id": "7caa15a6c36473473db60a3724cf8e3d", "rental_uris": {"ios": "https://dc.lft.to/lastmile_qr_scan", "android": "https://dc.lft.to/lastmile_qr_scan"}, "fusion_lon": 0.0, "name": "7caa15a6c36473473db60a3724cf8e3d", "lon": -77.0363755}, {"is_reserved": 0, "lat": 38.91682516666667, "is_disabled": 0, "type": "electric_scooter", "fusion_lat": 0.0, "bike_id": "6ef40a70823c11a00fd583112f6d91c8", "rental_uris": {"ios": "https://dc.lft.to/lastmile_qr_scan", "android": "https://dc.lft.to/lastmile_qr_scan"}, "fusion_lon": 0.0, "name": "6ef40a70823c11a00fd583112f6d91c8", "lon": -77.03529966666666}, {"is_reserved": 0, "lat": 38.87178466666667, "is_disabled": 0, "type": "electric_scooter", "fusion_lat": 0.0, "bike_id": "15a947483fcab2b077277f332af9bb50", "rental_uris": {"ios": "https://dc.lft.to/lastmile_qr_scan", "android": "https://dc.lft.to/lastmile_qr_scan"}, "fusion_lon": 0.0, "name": "15a947483fcab2b077277f332af9bb50", "lon": -77.00612316666667}, {"is_reserved": 0, "lat": 38.8762595, "is_disabled": 0, "type": "electric_scooter", "fusion_lat": 0.0, "bike_id": "b604b9402dd0d4360b45c63390901c46", "rental_uris": {"ios": "https://dc.lft.to/lastmile_qr_scan", "android": "https://dc.lft.to/lastmile_qr_scan"}, "fusion_lon": 0.0, "name": "b604b9402dd0d4360b45c63390901c46", "lon": -76.96529683333333}, {"is_reserved": 0, "lat": 38.89684883333334, "is_disabled": 0, "type": "electric_scooter", "fusion_lat": 0.0, "bike_id": "0532f3db5a417cedd20a759b0a610285", "rental_uris": {"ios": "https://dc.lft.to/lastmile_qr_scan", "android": "https://dc.lft.to/lastmile_qr_scan"}, "fusion_lon": 0.0, "name": "0532f3db5a417cedd20a759b0a610285", "lon": -77.05174633333333}, {"is_reserved": 0, "lat": 38.9041355, "is_disabled": 0, "type": "electric_scooter", "fusion_lat": 0.0, "bike_id": "989830d06cb0eacb450718e1d923918f", "rental_uris": {"ios": "https://dc.lft.to/lastmile_qr_scan", "android": "https://dc.lft.to/lastmile_qr_scan"}, "fusion_lon": 0.0, "name": "989830d06cb0eacb450718e1d923918f", "lon": -77.040051}, {"is_reserved": 0, "lat": 38.87466383333334, "is_disabled": 0, "type": "electric_scooter", "fusion_lat": 0.0, "bike_id": "e7ffb69eea158cc85e8e7790b5163845", "rental_uris": {"ios": "https://dc.lft.to/lastmile_qr_scan", "android": "https://dc.lft.to/lastmile_qr_scan"}, "fusion_lon": 0.0, "name": "e7ffb69eea158cc85e8e7790b5163845", "lon": -77.00524016666667}, {"is_reserved": 0, "lat": 38.928869166666665, "is_disabled": 0, "type": "electric_scooter", "fusion_lat": 0.0, "bike_id": "2dd80a490d7f97b796985cd28bb1f8b2", "rental_uris": {"ios": "https://dc.lft.to/lastmile_qr_scan", "android": "https://dc.lft.to/lastmile_qr_scan"}, "fusion_lon": 0.0, "name": "2dd80a490d7f97b796985cd28bb1f8b2", "lon": -77.03340683333333}, {"is_reserved": 0, "lat": 38.91779366666667, "is_disabled": 0, "type": "electric_scooter", "fusion_lat": 0.0, "bike_id": "8d9743a8010db2a900d77c12b05338b6", "rental_uris": {"ios": "https://dc.lft.to/lastmile_qr_scan", "android": "https://dc.lft.to/lastmile_qr_scan"}, "fusion_lon": 0.0, "name": "8d9743a8010db2a900d77c12b05338b6", "lon": -77.04099716666667}, {"is_reserved": 0, "lat": 38.916858500000004, "is_disabled": 0, "type": "electric_scooter", "fusion_lat": 0.0, "bike_id": "55ce06dbf0354b9a51c3149e0771219a", "rental_uris": {"ios": "https://dc.lft.to/lastmile_qr_scan", "android": "https://dc.lft.to/lastmile_qr_scan"}, "fusion_lon": 0.0, "name": "55ce06dbf0354b9a51c3149e0771219a", "lon": -77.02813366666666}, {"is_reserved": 0, "lat": 38.927112, "is_disabled": 0, "type": "electric_scooter", "fusion_lat": 0.0, "bike_id": "dbcbce62d63f09e786baa303043e61a1", "rental_uris": {"ios": "https://dc.lft.to/lastmile_qr_scan", "android": "https://dc.lft.to/lastmile_qr_scan"}, "fusion_lon": 0.0, "name": "dbcbce62d63f09e786baa303043e61a1", "lon": -77.02702683333334}, {"is_reserved": 0, "lat": 38.8922045, "is_disabled": 0, "type": "electric_scooter", "fusion_lat": 0.0, "bike_id": "b1d9594ec1d9847a971d62272a609a57", "rental_uris": {"ios": "https://dc.lft.to/lastmile_qr_scan", "android": "https://dc.lft.to/lastmile_qr_scan"}, "fusion_lon": 0.0, "name": "b1d9594ec1d9847a971d62272a609a57", "lon": -77.04333266666667}, {"is_reserved": 0, "lat": 38.90121716666667, "is_disabled": 0, "type": "electric_scooter", "fusion_lat": 0.0, "bike_id": "15ad732bcb7e9fd094685f6fb595e5aa", "rental_uris": {"ios": "https://dc.lft.to/lastmile_qr_scan", "android": "https://dc.lft.to/lastmile_qr_scan"}, "fusion_lon": 0.0, "name": "15ad732bcb7e9fd094685f6fb595e5aa", "lon": -77.04179783333333}, {"is_reserved": 0, "lat": 38.876273833333336, "is_disabled": 0, "type": "electric_scooter", "fusion_lat": 0.0, "bike_id": "8ed798731a47fb5cffd2c65900237b9a", "rental_uris": {"ios": "https://dc.lft.to/lastmile_qr_scan", "android": "https://dc.lft.to/lastmile_qr_scan"}, "fusion_lon": 0.0, "name": "8ed798731a47fb5cffd2c65900237b9a", "lon": -76.96530233333333}, {"is_reserved": 0, "lat": 38.9201675, "is_disabled": 0, "type": "electric_scooter", "fusion_lat": 0.0, "bike_id": "04e52c6088ef9aed88259a7e9d2d3b1d", "rental_uris": {"ios": "https://dc.lft.to/lastmile_qr_scan", "android": "https://dc.lft.to/lastmile_qr_scan"}, "fusion_lon": 0.0, "name": "04e52c6088ef9aed88259a7e9d2d3b1d", "lon": -76.9956275}, {"is_reserved": 0, "lat": 38.917883833333335, "is_disabled": 0, "type": "electric_scooter", "fusion_lat": 0.0, "bike_id": "4bc6f89266a4ab61c3fe34fc91c61a46", "rental_uris": {"ios": "https://dc.lft.to/lastmile_qr_scan", "android": "https://dc.lft.to/lastmile_qr_scan"}, "fusion_lon": 0.0, "name": "4bc6f89266a4ab61c3fe34fc91c61a46", "lon": -77.0231705}, {"is_reserved": 0, "lat": 38.8812165, "is_disabled": 0, "type": "electric_scooter", "fusion_lat": 0.0, "bike_id": "15f4b6a0e94b57657693e64bb4b2a80b", "rental_uris": {"ios": "https://dc.lft.to/lastmile_qr_scan", "android": "https://dc.lft.to/lastmile_qr_scan"}, "fusion_lon": 0.0, "name": "15f4b6a0e94b57657693e64bb4b2a80b", "lon": -77.026681}, {"is_reserved": 0, "lat": 38.8542405, "is_disabled": 0, "type": "electric_bike", "fusion_lat": 0.0, "bike_id": "f75361a52f521ed8282d0e2d35b9d0f9", "rental_uris": {"ios": "https://dc.lft.to/lastmile_qr_scan", "android": "https://dc.lft.to/lastmile_qr_scan"}, "fusion_lon": 0.0, "name": "f75361a52f521ed8282d0e2d35b9d0f9", "lon": -76.909665}, {"is_reserved": 0, "lat": 38.903619166666665, "is_disabled": 0, "type": "electric_scooter", "fusion_lat": 0.0, "bike_id": "0ded77e55e8f671994977774f44f3d9a", "rental_uris": {"ios": "https://dc.lft.to/lastmile_qr_scan", "android": "https://dc.lft.to/lastmile_qr_scan"}, "fusion_lon": 0.0, "name": "0ded77e55e8f671994977774f44f3d9a", "lon": -77.04523233333333}, {"is_reserved": 0, "lat": 38.909969833333335, "is_disabled": 0, "type": "electric_scooter", "fusion_lat": 0.0, "bike_id": "51db6e763c5b64a3a3df74eff0b096f3", "rental_uris": {"ios": "https://dc.lft.to/lastmile_qr_scan", "android": "https://dc.lft.to/lastmile_qr_scan"}, "fusion_lon": 0.0, "name": "51db6e763c5b64a3a3df74eff0b096f3", "lon": -77.04931366666666}, {"is_reserved": 0, "lat": 38.881114333333336, "is_disabled": 0, "type": "electric_bike", "fusion_lat": 0.0, "bike_id": "c2b81b9c8f083c70ea2ad47fd90412d8", "rental_uris": {"ios": "https://dc.lft.to/lastmile_qr_scan", "android": "https://dc.lft.to/lastmile_qr_scan"}, "fusion_lon": 0.0, "name": "c2b81b9c8f083c70ea2ad47fd90412d8", "lon": -77.11441683333334}, {"is_reserved": 0, "lat": 38.90388933333333, "is_disabled": 0, "type": "electric_scooter", "fusion_lat": 0.0, "bike_id": "a2e65d1fa015bf628502224d46207339", "rental_uris": {"ios": "https://dc.lft.to/lastmile_qr_scan", "android": "https://dc.lft.to/lastmile_qr_scan"}, "fusion_lon": 0.0, "name": "a2e65d1fa015bf628502224d46207339", "lon": -77.03477233333334}, {"is_reserved": 0, "lat": 38.9024515, "is_disabled": 0, "type": "electric_scooter", "fusion_lat": 0.0, "bike_id": "918f63ace74db62b0721718ca7a231c8", "rental_uris": {"ios": "https://dc.lft.to/lastmile_qr_scan", "android": "https://dc.lft.to/lastmile_qr_scan"}, "fusion_lon": 0.0, "name": "918f63ace74db62b0721718ca7a231c8", "lon": -77.03341066666667}, {"is_reserved": 0, "lat": 38.91158183333334, "is_disabled": 0, "type": "electric_scooter", "fusion_lat": 0.0, "bike_id": "21b0eb4278afc5d4b32448c69a6062ea", "rental_uris": {"ios": "https://dc.lft.to/lastmile_qr_scan", "android": "https://dc.lft.to/lastmile_qr_scan"}, "fusion_lon": 0.0, "name": "21b0eb4278afc5d4b32448c69a6062ea", "lon": -77.04499133333333}, {"is_reserved": 0, "lat": 38.9565205, "is_disabled": 0, "type": "electric_scooter", "fusion_lat": 0.0, "bike_id": "98bde9088eab5d8324a1fb4398732748", "rental_uris": {"ios": "https://dc.lft.to/lastmile_qr_scan", "android": "https://dc.lft.to/lastmile_qr_scan"}, "fusion_lon": 0.0, "name": "98bde9088eab5d8324a1fb4398732748", "lon": -77.01964466666666}, {"is_reserved": 0, "lat": 38.892967166666665, "is_disabled": 0, "type": "electric_scooter", "fusion_lat": 0.0, "bike_id": "1f508b31110822699d26083a1cadbf0e", "rental_uris": {"ios": "https://dc.lft.to/lastmile_qr_scan", "android": "https://dc.lft.to/lastmile_qr_scan"}, "fusion_lon": 0.0, "name": "1f508b31110822699d26083a1cadbf0e", "lon": -77.04185216666667}, {"is_reserved": 0, "lat": 38.895647, "is_disabled": 0, "type": "electric_bike", "fusion_lat": 0.0, "bike_id": "660c5af0fc976e5bb9cf36a6e494f314", "rental_uris": {"ios": "https://dc.lft.to/lastmile_qr_scan", "android": "https://dc.lft.to/lastmile_qr_scan"}, "fusion_lon": 0.0, "name": "660c5af0fc976e5bb9cf36a6e494f314", "lon": -77.12733033333333}, {"is_reserved": 0, "lat": 38.91122383333333, "is_disabled": 0, "type": "electric_scooter", "fusion_lat": 0.0, "bike_id": "e6dac41dcc386bab1c269f0bb6b46f89", "rental_uris": {"ios": "https://dc.lft.to/lastmile_qr_scan", "android": "https://dc.lft.to/lastmile_qr_scan"}, "fusion_lon": 0.0, "name": "e6dac41dcc386bab1c269f0bb6b46f89", "lon": -77.02698583333333}, {"is_reserved": 0, "lat": 38.92543933333333, "is_disabled": 0, "type": "electric_scooter", "fusion_lat": 0.0, "bike_id": "083614dfb547df2a2d380f983d157439", "rental_uris": {"ios": "https://dc.lft.to/lastmile_qr_scan", "android": "https://dc.lft.to/lastmile_qr_scan"}, "fusion_lon": 0.0, "name": "083614dfb547df2a2d380f983d157439", "lon": -77.04077066666666}, {"is_reserved": 0, "lat": 38.993324666666666, "is_disabled": 0, "type": "electric_bike", "fusion_lat": 0.0, "bike_id": "9383779909607f0014733278c3b7610a", "rental_uris": {"ios": "https://dc.lft.to/lastmile_qr_scan", "android": "https://dc.lft.to/lastmile_qr_scan"}, "fusion_lon": 0.0, "name": "9383779909607f0014733278c3b7610a", "lon": -77.11570033333334}, {"is_reserved": 0, "lat": 38.86646183333333, "is_disabled": 0, "type": "electric_scooter", "fusion_lat": 0.0, "bike_id": "3af90ef8b7e639b852904963c0eb41ba", "rental_uris": {"ios": "https://dc.lft.to/lastmile_qr_scan", "android": "https://dc.lft.to/lastmile_qr_scan"}, "fusion_lon": 0.0, "name": "3af90ef8b7e639b852904963c0eb41ba", "lon": -76.98890683333333}, {"is_reserved": 0, "lat": 38.911145833333336, "is_disabled": 0, "type": "electric_scooter", "fusion_lat": 0.0, "bike_id": "6cf329cb0dc4b8a0bf4131472dab8db0", "rental_uris": {"ios": "https://dc.lft.to/lastmile_qr_scan", "android": "https://dc.lft.to/lastmile_qr_scan"}, "fusion_lon": 0.0, "name": "6cf329cb0dc4b8a0bf4131472dab8db0", "lon": -77.03780733333333}, {"is_reserved": 0, "lat": 38.8961435, "is_disabled": 0, "type": "electric_scooter", "fusion_lat": 0.0, "bike_id": "8317358d62a3f8c494e42f3c5763b159", "rental_uris": {"ios": "https://dc.lft.to/lastmile_qr_scan", "android": "https://dc.lft.to/lastmile_qr_scan"}, "fusion_lon": 0.0, "name": "8317358d62a3f8c494e42f3c5763b159", "lon": -77.02628883333334}, {"is_reserved": 0, "lat": 38.9299055, "is_disabled": 0, "type": "electric_scooter", "fusion_lat": 0.0, "bike_id": "0d992833c10d68d81f042f2dfafa9fec", "rental_uris": {"ios": "https://dc.lft.to/lastmile_qr_scan", "android": "https://dc.lft.to/lastmile_qr_scan"}, "fusion_lon": 0.0, "name": "0d992833c10d68d81f042f2dfafa9fec", "lon": -77.05506983333333}, {"is_reserved": 0, "lat": 38.89601716666667, "is_disabled": 0, "type": "electric_scooter", "fusion_lat": 0.0, "bike_id": "893575b54b67cc6bbfee17e438cca8f5", "rental_uris": {"ios": "https://dc.lft.to/lastmile_qr_scan", "android": "https://dc.lft.to/lastmile_qr_scan"}, "fusion_lon": 0.0, "name": "893575b54b67cc6bbfee17e438cca8f5", "lon": -77.02715316666666}, {"is_reserved": 0, "lat": 38.9164835, "is_disabled": 0, "type": "electric_scooter", "fusion_lat": 0.0, "bike_id": "4dd70f6bdbb0d2a8c3a725486ed369b0", "rental_uris": {"ios": "https://dc.lft.to/lastmile_qr_scan", "android": "https://dc.lft.to/lastmile_qr_scan"}, "fusion_lon": 0.0, "name": "4dd70f6bdbb0d2a8c3a725486ed369b0", "lon": -77.04174033333334}, {"is_reserved": 0, "lat": 38.884131, "is_disabled": 0, "type": "electric_scooter", "fusion_lat": 0.0, "bike_id": "bb2976bf300730b00cf6744cdcf9a28a", "rental_uris": {"ios": "https://dc.lft.to/lastmile_qr_scan", "android": "https://dc.lft.to/lastmile_qr_scan"}, "fusion_lon": 0.0, "name": "bb2976bf300730b00cf6744cdcf9a28a", "lon": -77.03047933333333}, {"is_reserved": 0, "lat": 38.9172095, "is_disabled": 0, "type": "electric_scooter", "fusion_lat": 0.0, "bike_id": "d1fc9a028fb15f990ff58da10588ea42", "rental_uris": {"ios": "https://dc.lft.to/lastmile_qr_scan", "android": "https://dc.lft.to/lastmile_qr_scan"}, "fusion_lon": 0.0, "name": "d1fc9a028fb15f990ff58da10588ea42", "lon": -77.02890483333333}, {"is_reserved": 0, "lat": 38.896356833333336, "is_disabled": 0, "type": "electric_scooter", "fusion_lat": 0.0, "bike_id": "8deacada0e26912d0f042211642efad9", "rental_uris": {"ios": "https://dc.lft.to/lastmile_qr_scan", "android": "https://dc.lft.to/lastmile_qr_scan"}, "fusion_lon": 0.0, "name": "8deacada0e26912d0f042211642efad9", "lon": -77.02414483333334}, {"is_reserved": 0, "lat": 38.86256616666667, "is_disabled": 0, "type": "electric_scooter", "fusion_lat": 0.0, "bike_id": "15d272c4b9d91761a412015b994e1ae8", "rental_uris": {"ios": "https://dc.lft.to/lastmile_qr_scan", "android": "https://dc.lft.to/lastmile_qr_scan"}, "fusion_lon": 0.0, "name": "15d272c4b9d91761a412015b994e1ae8", "lon": -76.9955835}, {"is_reserved": 0, "lat": 38.9058255, "is_disabled": 0, "type": "electric_scooter", "fusion_lat": 0.0, "bike_id": "2be0f3d47d65b53a0d01c1b514606137", "rental_uris": {"ios": "https://dc.lft.to/lastmile_qr_scan", "android": "https://dc.lft.to/lastmile_qr_scan"}, "fusion_lon": 0.0, "name": "2be0f3d47d65b53a0d01c1b514606137", "lon": -77.0412545}, {"is_reserved": 0, "lat": 38.898388833333335, "is_disabled": 0, "type": "electric_scooter", "fusion_lat": 0.0, "bike_id": "7881214b93e75efa797a3b3975d4264c", "rental_uris": {"ios": "https://dc.lft.to/lastmile_qr_scan", "android": "https://dc.lft.to/lastmile_qr_scan"}, "fusion_lon": 0.0, "name": "7881214b93e75efa797a3b3975d4264c", "lon": -77.044096}, {"is_reserved": 0, "lat": 38.92306966666666, "is_disabled": 0, "type": "electric_scooter", "fusion_lat": 0.0, "bike_id": "315282e3943b33dfe2ad9a467f3609af", "rental_uris": {"ios": "https://dc.lft.to/lastmile_qr_scan", "android": "https://dc.lft.to/lastmile_qr_scan"}, "fusion_lon": 0.0, "name": "315282e3943b33dfe2ad9a467f3609af", "lon": -77.0225695}, {"is_reserved": 0, "lat": 38.84433216666667, "is_disabled": 0, "type": "electric_scooter", "fusion_lat": 0.0, "bike_id": "4f5f45b153e69c9a5ff9491da81a1c7d", "rental_uris": {"ios": "https://dc.lft.to/lastmile_qr_scan", "android": "https://dc.lft.to/lastmile_qr_scan"}, "fusion_lon": 0.0, "name": "4f5f45b153e69c9a5ff9491da81a1c7d", "lon": -76.99779816666667}, {"is_reserved": 0, "lat": 38.88268033333333, "is_disabled": 0, "type": "electric_scooter", "fusion_lat": 0.0, "bike_id": "29a083190b6785f45d9d8c03dd59808d", "rental_uris": {"ios": "https://dc.lft.to/lastmile_qr_scan", "android": "https://dc.lft.to/lastmile_qr_scan"}, "fusion_lon": 0.0, "name": "29a083190b6785f45d9d8c03dd59808d", "lon": -76.99560266666667}, {"is_reserved": 0, "lat": 38.90314516666667, "is_disabled": 0, "type": "electric_scooter", "fusion_lat": 0.0, "bike_id": "8460a80a249d52e8ed1552e3b14eea76", "rental_uris": {"ios": "https://dc.lft.to/lastmile_qr_scan", "android": "https://dc.lft.to/lastmile_qr_scan"}, "fusion_lon": 0.0, "name": "8460a80a249d52e8ed1552e3b14eea76", "lon": -77.02142783333333}, {"is_reserved": 0, "lat": 38.86886533333333, "is_disabled": 0, "type": "electric_scooter", "fusion_lat": 0.0, "bike_id": "69de647b781ab715452403940f45b797", "rental_uris": {"ios": "https://dc.lft.to/lastmile_qr_scan", "android": "https://dc.lft.to/lastmile_qr_scan"}, "fusion_lon": 0.0, "name": "69de647b781ab715452403940f45b797", "lon": -76.98315016666666}, {"is_reserved": 0, "lat": 38.930229, "is_disabled": 0, "type": "electric_scooter", "fusion_lat": 0.0, "bike_id": "4c421684043394b8c5af36508eb1763f", "rental_uris": {"ios": "https://dc.lft.to/lastmile_qr_scan", "android": "https://dc.lft.to/lastmile_qr_scan"}, "fusion_lon": 0.0, "name": "4c421684043394b8c5af36508eb1763f", "lon": -77.02014283333334}, {"is_reserved": 0, "lat": 38.925099, "is_disabled": 0, "type": "electric_scooter", "fusion_lat": 0.0, "bike_id": "2f78650a4da7f9670a46024b89d8660f", "rental_uris": {"ios": "https://dc.lft.to/lastmile_qr_scan", "android": "https://dc.lft.to/lastmile_qr_scan"}, "fusion_lon": 0.0, "name": "2f78650a4da7f9670a46024b89d8660f", "lon": -77.03816033333334}, {"is_reserved": 0, "lat": 38.90665383333334, "is_disabled": 0, "type": "electric_scooter", "fusion_lat": 0.0, "bike_id": "04143e1c794e3846d1582e1496789905", "rental_uris": {"ios": "https://dc.lft.to/lastmile_qr_scan", "android": "https://dc.lft.to/lastmile_qr_scan"}, "fusion_lon": 0.0, "name": "04143e1c794e3846d1582e1496789905", "lon": -77.02699016666666}, {"is_reserved": 0, "lat": 38.93823733333333, "is_disabled": 0, "type": "electric_scooter", "fusion_lat": 0.0, "bike_id": "4e0485a8397845cdf4546c42c4c3819b", "rental_uris": {"ios": "https://dc.lft.to/lastmile_qr_scan", "android": "https://dc.lft.to/lastmile_qr_scan"}, "fusion_lon": 0.0, "name": "4e0485a8397845cdf4546c42c4c3819b", "lon": -76.98616716666666}, {"is_reserved": 0, "lat": 38.90357983333333, "is_disabled": 0, "type": "electric_scooter", "fusion_lat": 0.0, "bike_id": "c9cbf3d57d0fb3d4795edaa02704ada4", "rental_uris": {"ios": "https://dc.lft.to/lastmile_qr_scan", "android": "https://dc.lft.to/lastmile_qr_scan"}, "fusion_lon": 0.0, "name": "c9cbf3d57d0fb3d4795edaa02704ada4", "lon": -76.99610266666667}, {"is_reserved": 0, "lat": 38.9147785, "is_disabled": 0, "type": "electric_scooter", "fusion_lat": 0.0, "bike_id": "51917a9cd230599d50051cd0034444a0", "rental_uris": {"ios": "https://dc.lft.to/lastmile_qr_scan", "android": "https://dc.lft.to/lastmile_qr_scan"}, "fusion_lon": 0.0, "name": "51917a9cd230599d50051cd0034444a0", "lon": -77.03216983333333}, {"is_reserved": 0, "lat": 38.9272305, "is_disabled": 0, "type": "electric_scooter", "fusion_lat": 0.0, "bike_id": "716b3dac49306114bce517b1ec23a2bd", "rental_uris": {"ios": "https://dc.lft.to/lastmile_qr_scan", "android": "https://dc.lft.to/lastmile_qr_scan"}, "fusion_lon": 0.0, "name": "716b3dac49306114bce517b1ec23a2bd", "lon": -77.03668533333334}, {"is_reserved": 0, "lat": 38.915205666666665, "is_disabled": 0, "type": "electric_scooter", "fusion_lat": 0.0, "bike_id": "497d10158c8536d31ba8327e53d3b45d", "rental_uris": {"ios": "https://dc.lft.to/lastmile_qr_scan", "android": "https://dc.lft.to/lastmile_qr_scan"}, "fusion_lon": 0.0, "name": "497d10158c8536d31ba8327e53d3b45d", "lon": -77.01844766666666}, {"is_reserved": 0, "lat": 38.9287455, "is_disabled": 0, "type": "electric_scooter", "fusion_lat": 0.0, "bike_id": "9d50627741ef249d34b881df29c8a0e2", "rental_uris": {"ios": "https://dc.lft.to/lastmile_qr_scan", "android": "https://dc.lft.to/lastmile_qr_scan"}, "fusion_lon": 0.0, "name": "9d50627741ef249d34b881df29c8a0e2", "lon": -77.03175483333334}, {"is_reserved": 0, "lat": 38.929682666666665, "is_disabled": 0, "type": "electric_scooter", "fusion_lat": 0.0, "bike_id": "6bfcc3a9a310af7ead68f3a464559ee5", "rental_uris": {"ios": "https://dc.lft.to/lastmile_qr_scan", "android": "https://dc.lft.to/lastmile_qr_scan"}, "fusion_lon": 0.0, "name": "6bfcc3a9a310af7ead68f3a464559ee5", "lon": -77.03236633333333}, {"is_reserved": 0, "lat": 38.886740833333334, "is_disabled": 0, "type": "electric_scooter", "fusion_lat": 0.0, "bike_id": "61459ea98ab58e1760157f2ab16e1a77", "rental_uris": {"ios": "https://dc.lft.to/lastmile_qr_scan", "android": "https://dc.lft.to/lastmile_qr_scan"}, "fusion_lon": 0.0, "name": "61459ea98ab58e1760157f2ab16e1a77", "lon": -76.936147}, {"is_reserved": 0, "lat": 38.89218783333333, "is_disabled": 0, "type": "electric_scooter", "fusion_lat": 0.0, "bike_id": "5ed3080e1909c17dfe5dbf691399442e", "rental_uris": {"ios": "https://dc.lft.to/lastmile_qr_scan", "android": "https://dc.lft.to/lastmile_qr_scan"}, "fusion_lon": 0.0, "name": "5ed3080e1909c17dfe5dbf691399442e", "lon": -77.04801966666666}, {"is_reserved": 0, "lat": 38.915617, "is_disabled": 0, "type": "electric_scooter", "fusion_lat": 0.0, "bike_id": "ac7cbc667e66167a76ee7997b9cf426f", "rental_uris": {"ios": "https://dc.lft.to/lastmile_qr_scan", "android": "https://dc.lft.to/lastmile_qr_scan"}, "fusion_lon": 0.0, "name": "ac7cbc667e66167a76ee7997b9cf426f", "lon": -77.025138}, {"is_reserved": 0, "lat": 38.94953533333333, "is_disabled": 0, "type": "electric_scooter", "fusion_lat": 0.0, "bike_id": "0d89d9d145c038497244c048494ecdcc", "rental_uris": {"ios": "https://dc.lft.to/lastmile_qr_scan", "android": "https://dc.lft.to/lastmile_qr_scan"}, "fusion_lon": 0.0, "name": "0d89d9d145c038497244c048494ecdcc", "lon": -77.02722583333333}, {"is_reserved": 0, "lat": 38.928727, "is_disabled": 0, "type": "electric_scooter", "fusion_lat": 0.0, "bike_id": "391bb997324b960edbf2b994d8889031", "rental_uris": {"ios": "https://dc.lft.to/lastmile_qr_scan", "android": "https://dc.lft.to/lastmile_qr_scan"}, "fusion_lon": 0.0, "name": "391bb997324b960edbf2b994d8889031", "lon": -77.02963766666667}, {"is_reserved": 0, "lat": 38.897341, "is_disabled": 0, "type": "electric_scooter", "fusion_lat": 0.0, "bike_id": "23b3e115af3aa3fffecc29bc957e7e29", "rental_uris": {"ios": "https://dc.lft.to/lastmile_qr_scan", "android": "https://dc.lft.to/lastmile_qr_scan"}, "fusion_lon": 0.0, "name": "23b3e115af3aa3fffecc29bc957e7e29", "lon": -77.02690766666667}, {"is_reserved": 0, "lat": 38.912227, "is_disabled": 0, "type": "electric_scooter", "fusion_lat": 0.0, "bike_id": "07469af999a424cc74ed09a5de45d878", "rental_uris": {"ios": "https://dc.lft.to/lastmile_qr_scan", "android": "https://dc.lft.to/lastmile_qr_scan"}, "fusion_lon": 0.0, "name": "07469af999a424cc74ed09a5de45d878", "lon": -77.03201533333333}, {"is_reserved": 0, "lat": 38.908995166666664, "is_disabled": 0, "type": "electric_scooter", "fusion_lat": 0.0, "bike_id": "0140f62e86b74b1af121bc7c5782dd15", "rental_uris": {"ios": "https://dc.lft.to/lastmile_qr_scan", "android": "https://dc.lft.to/lastmile_qr_scan"}, "fusion_lon": 0.0, "name": "0140f62e86b74b1af121bc7c5782dd15", "lon": -76.99782716666667}, {"is_reserved": 0, "lat": 38.85879633333333, "is_disabled": 0, "type": "electric_scooter", "fusion_lat": 0.0, "bike_id": "84b5ce462346104bb2de89248de9bf6e", "rental_uris": {"ios": "https://dc.lft.to/lastmile_qr_scan", "android": "https://dc.lft.to/lastmile_qr_scan"}, "fusion_lon": 0.0, "name": "84b5ce462346104bb2de89248de9bf6e", "lon": -76.990087}, {"is_reserved": 0, "lat": 38.957040166666665, "is_disabled": 0, "type": "electric_scooter", "fusion_lat": 0.0, "bike_id": "191abe999d771c5787f98f4f81019557", "rental_uris": {"ios": "https://dc.lft.to/lastmile_qr_scan", "android": "https://dc.lft.to/lastmile_qr_scan"}, "fusion_lon": 0.0, "name": "191abe999d771c5787f98f4f81019557", "lon": -77.02406866666666}, {"is_reserved": 0, "lat": 38.937258, "is_disabled": 0, "type": "electric_scooter", "fusion_lat": 0.0, "bike_id": "3b4a55fe52ccd4af1a019304d6d3f7b4", "rental_uris": {"ios": "https://dc.lft.to/lastmile_qr_scan", "android": "https://dc.lft.to/lastmile_qr_scan"}, "fusion_lon": 0.0, "name": "3b4a55fe52ccd4af1a019304d6d3f7b4", "lon": -77.03278016666667}, {"is_reserved": 0, "lat": 38.88723733333333, "is_disabled": 0, "type": "electric_scooter", "fusion_lat": 0.0, "bike_id": "26cf1179ab09c25d8bad6127accb2f3e", "rental_uris": {"ios": "https://dc.lft.to/lastmile_qr_scan", "android": "https://dc.lft.to/lastmile_qr_scan"}, "fusion_lon": 0.0, "name": "26cf1179ab09c25d8bad6127accb2f3e", "lon": -76.954972}, {"is_reserved": 0, "lat": 38.867348166666666, "is_disabled": 0, "type": "electric_scooter", "fusion_lat": 0.0, "bike_id": "cff702176eb7ee638968ae820f1df203", "rental_uris": {"ios": "https://dc.lft.to/lastmile_qr_scan", "android": "https://dc.lft.to/lastmile_qr_scan"}, "fusion_lon": 0.0, "name": "cff702176eb7ee638968ae820f1df203", "lon": -76.986519}, {"is_reserved": 0, "lat": 38.9097165, "is_disabled": 0, "type": "electric_scooter", "fusion_lat": 0.0, "bike_id": "fc61b260fdfb718bbd06c8d27da1b7c6", "rental_uris": {"ios": "https://dc.lft.to/lastmile_qr_scan", "android": "https://dc.lft.to/lastmile_qr_scan"}, "fusion_lon": 0.0, "name": "fc61b260fdfb718bbd06c8d27da1b7c6", "lon": -77.034732}, {"is_reserved": 0, "lat": 38.938780333333334, "is_disabled": 0, "type": "electric_scooter", "fusion_lat": 0.0, "bike_id": "721f645020d504bb1071a718df5e034e", "rental_uris": {"ios": "https://dc.lft.to/lastmile_qr_scan", "android": "https://dc.lft.to/lastmile_qr_scan"}, "fusion_lon": 0.0, "name": "721f645020d504bb1071a718df5e034e", "lon": -77.02461966666667}, {"is_reserved": 0, "lat": 38.905629833333336, "is_disabled": 0, "type": "electric_scooter", "fusion_lat": 0.0, "bike_id": "56e182bb83d6303dd65da899bde1a677", "rental_uris": {"ios": "https://dc.lft.to/lastmile_qr_scan", "android": "https://dc.lft.to/lastmile_qr_scan"}, "fusion_lon": 0.0, "name": "56e182bb83d6303dd65da899bde1a677", "lon": -77.00583166666667}, {"is_reserved": 0, "lat": 38.89628316666666, "is_disabled": 0, "type": "electric_scooter", "fusion_lat": 0.0, "bike_id": "74283b6e2047f5fe8d6b9b1b7dfaf0ed", "rental_uris": {"ios": "https://dc.lft.to/lastmile_qr_scan", "android": "https://dc.lft.to/lastmile_qr_scan"}, "fusion_lon": 0.0, "name": "74283b6e2047f5fe8d6b9b1b7dfaf0ed", "lon": -76.95747183333333}, {"is_reserved": 0, "lat": 38.912562333333334, "is_disabled": 0, "type": "electric_scooter", "fusion_lat": 0.0, "bike_id": "f91fdde41b6fa60f2966d9f2df5a22d8", "rental_uris": {"ios": "https://dc.lft.to/lastmile_qr_scan", "android": "https://dc.lft.to/lastmile_qr_scan"}, "fusion_lon": 0.0, "name": "f91fdde41b6fa60f2966d9f2df5a22d8", "lon": -77.0435185}, {"is_reserved": 0, "lat": 38.903141833333336, "is_disabled": 0, "type": "electric_scooter", "fusion_lat": 0.0, "bike_id": "abf246cca587c663f81e125f2f078009", "rental_uris": {"ios": "https://dc.lft.to/lastmile_qr_scan", "android": "https://dc.lft.to/lastmile_qr_scan"}, "fusion_lon": 0.0, "name": "abf246cca587c663f81e125f2f078009", "lon": -77.01189216666667}, {"is_reserved": 0, "lat": 38.91032366666666, "is_disabled": 0, "type": "electric_scooter", "fusion_lat": 0.0, "bike_id": "0160e7b8b9b3d33a68064f49ce660539", "rental_uris": {"ios": "https://dc.lft.to/lastmile_qr_scan", "android": "https://dc.lft.to/lastmile_qr_scan"}, "fusion_lon": 0.0, "name": "0160e7b8b9b3d33a68064f49ce660539", "lon": -77.04354616666667}, {"is_reserved": 0, "lat": 38.9248885, "is_disabled": 0, "type": "electric_scooter", "fusion_lat": 0.0, "bike_id": "c5afc08a019d0a92f4baf9af809112f2", "rental_uris": {"ios": "https://dc.lft.to/lastmile_qr_scan", "android": "https://dc.lft.to/lastmile_qr_scan"}, "fusion_lon": 0.0, "name": "c5afc08a019d0a92f4baf9af809112f2", "lon": -77.0218175}, {"is_reserved": 0, "lat": 38.922985833333335, "is_disabled": 0, "type": "electric_scooter", "fusion_lat": 0.0, "bike_id": "dbf152deb73d488d6b9678de08e38b23", "rental_uris": {"ios": "https://dc.lft.to/lastmile_qr_scan", "android": "https://dc.lft.to/lastmile_qr_scan"}, "fusion_lon": 0.0, "name": "dbf152deb73d488d6b9678de08e38b23", "lon": -77.042717}, {"is_reserved": 0, "lat": 38.9084035, "is_disabled": 0, "type": "electric_scooter", "fusion_lat": 0.0, "bike_id": "182ae1b4a53d9cc0f4d40d5a48eed92d", "rental_uris": {"ios": "https://dc.lft.to/lastmile_qr_scan", "android": "https://dc.lft.to/lastmile_qr_scan"}, "fusion_lon": 0.0, "name": "182ae1b4a53d9cc0f4d40d5a48eed92d", "lon": -77.04246066666667}, {"is_reserved": 0, "lat": 38.842816166666665, "is_disabled": 0, "type": "electric_bike", "fusion_lat": 0.0, "bike_id": "dcb125e09feb707c52906221076ac178", "rental_uris": {"ios": "https://dc.lft.to/lastmile_qr_scan", "android": "https://dc.lft.to/lastmile_qr_scan"}, "fusion_lon": 0.0, "name": "dcb125e09feb707c52906221076ac178", "lon": -77.04531283333333}, {"is_reserved": 0, "lat": 38.897461, "is_disabled": 0, "type": "electric_scooter", "fusion_lat": 0.0, "bike_id": "096b53c8bffd8861b828ebb1e5babc2a", "rental_uris": {"ios": "https://dc.lft.to/lastmile_qr_scan", "android": "https://dc.lft.to/lastmile_qr_scan"}, "fusion_lon": 0.0, "name": "096b53c8bffd8861b828ebb1e5babc2a", "lon": -77.02997516666667}, {"is_reserved": 0, "lat": 38.9507205, "is_disabled": 0, "type": "electric_scooter", "fusion_lat": 0.0, "bike_id": "7fa06798d83c17189789837394cdab27", "rental_uris": {"ios": "https://dc.lft.to/lastmile_qr_scan", "android": "https://dc.lft.to/lastmile_qr_scan"}, "fusion_lon": 0.0, "name": "7fa06798d83c17189789837394cdab27", "lon": -77.03103233333333}, {"is_reserved": 0, "lat": 38.907982833333335, "is_disabled": 0, "type": "electric_scooter", "fusion_lat": 0.0, "bike_id": "7986fa30abe637189346ee206a717618", "rental_uris": {"ios": "https://dc.lft.to/lastmile_qr_scan", "android": "https://dc.lft.to/lastmile_qr_scan"}, "fusion_lon": 0.0, "name": "7986fa30abe637189346ee206a717618", "lon": -77.08401283333333}, {"is_reserved": 0, "lat": 38.90061466666667, "is_disabled": 0, "type": "electric_scooter", "fusion_lat": 0.0, "bike_id": "76a1f3084c1b37858ec953fcc209120d", "rental_uris": {"ios": "https://dc.lft.to/lastmile_qr_scan", "android": "https://dc.lft.to/lastmile_qr_scan"}, "fusion_lon": 0.0, "name": "76a1f3084c1b37858ec953fcc209120d", "lon": -76.99842716666667}, {"is_reserved": 0, "lat": 38.90375233333334, "is_disabled": 0, "type": "electric_scooter", "fusion_lat": 0.0, "bike_id": "2353456737879d901b10d0ef8b2735f8", "rental_uris": {"ios": "https://dc.lft.to/lastmile_qr_scan", "android": "https://dc.lft.to/lastmile_qr_scan"}, "fusion_lon": 0.0, "name": "2353456737879d901b10d0ef8b2735f8", "lon": -77.0532005}, {"is_reserved": 0, "lat": 38.878300333333335, "is_disabled": 0, "type": "electric_scooter", "fusion_lat": 0.0, "bike_id": "5f58d0f860c71e32edf3f807c074e66b", "rental_uris": {"ios": "https://dc.lft.to/lastmile_qr_scan", "android": "https://dc.lft.to/lastmile_qr_scan"}, "fusion_lon": 0.0, "name": "5f58d0f860c71e32edf3f807c074e66b", "lon": -76.98611783333334}, {"is_reserved": 0, "lat": 38.862081, "is_disabled": 0, "type": "electric_bike", "fusion_lat": 0.0, "bike_id": "579ae78c364282769c84749b86c49364", "rental_uris": {"ios": "https://dc.lft.to/lastmile_qr_scan", "android": "https://dc.lft.to/lastmile_qr_scan"}, "fusion_lon": 0.0, "name": "579ae78c364282769c84749b86c49364", "lon": -76.99778616666667}, {"is_reserved": 0, "lat": 38.96869733333333, "is_disabled": 0, "type": "electric_bike", "fusion_lat": 0.0, "bike_id": "b2020e004adda2433b7950f49a3c53fb", "rental_uris": {"ios": "https://dc.lft.to/lastmile_qr_scan", "android": "https://dc.lft.to/lastmile_qr_scan"}, "fusion_lon": 0.0, "name": "b2020e004adda2433b7950f49a3c53fb", "lon": -77.0651045}, {"is_reserved": 0, "lat": 38.90656366666666, "is_disabled": 0, "type": "electric_scooter", "fusion_lat": 0.0, "bike_id": "00b7e78695c16d6121997fb060e9a981", "rental_uris": {"ios": "https://dc.lft.to/lastmile_qr_scan", "android": "https://dc.lft.to/lastmile_qr_scan"}, "fusion_lon": 0.0, "name": "00b7e78695c16d6121997fb060e9a981", "lon": -77.03893783333334}, {"is_reserved": 0, "lat": 38.8460765, "is_disabled": 0, "type": "electric_bike", "fusion_lat": 0.0, "bike_id": "6d9a0afe1659871a52ff582a242a1bcc", "rental_uris": {"ios": "https://dc.lft.to/lastmile_qr_scan", "android": "https://dc.lft.to/lastmile_qr_scan"}, "fusion_lon": 0.0, "name": "6d9a0afe1659871a52ff582a242a1bcc", "lon": -76.969103}, {"is_reserved": 0, "lat": 38.928769833333334, "is_disabled": 0, "type": "electric_scooter", "fusion_lat": 0.0, "bike_id": "e616050a5793ac2a1f350bd0c9f79223", "rental_uris": {"ios": "https://dc.lft.to/lastmile_qr_scan", "android": "https://dc.lft.to/lastmile_qr_scan"}, "fusion_lon": 0.0, "name": "e616050a5793ac2a1f350bd0c9f79223", "lon": -77.01371883333333}, {"is_reserved": 0, "lat": 38.8934505, "is_disabled": 0, "type": "electric_scooter", "fusion_lat": 0.0, "bike_id": "140cd3be01361ebb6ba626b16b20293e", "rental_uris": {"ios": "https://dc.lft.to/lastmile_qr_scan", "android": "https://dc.lft.to/lastmile_qr_scan"}, "fusion_lon": 0.0, "name": "140cd3be01361ebb6ba626b16b20293e", "lon": -76.94938266666666}, {"is_reserved": 0, "lat": 38.900348666666666, "is_disabled": 0, "type": "electric_scooter", "fusion_lat": 0.0, "bike_id": "6f95fd1ca8db89965feb3c65a41b2a8d", "rental_uris": {"ios": "https://dc.lft.to/lastmile_qr_scan", "android": "https://dc.lft.to/lastmile_qr_scan"}, "fusion_lon": 0.0, "name": "6f95fd1ca8db89965feb3c65a41b2a8d", "lon": -77.03266966666666}, {"is_reserved": 0, "lat": 38.892205, "is_disabled": 0, "type": "electric_scooter", "fusion_lat": 0.0, "bike_id": "c3c3f177e552bf41521f0e13ac6f0d37", "rental_uris": {"ios": "https://dc.lft.to/lastmile_qr_scan", "android": "https://dc.lft.to/lastmile_qr_scan"}, "fusion_lon": 0.0, "name": "c3c3f177e552bf41521f0e13ac6f0d37", "lon": -77.04688083333333}, {"is_reserved": 0, "lat": 38.917910166666665, "is_disabled": 0, "type": "electric_bike", "fusion_lat": 0.0, "bike_id": "58c177128235ebe27936f7930b8d6d8a", "rental_uris": {"ios": "https://dc.lft.to/lastmile_qr_scan", "android": "https://dc.lft.to/lastmile_qr_scan"}, "fusion_lon": 0.0, "name": "58c177128235ebe27936f7930b8d6d8a", "lon": -77.22350083333333}, {"is_reserved": 0, "lat": 38.902637, "is_disabled": 0, "type": "electric_scooter", "fusion_lat": 0.0, "bike_id": "82baa2675f13b9c4298e42083d25f6a2", "rental_uris": {"ios": "https://dc.lft.to/lastmile_qr_scan", "android": "https://dc.lft.to/lastmile_qr_scan"}, "fusion_lon": 0.0, "name": "82baa2675f13b9c4298e42083d25f6a2", "lon": -77.05316516666667}, {"is_reserved": 0, "lat": 38.9353355, "is_disabled": 0, "type": "electric_scooter", "fusion_lat": 0.0, "bike_id": "0e7a347a7424bf40e8f7f23741156aa0", "rental_uris": {"ios": "https://dc.lft.to/lastmile_qr_scan", "android": "https://dc.lft.to/lastmile_qr_scan"}, "fusion_lon": 0.0, "name": "0e7a347a7424bf40e8f7f23741156aa0", "lon": -77.02352216666667}, {"is_reserved": 0, "lat": 38.9036265, "is_disabled": 0, "type": "electric_scooter", "fusion_lat": 0.0, "bike_id": "99050931fcc8209eb02a8877ea7b19e5", "rental_uris": {"ios": "https://dc.lft.to/lastmile_qr_scan", "android": "https://dc.lft.to/lastmile_qr_scan"}, "fusion_lon": 0.0, "name": "99050931fcc8209eb02a8877ea7b19e5", "lon": -76.9986315}, {"is_reserved": 0, "lat": 38.90300416666667, "is_disabled": 0, "type": "electric_scooter", "fusion_lat": 0.0, "bike_id": "b821672195422eb19aa39ad49ffc3b32", "rental_uris": {"ios": "https://dc.lft.to/lastmile_qr_scan", "android": "https://dc.lft.to/lastmile_qr_scan"}, "fusion_lon": 0.0, "name": "b821672195422eb19aa39ad49ffc3b32", "lon": -77.038374}, {"is_reserved": 0, "lat": 38.912576333333334, "is_disabled": 0, "type": "electric_scooter", "fusion_lat": 0.0, "bike_id": "2aa8acf3e65084a032aa311476542131", "rental_uris": {"ios": "https://dc.lft.to/lastmile_qr_scan", "android": "https://dc.lft.to/lastmile_qr_scan"}, "fusion_lon": 0.0, "name": "2aa8acf3e65084a032aa311476542131", "lon": -77.03722883333333}, {"is_reserved": 0, "lat": 38.9037545, "is_disabled": 0, "type": "electric_scooter", "fusion_lat": 0.0, "bike_id": "adeac0935167aaab7566592629be1584", "rental_uris": {"ios": "https://dc.lft.to/lastmile_qr_scan", "android": "https://dc.lft.to/lastmile_qr_scan"}, "fusion_lon": 0.0, "name": "adeac0935167aaab7566592629be1584", "lon": -77.01754383333333}, {"is_reserved": 0, "lat": 38.89344466666667, "is_disabled": 0, "type": "electric_scooter", "fusion_lat": 0.0, "bike_id": "65076358b68580b8f041cad7983644cd", "rental_uris": {"ios": "https://dc.lft.to/lastmile_qr_scan", "android": "https://dc.lft.to/lastmile_qr_scan"}, "fusion_lon": 0.0, "name": "65076358b68580b8f041cad7983644cd", "lon": -77.01374666666666}, {"is_reserved": 0, "lat": 38.8921985, "is_disabled": 0, "type": "electric_scooter", "fusion_lat": 0.0, "bike_id": "cc732247dce4b8cab508363938cab00e", "rental_uris": {"ios": "https://dc.lft.to/lastmile_qr_scan", "android": "https://dc.lft.to/lastmile_qr_scan"}, "fusion_lon": 0.0, "name": "cc732247dce4b8cab508363938cab00e", "lon": -77.0221935}, {"is_reserved": 0, "lat": 38.92863, "is_disabled": 0, "type": "electric_scooter", "fusion_lat": 0.0, "bike_id": "a88f62a6e739bf4248e718933d2d4b34", "rental_uris": {"ios": "https://dc.lft.to/lastmile_qr_scan", "android": "https://dc.lft.to/lastmile_qr_scan"}, "fusion_lon": 0.0, "name": "a88f62a6e739bf4248e718933d2d4b34", "lon": -77.03393533333333}, {"is_reserved": 0, "lat": 38.90620366666667, "is_disabled": 0, "type": "electric_scooter", "fusion_lat": 0.0, "bike_id": "cd8bfa42b5a42eb0d67b2551f91e9dc4", "rental_uris": {"ios": "https://dc.lft.to/lastmile_qr_scan", "android": "https://dc.lft.to/lastmile_qr_scan"}, "fusion_lon": 0.0, "name": "cd8bfa42b5a42eb0d67b2551f91e9dc4", "lon": -77.0346895}, {"is_reserved": 0, "lat": 38.910511666666665, "is_disabled": 0, "type": "electric_scooter", "fusion_lat": 0.0, "bike_id": "9dc3e955961543a71491730dcbe5b7c0", "rental_uris": {"ios": "https://dc.lft.to/lastmile_qr_scan", "android": "https://dc.lft.to/lastmile_qr_scan"}, "fusion_lon": 0.0, "name": "9dc3e955961543a71491730dcbe5b7c0", "lon": -77.041134}, {"is_reserved": 0, "lat": 38.9237265, "is_disabled": 0, "type": "electric_scooter", "fusion_lat": 0.0, "bike_id": "98fd67e63bb5f4c52b37cea531253a62", "rental_uris": {"ios": "https://dc.lft.to/lastmile_qr_scan", "android": "https://dc.lft.to/lastmile_qr_scan"}, "fusion_lon": 0.0, "name": "98fd67e63bb5f4c52b37cea531253a62", "lon": -77.031343}, {"is_reserved": 0, "lat": 38.901255, "is_disabled": 0, "type": "electric_scooter", "fusion_lat": 0.0, "bike_id": "4a3557a42824117271508b84f2f9ae1c", "rental_uris": {"ios": "https://dc.lft.to/lastmile_qr_scan", "android": "https://dc.lft.to/lastmile_qr_scan"}, "fusion_lon": 0.0, "name": "4a3557a42824117271508b84f2f9ae1c", "lon": -77.026916}, {"is_reserved": 0, "lat": 38.83808166666667, "is_disabled": 0, "type": "electric_bike", "fusion_lat": 0.0, "bike_id": "c9eea8442502397583abddbba8cffdf3", "rental_uris": {"ios": "https://dc.lft.to/lastmile_qr_scan", "android": "https://dc.lft.to/lastmile_qr_scan"}, "fusion_lon": 0.0, "name": "c9eea8442502397583abddbba8cffdf3", "lon": -77.09528366666666}, {"is_reserved": 0, "lat": 38.91099666666667, "is_disabled": 0, "type": "electric_scooter", "fusion_lat": 0.0, "bike_id": "ec6c5d1ebaa4bec5b634f604ee907aea", "rental_uris": {"ios": "https://dc.lft.to/lastmile_qr_scan", "android": "https://dc.lft.to/lastmile_qr_scan"}, "fusion_lon": 0.0, "name": "ec6c5d1ebaa4bec5b634f604ee907aea", "lon": -77.04830166666666}, {"is_reserved": 0, "lat": 38.931466666666665, "is_disabled": 0, "type": "electric_bike", "fusion_lat": 0.0, "bike_id": "8e2c4f90f831b52b1f7058f22d955f7b", "rental_uris": {"ios": "https://dc.lft.to/lastmile_qr_scan", "android": "https://dc.lft.to/lastmile_qr_scan"}, "fusion_lon": 0.0, "name": "8e2c4f90f831b52b1f7058f22d955f7b", "lon": -77.0784705}, {"is_reserved": 0, "lat": 38.90039, "is_disabled": 0, "type": "electric_scooter", "fusion_lat": 0.0, "bike_id": "5b6e69c1a72d8283d12ef26470b0f757", "rental_uris": {"ios": "https://dc.lft.to/lastmile_qr_scan", "android": "https://dc.lft.to/lastmile_qr_scan"}, "fusion_lon": 0.0, "name": "5b6e69c1a72d8283d12ef26470b0f757", "lon": -76.993783}, {"is_reserved": 0, "lat": 38.87694583333333, "is_disabled": 0, "type": "electric_scooter", "fusion_lat": 0.0, "bike_id": "b6051b75a4a6aafca78be55eb1a319a8", "rental_uris": {"ios": "https://dc.lft.to/lastmile_qr_scan", "android": "https://dc.lft.to/lastmile_qr_scan"}, "fusion_lon": 0.0, "name": "b6051b75a4a6aafca78be55eb1a319a8", "lon": -77.0176495}, {"is_reserved": 0, "lat": 38.91813, "is_disabled": 0, "type": "electric_scooter", "fusion_lat": 0.0, "bike_id": "c187b8ea5155735ef6dc51a3bfdc1819", "rental_uris": {"ios": "https://dc.lft.to/lastmile_qr_scan", "android": "https://dc.lft.to/lastmile_qr_scan"}, "fusion_lon": 0.0, "name": "c187b8ea5155735ef6dc51a3bfdc1819", "lon": -77.02719216666667}, {"is_reserved": 0, "lat": 38.923191333333335, "is_disabled": 0, "type": "electric_scooter", "fusion_lat": 0.0, "bike_id": "1cf28628b59b13e79ad39eda55385ecc", "rental_uris": {"ios": "https://dc.lft.to/lastmile_qr_scan", "android": "https://dc.lft.to/lastmile_qr_scan"}, "fusion_lon": 0.0, "name": "1cf28628b59b13e79ad39eda55385ecc", "lon": -77.02971333333333}, {"is_reserved": 0, "lat": 38.92646283333333, "is_disabled": 0, "type": "electric_scooter", "fusion_lat": 0.0, "bike_id": "33110c9db4fc26b2743713b4a93a4d09", "rental_uris": {"ios": "https://dc.lft.to/lastmile_qr_scan", "android": "https://dc.lft.to/lastmile_qr_scan"}, "fusion_lon": 0.0, "name": "33110c9db4fc26b2743713b4a93a4d09", "lon": -77.03702133333333}, {"is_reserved": 0, "lat": 38.900213, "is_disabled": 0, "type": "electric_scooter", "fusion_lat": 0.0, "bike_id": "e2dec97193cd87c0cf6de44523d502fa", "rental_uris": {"ios": "https://dc.lft.to/lastmile_qr_scan", "android": "https://dc.lft.to/lastmile_qr_scan"}, "fusion_lon": 0.0, "name": "e2dec97193cd87c0cf6de44523d502fa", "lon": -77.04810933333333}, {"is_reserved": 0, "lat": 38.9195945, "is_disabled": 0, "type": "electric_scooter", "fusion_lat": 0.0, "bike_id": "8118c023a4a5b1fc48ddde0a0f5c4e34", "rental_uris": {"ios": "https://dc.lft.to/lastmile_qr_scan", "android": "https://dc.lft.to/lastmile_qr_scan"}, "fusion_lon": 0.0, "name": "8118c023a4a5b1fc48ddde0a0f5c4e34", "lon": -77.023717}, {"is_reserved": 0, "lat": 38.93605783333334, "is_disabled": 0, "type": "electric_scooter", "fusion_lat": 0.0, "bike_id": "9ba521a0eae475436aa37d113b8ad2d9", "rental_uris": {"ios": "https://dc.lft.to/lastmile_qr_scan", "android": "https://dc.lft.to/lastmile_qr_scan"}, "fusion_lon": 0.0, "name": "9ba521a0eae475436aa37d113b8ad2d9", "lon": -77.05859533333333}, {"is_reserved": 0, "lat": 38.9236635, "is_disabled": 0, "type": "electric_scooter", "fusion_lat": 0.0, "bike_id": "d5a321d8e48c25f1c8f18a4576a0ecb2", "rental_uris": {"ios": "https://dc.lft.to/lastmile_qr_scan", "android": "https://dc.lft.to/lastmile_qr_scan"}, "fusion_lon": 0.0, "name": "d5a321d8e48c25f1c8f18a4576a0ecb2", "lon": -77.02965433333334}, {"is_reserved": 0, "lat": 38.90960316666666, "is_disabled": 0, "type": "electric_scooter", "fusion_lat": 0.0, "bike_id": "631307fe2b290a321978d5746349f36c", "rental_uris": {"ios": "https://dc.lft.to/lastmile_qr_scan", "android": "https://dc.lft.to/lastmile_qr_scan"}, "fusion_lon": 0.0, "name": "631307fe2b290a321978d5746349f36c", "lon": -77.04829283333333}, {"is_reserved": 0, "lat": 38.89352083333333, "is_disabled": 0, "type": "electric_bike", "fusion_lat": 0.0, "bike_id": "998bb15ea375b8967b7c9940b44f3042", "rental_uris": {"ios": "https://dc.lft.to/lastmile_qr_scan", "android": "https://dc.lft.to/lastmile_qr_scan"}, "fusion_lon": 0.0, "name": "998bb15ea375b8967b7c9940b44f3042", "lon": -77.18741783333333}, {"is_reserved": 0, "lat": 38.93874616666667, "is_disabled": 0, "type": "electric_scooter", "fusion_lat": 0.0, "bike_id": "cf94ab956d3e62cfff0662e9ef484f1b", "rental_uris": {"ios": "https://dc.lft.to/lastmile_qr_scan", "android": "https://dc.lft.to/lastmile_qr_scan"}, "fusion_lon": 0.0, "name": "cf94ab956d3e62cfff0662e9ef484f1b", "lon": -77.02462166666666}, {"is_reserved": 0, "lat": 38.903865333333336, "is_disabled": 0, "type": "electric_scooter", "fusion_lat": 0.0, "bike_id": "856ef62558e31512ba2a2059d1b4a30a", "rental_uris": {"ios": "https://dc.lft.to/lastmile_qr_scan", "android": "https://dc.lft.to/lastmile_qr_scan"}, "fusion_lon": 0.0, "name": "856ef62558e31512ba2a2059d1b4a30a", "lon": -77.0445995}, {"is_reserved": 0, "lat": 38.94915916666667, "is_disabled": 0, "type": "electric_bike", "fusion_lat": 0.0, "bike_id": "30d8c338a9ac903da607e9ae0fe11a59", "rental_uris": {"ios": "https://dc.lft.to/lastmile_qr_scan", "android": "https://dc.lft.to/lastmile_qr_scan"}, "fusion_lon": 0.0, "name": "30d8c338a9ac903da607e9ae0fe11a59", "lon": -77.00793783333333}, {"is_reserved": 0, "lat": 38.91187083333333, "is_disabled": 0, "type": "electric_scooter", "fusion_lat": 0.0, "bike_id": "fea66f636e784f7bdf4a9305977ecaa4", "rental_uris": {"ios": "https://dc.lft.to/lastmile_qr_scan", "android": "https://dc.lft.to/lastmile_qr_scan"}, "fusion_lon": 0.0, "name": "fea66f636e784f7bdf4a9305977ecaa4", "lon": -77.00559033333333}, {"is_reserved": 0, "lat": 39.01561866666667, "is_disabled": 0, "type": "electric_bike", "fusion_lat": 0.0, "bike_id": "294735f8e8155f43152a3c6ce74182c7", "rental_uris": {"ios": "https://dc.lft.to/lastmile_qr_scan", "android": "https://dc.lft.to/lastmile_qr_scan"}, "fusion_lon": 0.0, "name": "294735f8e8155f43152a3c6ce74182c7", "lon": -77.0441905}, {"is_reserved": 0, "lat": 38.91116233333333, "is_disabled": 0, "type": "electric_scooter", "fusion_lat": 0.0, "bike_id": "56926767bcb7edc6d4e0bc8046fec33c", "rental_uris": {"ios": "https://dc.lft.to/lastmile_qr_scan", "android": "https://dc.lft.to/lastmile_qr_scan"}, "fusion_lon": 0.0, "name": "56926767bcb7edc6d4e0bc8046fec33c", "lon": -77.04233416666666}, {"is_reserved": 0, "lat": 38.892198, "is_disabled": 0, "type": "electric_scooter", "fusion_lat": 0.0, "bike_id": "987bb96846ebbd5c0c292af783445a3b", "rental_uris": {"ios": "https://dc.lft.to/lastmile_qr_scan", "android": "https://dc.lft.to/lastmile_qr_scan"}, "fusion_lon": 0.0, "name": "987bb96846ebbd5c0c292af783445a3b", "lon": -77.04367066666667}, {"is_reserved": 0, "lat": 38.908255, "is_disabled": 0, "type": "electric_scooter", "fusion_lat": 0.0, "bike_id": "4f26df9adfb97db26c556b91b949ea4b", "rental_uris": {"ios": "https://dc.lft.to/lastmile_qr_scan", "android": "https://dc.lft.to/lastmile_qr_scan"}, "fusion_lon": 0.0, "name": "4f26df9adfb97db26c556b91b949ea4b", "lon": -77.02172783333333}, {"is_reserved": 0, "lat": 38.9225115, "is_disabled": 0, "type": "electric_scooter", "fusion_lat": 0.0, "bike_id": "86114092df588b7cd36349895fb143c3", "rental_uris": {"ios": "https://dc.lft.to/lastmile_qr_scan", "android": "https://dc.lft.to/lastmile_qr_scan"}, "fusion_lon": 0.0, "name": "86114092df588b7cd36349895fb143c3", "lon": -77.03079733333334}, {"is_reserved": 0, "lat": 38.91865966666667, "is_disabled": 0, "type": "electric_bike", "fusion_lat": 0.0, "bike_id": "ae79fea4cf5bac53572fdd2c418a04a6", "rental_uris": {"ios": "https://dc.lft.to/lastmile_qr_scan", "android": "https://dc.lft.to/lastmile_qr_scan"}, "fusion_lon": 0.0, "name": "ae79fea4cf5bac53572fdd2c418a04a6", "lon": -77.02471833333334}, {"is_reserved": 0, "lat": 38.915539833333334, "is_disabled": 0, "type": "electric_scooter", "fusion_lat": 0.0, "bike_id": "95439219dea198290e3ca40a3600ac17", "rental_uris": {"ios": "https://dc.lft.to/lastmile_qr_scan", "android": "https://dc.lft.to/lastmile_qr_scan"}, "fusion_lon": 0.0, "name": "95439219dea198290e3ca40a3600ac17", "lon": -77.03132466666666}, {"is_reserved": 0, "lat": 38.9133095, "is_disabled": 0, "type": "electric_scooter", "fusion_lat": 0.0, "bike_id": "74f5341c2a8d921ebcfeb32c153fd93e", "rental_uris": {"ios": "https://dc.lft.to/lastmile_qr_scan", "android": "https://dc.lft.to/lastmile_qr_scan"}, "fusion_lon": 0.0, "name": "74f5341c2a8d921ebcfeb32c153fd93e", "lon": -77.04274916666667}, {"is_reserved": 0, "lat": 38.92326383333333, "is_disabled": 0, "type": "electric_scooter", "fusion_lat": 0.0, "bike_id": "af18b315a4d66029db1d4e07dda4275a", "rental_uris": {"ios": "https://dc.lft.to/lastmile_qr_scan", "android": "https://dc.lft.to/lastmile_qr_scan"}, "fusion_lon": 0.0, "name": "af18b315a4d66029db1d4e07dda4275a", "lon": -77.0296385}, {"is_reserved": 0, "lat": 38.9382565, "is_disabled": 0, "type": "electric_scooter", "fusion_lat": 0.0, "bike_id": "3ceae64a5e3752a4c12a982edb04752d", "rental_uris": {"ios": "https://dc.lft.to/lastmile_qr_scan", "android": "https://dc.lft.to/lastmile_qr_scan"}, "fusion_lon": 0.0, "name": "3ceae64a5e3752a4c12a982edb04752d", "lon": -76.98616066666666}, {"is_reserved": 0, "lat": 38.915584333333335, "is_disabled": 0, "type": "electric_scooter", "fusion_lat": 0.0, "bike_id": "a0afbfe34a8121c1758e008ff4a06a25", "rental_uris": {"ios": "https://dc.lft.to/lastmile_qr_scan", "android": "https://dc.lft.to/lastmile_qr_scan"}, "fusion_lon": 0.0, "name": "a0afbfe34a8121c1758e008ff4a06a25", "lon": -77.03960616666667}, {"is_reserved": 0, "lat": 38.91639383333333, "is_disabled": 0, "type": "electric_scooter", "fusion_lat": 0.0, "bike_id": "4b450e9ddc2b6624bb6bd4624a7f1436", "rental_uris": {"ios": "https://dc.lft.to/lastmile_qr_scan", "android": "https://dc.lft.to/lastmile_qr_scan"}, "fusion_lon": 0.0, "name": "4b450e9ddc2b6624bb6bd4624a7f1436", "lon": -77.041687}, {"is_reserved": 0, "lat": 38.92705466666666, "is_disabled": 0, "type": "electric_scooter", "fusion_lat": 0.0, "bike_id": "a5107a7142b8c17f2a8f3486ccdcdf2e", "rental_uris": {"ios": "https://dc.lft.to/lastmile_qr_scan", "android": "https://dc.lft.to/lastmile_qr_scan"}, "fusion_lon": 0.0, "name": "a5107a7142b8c17f2a8f3486ccdcdf2e", "lon": -77.02082166666666}, {"is_reserved": 0, "lat": 38.8972, "is_disabled": 0, "type": "electric_scooter", "fusion_lat": 0.0, "bike_id": "ad8cee1137c7ea605ac8f1a8a23a93de", "rental_uris": {"ios": "https://dc.lft.to/lastmile_qr_scan", "android": "https://dc.lft.to/lastmile_qr_scan"}, "fusion_lon": 0.0, "name": "ad8cee1137c7ea605ac8f1a8a23a93de", "lon": -76.99393933333333}, {"is_reserved": 0, "lat": 38.9495585, "is_disabled": 0, "type": "electric_scooter", "fusion_lat": 0.0, "bike_id": "9e2019f2343b39ef79677c5f50315ee4", "rental_uris": {"ios": "https://dc.lft.to/lastmile_qr_scan", "android": "https://dc.lft.to/lastmile_qr_scan"}, "fusion_lon": 0.0, "name": "9e2019f2343b39ef79677c5f50315ee4", "lon": -77.02720733333334}, {"is_reserved": 0, "lat": 38.92166683333333, "is_disabled": 0, "type": "electric_scooter", "fusion_lat": 0.0, "bike_id": "986ed6129003794b1bd3abac6d17e7a5", "rental_uris": {"ios": "https://dc.lft.to/lastmile_qr_scan", "android": "https://dc.lft.to/lastmile_qr_scan"}, "fusion_lon": 0.0, "name": "986ed6129003794b1bd3abac6d17e7a5", "lon": -77.04228433333333}, {"is_reserved": 0, "lat": 38.90583616666667, "is_disabled": 0, "type": "electric_scooter", "fusion_lat": 0.0, "bike_id": "a859749fa7cf73d6e56c1978688301e0", "rental_uris": {"ios": "https://dc.lft.to/lastmile_qr_scan", "android": "https://dc.lft.to/lastmile_qr_scan"}, "fusion_lon": 0.0, "name": "a859749fa7cf73d6e56c1978688301e0", "lon": -77.030739}, {"is_reserved": 0, "lat": 38.901377, "is_disabled": 0, "type": "electric_scooter", "fusion_lat": 0.0, "bike_id": "4274910e91bd54cf74aeaf3989c6f89d", "rental_uris": {"ios": "https://dc.lft.to/lastmile_qr_scan", "android": "https://dc.lft.to/lastmile_qr_scan"}, "fusion_lon": 0.0, "name": "4274910e91bd54cf74aeaf3989c6f89d", "lon": -77.06078983333333}, {"is_reserved": 0, "lat": 38.89678583333333, "is_disabled": 0, "type": "electric_scooter", "fusion_lat": 0.0, "bike_id": "0724dabebbec85cf0472d927a5f168fa", "rental_uris": {"ios": "https://dc.lft.to/lastmile_qr_scan", "android": "https://dc.lft.to/lastmile_qr_scan"}, "fusion_lon": 0.0, "name": "0724dabebbec85cf0472d927a5f168fa", "lon": -77.00497566666667}, {"is_reserved": 0, "lat": 38.8429265, "is_disabled": 0, "type": "electric_scooter", "fusion_lat": 0.0, "bike_id": "67d8b1ef4aa886764dac8d970d642830", "rental_uris": {"ios": "https://dc.lft.to/lastmile_qr_scan", "android": "https://dc.lft.to/lastmile_qr_scan"}, "fusion_lon": 0.0, "name": "67d8b1ef4aa886764dac8d970d642830", "lon": -76.99948083333334}, {"is_reserved": 0, "lat": 38.895054333333334, "is_disabled": 0, "type": "electric_scooter", "fusion_lat": 0.0, "bike_id": "e5bcb88edc186ca632a80bdd4223982f", "rental_uris": {"ios": "https://dc.lft.to/lastmile_qr_scan", "android": "https://dc.lft.to/lastmile_qr_scan"}, "fusion_lon": 0.0, "name": "e5bcb88edc186ca632a80bdd4223982f", "lon": -77.01608866666666}, {"is_reserved": 0, "lat": 38.902978, "is_disabled": 0, "type": "electric_scooter", "fusion_lat": 0.0, "bike_id": "ff2f5dbc64de22a3f57ea79b068477f8", "rental_uris": {"ios": "https://dc.lft.to/lastmile_qr_scan", "android": "https://dc.lft.to/lastmile_qr_scan"}, "fusion_lon": 0.0, "name": "ff2f5dbc64de22a3f57ea79b068477f8", "lon": -77.02501083333334}, {"is_reserved": 0, "lat": 38.9174355, "is_disabled": 0, "type": "electric_scooter", "fusion_lat": 0.0, "bike_id": "e34ed4da2dfc01408269c7277e73eef2", "rental_uris": {"ios": "https://dc.lft.to/lastmile_qr_scan", "android": "https://dc.lft.to/lastmile_qr_scan"}, "fusion_lon": 0.0, "name": "e34ed4da2dfc01408269c7277e73eef2", "lon": -77.03085766666666}, {"is_reserved": 0, "lat": 38.909578, "is_disabled": 0, "type": "electric_scooter", "fusion_lat": 0.0, "bike_id": "084e8f9868566054be278d3968509c7d", "rental_uris": {"ios": "https://dc.lft.to/lastmile_qr_scan", "android": "https://dc.lft.to/lastmile_qr_scan"}, "fusion_lon": 0.0, "name": "084e8f9868566054be278d3968509c7d", "lon": -77.0224175},