{"data": {"bikes": [{"rental_uris": {"ios": "https://dc.lft.to/lastmile_qr_scan", "android": "https://dc.lft.to/lastmile_qr_scan"}, "type": "electric_scooter", "name": "f23a4ff80ec87a5d80e17cf8cf35e252", "is_reserved": 0, "lon": -77.01145933333333, "is_disabled": 0, "fusion_lat": 0.0, "lat": 38.90954383333333, "bike_id": "f23a4ff80ec87a5d80e17cf8cf35e252", "fusion_lon": 0.0}, {"rental_uris": {"ios": "https://dc.lft.to/lastmile_qr_scan", "android": "https://dc.lft.to/lastmile_qr_scan"}, "type": "electric_scooter", "name": "c38cbabce238029615262435dad2c09b", "is_reserved": 0, "lon": -76.99589116666667, "is_disabled": 0, "fusion_lat": 0.0, "lat": 38.9094335, "bike_id": "c38cbabce238029615262435dad2c09b", "fusion_lon": 0.0}, {"rental_uris": {"ios": "https://dc.lft.to/lastmile_qr_scan", "android": "https://dc.lft.to/lastmile_qr_scan"}, "type": "electric_scooter", "name": "16c7527067d238e11ffc4af08af49a9e", "is_reserved": 0, "lon": -77.03973616666667, "is_disabled": 0, "fusion_lat": 0.0, "lat": 38.93152583333333, "bike_id": "16c7527067d238e11ffc4af08af49a9e", "fusion_lon": 0.0}, {"rental_uris": {"ios": "https://dc.lft.to/lastmile_qr_scan", "android": "https://dc.lft.to/lastmile_qr_scan"}, "type": "electric_scooter", "name": "672d382710c09d1b2233b656a6e3bee5", "is_reserved": 0, "lon": -77.02378916666666, "is_disabled": 0, "fusion_lat": 0.0, "lat": 38.90849433333333, "bike_id": "672d382710c09d1b2233b656a6e3bee5", "fusion_lon": 0.0}, {"rental_uris": {"ios": "https://dc.lft.to/lastmile_qr_scan", "android": "https://dc.lft.to/lastmile_qr_scan"}, "type": "electric_scooter", "name": "9c5dd65f80d21a3a513e280435d1fb33", "is_reserved": 0, "lon": -77.049068, "is_disabled": 0, "fusion_lat": 0.0, "lat": 38.900908, "bike_id": "9c5dd65f80d21a3a513e280435d1fb33", "fusion_lon": 0.0}, {"rental_uris": {"ios": "https://dc.lft.to/lastmile_qr_scan", "android": "https://dc.lft.to/lastmile_qr_scan"}, "type": "electric_scooter", "name": "634bc4d169d3dc0c528ee33f674ae018", "is_reserved": 0, "lon": -77.06842566666667, "is_disabled": 0, "fusion_lat": 0.0, "lat": 38.9040065, "bike_id": "634bc4d169d3dc0c528ee33f674ae018", "fusion_lon": 0.0}, {"rental_uris": {"ios": "https://dc.lft.to/lastmile_qr_scan", "android": "https://dc.lft.to/lastmile_qr_scan"}, "type": "electric_bike", "name": "0b298e4390f57e748b3a34b5158a19b9", "is_reserved": 0, "lon": -77.06947183333334, "is_disabled": 0, "fusion_lat": 0.0, "lat": 38.8362635, "bike_id": "0b298e4390f57e748b3a34b5158a19b9", "fusion_lon": 0.0}, {"rental_uris": {"ios": "https://dc.lft.to/lastmile_qr_scan", "android": "https://dc.lft.to/lastmile_qr_scan"}, "type": "electric_scooter", "name": "60abae5b264e1a911f928f3c3ae4e77b", "is_reserved": 0, "lon": -76.97329566666667, "is_disabled": 0, "fusion_lat": 0.0, "lat": 38.90411183333333, "bike_id": "60abae5b264e1a911f928f3c3ae4e77b", "fusion_lon": 0.0}, {"rental_uris": {"ios": "https://dc.lft.to/lastmile_qr_scan", "android": "https://dc.lft.to/lastmile_qr_scan"}, "type": "electric_scooter", "name": "dd2e1f0b3ed4499681195501d6f17e02", "is_reserved": 0, "lon": -77.060903, "is_disabled": 0, "fusion_lat": 0.0, "lat": 38.9399075, "bike_id": "dd2e1f0b3ed4499681195501d6f17e02", "fusion_lon": 0.0}, {"rental_uris": {"ios": "https://dc.lft.to/lastmile_qr_scan", "android": "https://dc.lft.to/lastmile_qr_scan"}, "type": "electric_scooter", "name": "51e7188537effffa33d2d63d649c2b10", "is_reserved": 0, "lon": -77.01533766666667, "is_disabled": 0, "fusion_lat": 0.0, "lat": 38.8849065, "bike_id": "51e7188537effffa33d2d63d649c2b10", "fusion_lon": 0.0}, {"rental_uris": {"ios": "https://dc.lft.to/lastmile_qr_scan", "android": "https://dc.lft.to/lastmile_qr_scan"}, "type": "electric_scooter", "name": "24fcb10b4daf8caa4051b81543f9ea2d", "is_reserved": 0, "lon": -77.04822183333333, "is_disabled": 0, "fusion_lat": 0.0, "lat": 38.9148905, "bike_id": "24fcb10b4daf8caa4051b81543f9ea2d", "fusion_lon": 0.0}, {"rental_uris": {"ios": "https://dc.lft.to/lastmile_qr_scan", "android": "https://dc.lft.to/lastmile_qr_scan"}, "type": "electric_scooter", "name": "8fc140a5f9c7d69b06a17e10b9f39a97", "is_reserved": 0, "lon": -77.0059395, "is_disabled": 0, "fusion_lat": 0.0, "lat": 38.87650466666667, "bike_id": "8fc140a5f9c7d69b06a17e10b9f39a97", "fusion_lon": 0.0}, {"rental_uris": {"ios": "https://dc.lft.to/lastmile_qr_scan", "android": "https://dc.lft.to/lastmile_qr_scan"}, "type": "electric_scooter", "name": "ce978b9653d6d0ce4fdf32de9892d8c1", "is_reserved": 0, "lon": -76.98815983333333, "is_disabled": 0, "fusion_lat": 0.0, "lat": 38.900135666666664, "bike_id": "ce978b9653d6d0ce4fdf32de9892d8c1", "fusion_lon": 0.0}, {"rental_uris": {"ios": "https://dc.lft.to/lastmile_qr_scan", "android": "https://dc.lft.to/lastmile_qr_scan"}, "type": "electric_scooter", "name": "733338728a6bb599fe668142c4dd4f45", "is_reserved": 0, "lon": -77.03504716666667, "is_disabled": 0, "fusion_lat": 0.0, "lat": 38.91182, "bike_id": "733338728a6bb599fe668142c4dd4f45", "fusion_lon": 0.0}, {"rental_uris": {"ios": "https://dc.lft.to/lastmile_qr_scan", "android": "https://dc.lft.to/lastmile_qr_scan"}, "type": "electric_scooter", "name": "d2d9d1cdfb1be4812f1250a996f5792d", "is_reserved": 0, "lon": -77.02430066666666, "is_disabled": 0, "fusion_lat": 0.0, "lat": 38.9141295, "bike_id": "d2d9d1cdfb1be4812f1250a996f5792d", "fusion_lon": 0.0}, {"rental_uris": {"ios": "https://dc.lft.to/lastmile_qr_scan", "android": "https://dc.lft.to/lastmile_qr_scan"}, "type": "electric_scooter", "name": "db6db1454cf163b8520eac58aa0ded01", "is_reserved": 0, "lon": -77.04178783333333, "is_disabled": 0, "fusion_lat": 0.0, "lat": 38.92034966666667, "bike_id": "db6db1454cf163b8520eac58aa0ded01", "fusion_lon": 0.0}, {"rental_uris": {"ios": "https://dc.lft.to/lastmile_qr_scan", "android": "https://dc.lft.to/lastmile_qr_scan"}, "type": "electric_scooter", "name": "8b87257cb73261b26c4cd567fac7d4c6", "is_reserved": 0, "lon": -76.9466455, "is_disabled": 0, "fusion_lat": 0.0, "lat": 38.8987005, "bike_id": "8b87257cb73261b26c4cd567fac7d4c6", "fusion_lon": 0.0}, {"rental_uris": {"ios": "https://dc.lft.to/lastmile_qr_scan", "android": "https://dc.lft.to/lastmile_qr_scan"}, "type": "electric_scooter", "name": "7b7a5462c1ecf0e5b0a2f4ff6eea29fd", "is_reserved": 0, "lon": -76.9990095, "is_disabled": 0, "fusion_lat": 0.0, "lat": 38.952992333333334, "bike_id": "7b7a5462c1ecf0e5b0a2f4ff6eea29fd", "fusion_lon": 0.0}, {"rental_uris": {"ios": "https://dc.lft.to/lastmile_qr_scan", "android": "https://dc.lft.to/lastmile_qr_scan"}, "type": "electric_scooter", "name": "91a668766e395c1bf9dbf9d99729f3ea", "is_reserved": 0, "lon": -77.02364516666667, "is_disabled": 0, "fusion_lat": 0.0, "lat": 38.902152666666666, "bike_id": "91a668766e395c1bf9dbf9d99729f3ea", "fusion_lon": 0.0}, {"rental_uris": {"ios": "https://dc.lft.to/lastmile_qr_scan", "android": "https://dc.lft.to/lastmile_qr_scan"}, "type": "electric_scooter", "name": "b21e2df8a79a11f7ae665070cb007b6c", "is_reserved": 0, "lon": -77.021564, "is_disabled": 0, "fusion_lat": 0.0, "lat": 38.926036, "bike_id": "b21e2df8a79a11f7ae665070cb007b6c", "fusion_lon": 0.0}, {"rental_uris": {"ios": "https://dc.lft.to/lastmile_qr_scan", "android": "https://dc.lft.to/lastmile_qr_scan"}, "type": "electric_scooter", "name": "53bb0ad62760114fa9704ef2443ccf0f", "is_reserved": 0, "lon": -77.02964283333333, "is_disabled": 0, "fusion_lat": 0.0, "lat": 38.92332966666667, "bike_id": "53bb0ad62760114fa9704ef2443ccf0f", "fusion_lon": 0.0}, {"rental_uris": {"ios": "https://dc.lft.to/lastmile_qr_scan", "android": "https://dc.lft.to/lastmile_qr_scan"}, "type": "electric_scooter", "name": "fa8d9c7de22cc97f6dc455432ffbccd5", "is_reserved": 0, "lon": -77.022776, "is_disabled": 0, "fusion_lat": 0.0, "lat": 38.916754, "bike_id": "fa8d9c7de22cc97f6dc455432ffbccd5", "fusion_lon": 0.0}, {"rental_uris": {"ios": "https://dc.lft.to/lastmile_qr_scan", "android": "https://dc.lft.to/lastmile_qr_scan"}, "type": "electric_scooter", "name": "72b2999682404b0614d74592582e82a3", "is_reserved": 0, "lon": -77.04270833333334, "is_disabled": 0, "fusion_lat": 0.0, "lat": 38.922972333333334, "bike_id": "72b2999682404b0614d74592582e82a3", "fusion_lon": 0.0}, {"rental_uris": {"ios": "https://dc.lft.to/lastmile_qr_scan", "android": "https://dc.lft.to/lastmile_qr_scan"}, "type": "electric_scooter", "name": "21dba9e26bdb1a036c576b44d9c408ed", "is_reserved": 0, "lon": -77.04071333333333, "is_disabled": 0, "fusion_lat": 0.0, "lat": 38.9104725, "bike_id": "21dba9e26bdb1a036c576b44d9c408ed", "fusion_lon": 0.0}, {"rental_uris": {"ios": "https://dc.lft.to/lastmile_qr_scan", "android": "https://dc.lft.to/lastmile_qr_scan"}, "type": "electric_scooter", "name": "1de0ed875e1d452d9b01cfeaa63c99fa", "is_reserved": 0, "lon": -77.01892183333334, "is_disabled": 0, "fusion_lat": 0.0, "lat": 38.89749066666667, "bike_id": "1de0ed875e1d452d9b01cfeaa63c99fa", "fusion_lon": 0.0}, {"rental_uris": {"ios": "https://dc.lft.to/lastmile_qr_scan", "android": "https://dc.lft.to/lastmile_qr_scan"}, "type": "electric_scooter", "name": "468589d3f553db3aedfc2cb8fd03b148", "is_reserved": 0, "lon": -77.034582, "is_disabled": 0, "fusion_lat": 0.0, "lat": 38.9080305, "bike_id": "468589d3f553db3aedfc2cb8fd03b148", "fusion_lon": 0.0}, {"rental_uris": {"ios": "https://dc.lft.to/lastmile_qr_scan", "android": "https://dc.lft.to/lastmile_qr_scan"}, "type": "electric_scooter", "name": "071eebaa821e0c4bcc3584d3ffb92711", "is_reserved": 0, "lon": -77.09358416666667, "is_disabled": 0, "fusion_lat": 0.0, "lat": 38.88394316666667, "bike_id": "071eebaa821e0c4bcc3584d3ffb92711", "fusion_lon": 0.0}, {"rental_uris": {"ios": "https://dc.lft.to/lastmile_qr_scan", "android": "https://dc.lft.to/lastmile_qr_scan"}, "type": "electric_scooter", "name": "ce8425510d9abd6e5ab0b83bec8ec9ca", "is_reserved": 0, "lon": -77.01869283333333, "is_disabled": 0, "fusion_lat": 0.0, "lat": 38.93048066666667, "bike_id": "ce8425510d9abd6e5ab0b83bec8ec9ca", "fusion_lon": 0.0}, {"rental_uris": {"ios": "https://dc.lft.to/lastmile_qr_scan", "android": "https://dc.lft.to/lastmile_qr_scan"}, "type": "electric_scooter", "name": "94219d082f48aa73209e58349866c1b1", "is_reserved": 0, "lon": -76.99503183333333, "is_disabled": 0, "fusion_lat": 0.0, "lat": 38.8818045, "bike_id": "94219d082f48aa73209e58349866c1b1", "fusion_lon": 0.0}, {"rental_uris": {"ios": "https://dc.lft.to/lastmile_qr_scan", "android": "https://dc.lft.to/lastmile_qr_scan"}, "type": "electric_scooter", "name": "f68ca8d2dc910ee38c8c307926ba4f3c", "is_reserved": 0, "lon": -77.01796283333333, "is_disabled": 0, "fusion_lat": 0.0, "lat": 38.902602, "bike_id": "f68ca8d2dc910ee38c8c307926ba4f3c", "fusion_lon": 0.0}, {"rental_uris": {"ios": "https://dc.lft.to/lastmile_qr_scan", "android": "https://dc.lft.to/lastmile_qr_scan"}, "type": "electric_scooter", "name": "c56d80278a7954db8f162df7031bfbe6", "is_reserved": 0, "lon": -77.0336385, "is_disabled": 0, "fusion_lat": 0.0, "lat": 38.93523066666667, "bike_id": "c56d80278a7954db8f162df7031bfbe6", "fusion_lon": 0.0}, {"rental_uris": {"ios": "https://dc.lft.to/lastmile_qr_scan", "android": "https://dc.lft.to/lastmile_qr_scan"}, "type": "electric_scooter", "name": "c7018ad9091db5b8ae84141268af12d2", "is_reserved": 0, "lon": -76.980737, "is_disabled": 0, "fusion_lat": 0.0, "lat": 38.90178266666667, "bike_id": "c7018ad9091db5b8ae84141268af12d2", "fusion_lon": 0.0}, {"rental_uris": {"ios": "https://dc.lft.to/lastmile_qr_scan", "android": "https://dc.lft.to/lastmile_qr_scan"}, "type": "electric_scooter", "name": "1fe22e6cea3d0738c332d3b7d5596d5d", "is_reserved": 0, "lon": -77.02391466666667, "is_disabled": 0, "fusion_lat": 0.0, "lat": 38.938181666666665, "bike_id": "1fe22e6cea3d0738c332d3b7d5596d5d", "fusion_lon": 0.0}, {"rental_uris": {"ios": "https://dc.lft.to/lastmile_qr_scan", "android": "https://dc.lft.to/lastmile_qr_scan"}, "type": "electric_bike", "name": "86a7e0f7209a6761d53954dc92beda8d", "is_reserved": 0, "lon": -76.9927765, "is_disabled": 0, "fusion_lat": 0.0, "lat": 38.97257466666667, "bike_id": "86a7e0f7209a6761d53954dc92beda8d", "fusion_lon": 0.0}, {"rental_uris": {"ios": "https://dc.lft.to/lastmile_qr_scan", "android": "https://dc.lft.to/lastmile_qr_scan"}, "type": "electric_scooter", "name": "807a32313ba9254627dd37018f873f9c", "is_reserved": 0, "lon": -77.05216066666667, "is_disabled": 0, "fusion_lat": 0.0, "lat": 38.9249415, "bike_id": "807a32313ba9254627dd37018f873f9c", "fusion_lon": 0.0}, {"rental_uris": {"ios": "https://dc.lft.to/lastmile_qr_scan", "android": "https://dc.lft.to/lastmile_qr_scan"}, "type": "electric_scooter", "name": "fff89a5f166e29486b24f5a2da1b350c", "is_reserved": 0, "lon": -77.03582316666666, "is_disabled": 0, "fusion_lat": 0.0, "lat": 38.91777366666667, "bike_id": "fff89a5f166e29486b24f5a2da1b350c", "fusion_lon": 0.0}, {"rental_uris": {"ios": "https://dc.lft.to/lastmile_qr_scan", "android": "https://dc.lft.to/lastmile_qr_scan"}, "type": "electric_scooter", "name": "58da78066b1f3f9d9fa596b5d0034d45", "is_reserved": 0, "lon": -77.04029316666667, "is_disabled": 0, "fusion_lat": 0.0, "lat": 38.911971333333334, "bike_id": "58da78066b1f3f9d9fa596b5d0034d45", "fusion_lon": 0.0}, {"rental_uris": {"ios": "https://dc.lft.to/lastmile_qr_scan", "android": "https://dc.lft.to/lastmile_qr_scan"}, "type": "electric_scooter", "name": "95965ca4d5995285eb7e5d4930b5b148", "is_reserved": 0, "lon": -77.02193616666666, "is_disabled": 0, "fusion_lat": 0.0, "lat": 38.911348, "bike_id": "95965ca4d5995285eb7e5d4930b5b148", "fusion_lon": 0.0}, {"rental_uris": {"ios": "https://dc.lft.to/lastmile_qr_scan", "android": "https://dc.lft.to/lastmile_qr_scan"}, "type": "electric_bike", "name": "63d7f171ac464cee85f09cceb3e306d5", "is_reserved": 0, "lon": -76.99697133333333, "is_disabled": 0, "fusion_lat": 0.0, "lat": 38.8386875, "bike_id": "63d7f171ac464cee85f09cceb3e306d5", "fusion_lon": 0.0}, {"rental_uris": {"ios": "https://dc.lft.to/lastmile_qr_scan", "android": "https://dc.lft.to/lastmile_qr_scan"}, "type": "electric_scooter", "name": "c489152a8e43fd626e4d5b2b6a0e9949", "is_reserved": 0, "lon": -76.99148333333333, "is_disabled": 0, "fusion_lat": 0.0, "lat": 38.900366, "bike_id": "c489152a8e43fd626e4d5b2b6a0e9949", "fusion_lon": 0.0}, {"rental_uris": {"ios": "https://dc.lft.to/lastmile_qr_scan", "android": "https://dc.lft.to/lastmile_qr_scan"}, "type": "electric_scooter", "name": "31ff559fa28fc89b6a324646da26798e", "is_reserved": 0, "lon": -76.98359166666667, "is_disabled": 0, "fusion_lat": 0.0, "lat": 38.88745483333334, "bike_id": "31ff559fa28fc89b6a324646da26798e", "fusion_lon": 0.0}, {"rental_uris": {"ios": "https://dc.lft.to/lastmile_qr_scan", "android": "https://dc.lft.to/lastmile_qr_scan"}, "type": "electric_bike", "name": "02b7325c032cb34185230388f33c1d65", "is_reserved": 0, "lon": -76.986908, "is_disabled": 0, "fusion_lat": 0.0, "lat": 38.9447145, "bike_id": "02b7325c032cb34185230388f33c1d65", "fusion_lon": 0.0}, {"rental_uris": {"ios": "https://dc.lft.to/lastmile_qr_scan", "android": "https://dc.lft.to/lastmile_qr_scan"}, "type": "electric_scooter", "name": "4932fe05c9413700ea704ced3244935b", "is_reserved": 0, "lon": -77.0386095, "is_disabled": 0, "fusion_lat": 0.0, "lat": 38.911714, "bike_id": "4932fe05c9413700ea704ced3244935b", "fusion_lon": 0.0}, {"rental_uris": {"ios": "https://dc.lft.to/lastmile_qr_scan", "android": "https://dc.lft.to/lastmile_qr_scan"}, "type": "electric_scooter", "name": "82507ea523905170b7ff1b9908da6ca9", "is_reserved": 0, "lon": -77.01297266666667, "is_disabled": 0, "fusion_lat": 0.0, "lat": 38.90189266666667, "bike_id": "82507ea523905170b7ff1b9908da6ca9", "fusion_lon": 0.0}, {"rental_uris": {"ios": "https://dc.lft.to/lastmile_qr_scan", "android": "https://dc.lft.to/lastmile_qr_scan"}, "type": "electric_scooter", "name": "652a9a1342cca15f5aaa9e39c9c49960", "is_reserved": 0, "lon": -76.9990815, "is_disabled": 0, "fusion_lat": 0.0, "lat": 38.93744683333333, "bike_id": "652a9a1342cca15f5aaa9e39c9c49960", "fusion_lon": 0.0}, {"rental_uris": {"ios": "https://dc.lft.to/lastmile_qr_scan", "android": "https://dc.lft.to/lastmile_qr_scan"}, "type": "electric_scooter", "name": "6c03f34b35c3b72eaa2f1a8234e9ada9", "is_reserved": 0, "lon": -77.023387, "is_disabled": 0, "fusion_lat": 0.0, "lat": 38.930459, "bike_id": "6c03f34b35c3b72eaa2f1a8234e9ada9", "fusion_lon": 0.0}, {"rental_uris": {"ios": "https://dc.lft.to/lastmile_qr_scan", "android": "https://dc.lft.to/lastmile_qr_scan"}, "type": "electric_scooter", "name": "b9d2c1249e5e4a647afbc4cf065c2ed4", "is_reserved": 0, "lon": -77.03475, "is_disabled": 0, "fusion_lat": 0.0, "lat": 38.90974283333333, "bike_id": "b9d2c1249e5e4a647afbc4cf065c2ed4", "fusion_lon": 0.0}, {"rental_uris": {"ios": "https://dc.lft.to/lastmile_qr_scan", "android": "https://dc.lft.to/lastmile_qr_scan"}, "type": "electric_bike", "name": "c0a0b1d1a1ad2311c7f30c0508d48189", "is_reserved": 0, "lon": -77.0020815, "is_disabled": 0, "fusion_lat": 0.0, "lat": 38.988447, "bike_id": "c0a0b1d1a1ad2311c7f30c0508d48189", "fusion_lon": 0.0}, {"rental_uris": {"ios": "https://dc.lft.to/lastmile_qr_scan", "android": "https://dc.lft.to/lastmile_qr_scan"}, "type": "electric_scooter", "name": "8b0d7428a681ce72ec028decde8739c4", "is_reserved": 0, "lon": -77.03377283333333, "is_disabled": 0, "fusion_lat": 0.0, "lat": 38.91039116666666, "bike_id": "8b0d7428a681ce72ec028decde8739c4", "fusion_lon": 0.0}, {"rental_uris": {"ios": "https://dc.lft.to/lastmile_qr_scan", "android": "https://dc.lft.to/lastmile_qr_scan"}, "type": "electric_scooter", "name": "74d88b69ac2df12a17aa29a5bab3667f", "is_reserved": 0, "lon": -77.0180045, "is_disabled": 0, "fusion_lat": 0.0, "lat": 38.90264783333333, "bike_id": "74d88b69ac2df12a17aa29a5bab3667f", "fusion_lon": 0.0}, {"rental_uris": {"ios": "https://dc.lft.to/lastmile_qr_scan", "android": "https://dc.lft.to/lastmile_qr_scan"}, "type": "electric_scooter", "name": "4e36ef52a65177df1f4ef61564c6d64d", "is_reserved": 0, "lon": -77.02409883333333, "is_disabled": 0, "fusion_lat": 0.0, "lat": 38.90970083333333, "bike_id": "4e36ef52a65177df1f4ef61564c6d64d", "fusion_lon": 0.0}, {"rental_uris": {"ios": "https://dc.lft.to/lastmile_qr_scan", "android": "https://dc.lft.to/lastmile_qr_scan"}, "type": "electric_scooter", "name": "2d44822b29657caca42728d2e3192df6", "is_reserved": 0, "lon": -77.02814433333333, "is_disabled": 0, "fusion_lat": 0.0, "lat": 38.956405333333336, "bike_id": "2d44822b29657caca42728d2e3192df6", "fusion_lon": 0.0}, {"rental_uris": {"ios": "https://dc.lft.to/lastmile_qr_scan", "android": "https://dc.lft.to/lastmile_qr_scan"}, "type": "electric_scooter", "name": "a86ba0dd680c670c330f5bfacf73288f", "is_reserved": 0, "lon": -77.0333705, "is_disabled": 0, "fusion_lat": 0.0, "lat": 38.90242966666667, "bike_id": "a86ba0dd680c670c330f5bfacf73288f", "fusion_lon": 0.0}, {"rental_uris": {"ios": "https://dc.lft.to/lastmile_qr_scan", "android": "https://dc.lft.to/lastmile_qr_scan"}, "type": "electric_scooter", "name": "2abd5e2dd474b8e06998b6feabb4fbeb", "is_reserved": 0, "lon": -77.0061085, "is_disabled": 0, "fusion_lat": 0.0, "lat": 38.875711, "bike_id": "2abd5e2dd474b8e06998b6feabb4fbeb", "fusion_lon": 0.0}, {"rental_uris": {"ios": "https://dc.lft.to/lastmile_qr_scan", "android": "https://dc.lft.to/lastmile_qr_scan"}, "type": "electric_scooter", "name": "81f58d08b6ef4d93c9b190b7a2b20dce", "is_reserved": 0, "lon": -77.03464433333333, "is_disabled": 0, "fusion_lat": 0.0, "lat": 38.90845433333333, "bike_id": "81f58d08b6ef4d93c9b190b7a2b20dce", "fusion_lon": 0.0}, {"rental_uris": {"ios": "https://dc.lft.to/lastmile_qr_scan", "android": "https://dc.lft.to/lastmile_qr_scan"}, "type": "electric_scooter", "name": "9ad500fbdad3bc480a0741dba02525fc", "is_reserved": 0, "lon": -77.02305766666667, "is_disabled": 0, "fusion_lat": 0.0, "lat": 38.96130433333333, "bike_id": "9ad500fbdad3bc480a0741dba02525fc", "fusion_lon": 0.0}, {"rental_uris": {"ios": "https://dc.lft.to/lastmile_qr_scan", "android": "https://dc.lft.to/lastmile_qr_scan"}, "type": "electric_scooter", "name": "46b6c21c484e30489fe79d6d36b69073", "is_reserved": 0, "lon": -77.0394945, "is_disabled": 0, "fusion_lat": 0.0, "lat": 38.90011283333333, "bike_id": "46b6c21c484e30489fe79d6d36b69073", "fusion_lon": 0.0}, {"rental_uris": {"ios": "https://dc.lft.to/lastmile_qr_scan", "android": "https://dc.lft.to/lastmile_qr_scan"}, "type": "electric_scooter", "name": "e31022ff3e540ba9510e3768e114068e", "is_reserved": 0, "lon": -77.02597383333334, "is_disabled": 0, "fusion_lat": 0.0, "lat": 38.958195333333336, "bike_id": "e31022ff3e540ba9510e3768e114068e", "fusion_lon": 0.0}, {"rental_uris": {"ios": "https://dc.lft.to/lastmile_qr_scan", "android": "https://dc.lft.to/lastmile_qr_scan"}, "type": "electric_bike", "name": "5b07d417382a5a20feb4602dc8870431", "is_reserved": 0, "lon": -76.96264216666667, "is_disabled": 0, "fusion_lat": 0.0, "lat": 38.967835, "bike_id": "5b07d417382a5a20feb4602dc8870431", "fusion_lon": 0.0}, {"rental_uris": {"ios": "https://dc.lft.to/lastmile_qr_scan", "android": "https://dc.lft.to/lastmile_qr_scan"}, "type": "electric_scooter", "name": "5e280b592ecff17f312944daf2ecc0c1", "is_reserved": 0, "lon": -77.04479633333334, "is_disabled": 0, "fusion_lat": 0.0, "lat": 38.90377733333333, "bike_id": "5e280b592ecff17f312944daf2ecc0c1", "fusion_lon": 0.0}, {"rental_uris": {"ios": "https://dc.lft.to/lastmile_qr_scan", "android": "https://dc.lft.to/lastmile_qr_scan"}, "type": "electric_scooter", "name": "b845826e12db5515da82ed8b08aa80db", "is_reserved": 0, "lon": -77.04331266666667, "is_disabled": 0, "fusion_lat": 0.0, "lat": 38.907340833333336, "bike_id": "b845826e12db5515da82ed8b08aa80db", "fusion_lon": 0.0}, {"rental_uris": {"ios": "https://dc.lft.to/lastmile_qr_scan", "android": "https://dc.lft.to/lastmile_qr_scan"}, "type": "electric_bike", "name": "0eddcf9cdbba731d8eac01f7c57e8705", "is_reserved": 0, "lon": -77.1021155, "is_disabled": 0, "fusion_lat": 0.0, "lat": 38.9199755, "bike_id": "0eddcf9cdbba731d8eac01f7c57e8705", "fusion_lon": 0.0}, {"rental_uris": {"ios": "https://dc.lft.to/lastmile_qr_scan", "android": "https://dc.lft.to/lastmile_qr_scan"}, "type": "electric_scooter", "name": "5a88e58a5ce532f280f0f9025dc08ff1", "is_reserved": 0, "lon": -77.03356916666667, "is_disabled": 0, "fusion_lat": 0.0, "lat": 38.922524833333334, "bike_id": "5a88e58a5ce532f280f0f9025dc08ff1", "fusion_lon": 0.0}, {"rental_uris": {"ios": "https://dc.lft.to/lastmile_qr_scan", "android": "https://dc.lft.to/lastmile_qr_scan"}, "type": "electric_scooter", "name": "d0d0f46547474e6f2c9a2b1a1fd1eeed", "is_reserved": 0, "lon": -76.9988405, "is_disabled": 0, "fusion_lat": 0.0, "lat": 38.88663833333333, "bike_id": "d0d0f46547474e6f2c9a2b1a1fd1eeed", "fusion_lon": 0.0}, {"rental_uris": {"ios": "https://dc.lft.to/lastmile_qr_scan", "android": "https://dc.lft.to/lastmile_qr_scan"}, "type": "electric_bike", "name": "cd6e877291c7c6e6444eeab8c6ed6f8c", "is_reserved": 0, "lon": -76.9868785, "is_disabled": 0, "fusion_lat": 0.0, "lat": 38.9447325, "bike_id": "cd6e877291c7c6e6444eeab8c6ed6f8c", "fusion_lon": 0.0}, {"rental_uris": {"ios": "https://dc.lft.to/lastmile_qr_scan", "android": "https://dc.lft.to/lastmile_qr_scan"}, "type": "electric_scooter", "name": "b78037cb617b202920044c1455a7f98c", "is_reserved": 0, "lon": -77.0175925, "is_disabled": 0, "fusion_lat": 0.0, "lat": 38.876859833333334, "bike_id": "b78037cb617b202920044c1455a7f98c", "fusion_lon": 0.0}, {"rental_uris": {"ios": "https://dc.lft.to/lastmile_qr_scan", "android": "https://dc.lft.to/lastmile_qr_scan"}, "type": "electric_bike", "name": "afe2fd1969d73ab21f44e74f4fcf9d28", "is_reserved": 0, "lon": -77.036271, "is_disabled": 0, "fusion_lat": 0.0, "lat": 38.97296333333333, "bike_id": "afe2fd1969d73ab21f44e74f4fcf9d28", "fusion_lon": 0.0}, {"rental_uris": {"ios": "https://dc.lft.to/lastmile_qr_scan", "android": "https://dc.lft.to/lastmile_qr_scan"}, "type": "electric_scooter", "name": "23481f9c802c6c4f74174604c4ee1adc", "is_reserved": 0, "lon": -76.98837216666666, "is_disabled": 0, "fusion_lat": 0.0, "lat": 38.84294416666667, "bike_id": "23481f9c802c6c4f74174604c4ee1adc", "fusion_lon": 0.0}, {"rental_uris": {"ios": "https://dc.lft.to/lastmile_qr_scan", "android": "https://dc.lft.to/lastmile_qr_scan"}, "type": "electric_scooter", "name": "124ea6e4301875ecd35dec5da9d13f99", "is_reserved": 0, "lon": -77.02183166666667, "is_disabled": 0, "fusion_lat": 0.0, "lat": 38.905461833333334, "bike_id": "124ea6e4301875ecd35dec5da9d13f99", "fusion_lon": 0.0}, {"rental_uris": {"ios": "https://dc.lft.to/lastmile_qr_scan", "android": "https://dc.lft.to/lastmile_qr_scan"}, "type": "electric_scooter", "name": "d7c4007e81ba02ea2a5e40b6a065ac15", "is_reserved": 0, "lon": -77.04858916666667, "is_disabled": 0, "fusion_lat": 0.0, "lat": 38.912645833333336, "bike_id": "d7c4007e81ba02ea2a5e40b6a065ac15", "fusion_lon": 0.0}, {"rental_uris": {"ios": "https://dc.lft.to/lastmile_qr_scan", "android": "https://dc.lft.to/lastmile_qr_scan"}, "type": "electric_scooter", "name": "267dc35faf11e0836da810827511d229", "is_reserved": 0, "lon": -77.03669883333333, "is_disabled": 0, "fusion_lat": 0.0, "lat": 38.92114516666667, "bike_id": "267dc35faf11e0836da810827511d229", "fusion_lon": 0.0}, {"rental_uris": {"ios": "https://dc.lft.to/lastmile_qr_scan", "android": "https://dc.lft.to/lastmile_qr_scan"}, "type": "electric_scooter", "name": "fc9fc1c3a7d3887f87fd972e7b99cbe3", "is_reserved": 0, "lon": -77.03185466666666, "is_disabled": 0, "fusion_lat": 0.0, "lat": 38.918209, "bike_id": "fc9fc1c3a7d3887f87fd972e7b99cbe3", "fusion_lon": 0.0}, {"rental_uris": {"ios": "https://dc.lft.to/lastmile_qr_scan", "android": "https://dc.lft.to/lastmile_qr_scan"}, "type": "electric_scooter", "name": "45bf25b1bc81e2ee087d9dd6d77314fd", "is_reserved": 0, "lon": -77.02528866666667, "is_disabled": 0, "fusion_lat": 0.0, "lat": 38.94532983333333, "bike_id": "45bf25b1bc81e2ee087d9dd6d77314fd", "fusion_lon": 0.0}, {"rental_uris": {"ios": "https://dc.lft.to/lastmile_qr_scan", "android": "https://dc.lft.to/lastmile_qr_scan"}, "type": "electric_scooter", "name": "699ef7529cfdb55df7a06d6807dc8e00", "is_reserved": 0, "lon": -77.03670933333333, "is_disabled": 0, "fusion_lat": 0.0, "lat": 38.932082333333334, "bike_id": "699ef7529cfdb55df7a06d6807dc8e00", "fusion_lon": 0.0}, {"rental_uris": {"ios": "https://dc.lft.to/lastmile_qr_scan", "android": "https://dc.lft.to/lastmile_qr_scan"}, "type": "electric_scooter", "name": "13b62bf072b89c68fed61c1a1e09b458", "is_reserved": 0, "lon": -76.9337325, "is_disabled": 0, "fusion_lat": 0.0, "lat": 38.89869066666667, "bike_id": "13b62bf072b89c68fed61c1a1e09b458", "fusion_lon": 0.0}, {"rental_uris": {"ios": "https://dc.lft.to/lastmile_qr_scan", "android": "https://dc.lft.to/lastmile_qr_scan"}, "type": "electric_scooter", "name": "7242d3f0902d2f82b62b5303dce2ecb2", "is_reserved": 0, "lon": -76.9889105, "is_disabled": 0, "fusion_lat": 0.0, "lat": 38.9064375, "bike_id": "7242d3f0902d2f82b62b5303dce2ecb2", "fusion_lon": 0.0}, {"rental_uris": {"ios": "https://dc.lft.to/lastmile_qr_scan", "android": "https://dc.lft.to/lastmile_qr_scan"}, "type": "electric_scooter", "name": "3e2f65a08264f6496ad46d6d88762943", "is_reserved": 0, "lon": -77.03996666666667, "is_disabled": 0, "fusion_lat": 0.0, "lat": 38.907222166666664, "bike_id": "3e2f65a08264f6496ad46d6d88762943", "fusion_lon": 0.0}, {"rental_uris": {"ios": "https://dc.lft.to/lastmile_qr_scan", "android": "https://dc.lft.to/lastmile_qr_scan"}, "type": "electric_scooter", "name": "76c83e207fd549e64d170ad6cf82ae8c", "is_reserved": 0, "lon": -77.0386705, "is_disabled": 0, "fusion_lat": 0.0, "lat": 38.911966666666665, "bike_id": "76c83e207fd549e64d170ad6cf82ae8c", "fusion_lon": 0.0}, {"rental_uris": {"ios": "https://dc.lft.to/lastmile_qr_scan", "android": "https://dc.lft.to/lastmile_qr_scan"}, "type": "electric_scooter", "name": "9594b99a57c17bd38b3d5669762db8d8", "is_reserved": 0, "lon": -77.02053733333334, "is_disabled": 0, "fusion_lat": 0.0, "lat": 38.92932316666667, "bike_id": "9594b99a57c17bd38b3d5669762db8d8", "fusion_lon": 0.0}, {"rental_uris": {"ios": "https://dc.lft.to/lastmile_qr_scan", "android": "https://dc.lft.to/lastmile_qr_scan"}, "type": "electric_scooter", "name": "f95e143999cd4292a1c8d46c37bf8112", "is_reserved": 0, "lon": -77.04175766666667, "is_disabled": 0, "fusion_lat": 0.0, "lat": 38.919378333333334, "bike_id": "f95e143999cd4292a1c8d46c37bf8112", "fusion_lon": 0.0}, {"rental_uris": {"ios": "https://dc.lft.to/lastmile_qr_scan", "android": "https://dc.lft.to/lastmile_qr_scan"}, "type": "electric_scooter", "name": "3fc5584044f79eb9f5932cb698fc0bd4", "is_reserved": 0, "lon": -77.00237416666667, "is_disabled": 0, "fusion_lat": 0.0, "lat": 38.900375833333335, "bike_id": "3fc5584044f79eb9f5932cb698fc0bd4", "fusion_lon": 0.0}, {"rental_uris": {"ios": "https://dc.lft.to/lastmile_qr_scan", "android": "https://dc.lft.to/lastmile_qr_scan"}, "type": "electric_scooter", "name": "5aef09ec2a35d53fc006425790cc3b81", "is_reserved": 0, "lon": -77.0215455, "is_disabled": 0, "fusion_lat": 0.0, "lat": 38.887452333333336, "bike_id": "5aef09ec2a35d53fc006425790cc3b81", "fusion_lon": 0.0}, {"rental_uris": {"ios": "https://dc.lft.to/lastmile_qr_scan", "android": "https://dc.lft.to/lastmile_qr_scan"}, "type": "electric_bike", "name": "15317911e3473d40a92cc624f665edff", "is_reserved": 0, "lon": -76.99439816666667, "is_disabled": 0, "fusion_lat": 0.0, "lat": 38.831078833333336, "bike_id": "15317911e3473d40a92cc624f665edff", "fusion_lon": 0.0}, {"rental_uris": {"ios": "https://dc.lft.to/lastmile_qr_scan", "android": "https://dc.lft.to/lastmile_qr_scan"}, "type": "electric_bike", "name": "78fb63527db56d8dcc9981564ce5ead8", "is_reserved": 0, "lon": -76.99553666666667, "is_disabled": 0, "fusion_lat": 0.0, "lat": 38.862143833333334, "bike_id": "78fb63527db56d8dcc9981564ce5ead8", "fusion_lon": 0.0}, {"rental_uris": {"ios": "https://dc.lft.to/lastmile_qr_scan", "android": "https://dc.lft.to/lastmile_qr_scan"}, "type": "electric_bike", "name": "c18b1a252e372fd96a3b06aba68759e9", "is_reserved": 0, "lon": -76.907407, "is_disabled": 0, "fusion_lat": 0.0, "lat": 38.896185333333335, "bike_id": "c18b1a252e372fd96a3b06aba68759e9", "fusion_lon": 0.0}, {"rental_uris": {"ios": "https://dc.lft.to/lastmile_qr_scan", "android": "https://dc.lft.to/lastmile_qr_scan"}, "type": "electric_scooter", "name": "d80c40778e0eb1f137075c4a4fd9f232", "is_reserved": 0, "lon": -77.03023033333334, "is_disabled": 0, "fusion_lat": 0.0, "lat": 38.87846116666667, "bike_id": "d80c40778e0eb1f137075c4a4fd9f232", "fusion_lon": 0.0}, {"rental_uris": {"ios": "https://dc.lft.to/lastmile_qr_scan", "android": "https://dc.lft.to/lastmile_qr_scan"}, "type": "electric_scooter", "name": "e2f28a5d9111d1e4bda44f4373b3e541", "is_reserved": 0, "lon": -77.00747683333333, "is_disabled": 0, "fusion_lat": 0.0, "lat": 38.899039333333334, "bike_id": "e2f28a5d9111d1e4bda44f4373b3e541", "fusion_lon": 0.0}, {"rental_uris": {"ios": "https://dc.lft.to/lastmile_qr_scan", "android": "https://dc.lft.to/lastmile_qr_scan"}, "type": "electric_scooter", "name": "9fc2cf1eb7c03261ed40576ee8bca2c7", "is_reserved": 0, "lon": -77.029939, "is_disabled": 0, "fusion_lat": 0.0, "lat": 38.89736883333333, "bike_id": "9fc2cf1eb7c03261ed40576ee8bca2c7", "fusion_lon": 0.0}, {"rental_uris": {"ios": "https://dc.lft.to/lastmile_qr_scan", "android": "https://dc.lft.to/lastmile_qr_scan"}, "type": "electric_scooter", "name": "04dda2296d14f17219f56b7ea87a55bb", "is_reserved": 0, "lon": -77.03178416666667, "is_disabled": 0, "fusion_lat": 0.0, "lat": 38.91630133333334, "bike_id": "04dda2296d14f17219f56b7ea87a55bb", "fusion_lon": 0.0}, {"rental_uris": {"ios": "https://dc.lft.to/lastmile_qr_scan", "android": "https://dc.lft.to/lastmile_qr_scan"}, "type": "electric_scooter", "name": "fc344e50a8701a54f72e34c00b9b166f", "is_reserved": 0, "lon": -77.05753833333333, "is_disabled": 0, "fusion_lat": 0.0, "lat": 38.92497633333333, "bike_id": "fc344e50a8701a54f72e34c00b9b166f", "fusion_lon": 0.0}, {"rental_uris": {"ios": "https://dc.lft.to/lastmile_qr_scan", "android": "https://dc.lft.to/lastmile_qr_scan"}, "type": "electric_scooter", "name": "ab9caaaccff740bd9e9636e38ebe8a9a", "is_reserved": 0, "lon": -77.04586233333333, "is_disabled": 0, "fusion_lat": 0.0, "lat": 38.90585333333333, "bike_id": "ab9caaaccff740bd9e9636e38ebe8a9a", "fusion_lon": 0.0}, {"rental_uris": {"ios": "https://dc.lft.to/lastmile_qr_scan", "android": "https://dc.lft.to/lastmile_qr_scan"}, "type": "electric_bike", "name": "a00b679aaae3cf6491caca41922a2395", "is_reserved": 0, "lon": -76.99856933333334, "is_disabled": 0, "fusion_lat": 0.0, "lat": 38.9077405, "bike_id": "a00b679aaae3cf6491caca41922a2395", "fusion_lon": 0.0}, {"rental_uris": {"ios": "https://dc.lft.to/lastmile_qr_scan", "android": "https://dc.lft.to/lastmile_qr_scan"}, "type": "electric_scooter", "name": "a5be6d5e2df97d57f927367b223a0a1e", "is_reserved": 0, "lon": -77.02186516666667, "is_disabled": 0, "fusion_lat": 0.0, "lat": 38.91122683333333, "bike_id": "a5be6d5e2df97d57f927367b223a0a1e", "fusion_lon": 0.0}, {"rental_uris": {"ios": "https://dc.lft.to/lastmile_qr_scan", "android": "https://dc.lft.to/lastmile_qr_scan"}, "type": "electric_scooter", "name": "a998316be60301831a6ae58219ac2787", "is_reserved": 0, "lon": -77.0264485, "is_disabled": 0, "fusion_lat": 0.0, "lat": 38.919165166666666, "bike_id": "a998316be60301831a6ae58219ac2787", "fusion_lon": 0.0}, {"rental_uris": {"ios": "https://dc.lft.to/lastmile_qr_scan", "android": "https://dc.lft.to/lastmile_qr_scan"}, "type": "electric_scooter", "name": "b1bf6105a6f6ffbe5b9e9d7c782b70cc", "is_reserved": 0, "lon": -77.046915, "is_disabled": 0, "fusion_lat": 0.0, "lat": 38.897437833333335, "bike_id": "b1bf6105a6f6ffbe5b9e9d7c782b70cc", "fusion_lon": 0.0}, {"rental_uris": {"ios": "https://dc.lft.to/lastmile_qr_scan", "android": "https://dc.lft.to/lastmile_qr_scan"}, "type": "electric_scooter", "name": "ad8a58480561aa38f17998809aa426ea", "is_reserved": 0, "lon": -76.99036883333333, "is_disabled": 0, "fusion_lat": 0.0, "lat": 38.8887905, "bike_id": "ad8a58480561aa38f17998809aa426ea", "fusion_lon": 0.0}, {"rental_uris": {"ios": "https://dc.lft.to/lastmile_qr_scan", "android": "https://dc.lft.to/lastmile_qr_scan"}, "type": "electric_scooter", "name": "81613220a8cd2b2e665c8adb33e1d49a", "is_reserved": 0, "lon": -77.017019, "is_disabled": 0, "fusion_lat": 0.0, "lat": 38.913824, "bike_id": "81613220a8cd2b2e665c8adb33e1d49a", "fusion_lon": 0.0}, {"rental_uris": {"ios": "https://dc.lft.to/lastmile_qr_scan", "android": "https://dc.lft.to/lastmile_qr_scan"}, "type": "electric_bike", "name": "6ecf4e86b8757e3c5396aa146076911a", "is_reserved": 0, "lon": -76.91715783333333, "is_disabled": 0, "fusion_lat": 0.0, "lat": 38.8802935, "bike_id": "6ecf4e86b8757e3c5396aa146076911a", "fusion_lon": 0.0}, {"rental_uris": {"ios": "https://dc.lft.to/lastmile_qr_scan", "android": "https://dc.lft.to/lastmile_qr_scan"}, "type": "electric_scooter", "name": "7bd4a8d5427d2ea6424e5644a1a44cd4", "is_reserved": 0, "lon": -77.03543566666667, "is_disabled": 0, "fusion_lat": 0.0, "lat": 38.926409, "bike_id": "7bd4a8d5427d2ea6424e5644a1a44cd4", "fusion_lon": 0.0}, {"rental_uris": {"ios": "https://dc.lft.to/lastmile_qr_scan", "android": "https://dc.lft.to/lastmile_qr_scan"}, "type": "electric_scooter", "name": "d81252fe5d7d9f872a5f5c34a1f1d197", "is_reserved": 0, "lon": -77.03059866666666, "is_disabled": 0, "fusion_lat": 0.0, "lat": 38.922528666666665, "bike_id": "d81252fe5d7d9f872a5f5c34a1f1d197", "fusion_lon": 0.0}, {"rental_uris": {"ios": "https://dc.lft.to/lastmile_qr_scan", "android": "https://dc.lft.to/lastmile_qr_scan"}, "type": "electric_scooter", "name": "aa2cb8376f5cd76c9f103c5d83f5d34d", "is_reserved": 0, "lon": -77.0395415, "is_disabled": 0, "fusion_lat": 0.0, "lat": 38.89859933333334, "bike_id": "aa2cb8376f5cd76c9f103c5d83f5d34d", "fusion_lon": 0.0}, {"rental_uris": {"ios": "https://dc.lft.to/lastmile_qr_scan", "android": "https://dc.lft.to/lastmile_qr_scan"}, "type": "electric_scooter", "name": "a9bb3783b4060274212ac4ea5ab848ae", "is_reserved": 0, "lon": -77.0368315, "is_disabled": 0, "fusion_lat": 0.0, "lat": 38.9392665, "bike_id": "a9bb3783b4060274212ac4ea5ab848ae", "fusion_lon": 0.0}, {"rental_uris": {"ios": "https://dc.lft.to/lastmile_qr_scan", "android": "https://dc.lft.to/lastmile_qr_scan"}, "type": "electric_scooter", "name": "fd30ba563c9f332ac8d22a5307386a7b", "is_reserved": 0, "lon": -77.039892, "is_disabled": 0, "fusion_lat": 0.0, "lat": 38.933945, "bike_id": "fd30ba563c9f332ac8d22a5307386a7b", "fusion_lon": 0.0}, {"rental_uris": {"ios": "https://dc.lft.to/lastmile_qr_scan", "android": "https://dc.lft.to/lastmile_qr_scan"}, "type": "electric_scooter", "name": "2aae78783b78495a423f31ce6cac8a32", "is_reserved": 0, "lon": -77.00647133333334, "is_disabled": 0, "fusion_lat": 0.0, "lat": 38.912505833333334, "bike_id": "2aae78783b78495a423f31ce6cac8a32", "fusion_lon": 0.0}, {"rental_uris": {"ios": "https://dc.lft.to/lastmile_qr_scan", "android": "https://dc.lft.to/lastmile_qr_scan"}, "type": "electric_bike", "name": "d5611d8215488e4b9c9efb800c00f2d5", "is_reserved": 0, "lon": -77.004006, "is_disabled": 0, "fusion_lat": 0.0, "lat": 38.92118816666667, "bike_id": "d5611d8215488e4b9c9efb800c00f2d5", "fusion_lon": 0.0}, {"rental_uris": {"ios": "https://dc.lft.to/lastmile_qr_scan", "android": "https://dc.lft.to/lastmile_qr_scan"}, "type": "electric_scooter", "name": "d676b4546633feb6058129ef7c469f0b", "is_reserved": 0, "lon": -77.02407483333333, "is_disabled": 0, "fusion_lat": 0.0, "lat": 38.945083, "bike_id": "d676b4546633feb6058129ef7c469f0b", "fusion_lon": 0.0}, {"rental_uris": {"ios": "https://dc.lft.to/lastmile_qr_scan", "android": "https://dc.lft.to/lastmile_qr_scan"}, "type": "electric_bike", "name": "e3eca402375b438e656a853d9a72964b", "is_reserved": 0, "lon": -76.98059483333333, "is_disabled": 0, "fusion_lat": 0.0, "lat": 38.9725055, "bike_id": "e3eca402375b438e656a853d9a72964b", "fusion_lon": 0.0}, {"rental_uris": {"ios": "https://dc.lft.to/lastmile_qr_scan", "android": "https://dc.lft.to/lastmile_qr_scan"}, "type": "electric_bike", "name": "a229277978a2240af87df9d49fd85d32", "is_reserved": 0, "lon": -77.02423466666667, "is_disabled": 0, "fusion_lat": 0.0, "lat": 38.94907366666666, "bike_id": "a229277978a2240af87df9d49fd85d32", "fusion_lon": 0.0}, {"rental_uris": {"ios": "https://dc.lft.to/lastmile_qr_scan", "android": "https://dc.lft.to/lastmile_qr_scan"}, "type": "electric_scooter", "name": "4da07aa85b78cf5d8d582d81729a45f3", "is_reserved": 0, "lon": -77.00483066666666, "is_disabled": 0, "fusion_lat": 0.0, "lat": 38.87455116666667, "bike_id": "4da07aa85b78cf5d8d582d81729a45f3", "fusion_lon": 0.0}, {"rental_uris": {"ios": "https://dc.lft.to/lastmile_qr_scan", "android": "https://dc.lft.to/lastmile_qr_scan"}, "type": "electric_scooter", "name": "5fac3f6f4483542b32801353992a621b", "is_reserved": 0, "lon": -77.02392783333333, "is_disabled": 0, "fusion_lat": 0.0, "lat": 38.917251666666665, "bike_id": "5fac3f6f4483542b32801353992a621b", "fusion_lon": 0.0}, {"rental_uris": {"ios": "https://dc.lft.to/lastmile_qr_scan", "android": "https://dc.lft.to/lastmile_qr_scan"}, "type": "electric_scooter", "name": "92ede8c097138ba806b91d96083a4ece", "is_reserved": 0, "lon": -77.01903083333333, "is_disabled": 0, "fusion_lat": 0.0, "lat": 38.874617666666666, "bike_id": "92ede8c097138ba806b91d96083a4ece", "fusion_lon": 0.0}, {"rental_uris": {"ios": "https://dc.lft.to/lastmile_qr_scan", "android": "https://dc.lft.to/lastmile_qr_scan"}, "type": "electric_bike", "name": "f43d7a38df63a492d0ba05b54c7e6354", "is_reserved": 0, "lon": -76.99541533333333, "is_disabled": 0, "fusion_lat": 0.0, "lat": 38.831600333333334, "bike_id": "f43d7a38df63a492d0ba05b54c7e6354", "fusion_lon": 0.0}, {"rental_uris": {"ios": "https://dc.lft.to/lastmile_qr_scan", "android": "https://dc.lft.to/lastmile_qr_scan"}, "type": "electric_scooter", "name": "c99b6cfa691eb08f30e7d87678112f75", "is_reserved": 0, "lon": -77.03303766666667, "is_disabled": 0, "fusion_lat": 0.0, "lat": 38.92846633333333, "bike_id": "c99b6cfa691eb08f30e7d87678112f75", "fusion_lon": 0.0}, {"rental_uris": {"ios": "https://dc.lft.to/lastmile_qr_scan", "android": "https://dc.lft.to/lastmile_qr_scan"}, "type": "electric_scooter", "name": "827d5d5520f3fa13d729356da6fb7d7e", "is_reserved": 0, "lon": -77.04660316666667, "is_disabled": 0, "fusion_lat": 0.0, "lat": 38.8934155, "bike_id": "827d5d5520f3fa13d729356da6fb7d7e", "fusion_lon": 0.0}, {"rental_uris": {"ios": "https://dc.lft.to/lastmile_qr_scan", "android": "https://dc.lft.to/lastmile_qr_scan"}, "type": "electric_scooter", "name": "5eefd9ca440f1cb78baaae10d3e22778", "is_reserved": 0, "lon": -77.021519, "is_disabled": 0, "fusion_lat": 0.0, "lat": 38.887394666666665, "bike_id": "5eefd9ca440f1cb78baaae10d3e22778", "fusion_lon": 0.0}, {"rental_uris": {"ios": "https://dc.lft.to/lastmile_qr_scan", "android": "https://dc.lft.to/lastmile_qr_scan"}, "type": "electric_scooter", "name": "bfb5b158ad25088cde58b31007b04646", "is_reserved": 0, "lon": -77.02803766666666, "is_disabled": 0, "fusion_lat": 0.0, "lat": 38.89468133333333, "bike_id": "bfb5b158ad25088cde58b31007b04646", "fusion_lon": 0.0}, {"rental_uris": {"ios": "https://dc.lft.to/lastmile_qr_scan", "android": "https://dc.lft.to/lastmile_qr_scan"}, "type": "electric_scooter", "name": "a8f39fb32e4685fefb668da7cc6e47eb", "is_reserved": 0, "lon": -77.04692566666667, "is_disabled": 0, "fusion_lat": 0.0, "lat": 38.8974325, "bike_id": "a8f39fb32e4685fefb668da7cc6e47eb", "fusion_lon": 0.0}, {"rental_uris": {"ios": "https://dc.lft.to/lastmile_qr_scan", "android": "https://dc.lft.to/lastmile_qr_scan"}, "type": "electric_scooter", "name": "aedfb48ee3f6a34681d99e551835dca9", "is_reserved": 0, "lon": -76.9963595, "is_disabled": 0, "fusion_lat": 0.0, "lat": 38.8876685, "bike_id": "aedfb48ee3f6a34681d99e551835dca9", "fusion_lon": 0.0}, {"rental_uris": {"ios": "https://dc.lft.to/lastmile_qr_scan", "android": "https://dc.lft.to/lastmile_qr_scan"}, "type": "electric_scooter", "name": "ba59259594c97e54d5fb242bb7aec722", "is_reserved": 0, "lon": -76.99624383333334, "is_disabled": 0, "fusion_lat": 0.0, "lat": 38.900019666666665, "bike_id": "ba59259594c97e54d5fb242bb7aec722", "fusion_lon": 0.0}, {"rental_uris": {"ios": "https://dc.lft.to/lastmile_qr_scan", "android": "https://dc.lft.to/lastmile_qr_scan"}, "type": "electric_scooter", "name": "9ea2109e91912cce5abfcfb30432308a", "is_reserved": 0, "lon": -76.97935183333334, "is_disabled": 0, "fusion_lat": 0.0, "lat": 38.906619166666665, "bike_id": "9ea2109e91912cce5abfcfb30432308a", "fusion_lon": 0.0}, {"rental_uris": {"ios": "https://dc.lft.to/lastmile_qr_scan", "android": "https://dc.lft.to/lastmile_qr_scan"}, "type": "electric_scooter", "name": "03e8b0018bd67c4e2c71a1f25223165d", "is_reserved": 0, "lon": -77.00890033333333, "is_disabled": 0, "fusion_lat": 0.0, "lat": 38.89867266666667, "bike_id": "03e8b0018bd67c4e2c71a1f25223165d", "fusion_lon": 0.0}, {"rental_uris": {"ios": "https://dc.lft.to/lastmile_qr_scan", "android": "https://dc.lft.to/lastmile_qr_scan"}, "type": "electric_scooter", "name": "9e9d79e58382040a4d1021e24f0cfb21", "is_reserved": 0, "lon": -77.0018945, "is_disabled": 0, "fusion_lat": 0.0, "lat": 38.905726333333334, "bike_id": "9e9d79e58382040a4d1021e24f0cfb21", "fusion_lon": 0.0}, {"rental_uris": {"ios": "https://dc.lft.to/lastmile_qr_scan", "android": "https://dc.lft.to/lastmile_qr_scan"}, "type": "electric_scooter", "name": "facc67793c4c7386c83a06b2224d2aef", "is_reserved": 0, "lon": -77.03322183333333, "is_disabled": 0, "fusion_lat": 0.0, "lat": 38.919149, "bike_id": "facc67793c4c7386c83a06b2224d2aef", "fusion_lon": 0.0}, {"rental_uris": {"ios": "https://dc.lft.to/lastmile_qr_scan", "android": "https://dc.lft.to/lastmile_qr_scan"}, "type": "electric_scooter", "name": "5be3477f25d8a16b182079d3baa6f77b", "is_reserved": 0, "lon": -77.035063, "is_disabled": 0, "fusion_lat": 0.0, "lat": 38.92153, "bike_id": "5be3477f25d8a16b182079d3baa6f77b", "fusion_lon": 0.0}, {"rental_uris": {"ios": "https://dc.lft.to/lastmile_qr_scan", "android": "https://dc.lft.to/lastmile_qr_scan"}, "type": "electric_bike", "name": "a34de69f38bcfae946c725a5c8c28f46", "is_reserved": 0, "lon": -76.9809105, "is_disabled": 0, "fusion_lat": 0.0, "lat": 38.95354316666667, "bike_id": "a34de69f38bcfae946c725a5c8c28f46", "fusion_lon": 0.0}, {"rental_uris": {"ios": "https://dc.lft.to/lastmile_qr_scan", "android": "https://dc.lft.to/lastmile_qr_scan"}, "type": "electric_bike", "name": "14f8c9e50ce1215b1b3b865605039f35", "is_reserved": 0, "lon": -77.04489283333334, "is_disabled": 0, "fusion_lat": 0.0, "lat": 38.91710033333333, "bike_id": "14f8c9e50ce1215b1b3b865605039f35", "fusion_lon": 0.0}, {"rental_uris": {"ios": "https://dc.lft.to/lastmile_qr_scan", "android": "https://dc.lft.to/lastmile_qr_scan"}, "type": "electric_scooter", "name": "cbc77e28fa9827b07b455bcc472d7bb1", "is_reserved": 0, "lon": -77.031788, "is_disabled": 0, "fusion_lat": 0.0, "lat": 38.929088666666665, "bike_id": "cbc77e28fa9827b07b455bcc472d7bb1", "fusion_lon": 0.0}, {"rental_uris": {"ios": "https://dc.lft.to/lastmile_qr_scan", "android": "https://dc.lft.to/lastmile_qr_scan"}, "type": "electric_scooter", "name": "5b4b270fd48a59b45df5263b5455cfb9", "is_reserved": 0, "lon": -77.0452755, "is_disabled": 0, "fusion_lat": 0.0, "lat": 38.911205, "bike_id": "5b4b270fd48a59b45df5263b5455cfb9", "fusion_lon": 0.0}, {"rental_uris": {"ios": "https://dc.lft.to/lastmile_qr_scan", "android": "https://dc.lft.to/lastmile_qr_scan"}, "type": "electric_scooter", "name": "146b8f046e4031cb2fd68d67c5c6ae0c", "is_reserved": 0, "lon": -77.031526, "is_disabled": 0, "fusion_lat": 0.0, "lat": 38.9059055, "bike_id": "146b8f046e4031cb2fd68d67c5c6ae0c", "fusion_lon": 0.0}, {"rental_uris": {"ios": "https://dc.lft.to/lastmile_qr_scan", "android": "https://dc.lft.to/lastmile_qr_scan"}, "type": "electric_bike", "name": "8dfde6c7fe03dbafdbba36cb0d2b7884", "is_reserved": 0, "lon": -77.1007515, "is_disabled": 0, "fusion_lat": 0.0, "lat": 38.857364833333335, "bike_id": "8dfde6c7fe03dbafdbba36cb0d2b7884", "fusion_lon": 0.0}, {"rental_uris": {"ios": "https://dc.lft.to/lastmile_qr_scan", "android": "https://dc.lft.to/lastmile_qr_scan"}, "type": "electric_scooter", "name": "e6e495ba5492e03fb8d0acb08fa7159a", "is_reserved": 0, "lon": -77.00217916666666, "is_disabled": 0, "fusion_lat": 0.0, "lat": 38.894520666666665, "bike_id": "e6e495ba5492e03fb8d0acb08fa7159a", "fusion_lon": 0.0}, {"rental_uris": {"ios": "https://dc.lft.to/lastmile_qr_scan", "android": "https://dc.lft.to/lastmile_qr_scan"}, "type": "electric_scooter", "name": "1f8cec5b66c892481e367d49c2cbfb9f", "is_reserved": 0, "lon": -77.03199233333333, "is_disabled": 0, "fusion_lat": 0.0, "lat": 38.89460016666666, "bike_id": "1f8cec5b66c892481e367d49c2cbfb9f", "fusion_lon": 0.0}, {"rental_uris": {"ios": "https://dc.lft.to/lastmile_qr_scan", "android": "https://dc.lft.to/lastmile_qr_scan"}, "type": "electric_scooter", "name": "7249c3171979e3dac5b3ea277eef8f67", "is_reserved": 0, "lon": -77.00346433333333, "is_disabled": 0, "fusion_lat": 0.0, "lat": 38.87670516666667, "bike_id": "7249c3171979e3dac5b3ea277eef8f67", "fusion_lon": 0.0}, {"rental_uris": {"ios": "https://dc.lft.to/lastmile_qr_scan", "android": "https://dc.lft.to/lastmile_qr_scan"}, "type": "electric_scooter", "name": "a84e820b1a9483211fe3989e5b83c46a", "is_reserved": 0, "lon": -77.033765, "is_disabled": 0, "fusion_lat": 0.0, "lat": 38.93861883333334, "bike_id": "a84e820b1a9483211fe3989e5b83c46a", "fusion_lon": 0.0}, {"rental_uris": {"ios": "https://dc.lft.to/lastmile_qr_scan", "android": "https://dc.lft.to/lastmile_qr_scan"}, "type": "electric_scooter", "name": "00c592bd9a9d257aa3ad367aa2a8c65d", "is_reserved": 0, "lon": -77.00274983333334, "is_disabled": 0, "fusion_lat": 0.0, "lat": 38.887668166666664, "bike_id": "00c592bd9a9d257aa3ad367aa2a8c65d", "fusion_lon": 0.0}, {"rental_uris": {"ios": "https://dc.lft.to/lastmile_qr_scan", "android": "https://dc.lft.to/lastmile_qr_scan"}, "type": "electric_scooter", "name": "2ba0740a61a81ca053d7fb1666ecbacd", "is_reserved": 0, "lon": -77.049611, "is_disabled": 0, "fusion_lat": 0.0, "lat": 38.91597, "bike_id": "2ba0740a61a81ca053d7fb1666ecbacd", "fusion_lon": 0.0}, {"rental_uris": {"ios": "https://dc.lft.to/lastmile_qr_scan", "android": "https://dc.lft.to/lastmile_qr_scan"}, "type": "electric_scooter", "name": "8ad48c3909eaf03dae0162f409d75bf5", "is_reserved": 0, "lon": -77.0447705, "is_disabled": 0, "fusion_lat": 0.0, "lat": 38.915871333333335, "bike_id": "8ad48c3909eaf03dae0162f409d75bf5", "fusion_lon": 0.0}, {"rental_uris": {"ios": "https://dc.lft.to/lastmile_qr_scan", "android": "https://dc.lft.to/lastmile_qr_scan"}, "type": "electric_bike", "name": "2b30e7988cb75a37023adc8c360fb761", "is_reserved": 0, "lon": -76.9731455, "is_disabled": 0, "fusion_lat": 0.0, "lat": 38.864986333333334, "bike_id": "2b30e7988cb75a37023adc8c360fb761", "fusion_lon": 0.0}, {"rental_uris": {"ios": "https://dc.lft.to/lastmile_qr_scan", "android": "https://dc.lft.to/lastmile_qr_scan"}, "type": "electric_scooter", "name": "ad5a8b9f60a5963a4ffe547119cf619f", "is_reserved": 0, "lon": -76.9853645, "is_disabled": 0, "fusion_lat": 0.0, "lat": 38.858521833333334, "bike_id": "ad5a8b9f60a5963a4ffe547119cf619f", "fusion_lon": 0.0}, {"rental_uris": {"ios": "https://dc.lft.to/lastmile_qr_scan", "android": "https://dc.lft.to/lastmile_qr_scan"}, "type": "electric_scooter", "name": "0a4d107494aa74d9d121374d6ea0c859", "is_reserved": 0, "lon": -77.02309383333333, "is_disabled": 0, "fusion_lat": 0.0, "lat": 38.898636333333336, "bike_id": "0a4d107494aa74d9d121374d6ea0c859", "fusion_lon": 0.0}, {"rental_uris": {"ios": "https://dc.lft.to/lastmile_qr_scan", "android": "https://dc.lft.to/lastmile_qr_scan"}, "type": "electric_scooter", "name": "dbc05036e66915fc0195503e0d3e2efa", "is_reserved": 0, "lon": -77.0444985, "is_disabled": 0, "fusion_lat": 0.0, "lat": 38.912598, "bike_id": "dbc05036e66915fc0195503e0d3e2efa", "fusion_lon": 0.0}, {"rental_uris": {"ios": "https://dc.lft.to/lastmile_qr_scan", "android": "https://dc.lft.to/lastmile_qr_scan"}, "type": "electric_scooter", "name": "2fff7957f422333838ac4165b60cb25d", "is_reserved": 0, "lon": -77.021861, "is_disabled": 0, "fusion_lat": 0.0, "lat": 38.909756333333334, "bike_id": "2fff7957f422333838ac4165b60cb25d", "fusion_lon": 0.0}, {"rental_uris": {"ios": "https://dc.lft.to/lastmile_qr_scan", "android": "https://dc.lft.to/lastmile_qr_scan"}, "type": "electric_scooter", "name": "87424a934c82a48c58a95e8214878a3d", "is_reserved": 0, "lon": -77.00718966666666, "is_disabled": 0, "fusion_lat": 0.0, "lat": 38.911842666666665, "bike_id": "87424a934c82a48c58a95e8214878a3d", "fusion_lon": 0.0}, {"rental_uris": {"ios": "https://dc.lft.to/lastmile_qr_scan", "android": "https://dc.lft.to/lastmile_qr_scan"}, "type": "electric_scooter", "name": "361fdffee5f2356f5b0ffa3d3ebdf4f5", "is_reserved": 0, "lon": -77.02925266666666, "is_disabled": 0, "fusion_lat": 0.0, "lat": 38.8975385, "bike_id": "361fdffee5f2356f5b0ffa3d3ebdf4f5", "fusion_lon": 0.0}, {"rental_uris": {"ios": "https://dc.lft.to/lastmile_qr_scan", "android": "https://dc.lft.to/lastmile_qr_scan"}, "type": "electric_scooter", "name": "aadebc5c660c0fcb56947cc8ffc15b2f", "is_reserved": 0, "lon": -77.0307575, "is_disabled": 0, "fusion_lat": 0.0, "lat": 38.92385933333333, "bike_id": "aadebc5c660c0fcb56947cc8ffc15b2f", "fusion_lon": 0.0}, {"rental_uris": {"ios": "https://dc.lft.to/lastmile_qr_scan", "android": "https://dc.lft.to/lastmile_qr_scan"}, "type": "electric_scooter", "name": "720ab8485fe131646154420d3491051d", "is_reserved": 0, "lon": -77.03842116666667, "is_disabled": 0, "fusion_lat": 0.0, "lat": 38.9098385, "bike_id": "720ab8485fe131646154420d3491051d", "fusion_lon": 0.0}, {"rental_uris": {"ios": "https://dc.lft.to/lastmile_qr_scan", "android": "https://dc.lft.to/lastmile_qr_scan"}, "type": "electric_scooter", "name": "6394d09489b4b353f85931510daf83c7", "is_reserved": 0, "lon": -77.02392566666667, "is_disabled": 0, "fusion_lat": 0.0, "lat": 38.898575, "bike_id": "6394d09489b4b353f85931510daf83c7", "fusion_lon": 0.0}, {"rental_uris": {"ios": "https://dc.lft.to/lastmile_qr_scan", "android": "https://dc.lft.to/lastmile_qr_scan"}, "type": "electric_scooter", "name": "c46d839d5f2904fa0a5db6ae302fbecd", "is_reserved": 0, "lon": -76.98279416666666, "is_disabled": 0, "fusion_lat": 0.0, "lat": 38.903431166666664, "bike_id": "c46d839d5f2904fa0a5db6ae302fbecd", "fusion_lon": 0.0}, {"rental_uris": {"ios": "https://dc.lft.to/lastmile_qr_scan", "android": "https://dc.lft.to/lastmile_qr_scan"}, "type": "electric_scooter", "name": "965af372f4cc20c39cc55835faf66bc6", "is_reserved": 0, "lon": -77.061058, "is_disabled": 0, "fusion_lat": 0.0, "lat": 38.937042, "bike_id": "965af372f4cc20c39cc55835faf66bc6", "fusion_lon": 0.0}, {"rental_uris": {"ios": "https://dc.lft.to/lastmile_qr_scan", "android": "https://dc.lft.to/lastmile_qr_scan"}, "type": "electric_scooter", "name": "50215c48dc868e308f6d12d98b047c9f", "is_reserved": 0, "lon": -77.03041583333334, "is_disabled": 0, "fusion_lat": 0.0, "lat": 38.8972265, "bike_id": "50215c48dc868e308f6d12d98b047c9f", "fusion_lon": 0.0}, {"rental_uris": {"ios": "https://dc.lft.to/lastmile_qr_scan", "android": "https://dc.lft.to/lastmile_qr_scan"}, "type": "electric_scooter", "name": "f3873c2094121d73fd9065a92e601d98", "is_reserved": 0, "lon": -76.99773116666667, "is_disabled": 0, "fusion_lat": 0.0, "lat": 38.92258433333333, "bike_id": "f3873c2094121d73fd9065a92e601d98", "fusion_lon": 0.0}, {"rental_uris": {"ios": "https://dc.lft.to/lastmile_qr_scan", "android": "https://dc.lft.to/lastmile_qr_scan"}, "type": "electric_scooter", "name": "7451d1056750ffb397ac11486cf59de0", "is_reserved": 0, "lon": -77.01831683333333, "is_disabled": 0, "fusion_lat": 0.0, "lat": 38.92214666666667, "bike_id": "7451d1056750ffb397ac11486cf59de0", "fusion_lon": 0.0}, {"rental_uris": {"ios": "https://dc.lft.to/lastmile_qr_scan", "android": "https://dc.lft.to/lastmile_qr_scan"}, "type": "electric_scooter", "name": "cfbedf405cf14838761cc79a4fe6da70", "is_reserved": 0, "lon": -77.03219416666667, "is_disabled": 0, "fusion_lat": 0.0, "lat": 38.916403, "bike_id": "cfbedf405cf14838761cc79a4fe6da70", "fusion_lon": 0.0}, {"rental_uris": {"ios": "https://dc.lft.to/lastmile_qr_scan", "android": "https://dc.lft.to/lastmile_qr_scan"}, "type": "electric_scooter", "name": "d280a25e493b8625a1e8af35a87d1929", "is_reserved": 0, "lon": -77.03342666666667, "is_disabled": 0, "fusion_lat": 0.0, "lat": 38.902539166666664, "bike_id": "d280a25e493b8625a1e8af35a87d1929", "fusion_lon": 0.0}, {"rental_uris": {"ios": "https://dc.lft.to/lastmile_qr_scan", "android": "https://dc.lft.to/lastmile_qr_scan"}, "type": "electric_scooter", "name": "0ba6a4fccb095cf690eed8ac78c5e6e0", "is_reserved": 0, "lon": -77.01572283333333, "is_disabled": 0, "fusion_lat": 0.0, "lat": 38.87652666666666, "bike_id": "0ba6a4fccb095cf690eed8ac78c5e6e0", "fusion_lon": 0.0}, {"rental_uris": {"ios": "https://dc.lft.to/lastmile_qr_scan", "android": "https://dc.lft.to/lastmile_qr_scan"}, "type": "electric_scooter", "name": "6faecca9ad7c9c84669feca1bbba5640", "is_reserved": 0, "lon": -77.0135705, "is_disabled": 0, "fusion_lat": 0.0, "lat": 38.919259833333335, "bike_id": "6faecca9ad7c9c84669feca1bbba5640", "fusion_lon": 0.0}, {"rental_uris": {"ios": "https://dc.lft.to/lastmile_qr_scan", "android": "https://dc.lft.to/lastmile_qr_scan"}, "type": "electric_scooter", "name": "783f2452174baccf6304af5cdf995daf", "is_reserved": 0, "lon": -77.04339783333333, "is_disabled": 0, "fusion_lat": 0.0, "lat": 38.913742166666665, "bike_id": "783f2452174baccf6304af5cdf995daf", "fusion_lon": 0.0}, {"rental_uris": {"ios": "https://dc.lft.to/lastmile_qr_scan", "android": "https://dc.lft.to/lastmile_qr_scan"}, "type": "electric_bike", "name": "57f0f4cfe53f2a25a27a89892ed6eb59", "is_reserved": 0, "lon": -77.06419366666667, "is_disabled": 0, "fusion_lat": 0.0, "lat": 38.906180166666665, "bike_id": "57f0f4cfe53f2a25a27a89892ed6eb59", "fusion_lon": 0.0}, {"rental_uris": {"ios": "https://dc.lft.to/lastmile_qr_scan", "android": "https://dc.lft.to/lastmile_qr_scan"}, "type": "electric_scooter", "name": "a94303cd7bbc4b7a675dadf753cac3c9", "is_reserved": 0, "lon": -77.0206375, "is_disabled": 0, "fusion_lat": 0.0, "lat": 38.884912, "bike_id": "a94303cd7bbc4b7a675dadf753cac3c9", "fusion_lon": 0.0}, {"rental_uris": {"ios": "https://dc.lft.to/lastmile_qr_scan", "android": "https://dc.lft.to/lastmile_qr_scan"}, "type": "electric_scooter", "name": "474665956220c79eb9d1877582023a13", "is_reserved": 0, "lon": -77.04527966666667, "is_disabled": 0, "fusion_lat": 0.0, "lat": 38.91116866666667, "bike_id": "474665956220c79eb9d1877582023a13", "fusion_lon": 0.0}, {"rental_uris": {"ios": "https://dc.lft.to/lastmile_qr_scan", "android": "https://dc.lft.to/lastmile_qr_scan"}, "type": "electric_scooter", "name": "616065907406d83ba46988f315336ee2", "is_reserved": 0, "lon": -77.01346383333333, "is_disabled": 0, "fusion_lat": 0.0, "lat": 38.919134, "bike_id": "616065907406d83ba46988f315336ee2", "fusion_lon": 0.0}, {"rental_uris": {"ios": "https://dc.lft.to/lastmile_qr_scan", "android": "https://dc.lft.to/lastmile_qr_scan"}, "type": "electric_bike", "name": "f35ec45d8eac90bb5e06330f7f0c5ffe", "is_reserved": 0, "lon": -77.09958383333333, "is_disabled": 0, "fusion_lat": 0.0, "lat": 38.85784683333333, "bike_id": "f35ec45d8eac90bb5e06330f7f0c5ffe", "fusion_lon": 0.0}, {"rental_uris": {"ios": "https://dc.lft.to/lastmile_qr_scan", "android": "https://dc.lft.to/lastmile_qr_scan"}, "type": "electric_scooter", "name": "950bc1240012f3eb32696cabae844f05", "is_reserved": 0, "lon": -77.00568866666667, "is_disabled": 0, "fusion_lat": 0.0, "lat": 38.874566333333334, "bike_id": "950bc1240012f3eb32696cabae844f05", "fusion_lon": 0.0}, {"rental_uris": {"ios": "https://dc.lft.to/lastmile_qr_scan", "android": "https://dc.lft.to/lastmile_qr_scan"}, "type": "electric_scooter", "name": "cc016b92d015b71b40db7b0311669c7b", "is_reserved": 0, "lon": -77.042075, "is_disabled": 0, "fusion_lat": 0.0, "lat": 38.917045, "bike_id": "cc016b92d015b71b40db7b0311669c7b", "fusion_lon": 0.0}, {"rental_uris": {"ios": "https://dc.lft.to/lastmile_qr_scan", "android": "https://dc.lft.to/lastmile_qr_scan"}, "type": "electric_scooter", "name": "2026931a39a895564bb80f989c415e6a", "is_reserved": 0, "lon": -76.98700733333334, "is_disabled": 0, "fusion_lat": 0.0, "lat": 38.88837216666667, "bike_id": "2026931a39a895564bb80f989c415e6a", "fusion_lon": 0.0}, {"rental_uris": {"ios": "https://dc.lft.to/lastmile_qr_scan", "android": "https://dc.lft.to/lastmile_qr_scan"}, "type": "electric_scooter", "name": "ed4f4098964db46f2da8140c5de7eae6", "is_reserved": 0, "lon": -77.00940816666666, "is_disabled": 0, "fusion_lat": 0.0, "lat": 38.912683666666666, "bike_id": "ed4f4098964db46f2da8140c5de7eae6", "fusion_lon": 0.0}, {"rental_uris": {"ios": "https://dc.lft.to/lastmile_qr_scan", "android": "https://dc.lft.to/lastmile_qr_scan"}, "type": "electric_scooter", "name": "83bd3ce6d4c9b62b6fc5cf600fd86061", "is_reserved": 0, "lon": -77.026512, "is_disabled": 0, "fusion_lat": 0.0, "lat": 38.89600816666667, "bike_id": "83bd3ce6d4c9b62b6fc5cf600fd86061", "fusion_lon": 0.0}, {"rental_uris": {"ios": "https://dc.lft.to/lastmile_qr_scan", "android": "https://dc.lft.to/lastmile_qr_scan"}, "type": "electric_bike", "name": "6a5e155ea2e51dedcd85db77cb555b6d", "is_reserved": 0, "lon": -76.97857933333333, "is_disabled": 0, "fusion_lat": 0.0, "lat": 38.98382183333333, "bike_id": "6a5e155ea2e51dedcd85db77cb555b6d", "fusion_lon": 0.0}, {"rental_uris": {"ios": "https://dc.lft.to/lastmile_qr_scan", "android": "https://dc.lft.to/lastmile_qr_scan"}, "type": "electric_scooter", "name": "d862f4b1bd628a22fb984c19a1461aff", "is_reserved": 0, "lon": -77.03276316666667, "is_disabled": 0, "fusion_lat": 0.0, "lat": 38.9200115, "bike_id": "d862f4b1bd628a22fb984c19a1461aff", "fusion_lon": 0.0}, {"rental_uris": {"ios": "https://dc.lft.to/lastmile_qr_scan", "android": "https://dc.lft.to/lastmile_qr_scan"}, "type": "electric_scooter", "name": "026e9f8feb8351839cf617d7e44a19b5", "is_reserved": 0, "lon": -77.0634095, "is_disabled": 0, "fusion_lat": 0.0, "lat": 38.943652166666666, "bike_id": "026e9f8feb8351839cf617d7e44a19b5", "fusion_lon": 0.0}, {"rental_uris": {"ios": "https://dc.lft.to/lastmile_qr_scan", "android": "https://dc.lft.to/lastmile_qr_scan"}, "type": "electric_scooter", "name": "cf72bd1e2a93aaf5170414946c6fe0e5", "is_reserved": 0, "lon": -76.97939983333333, "is_disabled": 0, "fusion_lat": 0.0, "lat": 38.916039166666664, "bike_id": "cf72bd1e2a93aaf5170414946c6fe0e5", "fusion_lon": 0.0}, {"rental_uris": {"ios": "https://dc.lft.to/lastmile_qr_scan", "android": "https://dc.lft.to/lastmile_qr_scan"}, "type": "electric_scooter", "name": "0e01288d4e6efff8a798032ba6884cf6", "is_reserved": 0, "lon": -77.03651333333333, "is_disabled": 0, "fusion_lat": 0.0, "lat": 38.954597666666665, "bike_id": "0e01288d4e6efff8a798032ba6884cf6", "fusion_lon": 0.0}, {"rental_uris": {"ios": "https://dc.lft.to/lastmile_qr_scan", "android": "https://dc.lft.to/lastmile_qr_scan"}, "type": "electric_scooter", "name": "600f1962e0936185871eeba0ce351c44", "is_reserved": 0, "lon": -76.97134133333333, "is_disabled": 0, "fusion_lat": 0.0, "lat": 38.87864716666667, "bike_id": "600f1962e0936185871eeba0ce351c44", "fusion_lon": 0.0}, {"rental_uris": {"ios": "https://dc.lft.to/lastmile_qr_scan", "android": "https://dc.lft.to/lastmile_qr_scan"}, "type": "electric_scooter", "name": "96602f32e04ed5bc719053c9ddc0abe3", "is_reserved": 0, "lon": -76.98732166666667, "is_disabled": 0, "fusion_lat": 0.0, "lat": 38.8421975, "bike_id": "96602f32e04ed5bc719053c9ddc0abe3", "fusion_lon": 0.0}, {"rental_uris": {"ios": "https://dc.lft.to/lastmile_qr_scan", "android": "https://dc.lft.to/lastmile_qr_scan"}, "type": "electric_scooter", "name": "db68b534c4eb799813be41f1e4fa03dd", "is_reserved": 0, "lon": -76.995622, "is_disabled": 0, "fusion_lat": 0.0, "lat": 38.9268175, "bike_id": "db68b534c4eb799813be41f1e4fa03dd", "fusion_lon": 0.0}, {"rental_uris": {"ios": "https://dc.lft.to/lastmile_qr_scan", "android": "https://dc.lft.to/lastmile_qr_scan"}, "type": "electric_scooter", "name": "7a66e5beff3adcdde52659562df06a15", "is_reserved": 0, "lon": -77.03955016666667, "is_disabled": 0, "fusion_lat": 0.0, "lat": 38.898263, "bike_id": "7a66e5beff3adcdde52659562df06a15", "fusion_lon": 0.0}, {"rental_uris": {"ios": "https://dc.lft.to/lastmile_qr_scan", "android": "https://dc.lft.to/lastmile_qr_scan"}, "type": "electric_scooter", "name": "947d5cf90156d3fd8d255b25393c12b9", "is_reserved": 0, "lon": -77.04672433333333, "is_disabled": 0, "fusion_lat": 0.0, "lat": 38.892258166666664, "bike_id": "947d5cf90156d3fd8d255b25393c12b9", "fusion_lon": 0.0}, {"rental_uris": {"ios": "https://dc.lft.to/lastmile_qr_scan", "android": "https://dc.lft.to/lastmile_qr_scan"}, "type": "electric_scooter", "name": "b33da8df36c94a8320ff1e9d3331de35", "is_reserved": 0, "lon": -77.02439516666666, "is_disabled": 0, "fusion_lat": 0.0, "lat": 38.95639533333333, "bike_id": "b33da8df36c94a8320ff1e9d3331de35", "fusion_lon": 0.0}, {"rental_uris": {"ios": "https://dc.lft.to/lastmile_qr_scan", "android": "https://dc.lft.to/lastmile_qr_scan"}, "type": "electric_scooter", "name": "ac9d8a14c24c18b310a0a28f97847b1d", "is_reserved": 0, "lon": -76.99153933333334, "is_disabled": 0, "fusion_lat": 0.0, "lat": 38.901190166666666, "bike_id": "ac9d8a14c24c18b310a0a28f97847b1d", "fusion_lon": 0.0}, {"rental_uris": {"ios": "https://dc.lft.to/lastmile_qr_scan", "android": "https://dc.lft.to/lastmile_qr_scan"}, "type": "electric_scooter", "name": "de3976193635341a98585440b058dcef", "is_reserved": 0, "lon": -77.03366283333334, "is_disabled": 0, "fusion_lat": 0.0, "lat": 38.92851483333333, "bike_id": "de3976193635341a98585440b058dcef", "fusion_lon": 0.0}, {"rental_uris": {"ios": "https://dc.lft.to/lastmile_qr_scan", "android": "https://dc.lft.to/lastmile_qr_scan"}, "type": "electric_scooter", "name": "ac8ecbf8b2c2a6933be96b5d9db74587", "is_reserved": 0, "lon": -76.9292115, "is_disabled": 0, "fusion_lat": 0.0, "lat": 38.88658216666666, "bike_id": "ac8ecbf8b2c2a6933be96b5d9db74587", "fusion_lon": 0.0}, {"rental_uris": {"ios": "https://dc.lft.to/lastmile_qr_scan", "android": "https://dc.lft.to/lastmile_qr_scan"}, "type": "electric_scooter", "name": "8dd7ba474aa531ede8d1dc5b5fcb0fcb", "is_reserved": 0, "lon": -77.0530895, "is_disabled": 0, "fusion_lat": 0.0, "lat": 38.902532666666666, "bike_id": "8dd7ba474aa531ede8d1dc5b5fcb0fcb", "fusion_lon": 0.0}, {"rental_uris": {"ios": "https://dc.lft.to/lastmile_qr_scan", "android": "https://dc.lft.to/lastmile_qr_scan"}, "type": "electric_scooter", "name": "eda5891ac9491fc0a4348b3aa531dfbf", "is_reserved": 0, "lon": -77.05520466666667, "is_disabled": 0, "fusion_lat": 0.0, "lat": 38.907684333333336, "bike_id": "eda5891ac9491fc0a4348b3aa531dfbf", "fusion_lon": 0.0}, {"rental_uris": {"ios": "https://dc.lft.to/lastmile_qr_scan", "android": "https://dc.lft.to/lastmile_qr_scan"}, "type": "electric_scooter", "name": "18693428956e16dd65a7cba333c50313", "is_reserved": 0, "lon": -77.0709015, "is_disabled": 0, "fusion_lat": 0.0, "lat": 38.95328716666667, "bike_id": "18693428956e16dd65a7cba333c50313", "fusion_lon": 0.0}, {"rental_uris": {"ios": "https://dc.lft.to/lastmile_qr_scan", "android": "https://dc.lft.to/lastmile_qr_scan"}, "type": "electric_scooter", "name": "d8fcda9066de1563e79d9b0e14c86e65", "is_reserved": 0, "lon": -77.043355, "is_disabled": 0, "fusion_lat": 0.0, "lat": 38.9223985, "bike_id": "d8fcda9066de1563e79d9b0e14c86e65", "fusion_lon": 0.0}, {"rental_uris": {"ios": "https://dc.lft.to/lastmile_qr_scan", "android": "https://dc.lft.to/lastmile_qr_scan"}, "type": "electric_scooter", "name": "2b2d0f663e4da16f0a9d1acde708a478", "is_reserved": 0, "lon": -77.019961, "is_disabled": 0, "fusion_lat": 0.0, "lat": 38.87605883333333, "bike_id": "2b2d0f663e4da16f0a9d1acde708a478", "fusion_lon": 0.0}, {"rental_uris": {"ios": "https://dc.lft.to/lastmile_qr_scan", "android": "https://dc.lft.to/lastmile_qr_scan"}, "type": "electric_scooter", "name": "5c6e93126f973ad89c73e57591ac3422", "is_reserved": 0, "lon": -77.07287933333333, "is_disabled": 0, "fusion_lat": 0.0, "lat": 38.914417666666665, "bike_id": "5c6e93126f973ad89c73e57591ac3422", "fusion_lon": 0.0}, {"rental_uris": {"ios": "https://dc.lft.to/lastmile_qr_scan", "android": "https://dc.lft.to/lastmile_qr_scan"}, "type": "electric_scooter", "name": "7eccb839e36b4afe5a8e247986cc2715", "is_reserved": 0, "lon": -77.023836, "is_disabled": 0, "fusion_lat": 0.0, "lat": 38.9352325, "bike_id": "7eccb839e36b4afe5a8e247986cc2715", "fusion_lon": 0.0}, {"rental_uris": {"ios": "https://dc.lft.to/lastmile_qr_scan", "android": "https://dc.lft.to/lastmile_qr_scan"}, "type": "electric_bike", "name": "a7745231214a632da13313401fc13a94", "is_reserved": 0, "lon": -76.99251883333334, "is_disabled": 0, "fusion_lat": 0.0, "lat": 38.9606845, "bike_id": "a7745231214a632da13313401fc13a94", "fusion_lon": 0.0}, {"rental_uris": {"ios": "https://dc.lft.to/lastmile_qr_scan", "android": "https://dc.lft.to/lastmile_qr_scan"}, "type": "electric_scooter", "name": "00bf3713995c8f3ea605ab40b99f8619", "is_reserved": 0, "lon": -77.07335666666667, "is_disabled": 0, "fusion_lat": 0.0, "lat": 38.960908333333336, "bike_id": "00bf3713995c8f3ea605ab40b99f8619", "fusion_lon": 0.0}, {"rental_uris": {"ios": "https://dc.lft.to/lastmile_qr_scan", "android": "https://dc.lft.to/lastmile_qr_scan"}, "type": "electric_scooter", "name": "82a72dd2a3e0e8c176e307de8eca06dc", "is_reserved": 0, "lon": -77.0318765, "is_disabled": 0, "fusion_lat": 0.0, "lat": 38.910978666666665, "bike_id": "82a72dd2a3e0e8c176e307de8eca06dc", "fusion_lon": 0.0}, {"rental_uris": {"ios": "https://dc.lft.to/lastmile_qr_scan", "android": "https://dc.lft.to/lastmile_qr_scan"}, "type": "electric_scooter", "name": "59675a96a6e014f5981a93e5f2868f73", "is_reserved": 0, "lon": -77.03139016666667, "is_disabled": 0, "fusion_lat": 0.0, "lat": 38.887502, "bike_id": "59675a96a6e014f5981a93e5f2868f73", "fusion_lon": 0.0}, {"rental_uris": {"ios": "https://dc.lft.to/lastmile_qr_scan", "android": "https://dc.lft.to/lastmile_qr_scan"}, "type": "electric_scooter", "name": "7eac0c99a6c1aaf8a8d92a33af2e5e8c", "is_reserved": 0, "lon": -76.99793383333333, "is_disabled": 0, "fusion_lat": 0.0, "lat": 38.87629716666667, "bike_id": "7eac0c99a6c1aaf8a8d92a33af2e5e8c", "fusion_lon": 0.0}, {"rental_uris": {"ios": "https://dc.lft.to/lastmile_qr_scan", "android": "https://dc.lft.to/lastmile_qr_scan"}, "type": "electric_bike", "name": "c9de072d8e543b55299f6c79ce319eae", "is_reserved": 0, "lon": -76.9580065, "is_disabled": 0, "fusion_lat": 0.0, "lat": 38.98044383333333, "bike_id": "c9de072d8e543b55299f6c79ce319eae", "fusion_lon": 0.0}, {"rental_uris": {"ios": "https://dc.lft.to/lastmile_qr_scan", "android": "https://dc.lft.to/lastmile_qr_scan"}, "type": "electric_scooter", "name": "895b836b98d1478c770fcd25a1d8e3b4", "is_reserved": 0, "lon": -77.03639516666667, "is_disabled": 0, "fusion_lat": 0.0, "lat": 38.93663883333333, "bike_id": "895b836b98d1478c770fcd25a1d8e3b4", "fusion_lon": 0.0}, {"rental_uris": {"ios": "https://dc.lft.to/lastmile_qr_scan", "android": "https://dc.lft.to/lastmile_qr_scan"}, "type": "electric_scooter", "name": "c6949ea1f0ad83a84c0e682662437c82", "is_reserved": 0, "lon": -77.07164966666667, "is_disabled": 0, "fusion_lat": 0.0, "lat": 38.90763116666667, "bike_id": "c6949ea1f0ad83a84c0e682662437c82", "fusion_lon": 0.0}, {"rental_uris": {"ios": "https://dc.lft.to/lastmile_qr_scan", "android": "https://dc.lft.to/lastmile_qr_scan"}, "type": "electric_scooter", "name": "155812b6dbc3cd9b1970d213efe3516c", "is_reserved": 0, "lon": -76.97565216666666, "is_disabled": 0, "fusion_lat": 0.0, "lat": 38.944233, "bike_id": "155812b6dbc3cd9b1970d213efe3516c", "fusion_lon": 0.0}, {"rental_uris": {"ios": "https://dc.lft.to/lastmile_qr_scan", "android": "https://dc.lft.to/lastmile_qr_scan"}, "type": "electric_bike", "name": "2ca1f12d5242f79291323dee14a26467", "is_reserved": 0, "lon": -77.00134466666667, "is_disabled": 0, "fusion_lat": 0.0, "lat": 38.994992333333336, "bike_id": "2ca1f12d5242f79291323dee14a26467", "fusion_lon": 0.0}, {"rental_uris": {"ios": "https://dc.lft.to/lastmile_qr_scan", "android": "https://dc.lft.to/lastmile_qr_scan"}, "type": "electric_scooter", "name": "56eeabeabe7a4147df08cb2caf817e97", "is_reserved": 0, "lon": -77.06098566666667, "is_disabled": 0, "fusion_lat": 0.0, "lat": 38.93988516666667, "bike_id": "56eeabeabe7a4147df08cb2caf817e97", "fusion_lon": 0.0}, {"rental_uris": {"ios": "https://dc.lft.to/lastmile_qr_scan", "android": "https://dc.lft.to/lastmile_qr_scan"}, "type": "electric_scooter", "name": "e4cd55e29ac86cfaea90dd8316f737bb", "is_reserved": 0, "lon": -77.05508516666667, "is_disabled": 0, "fusion_lat": 0.0, "lat": 38.92831366666667, "bike_id": "e4cd55e29ac86cfaea90dd8316f737bb", "fusion_lon": 0.0}, {"rental_uris": {"ios": "https://dc.lft.to/lastmile_qr_scan", "android": "https://dc.lft.to/lastmile_qr_scan"}, "type": "electric_scooter", "name": "f513a2eebfbd6a9739fb9aa714c1b9a9", "is_reserved": 0, "lon": -76.937462, "is_disabled": 0, "fusion_lat": 0.0, "lat": 38.8900795, "bike_id": "f513a2eebfbd6a9739fb9aa714c1b9a9", "fusion_lon": 0.0}, {"rental_uris": {"ios": "https://dc.lft.to/lastmile_qr_scan", "android": "https://dc.lft.to/lastmile_qr_scan"}, "type": "electric_scooter", "name": "5a41818061d514626aa2b1c7535c7777", "is_reserved": 0, "lon": -77.03462916666666, "is_disabled": 0, "fusion_lat": 0.0, "lat": 38.908386666666665, "bike_id": "5a41818061d514626aa2b1c7535c7777", "fusion_lon": 0.0}, {"rental_uris": {"ios": "https://dc.lft.to/lastmile_qr_scan", "android": "https://dc.lft.to/lastmile_qr_scan"}, "type": "electric_scooter", "name": "5393fb68d10b8b12287fa968a2d36ecc", "is_reserved": 0, "lon": -77.037196, "is_disabled": 0, "fusion_lat": 0.0, "lat": 38.926468666666665, "bike_id": "5393fb68d10b8b12287fa968a2d36ecc", "fusion_lon": 0.0}, {"rental_uris": {"ios": "https://dc.lft.to/lastmile_qr_scan", "android": "https://dc.lft.to/lastmile_qr_scan"}, "type": "electric_scooter", "name": "ab67f333c357edafcc1c9492a01915c1", "is_reserved": 0, "lon": -77.01981983333333, "is_disabled": 0, "fusion_lat": 0.0, "lat": 38.88719666666667, "bike_id": "ab67f333c357edafcc1c9492a01915c1", "fusion_lon": 0.0}, {"rental_uris": {"ios": "https://dc.lft.to/lastmile_qr_scan", "android": "https://dc.lft.to/lastmile_qr_scan"}, "type": "electric_scooter", "name": "f013d8134e2701ce145ac5a9b9caafe9", "is_reserved": 0, "lon": -77.04455233333333, "is_disabled": 0, "fusion_lat": 0.0, "lat": 38.92467, "bike_id": "f013d8134e2701ce145ac5a9b9caafe9", "fusion_lon": 0.0}, {"rental_uris": {"ios": "https://dc.lft.to/lastmile_qr_scan", "android": "https://dc.lft.to/lastmile_qr_scan"}, "type": "electric_scooter", "name": "581aa112b0e36b11da858e7a2a72ccd1", "is_reserved": 0, "lon": -77.022271, "is_disabled": 0, "fusion_lat": 0.0, "lat": 38.8921805, "bike_id": "581aa112b0e36b11da858e7a2a72ccd1", "fusion_lon": 0.0}, {"rental_uris": {"ios": "https://dc.lft.to/lastmile_qr_scan", "android": "https://dc.lft.to/lastmile_qr_scan"}, "type": "electric_scooter", "name": "34838274b8290a6dedac94793ae39bf8", "is_reserved": 0, "lon": -76.99743883333333, "is_disabled": 0, "fusion_lat": 0.0, "lat": 38.90128383333333, "bike_id": "34838274b8290a6dedac94793ae39bf8", "fusion_lon": 0.0}, {"rental_uris": {"ios": "https://dc.lft.to/lastmile_qr_scan", "android": "https://dc.lft.to/lastmile_qr_scan"}, "type": "electric_scooter", "name": "3af5626df20e957f5503776658923705", "is_reserved": 0, "lon": -77.0318635, "is_disabled": 0, "fusion_lat": 0.0, "lat": 38.89456283333333, "bike_id": "3af5626df20e957f5503776658923705", "fusion_lon": 0.0}, {"rental_uris": {"ios": "https://dc.lft.to/lastmile_qr_scan", "android": "https://dc.lft.to/lastmile_qr_scan"}, "type": "electric_bike", "name": "95ccf1ae56c72c8c9ab338993b99fceb", "is_reserved": 0, "lon": -77.02338583333334, "is_disabled": 0, "fusion_lat": 0.0, "lat": 38.887459666666665, "bike_id": "95ccf1ae56c72c8c9ab338993b99fceb", "fusion_lon": 0.0}, {"rental_uris": {"ios": "https://dc.lft.to/lastmile_qr_scan", "android": "https://dc.lft.to/lastmile_qr_scan"}, "type": "electric_scooter", "name": "18190d97a498311fac9a6c07d7e4c94a", "is_reserved": 0, "lon": -77.02192633333334, "is_disabled": 0, "fusion_lat": 0.0, "lat": 38.910974, "bike_id": "18190d97a498311fac9a6c07d7e4c94a", "fusion_lon": 0.0}, {"rental_uris": {"ios": "https://dc.lft.to/lastmile_qr_scan", "android": "https://dc.lft.to/lastmile_qr_scan"}, "type": "electric_scooter", "name": "314c64eaf36828dd2e603104c20f0342", "is_reserved": 0, "lon": -77.048728, "is_disabled": 0, "fusion_lat": 0.0, "lat": 38.906620333333336, "bike_id": "314c64eaf36828dd2e603104c20f0342", "fusion_lon": 0.0}, {"rental_uris": {"ios": "https://dc.lft.to/lastmile_qr_scan", "android": "https://dc.lft.to/lastmile_qr_scan"}, "type": "electric_scooter", "name": "1923e588de2e2b7acfd0f9d0d498956b", "is_reserved": 0, "lon": -77.0273, "is_disabled": 0, "fusion_lat": 0.0, "lat": 38.8956735, "bike_id": "1923e588de2e2b7acfd0f9d0d498956b", "fusion_lon": 0.0}, {"rental_uris": {"ios": "https://dc.lft.to/lastmile_qr_scan", "android": "https://dc.lft.to/lastmile_qr_scan"}, "type": "electric_scooter", "name": "85accf8f3db4d348c2be7ad207ad9f51", "is_reserved": 0, "lon": -77.03063866666666, "is_disabled": 0, "fusion_lat": 0.0, "lat": 38.92671033333333, "bike_id": "85accf8f3db4d348c2be7ad207ad9f51", "fusion_lon": 0.0}, {"rental_uris": {"ios": "https://dc.lft.to/lastmile_qr_scan", "android": "https://dc.lft.to/lastmile_qr_scan"}, "type": "electric_bike", "name": "5c68e0420ec6a622d11409e1883f147b", "is_reserved": 0, "lon": -77.1074065, "is_disabled": 0, "fusion_lat": 0.0, "lat": 38.855478, "bike_id": "5c68e0420ec6a622d11409e1883f147b", "fusion_lon": 0.0}, {"rental_uris": {"ios": "https://dc.lft.to/lastmile_qr_scan", "android": "https://dc.lft.to/lastmile_qr_scan"}, "type": "electric_scooter", "name": "92f2888c9ec27110bc1bf58fa096cf6b", "is_reserved": 0, "lon": -77.042391, "is_disabled": 0, "fusion_lat": 0.0, "lat": 38.92141216666667, "bike_id": "92f2888c9ec27110bc1bf58fa096cf6b", "fusion_lon": 0.0}, {"rental_uris": {"ios": "https://dc.lft.to/lastmile_qr_scan", "android": "https://dc.lft.to/lastmile_qr_scan"}, "type": "electric_scooter", "name": "0f004db5a96fc6a434a2d985d411bae3", "is_reserved": 0, "lon": -77.02485383333334, "is_disabled": 0, "fusion_lat": 0.0, "lat": 38.9039885, "bike_id": "0f004db5a96fc6a434a2d985d411bae3", "fusion_lon": 0.0}, {"rental_uris": {"ios": "https://dc.lft.to/lastmile_qr_scan", "android": "https://dc.lft.to/lastmile_qr_scan"}, "type": "electric_scooter", "name": "338387362dade1a7771c9083e8d2d1c2", "is_reserved": 0, "lon": -77.0212155, "is_disabled": 0, "fusion_lat": 0.0, "lat": 38.89743766666667, "bike_id": "338387362dade1a7771c9083e8d2d1c2", "fusion_lon": 0.0}, {"rental_uris": {"ios": "https://dc.lft.to/lastmile_qr_scan", "android": "https://dc.lft.to/lastmile_qr_scan"}, "type": "electric_scooter", "name": "1126b3f7f722cbba549db79ce2e5714f", "is_reserved": 0, "lon": -77.0222325, "is_disabled": 0, "fusion_lat": 0.0, "lat": 38.9206805, "bike_id": "1126b3f7f722cbba549db79ce2e5714f", "fusion_lon": 0.0}, {"rental_uris": {"ios": "https://dc.lft.to/lastmile_qr_scan", "android": "https://dc.lft.to/lastmile_qr_scan"}, "type": "electric_scooter", "name": "fb3a69756a2fb67229d61fd2d5928b10", "is_reserved": 0, "lon": -77.02410933333333, "is_disabled": 0, "fusion_lat": 0.0, "lat": 38.9270895, "bike_id": "fb3a69756a2fb67229d61fd2d5928b10", "fusion_lon": 0.0}, {"rental_uris": {"ios": "https://dc.lft.to/lastmile_qr_scan", "android": "https://dc.lft.to/lastmile_qr_scan"}, "type": "electric_scooter", "name": "7bfcb1890be32cd215d332b09e52b704", "is_reserved": 0, "lon": -77.01884083333333, "is_disabled": 0, "fusion_lat": 0.0, "lat": 38.89944366666667, "bike_id": "7bfcb1890be32cd215d332b09e52b704", "fusion_lon": 0.0}, {"rental_uris": {"ios": "https://dc.lft.to/lastmile_qr_scan", "android": "https://dc.lft.to/lastmile_qr_scan"}, "type": "electric_scooter", "name": "752c868005f0ec67b744d1d199913eea", "is_reserved": 0, "lon": -77.037409, "is_disabled": 0, "fusion_lat": 0.0, "lat": 38.928988, "bike_id": "752c868005f0ec67b744d1d199913eea", "fusion_lon": 0.0}, {"rental_uris": {"ios": "https://dc.lft.to/lastmile_qr_scan", "android": "https://dc.lft.to/lastmile_qr_scan"}, "type": "electric_bike", "name": "898fbba1b284c0f005574c7d8de1f1c2", "is_reserved": 0, "lon": -77.09015666666667, "is_disabled": 0, "fusion_lat": 0.0, "lat": 38.926528166666664, "bike_id": "898fbba1b284c0f005574c7d8de1f1c2", "fusion_lon": 0.0}, {"rental_uris": {"ios": "https://dc.lft.to/lastmile_qr_scan", "android": "https://dc.lft.to/lastmile_qr_scan"}, "type": "electric_scooter", "name": "927840e07b6e84a11d4b369156e20296", "is_reserved": 0, "lon": -77.007536, "is_disabled": 0, "fusion_lat": 0.0, "lat": 38.9252365, "bike_id": "927840e07b6e84a11d4b369156e20296", "fusion_lon": 0.0}, {"rental_uris": {"ios": "https://dc.lft.to/lastmile_qr_scan", "android": "https://dc.lft.to/lastmile_qr_scan"}, "type": "electric_scooter", "name": "5b43992aecabad77baacefd28f1d4b83", "is_reserved": 0, "lon": -76.98352933333334, "is_disabled": 0, "fusion_lat": 0.0, "lat": 38.8874015, "bike_id": "5b43992aecabad77baacefd28f1d4b83", "fusion_lon": 0.0}, {"rental_uris": {"ios": "https://dc.lft.to/lastmile_qr_scan", "android": "https://dc.lft.to/lastmile_qr_scan"}, "type": "electric_scooter", "name": "1ee93b1257390473b69b3254db8fb1e7", "is_reserved": 0, "lon": -77.0266695, "is_disabled": 0, "fusion_lat": 0.0, "lat": 38.884892666666666, "bike_id": "1ee93b1257390473b69b3254db8fb1e7", "fusion_lon": 0.0}, {"rental_uris": {"ios": "https://dc.lft.to/lastmile_qr_scan", "android": "https://dc.lft.to/lastmile_qr_scan"}, "type": "electric_scooter", "name": "a0d858fcf49d162bbb049fb6425ed34a", "is_reserved": 0, "lon": -77.02288116666666, "is_disabled": 0, "fusion_lat": 0.0, "lat": 38.909602, "bike_id": "a0d858fcf49d162bbb049fb6425ed34a", "fusion_lon": 0.0}, {"rental_uris": {"ios": "https://dc.lft.to/lastmile_qr_scan", "android": "https://dc.lft.to/lastmile_qr_scan"}, "type": "electric_bike", "name": "b3ab0d9db22fe472a8f2f5cb118fc203", "is_reserved": 0, "lon": -77.12686233333334, "is_disabled": 0, "fusion_lat": 0.0, "lat": 38.895636, "bike_id": "b3ab0d9db22fe472a8f2f5cb118fc203", "fusion_lon": 0.0}, {"rental_uris": {"ios": "https://dc.lft.to/lastmile_qr_scan", "android": "https://dc.lft.to/lastmile_qr_scan"}, "type": "electric_scooter", "name": "d1dd7b01099501b3c662a4489c85867c", "is_reserved": 0, "lon": -77.04590733333333, "is_disabled": 0, "fusion_lat": 0.0, "lat": 38.9057285, "bike_id": "d1dd7b01099501b3c662a4489c85867c", "fusion_lon": 0.0}, {"rental_uris": {"ios": "https://dc.lft.to/lastmile_qr_scan", "android": "https://dc.lft.to/lastmile_qr_scan"}, "type": "electric_scooter", "name": "0a31486efd5e2e682b2aad9110d45f9f", "is_reserved": 0, "lon": -77.010615, "is_disabled": 0, "fusion_lat": 0.0, "lat": 38.8740855, "bike_id": "0a31486efd5e2e682b2aad9110d45f9f", "fusion_lon": 0.0}, {"rental_uris": {"ios": "https://dc.lft.to/lastmile_qr_scan", "android": "https://dc.lft.to/lastmile_qr_scan"}, "type": "electric_bike", "name": "403e2367a60485b312de2b6669285592", "is_reserved": 0, "lon": -76.95701833333334, "is_disabled": 0, "fusion_lat": 0.0, "lat": 38.850891833333336, "bike_id": "403e2367a60485b312de2b6669285592", "fusion_lon": 0.0}, {"rental_uris": {"ios": "https://dc.lft.to/lastmile_qr_scan", "android": "https://dc.lft.to/lastmile_qr_scan"}, "type": "electric_scooter", "name": "e1dd0d3a196f90e16859a04faa813c94", "is_reserved": 0, "lon": -77.0295265, "is_disabled": 0, "fusion_lat": 0.0, "lat": 38.916858833333336, "bike_id": "e1dd0d3a196f90e16859a04faa813c94", "fusion_lon": 0.0}, {"rental_uris": {"ios": "https://dc.lft.to/lastmile_qr_scan", "android": "https://dc.lft.to/lastmile_qr_scan"}, "type": "electric_scooter", "name": "8a7ffdbcd6a479205aaa41555003d697", "is_reserved": 0, "lon": -76.957375, "is_disabled": 0, "fusion_lat": 0.0, "lat": 38.883911499999996, "bike_id": "8a7ffdbcd6a479205aaa41555003d697", "fusion_lon": 0.0}, {"rental_uris": {"ios": "https://dc.lft.to/lastmile_qr_scan", "android": "https://dc.lft.to/lastmile_qr_scan"}, "type": "electric_scooter", "name": "1116146dabc5a4f8332124250f05d94c", "is_reserved": 0, "lon": -77.06383566666666, "is_disabled": 0, "fusion_lat": 0.0, "lat": 38.9052265, "bike_id": "1116146dabc5a4f8332124250f05d94c", "fusion_lon": 0.0}, {"rental_uris": {"ios": "https://dc.lft.to/lastmile_qr_scan", "android": "https://dc.lft.to/lastmile_qr_scan"}, "type": "electric_scooter", "name": "9b73d8a9298615a1c5bc7f3f01c77b70", "is_reserved": 0, "lon": -76.92301433333333, "is_disabled": 0, "fusion_lat": 0.0, "lat": 38.89385166666667, "bike_id": "9b73d8a9298615a1c5bc7f3f01c77b70", "fusion_lon": 0.0}, {"rental_uris": {"ios": "https://dc.lft.to/lastmile_qr_scan", "android": "https://dc.lft.to/lastmile_qr_scan"}, "type": "electric_scooter", "name": "700fb70fabdfb029d612516830858fc3", "is_reserved": 0, "lon": -77.00571916666667, "is_disabled": 0, "fusion_lat": 0.0, "lat": 38.876644, "bike_id": "700fb70fabdfb029d612516830858fc3", "fusion_lon": 0.0}, {"rental_uris": {"ios": "https://dc.lft.to/lastmile_qr_scan", "android": "https://dc.lft.to/lastmile_qr_scan"}, "type": "electric_scooter", "name": "761c39bb9af011d079996703a174145d", "is_reserved": 0, "lon": -77.02332433333333, "is_disabled": 0, "fusion_lat": 0.0, "lat": 38.93291583333333, "bike_id": "761c39bb9af011d079996703a174145d", "fusion_lon": 0.0}, {"rental_uris": {"ios": "https://dc.lft.to/lastmile_qr_scan", "android": "https://dc.lft.to/lastmile_qr_scan"}, "type": "electric_scooter", "name": "4c5b2d08fbc696940cc83c84945b7b9a", "is_reserved": 0, "lon": -77.02281033333334, "is_disabled": 0, "fusion_lat": 0.0, "lat": 38.91682216666667, "bike_id": "4c5b2d08fbc696940cc83c84945b7b9a", "fusion_lon": 0.0}, {"rental_uris": {"ios": "https://dc.lft.to/lastmile_qr_scan", "android": "https://dc.lft.to/lastmile_qr_scan"}, "type": "electric_scooter", "name": "14588932b543de270e142e51b789e195", "is_reserved": 0, "lon": -77.01641383333333, "is_disabled": 0, "fusion_lat": 0.0, "lat": 38.90375733333333, "bike_id": "14588932b543de270e142e51b789e195", "fusion_lon": 0.0}, {"rental_uris": {"ios": "https://dc.lft.to/lastmile_qr_scan", "android": "https://dc.lft.to/lastmile_qr_scan"}, "type": "electric_scooter", "name": "b3f9a60fee96a2746c619d9ae4beeaa5", "is_reserved": 0, "lon": -77.0222795, "is_disabled": 0, "fusion_lat": 0.0, "lat": 38.892204666666665, "bike_id": "b3f9a60fee96a2746c619d9ae4beeaa5", "fusion_lon": 0.0}, {"rental_uris": {"ios": "https://dc.lft.to/lastmile_qr_scan", "android": "https://dc.lft.to/lastmile_qr_scan"}, "type": "electric_bike", "name": "79c7b0a4b3d611b9c88f8efb10968e5e", "is_reserved": 0, "lon": -77.231791, "is_disabled": 0, "fusion_lat": 0.0, "lat": 38.92894483333333, "bike_id": "79c7b0a4b3d611b9c88f8efb10968e5e", "fusion_lon": 0.0}, {"rental_uris": {"ios": "https://dc.lft.to/lastmile_qr_scan", "android": "https://dc.lft.to/lastmile_qr_scan"}, "type": "electric_scooter", "name": "4c21d4c570c99ce753442e320d3b0999", "is_reserved": 0, "lon": -76.9463705, "is_disabled": 0, "fusion_lat": 0.0, "lat": 38.8986815, "bike_id": "4c21d4c570c99ce753442e320d3b0999", "fusion_lon": 0.0}, {"rental_uris": {"ios": "https://dc.lft.to/lastmile_qr_scan", "android": "https://dc.lft.to/lastmile_qr_scan"}, "type": "electric_scooter", "name": "af887f69ac0d89183ae50f7da82ef5ef", "is_reserved": 0, "lon": -77.04175066666667, "is_disabled": 0, "fusion_lat": 0.0, "lat": 38.918505333333336, "bike_id": "af887f69ac0d89183ae50f7da82ef5ef", "fusion_lon": 0.0}, {"rental_uris": {"ios": "https://dc.lft.to/lastmile_qr_scan", "android": "https://dc.lft.to/lastmile_qr_scan"}, "type": "electric_scooter", "name": "daf5e1da158d770ec18e35eaf3b451e6", "is_reserved": 0, "lon": -77.02604233333334, "is_disabled": 0, "fusion_lat": 0.0, "lat": 38.906925, "bike_id": "daf5e1da158d770ec18e35eaf3b451e6", "fusion_lon": 0.0}, {"rental_uris": {"ios": "https://dc.lft.to/lastmile_qr_scan", "android": "https://dc.lft.to/lastmile_qr_scan"}, "type": "electric_bike", "name": "75fcb13c46b0e8676bf60bc0ea183f36", "is_reserved": 0, "lon": -77.1028825, "is_disabled": 0, "fusion_lat": 0.0, "lat": 38.852522666666665, "bike_id": "75fcb13c46b0e8676bf60bc0ea183f36", "fusion_lon": 0.0}, {"rental_uris": {"ios": "https://dc.lft.to/lastmile_qr_scan", "android": "https://dc.lft.to/lastmile_qr_scan"}, "type": "electric_scooter", "name": "1cf55d24562e47905f506759afeb2f30", "is_reserved": 0, "lon": -77.02007066666667, "is_disabled": 0, "fusion_lat": 0.0, "lat": 38.92808133333333, "bike_id": "1cf55d24562e47905f506759afeb2f30", "fusion_lon": 0.0}, {"rental_uris": {"ios": "https://dc.lft.to/lastmile_qr_scan", "android": "https://dc.lft.to/lastmile_qr_scan"}, "type": "electric_scooter", "name": "0e435047edb13a29ca3e5769c2f8b4e6", "is_reserved": 0, "lon": -77.0265615, "is_disabled": 0, "fusion_lat": 0.0, "lat": 38.93096766666667, "bike_id": "0e435047edb13a29ca3e5769c2f8b4e6", "fusion_lon": 0.0}, {"rental_uris": {"ios": "https://dc.lft.to/lastmile_qr_scan", "android": "https://dc.lft.to/lastmile_qr_scan"}, "type": "electric_scooter", "name": "ce937801d66e27bb3e9133c8925ec343", "is_reserved": 0, "lon": -77.03205383333334, "is_disabled": 0, "fusion_lat": 0.0, "lat": 38.92184233333333, "bike_id": "ce937801d66e27bb3e9133c8925ec343", "fusion_lon": 0.0}, {"rental_uris": {"ios": "https://dc.lft.to/lastmile_qr_scan", "android": "https://dc.lft.to/lastmile_qr_scan"}, "type": "electric_bike", "name": "74e33f5ac4c2d30071e0d09c96fcf70a", "is_reserved": 0, "lon": -76.97953216666667, "is_disabled": 0, "fusion_lat": 0.0, "lat": 38.920401, "bike_id": "74e33f5ac4c2d30071e0d09c96fcf70a", "fusion_lon": 0.0}, {"rental_uris": {"ios": "https://dc.lft.to/lastmile_qr_scan", "android": "https://dc.lft.to/lastmile_qr_scan"}, "type": "electric_scooter", "name": "733d177a6e16bf79db09ac86e3b29426", "is_reserved": 0, "lon": -76.99606283333334, "is_disabled": 0, "fusion_lat": 0.0, "lat": 38.890877833333334, "bike_id": "733d177a6e16bf79db09ac86e3b29426", "fusion_lon": 0.0}, {"rental_uris": {"ios": "https://dc.lft.to/lastmile_qr_scan", "android": "https://dc.lft.to/lastmile_qr_scan"}, "type": "electric_scooter", "name": "7f5d4d77ef07370fe791149e7e4851a0", "is_reserved": 0, "lon": -77.02573466666666, "is_disabled": 0, "fusion_lat": 0.0, "lat": 38.94847166666667, "bike_id": "7f5d4d77ef07370fe791149e7e4851a0", "fusion_lon": 0.0}, {"rental_uris": {"ios": "https://dc.lft.to/lastmile_qr_scan", "android": "https://dc.lft.to/lastmile_qr_scan"}, "type": "electric_scooter", "name": "8e38a30dc8ae0f3179dbf8f5265e70dd", "is_reserved": 0, "lon": -77.03421966666667, "is_disabled": 0, "fusion_lat": 0.0, "lat": 38.901348666666664, "bike_id": "8e38a30dc8ae0f3179dbf8f5265e70dd", "fusion_lon": 0.0}, {"rental_uris": {"ios": "https://dc.lft.to/lastmile_qr_scan", "android": "https://dc.lft.to/lastmile_qr_scan"}, "type": "electric_scooter", "name": "50c5a8ac2cc2811c3924d060878a0cd2", "is_reserved": 0, "lon": -77.0149715, "is_disabled": 0, "fusion_lat": 0.0, "lat": 38.90651366666667, "bike_id": "50c5a8ac2cc2811c3924d060878a0cd2", "fusion_lon": 0.0}, {"rental_uris": {"ios": "https://dc.lft.to/lastmile_qr_scan", "android": "https://dc.lft.to/lastmile_qr_scan"}, "type": "electric_scooter", "name": "529737192e4ddbff19667179916a8461", "is_reserved": 0, "lon": -76.99987916666667, "is_disabled": 0, "fusion_lat": 0.0, "lat": 38.90786133333334, "bike_id": "529737192e4ddbff19667179916a8461", "fusion_lon": 0.0}, {"rental_uris": {"ios": "https://dc.lft.to/lastmile_qr_scan", "android": "https://dc.lft.to/lastmile_qr_scan"}, "type": "electric_scooter", "name": "5c39653d659d2526df1c7f06cfc4a7ea", "is_reserved": 0, "lon": -77.042482, "is_disabled": 0, "fusion_lat": 0.0, "lat": 38.922338833333335, "bike_id": "5c39653d659d2526df1c7f06cfc4a7ea", "fusion_lon": 0.0}, {"rental_uris": {"ios": "https://dc.lft.to/lastmile_qr_scan", "android": "https://dc.lft.to/lastmile_qr_scan"}, "type": "electric_scooter", "name": "9b0cf45dffa953335059c13355b0cdd3", "is_reserved": 0, "lon": -76.9983985, "is_disabled": 0, "fusion_lat": 0.0, "lat": 38.902991166666666, "bike_id": "9b0cf45dffa953335059c13355b0cdd3", "fusion_lon": 0.0}, {"rental_uris": {"ios": "https://dc.lft.to/lastmile_qr_scan", "android": "https://dc.lft.to/lastmile_qr_scan"}, "type": "electric_scooter", "name": "7f52064892e15c1a449522b31303a9cb", "is_reserved": 0, "lon": -77.0021545, "is_disabled": 0, "fusion_lat": 0.0, "lat": 38.915613666666665, "bike_id": "7f52064892e15c1a449522b31303a9cb", "fusion_lon": 0.0}, {"rental_uris": {"ios": "https://dc.lft.to/lastmile_qr_scan", "android": "https://dc.lft.to/lastmile_qr_scan"}, "type": "electric_bike", "name": "592877e74895902bd84f3507ae2a898b", "is_reserved": 0, "lon": -76.90301916666667, "is_disabled": 0, "fusion_lat": 0.0, "lat": 39.00290833333333, "bike_id": "592877e74895902bd84f3507ae2a898b", "fusion_lon": 0.0}, {"rental_uris": {"ios": "https://dc.lft.to/lastmile_qr_scan", "android": "https://dc.lft.to/lastmile_qr_scan"}, "type": "electric_scooter", "name": "4881182d15ee334374e59b8fc8068c7f", "is_reserved": 0, "lon": -77.01998566666667, "is_disabled": 0, "fusion_lat": 0.0, "lat": 38.904451, "bike_id": "4881182d15ee334374e59b8fc8068c7f", "fusion_lon": 0.0}, {"rental_uris": {"ios": "https://dc.lft.to/lastmile_qr_scan", "android": "https://dc.lft.to/lastmile_qr_scan"}, "type": "electric_scooter", "name": "651b53a558a601f368f6e99c166acb1d", "is_reserved": 0, "lon": -77.005709, "is_disabled": 0, "fusion_lat": 0.0, "lat": 38.90913666666667, "bike_id": "651b53a558a601f368f6e99c166acb1d", "fusion_lon": 0.0}, {"rental_uris": {"ios": "https://dc.lft.to/lastmile_qr_scan", "android": "https://dc.lft.to/lastmile_qr_scan"}, "type": "electric_scooter", "name": "662ddaa86252d85dffacbb11371ccbdf", "is_reserved": 0, "lon": -77.03718033333334, "is_disabled": 0, "fusion_lat": 0.0, "lat": 38.926489833333335, "bike_id": "662ddaa86252d85dffacbb11371ccbdf", "fusion_lon": 0.0}, {"rental_uris": {"ios": "https://dc.lft.to/lastmile_qr_scan", "android": "https://dc.lft.to/lastmile_qr_scan"}, "type": "electric_scooter", "name": "b69ae74a2c8ffafe0714f529f1544e7d", "is_reserved": 0, "lon": -76.994099, "is_disabled": 0, "fusion_lat": 0.0, "lat": 38.87787066666667, "bike_id": "b69ae74a2c8ffafe0714f529f1544e7d", "fusion_lon": 0.0}, {"rental_uris": {"ios": "https://dc.lft.to/lastmile_qr_scan", "android": "https://dc.lft.to/lastmile_qr_scan"}, "type": "electric_scooter", "name": "e1babd57e16f9e23fb15de5c65fa422e", "is_reserved": 0, "lon": -77.00081833333333, "is_disabled": 0, "fusion_lat": 0.0, "lat": 38.873833833333336, "bike_id": "e1babd57e16f9e23fb15de5c65fa422e", "fusion_lon": 0.0}, {"rental_uris": {"ios": "https://dc.lft.to/lastmile_qr_scan", "android": "https://dc.lft.to/lastmile_qr_scan"}, "type": "electric_scooter", "name": "aa80c5823f953813f1ff1ef83da0c7eb", "is_reserved": 0, "lon": -77.015789, "is_disabled": 0, "fusion_lat": 0.0, "lat": 38.876389, "bike_id": "aa80c5823f953813f1ff1ef83da0c7eb", "fusion_lon": 0.0}, {"rental_uris": {"ios": "https://dc.lft.to/lastmile_qr_scan", "android": "https://dc.lft.to/lastmile_qr_scan"}, "type": "electric_scooter", "name": "05edc72dc290624d624dfb0e35171460", "is_reserved": 0, "lon": -77.0259995, "is_disabled": 0, "fusion_lat": 0.0, "lat": 38.9460915, "bike_id": "05edc72dc290624d624dfb0e35171460", "fusion_lon": 0.0}, {"rental_uris": {"ios": "https://dc.lft.to/lastmile_qr_scan", "android": "https://dc.lft.to/lastmile_qr_scan"}, "type": "electric_scooter", "name": "795d56fa300fd189b0c4c9d155e7f8a2", "is_reserved": 0, "lon": -77.015058, "is_disabled": 0, "fusion_lat": 0.0, "lat": 38.909795, "bike_id": "795d56fa300fd189b0c4c9d155e7f8a2", "fusion_lon": 0.0}, {"rental_uris": {"ios": "https://dc.lft.to/lastmile_qr_scan", "android": "https://dc.lft.to/lastmile_qr_scan"}, "type": "electric_bike", "name": "9d0c0d9bb0eda7b952b537532576f6f7", "is_reserved": 0, "lon": -77.2166065, "is_disabled": 0, "fusion_lat": 0.0, "lat": 38.895059333333336, "bike_id": "9d0c0d9bb0eda7b952b537532576f6f7", "fusion_lon": 0.0}, {"rental_uris": {"ios": "https://dc.lft.to/lastmile_qr_scan", "android": "https://dc.lft.to/lastmile_qr_scan"}, "type": "electric_scooter", "name": "1a758589e854f8e77ab39cb4968d6617", "is_reserved": 0, "lon": -77.041246, "is_disabled": 0, "fusion_lat": 0.0, "lat": 38.933863, "bike_id": "1a758589e854f8e77ab39cb4968d6617", "fusion_lon": 0.0}, {"rental_uris": {"ios": "https://dc.lft.to/lastmile_qr_scan", "android": "https://dc.lft.to/lastmile_qr_scan"}, "type": "electric_bike", "name": "1c344659c5a25d2f4eb3eff8a4d08b8c", "is_reserved": 0, "lon": -77.097243, "is_disabled": 0, "fusion_lat": 0.0, "lat": 38.80738266666667, "bike_id": "1c344659c5a25d2f4eb3eff8a4d08b8c", "fusion_lon": 0.0}, {"rental_uris": {"ios": "https://dc.lft.to/lastmile_qr_scan", "android": "https://dc.lft.to/lastmile_qr_scan"}, "type": "electric_scooter", "name": "c36e91fc512ad923b6e48f9348714c58", "is_reserved": 0, "lon": -77.05516016666667, "is_disabled": 0, "fusion_lat": 0.0, "lat": 38.928263, "bike_id": "c36e91fc512ad923b6e48f9348714c58", "fusion_lon": 0.0}, {"rental_uris": {"ios": "https://dc.lft.to/lastmile_qr_scan", "android": "https://dc.lft.to/lastmile_qr_scan"}, "type": "electric_bike", "name": "77e0c4aa37dcf268322b5078caab734c", "is_reserved": 0, "lon": -77.06524116666667, "is_disabled": 0, "fusion_lat": 0.0, "lat": 38.99235516666667, "bike_id": "77e0c4aa37dcf268322b5078caab734c", "fusion_lon": 0.0}, {"rental_uris": {"ios": "https://dc.lft.to/lastmile_qr_scan", "android": "https://dc.lft.to/lastmile_qr_scan"}, "type": "electric_bike", "name": "5b046dff34ad1a1419bcdb24ea559fb6", "is_reserved": 0, "lon": -77.03281216666667, "is_disabled": 0, "fusion_lat": 0.0, "lat": 38.9408895, "bike_id": "5b046dff34ad1a1419bcdb24ea559fb6", "fusion_lon": 0.0}, {"rental_uris": {"ios": "https://dc.lft.to/lastmile_qr_scan", "android": "https://dc.lft.to/lastmile_qr_scan"}, "type": "electric_scooter", "name": "3e1a225b1554ab534cbf7a5d26ddf2c1", "is_reserved": 0, "lon": -77.07403266666667, "is_disabled": 0, "fusion_lat": 0.0, "lat": 38.93746, "bike_id": "3e1a225b1554ab534cbf7a5d26ddf2c1", "fusion_lon": 0.0}, {"rental_uris": {"ios": "https://dc.lft.to/lastmile_qr_scan", "android": "https://dc.lft.to/lastmile_qr_scan"}, "type": "electric_scooter", "name": "8c0c9da8ba8b667487863c56bfdaf10b", "is_reserved": 0, "lon": -77.023594, "is_disabled": 0, "fusion_lat": 0.0, "lat": 38.945221, "bike_id": "8c0c9da8ba8b667487863c56bfdaf10b", "fusion_lon": 0.0}, {"rental_uris": {"ios": "https://dc.lft.to/lastmile_qr_scan", "android": "https://dc.lft.to/lastmile_qr_scan"}, "type": "electric_scooter", "name": "47cfa1c6c41b761ccb14ea2c2b2d56bb", "is_reserved": 0, "lon": -77.02407033333333, "is_disabled": 0, "fusion_lat": 0.0, "lat": 38.9171445, "bike_id": "47cfa1c6c41b761ccb14ea2c2b2d56bb", "fusion_lon": 0.0}, {"rental_uris": {"ios": "https://dc.lft.to/lastmile_qr_scan", "android": "https://dc.lft.to/lastmile_qr_scan"}, "type": "electric_scooter", "name": "9c36bb7705161b896577abaab1938b3a", "is_reserved": 0, "lon": -77.03128833333334, "is_disabled": 0, "fusion_lat": 0.0, "lat": 38.923832, "bike_id": "9c36bb7705161b896577abaab1938b3a", "fusion_lon": 0.0}, {"rental_uris": {"ios": "https://dc.lft.to/lastmile_qr_scan", "android": "https://dc.lft.to/lastmile_qr_scan"}, "type": "electric_bike", "name": "b44b017f81e3464c327122bd570a3410", "is_reserved": 0, "lon": -76.95062366666667, "is_disabled": 0, "fusion_lat": 0.0, "lat": 39.08509516666667, "bike_id": "b44b017f81e3464c327122bd570a3410", "fusion_lon": 0.0}, {"rental_uris": {"ios": "https://dc.lft.to/lastmile_qr_scan", "android": "https://dc.lft.to/lastmile_qr_scan"}, "type": "electric_scooter", "name": "7db96aff07916d3126f62a47a2d202c3", "is_reserved": 0, "lon": -77.04472283333334, "is_disabled": 0, "fusion_lat": 0.0, "lat": 38.90943983333333, "bike_id": "7db96aff07916d3126f62a47a2d202c3", "fusion_lon": 0.0}, {"rental_uris": {"ios": "https://dc.lft.to/lastmile_qr_scan", "android": "https://dc.lft.to/lastmile_qr_scan"}, "type": "electric_scooter", "name": "4b00b65d243d102abefa93c700058801", "is_reserved": 0, "lon": -76.98186583333333, "is_disabled": 0, "fusion_lat": 0.0, "lat": 38.9058025, "bike_id": "4b00b65d243d102abefa93c700058801", "fusion_lon": 0.0}, {"rental_uris": {"ios": "https://dc.lft.to/lastmile_qr_scan", "android": "https://dc.lft.to/lastmile_qr_scan"}, "type": "electric_scooter", "name": "1154abfcf00bbe7983c42f246cd3cc3e", "is_reserved": 0, "lon": -77.02407733333334, "is_disabled": 0, "fusion_lat": 0.0, "lat": 38.9275205, "bike_id": "1154abfcf00bbe7983c42f246cd3cc3e", "fusion_lon": 0.0}, {"rental_uris": {"ios": "https://dc.lft.to/lastmile_qr_scan", "android": "https://dc.lft.to/lastmile_qr_scan"}, "type": "electric_scooter", "name": "ab5dbd4a43594903da661b651553a03b", "is_reserved": 0, "lon": -77.039971, "is_disabled": 0, "fusion_lat": 0.0, "lat": 38.91415333333333, "bike_id": "ab5dbd4a43594903da661b651553a03b", "fusion_lon": 0.0}, {"rental_uris": {"ios": "https://dc.lft.to/lastmile_qr_scan", "android": "https://dc.lft.to/lastmile_qr_scan"}, "type": "electric_scooter", "name": "97d3624b476a30b406ff6cb8412f1c01", "is_reserved": 0, "lon": -77.01994233333333, "is_disabled": 0, "fusion_lat": 0.0, "lat": 38.93053866666666, "bike_id": "97d3624b476a30b406ff6cb8412f1c01", "fusion_lon": 0.0}, {"rental_uris": {"ios": "https://dc.lft.to/lastmile_qr_scan", "android": "https://dc.lft.to/lastmile_qr_scan"}, "type": "electric_scooter", "name": "be87f7e9a5de0984159fe2ae50d2e287", "is_reserved": 0, "lon": -77.02960866666666, "is_disabled": 0, "fusion_lat": 0.0, "lat": 38.90500266666667, "bike_id": "be87f7e9a5de0984159fe2ae50d2e287", "fusion_lon": 0.0}, {"rental_uris": {"ios": "https://dc.lft.to/lastmile_qr_scan", "android": "https://dc.lft.to/lastmile_qr_scan"},