{"data": {"bikes": [{"is_reserved": 0, "bike_id": "dfb394bf9ae6ac18587f4101f7793e98", "type": "electric_scooter", "name": "dfb394bf9ae6ac18587f4101f7793e98", "is_disabled": 0, "fusion_lon": 0.0, "rental_uris": {"android": "https://dc.lft.to/lastmile_qr_scan", "ios": "https://dc.lft.to/lastmile_qr_scan"}, "lat": 38.92955966666667, "lon": -77.04402633333333, "fusion_lat": 0.0}, {"is_reserved": 0, "bike_id": "08b29136cc5d8c9eef2b89f6cb9e94c8", "type": "electric_scooter", "name": "08b29136cc5d8c9eef2b89f6cb9e94c8", "is_disabled": 0, "fusion_lon": 0.0, "rental_uris": {"android": "https://dc.lft.to/lastmile_qr_scan", "ios": "https://dc.lft.to/lastmile_qr_scan"}, "lat": 38.900644, "lon": -77.045682, "fusion_lat": 0.0}, {"is_reserved": 0, "bike_id": "4467d862f8d9161de692f8c3df5c549f", "type": "electric_scooter", "name": "4467d862f8d9161de692f8c3df5c549f", "is_disabled": 0, "fusion_lon": 0.0, "rental_uris": {"android": "https://dc.lft.to/lastmile_qr_scan", "ios": "https://dc.lft.to/lastmile_qr_scan"}, "lat": 38.897819, "lon": -77.03174866666667, "fusion_lat": 0.0}, {"is_reserved": 0, "bike_id": "4f8f5264a6afa1928c51273ae2ae869b", "type": "electric_scooter", "name": "4f8f5264a6afa1928c51273ae2ae869b", "is_disabled": 0, "fusion_lon": 0.0, "rental_uris": {"android": "https://dc.lft.to/lastmile_qr_scan", "ios": "https://dc.lft.to/lastmile_qr_scan"}, "lat": 38.90026116666667, "lon": -77.0020175, "fusion_lat": 0.0}, {"is_reserved": 0, "bike_id": "f214acbb37c770efd4dc6097ae59c578", "type": "electric_scooter", "name": "f214acbb37c770efd4dc6097ae59c578", "is_disabled": 0, "fusion_lon": 0.0, "rental_uris": {"android": "https://dc.lft.to/lastmile_qr_scan", "ios": "https://dc.lft.to/lastmile_qr_scan"}, "lat": 38.9060755, "lon": -77.056817, "fusion_lat": 0.0}, {"is_reserved": 0, "bike_id": "0833f1e98efe161f88427ff55507bc75", "type": "electric_scooter", "name": "0833f1e98efe161f88427ff55507bc75", "is_disabled": 0, "fusion_lon": 0.0, "rental_uris": {"android": "https://dc.lft.to/lastmile_qr_scan", "ios": "https://dc.lft.to/lastmile_qr_scan"}, "lat": 38.92175966666667, "lon": -77.019081, "fusion_lat": 0.0}, {"is_reserved": 0, "bike_id": "6ecfda272261f479f6525fc7db441969", "type": "electric_scooter", "name": "6ecfda272261f479f6525fc7db441969", "is_disabled": 0, "fusion_lon": 0.0, "rental_uris": {"android": "https://dc.lft.to/lastmile_qr_scan", "ios": "https://dc.lft.to/lastmile_qr_scan"}, "lat": 38.887287, "lon": -76.983616, "fusion_lat": 0.0}, {"is_reserved": 0, "bike_id": "2869b79028721b719df856da86d11e5a", "type": "electric_scooter", "name": "2869b79028721b719df856da86d11e5a", "is_disabled": 0, "fusion_lon": 0.0, "rental_uris": {"android": "https://dc.lft.to/lastmile_qr_scan", "ios": "https://dc.lft.to/lastmile_qr_scan"}, "lat": 38.902401166666664, "lon": -77.001985, "fusion_lat": 0.0}, {"is_reserved": 0, "bike_id": "a73a4de56fbc9c02f518f00e3ce7a7e5", "type": "electric_scooter", "name": "a73a4de56fbc9c02f518f00e3ce7a7e5", "is_disabled": 0, "fusion_lon": 0.0, "rental_uris": {"android": "https://dc.lft.to/lastmile_qr_scan", "ios": "https://dc.lft.to/lastmile_qr_scan"}, "lat": 38.905536, "lon": -77.06263783333333, "fusion_lat": 0.0}, {"is_reserved": 0, "bike_id": "c01a43c6cd8081b5b18632ea70a3fd41", "type": "electric_scooter", "name": "c01a43c6cd8081b5b18632ea70a3fd41", "is_disabled": 0, "fusion_lon": 0.0, "rental_uris": {"android": "https://dc.lft.to/lastmile_qr_scan", "ios": "https://dc.lft.to/lastmile_qr_scan"}, "lat": 38.89830216666667, "lon": -77.04993216666666, "fusion_lat": 0.0}, {"is_reserved": 0, "bike_id": "7ced3fef012909ada589d6b4d22c5087", "type": "electric_scooter", "name": "7ced3fef012909ada589d6b4d22c5087", "is_disabled": 0, "fusion_lon": 0.0, "rental_uris": {"android": "https://dc.lft.to/lastmile_qr_scan", "ios": "https://dc.lft.to/lastmile_qr_scan"}, "lat": 38.927895, "lon": -77.01404633333334, "fusion_lat": 0.0}, {"is_reserved": 0, "bike_id": "458c9bc342609397cb6bc83cc9c76785", "type": "electric_scooter", "name": "458c9bc342609397cb6bc83cc9c76785", "is_disabled": 0, "fusion_lon": 0.0, "rental_uris": {"android": "https://dc.lft.to/lastmile_qr_scan", "ios": "https://dc.lft.to/lastmile_qr_scan"}, "lat": 38.8745975, "lon": -77.004807, "fusion_lat": 0.0}, {"is_reserved": 0, "bike_id": "bfa38a0d796336228e8f579a7bbbc3cb", "type": "electric_scooter", "name": "bfa38a0d796336228e8f579a7bbbc3cb", "is_disabled": 0, "fusion_lon": 0.0, "rental_uris": {"android": "https://dc.lft.to/lastmile_qr_scan", "ios": "https://dc.lft.to/lastmile_qr_scan"}, "lat": 38.912554166666666, "lon": -77.03057133333333, "fusion_lat": 0.0}, {"is_reserved": 0, "bike_id": "3c636aa5f2febecd87f642239f0deed8", "type": "electric_scooter", "name": "3c636aa5f2febecd87f642239f0deed8", "is_disabled": 0, "fusion_lon": 0.0, "rental_uris": {"android": "https://dc.lft.to/lastmile_qr_scan", "ios": "https://dc.lft.to/lastmile_qr_scan"}, "lat": 38.90760016666667, "lon": -77.0271575, "fusion_lat": 0.0}, {"is_reserved": 0, "bike_id": "ac8b39c15fac8eaa964e7e7009856150", "type": "electric_scooter", "name": "ac8b39c15fac8eaa964e7e7009856150", "is_disabled": 0, "fusion_lon": 0.0, "rental_uris": {"android": "https://dc.lft.to/lastmile_qr_scan", "ios": "https://dc.lft.to/lastmile_qr_scan"}, "lat": 38.881356833333335, "lon": -77.023416, "fusion_lat": 0.0}, {"is_reserved": 0, "bike_id": "04f897a392b8c0338bda66dc867f1590", "type": "electric_scooter", "name": "04f897a392b8c0338bda66dc867f1590", "is_disabled": 0, "fusion_lon": 0.0, "rental_uris": {"android": "https://dc.lft.to/lastmile_qr_scan", "ios": "https://dc.lft.to/lastmile_qr_scan"}, "lat": 38.905883, "lon": -77.069425, "fusion_lat": 0.0}, {"is_reserved": 0, "bike_id": "782b590053e830e82e7fe2a634f3175a", "type": "electric_scooter", "name": "782b590053e830e82e7fe2a634f3175a", "is_disabled": 0, "fusion_lon": 0.0, "rental_uris": {"android": "https://dc.lft.to/lastmile_qr_scan", "ios": "https://dc.lft.to/lastmile_qr_scan"}, "lat": 38.89895833333333, "lon": -77.0435205, "fusion_lat": 0.0}, {"is_reserved": 0, "bike_id": "e63c6126bd6bceb79a3e1558c051d239", "type": "electric_scooter", "name": "e63c6126bd6bceb79a3e1558c051d239", "is_disabled": 0, "fusion_lon": 0.0, "rental_uris": {"android": "https://dc.lft.to/lastmile_qr_scan", "ios": "https://dc.lft.to/lastmile_qr_scan"}, "lat": 38.8763125, "lon": -77.00954333333334, "fusion_lat": 0.0}, {"is_reserved": 0, "bike_id": "725e4c7731155d694c811d91d3b92c3a", "type": "electric_scooter", "name": "725e4c7731155d694c811d91d3b92c3a", "is_disabled": 0, "fusion_lon": 0.0, "rental_uris": {"android": "https://dc.lft.to/lastmile_qr_scan", "ios": "https://dc.lft.to/lastmile_qr_scan"}, "lat": 38.923568833333334, "lon": -77.03402283333334, "fusion_lat": 0.0}, {"is_reserved": 0, "bike_id": "58fba3d4790c038556db80c89e8fb787", "type": "electric_scooter", "name": "58fba3d4790c038556db80c89e8fb787", "is_disabled": 0, "fusion_lon": 0.0, "rental_uris": {"android": "https://dc.lft.to/lastmile_qr_scan", "ios": "https://dc.lft.to/lastmile_qr_scan"}, "lat": 38.901486166666665, "lon": -77.05922333333334, "fusion_lat": 0.0}, {"is_reserved": 0, "bike_id": "2e8c8e311542e18da288b9da9c2bc093", "type": "electric_scooter", "name": "2e8c8e311542e18da288b9da9c2bc093", "is_disabled": 0, "fusion_lon": 0.0, "rental_uris": {"android": "https://dc.lft.to/lastmile_qr_scan", "ios": "https://dc.lft.to/lastmile_qr_scan"}, "lat": 38.91001333333333, "lon": -77.04007866666667, "fusion_lat": 0.0}, {"is_reserved": 0, "bike_id": "7267dafbaf3713ca48d59858c7cceb26", "type": "electric_scooter", "name": "7267dafbaf3713ca48d59858c7cceb26", "is_disabled": 0, "fusion_lon": 0.0, "rental_uris": {"android": "https://dc.lft.to/lastmile_qr_scan", "ios": "https://dc.lft.to/lastmile_qr_scan"}, "lat": 38.90055233333333, "lon": -77.02963166666666, "fusion_lat": 0.0}, {"is_reserved": 0, "bike_id": "aa186cabee53d3e63dbcdc5bcac7470c", "type": "electric_scooter", "name": "aa186cabee53d3e63dbcdc5bcac7470c", "is_disabled": 0, "fusion_lon": 0.0, "rental_uris": {"android": "https://dc.lft.to/lastmile_qr_scan", "ios": "https://dc.lft.to/lastmile_qr_scan"}, "lat": 38.895496333333334, "lon": -77.009171, "fusion_lat": 0.0}, {"is_reserved": 0, "bike_id": "ce5064cc9a1b6c3da41a7b0d338b6d76", "type": "electric_scooter", "name": "ce5064cc9a1b6c3da41a7b0d338b6d76", "is_disabled": 0, "fusion_lon": 0.0, "rental_uris": {"android": "https://dc.lft.to/lastmile_qr_scan", "ios": "https://dc.lft.to/lastmile_qr_scan"}, "lat": 38.91482883333333, "lon": -77.04578866666667, "fusion_lat": 0.0}, {"is_reserved": 0, "bike_id": "82939d5c5ce077d6dded1919ee71f77d", "type": "electric_scooter", "name": "82939d5c5ce077d6dded1919ee71f77d", "is_disabled": 0, "fusion_lon": 0.0, "rental_uris": {"android": "https://dc.lft.to/lastmile_qr_scan", "ios": "https://dc.lft.to/lastmile_qr_scan"}, "lat": 38.926613, "lon": -76.99548616666667, "fusion_lat": 0.0}, {"is_reserved": 0, "bike_id": "623518d73357ea86214a4cf530e34a72", "type": "electric_bike", "name": "623518d73357ea86214a4cf530e34a72", "is_disabled": 0, "fusion_lon": 0.0, "rental_uris": {"android": "https://dc.lft.to/lastmile_qr_scan", "ios": "https://dc.lft.to/lastmile_qr_scan"}, "lat": 38.90694516666667, "lon": -76.95253483333333, "fusion_lat": 0.0}, {"is_reserved": 0, "bike_id": "76a5fdb7a351d9474a5be79669e806d5", "type": "electric_scooter", "name": "76a5fdb7a351d9474a5be79669e806d5", "is_disabled": 0, "fusion_lon": 0.0, "rental_uris": {"android": "https://dc.lft.to/lastmile_qr_scan", "ios": "https://dc.lft.to/lastmile_qr_scan"}, "lat": 38.91192616666667, "lon": -77.00724133333334, "fusion_lat": 0.0}, {"is_reserved": 0, "bike_id": "e6bd1ef284827232fe6e6cf2c1c3bbb4", "type": "electric_scooter", "name": "e6bd1ef284827232fe6e6cf2c1c3bbb4", "is_disabled": 0, "fusion_lon": 0.0, "rental_uris": {"android": "https://dc.lft.to/lastmile_qr_scan", "ios": "https://dc.lft.to/lastmile_qr_scan"}, "lat": 38.92656816666667, "lon": -77.024098, "fusion_lat": 0.0}, {"is_reserved": 0, "bike_id": "719830fd3041878ac82fddc82a1d2059", "type": "electric_scooter", "name": "719830fd3041878ac82fddc82a1d2059", "is_disabled": 0, "fusion_lon": 0.0, "rental_uris": {"android": "https://dc.lft.to/lastmile_qr_scan", "ios": "https://dc.lft.to/lastmile_qr_scan"}, "lat": 38.8935695, "lon": -77.00331383333334, "fusion_lat": 0.0}, {"is_reserved": 0, "bike_id": "ff7eca9bc0dbef6778c4b5edbce6beda", "type": "electric_scooter", "name": "ff7eca9bc0dbef6778c4b5edbce6beda", "is_disabled": 0, "fusion_lon": 0.0, "rental_uris": {"android": "https://dc.lft.to/lastmile_qr_scan", "ios": "https://dc.lft.to/lastmile_qr_scan"}, "lat": 38.91868566666667, "lon": -77.04190166666666, "fusion_lat": 0.0}, {"is_reserved": 0, "bike_id": "ead0b61b332b2ef92a460d1f8ffda545", "type": "electric_scooter", "name": "ead0b61b332b2ef92a460d1f8ffda545", "is_disabled": 0, "fusion_lon": 0.0, "rental_uris": {"android": "https://dc.lft.to/lastmile_qr_scan", "ios": "https://dc.lft.to/lastmile_qr_scan"}, "lat": 38.881214666666665, "lon": -76.99342766666666, "fusion_lat": 0.0}, {"is_reserved": 0, "bike_id": "fa905886db15cd070972f91fff59349e", "type": "electric_scooter", "name": "fa905886db15cd070972f91fff59349e", "is_disabled": 0, "fusion_lon": 0.0, "rental_uris": {"android": "https://dc.lft.to/lastmile_qr_scan", "ios": "https://dc.lft.to/lastmile_qr_scan"}, "lat": 38.93619116666667, "lon": -77.0328, "fusion_lat": 0.0}, {"is_reserved": 0, "bike_id": "9976e03747d0e74c947d78e60f4616b8", "type": "electric_scooter", "name": "9976e03747d0e74c947d78e60f4616b8", "is_disabled": 0, "fusion_lon": 0.0, "rental_uris": {"android": "https://dc.lft.to/lastmile_qr_scan", "ios": "https://dc.lft.to/lastmile_qr_scan"}, "lat": 38.887331, "lon": -77.01623133333334, "fusion_lat": 0.0}, {"is_reserved": 0, "bike_id": "2e01e4299396e3a415ea4b5bad102010", "type": "electric_scooter", "name": "2e01e4299396e3a415ea4b5bad102010", "is_disabled": 0, "fusion_lon": 0.0, "rental_uris": {"android": "https://dc.lft.to/lastmile_qr_scan", "ios": "https://dc.lft.to/lastmile_qr_scan"}, "lat": 38.897220833333336, "lon": -76.9836015, "fusion_lat": 0.0}, {"is_reserved": 0, "bike_id": "95f44e5e23e91247093496c17d193955", "type": "electric_scooter", "name": "95f44e5e23e91247093496c17d193955", "is_disabled": 0, "fusion_lon": 0.0, "rental_uris": {"android": "https://dc.lft.to/lastmile_qr_scan", "ios": "https://dc.lft.to/lastmile_qr_scan"}, "lat": 38.92238366666667, "lon": -77.03366383333334, "fusion_lat": 0.0}, {"is_reserved": 0, "bike_id": "dcf843142da3034befd39cde9913f49e", "type": "electric_scooter", "name": "dcf843142da3034befd39cde9913f49e", "is_disabled": 0, "fusion_lon": 0.0, "rental_uris": {"android": "https://dc.lft.to/lastmile_qr_scan", "ios": "https://dc.lft.to/lastmile_qr_scan"}, "lat": 38.924069333333335, "lon": -77.02084516666666, "fusion_lat": 0.0}, {"is_reserved": 0, "bike_id": "7f9cf1b254acd289d4765772d6c06346", "type": "electric_scooter", "name": "7f9cf1b254acd289d4765772d6c06346", "is_disabled": 0, "fusion_lon": 0.0, "rental_uris": {"android": "https://dc.lft.to/lastmile_qr_scan", "ios": "https://dc.lft.to/lastmile_qr_scan"}, "lat": 38.911783, "lon": -77.044706, "fusion_lat": 0.0}, {"is_reserved": 0, "bike_id": "ed7fce0aa94f731277123a9eac9972c3", "type": "electric_scooter", "name": "ed7fce0aa94f731277123a9eac9972c3", "is_disabled": 0, "fusion_lon": 0.0, "rental_uris": {"android": "https://dc.lft.to/lastmile_qr_scan", "ios": "https://dc.lft.to/lastmile_qr_scan"}, "lat": 38.9215895, "lon": -77.03376533333333, "fusion_lat": 0.0}, {"is_reserved": 0, "bike_id": "e5aaea9553f7e424932706a8874f81dd", "type": "electric_scooter", "name": "e5aaea9553f7e424932706a8874f81dd", "is_disabled": 0, "fusion_lon": 0.0, "rental_uris": {"android": "https://dc.lft.to/lastmile_qr_scan", "ios": "https://dc.lft.to/lastmile_qr_scan"}, "lat": 38.930991, "lon": -77.09095616666667, "fusion_lat": 0.0}, {"is_reserved": 0, "bike_id": "e384fce653e1e640695749c4a7aa8a19", "type": "electric_scooter", "name": "e384fce653e1e640695749c4a7aa8a19", "is_disabled": 0, "fusion_lon": 0.0, "rental_uris": {"android": "https://dc.lft.to/lastmile_qr_scan", "ios": "https://dc.lft.to/lastmile_qr_scan"}, "lat": 38.887348, "lon": -77.0257185, "fusion_lat": 0.0}, {"is_reserved": 0, "bike_id": "d4f32dad3d722d78bd45530e206520ec", "type": "electric_scooter", "name": "d4f32dad3d722d78bd45530e206520ec", "is_disabled": 0, "fusion_lon": 0.0, "rental_uris": {"android": "https://dc.lft.to/lastmile_qr_scan", "ios": "https://dc.lft.to/lastmile_qr_scan"}, "lat": 38.90012316666667, "lon": -77.0334365, "fusion_lat": 0.0}, {"is_reserved": 0, "bike_id": "7946396896dda431d1b829ae5d85c803", "type": "electric_scooter", "name": "7946396896dda431d1b829ae5d85c803", "is_disabled": 0, "fusion_lon": 0.0, "rental_uris": {"android": "https://dc.lft.to/lastmile_qr_scan", "ios": "https://dc.lft.to/lastmile_qr_scan"}, "lat": 38.926018666666664, "lon": -77.02154316666666, "fusion_lat": 0.0}, {"is_reserved": 0, "bike_id": "53a4c7a991dca0e96f0a4e6067afae37", "type": "electric_scooter", "name": "53a4c7a991dca0e96f0a4e6067afae37", "is_disabled": 0, "fusion_lon": 0.0, "rental_uris": {"android": "https://dc.lft.to/lastmile_qr_scan", "ios": "https://dc.lft.to/lastmile_qr_scan"}, "lat": 38.898675833333336, "lon": -76.94664183333333, "fusion_lat": 0.0}, {"is_reserved": 0, "bike_id": "acb60b99df8e9b9745572ce1eafab180", "type": "electric_scooter", "name": "acb60b99df8e9b9745572ce1eafab180", "is_disabled": 0, "fusion_lon": 0.0, "rental_uris": {"android": "https://dc.lft.to/lastmile_qr_scan", "ios": "https://dc.lft.to/lastmile_qr_scan"}, "lat": 38.89231783333334, "lon": -77.028013, "fusion_lat": 0.0}, {"is_reserved": 0, "bike_id": "68986c729f675a153e3d8b05d607253e", "type": "electric_scooter", "name": "68986c729f675a153e3d8b05d607253e", "is_disabled": 0, "fusion_lon": 0.0, "rental_uris": {"android": "https://dc.lft.to/lastmile_qr_scan", "ios": "https://dc.lft.to/lastmile_qr_scan"}, "lat": 38.93259366666667, "lon": -77.0326465, "fusion_lat": 0.0}, {"is_reserved": 0, "bike_id": "74ab616da3e557e285e4e18ab51028d9", "type": "electric_scooter", "name": "74ab616da3e557e285e4e18ab51028d9", "is_disabled": 0, "fusion_lon": 0.0, "rental_uris": {"android": "https://dc.lft.to/lastmile_qr_scan", "ios": "https://dc.lft.to/lastmile_qr_scan"}, "lat": 38.9362295, "lon": -77.03281816666667, "fusion_lat": 0.0}, {"is_reserved": 0, "bike_id": "f481827123c2e54fd690fffe348d4f38", "type": "electric_scooter", "name": "f481827123c2e54fd690fffe348d4f38", "is_disabled": 0, "fusion_lon": 0.0, "rental_uris": {"android": "https://dc.lft.to/lastmile_qr_scan", "ios": "https://dc.lft.to/lastmile_qr_scan"}, "lat": 38.92361016666667, "lon": -77.02129883333333, "fusion_lat": 0.0}, {"is_reserved": 0, "bike_id": "b43cc429d42edec350281d2c3d6da520", "type": "electric_scooter", "name": "b43cc429d42edec350281d2c3d6da520", "is_disabled": 0, "fusion_lon": 0.0, "rental_uris": {"android": "https://dc.lft.to/lastmile_qr_scan", "ios": "https://dc.lft.to/lastmile_qr_scan"}, "lat": 38.9000825, "lon": -77.0446385, "fusion_lat": 0.0}, {"is_reserved": 0, "bike_id": "2441214b9850eb007f09b375e23d070e", "type": "electric_scooter", "name": "2441214b9850eb007f09b375e23d070e", "is_disabled": 0, "fusion_lon": 0.0, "rental_uris": {"android": "https://dc.lft.to/lastmile_qr_scan", "ios": "https://dc.lft.to/lastmile_qr_scan"}, "lat": 38.90132666666667, "lon": -77.04390133333334, "fusion_lat": 0.0}, {"is_reserved": 0, "bike_id": "d7a2b4b92debd3caf9d0649fe4e771c7", "type": "electric_scooter", "name": "d7a2b4b92debd3caf9d0649fe4e771c7", "is_disabled": 0, "fusion_lon": 0.0, "rental_uris": {"android": "https://dc.lft.to/lastmile_qr_scan", "ios": "https://dc.lft.to/lastmile_qr_scan"}, "lat": 38.90392216666667, "lon": -77.04362283333333, "fusion_lat": 0.0}, {"is_reserved": 0, "bike_id": "cfad4a2d7864915116814683d29defe1", "type": "electric_scooter", "name": "cfad4a2d7864915116814683d29defe1", "is_disabled": 0, "fusion_lon": 0.0, "rental_uris": {"android": "https://dc.lft.to/lastmile_qr_scan", "ios": "https://dc.lft.to/lastmile_qr_scan"}, "lat": 38.907632, "lon": -77.07179383333333, "fusion_lat": 0.0}, {"is_reserved": 0, "bike_id": "a0b1990f27b6e4caa281d44cfc49c0db", "type": "electric_scooter", "name": "a0b1990f27b6e4caa281d44cfc49c0db", "is_disabled": 0, "fusion_lon": 0.0, "rental_uris": {"android": "https://dc.lft.to/lastmile_qr_scan", "ios": "https://dc.lft.to/lastmile_qr_scan"}, "lat": 38.900274, "lon": -76.99866316666666, "fusion_lat": 0.0}, {"is_reserved": 0, "bike_id": "a09af74d25191c5f1f381666c20fd1a3", "type": "electric_scooter", "name": "a09af74d25191c5f1f381666c20fd1a3", "is_disabled": 0, "fusion_lon": 0.0, "rental_uris": {"android": "https://dc.lft.to/lastmile_qr_scan", "ios": "https://dc.lft.to/lastmile_qr_scan"}, "lat": 38.962188833333336, "lon": -77.02775966666667, "fusion_lat": 0.0}, {"is_reserved": 0, "bike_id": "f8d377753b83b98c39a3a7b99fda2124", "type": "electric_scooter", "name": "f8d377753b83b98c39a3a7b99fda2124", "is_disabled": 0, "fusion_lon": 0.0, "rental_uris": {"android": "https://dc.lft.to/lastmile_qr_scan", "ios": "https://dc.lft.to/lastmile_qr_scan"}, "lat": 38.91710283333333, "lon": -77.03868466666667, "fusion_lat": 0.0}, {"is_reserved": 0, "bike_id": "095b97e4397b0b95519967ff4adbbfd2", "type": "electric_scooter", "name": "095b97e4397b0b95519967ff4adbbfd2", "is_disabled": 0, "fusion_lon": 0.0, "rental_uris": {"android": "https://dc.lft.to/lastmile_qr_scan", "ios": "https://dc.lft.to/lastmile_qr_scan"}, "lat": 38.88743316666667, "lon": -77.021255, "fusion_lat": 0.0}, {"is_reserved": 0, "bike_id": "fedcaeffc8c2c43211dae52fa5815ecd", "type": "electric_scooter", "name": "fedcaeffc8c2c43211dae52fa5815ecd", "is_disabled": 0, "fusion_lon": 0.0, "rental_uris": {"android": "https://dc.lft.to/lastmile_qr_scan", "ios": "https://dc.lft.to/lastmile_qr_scan"}, "lat": 38.90055183333333, "lon": -77.04739533333333, "fusion_lat": 0.0}, {"is_reserved": 0, "bike_id": "3ab2a88a22370bdc0e2fb6bc62ca7ebf", "type": "electric_scooter", "name": "3ab2a88a22370bdc0e2fb6bc62ca7ebf", "is_disabled": 0, "fusion_lon": 0.0, "rental_uris": {"android": "https://dc.lft.to/lastmile_qr_scan", "ios": "https://dc.lft.to/lastmile_qr_scan"}, "lat": 38.906067666666665, "lon": -77.02106566666667, "fusion_lat": 0.0}, {"is_reserved": 0, "bike_id": "5d2c0295b7916a882f75328f6c0bca37", "type": "electric_bike", "name": "5d2c0295b7916a882f75328f6c0bca37", "is_disabled": 0, "fusion_lon": 0.0, "rental_uris": {"android": "https://dc.lft.to/lastmile_qr_scan", "ios": "https://dc.lft.to/lastmile_qr_scan"}, "lat": 38.8073955, "lon": -77.09686183333334, "fusion_lat": 0.0}, {"is_reserved": 0, "bike_id": "eee4a683bc781f61ab7ead1159d30300", "type": "electric_scooter", "name": "eee4a683bc781f61ab7ead1159d30300", "is_disabled": 0, "fusion_lon": 0.0, "rental_uris": {"android": "https://dc.lft.to/lastmile_qr_scan", "ios": "https://dc.lft.to/lastmile_qr_scan"}, "lat": 38.921136, "lon": -77.021539, "fusion_lat": 0.0}, {"is_reserved": 0, "bike_id": "bd1dbf6789da876066b2b1e575a3df3a", "type": "electric_scooter", "name": "bd1dbf6789da876066b2b1e575a3df3a", "is_disabled": 0, "fusion_lon": 0.0, "rental_uris": {"android": "https://dc.lft.to/lastmile_qr_scan", "ios": "https://dc.lft.to/lastmile_qr_scan"}, "lat": 38.902702833333336, "lon": -77.038655, "fusion_lat": 0.0}, {"is_reserved": 0, "bike_id": "481b2eb3ad8bb16286035f98dca54da5", "type": "electric_scooter", "name": "481b2eb3ad8bb16286035f98dca54da5", "is_disabled": 0, "fusion_lon": 0.0, "rental_uris": {"android": "https://dc.lft.to/lastmile_qr_scan", "ios": "https://dc.lft.to/lastmile_qr_scan"}, "lat": 38.91573, "lon": -77.034625, "fusion_lat": 0.0}, {"is_reserved": 0, "bike_id": "eea34b96dd6ddc40442a17f0c5b4d8d0", "type": "electric_scooter", "name": "eea34b96dd6ddc40442a17f0c5b4d8d0", "is_disabled": 0, "fusion_lon": 0.0, "rental_uris": {"android": "https://dc.lft.to/lastmile_qr_scan", "ios": "https://dc.lft.to/lastmile_qr_scan"}, "lat": 38.923574, "lon": -77.03403533333334, "fusion_lat": 0.0}, {"is_reserved": 0, "bike_id": "2ae5efe48a496506a29360fb5c5af546", "type": "electric_scooter", "name": "2ae5efe48a496506a29360fb5c5af546", "is_disabled": 0, "fusion_lon": 0.0, "rental_uris": {"android": "https://dc.lft.to/lastmile_qr_scan", "ios": "https://dc.lft.to/lastmile_qr_scan"}, "lat": 38.9441345, "lon": -77.019059, "fusion_lat": 0.0}, {"is_reserved": 0, "bike_id": "65adec223300846f0fc00e436e7daddc", "type": "electric_scooter", "name": "65adec223300846f0fc00e436e7daddc", "is_disabled": 0, "fusion_lon": 0.0, "rental_uris": {"android": "https://dc.lft.to/lastmile_qr_scan", "ios": "https://dc.lft.to/lastmile_qr_scan"}, "lat": 38.87278333333333, "lon": -77.015213, "fusion_lat": 0.0}, {"is_reserved": 0, "bike_id": "229bf5fc2a462cc0e85aefd1278ebd7e", "type": "electric_scooter", "name": "229bf5fc2a462cc0e85aefd1278ebd7e", "is_disabled": 0, "fusion_lon": 0.0, "rental_uris": {"android": "https://dc.lft.to/lastmile_qr_scan", "ios": "https://dc.lft.to/lastmile_qr_scan"}, "lat": 38.892802833333334, "lon": -77.05034466666666, "fusion_lat": 0.0}, {"is_reserved": 0, "bike_id": "62c6da78ac8a06bf3f32e5ff8bc88034", "type": "electric_scooter", "name": "62c6da78ac8a06bf3f32e5ff8bc88034", "is_disabled": 0, "fusion_lon": 0.0, "rental_uris": {"android": "https://dc.lft.to/lastmile_qr_scan", "ios": "https://dc.lft.to/lastmile_qr_scan"}, "lat": 38.8980135, "lon": -77.0461275, "fusion_lat": 0.0}, {"is_reserved": 0, "bike_id": "ad0667b5600e0b1940ee2d6182a606ec", "type": "electric_scooter", "name": "ad0667b5600e0b1940ee2d6182a606ec", "is_disabled": 0, "fusion_lon": 0.0, "rental_uris": {"android": "https://dc.lft.to/lastmile_qr_scan", "ios": "https://dc.lft.to/lastmile_qr_scan"}, "lat": 38.92442666666667, "lon": -77.019421, "fusion_lat": 0.0}, {"is_reserved": 0, "bike_id": "1c14a1419ed0b1a091b43295f4ce4796", "type": "electric_scooter", "name": "1c14a1419ed0b1a091b43295f4ce4796", "is_disabled": 0, "fusion_lon": 0.0, "rental_uris": {"android": "https://dc.lft.to/lastmile_qr_scan", "ios": "https://dc.lft.to/lastmile_qr_scan"}, "lat": 38.8950035, "lon": -76.948718, "fusion_lat": 0.0}, {"is_reserved": 0, "bike_id": "3754973149a8c0ce59105907b35cf133", "type": "electric_scooter", "name": "3754973149a8c0ce59105907b35cf133", "is_disabled": 0, "fusion_lon": 0.0, "rental_uris": {"android": "https://dc.lft.to/lastmile_qr_scan", "ios": "https://dc.lft.to/lastmile_qr_scan"}, "lat": 38.91065733333333, "lon": -77.053753, "fusion_lat": 0.0}, {"is_reserved": 0, "bike_id": "0a7152ba11c91370211950a768213332", "type": "electric_scooter", "name": "0a7152ba11c91370211950a768213332", "is_disabled": 0, "fusion_lon": 0.0, "rental_uris": {"android": "https://dc.lft.to/lastmile_qr_scan", "ios": "https://dc.lft.to/lastmile_qr_scan"}, "lat": 38.920623, "lon": -77.042424, "fusion_lat": 0.0}, {"is_reserved": 0, "bike_id": "ddef780a5da6a91bcebf5ca80ddd530c", "type": "electric_scooter", "name": "ddef780a5da6a91bcebf5ca80ddd530c", "is_disabled": 0, "fusion_lon": 0.0, "rental_uris": {"android": "https://dc.lft.to/lastmile_qr_scan", "ios": "https://dc.lft.to/lastmile_qr_scan"}, "lat": 38.91711733333333, "lon": -77.03875533333333, "fusion_lat": 0.0}, {"is_reserved": 0, "bike_id": "5a4bd1cc70fee785d846c687be68033f", "type": "electric_scooter", "name": "5a4bd1cc70fee785d846c687be68033f", "is_disabled": 0, "fusion_lon": 0.0, "rental_uris": {"android": "https://dc.lft.to/lastmile_qr_scan", "ios": "https://dc.lft.to/lastmile_qr_scan"}, "lat": 38.925501, "lon": -77.03220933333333, "fusion_lat": 0.0}, {"is_reserved": 0, "bike_id": "944d4d7b48b177a614bcae046344e7cb", "type": "electric_bike", "name": "944d4d7b48b177a614bcae046344e7cb", "is_disabled": 0, "fusion_lon": 0.0, "rental_uris": {"android": "https://dc.lft.to/lastmile_qr_scan", "ios": "https://dc.lft.to/lastmile_qr_scan"}, "lat": 38.87174066666667, "lon": -77.23394416666666, "fusion_lat": 0.0}, {"is_reserved": 0, "bike_id": "16ad2e9066dc959b3f08d3108e7569d9", "type": "electric_scooter", "name": "16ad2e9066dc959b3f08d3108e7569d9", "is_disabled": 0, "fusion_lon": 0.0, "rental_uris": {"android": "https://dc.lft.to/lastmile_qr_scan", "ios": "https://dc.lft.to/lastmile_qr_scan"}, "lat": 38.90047166666667, "lon": -76.985072, "fusion_lat": 0.0}, {"is_reserved": 0, "bike_id": "f6bc4b1d4d29cf8e06123c107a96cfce", "type": "electric_scooter", "name": "f6bc4b1d4d29cf8e06123c107a96cfce", "is_disabled": 0, "fusion_lon": 0.0, "rental_uris": {"android": "https://dc.lft.to/lastmile_qr_scan", "ios": "https://dc.lft.to/lastmile_qr_scan"}, "lat": 38.90318383333333, "lon": -76.9925765, "fusion_lat": 0.0}, {"is_reserved": 0, "bike_id": "5dee19b9cc43ec0235d0ceec63abba1f", "type": "electric_scooter", "name": "5dee19b9cc43ec0235d0ceec63abba1f", "is_disabled": 0, "fusion_lon": 0.0, "rental_uris": {"android": "https://dc.lft.to/lastmile_qr_scan", "ios": "https://dc.lft.to/lastmile_qr_scan"}, "lat": 38.875421, "lon": -77.00583816666666, "fusion_lat": 0.0}, {"is_reserved": 0, "bike_id": "152385af89966ec53fad966177df5fcd", "type": "electric_scooter", "name": "152385af89966ec53fad966177df5fcd", "is_disabled": 0, "fusion_lon": 0.0, "rental_uris": {"android": "https://dc.lft.to/lastmile_qr_scan", "ios": "https://dc.lft.to/lastmile_qr_scan"}, "lat": 38.92534666666667, "lon": -77.03392716666667, "fusion_lat": 0.0}, {"is_reserved": 0, "bike_id": "a8cf85a1be220ec330a26afdbdcb1eff", "type": "electric_scooter", "name": "a8cf85a1be220ec330a26afdbdcb1eff", "is_disabled": 0, "fusion_lon": 0.0, "rental_uris": {"android": "https://dc.lft.to/lastmile_qr_scan", "ios": "https://dc.lft.to/lastmile_qr_scan"}, "lat": 38.905349333333334, "lon": -77.043541, "fusion_lat": 0.0}, {"is_reserved": 0, "bike_id": "b9b42d7627900a98f3a6470bbb45019c", "type": "electric_scooter", "name": "b9b42d7627900a98f3a6470bbb45019c", "is_disabled": 0, "fusion_lon": 0.0, "rental_uris": {"android": "https://dc.lft.to/lastmile_qr_scan", "ios": "https://dc.lft.to/lastmile_qr_scan"}, "lat": 38.92363366666667, "lon": -77.02055566666667, "fusion_lat": 0.0}, {"is_reserved": 0, "bike_id": "2ea47baca3310cbfc5d7d65bde367cbb", "type": "electric_scooter", "name": "2ea47baca3310cbfc5d7d65bde367cbb", "is_disabled": 0, "fusion_lon": 0.0, "rental_uris": {"android": "https://dc.lft.to/lastmile_qr_scan", "ios": "https://dc.lft.to/lastmile_qr_scan"}, "lat": 38.9268995, "lon": -77.02584166666666, "fusion_lat": 0.0}, {"is_reserved": 0, "bike_id": "73fdcb83c78c18632af04e071cb0e7d9", "type": "electric_scooter", "name": "73fdcb83c78c18632af04e071cb0e7d9", "is_disabled": 0, "fusion_lon": 0.0, "rental_uris": {"android": "https://dc.lft.to/lastmile_qr_scan", "ios": "https://dc.lft.to/lastmile_qr_scan"}, "lat": 38.935173666666664, "lon": -77.02545583333334, "fusion_lat": 0.0}, {"is_reserved": 0, "bike_id": "b1c2413f3b59eb9359fc7559bc3d1dbd", "type": "electric_scooter", "name": "b1c2413f3b59eb9359fc7559bc3d1dbd", "is_disabled": 0, "fusion_lon": 0.0, "rental_uris": {"android": "https://dc.lft.to/lastmile_qr_scan", "ios": "https://dc.lft.to/lastmile_qr_scan"}, "lat": 38.88342383333333, "lon": -77.02168516666667, "fusion_lat": 0.0}, {"is_reserved": 0, "bike_id": "561ca8a7f11a8c358fcfcf75fe9938cd", "type": "electric_scooter", "name": "561ca8a7f11a8c358fcfcf75fe9938cd", "is_disabled": 0, "fusion_lon": 0.0, "rental_uris": {"android": "https://dc.lft.to/lastmile_qr_scan", "ios": "https://dc.lft.to/lastmile_qr_scan"}, "lat": 38.92254, "lon": -77.01946283333334, "fusion_lat": 0.0}, {"is_reserved": 0, "bike_id": "3195101616852bdb784238f1f15fb522", "type": "electric_scooter", "name": "3195101616852bdb784238f1f15fb522", "is_disabled": 0, "fusion_lon": 0.0, "rental_uris": {"android": "https://dc.lft.to/lastmile_qr_scan", "ios": "https://dc.lft.to/lastmile_qr_scan"}, "lat": 38.93192766666667, "lon": -77.025027, "fusion_lat": 0.0}, {"is_reserved": 0, "bike_id": "887f3e0795e810c92f586746a850b2ae", "type": "electric_scooter", "name": "887f3e0795e810c92f586746a850b2ae", "is_disabled": 0, "fusion_lon": 0.0, "rental_uris": {"android": "https://dc.lft.to/lastmile_qr_scan", "ios": "https://dc.lft.to/lastmile_qr_scan"}, "lat": 38.911926, "lon": -77.03752916666667, "fusion_lat": 0.0}, {"is_reserved": 0, "bike_id": "64e9fa094ea17d910e5192e22bd80e78", "type": "electric_scooter", "name": "64e9fa094ea17d910e5192e22bd80e78", "is_disabled": 0, "fusion_lon": 0.0, "rental_uris": {"android": "https://dc.lft.to/lastmile_qr_scan", "ios": "https://dc.lft.to/lastmile_qr_scan"}, "lat": 38.888841, "lon": -77.01965083333333, "fusion_lat": 0.0}, {"is_reserved": 0, "bike_id": "8164834f1fe733b8d723bc1fea3c76a9", "type": "electric_scooter", "name": "8164834f1fe733b8d723bc1fea3c76a9", "is_disabled": 0, "fusion_lon": 0.0, "rental_uris": {"android": "https://dc.lft.to/lastmile_qr_scan", "ios": "https://dc.lft.to/lastmile_qr_scan"}, "lat": 38.917418166666664, "lon": -77.03189733333333, "fusion_lat": 0.0}, {"is_reserved": 0, "bike_id": "cc736de1c43c30de7c77809720c9bdb4", "type": "electric_scooter", "name": "cc736de1c43c30de7c77809720c9bdb4", "is_disabled": 0, "fusion_lon": 0.0, "rental_uris": {"android": "https://dc.lft.to/lastmile_qr_scan", "ios": "https://dc.lft.to/lastmile_qr_scan"}, "lat": 38.8981495, "lon": -77.01354116666667, "fusion_lat": 0.0}, {"is_reserved": 0, "bike_id": "b1fdb302713141a5a9ba6624d92cf901", "type": "electric_scooter", "name": "b1fdb302713141a5a9ba6624d92cf901", "is_disabled": 0, "fusion_lon": 0.0, "rental_uris": {"android": "https://dc.lft.to/lastmile_qr_scan", "ios": "https://dc.lft.to/lastmile_qr_scan"}, "lat": 38.91910933333333, "lon": -77.02135466666667, "fusion_lat": 0.0}, {"is_reserved": 0, "bike_id": "0bfb3b1a33b2f392dd7ff0f48526ff20", "type": "electric_scooter", "name": "0bfb3b1a33b2f392dd7ff0f48526ff20", "is_disabled": 0, "fusion_lon": 0.0, "rental_uris": {"android": "https://dc.lft.to/lastmile_qr_scan", "ios": "https://dc.lft.to/lastmile_qr_scan"}, "lat": 38.906206166666664, "lon": -76.9932265, "fusion_lat": 0.0}, {"is_reserved": 0, "bike_id": "b9f8bb5ac0c8ee324f079e51a33b8aa8", "type": "electric_scooter", "name": "b9f8bb5ac0c8ee324f079e51a33b8aa8", "is_disabled": 0, "fusion_lon": 0.0, "rental_uris": {"android": "https://dc.lft.to/lastmile_qr_scan", "ios": "https://dc.lft.to/lastmile_qr_scan"}, "lat": 38.918768166666666, "lon": -77.044731, "fusion_lat": 0.0}, {"is_reserved": 0, "bike_id": "8434a850f29359c4c06fcb4857694e00", "type": "electric_scooter", "name": "8434a850f29359c4c06fcb4857694e00", "is_disabled": 0, "fusion_lon": 0.0, "rental_uris": {"android": "https://dc.lft.to/lastmile_qr_scan", "ios": "https://dc.lft.to/lastmile_qr_scan"}, "lat": 38.923599833333334, "lon": -77.02053366666667, "fusion_lat": 0.0}, {"is_reserved": 0, "bike_id": "f8dff4da0ac656bad75dc6fba8cf9fbc", "type": "electric_bike", "name": "f8dff4da0ac656bad75dc6fba8cf9fbc", "is_disabled": 0, "fusion_lon": 0.0, "rental_uris": {"android": "https://dc.lft.to/lastmile_qr_scan", "ios": "https://dc.lft.to/lastmile_qr_scan"}, "lat": 38.86347083333333, "lon": -77.08419366666666, "fusion_lat": 0.0}, {"is_reserved": 0, "bike_id": "2837e52721a3c96cee5adbbf38cf467c", "type": "electric_scooter", "name": "2837e52721a3c96cee5adbbf38cf467c", "is_disabled": 0, "fusion_lon": 0.0, "rental_uris": {"android": "https://dc.lft.to/lastmile_qr_scan", "ios": "https://dc.lft.to/lastmile_qr_scan"}, "lat": 38.88718683333333, "lon": -77.0197665, "fusion_lat": 0.0}, {"is_reserved": 0, "bike_id": "07aa2df2ed7ebf25771326e940937517", "type": "electric_scooter", "name": "07aa2df2ed7ebf25771326e940937517", "is_disabled": 0, "fusion_lon": 0.0, "rental_uris": {"android": "https://dc.lft.to/lastmile_qr_scan", "ios": "https://dc.lft.to/lastmile_qr_scan"}, "lat": 38.91650516666667, "lon": -77.02387466666667, "fusion_lat": 0.0}, {"is_reserved": 0, "bike_id": "8f9413489302344dcee00a2517af38d1", "type": "electric_scooter", "name": "8f9413489302344dcee00a2517af38d1", "is_disabled": 0, "fusion_lon": 0.0, "rental_uris": {"android": "https://dc.lft.to/lastmile_qr_scan", "ios": "https://dc.lft.to/lastmile_qr_scan"}, "lat": 38.92162583333333, "lon": -77.04691016666666, "fusion_lat": 0.0}, {"is_reserved": 0, "bike_id": "f256b6ebb893b72621dd675a47f2318b", "type": "electric_scooter", "name": "f256b6ebb893b72621dd675a47f2318b", "is_disabled": 0, "fusion_lon": 0.0, "rental_uris": {"android": "https://dc.lft.to/lastmile_qr_scan", "ios": "https://dc.lft.to/lastmile_qr_scan"}, "lat": 38.9264185, "lon": -77.03314116666667, "fusion_lat": 0.0}, {"is_reserved": 0, "bike_id": "727b8e3bfc4a15a5aab6a7a24439f331", "type": "electric_scooter", "name": "727b8e3bfc4a15a5aab6a7a24439f331", "is_disabled": 0, "fusion_lon": 0.0, "rental_uris": {"android": "https://dc.lft.to/lastmile_qr_scan", "ios": "https://dc.lft.to/lastmile_qr_scan"}, "lat": 38.92468066666667, "lon": -77.04446783333333, "fusion_lat": 0.0}, {"is_reserved": 0, "bike_id": "f036437106715417bb5417497507e85a", "type": "electric_scooter", "name": "f036437106715417bb5417497507e85a", "is_disabled": 0, "fusion_lon": 0.0, "rental_uris": {"android": "https://dc.lft.to/lastmile_qr_scan", "ios": "https://dc.lft.to/lastmile_qr_scan"}, "lat": 38.915001833333335, "lon": -76.9836915, "fusion_lat": 0.0}, {"is_reserved": 0, "bike_id": "cfc59aedd421e6b99abdff57d6e13f76", "type": "electric_scooter", "name": "cfc59aedd421e6b99abdff57d6e13f76", "is_disabled": 0, "fusion_lon": 0.0, "rental_uris": {"android": "https://dc.lft.to/lastmile_qr_scan", "ios": "https://dc.lft.to/lastmile_qr_scan"}, "lat": 38.874679666666665, "lon": -77.0159345, "fusion_lat": 0.0}, {"is_reserved": 0, "bike_id": "ab44f592e6d1862b4aa4ecc38c8993b6", "type": "electric_bike", "name": "ab44f592e6d1862b4aa4ecc38c8993b6", "is_disabled": 0, "fusion_lon": 0.0, "rental_uris": {"android": "https://dc.lft.to/lastmile_qr_scan", "ios": "https://dc.lft.to/lastmile_qr_scan"}, "lat": 38.98501433333333, "lon": -76.95563366666667, "fusion_lat": 0.0}, {"is_reserved": 0, "bike_id": "f076e8721b48c7e9ec51574d798dfe27", "type": "electric_scooter", "name": "f076e8721b48c7e9ec51574d798dfe27", "is_disabled": 0, "fusion_lon": 0.0, "rental_uris": {"android": "https://dc.lft.to/lastmile_qr_scan", "ios": "https://dc.lft.to/lastmile_qr_scan"}, "lat": 38.942698, "lon": -77.0297895, "fusion_lat": 0.0}, {"is_reserved": 0, "bike_id": "662228e1964d0095fe44f279b8c4b350", "type": "electric_scooter", "name": "662228e1964d0095fe44f279b8c4b350", "is_disabled": 0, "fusion_lon": 0.0, "rental_uris": {"android": "https://dc.lft.to/lastmile_qr_scan", "ios": "https://dc.lft.to/lastmile_qr_scan"}, "lat": 38.9249235, "lon": -77.0393065, "fusion_lat": 0.0}, {"is_reserved": 0, "bike_id": "e40d9f8a90cd533b4bd92eb561e7f24e", "type": "electric_scooter", "name": "e40d9f8a90cd533b4bd92eb561e7f24e", "is_disabled": 0, "fusion_lon": 0.0, "rental_uris": {"android": "https://dc.lft.to/lastmile_qr_scan", "ios": "https://dc.lft.to/lastmile_qr_scan"}, "lat": 38.902710666666664, "lon": -77.03931983333334, "fusion_lat": 0.0}, {"is_reserved": 0, "bike_id": "e5311557c6d4e09c26ac6959ffe15cb2", "type": "electric_bike", "name": "e5311557c6d4e09c26ac6959ffe15cb2", "is_disabled": 0, "fusion_lon": 0.0, "rental_uris": {"android": "https://dc.lft.to/lastmile_qr_scan", "ios": "https://dc.lft.to/lastmile_qr_scan"}, "lat": 38.9507135, "lon": -77.0119955, "fusion_lat": 0.0}, {"is_reserved": 0, "bike_id": "f77f3756a98c7a779a567d96cea13f03", "type": "electric_scooter", "name": "f77f3756a98c7a779a567d96cea13f03", "is_disabled": 0, "fusion_lon": 0.0, "rental_uris": {"android": "https://dc.lft.to/lastmile_qr_scan", "ios": "https://dc.lft.to/lastmile_qr_scan"}, "lat": 38.89568233333333, "lon": -77.04152833333333, "fusion_lat": 0.0}, {"is_reserved": 0, "bike_id": "cb9956fff1d9b2e57b40565988f7aecd", "type": "electric_scooter", "name": "cb9956fff1d9b2e57b40565988f7aecd", "is_disabled": 0, "fusion_lon": 0.0, "rental_uris": {"android": "https://dc.lft.to/lastmile_qr_scan", "ios": "https://dc.lft.to/lastmile_qr_scan"}, "lat": 38.90399016666667, "lon": -77.06294983333333, "fusion_lat": 0.0}, {"is_reserved": 0, "bike_id": "acacd6c574ddd35d1392602880b09a9b", "type": "electric_scooter", "name": "acacd6c574ddd35d1392602880b09a9b", "is_disabled": 0, "fusion_lon": 0.0, "rental_uris": {"android": "https://dc.lft.to/lastmile_qr_scan", "ios": "https://dc.lft.to/lastmile_qr_scan"}, "lat": 38.89324716666667, "lon": -77.01535666666666, "fusion_lat": 0.0}, {"is_reserved": 0, "bike_id": "3e511820675d3b9eb0da501d39a1c5a7", "type": "electric_scooter", "name": "3e511820675d3b9eb0da501d39a1c5a7", "is_disabled": 0, "fusion_lon": 0.0, "rental_uris": {"android": "https://dc.lft.to/lastmile_qr_scan", "ios": "https://dc.lft.to/lastmile_qr_scan"}, "lat": 38.91858466666667, "lon": -77.04170733333333, "fusion_lat": 0.0}, {"is_reserved": 0, "bike_id": "cd37e0a498e66566cf8a78325f703ef3", "type": "electric_bike", "name": "cd37e0a498e66566cf8a78325f703ef3", "is_disabled": 0, "fusion_lon": 0.0, "rental_uris": {"android": "https://dc.lft.to/lastmile_qr_scan", "ios": "https://dc.lft.to/lastmile_qr_scan"}, "lat": 38.99570283333333, "lon": -77.02873533333333, "fusion_lat": 0.0}, {"is_reserved": 0, "bike_id": "4a598dd04d09e2fba986faf5e3eb78b0", "type": "electric_scooter", "name": "4a598dd04d09e2fba986faf5e3eb78b0", "is_disabled": 0, "fusion_lon": 0.0, "rental_uris": {"android": "https://dc.lft.to/lastmile_qr_scan", "ios": "https://dc.lft.to/lastmile_qr_scan"}, "lat": 38.92337833333333, "lon": -77.04136983333333, "fusion_lat": 0.0}, {"is_reserved": 0, "bike_id": "98a3f4cac58834af400c370399ad542d", "type": "electric_scooter", "name": "98a3f4cac58834af400c370399ad542d", "is_disabled": 0, "fusion_lon": 0.0, "rental_uris": {"android": "https://dc.lft.to/lastmile_qr_scan", "ios": "https://dc.lft.to/lastmile_qr_scan"}, "lat": 38.93032183333333, "lon": -77.0322485, "fusion_lat": 0.0}, {"is_reserved": 0, "bike_id": "9f9f545e9920e028ef582c9c663fb426", "type": "electric_scooter", "name": "9f9f545e9920e028ef582c9c663fb426", "is_disabled": 0, "fusion_lon": 0.0, "rental_uris": {"android": "https://dc.lft.to/lastmile_qr_scan", "ios": "https://dc.lft.to/lastmile_qr_scan"}, "lat": 38.915503, "lon": -77.04154766666667, "fusion_lat": 0.0}, {"is_reserved": 0, "bike_id": "8d79c34b015cc382189a097cb9d5de5d", "type": "electric_scooter", "name": "8d79c34b015cc382189a097cb9d5de5d", "is_disabled": 0, "fusion_lon": 0.0, "rental_uris": {"android": "https://dc.lft.to/lastmile_qr_scan", "ios": "https://dc.lft.to/lastmile_qr_scan"}, "lat": 38.900416666666665, "lon": -77.002029, "fusion_lat": 0.0}, {"is_reserved": 0, "bike_id": "6d16f4916fce23dfb4ddc0fc01b89a36", "type": "electric_scooter", "name": "6d16f4916fce23dfb4ddc0fc01b89a36", "is_disabled": 0, "fusion_lon": 0.0, "rental_uris": {"android": "https://dc.lft.to/lastmile_qr_scan", "ios": "https://dc.lft.to/lastmile_qr_scan"}, "lat": 38.89230033333333, "lon": -77.029598, "fusion_lat": 0.0}, {"is_reserved": 0, "bike_id": "1f6ef4d61f22b33f30894395d03203ac", "type": "electric_scooter", "name": "1f6ef4d61f22b33f30894395d03203ac", "is_disabled": 0, "fusion_lon": 0.0, "rental_uris": {"android": "https://dc.lft.to/lastmile_qr_scan", "ios": "https://dc.lft.to/lastmile_qr_scan"}, "lat": 38.8922775, "lon": -77.013661, "fusion_lat": 0.0}, {"is_reserved": 0, "bike_id": "162810e6d0c924c5df778785f8084bb7", "type": "electric_scooter", "name": "162810e6d0c924c5df778785f8084bb7", "is_disabled": 0, "fusion_lon": 0.0, "rental_uris": {"android": "https://dc.lft.to/lastmile_qr_scan", "ios": "https://dc.lft.to/lastmile_qr_scan"}, "lat": 38.939516166666664, "lon": -77.07245516666667, "fusion_lat": 0.0}, {"is_reserved": 0, "bike_id": "42179ed41d2265697864041b9e6dd6f5", "type": "electric_scooter", "name": "42179ed41d2265697864041b9e6dd6f5", "is_disabled": 0, "fusion_lon": 0.0, "rental_uris": {"android": "https://dc.lft.to/lastmile_qr_scan", "ios": "https://dc.lft.to/lastmile_qr_scan"}, "lat": 38.898399166666664, "lon": -77.01292683333334, "fusion_lat": 0.0}, {"is_reserved": 0, "bike_id": "a33d308e021c3ce126a251405c109fe6", "type": "electric_scooter", "name": "a33d308e021c3ce126a251405c109fe6", "is_disabled": 0, "fusion_lon": 0.0, "rental_uris": {"android": "https://dc.lft.to/lastmile_qr_scan", "ios": "https://dc.lft.to/lastmile_qr_scan"}, "lat": 38.917857166666664, "lon": -77.022782, "fusion_lat": 0.0}, {"is_reserved": 0, "bike_id": "bac31772d490b7be3a900cc7e6a70e47", "type": "electric_bike", "name": "bac31772d490b7be3a900cc7e6a70e47", "is_disabled": 0, "fusion_lon": 0.0, "rental_uris": {"android": "https://dc.lft.to/lastmile_qr_scan", "ios": "https://dc.lft.to/lastmile_qr_scan"}, "lat": 39.010920666666664, "lon": -76.910677, "fusion_lat": 0.0}, {"is_reserved": 0, "bike_id": "069e78d9af65f4cc710f3905d949aeaf", "type": "electric_scooter", "name": "069e78d9af65f4cc710f3905d949aeaf", "is_disabled": 0, "fusion_lon": 0.0, "rental_uris": {"android": "https://dc.lft.to/lastmile_qr_scan", "ios": "https://dc.lft.to/lastmile_qr_scan"}, "lat": 38.91410366666667, "lon": -77.03828633333333, "fusion_lat": 0.0}, {"is_reserved": 0, "bike_id": "e639cbe02c39ef74ef93b1acc6045601", "type": "electric_scooter", "name": "e639cbe02c39ef74ef93b1acc6045601", "is_disabled": 0, "fusion_lon": 0.0, "rental_uris": {"android": "https://dc.lft.to/lastmile_qr_scan", "ios": "https://dc.lft.to/lastmile_qr_scan"}, "lat": 38.906192, "lon": -77.0088745, "fusion_lat": 0.0}, {"is_reserved": 0, "bike_id": "f4c199c2c950318a7e5c5f6c023eb515", "type": "electric_scooter", "name": "f4c199c2c950318a7e5c5f6c023eb515", "is_disabled": 0, "fusion_lon": 0.0, "rental_uris": {"android": "https://dc.lft.to/lastmile_qr_scan", "ios": "https://dc.lft.to/lastmile_qr_scan"}, "lat": 38.892290333333335, "lon": -77.05006183333333, "fusion_lat": 0.0}, {"is_reserved": 0, "bike_id": "3aa3bcaf2a822c03e85d5771a657c585", "type": "electric_scooter", "name": "3aa3bcaf2a822c03e85d5771a657c585", "is_disabled": 0, "fusion_lon": 0.0, "rental_uris": {"android": "https://dc.lft.to/lastmile_qr_scan", "ios": "https://dc.lft.to/lastmile_qr_scan"}, "lat": 38.918686, "lon": -77.040367, "fusion_lat": 0.0}, {"is_reserved": 0, "bike_id": "7e5c75e909e1f67184545b7faed24006", "type": "electric_scooter", "name": "7e5c75e909e1f67184545b7faed24006", "is_disabled": 0, "fusion_lon": 0.0, "rental_uris": {"android": "https://dc.lft.to/lastmile_qr_scan", "ios": "https://dc.lft.to/lastmile_qr_scan"}, "lat": 38.8973445, "lon": -77.02799033333334, "fusion_lat": 0.0}, {"is_reserved": 0, "bike_id": "bf5377628d58756857151479aa6a5d7d", "type": "electric_scooter", "name": "bf5377628d58756857151479aa6a5d7d", "is_disabled": 0, "fusion_lon": 0.0, "rental_uris": {"android": "https://dc.lft.to/lastmile_qr_scan", "ios": "https://dc.lft.to/lastmile_qr_scan"}, "lat": 38.903675166666666, "lon": -77.00290366666667, "fusion_lat": 0.0}, {"is_reserved": 0, "bike_id": "7e069123cff6a772fa989c5b4a755911", "type": "electric_scooter", "name": "7e069123cff6a772fa989c5b4a755911", "is_disabled": 0, "fusion_lon": 0.0, "rental_uris": {"android": "https://dc.lft.to/lastmile_qr_scan", "ios": "https://dc.lft.to/lastmile_qr_scan"}, "lat": 38.93563733333333, "lon": -77.06429616666667, "fusion_lat": 0.0}, {"is_reserved": 0, "bike_id": "90575be144f1e31329e6a1a0773f05a0", "type": "electric_scooter", "name": "90575be144f1e31329e6a1a0773f05a0", "is_disabled": 0, "fusion_lon": 0.0, "rental_uris": {"android": "https://dc.lft.to/lastmile_qr_scan", "ios": "https://dc.lft.to/lastmile_qr_scan"}, "lat": 38.91933316666667, "lon": -77.024853, "fusion_lat": 0.0}, {"is_reserved": 0, "bike_id": "2bf53f44fcbb54b07978f3dfd77bcdd2", "type": "electric_bike", "name": "2bf53f44fcbb54b07978f3dfd77bcdd2", "is_disabled": 0, "fusion_lon": 0.0, "rental_uris": {"android": "https://dc.lft.to/lastmile_qr_scan", "ios": "https://dc.lft.to/lastmile_qr_scan"}, "lat": 39.08438783333333, "lon": -76.95158716666667, "fusion_lat": 0.0}, {"is_reserved": 0, "bike_id": "8360aadc84246c7aee6cd70c92e3d80a", "type": "electric_scooter", "name": "8360aadc84246c7aee6cd70c92e3d80a", "is_disabled": 0, "fusion_lon": 0.0, "rental_uris": {"android": "https://dc.lft.to/lastmile_qr_scan", "ios": "https://dc.lft.to/lastmile_qr_scan"}, "lat": 38.909439666666664, "lon": -76.93599116666667, "fusion_lat": 0.0}, {"is_reserved": 0, "bike_id": "bf8a52f888bf845345a977f1e556f71d", "type": "electric_scooter", "name": "bf8a52f888bf845345a977f1e556f71d", "is_disabled": 0, "fusion_lon": 0.0, "rental_uris": {"android": "https://dc.lft.to/lastmile_qr_scan", "ios": "https://dc.lft.to/lastmile_qr_scan"}, "lat": 38.89842566666667, "lon": -77.02214366666666, "fusion_lat": 0.0}, {"is_reserved": 0, "bike_id": "b5e314b98541e5bca02774e207bb30f5", "type": "electric_scooter", "name": "b5e314b98541e5bca02774e207bb30f5", "is_disabled": 0, "fusion_lon": 0.0, "rental_uris": {"android": "https://dc.lft.to/lastmile_qr_scan", "ios": "https://dc.lft.to/lastmile_qr_scan"}, "lat": 38.930974666666664, "lon": -77.0265635, "fusion_lat": 0.0}, {"is_reserved": 0, "bike_id": "a642a24d590912bfe841a745d3a10692", "type": "electric_scooter", "name": "a642a24d590912bfe841a745d3a10692", "is_disabled": 0, "fusion_lon": 0.0, "rental_uris": {"android": "https://dc.lft.to/lastmile_qr_scan", "ios": "https://dc.lft.to/lastmile_qr_scan"}, "lat": 38.90810416666667, "lon": -77.0260365, "fusion_lat": 0.0}, {"is_reserved": 0, "bike_id": "9662b8c9eaec769351f0d9f1b7fae948", "type": "electric_scooter", "name": "9662b8c9eaec769351f0d9f1b7fae948", "is_disabled": 0, "fusion_lon": 0.0, "rental_uris": {"android": "https://dc.lft.to/lastmile_qr_scan", "ios": "https://dc.lft.to/lastmile_qr_scan"}, "lat": 38.91839933333333, "lon": -77.02291333333334, "fusion_lat": 0.0}, {"is_reserved": 0, "bike_id": "72d64a09ab98406be8dacacfc2b4801d", "type": "electric_scooter", "name": "72d64a09ab98406be8dacacfc2b4801d", "is_disabled": 0, "fusion_lon": 0.0, "rental_uris": {"android": "https://dc.lft.to/lastmile_qr_scan", "ios": "https://dc.lft.to/lastmile_qr_scan"}, "lat": 38.93802733333333, "lon": -76.99223683333334, "fusion_lat": 0.0}, {"is_reserved": 0, "bike_id": "58c5b2570cd6dcf5b8b60ab793a61dac", "type": "electric_scooter", "name": "58c5b2570cd6dcf5b8b60ab793a61dac", "is_disabled": 0, "fusion_lon": 0.0, "rental_uris": {"android": "https://dc.lft.to/lastmile_qr_scan", "ios": "https://dc.lft.to/lastmile_qr_scan"}, "lat": 38.916481, "lon": -77.028881, "fusion_lat": 0.0}, {"is_reserved": 0, "bike_id": "ff220aa812c8b2c6377500fca9f36e3d", "type": "electric_scooter", "name": "ff220aa812c8b2c6377500fca9f36e3d", "is_disabled": 0, "fusion_lon": 0.0, "rental_uris": {"android": "https://dc.lft.to/lastmile_qr_scan", "ios": "https://dc.lft.to/lastmile_qr_scan"}, "lat": 38.90729733333333, "lon": -77.07031316666666, "fusion_lat": 0.0}, {"is_reserved": 0, "bike_id": "ec3f6033725ae03616af3f841e363f37", "type": "electric_scooter", "name": "ec3f6033725ae03616af3f841e363f37", "is_disabled": 0, "fusion_lon": 0.0, "rental_uris": {"android": "https://dc.lft.to/lastmile_qr_scan", "ios": "https://dc.lft.to/lastmile_qr_scan"}, "lat": 38.9095475, "lon": -77.0127785, "fusion_lat": 0.0}, {"is_reserved": 0, "bike_id": "26dad46f2b909304f7e834b309b06ec3", "type": "electric_scooter", "name": "26dad46f2b909304f7e834b309b06ec3", "is_disabled": 0, "fusion_lon": 0.0, "rental_uris": {"android": "https://dc.lft.to/lastmile_qr_scan", "ios": "https://dc.lft.to/lastmile_qr_scan"}, "lat": 38.92066616666666, "lon": -77.0716215, "fusion_lat": 0.0}, {"is_reserved": 0, "bike_id": "ad276eef2e1cfd4a2f94e751489869b8", "type": "electric_scooter", "name": "ad276eef2e1cfd4a2f94e751489869b8", "is_disabled": 0, "fusion_lon": 0.0, "rental_uris": {"android": "https://dc.lft.to/lastmile_qr_scan", "ios": "https://dc.lft.to/lastmile_qr_scan"}, "lat": 38.885912166666664, "lon": -77.0173005, "fusion_lat": 0.0}, {"is_reserved": 0, "bike_id": "c0016764b9b8d7a1265a6a4258fc3cc7", "type": "electric_scooter", "name": "c0016764b9b8d7a1265a6a4258fc3cc7", "is_disabled": 0, "fusion_lon": 0.0, "rental_uris": {"android": "https://dc.lft.to/lastmile_qr_scan", "ios": "https://dc.lft.to/lastmile_qr_scan"}, "lat": 38.97488166666667, "lon": -77.01714416666667, "fusion_lat": 0.0}, {"is_reserved": 0, "bike_id": "e08b8febe433f3ca37656303f20615ad", "type": "electric_bike", "name": "e08b8febe433f3ca37656303f20615ad", "is_disabled": 0, "fusion_lon": 0.0, "rental_uris": {"android": "https://dc.lft.to/lastmile_qr_scan", "ios": "https://dc.lft.to/lastmile_qr_scan"}, "lat": 38.912127, "lon": -77.0384315, "fusion_lat": 0.0}, {"is_reserved": 0, "bike_id": "c53192b799775cc6cc51c3da57ff5da0", "type": "electric_scooter", "name": "c53192b799775cc6cc51c3da57ff5da0", "is_disabled": 0, "fusion_lon": 0.0, "rental_uris": {"android": "https://dc.lft.to/lastmile_qr_scan", "ios": "https://dc.lft.to/lastmile_qr_scan"}, "lat": 38.912803, "lon": -77.0788215, "fusion_lat": 0.0}, {"is_reserved": 0, "bike_id": "b13636f06dd29e135354f91372d50e95", "type": "electric_scooter", "name": "b13636f06dd29e135354f91372d50e95", "is_disabled": 0, "fusion_lon": 0.0, "rental_uris": {"android": "https://dc.lft.to/lastmile_qr_scan", "ios": "https://dc.lft.to/lastmile_qr_scan"}, "lat": 38.88678083333333, "lon": -77.001943, "fusion_lat": 0.0}, {"is_reserved": 0, "bike_id": "8c38b925fb47a20b7903f61151c8fcfc", "type": "electric_scooter", "name": "8c38b925fb47a20b7903f61151c8fcfc", "is_disabled": 0, "fusion_lon": 0.0, "rental_uris": {"android": "https://dc.lft.to/lastmile_qr_scan", "ios": "https://dc.lft.to/lastmile_qr_scan"}, "lat": 38.896618, "lon": -77.0237945, "fusion_lat": 0.0}, {"is_reserved": 0, "bike_id": "5781ece59f32718a3a4772b441032ca5", "type": "electric_scooter", "name": "5781ece59f32718a3a4772b441032ca5", "is_disabled": 0, "fusion_lon": 0.0, "rental_uris": {"android": "https://dc.lft.to/lastmile_qr_scan", "ios": "https://dc.lft.to/lastmile_qr_scan"}, "lat": 38.9003, "lon": -76.99865033333333, "fusion_lat": 0.0}, {"is_reserved": 0, "bike_id": "33e1d2c5bae8b202a3bbc54b9a56e682", "type": "electric_scooter", "name": "33e1d2c5bae8b202a3bbc54b9a56e682", "is_disabled": 0, "fusion_lon": 0.0, "rental_uris": {"android": "https://dc.lft.to/lastmile_qr_scan", "ios": "https://dc.lft.to/lastmile_qr_scan"}, "lat": 38.9094995, "lon": -77.03447033333333, "fusion_lat": 0.0}, {"is_reserved": 0, "bike_id": "9d641a52ab9f36f9553a979ced2f6d74", "type": "electric_scooter", "name": "9d641a52ab9f36f9553a979ced2f6d74", "is_disabled": 0, "fusion_lon": 0.0, "rental_uris": {"android": "https://dc.lft.to/lastmile_qr_scan", "ios": "https://dc.lft.to/lastmile_qr_scan"}, "lat": 38.91792483333333, "lon": -77.021098, "fusion_lat": 0.0}, {"is_reserved": 0, "bike_id": "6179cf84e1d7e1e89cbd0aa9c846f83e", "type": "electric_scooter", "name": "6179cf84e1d7e1e89cbd0aa9c846f83e", "is_disabled": 0, "fusion_lon": 0.0, "rental_uris": {"android": "https://dc.lft.to/lastmile_qr_scan", "ios": "https://dc.lft.to/lastmile_qr_scan"}, "lat": 38.90024966666667, "lon": -76.99859683333334, "fusion_lat": 0.0}, {"is_reserved": 0, "bike_id": "2cb4a0772c02b7ffca5391cec34b8a07", "type": "electric_scooter", "name": "2cb4a0772c02b7ffca5391cec34b8a07", "is_disabled": 0, "fusion_lon": 0.0, "rental_uris": {"android": "https://dc.lft.to/lastmile_qr_scan", "ios": "https://dc.lft.to/lastmile_qr_scan"}, "lat": 38.9018545, "lon": -77.048072, "fusion_lat": 0.0}, {"is_reserved": 0, "bike_id": "c4409a21ff779e64b08369db6794fb77", "type": "electric_scooter", "name": "c4409a21ff779e64b08369db6794fb77", "is_disabled": 0, "fusion_lon": 0.0, "rental_uris": {"android": "https://dc.lft.to/lastmile_qr_scan", "ios": "https://dc.lft.to/lastmile_qr_scan"}, "lat": 38.914381, "lon": -77.02285583333334, "fusion_lat": 0.0}, {"is_reserved": 0, "bike_id": "fdadcd27e51b9b160e8588c7f735e320", "type": "electric_scooter", "name": "fdadcd27e51b9b160e8588c7f735e320", "is_disabled": 0, "fusion_lon": 0.0, "rental_uris": {"android": "https://dc.lft.to/lastmile_qr_scan", "ios": "https://dc.lft.to/lastmile_qr_scan"}, "lat": 38.889722166666665, "lon": -76.98033233333334, "fusion_lat": 0.0}, {"is_reserved": 0, "bike_id": "e6827c7a7b8e6bb8112a076f25038ce3", "type": "electric_scooter", "name": "e6827c7a7b8e6bb8112a076f25038ce3", "is_disabled": 0, "fusion_lon": 0.0, "rental_uris": {"android": "https://dc.lft.to/lastmile_qr_scan", "ios": "https://dc.lft.to/lastmile_qr_scan"}, "lat": 38.939315666666666, "lon": -77.02574566666667, "fusion_lat": 0.0}, {"is_reserved": 0, "bike_id": "30cc6dfa57f8970a755b66296864c392", "type": "electric_scooter", "name": "30cc6dfa57f8970a755b66296864c392", "is_disabled": 0, "fusion_lon": 0.0, "rental_uris": {"android": "https://dc.lft.to/lastmile_qr_scan", "ios": "https://dc.lft.to/lastmile_qr_scan"}, "lat": 38.9004265, "lon": -76.9881595, "fusion_lat": 0.0}, {"is_reserved": 0, "bike_id": "ed9ccc09498a43f3bc2d614e1335e486", "type": "electric_scooter", "name": "ed9ccc09498a43f3bc2d614e1335e486", "is_disabled": 0, "fusion_lon": 0.0, "rental_uris": {"android": "https://dc.lft.to/lastmile_qr_scan", "ios": "https://dc.lft.to/lastmile_qr_scan"}, "lat": 38.88590516666667, "lon": -77.01997016666667, "fusion_lat": 0.0}, {"is_reserved": 0, "bike_id": "a9b5c337a6a791515140d3353b669149", "type": "electric_scooter", "name": "a9b5c337a6a791515140d3353b669149", "is_disabled": 0, "fusion_lon": 0.0, "rental_uris": {"android": "https://dc.lft.to/lastmile_qr_scan", "ios": "https://dc.lft.to/lastmile_qr_scan"}, "lat": 38.89031383333333, "lon": -76.9446605, "fusion_lat": 0.0}, {"is_reserved": 0, "bike_id": "be6434ccb2b13e7b77e9bc3b2fa2875f", "type": "electric_scooter", "name": "be6434ccb2b13e7b77e9bc3b2fa2875f", "is_disabled": 0, "fusion_lon": 0.0, "rental_uris": {"android": "https://dc.lft.to/lastmile_qr_scan", "ios": "https://dc.lft.to/lastmile_qr_scan"}, "lat": 38.92216833333333, "lon": -77.01813883333334, "fusion_lat": 0.0}, {"is_reserved": 0, "bike_id": "8453702377a325dd2c95ddf9f6311312", "type": "electric_scooter", "name": "8453702377a325dd2c95ddf9f6311312", "is_disabled": 0, "fusion_lon": 0.0, "rental_uris": {"android": "https://dc.lft.to/lastmile_qr_scan", "ios": "https://dc.lft.to/lastmile_qr_scan"}, "lat": 38.8998495, "lon": -76.97746333333333, "fusion_lat": 0.0}, {"is_reserved": 0, "bike_id": "5b52204511b31e85c0ac2dc5a28015e5", "type": "electric_bike", "name": "5b52204511b31e85c0ac2dc5a28015e5", "is_disabled": 0, "fusion_lon": 0.0, "rental_uris": {"android": "https://dc.lft.to/lastmile_qr_scan", "ios": "https://dc.lft.to/lastmile_qr_scan"}, "lat": 38.83296333333333, "lon": -77.08405033333334, "fusion_lat": 0.0}, {"is_reserved": 0, "bike_id": "f04c9533305233609571fa4525ba7f36", "type": "electric_scooter", "name": "f04c9533305233609571fa4525ba7f36", "is_disabled": 0, "fusion_lon": 0.0, "rental_uris": {"android": "https://dc.lft.to/lastmile_qr_scan", "ios": "https://dc.lft.to/lastmile_qr_scan"}, "lat": 38.900363666666664, "lon": -77.03388716666667, "fusion_lat": 0.0}, {"is_reserved": 0, "bike_id": "fc4256031c475c179b079cc667373bdf", "type": "electric_bike", "name": "fc4256031c475c179b079cc667373bdf", "is_disabled": 0, "fusion_lon": 0.0, "rental_uris": {"android": "https://dc.lft.to/lastmile_qr_scan", "ios": "https://dc.lft.to/lastmile_qr_scan"}, "lat": 38.935382, "lon": -76.97847116666667, "fusion_lat": 0.0}, {"is_reserved": 0, "bike_id": "b3b61725e74c903983bfbd11e0536506", "type": "electric_scooter", "name": "b3b61725e74c903983bfbd11e0536506", "is_disabled": 0, "fusion_lon": 0.0, "rental_uris": {"android": "https://dc.lft.to/lastmile_qr_scan", "ios": "https://dc.lft.to/lastmile_qr_scan"}, "lat": 38.923065666666666, "lon": -77.03658816666666, "fusion_lat": 0.0}, {"is_reserved": 0, "bike_id": "afcb08646de2a55368ac27631d05d720", "type": "electric_scooter", "name": "afcb08646de2a55368ac27631d05d720", "is_disabled": 0, "fusion_lon": 0.0, "rental_uris": {"android": "https://dc.lft.to/lastmile_qr_scan", "ios": "https://dc.lft.to/lastmile_qr_scan"}, "lat": 38.90267466666667, "lon": -77.037375, "fusion_lat": 0.0}, {"is_reserved": 0, "bike_id": "7d0cede1683d9b75633c44f5c5cc38aa", "type": "electric_scooter", "name": "7d0cede1683d9b75633c44f5c5cc38aa", "is_disabled": 0, "fusion_lon": 0.0, "rental_uris": {"android": "https://dc.lft.to/lastmile_qr_scan", "ios": "https://dc.lft.to/lastmile_qr_scan"}, "lat": 38.9123455, "lon": -77.03840066666666, "fusion_lat": 0.0}, {"is_reserved": 0, "bike_id": "7ef59032fcdc3caec023a9f7adfb7c7d", "type": "electric_scooter", "name": "7ef59032fcdc3caec023a9f7adfb7c7d", "is_disabled": 0, "fusion_lon": 0.0, "rental_uris": {"android": "https://dc.lft.to/lastmile_qr_scan", "ios": "https://dc.lft.to/lastmile_qr_scan"}, "lat": 38.91978966666667, "lon": -77.0001345, "fusion_lat": 0.0}, {"is_reserved": 0, "bike_id": "736eebfacd2ca64639b45c71b4ddec9b", "type": "electric_scooter", "name": "736eebfacd2ca64639b45c71b4ddec9b", "is_disabled": 0, "fusion_lon": 0.0, "rental_uris": {"android": "https://dc.lft.to/lastmile_qr_scan", "ios": "https://dc.lft.to/lastmile_qr_scan"}, "lat": 38.9389325, "lon": -77.03320516666666, "fusion_lat": 0.0}, {"is_reserved": 0, "bike_id": "e0174e264a4a2f83d2324efb1e4cee1d", "type": "electric_scooter", "name": "e0174e264a4a2f83d2324efb1e4cee1d", "is_disabled": 0, "fusion_lon": 0.0, "rental_uris": {"android": "https://dc.lft.to/lastmile_qr_scan", "ios": "https://dc.lft.to/lastmile_qr_scan"}, "lat": 38.9353205, "lon": -77.058138, "fusion_lat": 0.0}, {"is_reserved": 0, "bike_id": "a95091a5e258f4a78f889c562a9cd876", "type": "electric_scooter", "name": "a95091a5e258f4a78f889c562a9cd876", "is_disabled": 0, "fusion_lon": 0.0, "rental_uris": {"android": "https://dc.lft.to/lastmile_qr_scan", "ios": "https://dc.lft.to/lastmile_qr_scan"}, "lat": 38.9042525, "lon": -77.02515866666667, "fusion_lat": 0.0}, {"is_reserved": 0, "bike_id": "f01b2e4ba8bae93717e43281ef9fe7c7", "type": "electric_scooter", "name": "f01b2e4ba8bae93717e43281ef9fe7c7", "is_disabled": 0, "fusion_lon": 0.0, "rental_uris": {"android": "https://dc.lft.to/lastmile_qr_scan", "ios": "https://dc.lft.to/lastmile_qr_scan"}, "lat": 38.917088166666666, "lon": -77.028755, "fusion_lat": 0.0}, {"is_reserved": 0, "bike_id": "01fef660ef76ef9302c6fb59556667f9", "type": "electric_scooter", "name": "01fef660ef76ef9302c6fb59556667f9", "is_disabled": 0, "fusion_lon": 0.0, "rental_uris": {"android": "https://dc.lft.to/lastmile_qr_scan", "ios": "https://dc.lft.to/lastmile_qr_scan"}, "lat": 38.9086585, "lon": -77.06999366666666, "fusion_lat": 0.0}, {"is_reserved": 0, "bike_id": "b0994e8bf4a822c8c5061a05e0a52cc3", "type": "electric_scooter", "name": "b0994e8bf4a822c8c5061a05e0a52cc3", "is_disabled": 0, "fusion_lon": 0.0, "rental_uris": {"android": "https://dc.lft.to/lastmile_qr_scan", "ios": "https://dc.lft.to/lastmile_qr_scan"}, "lat": 38.89786383333333, "lon": -77.00751933333333, "fusion_lat": 0.0}, {"is_reserved": 0, "bike_id": "69bf8cec6d7ab15c66fd75ae050426a2", "type": "electric_scooter", "name": "69bf8cec6d7ab15c66fd75ae050426a2", "is_disabled": 0, "fusion_lon": 0.0, "rental_uris": {"android": "https://dc.lft.to/lastmile_qr_scan", "ios": "https://dc.lft.to/lastmile_qr_scan"}, "lat": 38.896087333333334, "lon": -77.04692483333334, "fusion_lat": 0.0}, {"is_reserved": 0, "bike_id": "bd213800885f4b793153315d33847c45", "type": "electric_scooter", "name": "bd213800885f4b793153315d33847c45", "is_disabled": 0, "fusion_lon": 0.0, "rental_uris": {"android": "https://dc.lft.to/lastmile_qr_scan", "ios": "https://dc.lft.to/lastmile_qr_scan"}, "lat": 38.908367, "lon": -77.03202483333334, "fusion_lat": 0.0}, {"is_reserved": 0, "bike_id": "f85891b02cbbc4af32ca6ed89642d81d", "type": "electric_scooter", "name": "f85891b02cbbc4af32ca6ed89642d81d", "is_disabled": 0, "fusion_lon": 0.0, "rental_uris": {"android": "https://dc.lft.to/lastmile_qr_scan", "ios": "https://dc.lft.to/lastmile_qr_scan"}, "lat": 38.897264, "lon": -77.02395666666666, "fusion_lat": 0.0}, {"is_reserved": 0, "bike_id": "056a576de393d05c6464b2ccabf54cf2", "type": "electric_scooter", "name": "056a576de393d05c6464b2ccabf54cf2", "is_disabled": 0, "fusion_lon": 0.0, "rental_uris": {"android": "https://dc.lft.to/lastmile_qr_scan", "ios": "https://dc.lft.to/lastmile_qr_scan"}, "lat": 38.9218015, "lon": -77.03531566666666, "fusion_lat": 0.0}, {"is_reserved": 0, "bike_id": "1c2bbcd48306af50b996525dc6a820a2", "type": "electric_scooter", "name": "1c2bbcd48306af50b996525dc6a820a2", "is_disabled": 0, "fusion_lon": 0.0, "rental_uris": {"android": "https://dc.lft.to/lastmile_qr_scan", "ios": "https://dc.lft.to/lastmile_qr_scan"}, "lat": 38.93205583333334, "lon": -77.04122683333334, "fusion_lat": 0.0}, {"is_reserved": 0, "bike_id": "352aa094b935d60bbe9f31a5604dd974", "type": "electric_scooter", "name": "352aa094b935d60bbe9f31a5604dd974", "is_disabled": 0, "fusion_lon": 0.0, "rental_uris": {"android": "https://dc.lft.to/lastmile_qr_scan", "ios": "https://dc.lft.to/lastmile_qr_scan"}, "lat": 38.89430516666667, "lon": -77.02431466666667, "fusion_lat": 0.0}, {"is_reserved": 0, "bike_id": "a1fc3349489061d2e01ad30b6d50661f", "type": "electric_scooter", "name": "a1fc3349489061d2e01ad30b6d50661f", "is_disabled": 0, "fusion_lon": 0.0, "rental_uris": {"android": "https://dc.lft.to/lastmile_qr_scan", "ios": "https://dc.lft.to/lastmile_qr_scan"}, "lat": 38.9213975, "lon": -77.04225016666666, "fusion_lat": 0.0}, {"is_reserved": 0, "bike_id": "dd49231892f494167a1d8387419c77bd", "type": "electric_scooter", "name": "dd49231892f494167a1d8387419c77bd", "is_disabled": 0, "fusion_lon": 0.0, "rental_uris": {"android": "https://dc.lft.to/lastmile_qr_scan", "ios": "https://dc.lft.to/lastmile_qr_scan"}, "lat": 38.90088633333333, "lon": -76.98340816666666, "fusion_lat": 0.0}, {"is_reserved": 0, "bike_id": "49e05a184acd81bacf994bfc27e04a06", "type": "electric_scooter", "name": "49e05a184acd81bacf994bfc27e04a06", "is_disabled": 0, "fusion_lon": 0.0, "rental_uris": {"android": "https://dc.lft.to/lastmile_qr_scan", "ios": "https://dc.lft.to/lastmile_qr_scan"}, "lat": 38.918479, "lon": -77.01283083333334, "fusion_lat": 0.0}, {"is_reserved": 0, "bike_id": "de610f16a6e1f19aab582e658b03cc50", "type": "electric_scooter", "name": "de610f16a6e1f19aab582e658b03cc50", "is_disabled": 0, "fusion_lon": 0.0, "rental_uris": {"android": "https://dc.lft.to/lastmile_qr_scan", "ios": "https://dc.lft.to/lastmile_qr_scan"}, "lat": 38.91237066666667, "lon": -77.0189045, "fusion_lat": 0.0}, {"is_reserved": 0, "bike_id": "a3b451929d92910e69ffdb4e8582123a", "type": "electric_scooter", "name": "a3b451929d92910e69ffdb4e8582123a", "is_disabled": 0, "fusion_lon": 0.0, "rental_uris": {"android": "https://dc.lft.to/lastmile_qr_scan", "ios": "https://dc.lft.to/lastmile_qr_scan"}, "lat": 38.90410983333334, "lon": -76.97330466666666, "fusion_lat": 0.0}, {"is_reserved": 0, "bike_id": "38dedb98a5843a20e483283af15fefb6", "type": "electric_scooter", "name": "38dedb98a5843a20e483283af15fefb6", "is_disabled": 0, "fusion_lon": 0.0, "rental_uris": {"android": "https://dc.lft.to/lastmile_qr_scan", "ios": "https://dc.lft.to/lastmile_qr_scan"}, "lat": 38.91353733333333, "lon": -77.03183533333333, "fusion_lat": 0.0}, {"is_reserved": 0, "bike_id": "2f26ce896fac7e1816b3718f3840d46a", "type": "electric_scooter", "name": "2f26ce896fac7e1816b3718f3840d46a", "is_disabled": 0, "fusion_lon": 0.0, "rental_uris": {"android": "https://dc.lft.to/lastmile_qr_scan", "ios": "https://dc.lft.to/lastmile_qr_scan"}, "lat": 38.922580333333336, "lon": -77.0196725, "fusion_lat": 0.0}, {"is_reserved": 0, "bike_id": "19f74db2d1946f8b2b0c77c5d5c67428", "type": "electric_scooter", "name": "19f74db2d1946f8b2b0c77c5d5c67428", "is_disabled": 0, "fusion_lon": 0.0, "rental_uris": {"android": "https://dc.lft.to/lastmile_qr_scan", "ios": "https://dc.lft.to/lastmile_qr_scan"}, "lat": 38.91188483333333, "lon": -77.03254283333334, "fusion_lat": 0.0}, {"is_reserved": 0, "bike_id": "b0522414630430f3b603ea660ac578c2", "type": "electric_scooter", "name": "b0522414630430f3b603ea660ac578c2", "is_disabled": 0, "fusion_lon": 0.0, "rental_uris": {"android": "https://dc.lft.to/lastmile_qr_scan", "ios": "https://dc.lft.to/lastmile_qr_scan"}, "lat": 38.9192705, "lon": -77.07995916666667, "fusion_lat": 0.0}, {"is_reserved": 0, "bike_id": "7b060629163569fea33912eb364c326a", "type": "electric_scooter", "name": "7b060629163569fea33912eb364c326a", "is_disabled": 0, "fusion_lon": 0.0, "rental_uris": {"android": "https://dc.lft.to/lastmile_qr_scan", "ios": "https://dc.lft.to/lastmile_qr_scan"}, "lat": 38.906171, "lon": -77.00600516666667, "fusion_lat": 0.0}, {"is_reserved": 0, "bike_id": "305da8370ca158748ea6e94a0602c148", "type": "electric_scooter", "name": "305da8370ca158748ea6e94a0602c148", "is_disabled": 0, "fusion_lon": 0.0, "rental_uris": {"android": "https://dc.lft.to/lastmile_qr_scan", "ios": "https://dc.lft.to/lastmile_qr_scan"}, "lat": 38.871823166666665, "lon": -77.00598766666667, "fusion_lat": 0.0}, {"is_reserved": 0, "bike_id": "d249f79da89355765f10041f5b882c4e", "type": "electric_scooter", "name": "d249f79da89355765f10041f5b882c4e", "is_disabled": 0, "fusion_lon": 0.0, "rental_uris": {"android": "https://dc.lft.to/lastmile_qr_scan", "ios": "https://dc.lft.to/lastmile_qr_scan"}, "lat": 38.943055, "lon": -77.05878033333333, "fusion_lat": 0.0}, {"is_reserved": 0, "bike_id": "0828cee18c1a56fde393e067b0091629", "type": "electric_scooter", "name": "0828cee18c1a56fde393e067b0091629", "is_disabled": 0, "fusion_lon": 0.0, "rental_uris": {"android": "https://dc.lft.to/lastmile_qr_scan", "ios": "https://dc.lft.to/lastmile_qr_scan"}, "lat": 38.90156983333333, "lon": -77.02309666666666, "fusion_lat": 0.0}, {"is_reserved": 0, "bike_id": "26f18458b44c791ae0560ca9494a9978", "type": "electric_scooter", "name": "26f18458b44c791ae0560ca9494a9978", "is_disabled": 0, "fusion_lon": 0.0, "rental_uris": {"android": "https://dc.lft.to/lastmile_qr_scan", "ios": "https://dc.lft.to/lastmile_qr_scan"}, "lat": 38.9039245, "lon": -77.065796, "fusion_lat": 0.0}, {"is_reserved": 0, "bike_id": "cacff745e34bebbee8d4a86c8dd46e6f", "type": "electric_scooter", "name": "cacff745e34bebbee8d4a86c8dd46e6f", "is_disabled": 0, "fusion_lon": 0.0, "rental_uris": {"android": "https://dc.lft.to/lastmile_qr_scan", "ios": "https://dc.lft.to/lastmile_qr_scan"}, "lat": 38.90615733333333, "lon": -77.02409783333333, "fusion_lat": 0.0}, {"is_reserved": 0, "bike_id": "657194a547760ffcbccd4403fbdd26cc", "type": "electric_scooter", "name": "657194a547760ffcbccd4403fbdd26cc", "is_disabled": 0, "fusion_lon": 0.0, "rental_uris": {"android": "https://dc.lft.to/lastmile_qr_scan", "ios": "https://dc.lft.to/lastmile_qr_scan"}, "lat": 38.902831166666665, "lon": -77.00219483333333, "fusion_lat": 0.0}, {"is_reserved": 0, "bike_id": "d2b983d03b25c0bd370885edb2acee32", "type": "electric_scooter", "name": "d2b983d03b25c0bd370885edb2acee32", "is_disabled": 0, "fusion_lon": 0.0, "rental_uris": {"android": "https://dc.lft.to/lastmile_qr_scan", "ios": "https://dc.lft.to/lastmile_qr_scan"}, "lat": 38.876797, "lon": -77.00348716666667, "fusion_lat": 0.0}, {"is_reserved": 0, "bike_id": "6d2695ae82e9a3bec3fcbebd936616e5", "type": "electric_scooter", "name": "6d2695ae82e9a3bec3fcbebd936616e5", "is_disabled": 0, "fusion_lon": 0.0, "rental_uris": {"android": "https://dc.lft.to/lastmile_qr_scan", "ios": "https://dc.lft.to/lastmile_qr_scan"}, "lat": 38.94976, "lon": -77.02447316666667, "fusion_lat": 0.0}, {"is_reserved": 0, "bike_id": "0b34c593232ee261d614bac5c309f2ef", "type": "electric_scooter", "name": "0b34c593232ee261d614bac5c309f2ef", "is_disabled": 0, "fusion_lon": 0.0, "rental_uris": {"android": "https://dc.lft.to/lastmile_qr_scan", "ios": "https://dc.lft.to/lastmile_qr_scan"}, "lat": 38.920585333333335, "lon": -77.0324295, "fusion_lat": 0.0}, {"is_reserved": 0, "bike_id": "03e1961e42e7801c25237ec1480d7416", "type": "electric_scooter", "name": "03e1961e42e7801c25237ec1480d7416", "is_disabled": 0, "fusion_lon": 0.0, "rental_uris": {"android": "https://dc.lft.to/lastmile_qr_scan", "ios": "https://dc.lft.to/lastmile_qr_scan"}, "lat": 38.9165845, "lon": -77.025728, "fusion_lat": 0.0}, {"is_reserved": 0, "bike_id": "9d10effaaceef607d787cb5ec303097d", "type": "electric_scooter", "name": "9d10effaaceef607d787cb5ec303097d", "is_disabled": 0, "fusion_lon": 0.0, "rental_uris": {"android": "https://dc.lft.to/lastmile_qr_scan", "ios": "https://dc.lft.to/lastmile_qr_scan"}, "lat": 38.884058, "lon": -77.031044, "fusion_lat": 0.0}, {"is_reserved": 0, "bike_id": "07fc24f35f253614d797412facedea0b", "type": "electric_scooter", "name": "07fc24f35f253614d797412facedea0b", "is_disabled": 0, "fusion_lon": 0.0, "rental_uris": {"android": "https://dc.lft.to/lastmile_qr_scan", "ios": "https://dc.lft.to/lastmile_qr_scan"}, "lat": 38.920064833333335, "lon": -76.98505716666666, "fusion_lat": 0.0}, {"is_reserved": 0, "bike_id": "8229b0b66e174faaade84f32e325af36", "type": "electric_scooter", "name": "8229b0b66e174faaade84f32e325af36", "is_disabled": 0, "fusion_lon": 0.0, "rental_uris": {"android": "https://dc.lft.to/lastmile_qr_scan", "ios": "https://dc.lft.to/lastmile_qr_scan"}, "lat": 38.919737833333336, "lon": -77.0326285, "fusion_lat": 0.0}, {"is_reserved": 0, "bike_id": "449371102c2c0580170b938d29bef2ef", "type": "electric_scooter", "name": "449371102c2c0580170b938d29bef2ef", "is_disabled": 0, "fusion_lon": 0.0, "rental_uris": {"android": "https://dc.lft.to/lastmile_qr_scan", "ios": "https://dc.lft.to/lastmile_qr_scan"}, "lat": 38.91910883333333, "lon": -77.02168083333333, "fusion_lat": 0.0}, {"is_reserved": 0, "bike_id": "a17ad13954e5147a93ce8792762d0d79", "type": "electric_scooter", "name": "a17ad13954e5147a93ce8792762d0d79", "is_disabled": 0, "fusion_lon": 0.0, "rental_uris": {"android": "https://dc.lft.to/lastmile_qr_scan", "ios": "https://dc.lft.to/lastmile_qr_scan"}, "lat": 38.9001935, "lon": -77.01201633333334, "fusion_lat": 0.0}, {"is_reserved": 0, "bike_id": "00e65c396dbdcfb68a957976361c3148", "type": "electric_scooter", "name": "00e65c396dbdcfb68a957976361c3148", "is_disabled": 0, "fusion_lon": 0.0, "rental_uris": {"android": "https://dc.lft.to/lastmile_qr_scan", "ios": "https://dc.lft.to/lastmile_qr_scan"}, "lat": 38.89786683333333, "lon": -77.00757766666666, "fusion_lat": 0.0}, {"is_reserved": 0, "bike_id": "f745d70b439f9b07471b0e09845a2167", "type": "electric_scooter", "name": "f745d70b439f9b07471b0e09845a2167", "is_disabled": 0, "fusion_lon": 0.0, "rental_uris": {"android": "https://dc.lft.to/lastmile_qr_scan", "ios": "https://dc.lft.to/lastmile_qr_scan"}, "lat": 38.91928566666667, "lon": -77.034229, "fusion_lat": 0.0}, {"is_reserved": 0, "bike_id": "48339e153f0418a45e70de00bd04e077", "type": "electric_scooter", "name": "48339e153f0418a45e70de00bd04e077", "is_disabled": 0, "fusion_lon": 0.0, "rental_uris": {"android": "https://dc.lft.to/lastmile_qr_scan", "ios": "https://dc.lft.to/lastmile_qr_scan"}, "lat": 38.90519233333333, "lon": -77.03175, "fusion_lat": 0.0}, {"is_reserved": 0, "bike_id": "81c98174d973805bfcb2a82c65ff8747", "type": "electric_scooter", "name": "81c98174d973805bfcb2a82c65ff8747", "is_disabled": 0, "fusion_lon": 0.0, "rental_uris": {"android": "https://dc.lft.to/lastmile_qr_scan", "ios": "https://dc.lft.to/lastmile_qr_scan"}, "lat": 38.92478966666667, "lon": -77.0222405, "fusion_lat": 0.0}, {"is_reserved": 0, "bike_id": "cf11463397476b85d5093e8e6d76ba7f", "type": "electric_scooter", "name": "cf11463397476b85d5093e8e6d76ba7f", "is_disabled": 0, "fusion_lon": 0.0, "rental_uris": {"android": "https://dc.lft.to/lastmile_qr_scan", "ios": "https://dc.lft.to/lastmile_qr_scan"}, "lat": 38.91698016666667, "lon": -77.0283785, "fusion_lat": 0.0}, {"is_reserved": 0, "bike_id": "c6b8f446d15d3eb0c62c69cd82a00eef", "type": "electric_scooter", "name": "c6b8f446d15d3eb0c62c69cd82a00eef", "is_disabled": 0, "fusion_lon": 0.0, "rental_uris": {"android": "https://dc.lft.to/lastmile_qr_scan", "ios": "https://dc.lft.to/lastmile_qr_scan"}, "lat": 38.900929, "lon": -77.0488825, "fusion_lat": 0.0}, {"is_reserved": 0, "bike_id": "b067c29f584673a960f7a7d623eb9f96", "type": "electric_scooter", "name": "b067c29f584673a960f7a7d623eb9f96", "is_disabled": 0, "fusion_lon": 0.0, "rental_uris": {"android": "https://dc.lft.to/lastmile_qr_scan", "ios": "https://dc.lft.to/lastmile_qr_scan"}, "lat": 38.8952725, "lon": -77.03346633333334, "fusion_lat": 0.0}, {"is_reserved": 0, "bike_id": "ad7421ed9f1c2ba8a10e028045245831", "type": "electric_scooter", "name": "ad7421ed9f1c2ba8a10e028045245831", "is_disabled": 0, "fusion_lon": 0.0, "rental_uris": {"android": "https://dc.lft.to/lastmile_qr_scan", "ios": "https://dc.lft.to/lastmile_qr_scan"}, "lat": 38.917677166666664, "lon": -77.0476875, "fusion_lat": 0.0}, {"is_reserved": 0, "bike_id": "58e584023bd5b40a34cf98a12b09114b", "type": "electric_scooter", "name": "58e584023bd5b40a34cf98a12b09114b", "is_disabled": 0, "fusion_lon": 0.0, "rental_uris": {"android": "https://dc.lft.to/lastmile_qr_scan", "ios": "https://dc.lft.to/lastmile_qr_scan"}, "lat": 38.895264166666664, "lon": -77.01120183333333, "fusion_lat": 0.0}, {"is_reserved": 0, "bike_id": "085449e89c388b21ec79007838c61c92", "type": "electric_scooter", "name": "085449e89c388b21ec79007838c61c92", "is_disabled": 0, "fusion_lon": 0.0, "rental_uris": {"android": "https://dc.lft.to/lastmile_qr_scan", "ios": "https://dc.lft.to/lastmile_qr_scan"}, "lat": 38.916341, "lon": -77.02227383333333, "fusion_lat": 0.0}, {"is_reserved": 0, "bike_id": "e3ae4a1905a0090fda764da2f4aac019", "type": "electric_scooter", "name": "e3ae4a1905a0090fda764da2f4aac019", "is_disabled": 0, "fusion_lon": 0.0, "rental_uris": {"android": "https://dc.lft.to/lastmile_qr_scan", "ios": "https://dc.lft.to/lastmile_qr_scan"}, "lat": 38.922848333333334, "lon": -77.04295583333334, "fusion_lat": 0.0}, {"is_reserved": 0, "bike_id": "1bc5be33049dcb75fcb02d595806b535", "type": "electric_scooter", "name": "1bc5be33049dcb75fcb02d595806b535", "is_disabled": 0, "fusion_lon": 0.0, "rental_uris": {"android": "https://dc.lft.to/lastmile_qr_scan", "ios": "https://dc.lft.to/lastmile_qr_scan"}, "lat": 38.90386, "lon": -77.04434716666667, "fusion_lat": 0.0}, {"is_reserved": 0, "bike_id": "ac1a5b27a31b696140fb9fd618d1f5fe", "type": "electric_scooter", "name": "ac1a5b27a31b696140fb9fd618d1f5fe", "is_disabled": 0, "fusion_lon": 0.0, "rental_uris": {"android": "https://dc.lft.to/lastmile_qr_scan", "ios": "https://dc.lft.to/lastmile_qr_scan"}, "lat": 38.935182, "lon": -77.036863, "fusion_lat": 0.0}, {"is_reserved": 0, "bike_id": "26a5ac59dcef4745e11647981990ead7", "type": "electric_scooter", "name": "26a5ac59dcef4745e11647981990ead7", "is_disabled": 0, "fusion_lon": 0.0, "rental_uris": {"android": "https://dc.lft.to/lastmile_qr_scan", "ios": "https://dc.lft.to/lastmile_qr_scan"}, "lat": 38.93723333333333, "lon": -77.01908333333333, "fusion_lat": 0.0}, {"is_reserved": 0, "bike_id": "3a70cf8ef6162959925e7c3f9bf9b804", "type": "electric_scooter", "name": "3a70cf8ef6162959925e7c3f9bf9b804", "is_disabled": 0, "fusion_lon": 0.0, "rental_uris": {"android": "https://dc.lft.to/lastmile_qr_scan", "ios": "https://dc.lft.to/lastmile_qr_scan"}, "lat": 38.917607333333336, "lon": -77.02510116666667, "fusion_lat": 0.0}, {"is_reserved": 0, "bike_id": "c65cba3edee4a2ab50612bfdbb22557a", "type": "electric_scooter", "name": "c65cba3edee4a2ab50612bfdbb22557a", "is_disabled": 0, "fusion_lon": 0.0, "rental_uris": {"android": "https://dc.lft.to/lastmile_qr_scan", "ios": "https://dc.lft.to/lastmile_qr_scan"}, "lat": 38.903108833333334, "lon": -77.03068633333334, "fusion_lat": 0.0}, {"is_reserved": 0, "bike_id": "68fae1a57eb9ad7b7d0418d6ea07bd9d", "type": "electric_scooter", "name": "68fae1a57eb9ad7b7d0418d6ea07bd9d", "is_disabled": 0, "fusion_lon": 0.0, "rental_uris": {"android": "https://dc.lft.to/lastmile_qr_scan", "ios": "https://dc.lft.to/lastmile_qr_scan"}, "lat": 38.92619066666666, "lon": -77.04317016666667, "fusion_lat": 0.0}, {"is_reserved": 0, "bike_id": "478378a313b3f898ad622dd0c9644fe4", "type": "electric_scooter", "name": "478378a313b3f898ad622dd0c9644fe4", "is_disabled": 0, "fusion_lon": 0.0, "rental_uris": {"android": "https://dc.lft.to/lastmile_qr_scan", "ios": "https://dc.lft.to/lastmile_qr_scan"}, "lat": 38.89624, "lon": -76.985649, "fusion_lat": 0.0}, {"is_reserved": 0, "bike_id": "683a65b82c769c3fa4080347dcd43890", "type": "electric_scooter", "name": "683a65b82c769c3fa4080347dcd43890", "is_disabled": 0, "fusion_lon": 0.0, "rental_uris": {"android": "https://dc.lft.to/lastmile_qr_scan", "ios": "https://dc.lft.to/lastmile_qr_scan"}, "lat": 38.90388033333333, "lon": -77.03515983333334, "fusion_lat": 0.0}, {"is_reserved": 0, "bike_id": "9e2351594ffe796b7d617890f19e34cd", "type": "electric_scooter", "name": "9e2351594ffe796b7d617890f19e34cd", "is_disabled": 0, "fusion_lon": 0.0, "rental_uris": {"android": "https://dc.lft.to/lastmile_qr_scan", "ios": "https://dc.lft.to/lastmile_qr_scan"}, "lat": 38.900285833333335, "lon": -76.9879045, "fusion_lat": 0.0}, {"is_reserved": 0, "bike_id": "9a43e767dac8b20f9ba2819207e4e2ab", "type": "electric_scooter", "name": "9a43e767dac8b20f9ba2819207e4e2ab", "is_disabled": 0, "fusion_lon": 0.0, "rental_uris": {"android": "https://dc.lft.to/lastmile_qr_scan", "ios": "https://dc.lft.to/lastmile_qr_scan"}, "lat": 38.902339, "lon": -77.028592, "fusion_lat": 0.0}, {"is_reserved": 0, "bike_id": "0c67785e0df195216c97b4bfbff7d688", "type": "electric_scooter", "name": "0c67785e0df195216c97b4bfbff7d688", "is_disabled": 0, "fusion_lon": 0.0, "rental_uris": {"android": "https://dc.lft.to/lastmile_qr_scan", "ios": "https://dc.lft.to/lastmile_qr_scan"}, "lat": 38.91817416666667, "lon": -76.99969016666667, "fusion_lat": 0.0}, {"is_reserved": 0, "bike_id": "46576f09d08c66d9a8e104c0b582ac99", "type": "electric_scooter", "name": "46576f09d08c66d9a8e104c0b582ac99", "is_disabled": 0, "fusion_lon": 0.0, "rental_uris": {"android": "https://dc.lft.to/lastmile_qr_scan", "ios": "https://dc.lft.to/lastmile_qr_scan"}, "lat": 38.9529745, "lon": -77.029039, "fusion_lat": 0.0}, {"is_reserved": 0, "bike_id": "b1c6e80b2144cbefa6ceb91ce49188e8", "type": "electric_bike", "name": "b1c6e80b2144cbefa6ceb91ce49188e8", "is_disabled": 0, "fusion_lon": 0.0, "rental_uris": {"android": "https://dc.lft.to/lastmile_qr_scan", "ios": "https://dc.lft.to/lastmile_qr_scan"}, "lat": 38.936807, "lon": -77.090284, "fusion_lat": 0.0}, {"is_reserved": 0, "bike_id": "46e2166d780a2472dca2cf0cfd46fdca", "type": "electric_scooter", "name": "46e2166d780a2472dca2cf0cfd46fdca", "is_disabled": 0, "fusion_lon": 0.0, "rental_uris": {"android": "https://dc.lft.to/lastmile_qr_scan", "ios": "https://dc.lft.to/lastmile_qr_scan"}, "lat": 38.874018, "lon": -77.000658, "fusion_lat": 0.0}, {"is_reserved": 0, "bike_id": "416db20ab679a959bf9474aaf60e4ae9", "type": "electric_scooter", "name": "416db20ab679a959bf9474aaf60e4ae9", "is_disabled": 0, "fusion_lon": 0.0, "rental_uris": {"android": "https://dc.lft.to/lastmile_qr_scan", "ios": "https://dc.lft.to/lastmile_qr_scan"}, "lat": 38.88725616666667, "lon": -76.98341716666667, "fusion_lat": 0.0}, {"is_reserved": 0, "bike_id": "34dad06b0b8fbb352e688b823300afac", "type": "electric_scooter", "name": "34dad06b0b8fbb352e688b823300afac", "is_disabled": 0, "fusion_lon": 0.0, "rental_uris": {"android": "https://dc.lft.to/lastmile_qr_scan", "ios": "https://dc.lft.to/lastmile_qr_scan"}, "lat": 38.900510833333335, "lon": -77.02723233333333, "fusion_lat": 0.0}, {"is_reserved": 0, "bike_id": "4f87c10a798835aa4ca068ef259ee7d7", "type": "electric_scooter", "name": "4f87c10a798835aa4ca068ef259ee7d7", "is_disabled": 0, "fusion_lon": 0.0, "rental_uris": {"android": "https://dc.lft.to/lastmile_qr_scan", "ios": "https://dc.lft.to/lastmile_qr_scan"}, "lat": 38.88749466666667, "lon": -77.0314315, "fusion_lat": 0.0}, {"is_reserved": 0, "bike_id": "137498a82fabfc145615499a18a95639", "type": "electric_scooter", "name": "137498a82fabfc145615499a18a95639", "is_disabled": 0, "fusion_lon": 0.0, "rental_uris": {"android": "https://dc.lft.to/lastmile_qr_scan", "ios": "https://dc.lft.to/lastmile_qr_scan"}, "lat": 38.92156283333333, "lon": -77.033258, "fusion_lat": 0.0}, {"is_reserved": 0, "bike_id": "aa54a88c20ef750a2ed929856277450f", "type": "electric_scooter", "name": "aa54a88c20ef750a2ed929856277450f", "is_disabled": 0, "fusion_lon": 0.0, "rental_uris": {"android": "https://dc.lft.to/lastmile_qr_scan", "ios": "https://dc.lft.to/lastmile_qr_scan"}, "lat": 38.902682666666664, "lon": -77.06004483333334, "fusion_lat": 0.0}, {"is_reserved": 0, "bike_id": "465489cf63f8308aa9263e77fba40ae8", "type": "electric_scooter", "name": "465489cf63f8308aa9263e77fba40ae8", "is_disabled": 0, "fusion_lon": 0.0, "rental_uris": {"android": "https://dc.lft.to/lastmile_qr_scan", "ios": "https://dc.lft.to/lastmile_qr_scan"}, "lat": 38.88451216666667, "lon": -76.9295875, "fusion_lat": 0.0}, {"is_reserved": 0, "bike_id": "f449c3afac6914bb6c580f614e9cc927", "type": "electric_scooter", "name": "f449c3afac6914bb6c580f614e9cc927", "is_disabled": 0, "fusion_lon": 0.0, "rental_uris": {"android": "https://dc.lft.to/lastmile_qr_scan", "ios": "https://dc.lft.to/lastmile_qr_scan"}, "lat": 38.90522566666667, "lon": -77.043428, "fusion_lat": 0.0}, {"is_reserved": 0, "bike_id": "78e08c1dfe4093fa7cc6ffccff42c041", "type": "electric_scooter", "name": "78e08c1dfe4093fa7cc6ffccff42c041", "is_disabled": 0, "fusion_lon": 0.0, "rental_uris": {"android": "https://dc.lft.to/lastmile_qr_scan", "ios": "https://dc.lft.to/lastmile_qr_scan"}, "lat": 38.88117583333333, "lon": -77.01669466666667, "fusion_lat": 0.0}, {"is_reserved": 0, "bike_id": "49acd0722e2cd94ff71f243b654009e2", "type": "electric_scooter", "name": "49acd0722e2cd94ff71f243b654009e2", "is_disabled": 0, "fusion_lon": 0.0, "rental_uris": {"android": "https://dc.lft.to/lastmile_qr_scan", "ios": "https://dc.lft.to/lastmile_qr_scan"}, "lat": 38.8919545, "lon": -76.98839433333333, "fusion_lat": 0.0}, {"is_reserved": 0, "bike_id": "ad3b0707a4929b22b37c4b562a793d4b", "type": "electric_scooter", "name": "ad3b0707a4929b22b37c4b562a793d4b", "is_disabled": 0, "fusion_lon": 0.0, "rental_uris": {"android": "https://dc.lft.to/lastmile_qr_scan", "ios": "https://dc.lft.to/lastmile_qr_scan"}, "lat": 38.891668833333334, "lon": -76.99146333333333, "fusion_lat": 0.0}, {"is_reserved": 0, "bike_id": "d031a914617ab5081b92d256e113a71d", "type": "electric_scooter", "name": "d031a914617ab5081b92d256e113a71d", "is_disabled": 0, "fusion_lon": 0.0, "rental_uris": {"android": "https://dc.lft.to/lastmile_qr_scan", "ios": "https://dc.lft.to/lastmile_qr_scan"}, "lat": 38.93827366666667, "lon": -76.986176, "fusion_lat": 0.0}, {"is_reserved": 0, "bike_id": "4f0c64e66857ce67266cdba354e0e816", "type": "electric_scooter", "name": "4f0c64e66857ce67266cdba354e0e816", "is_disabled": 0, "fusion_lon": 0.0, "rental_uris": {"android": "https://dc.lft.to/lastmile_qr_scan", "ios": "https://dc.lft.to/lastmile_qr_scan"}, "lat": 38.923173166666665, "lon": -77.02796466666666, "fusion_lat": 0.0}, {"is_reserved": 0, "bike_id": "02afc7d6d5d5d932c3d82ba45358e7db", "type": "electric_scooter", "name": "02afc7d6d5d5d932c3d82ba45358e7db", "is_disabled": 0, "fusion_lon": 0.0, "rental_uris": {"android": "https://dc.lft.to/lastmile_qr_scan", "ios": "https://dc.lft.to/lastmile_qr_scan"}, "lat": 38.87893833333333, "lon": -77.01388866666667, "fusion_lat": 0.0}, {"is_reserved": 0, "bike_id": "a71b50d7bf6450a78a1f3bb56bab30e5", "type": "electric_scooter", "name": "a71b50d7bf6450a78a1f3bb56bab30e5", "is_disabled": 0, "fusion_lon": 0.0, "rental_uris": {"android": "https://dc.lft.to/lastmile_qr_scan", "ios": "https://dc.lft.to/lastmile_qr_scan"}, "lat": 38.87607466666667, "lon": -77.02082416666667, "fusion_lat": 0.0}, {"is_reserved": 0, "bike_id": "9b6078a004f601d6e8a511ce55352605", "type": "electric_scooter", "name": "9b6078a004f601d6e8a511ce55352605", "is_disabled": 0, "fusion_lon": 0.0, "rental_uris": {"android": "https://dc.lft.to/lastmile_qr_scan", "ios": "https://dc.lft.to/lastmile_qr_scan"}, "lat": 38.88430266666667, "lon": -77.00137833333334, "fusion_lat": 0.0}, {"is_reserved": 0, "bike_id": "2edac29c5b23c66519814e0d27a86ad5", "type": "electric_scooter", "name": "2edac29c5b23c66519814e0d27a86ad5", "is_disabled": 0, "fusion_lon": 0.0, "rental_uris": {"android": "https://dc.lft.to/lastmile_qr_scan", "ios": "https://dc.lft.to/lastmile_qr_scan"}, "lat": 38.91000483333333, "lon": -77.040078, "fusion_lat": 0.0}, {"is_reserved": 0, "bike_id": "0b06c670c3d27e06a65f9a30647cd7da", "type": "electric_scooter", "name": "0b06c670c3d27e06a65f9a30647cd7da", "is_disabled": 0, "fusion_lon": 0.0, "rental_uris": {"android": "https://dc.lft.to/lastmile_qr_scan", "ios": "https://dc.lft.to/lastmile_qr_scan"}, "lat": 38.92238066666667, "lon": -77.02908133333334, "fusion_lat": 0.0}, {"is_reserved": 0, "bike_id": "097afc65bf35e12f53c6eb0e11c6e05e", "type": "electric_scooter", "name": "097afc65bf35e12f53c6eb0e11c6e05e", "is_disabled": 0, "fusion_lon": 0.0, "rental_uris": {"android": "https://dc.lft.to/lastmile_qr_scan", "ios": "https://dc.lft.to/lastmile_qr_scan"}, "lat": 38.93064366666667, "lon": -77.03819283333333, "fusion_lat": 0.0}, {"is_reserved": 0, "bike_id": "c70e04b4cc126e9db4d9f65373d1e9af", "type": "electric_scooter", "name": "c70e04b4cc126e9db4d9f65373d1e9af", "is_disabled": 0, "fusion_lon": 0.0, "rental_uris": {"android": "https://dc.lft.to/lastmile_qr_scan", "ios": "https://dc.lft.to/lastmile_qr_scan"}, "lat": 38.9206795, "lon": -77.029579, "fusion_lat": 0.0}, {"is_reserved": 0, "bike_id": "c0d7640ff7c05a03f7a43354e008b4b1", "type": "electric_scooter", "name": "c0d7640ff7c05a03f7a43354e008b4b1", "is_disabled": 0, "fusion_lon": 0.0, "rental_uris": {"android": "https://dc.lft.to/lastmile_qr_scan", "ios": "https://dc.lft.to/lastmile_qr_scan"}, "lat": 38.9260375, "lon": -77.02292866666667, "fusion_lat": 0.0}, {"is_reserved": 0, "bike_id": "749b9c23fb9fdfc84089daef0c1a4828", "type": "electric_scooter", "name": "749b9c23fb9fdfc84089daef0c1a4828", "is_disabled": 0, "fusion_lon": 0.0, "rental_uris": {"android": "https://dc.lft.to/lastmile_qr_scan", "ios": "https://dc.lft.to/lastmile_qr_scan"}, "lat": 38.885979666666664, "lon": -77.03101266666667, "fusion_lat": 0.0}, {"is_reserved": 0, "bike_id": "cab4398ac97d75516cabec78756feacc", "type": "electric_scooter", "name": "cab4398ac97d75516cabec78756feacc", "is_disabled": 0, "fusion_lon": 0.0, "rental_uris": {"android": "https://dc.lft.to/lastmile_qr_scan", "ios": "https://dc.lft.to/lastmile_qr_scan"}, "lat": 38.904253, "lon": -77.02867066666667, "fusion_lat": 0.0}, {"is_reserved": 0, "bike_id": "d50a20e881efa35792d96341bd8e6c20", "type": "electric_scooter", "name": "d50a20e881efa35792d96341bd8e6c20", "is_disabled": 0, "fusion_lon": 0.0, "rental_uris": {"android": "https://dc.lft.to/lastmile_qr_scan", "ios": "https://dc.lft.to/lastmile_qr_scan"}, "lat": 38.910155333333336, "lon": -77.04438016666667, "fusion_lat": 0.0}, {"is_reserved": 0, "bike_id": "aec517eda99e94c6f85fa4368a0f20ad", "type": "electric_scooter", "name": "aec517eda99e94c6f85fa4368a0f20ad", "is_disabled": 0, "fusion_lon": 0.0, "rental_uris": {"android": "https://dc.lft.to/lastmile_qr_scan", "ios": "https://dc.lft.to/lastmile_qr_scan"}, "lat": 38.9003185, "lon": -76.98583633333334, "fusion_lat": 0.0}, {"is_reserved": 0, "bike_id": "844893cdfd7487ce9802363a1c127192", "type": "electric_scooter", "name": "844893cdfd7487ce9802363a1c127192", "is_disabled": 0, "fusion_lon": 0.0, "rental_uris": {"android": "https://dc.lft.to/lastmile_qr_scan", "ios": "https://dc.lft.to/lastmile_qr_scan"}, "lat": 38.923341, "lon": -77.0456215, "fusion_lat": 0.0}, {"is_reserved": 0, "bike_id": "64a0bfc5a0a4fac209359b8de59ae42d", "type": "electric_scooter", "name": "64a0bfc5a0a4fac209359b8de59ae42d", "is_disabled": 0, "fusion_lon": 0.0, "rental_uris": {"android": "https://dc.lft.to/lastmile_qr_scan", "ios": "https://dc.lft.to/lastmile_qr_scan"}, "lat": 38.9104015, "lon": -76.9974585, "fusion_lat": 0.0}, {"is_reserved": 0, "bike_id": "00a447ac8b812f068ab2285fec2620d0", "type": "electric_scooter", "name": "00a447ac8b812f068ab2285fec2620d0", "is_disabled": 0, "fusion_lon": 0.0, "rental_uris": {"android": "https://dc.lft.to/lastmile_qr_scan", "ios": "https://dc.lft.to/lastmile_qr_scan"}, "lat": 38.90735383333333, "lon": -77.006998, "fusion_lat": 0.0}, {"is_reserved": 0, "bike_id": "99f7179d25ee30a45126ced66d9c0395", "type": "electric_scooter", "name": "99f7179d25ee30a45126ced66d9c0395", "is_disabled": 0, "fusion_lon": 0.0, "rental_uris": {"android": "https://dc.lft.to/lastmile_qr_scan", "ios": "https://dc.lft.to/lastmile_qr_scan"}, "lat": 38.89423933333333, "lon": -77.05594283333333, "fusion_lat": 0.0}, {"is_reserved": 0, "bike_id": "2c3831f95a68ea96e8340b2470b7a148", "type": "electric_scooter", "name": "2c3831f95a68ea96e8340b2470b7a148", "is_disabled": 0, "fusion_lon": 0.0, "rental_uris": {"android": "https://dc.lft.to/lastmile_qr_scan", "ios": "https://dc.lft.to/lastmile_qr_scan"}, "lat": 38.90256333333333, "lon": -76.995142, "fusion_lat": 0.0}, {"is_reserved": 0, "bike_id": "dce9c2574856007f26a430a44b47dbe4", "type": "electric_scooter", "name": "dce9c2574856007f26a430a44b47dbe4", "is_disabled": 0, "fusion_lon": 0.0, "rental_uris": {"android": "https://dc.lft.to/lastmile_qr_scan", "ios": "https://dc.lft.to/lastmile_qr_scan"}, "lat": 38.898482333333334, "lon": -77.0423485, "fusion_lat": 0.0}, {"is_reserved": 0, "bike_id": "ab0d709effeeb733deabb1dfe5e4d183", "type": "electric_scooter", "name": "ab0d709effeeb733deabb1dfe5e4d183", "is_disabled": 0, "fusion_lon": 0.0, "rental_uris": {"android": "https://dc.lft.to/lastmile_qr_scan", "ios": "https://dc.lft.to/lastmile_qr_scan"}, "lat": 38.8984695, "lon": -77.01375483333334, "fusion_lat": 0.0}, {"is_reserved": 0, "bike_id": "e254efaccd4b732d310205bbb21a7492", "type": "electric_scooter", "name": "e254efaccd4b732d310205bbb21a7492", "is_disabled": 0, "fusion_lon": 0.0, "rental_uris": {"android": "https://dc.lft.to/lastmile_qr_scan", "ios": "https://dc.lft.to/lastmile_qr_scan"}, "lat": 38.894155833333336, "lon": -77.02131366666667, "fusion_lat": 0.0}, {"is_reserved": 0, "bike_id": "b6660fed977a9d432bd1961b0026feb0", "type": "electric_scooter", "name": "b6660fed977a9d432bd1961b0026feb0", "is_disabled": 0, "fusion_lon": 0.0, "rental_uris": {"android": "https://dc.lft.to/lastmile_qr_scan", "ios": "https://dc.lft.to/lastmile_qr_scan"}, "lat": 38.89839283333333, "lon": -77.01945266666667, "fusion_lat": 0.0}, {"is_reserved": 0, "bike_id": "0ccf8e449fc75a96ce680e20bfb1256a", "type": "electric_scooter", "name": "0ccf8e449fc75a96ce680e20bfb1256a", "is_disabled": 0, "fusion_lon": 0.0, "rental_uris": {"android": "https://dc.lft.to/lastmile_qr_scan", "ios": "https://dc.lft.to/lastmile_qr_scan"}, "lat": 38.89946616666667, "lon": -77.04351716666666, "fusion_lat": 0.0}, {"is_reserved": 0, "bike_id": "2d921c215792428bf500c09c0a1f3092", "type": "electric_scooter", "name": "2d921c215792428bf500c09c0a1f3092", "is_disabled": 0, "fusion_lon": 0.0, "rental_uris": {"android": "https://dc.lft.to/lastmile_qr_scan", "ios": "https://dc.lft.to/lastmile_qr_scan"}, "lat": 38.899608, "lon": -77.046741, "fusion_lat": 0.0}, {"is_reserved": 0, "bike_id": "818b8fcb1cdd6c7b9f2c0e4612bdd5d0", "type": "electric_scooter", "name": "818b8fcb1cdd6c7b9f2c0e4612bdd5d0", "is_disabled": 0, "fusion_lon": 0.0, "rental_uris": {"android": "https://dc.lft.to/lastmile_qr_scan", "ios": "https://dc.lft.to/lastmile_qr_scan"}, "lat": 38.8886455, "lon": -77.04002416666667, "fusion_lat": 0.0}, {"is_reserved": 0, "bike_id": "984dca8cc6538786e3903fdd8906f07e", "type": "electric_bike", "name": "984dca8cc6538786e3903fdd8906f07e", "is_disabled": 0, "fusion_lon": 0.0, "rental_uris": {"android": "https://dc.lft.to/lastmile_qr_scan", "ios": "https://dc.lft.to/lastmile_qr_scan"}, "lat": 38.85583583333333, "lon": -76.97431233333333, "fusion_lat": 0.0}, {"is_reserved": 0, "bike_id": "3239de3ce7b6a45a0339184c97c90b4f", "type": "electric_scooter", "name": "3239de3ce7b6a45a0339184c97c90b4f", "is_disabled": 0, "fusion_lon": 0.0, "rental_uris": {"android": "https://dc.lft.to/lastmile_qr_scan", "ios": "https://dc.lft.to/lastmile_qr_scan"}, "lat": 38.91666816666667, "lon": -77.06951283333333, "fusion_lat": 0.0}, {"is_reserved": 0, "bike_id": "278a7cb6604d84b3ac31fab54b37a515", "type": "electric_scooter", "name": "278a7cb6604d84b3ac31fab54b37a515", "is_disabled": 0, "fusion_lon": 0.0, "rental_uris": {"android": "https://dc.lft.to/lastmile_qr_scan", "ios": "https://dc.lft.to/lastmile_qr_scan"}, "lat": 38.88674816666666, "lon": -77.01368433333333, "fusion_lat": 0.0}, {"is_reserved": 0, "bike_id": "a193c8908594e695cf578fc7815cf16e", "type": "electric_scooter", "name": "a193c8908594e695cf578fc7815cf16e", "is_disabled": 0, "fusion_lon": 0.0, "rental_uris": {"android": "https://dc.lft.to/lastmile_qr_scan", "ios": "https://dc.lft.to/lastmile_qr_scan"}, "lat": 38.91923466666667, "lon": -77.04587683333334, "fusion_lat": 0.0}, {"is_reserved": 0, "bike_id": "8a87e2531ced22bb7643695c6dea9aec", "type": "electric_scooter", "name": "8a87e2531ced22bb7643695c6dea9aec", "is_disabled": 0, "fusion_lon": 0.0, "rental_uris": {"android": "https://dc.lft.to/lastmile_qr_scan", "ios": "https://dc.lft.to/lastmile_qr_scan"}, "lat": 38.9237635, "lon": -77.02121833333334, "fusion_lat": 0.0}, {"is_reserved": 0, "bike_id": "9796195e67de445c39fff20dc0720116", "type": "electric_scooter", "name": "9796195e67de445c39fff20dc0720116", "is_disabled": 0, "fusion_lon": 0.0, "rental_uris": {"android": "https://dc.lft.to/lastmile_qr_scan", "ios": "https://dc.lft.to/lastmile_qr_scan"}, "lat": 38.90968066666667, "lon": -77.04662966666666, "fusion_lat": 0.0}, {"is_reserved": 0, "bike_id": "26bb64174ed4ffda4b328d99d2d1f2a4", "type": "electric_scooter", "name": "26bb64174ed4ffda4b328d99d2d1f2a4", "is_disabled": 0, "fusion_lon": 0.0, "rental_uris": {"android": "https://dc.lft.to/lastmile_qr_scan", "ios": "https://dc.lft.to/lastmile_qr_scan"}, "lat": 38.9064815, "lon": -77.0253545, "fusion_lat": 0.0}, {"is_reserved": 0, "bike_id": "e71cd47f76b6abc38fa1506df20b078e", "type": "electric_scooter", "name": "e71cd47f76b6abc38fa1506df20b078e", "is_disabled": 0, "fusion_lon": 0.0, "rental_uris": {"android": "https://dc.lft.to/lastmile_qr_scan", "ios": "https://dc.lft.to/lastmile_qr_scan"}, "lat": 38.9213805, "lon": -77.01827166666666, "fusion_lat": 0.0}, {"is_reserved": 0, "bike_id": "e0f0cc30f6ef64dda5131967dafc0b02", "type": "electric_bike", "name": "e0f0cc30f6ef64dda5131967dafc0b02", "is_disabled": 0, "fusion_lon": 0.0, "rental_uris": {"android": "https://dc.lft.to/lastmile_qr_scan", "ios": "https://dc.lft.to/lastmile_qr_scan"}, "lat": 39.0621915, "lon": -77.129175, "fusion_lat": 0.0}, {"is_reserved": 0, "bike_id": "0236712aa6d69d128d82151a183676f3", "type": "electric_scooter", "name": "0236712aa6d69d128d82151a183676f3", "is_disabled": 0, "fusion_lon": 0.0, "rental_uris": {"android": "https://dc.lft.to/lastmile_qr_scan", "ios": "https://dc.lft.to/lastmile_qr_scan"}, "lat": 38.9266735, "lon": -77.043066, "fusion_lat": 0.0}, {"is_reserved": 0, "bike_id": "1c69179f073787ffcb063f861dcd3141", "type": "electric_scooter", "name": "1c69179f073787ffcb063f861dcd3141", "is_disabled": 0, "fusion_lon": 0.0, "rental_uris": {"android": "https://dc.lft.to/lastmile_qr_scan", "ios": "https://dc.lft.to/lastmile_qr_scan"}, "lat": 38.90127483333333, "lon": -77.03224166666666, "fusion_lat": 0.0}, {"is_reserved": 0, "bike_id": "ce506f3f610e3c40a64e1578eb51eff0", "type": "electric_scooter", "name": "ce506f3f610e3c40a64e1578eb51eff0", "is_disabled": 0, "fusion_lon": 0.0, "rental_uris": {"android": "https://dc.lft.to/lastmile_qr_scan", "ios": "https://dc.lft.to/lastmile_qr_scan"}, "lat": 38.91986, "lon": -77.01794366666667, "fusion_lat": 0.0}, {"is_reserved": 0, "bike_id": "583b32f6f42518b0a04cbd7e14e58f91", "type": "electric_bike", "name": "583b32f6f42518b0a04cbd7e14e58f91", "is_disabled": 0, "fusion_lon": 0.0, "rental_uris": {"android": "https://dc.lft.to/lastmile_qr_scan", "ios": "https://dc.lft.to/lastmile_qr_scan"}, "lat": 38.90030983333333, "lon": -77.11187866666667, "fusion_lat": 0.0}, {"is_reserved": 0, "bike_id": "4f5e27c76dca8a7b93963ce9e611f0e9", "type": "electric_scooter", "name": "4f5e27c76dca8a7b93963ce9e611f0e9", "is_disabled": 0, "fusion_lon": 0.0, "rental_uris": {"android": "https://dc.lft.to/lastmile_qr_scan", "ios": "https://dc.lft.to/lastmile_qr_scan"}, "lat": 38.9134965, "lon": -77.02878833333334, "fusion_lat": 0.0}, {"is_reserved": 0, "bike_id": "732732ee790fe569d265f31d41202de3", "type": "electric_scooter", "name": "732732ee790fe569d265f31d41202de3", "is_disabled": 0, "fusion_lon": 0.0, "rental_uris": {"android": "https://dc.lft.to/lastmile_qr_scan", "ios": "https://dc.lft.to/lastmile_qr_scan"}, "lat": 38.924926, "lon": -77.02178783333333, "fusion_lat": 0.0}, {"is_reserved": 0, "bike_id": "9cdde6cf9d3f2d9bb3680050cb9f9229", "type": "electric_bike", "name": "9cdde6cf9d3f2d9bb3680050cb9f9229", "is_disabled": 0, "fusion_lon": 0.0, "rental_uris": {"android": "https://dc.lft.to/lastmile_qr_scan", "ios": "https://dc.lft.to/lastmile_qr_scan"}, "lat": 38.946783333333336, "lon": -76.94216683333333, "fusion_lat": 0.0}, {"is_reserved": 0, "bike_id": "76c701bf97db8ce56dfb2717b533ad35", "type": "electric_scooter", "name": "76c701bf97db8ce56dfb2717b533ad35", "is_disabled": 0, "fusion_lon": 0.0, "rental_uris": {"android": "https://dc.lft.to/lastmile_qr_scan", "ios": "https://dc.lft.to/lastmile_qr_scan"}, "lat": 38.89962933333334, "lon": -77.01623, "fusion_lat": 0.0}, {"is_reserved": 0, "bike_id": "fe955109088e6128731fd0298e9abb2d", "type": "electric_scooter", "name": "fe955109088e6128731fd0298e9abb2d", "is_disabled": 0, "fusion_lon": 0.0, "rental_uris": {"android": "https://dc.lft.to/lastmile_qr_scan", "ios": "https://dc.lft.to/lastmile_qr_scan"}, "lat": 38.9223955, "lon": -77.0389075, "fusion_lat": 0.0}, {"is_reserved": 0, "bike_id": "e43e82b9303e78496c1e43bdbc66c2c0", "type": "electric_scooter", "name": "e43e82b9303e78496c1e43bdbc66c2c0", "is_disabled": 0, "fusion_lon": 0.0, "rental_uris": {"android": "https://dc.lft.to/lastmile_qr_scan", "ios": "https://dc.lft.to/lastmile_qr_scan"}, "lat": 38.898067166666664, "lon": -77.03152116666666, "fusion_lat": 0.0}, {"is_reserved": 0, "bike_id": "d0d5995b6958793e3117d5e9738b821e", "type": "electric_bike", "name": "d0d5995b6958793e3117d5e9738b821e", "is_disabled": 0, "fusion_lon": 0.0, "rental_uris": {"android": "https://dc.lft.to/lastmile_qr_scan", "ios": "https://dc.lft.to/lastmile_qr_scan"},