{"data": {"bikes": [{"lat": 38.905924166666665, "is_disabled": 0, "type": "electric_scooter", "lon": -77.058091, "bike_id": "1a99c86ccdd6e1d776bc5393a3809eb7", "fusion_lat": 0.0, "name": "1a99c86ccdd6e1d776bc5393a3809eb7", "is_reserved": 0, "rental_uris": {"android": "https://dc.lft.to/lastmile_qr_scan", "ios": "https://dc.lft.to/lastmile_qr_scan"}, "fusion_lon": 0.0}, {"lat": 38.904432166666666, "is_disabled": 0, "type": "electric_scooter", "lon": -77.061209, "bike_id": "1e93655156ac8633637a8bda94355f47", "fusion_lat": 0.0, "name": "1e93655156ac8633637a8bda94355f47", "is_reserved": 0, "rental_uris": {"android": "https://dc.lft.to/lastmile_qr_scan", "ios": "https://dc.lft.to/lastmile_qr_scan"}, "fusion_lon": 0.0}, {"lat": 38.899171333333335, "is_disabled": 0, "type": "electric_scooter", "lon": -76.93379416666667, "bike_id": "49a3a15d2849aef948d6e0ee6813a4f6", "fusion_lat": 0.0, "name": "49a3a15d2849aef948d6e0ee6813a4f6", "is_reserved": 0, "rental_uris": {"android": "https://dc.lft.to/lastmile_qr_scan", "ios": "https://dc.lft.to/lastmile_qr_scan"}, "fusion_lon": 0.0}, {"lat": 38.902376333333336, "is_disabled": 0, "type": "electric_scooter", "lon": -77.01621466666667, "bike_id": "de7bbd853db2b9f7c64c77e30581ca3c", "fusion_lat": 0.0, "name": "de7bbd853db2b9f7c64c77e30581ca3c", "is_reserved": 0, "rental_uris": {"android": "https://dc.lft.to/lastmile_qr_scan", "ios": "https://dc.lft.to/lastmile_qr_scan"}, "fusion_lon": 0.0}, {"lat": 38.863493166666665, "is_disabled": 0, "type": "electric_scooter", "lon": -76.99000716666667, "bike_id": "87653feb01aab7eb5d2e25c675017c1a", "fusion_lat": 0.0, "name": "87653feb01aab7eb5d2e25c675017c1a", "is_reserved": 0, "rental_uris": {"android": "https://dc.lft.to/lastmile_qr_scan", "ios": "https://dc.lft.to/lastmile_qr_scan"}, "fusion_lon": 0.0}, {"lat": 38.8429425, "is_disabled": 0, "type": "electric_scooter", "lon": -76.99949533333333, "bike_id": "0ff16a135fe80bc5211bf9fef44af080", "fusion_lat": 0.0, "name": "0ff16a135fe80bc5211bf9fef44af080", "is_reserved": 0, "rental_uris": {"android": "https://dc.lft.to/lastmile_qr_scan", "ios": "https://dc.lft.to/lastmile_qr_scan"}, "fusion_lon": 0.0}, {"lat": 38.89649716666667, "is_disabled": 0, "type": "electric_scooter", "lon": -77.02001266666667, "bike_id": "9a9a071c2e69be79ba2bf4617b5490a2", "fusion_lat": 0.0, "name": "9a9a071c2e69be79ba2bf4617b5490a2", "is_reserved": 0, "rental_uris": {"android": "https://dc.lft.to/lastmile_qr_scan", "ios": "https://dc.lft.to/lastmile_qr_scan"}, "fusion_lon": 0.0}, {"lat": 38.9127085, "is_disabled": 0, "type": "electric_scooter", "lon": -77.01306316666667, "bike_id": "f58a563d045d4c1b71e7dee47fa8a0f9", "fusion_lat": 0.0, "name": "f58a563d045d4c1b71e7dee47fa8a0f9", "is_reserved": 0, "rental_uris": {"android": "https://dc.lft.to/lastmile_qr_scan", "ios": "https://dc.lft.to/lastmile_qr_scan"}, "fusion_lon": 0.0}, {"lat": 38.92988733333333, "is_disabled": 0, "type": "electric_bike", "lon": -77.03474833333334, "bike_id": "e47248f9a15cb064bf1ab40f6812e860", "fusion_lat": 0.0, "name": "e47248f9a15cb064bf1ab40f6812e860", "is_reserved": 0, "rental_uris": {"android": "https://dc.lft.to/lastmile_qr_scan", "ios": "https://dc.lft.to/lastmile_qr_scan"}, "fusion_lon": 0.0}, {"lat": 38.9555315, "is_disabled": 0, "type": "electric_bike", "lon": -76.935418, "bike_id": "78346edc2129d1bfb670f078c75e3484", "fusion_lat": 0.0, "name": "78346edc2129d1bfb670f078c75e3484", "is_reserved": 0, "rental_uris": {"android": "https://dc.lft.to/lastmile_qr_scan", "ios": "https://dc.lft.to/lastmile_qr_scan"}, "fusion_lon": 0.0}, {"lat": 38.926832166666664, "is_disabled": 0, "type": "electric_scooter", "lon": -77.05109383333334, "bike_id": "79ec27a22a571788430b66b83300f938", "fusion_lat": 0.0, "name": "79ec27a22a571788430b66b83300f938", "is_reserved": 0, "rental_uris": {"android": "https://dc.lft.to/lastmile_qr_scan", "ios": "https://dc.lft.to/lastmile_qr_scan"}, "fusion_lon": 0.0}, {"lat": 38.92806816666667, "is_disabled": 0, "type": "electric_scooter", "lon": -77.0431495, "bike_id": "79780480077e546210752726820c258f", "fusion_lat": 0.0, "name": "79780480077e546210752726820c258f", "is_reserved": 0, "rental_uris": {"android": "https://dc.lft.to/lastmile_qr_scan", "ios": "https://dc.lft.to/lastmile_qr_scan"}, "fusion_lon": 0.0}, {"lat": 38.8975745, "is_disabled": 0, "type": "electric_scooter", "lon": -77.04523783333333, "bike_id": "1f1f3b907318ecfc6f507b5ef3470b6f", "fusion_lat": 0.0, "name": "1f1f3b907318ecfc6f507b5ef3470b6f", "is_reserved": 0, "rental_uris": {"android": "https://dc.lft.to/lastmile_qr_scan", "ios": "https://dc.lft.to/lastmile_qr_scan"}, "fusion_lon": 0.0}, {"lat": 38.89749333333334, "is_disabled": 0, "type": "electric_scooter", "lon": -77.00853916666667, "bike_id": "3e928eda3e1b3bf30ffa6e50c14faff9", "fusion_lat": 0.0, "name": "3e928eda3e1b3bf30ffa6e50c14faff9", "is_reserved": 0, "rental_uris": {"android": "https://dc.lft.to/lastmile_qr_scan", "ios": "https://dc.lft.to/lastmile_qr_scan"}, "fusion_lon": 0.0}, {"lat": 38.93992816666667, "is_disabled": 0, "type": "electric_scooter", "lon": -77.07175666666667, "bike_id": "1d1e915e2e6cbb960bff8f10a236ee58", "fusion_lat": 0.0, "name": "1d1e915e2e6cbb960bff8f10a236ee58", "is_reserved": 0, "rental_uris": {"android": "https://dc.lft.to/lastmile_qr_scan", "ios": "https://dc.lft.to/lastmile_qr_scan"}, "fusion_lon": 0.0}, {"lat": 38.917066166666665, "is_disabled": 0, "type": "electric_scooter", "lon": -77.04329533333333, "bike_id": "21a5b34e4637003c02232bcf48020981", "fusion_lat": 0.0, "name": "21a5b34e4637003c02232bcf48020981", "is_reserved": 0, "rental_uris": {"android": "https://dc.lft.to/lastmile_qr_scan", "ios": "https://dc.lft.to/lastmile_qr_scan"}, "fusion_lon": 0.0}, {"lat": 38.904137, "is_disabled": 0, "type": "electric_scooter", "lon": -77.053406, "bike_id": "b274c4829836a2e6c87bbebf53bdd44c", "fusion_lat": 0.0, "name": "b274c4829836a2e6c87bbebf53bdd44c", "is_reserved": 0, "rental_uris": {"android": "https://dc.lft.to/lastmile_qr_scan", "ios": "https://dc.lft.to/lastmile_qr_scan"}, "fusion_lon": 0.0}, {"lat": 38.907464166666664, "is_disabled": 0, "type": "electric_bike", "lon": -77.06900633333333, "bike_id": "40d286af26f1dc129ad35465d4315a48", "fusion_lat": 0.0, "name": "40d286af26f1dc129ad35465d4315a48", "is_reserved": 0, "rental_uris": {"android": "https://dc.lft.to/lastmile_qr_scan", "ios": "https://dc.lft.to/lastmile_qr_scan"}, "fusion_lon": 0.0}, {"lat": 38.899082666666665, "is_disabled": 0, "type": "electric_scooter", "lon": -76.93348283333333, "bike_id": "103d119802e250a105b450663d0382e5", "fusion_lat": 0.0, "name": "103d119802e250a105b450663d0382e5", "is_reserved": 0, "rental_uris": {"android": "https://dc.lft.to/lastmile_qr_scan", "ios": "https://dc.lft.to/lastmile_qr_scan"}, "fusion_lon": 0.0}, {"lat": 38.91675133333333, "is_disabled": 0, "type": "electric_scooter", "lon": -77.0296645, "bike_id": "975b19bf6284f49d7fa38afd6f027aac", "fusion_lat": 0.0, "name": "975b19bf6284f49d7fa38afd6f027aac", "is_reserved": 0, "rental_uris": {"android": "https://dc.lft.to/lastmile_qr_scan", "ios": "https://dc.lft.to/lastmile_qr_scan"}, "fusion_lon": 0.0}, {"lat": 38.90417583333333, "is_disabled": 0, "type": "electric_scooter", "lon": -77.02085083333333, "bike_id": "143839afd5bb025d2a7b6fec7188d159", "fusion_lat": 0.0, "name": "143839afd5bb025d2a7b6fec7188d159", "is_reserved": 0, "rental_uris": {"android": "https://dc.lft.to/lastmile_qr_scan", "ios": "https://dc.lft.to/lastmile_qr_scan"}, "fusion_lon": 0.0}, {"lat": 38.805673666666664, "is_disabled": 0, "type": "electric_bike", "lon": -77.13247933333334, "bike_id": "f43d808f93bea2cf272effb140159a71", "fusion_lat": 0.0, "name": "f43d808f93bea2cf272effb140159a71", "is_reserved": 0, "rental_uris": {"android": "https://dc.lft.to/lastmile_qr_scan", "ios": "https://dc.lft.to/lastmile_qr_scan"}, "fusion_lon": 0.0}, {"lat": 38.8976445, "is_disabled": 0, "type": "electric_scooter", "lon": -77.03218233333334, "bike_id": "65910d8f77cd96098839acdc98dc1dd1", "fusion_lat": 0.0, "name": "65910d8f77cd96098839acdc98dc1dd1", "is_reserved": 0, "rental_uris": {"android": "https://dc.lft.to/lastmile_qr_scan", "ios": "https://dc.lft.to/lastmile_qr_scan"}, "fusion_lon": 0.0}, {"lat": 38.858124833333335, "is_disabled": 0, "type": "electric_scooter", "lon": -76.9899195, "bike_id": "dab39522f07e97134c71ca53c0c26c73", "fusion_lat": 0.0, "name": "dab39522f07e97134c71ca53c0c26c73", "is_reserved": 0, "rental_uris": {"android": "https://dc.lft.to/lastmile_qr_scan", "ios": "https://dc.lft.to/lastmile_qr_scan"}, "fusion_lon": 0.0}, {"lat": 38.89092766666667, "is_disabled": 0, "type": "electric_scooter", "lon": -76.996063, "bike_id": "6da92e17edc0855a5b4dd221d2c6bd0e", "fusion_lat": 0.0, "name": "6da92e17edc0855a5b4dd221d2c6bd0e", "is_reserved": 0, "rental_uris": {"android": "https://dc.lft.to/lastmile_qr_scan", "ios": "https://dc.lft.to/lastmile_qr_scan"}, "fusion_lon": 0.0}, {"lat": 38.89748516666667, "is_disabled": 0, "type": "electric_scooter", "lon": -77.03253716666667, "bike_id": "d9a5880e414be8eb93fcb28a7e263acd", "fusion_lat": 0.0, "name": "d9a5880e414be8eb93fcb28a7e263acd", "is_reserved": 0, "rental_uris": {"android": "https://dc.lft.to/lastmile_qr_scan", "ios": "https://dc.lft.to/lastmile_qr_scan"}, "fusion_lon": 0.0}, {"lat": 38.915421333333335, "is_disabled": 0, "type": "electric_scooter", "lon": -77.031829, "bike_id": "ba8e5376103524805830902b0bae56b1", "fusion_lat": 0.0, "name": "ba8e5376103524805830902b0bae56b1", "is_reserved": 0, "rental_uris": {"android": "https://dc.lft.to/lastmile_qr_scan", "ios": "https://dc.lft.to/lastmile_qr_scan"}, "fusion_lon": 0.0}, {"lat": 38.90866616666667, "is_disabled": 0, "type": "electric_scooter", "lon": -77.03183683333333, "bike_id": "2dc558f41588aed8bb74cea27a4cebdf", "fusion_lat": 0.0, "name": "2dc558f41588aed8bb74cea27a4cebdf", "is_reserved": 0, "rental_uris": {"android": "https://dc.lft.to/lastmile_qr_scan", "ios": "https://dc.lft.to/lastmile_qr_scan"}, "fusion_lon": 0.0}, {"lat": 38.8926155, "is_disabled": 0, "type": "electric_scooter", "lon": -76.94157016666666, "bike_id": "5934c929700de1820f198d8f1ca6f962", "fusion_lat": 0.0, "name": "5934c929700de1820f198d8f1ca6f962", "is_reserved": 0, "rental_uris": {"android": "https://dc.lft.to/lastmile_qr_scan", "ios": "https://dc.lft.to/lastmile_qr_scan"}, "fusion_lon": 0.0}, {"lat": 38.9068525, "is_disabled": 0, "type": "electric_scooter", "lon": -77.02692683333333, "bike_id": "20f95c630ab42376af0ab10c32cbfdee", "fusion_lat": 0.0, "name": "20f95c630ab42376af0ab10c32cbfdee", "is_reserved": 0, "rental_uris": {"android": "https://dc.lft.to/lastmile_qr_scan", "ios": "https://dc.lft.to/lastmile_qr_scan"}, "fusion_lon": 0.0}, {"lat": 38.873459, "is_disabled": 0, "type": "electric_scooter", "lon": -76.99163183333333, "bike_id": "b3a85f13acba920a79bee594b06460c0", "fusion_lat": 0.0, "name": "b3a85f13acba920a79bee594b06460c0", "is_reserved": 0, "rental_uris": {"android": "https://dc.lft.to/lastmile_qr_scan", "ios": "https://dc.lft.to/lastmile_qr_scan"}, "fusion_lon": 0.0}, {"lat": 38.9243135, "is_disabled": 0, "type": "electric_scooter", "lon": -77.0517875, "bike_id": "20f1fae0fd7373b852dd0def720d2dfb", "fusion_lat": 0.0, "name": "20f1fae0fd7373b852dd0def720d2dfb", "is_reserved": 0, "rental_uris": {"android": "https://dc.lft.to/lastmile_qr_scan", "ios": "https://dc.lft.to/lastmile_qr_scan"}, "fusion_lon": 0.0}, {"lat": 38.99409833333333, "is_disabled": 0, "type": "electric_bike", "lon": -77.03098716666666, "bike_id": "16eaf02286c8943ef8010977fd338209", "fusion_lat": 0.0, "name": "16eaf02286c8943ef8010977fd338209", "is_reserved": 0, "rental_uris": {"android": "https://dc.lft.to/lastmile_qr_scan", "ios": "https://dc.lft.to/lastmile_qr_scan"}, "fusion_lon": 0.0}, {"lat": 38.919894666666664, "is_disabled": 0, "type": "electric_scooter", "lon": -76.97301966666667, "bike_id": "daa9e2bb325c415ba6eae1da5f566c62", "fusion_lat": 0.0, "name": "daa9e2bb325c415ba6eae1da5f566c62", "is_reserved": 0, "rental_uris": {"android": "https://dc.lft.to/lastmile_qr_scan", "ios": "https://dc.lft.to/lastmile_qr_scan"}, "fusion_lon": 0.0}, {"lat": 38.9159835, "is_disabled": 0, "type": "electric_scooter", "lon": -77.02404, "bike_id": "abc9d2ce1c82304fe9d42816eaeffe59", "fusion_lat": 0.0, "name": "abc9d2ce1c82304fe9d42816eaeffe59", "is_reserved": 0, "rental_uris": {"android": "https://dc.lft.to/lastmile_qr_scan", "ios": "https://dc.lft.to/lastmile_qr_scan"}, "fusion_lon": 0.0}, {"lat": 38.90869716666667, "is_disabled": 0, "type": "electric_scooter", "lon": -77.04659516666666, "bike_id": "7f75436ff683301dfac3eb8bc860f4ca", "fusion_lat": 0.0, "name": "7f75436ff683301dfac3eb8bc860f4ca", "is_reserved": 0, "rental_uris": {"android": "https://dc.lft.to/lastmile_qr_scan", "ios": "https://dc.lft.to/lastmile_qr_scan"}, "fusion_lon": 0.0}, {"lat": 38.950097666666665, "is_disabled": 0, "type": "electric_scooter", "lon": -77.01569266666667, "bike_id": "9b79869b071d94120e6544884acf8c9f", "fusion_lat": 0.0, "name": "9b79869b071d94120e6544884acf8c9f", "is_reserved": 0, "rental_uris": {"android": "https://dc.lft.to/lastmile_qr_scan", "ios": "https://dc.lft.to/lastmile_qr_scan"}, "fusion_lon": 0.0}, {"lat": 38.8838975, "is_disabled": 0, "type": "electric_scooter", "lon": -77.018931, "bike_id": "f06d3ba3012ff5855725cdb74774c209", "fusion_lat": 0.0, "name": "f06d3ba3012ff5855725cdb74774c209", "is_reserved": 0, "rental_uris": {"android": "https://dc.lft.to/lastmile_qr_scan", "ios": "https://dc.lft.to/lastmile_qr_scan"}, "fusion_lon": 0.0}, {"lat": 38.904931166666664, "is_disabled": 0, "type": "electric_scooter", "lon": -76.9871115, "bike_id": "83092dcf3d7e00e01708c76724dc7873", "fusion_lat": 0.0, "name": "83092dcf3d7e00e01708c76724dc7873", "is_reserved": 0, "rental_uris": {"android": "https://dc.lft.to/lastmile_qr_scan", "ios": "https://dc.lft.to/lastmile_qr_scan"}, "fusion_lon": 0.0}, {"lat": 38.92245283333333, "is_disabled": 0, "type": "electric_scooter", "lon": -77.02182816666667, "bike_id": "a3e86a984a3da0fed460359a8f6b12ed", "fusion_lat": 0.0, "name": "a3e86a984a3da0fed460359a8f6b12ed", "is_reserved": 0, "rental_uris": {"android": "https://dc.lft.to/lastmile_qr_scan", "ios": "https://dc.lft.to/lastmile_qr_scan"}, "fusion_lon": 0.0}, {"lat": 38.868893166666666, "is_disabled": 0, "type": "electric_scooter", "lon": -76.98311533333333, "bike_id": "673528f7d3e198ac6093fd4741891fac", "fusion_lat": 0.0, "name": "673528f7d3e198ac6093fd4741891fac", "is_reserved": 0, "rental_uris": {"android": "https://dc.lft.to/lastmile_qr_scan", "ios": "https://dc.lft.to/lastmile_qr_scan"}, "fusion_lon": 0.0}, {"lat": 38.905974666666665, "is_disabled": 0, "type": "electric_scooter", "lon": -77.0401905, "bike_id": "f2001cf70f197fb5095c3826d8e42a82", "fusion_lat": 0.0, "name": "f2001cf70f197fb5095c3826d8e42a82", "is_reserved": 0, "rental_uris": {"android": "https://dc.lft.to/lastmile_qr_scan", "ios": "https://dc.lft.to/lastmile_qr_scan"}, "fusion_lon": 0.0}, {"lat": 38.9078845, "is_disabled": 0, "type": "electric_scooter", "lon": -77.04218266666666, "bike_id": "f4ffe4e8995d990e5493aa6ddf2da6fc", "fusion_lat": 0.0, "name": "f4ffe4e8995d990e5493aa6ddf2da6fc", "is_reserved": 0, "rental_uris": {"android": "https://dc.lft.to/lastmile_qr_scan", "ios": "https://dc.lft.to/lastmile_qr_scan"}, "fusion_lon": 0.0}, {"lat": 38.873414, "is_disabled": 0, "type": "electric_scooter", "lon": -76.991667, "bike_id": "0fdaa1c200b9423404e15f69eeb131cb", "fusion_lat": 0.0, "name": "0fdaa1c200b9423404e15f69eeb131cb", "is_reserved": 0, "rental_uris": {"android": "https://dc.lft.to/lastmile_qr_scan", "ios": "https://dc.lft.to/lastmile_qr_scan"}, "fusion_lon": 0.0}, {"lat": 38.9036225, "is_disabled": 0, "type": "electric_scooter", "lon": -77.02214466666666, "bike_id": "568a1c4ad918de4e610bc80ca1f377e3", "fusion_lat": 0.0, "name": "568a1c4ad918de4e610bc80ca1f377e3", "is_reserved": 0, "rental_uris": {"android": "https://dc.lft.to/lastmile_qr_scan", "ios": "https://dc.lft.to/lastmile_qr_scan"}, "fusion_lon": 0.0}, {"lat": 38.90919816666667, "is_disabled": 0, "type": "electric_scooter", "lon": -77.03641566666667, "bike_id": "bfc091c63e8d4bb230c8564849953fae", "fusion_lat": 0.0, "name": "bfc091c63e8d4bb230c8564849953fae", "is_reserved": 0, "rental_uris": {"android": "https://dc.lft.to/lastmile_qr_scan", "ios": "https://dc.lft.to/lastmile_qr_scan"}, "fusion_lon": 0.0}, {"lat": 38.916712, "is_disabled": 0, "type": "electric_scooter", "lon": -77.02964816666666, "bike_id": "ab0496758feebe80cb9683ba62d446e2", "fusion_lat": 0.0, "name": "ab0496758feebe80cb9683ba62d446e2", "is_reserved": 0, "rental_uris": {"android": "https://dc.lft.to/lastmile_qr_scan", "ios": "https://dc.lft.to/lastmile_qr_scan"}, "fusion_lon": 0.0}, {"lat": 38.91011533333333, "is_disabled": 0, "type": "electric_scooter", "lon": -77.03838733333333, "bike_id": "938b1899ab7c8a7841e109c6fef3ccaa", "fusion_lat": 0.0, "name": "938b1899ab7c8a7841e109c6fef3ccaa", "is_reserved": 0, "rental_uris": {"android": "https://dc.lft.to/lastmile_qr_scan", "ios": "https://dc.lft.to/lastmile_qr_scan"}, "fusion_lon": 0.0}, {"lat": 38.89136166666667, "is_disabled": 0, "type": "electric_scooter", "lon": -76.94393666666667, "bike_id": "28403a45d0cff4472e1620eddc7c3ee2", "fusion_lat": 0.0, "name": "28403a45d0cff4472e1620eddc7c3ee2", "is_reserved": 0, "rental_uris": {"android": "https://dc.lft.to/lastmile_qr_scan", "ios": "https://dc.lft.to/lastmile_qr_scan"}, "fusion_lon": 0.0}, {"lat": 38.930674333333336, "is_disabled": 0, "type": "electric_scooter", "lon": -77.04177983333334, "bike_id": "0809629ee69b0f22ba93889bdd9091b8", "fusion_lat": 0.0, "name": "0809629ee69b0f22ba93889bdd9091b8", "is_reserved": 0, "rental_uris": {"android": "https://dc.lft.to/lastmile_qr_scan", "ios": "https://dc.lft.to/lastmile_qr_scan"}, "fusion_lon": 0.0}, {"lat": 38.8590995, "is_disabled": 0, "type": "electric_scooter", "lon": -76.99146016666667, "bike_id": "5f2c80c3d53d3a33290851b3f2ea2b53", "fusion_lat": 0.0, "name": "5f2c80c3d53d3a33290851b3f2ea2b53", "is_reserved": 0, "rental_uris": {"android": "https://dc.lft.to/lastmile_qr_scan", "ios": "https://dc.lft.to/lastmile_qr_scan"}, "fusion_lon": 0.0}, {"lat": 38.91518883333333, "is_disabled": 0, "type": "electric_scooter", "lon": -77.038428, "bike_id": "dee14cbb5b252086b4003b9d2a414339", "fusion_lat": 0.0, "name": "dee14cbb5b252086b4003b9d2a414339", "is_reserved": 0, "rental_uris": {"android": "https://dc.lft.to/lastmile_qr_scan", "ios": "https://dc.lft.to/lastmile_qr_scan"}, "fusion_lon": 0.0}, {"lat": 38.90461, "is_disabled": 0, "type": "electric_scooter", "lon": -77.02949566666666, "bike_id": "480f3263d153c2e29b09de8664ba2864", "fusion_lat": 0.0, "name": "480f3263d153c2e29b09de8664ba2864", "is_reserved": 0, "rental_uris": {"android": "https://dc.lft.to/lastmile_qr_scan", "ios": "https://dc.lft.to/lastmile_qr_scan"}, "fusion_lon": 0.0}, {"lat": 38.9316475, "is_disabled": 0, "type": "electric_scooter", "lon": -77.02837, "bike_id": "05f7ac649e888164e3de7e21f0913690", "fusion_lat": 0.0, "name": "05f7ac649e888164e3de7e21f0913690", "is_reserved": 0, "rental_uris": {"android": "https://dc.lft.to/lastmile_qr_scan", "ios": "https://dc.lft.to/lastmile_qr_scan"}, "fusion_lon": 0.0}, {"lat": 38.91273183333333, "is_disabled": 0, "type": "electric_scooter", "lon": -77.0226915, "bike_id": "43c03027068371779e69ca263a3742ec", "fusion_lat": 0.0, "name": "43c03027068371779e69ca263a3742ec", "is_reserved": 0, "rental_uris": {"android": "https://dc.lft.to/lastmile_qr_scan", "ios": "https://dc.lft.to/lastmile_qr_scan"}, "fusion_lon": 0.0}, {"lat": 38.90774033333334, "is_disabled": 0, "type": "electric_scooter", "lon": -77.04352916666667, "bike_id": "e8295260807a793c06ce267bc40b5d4f", "fusion_lat": 0.0, "name": "e8295260807a793c06ce267bc40b5d4f", "is_reserved": 0, "rental_uris": {"android": "https://dc.lft.to/lastmile_qr_scan", "ios": "https://dc.lft.to/lastmile_qr_scan"}, "fusion_lon": 0.0}, {"lat": 38.907259333333336, "is_disabled": 0, "type": "electric_scooter", "lon": -77.00335866666667, "bike_id": "8321f26219d53b57bf42f4a1778914f1", "fusion_lat": 0.0, "name": "8321f26219d53b57bf42f4a1778914f1", "is_reserved": 0, "rental_uris": {"android": "https://dc.lft.to/lastmile_qr_scan", "ios": "https://dc.lft.to/lastmile_qr_scan"}, "fusion_lon": 0.0}, {"lat": 38.89260316666667, "is_disabled": 0, "type": "electric_scooter", "lon": -77.02596266666667, "bike_id": "5263e9b7b8ec6809c39d7d85694d29c1", "fusion_lat": 0.0, "name": "5263e9b7b8ec6809c39d7d85694d29c1", "is_reserved": 0, "rental_uris": {"android": "https://dc.lft.to/lastmile_qr_scan", "ios": "https://dc.lft.to/lastmile_qr_scan"}, "fusion_lon": 0.0}, {"lat": 38.913496333333335, "is_disabled": 0, "type": "electric_scooter", "lon": -77.03183166666666, "bike_id": "7e99b31eb43d43666951f99bfc434345", "fusion_lat": 0.0, "name": "7e99b31eb43d43666951f99bfc434345", "is_reserved": 0, "rental_uris": {"android": "https://dc.lft.to/lastmile_qr_scan", "ios": "https://dc.lft.to/lastmile_qr_scan"}, "fusion_lon": 0.0}, {"lat": 38.916996, "is_disabled": 0, "type": "electric_scooter", "lon": -77.00810283333334, "bike_id": "f23c00c6330b36726c902654b15d395a", "fusion_lat": 0.0, "name": "f23c00c6330b36726c902654b15d395a", "is_reserved": 0, "rental_uris": {"android": "https://dc.lft.to/lastmile_qr_scan", "ios": "https://dc.lft.to/lastmile_qr_scan"}, "fusion_lon": 0.0}, {"lat": 38.936352166666666, "is_disabled": 0, "type": "electric_scooter", "lon": -77.0588165, "bike_id": "6aa47d73647188328f80696b0c86e262", "fusion_lat": 0.0, "name": "6aa47d73647188328f80696b0c86e262", "is_reserved": 0, "rental_uris": {"android": "https://dc.lft.to/lastmile_qr_scan", "ios": "https://dc.lft.to/lastmile_qr_scan"}, "fusion_lon": 0.0}, {"lat": 38.9057655, "is_disabled": 0, "type": "electric_scooter", "lon": -77.06278283333333, "bike_id": "d576cb173e3881be8cc801665cdeb826", "fusion_lat": 0.0, "name": "d576cb173e3881be8cc801665cdeb826", "is_reserved": 0, "rental_uris": {"android": "https://dc.lft.to/lastmile_qr_scan", "ios": "https://dc.lft.to/lastmile_qr_scan"}, "fusion_lon": 0.0}, {"lat": 38.932115333333336, "is_disabled": 0, "type": "electric_scooter", "lon": -77.0365525, "bike_id": "4fe7609c0c33d61cc63924d29d4a8574", "fusion_lat": 0.0, "name": "4fe7609c0c33d61cc63924d29d4a8574", "is_reserved": 0, "rental_uris": {"android": "https://dc.lft.to/lastmile_qr_scan", "ios": "https://dc.lft.to/lastmile_qr_scan"}, "fusion_lon": 0.0}, {"lat": 38.9062015, "is_disabled": 0, "type": "electric_scooter", "lon": -76.98983916666667, "bike_id": "9154d3f535b75613a6d6b1f6aa2fb73a", "fusion_lat": 0.0, "name": "9154d3f535b75613a6d6b1f6aa2fb73a", "is_reserved": 0, "rental_uris": {"android": "https://dc.lft.to/lastmile_qr_scan", "ios": "https://dc.lft.to/lastmile_qr_scan"}, "fusion_lon": 0.0}, {"lat": 38.905590833333335, "is_disabled": 0, "type": "electric_scooter", "lon": -77.06516833333333, "bike_id": "a94929c8e5ec7d207f4689c5343af06d", "fusion_lat": 0.0, "name": "a94929c8e5ec7d207f4689c5343af06d", "is_reserved": 0, "rental_uris": {"android": "https://dc.lft.to/lastmile_qr_scan", "ios": "https://dc.lft.to/lastmile_qr_scan"}, "fusion_lon": 0.0}, {"lat": 38.915548333333334, "is_disabled": 0, "type": "electric_scooter", "lon": -77.03175233333333, "bike_id": "5e2c567e0c7d2282965e9adb41baccce", "fusion_lat": 0.0, "name": "5e2c567e0c7d2282965e9adb41baccce", "is_reserved": 0, "rental_uris": {"android": "https://dc.lft.to/lastmile_qr_scan", "ios": "https://dc.lft.to/lastmile_qr_scan"}, "fusion_lon": 0.0}, {"lat": 38.8991385, "is_disabled": 0, "type": "electric_scooter", "lon": -76.93345966666666, "bike_id": "693c736034f99d96fa3f81e1133b31da", "fusion_lat": 0.0, "name": "693c736034f99d96fa3f81e1133b31da", "is_reserved": 0, "rental_uris": {"android": "https://dc.lft.to/lastmile_qr_scan", "ios": "https://dc.lft.to/lastmile_qr_scan"}, "fusion_lon": 0.0}, {"lat": 38.87318366666667, "is_disabled": 0, "type": "electric_bike", "lon": -76.99154616666667, "bike_id": "73ffb2ae9f66e2bb373e5f5b4183b913", "fusion_lat": 0.0, "name": "73ffb2ae9f66e2bb373e5f5b4183b913", "is_reserved": 0, "rental_uris": {"android": "https://dc.lft.to/lastmile_qr_scan", "ios": "https://dc.lft.to/lastmile_qr_scan"}, "fusion_lon": 0.0}, {"lat": 38.901304, "is_disabled": 0, "type": "electric_scooter", "lon": -76.99747416666666, "bike_id": "3ba6762be2b8929f251865b8b457f9d9", "fusion_lat": 0.0, "name": "3ba6762be2b8929f251865b8b457f9d9", "is_reserved": 0, "rental_uris": {"android": "https://dc.lft.to/lastmile_qr_scan", "ios": "https://dc.lft.to/lastmile_qr_scan"}, "fusion_lon": 0.0}, {"lat": 38.917872333333335, "is_disabled": 0, "type": "electric_scooter", "lon": -77.04073366666667, "bike_id": "1cdb98d12c830bf891a0a3ca4dcfa335", "fusion_lat": 0.0, "name": "1cdb98d12c830bf891a0a3ca4dcfa335", "is_reserved": 0, "rental_uris": {"android": "https://dc.lft.to/lastmile_qr_scan", "ios": "https://dc.lft.to/lastmile_qr_scan"}, "fusion_lon": 0.0}, {"lat": 38.90961183333334, "is_disabled": 0, "type": "electric_scooter", "lon": -77.022753, "bike_id": "64b7b26f0937203543b1bba188d76fd1", "fusion_lat": 0.0, "name": "64b7b26f0937203543b1bba188d76fd1", "is_reserved": 0, "rental_uris": {"android": "https://dc.lft.to/lastmile_qr_scan", "ios": "https://dc.lft.to/lastmile_qr_scan"}, "fusion_lon": 0.0}, {"lat": 38.907243666666666, "is_disabled": 0, "type": "electric_scooter", "lon": -77.04753866666667, "bike_id": "f2f2f6ad66ca09001988379d35c56490", "fusion_lat": 0.0, "name": "f2f2f6ad66ca09001988379d35c56490", "is_reserved": 0, "rental_uris": {"android": "https://dc.lft.to/lastmile_qr_scan", "ios": "https://dc.lft.to/lastmile_qr_scan"}, "fusion_lon": 0.0}, {"lat": 38.915667166666665, "is_disabled": 0, "type": "electric_scooter", "lon": -77.04868483333334, "bike_id": "82379ba414f49cf6db0db79395d2521b", "fusion_lat": 0.0, "name": "82379ba414f49cf6db0db79395d2521b", "is_reserved": 0, "rental_uris": {"android": "https://dc.lft.to/lastmile_qr_scan", "ios": "https://dc.lft.to/lastmile_qr_scan"}, "fusion_lon": 0.0}, {"lat": 38.8850705, "is_disabled": 0, "type": "electric_scooter", "lon": -77.0155245, "bike_id": "8bcb599ca2688b8fab9b1ead94a92071", "fusion_lat": 0.0, "name": "8bcb599ca2688b8fab9b1ead94a92071", "is_reserved": 0, "rental_uris": {"android": "https://dc.lft.to/lastmile_qr_scan", "ios": "https://dc.lft.to/lastmile_qr_scan"}, "fusion_lon": 0.0}, {"lat": 38.906508333333335, "is_disabled": 0, "type": "electric_scooter", "lon": -77.02506983333333, "bike_id": "29d1e3290450e84d99021893077a4ddb", "fusion_lat": 0.0, "name": "29d1e3290450e84d99021893077a4ddb", "is_reserved": 0, "rental_uris": {"android": "https://dc.lft.to/lastmile_qr_scan", "ios": "https://dc.lft.to/lastmile_qr_scan"}, "fusion_lon": 0.0}, {"lat": 38.97089583333333, "is_disabled": 0, "type": "electric_bike", "lon": -77.06962633333333, "bike_id": "1abb052c6ebdd4ef2441c3a0e0b5b75e", "fusion_lat": 0.0, "name": "1abb052c6ebdd4ef2441c3a0e0b5b75e", "is_reserved": 0, "rental_uris": {"android": "https://dc.lft.to/lastmile_qr_scan", "ios": "https://dc.lft.to/lastmile_qr_scan"}, "fusion_lon": 0.0}, {"lat": 38.9514215, "is_disabled": 0, "type": "electric_scooter", "lon": -77.01335383333333, "bike_id": "f20a1cfcdc8d0eaccea54308f81cca3c", "fusion_lat": 0.0, "name": "f20a1cfcdc8d0eaccea54308f81cca3c", "is_reserved": 0, "rental_uris": {"android": "https://dc.lft.to/lastmile_qr_scan", "ios": "https://dc.lft.to/lastmile_qr_scan"}, "fusion_lon": 0.0}, {"lat": 38.935364166666666, "is_disabled": 0, "type": "electric_scooter", "lon": -77.02350116666666, "bike_id": "741a3e5d689fd256dc7489709301a242", "fusion_lat": 0.0, "name": "741a3e5d689fd256dc7489709301a242", "is_reserved": 0, "rental_uris": {"android": "https://dc.lft.to/lastmile_qr_scan", "ios": "https://dc.lft.to/lastmile_qr_scan"}, "fusion_lon": 0.0}, {"lat": 38.898819333333336, "is_disabled": 0, "type": "electric_scooter", "lon": -76.93185116666666, "bike_id": "96e64120137916a0ad73a68eea761a47", "fusion_lat": 0.0, "name": "96e64120137916a0ad73a68eea761a47", "is_reserved": 0, "rental_uris": {"android": "https://dc.lft.to/lastmile_qr_scan", "ios": "https://dc.lft.to/lastmile_qr_scan"}, "fusion_lon": 0.0}, {"lat": 38.90843516666666, "is_disabled": 0, "type": "electric_scooter", "lon": -77.02713, "bike_id": "66fba71712f6efea925b255cee294e01", "fusion_lat": 0.0, "name": "66fba71712f6efea925b255cee294e01", "is_reserved": 0, "rental_uris": {"android": "https://dc.lft.to/lastmile_qr_scan", "ios": "https://dc.lft.to/lastmile_qr_scan"}, "fusion_lon": 0.0}, {"lat": 38.9132685, "is_disabled": 0, "type": "electric_scooter", "lon": -77.03127766666667, "bike_id": "3e731a2f156cdaa0b9312d612b791996", "fusion_lat": 0.0, "name": "3e731a2f156cdaa0b9312d612b791996", "is_reserved": 0, "rental_uris": {"android": "https://dc.lft.to/lastmile_qr_scan", "ios": "https://dc.lft.to/lastmile_qr_scan"}, "fusion_lon": 0.0}, {"lat": 38.9613525, "is_disabled": 0, "type": "electric_scooter", "lon": -77.02233, "bike_id": "959ace3494251d00056c35e1118c0d22", "fusion_lat": 0.0, "name": "959ace3494251d00056c35e1118c0d22", "is_reserved": 0, "rental_uris": {"android": "https://dc.lft.to/lastmile_qr_scan", "ios": "https://dc.lft.to/lastmile_qr_scan"}, "fusion_lon": 0.0}, {"lat": 38.85453066666667, "is_disabled": 0, "type": "electric_scooter", "lon": -76.9857445, "bike_id": "27789a6d2c06194e94d1fa84bdc2a65b", "fusion_lat": 0.0, "name": "27789a6d2c06194e94d1fa84bdc2a65b", "is_reserved": 0, "rental_uris": {"android": "https://dc.lft.to/lastmile_qr_scan", "ios": "https://dc.lft.to/lastmile_qr_scan"}, "fusion_lon": 0.0}, {"lat": 38.9027475, "is_disabled": 0, "type": "electric_scooter", "lon": -77.033754, "bike_id": "ca74446c3b0a7ddde64b6b30411b4dec", "fusion_lat": 0.0, "name": "ca74446c3b0a7ddde64b6b30411b4dec", "is_reserved": 0, "rental_uris": {"android": "https://dc.lft.to/lastmile_qr_scan", "ios": "https://dc.lft.to/lastmile_qr_scan"}, "fusion_lon": 0.0}, {"lat": 38.922520166666665, "is_disabled": 0, "type": "electric_scooter", "lon": -77.02722966666667, "bike_id": "dab64d7743c080b696756b0fbd11ebea", "fusion_lat": 0.0, "name": "dab64d7743c080b696756b0fbd11ebea", "is_reserved": 0, "rental_uris": {"android": "https://dc.lft.to/lastmile_qr_scan", "ios": "https://dc.lft.to/lastmile_qr_scan"}, "fusion_lon": 0.0}, {"lat": 38.86456716666667, "is_disabled": 0, "type": "electric_bike", "lon": -76.945388, "bike_id": "192981a0fdeb9d22f4a22785a1369dba", "fusion_lat": 0.0, "name": "192981a0fdeb9d22f4a22785a1369dba", "is_reserved": 0, "rental_uris": {"android": "https://dc.lft.to/lastmile_qr_scan", "ios": "https://dc.lft.to/lastmile_qr_scan"}, "fusion_lon": 0.0}, {"lat": 38.92978816666667, "is_disabled": 0, "type": "electric_scooter", "lon": -77.01301433333333, "bike_id": "105182522d6c72e6b967a1d73f4d8889", "fusion_lat": 0.0, "name": "105182522d6c72e6b967a1d73f4d8889", "is_reserved": 0, "rental_uris": {"android": "https://dc.lft.to/lastmile_qr_scan", "ios": "https://dc.lft.to/lastmile_qr_scan"}, "fusion_lon": 0.0}, {"lat": 38.90791466666667, "is_disabled": 0, "type": "electric_scooter", "lon": -77.022827, "bike_id": "bfba11296ec07fdf00c3ed95c267f8d9", "fusion_lat": 0.0, "name": "bfba11296ec07fdf00c3ed95c267f8d9", "is_reserved": 0, "rental_uris": {"android": "https://dc.lft.to/lastmile_qr_scan", "ios": "https://dc.lft.to/lastmile_qr_scan"}, "fusion_lon": 0.0}, {"lat": 38.88968333333333, "is_disabled": 0, "type": "electric_scooter", "lon": -76.97935816666667, "bike_id": "05d6722df7c38e8450f0ec48abbbdb28", "fusion_lat": 0.0, "name": "05d6722df7c38e8450f0ec48abbbdb28", "is_reserved": 0, "rental_uris": {"android": "https://dc.lft.to/lastmile_qr_scan", "ios": "https://dc.lft.to/lastmile_qr_scan"}, "fusion_lon": 0.0}, {"lat": 38.87148466666667, "is_disabled": 0, "type": "electric_bike", "lon": -76.93699733333334, "bike_id": "d3bea8a6888463a11d8e14ab180360b4", "fusion_lat": 0.0, "name": "d3bea8a6888463a11d8e14ab180360b4", "is_reserved": 0, "rental_uris": {"android": "https://dc.lft.to/lastmile_qr_scan", "ios": "https://dc.lft.to/lastmile_qr_scan"}, "fusion_lon": 0.0}, {"lat": 38.91618233333333, "is_disabled": 0, "type": "electric_scooter", "lon": -77.0294875, "bike_id": "71f335f73f97ae9930b68b613449f538", "fusion_lat": 0.0, "name": "71f335f73f97ae9930b68b613449f538", "is_reserved": 0, "rental_uris": {"android": "https://dc.lft.to/lastmile_qr_scan", "ios": "https://dc.lft.to/lastmile_qr_scan"}, "fusion_lon": 0.0}, {"lat": 38.900122, "is_disabled": 0, "type": "electric_scooter", "lon": -77.02011066666667, "bike_id": "aad4d54067920d755bda88caaf903d04", "fusion_lat": 0.0, "name": "aad4d54067920d755bda88caaf903d04", "is_reserved": 0, "rental_uris": {"android": "https://dc.lft.to/lastmile_qr_scan", "ios": "https://dc.lft.to/lastmile_qr_scan"}, "fusion_lon": 0.0}, {"lat": 38.94809333333333, "is_disabled": 0, "type": "electric_scooter", "lon": -77.07906933333334, "bike_id": "6543a407b976e617bad21a96a07474ac", "fusion_lat": 0.0, "name": "6543a407b976e617bad21a96a07474ac", "is_reserved": 0, "rental_uris": {"android": "https://dc.lft.to/lastmile_qr_scan", "ios": "https://dc.lft.to/lastmile_qr_scan"}, "fusion_lon": 0.0}, {"lat": 38.9108305, "is_disabled": 0, "type": "electric_scooter", "lon": -77.07643316666666, "bike_id": "b2dc04461e888694299ebc9a62975d1d", "fusion_lat": 0.0, "name": "b2dc04461e888694299ebc9a62975d1d", "is_reserved": 0, "rental_uris": {"android": "https://dc.lft.to/lastmile_qr_scan", "ios": "https://dc.lft.to/lastmile_qr_scan"}, "fusion_lon": 0.0}, {"lat": 38.91640066666667, "is_disabled": 0, "type": "electric_scooter", "lon": -77.03194683333334, "bike_id": "352d6ba6409ad49bd3a0659dc36897de", "fusion_lat": 0.0, "name": "352d6ba6409ad49bd3a0659dc36897de", "is_reserved": 0, "rental_uris": {"android": "https://dc.lft.to/lastmile_qr_scan", "ios": "https://dc.lft.to/lastmile_qr_scan"}, "fusion_lon": 0.0}, {"lat": 38.90008366666667, "is_disabled": 0, "type": "electric_scooter", "lon": -76.99847533333333, "bike_id": "656adf27ddbfcc5776176cc72dfd185f", "fusion_lat": 0.0, "name": "656adf27ddbfcc5776176cc72dfd185f", "is_reserved": 0, "rental_uris": {"android": "https://dc.lft.to/lastmile_qr_scan", "ios": "https://dc.lft.to/lastmile_qr_scan"}, "fusion_lon": 0.0}, {"lat": 38.891233, "is_disabled": 0, "type": "electric_scooter", "lon": -76.94089033333333, "bike_id": "0950d0f7ae9f4185c83d267c6f922708", "fusion_lat": 0.0, "name": "0950d0f7ae9f4185c83d267c6f922708", "is_reserved": 0, "rental_uris": {"android": "https://dc.lft.to/lastmile_qr_scan", "ios": "https://dc.lft.to/lastmile_qr_scan"}, "fusion_lon": 0.0}, {"lat": 38.90470283333333, "is_disabled": 0, "type": "electric_scooter", "lon": -77.03230566666667, "bike_id": "9c94767689c4f934c4d81b6d1840f726", "fusion_lat": 0.0, "name": "9c94767689c4f934c4d81b6d1840f726", "is_reserved": 0, "rental_uris": {"android": "https://dc.lft.to/lastmile_qr_scan", "ios": "https://dc.lft.to/lastmile_qr_scan"}, "fusion_lon": 0.0}, {"lat": 38.93545483333333, "is_disabled": 0, "type": "electric_scooter", "lon": -77.03420233333334, "bike_id": "147ce8c50bbb99286a8bb7d82a818558", "fusion_lat": 0.0, "name": "147ce8c50bbb99286a8bb7d82a818558", "is_reserved": 0, "rental_uris": {"android": "https://dc.lft.to/lastmile_qr_scan", "ios": "https://dc.lft.to/lastmile_qr_scan"}, "fusion_lon": 0.0}, {"lat": 38.906902333333335, "is_disabled": 0, "type": "electric_scooter", "lon": -77.03597516666666, "bike_id": "4d41f2bc18240d161350c07937909ab6", "fusion_lat": 0.0, "name": "4d41f2bc18240d161350c07937909ab6", "is_reserved": 0, "rental_uris": {"android": "https://dc.lft.to/lastmile_qr_scan", "ios": "https://dc.lft.to/lastmile_qr_scan"}, "fusion_lon": 0.0}, {"lat": 38.933315666666665, "is_disabled": 0, "type": "electric_scooter", "lon": -77.05700283333333, "bike_id": "e037d22d38da0f4b8ece71705a9ed757", "fusion_lat": 0.0, "name": "e037d22d38da0f4b8ece71705a9ed757", "is_reserved": 0, "rental_uris": {"android": "https://dc.lft.to/lastmile_qr_scan", "ios": "https://dc.lft.to/lastmile_qr_scan"}, "fusion_lon": 0.0}, {"lat": 38.91692416666667, "is_disabled": 0, "type": "electric_scooter", "lon": -77.034804, "bike_id": "d4400f00bdcc5ffe32e21c2cf3994c7a", "fusion_lat": 0.0, "name": "d4400f00bdcc5ffe32e21c2cf3994c7a", "is_reserved": 0, "rental_uris": {"android": "https://dc.lft.to/lastmile_qr_scan", "ios": "https://dc.lft.to/lastmile_qr_scan"}, "fusion_lon": 0.0}, {"lat": 39.015997666666664, "is_disabled": 0, "type": "electric_bike", "lon": -77.0442745, "bike_id": "cbfc8df28908890fa4403ec2015f196d", "fusion_lat": 0.0, "name": "cbfc8df28908890fa4403ec2015f196d", "is_reserved": 0, "rental_uris": {"android": "https://dc.lft.to/lastmile_qr_scan", "ios": "https://dc.lft.to/lastmile_qr_scan"}, "fusion_lon": 0.0}, {"lat": 38.884253333333334, "is_disabled": 0, "type": "electric_scooter", "lon": -77.03048333333334, "bike_id": "a669a0c3c3fae1b9ee13aac581d32448", "fusion_lat": 0.0, "name": "a669a0c3c3fae1b9ee13aac581d32448", "is_reserved": 0, "rental_uris": {"android": "https://dc.lft.to/lastmile_qr_scan", "ios": "https://dc.lft.to/lastmile_qr_scan"}, "fusion_lon": 0.0}, {"lat": 38.876388, "is_disabled": 0, "type": "electric_scooter", "lon": -76.993229, "bike_id": "723e9897caf99c848ebe8e1dd12dfdd4", "fusion_lat": 0.0, "name": "723e9897caf99c848ebe8e1dd12dfdd4", "is_reserved": 0, "rental_uris": {"android": "https://dc.lft.to/lastmile_qr_scan", "ios": "https://dc.lft.to/lastmile_qr_scan"}, "fusion_lon": 0.0}, {"lat": 38.91790016666667, "is_disabled": 0, "type": "electric_scooter", "lon": -77.02879366666667, "bike_id": "3bef077f2ae3813652121e5accd883db", "fusion_lat": 0.0, "name": "3bef077f2ae3813652121e5accd883db", "is_reserved": 0, "rental_uris": {"android": "https://dc.lft.to/lastmile_qr_scan", "ios": "https://dc.lft.to/lastmile_qr_scan"}, "fusion_lon": 0.0}, {"lat": 38.926051, "is_disabled": 0, "type": "electric_scooter", "lon": -77.02428833333333, "bike_id": "0a873ae80b60e1bb20e68eb685611255", "fusion_lat": 0.0, "name": "0a873ae80b60e1bb20e68eb685611255", "is_reserved": 0, "rental_uris": {"android": "https://dc.lft.to/lastmile_qr_scan", "ios": "https://dc.lft.to/lastmile_qr_scan"}, "fusion_lon": 0.0}, {"lat": 38.905432166666664, "is_disabled": 0, "type": "electric_scooter", "lon": -77.0221085, "bike_id": "a6c2b631840479d5a317c9496739cf73", "fusion_lat": 0.0, "name": "a6c2b631840479d5a317c9496739cf73", "is_reserved": 0, "rental_uris": {"android": "https://dc.lft.to/lastmile_qr_scan", "ios": "https://dc.lft.to/lastmile_qr_scan"}, "fusion_lon": 0.0}, {"lat": 38.91639883333333, "is_disabled": 0, "type": "electric_scooter", "lon": -77.04621633333333, "bike_id": "524f623783f53fd76eb01dc5c3089153", "fusion_lat": 0.0, "name": "524f623783f53fd76eb01dc5c3089153", "is_reserved": 0, "rental_uris": {"android": "https://dc.lft.to/lastmile_qr_scan", "ios": "https://dc.lft.to/lastmile_qr_scan"}, "fusion_lon": 0.0}, {"lat": 38.88189583333333, "is_disabled": 0, "type": "electric_scooter", "lon": -76.994996, "bike_id": "dc45da0c2172e7a8c68a7842814b2993", "fusion_lat": 0.0, "name": "dc45da0c2172e7a8c68a7842814b2993", "is_reserved": 0, "rental_uris": {"android": "https://dc.lft.to/lastmile_qr_scan", "ios": "https://dc.lft.to/lastmile_qr_scan"}, "fusion_lon": 0.0}, {"lat": 38.892413, "is_disabled": 0, "type": "electric_scooter", "lon": -77.026208, "bike_id": "09289c9d4a6c86b8ffb794cba576151a", "fusion_lat": 0.0, "name": "09289c9d4a6c86b8ffb794cba576151a", "is_reserved": 0, "rental_uris": {"android": "https://dc.lft.to/lastmile_qr_scan", "ios": "https://dc.lft.to/lastmile_qr_scan"}, "fusion_lon": 0.0}, {"lat": 38.923029166666666, "is_disabled": 0, "type": "electric_bike", "lon": -77.02351816666666, "bike_id": "236699e2242d0def486209aa5014bb11", "fusion_lat": 0.0, "name": "236699e2242d0def486209aa5014bb11", "is_reserved": 0, "rental_uris": {"android": "https://dc.lft.to/lastmile_qr_scan", "ios": "https://dc.lft.to/lastmile_qr_scan"}, "fusion_lon": 0.0}, {"lat": 38.902375166666666, "is_disabled": 0, "type": "electric_scooter", "lon": -77.04362516666667, "bike_id": "64674156e7e6be5801ae26d14fa00e90", "fusion_lat": 0.0, "name": "64674156e7e6be5801ae26d14fa00e90", "is_reserved": 0, "rental_uris": {"android": "https://dc.lft.to/lastmile_qr_scan", "ios": "https://dc.lft.to/lastmile_qr_scan"}, "fusion_lon": 0.0}, {"lat": 38.928563833333335, "is_disabled": 0, "type": "electric_bike", "lon": -77.222161, "bike_id": "57c6b98cd2d3552757d7e10be7d789a8", "fusion_lat": 0.0, "name": "57c6b98cd2d3552757d7e10be7d789a8", "is_reserved": 0, "rental_uris": {"android": "https://dc.lft.to/lastmile_qr_scan", "ios": "https://dc.lft.to/lastmile_qr_scan"}, "fusion_lon": 0.0}, {"lat": 39.0886085, "is_disabled": 0, "type": "electric_bike", "lon": -77.17839183333334, "bike_id": "0f701a21a676e046c444d2b7b6ff3775", "fusion_lat": 0.0, "name": "0f701a21a676e046c444d2b7b6ff3775", "is_reserved": 0, "rental_uris": {"android": "https://dc.lft.to/lastmile_qr_scan", "ios": "https://dc.lft.to/lastmile_qr_scan"}, "fusion_lon": 0.0}, {"lat": 38.89607866666667, "is_disabled": 0, "type": "electric_scooter", "lon": -77.02904816666667, "bike_id": "4773cd61d60a285e7fdeb91186d02525", "fusion_lat": 0.0, "name": "4773cd61d60a285e7fdeb91186d02525", "is_reserved": 0, "rental_uris": {"android": "https://dc.lft.to/lastmile_qr_scan", "ios": "https://dc.lft.to/lastmile_qr_scan"}, "fusion_lon": 0.0}, {"lat": 38.95929916666667, "is_disabled": 0, "type": "electric_bike", "lon": -77.0311885, "bike_id": "6b7f2ff9e6c0e3fc58d497648d9b9f8e", "fusion_lat": 0.0, "name": "6b7f2ff9e6c0e3fc58d497648d9b9f8e", "is_reserved": 0, "rental_uris": {"android": "https://dc.lft.to/lastmile_qr_scan", "ios": "https://dc.lft.to/lastmile_qr_scan"}, "fusion_lon": 0.0}, {"lat": 38.904178, "is_disabled": 0, "type": "electric_scooter", "lon": -77.05349233333334, "bike_id": "f0d5c492d345a3bd80d525f44e0a5b30", "fusion_lat": 0.0, "name": "f0d5c492d345a3bd80d525f44e0a5b30", "is_reserved": 0, "rental_uris": {"android": "https://dc.lft.to/lastmile_qr_scan", "ios": "https://dc.lft.to/lastmile_qr_scan"}, "fusion_lon": 0.0}, {"lat": 38.917003, "is_disabled": 0, "type": "electric_scooter", "lon": -77.02280766666667, "bike_id": "2bd607871f01b8d6c8c37e56f60bc467", "fusion_lat": 0.0, "name": "2bd607871f01b8d6c8c37e56f60bc467", "is_reserved": 0, "rental_uris": {"android": "https://dc.lft.to/lastmile_qr_scan", "ios": "https://dc.lft.to/lastmile_qr_scan"}, "fusion_lon": 0.0}, {"lat": 38.90567516666667, "is_disabled": 0, "type": "electric_scooter", "lon": -77.005892, "bike_id": "aa7a1b578de8148181f7da6a84094cdf", "fusion_lat": 0.0, "name": "aa7a1b578de8148181f7da6a84094cdf", "is_reserved": 0, "rental_uris": {"android": "https://dc.lft.to/lastmile_qr_scan", "ios": "https://dc.lft.to/lastmile_qr_scan"}, "fusion_lon": 0.0}, {"lat": 38.92460283333333, "is_disabled": 0, "type": "electric_scooter", "lon": -77.05232133333334, "bike_id": "ec330abc94a4d83ea90c705c0660e2ad", "fusion_lat": 0.0, "name": "ec330abc94a4d83ea90c705c0660e2ad", "is_reserved": 0, "rental_uris": {"android": "https://dc.lft.to/lastmile_qr_scan", "ios": "https://dc.lft.to/lastmile_qr_scan"}, "fusion_lon": 0.0}, {"lat": 38.957103000000004, "is_disabled": 0, "type": "electric_scooter", "lon": -77.07085233333333, "bike_id": "65927329294d51be58f10c7f2728edd9", "fusion_lat": 0.0, "name": "65927329294d51be58f10c7f2728edd9", "is_reserved": 0, "rental_uris": {"android": "https://dc.lft.to/lastmile_qr_scan", "ios": "https://dc.lft.to/lastmile_qr_scan"}, "fusion_lon": 0.0}, {"lat": 38.90715083333333, "is_disabled": 0, "type": "electric_scooter", "lon": -77.00318366666667, "bike_id": "4f9a8604d24dd69bcfb130139db5d10b", "fusion_lat": 0.0, "name": "4f9a8604d24dd69bcfb130139db5d10b", "is_reserved": 0, "rental_uris": {"android": "https://dc.lft.to/lastmile_qr_scan", "ios": "https://dc.lft.to/lastmile_qr_scan"}, "fusion_lon": 0.0}, {"lat": 38.90160383333333, "is_disabled": 0, "type": "electric_scooter", "lon": -76.98631933333333, "bike_id": "222ac86d6306d4a3021094a328a21ceb", "fusion_lat": 0.0, "name": "222ac86d6306d4a3021094a328a21ceb", "is_reserved": 0, "rental_uris": {"android": "https://dc.lft.to/lastmile_qr_scan", "ios": "https://dc.lft.to/lastmile_qr_scan"}, "fusion_lon": 0.0}, {"lat": 38.89986416666667, "is_disabled": 0, "type": "electric_scooter", "lon": -77.05090866666667, "bike_id": "646ba66ea927422ec6fbab0616f9a2d5", "fusion_lat": 0.0, "name": "646ba66ea927422ec6fbab0616f9a2d5", "is_reserved": 0, "rental_uris": {"android": "https://dc.lft.to/lastmile_qr_scan", "ios": "https://dc.lft.to/lastmile_qr_scan"}, "fusion_lon": 0.0}, {"lat": 38.8925045, "is_disabled": 0, "type": "electric_scooter", "lon": -77.02823633333334, "bike_id": "5b0f7da7484d0cffbea43cee2b334ebe", "fusion_lat": 0.0, "name": "5b0f7da7484d0cffbea43cee2b334ebe", "is_reserved": 0, "rental_uris": {"android": "https://dc.lft.to/lastmile_qr_scan", "ios": "https://dc.lft.to/lastmile_qr_scan"}, "fusion_lon": 0.0}, {"lat": 38.86627166666667, "is_disabled": 0, "type": "electric_scooter", "lon": -76.98714, "bike_id": "ace36766aeb803c582866817eac3c825", "fusion_lat": 0.0, "name": "ace36766aeb803c582866817eac3c825", "is_reserved": 0, "rental_uris": {"android": "https://dc.lft.to/lastmile_qr_scan", "ios": "https://dc.lft.to/lastmile_qr_scan"}, "fusion_lon": 0.0}, {"lat": 38.88517783333333, "is_disabled": 0, "type": "electric_scooter", "lon": -77.00270033333334, "bike_id": "d12f521503aa722709894d89a03511b4", "fusion_lat": 0.0, "name": "d12f521503aa722709894d89a03511b4", "is_reserved": 0, "rental_uris": {"android": "https://dc.lft.to/lastmile_qr_scan", "ios": "https://dc.lft.to/lastmile_qr_scan"}, "fusion_lon": 0.0}, {"lat": 38.89772933333333, "is_disabled": 0, "type": "electric_bike", "lon": -76.9043615, "bike_id": "ff74c0707adda9062300d17d49cb9593", "fusion_lat": 0.0, "name": "ff74c0707adda9062300d17d49cb9593", "is_reserved": 0, "rental_uris": {"android": "https://dc.lft.to/lastmile_qr_scan", "ios": "https://dc.lft.to/lastmile_qr_scan"}, "fusion_lon": 0.0}, {"lat": 38.842758833333335, "is_disabled": 0, "type": "electric_bike", "lon": -76.98844483333333, "bike_id": "885ce5288625b96b5f4ffae68f8c95dd", "fusion_lat": 0.0, "name": "885ce5288625b96b5f4ffae68f8c95dd", "is_reserved": 0, "rental_uris": {"android": "https://dc.lft.to/lastmile_qr_scan", "ios": "https://dc.lft.to/lastmile_qr_scan"}, "fusion_lon": 0.0}, {"lat": 38.900401333333335, "is_disabled": 0, "type": "electric_scooter", "lon": -76.98834166666667, "bike_id": "b78ee208c910aeafcaf761b4c8447812", "fusion_lat": 0.0, "name": "b78ee208c910aeafcaf761b4c8447812", "is_reserved": 0, "rental_uris": {"android": "https://dc.lft.to/lastmile_qr_scan", "ios": "https://dc.lft.to/lastmile_qr_scan"}, "fusion_lon": 0.0}, {"lat": 38.9133445, "is_disabled": 0, "type": "electric_scooter", "lon": -77.04817316666667, "bike_id": "e930cdf6045da212daa002628c08ae32", "fusion_lat": 0.0, "name": "e930cdf6045da212daa002628c08ae32", "is_reserved": 0, "rental_uris": {"android": "https://dc.lft.to/lastmile_qr_scan", "ios": "https://dc.lft.to/lastmile_qr_scan"}, "fusion_lon": 0.0}, {"lat": 38.909757166666665, "is_disabled": 0, "type": "electric_scooter", "lon": -77.04517683333333, "bike_id": "81b6a7507d4ee8b09752c5a49db54e68", "fusion_lat": 0.0, "name": "81b6a7507d4ee8b09752c5a49db54e68", "is_reserved": 0, "rental_uris": {"android": "https://dc.lft.to/lastmile_qr_scan", "ios": "https://dc.lft.to/lastmile_qr_scan"}, "fusion_lon": 0.0}, {"lat": 38.902812, "is_disabled": 0, "type": "electric_scooter", "lon": -77.04598316666667, "bike_id": "d08ff0917560410880e13213dc59ebe4", "fusion_lat": 0.0, "name": "d08ff0917560410880e13213dc59ebe4", "is_reserved": 0, "rental_uris": {"android": "https://dc.lft.to/lastmile_qr_scan", "ios": "https://dc.lft.to/lastmile_qr_scan"}, "fusion_lon": 0.0}, {"lat": 38.86409483333333, "is_disabled": 0, "type": "electric_bike", "lon": -76.97434366666667, "bike_id": "05c04afe9f7d63fe5415d3a19d7de558", "fusion_lat": 0.0, "name": "05c04afe9f7d63fe5415d3a19d7de558", "is_reserved": 0, "rental_uris": {"android": "https://dc.lft.to/lastmile_qr_scan", "ios": "https://dc.lft.to/lastmile_qr_scan"}, "fusion_lon": 0.0}, {"lat": 38.887783, "is_disabled": 0, "type": "electric_scooter", "lon": -76.97641516666667, "bike_id": "dd7124e720c137f1616a46c6adf682ed", "fusion_lat": 0.0, "name": "dd7124e720c137f1616a46c6adf682ed", "is_reserved": 0, "rental_uris": {"android": "https://dc.lft.to/lastmile_qr_scan", "ios": "https://dc.lft.to/lastmile_qr_scan"}, "fusion_lon": 0.0}, {"lat": 38.90729016666667, "is_disabled": 0, "type": "electric_scooter", "lon": -76.998056, "bike_id": "e2ed6be2dd542e9d9bc621e9e7336b5e", "fusion_lat": 0.0, "name": "e2ed6be2dd542e9d9bc621e9e7336b5e", "is_reserved": 0, "rental_uris": {"android": "https://dc.lft.to/lastmile_qr_scan", "ios": "https://dc.lft.to/lastmile_qr_scan"}, "fusion_lon": 0.0}, {"lat": 38.904763833333334, "is_disabled": 0, "type": "electric_scooter", "lon": -77.00759833333333, "bike_id": "5ec0056fa8e0acbad4de58b6863113d9", "fusion_lat": 0.0, "name": "5ec0056fa8e0acbad4de58b6863113d9", "is_reserved": 0, "rental_uris": {"android": "https://dc.lft.to/lastmile_qr_scan", "ios": "https://dc.lft.to/lastmile_qr_scan"}, "fusion_lon": 0.0}, {"lat": 38.99604866666667, "is_disabled": 0, "type": "electric_scooter", "lon": -77.0320145, "bike_id": "f1a0554cc663e0fd9ce7bcb5e019495e", "fusion_lat": 0.0, "name": "f1a0554cc663e0fd9ce7bcb5e019495e", "is_reserved": 0, "rental_uris": {"android": "https://dc.lft.to/lastmile_qr_scan", "ios": "https://dc.lft.to/lastmile_qr_scan"}, "fusion_lon": 0.0}, {"lat": 38.90723833333333, "is_disabled": 0, "type": "electric_scooter", "lon": -77.01344516666667, "bike_id": "d5b18128956b5c6ef3afee1cfc902d4f", "fusion_lat": 0.0, "name": "d5b18128956b5c6ef3afee1cfc902d4f", "is_reserved": 0, "rental_uris": {"android": "https://dc.lft.to/lastmile_qr_scan", "ios": "https://dc.lft.to/lastmile_qr_scan"}, "fusion_lon": 0.0}, {"lat": 38.89222183333333, "is_disabled": 0, "type": "electric_scooter", "lon": -77.03977216666667, "bike_id": "cd356fcf52610bece5dfc49bcdd41170", "fusion_lat": 0.0, "name": "cd356fcf52610bece5dfc49bcdd41170", "is_reserved": 0, "rental_uris": {"android": "https://dc.lft.to/lastmile_qr_scan", "ios": "https://dc.lft.to/lastmile_qr_scan"}, "fusion_lon": 0.0}, {"lat": 38.91311533333333, "is_disabled": 0, "type": "electric_scooter", "lon": -77.03219916666667, "bike_id": "ee4b9bfb89e46751a93994cb0931e5a2", "fusion_lat": 0.0, "name": "ee4b9bfb89e46751a93994cb0931e5a2", "is_reserved": 0, "rental_uris": {"android": "https://dc.lft.to/lastmile_qr_scan", "ios": "https://dc.lft.to/lastmile_qr_scan"}, "fusion_lon": 0.0}, {"lat": 38.88748533333333, "is_disabled": 0, "type": "electric_scooter", "lon": -77.02069633333333, "bike_id": "df8ecbc79ed2a0efb11bbde9ef885405", "fusion_lat": 0.0, "name": "df8ecbc79ed2a0efb11bbde9ef885405", "is_reserved": 0, "rental_uris": {"android": "https://dc.lft.to/lastmile_qr_scan", "ios": "https://dc.lft.to/lastmile_qr_scan"}, "fusion_lon": 0.0}, {"lat": 38.867145, "is_disabled": 0, "type": "electric_scooter", "lon": -76.98725583333334, "bike_id": "8fa261940dbc013074a6f075d308fb03", "fusion_lat": 0.0, "name": "8fa261940dbc013074a6f075d308fb03", "is_reserved": 0, "rental_uris": {"android": "https://dc.lft.to/lastmile_qr_scan", "ios": "https://dc.lft.to/lastmile_qr_scan"}, "fusion_lon": 0.0}, {"lat": 38.93345816666667, "is_disabled": 0, "type": "electric_scooter", "lon": -77.03844816666667, "bike_id": "42edc00549d709dc19bd7f54311ddb1a", "fusion_lat": 0.0, "name": "42edc00549d709dc19bd7f54311ddb1a", "is_reserved": 0, "rental_uris": {"android": "https://dc.lft.to/lastmile_qr_scan", "ios": "https://dc.lft.to/lastmile_qr_scan"}, "fusion_lon": 0.0}, {"lat": 38.928001, "is_disabled": 0, "type": "electric_scooter", "lon": -76.9848995, "bike_id": "f515f3e74d2c5bb1ea96baf01f1f32c3", "fusion_lat": 0.0, "name": "f515f3e74d2c5bb1ea96baf01f1f32c3", "is_reserved": 0, "rental_uris": {"android": "https://dc.lft.to/lastmile_qr_scan", "ios": "https://dc.lft.to/lastmile_qr_scan"}, "fusion_lon": 0.0}, {"lat": 38.920361, "is_disabled": 0, "type": "electric_scooter", "lon": -76.97803216666667, "bike_id": "57b52d384801c03e06d74cfc2ec7529e", "fusion_lat": 0.0, "name": "57b52d384801c03e06d74cfc2ec7529e", "is_reserved": 0, "rental_uris": {"android": "https://dc.lft.to/lastmile_qr_scan", "ios": "https://dc.lft.to/lastmile_qr_scan"}, "fusion_lon": 0.0}, {"lat": 38.884783666666664, "is_disabled": 0, "type": "electric_scooter", "lon": -77.02402166666667, "bike_id": "269aa2db33f656ea9f704cba2e45f199", "fusion_lat": 0.0, "name": "269aa2db33f656ea9f704cba2e45f199", "is_reserved": 0, "rental_uris": {"android": "https://dc.lft.to/lastmile_qr_scan", "ios": "https://dc.lft.to/lastmile_qr_scan"}, "fusion_lon": 0.0}, {"lat": 38.914221, "is_disabled": 0, "type": "electric_scooter", "lon": -77.03208966666666, "bike_id": "2f7177ee57bfd3fc657b44f74ad38628", "fusion_lat": 0.0, "name": "2f7177ee57bfd3fc657b44f74ad38628", "is_reserved": 0, "rental_uris": {"android": "https://dc.lft.to/lastmile_qr_scan", "ios": "https://dc.lft.to/lastmile_qr_scan"}, "fusion_lon": 0.0}, {"lat": 38.907741333333334, "is_disabled": 0, "type": "electric_scooter", "lon": -77.0039135, "bike_id": "718d712b08e25e0b05183035be4de979", "fusion_lat": 0.0, "name": "718d712b08e25e0b05183035be4de979", "is_reserved": 0, "rental_uris": {"android": "https://dc.lft.to/lastmile_qr_scan", "ios": "https://dc.lft.to/lastmile_qr_scan"}, "fusion_lon": 0.0}, {"lat": 38.804990833333335, "is_disabled": 0, "type": "electric_bike", "lon": -77.041389, "bike_id": "6900bc025fdd43be3fb6bb2118ae13a6", "fusion_lat": 0.0, "name": "6900bc025fdd43be3fb6bb2118ae13a6", "is_reserved": 0, "rental_uris": {"android": "https://dc.lft.to/lastmile_qr_scan", "ios": "https://dc.lft.to/lastmile_qr_scan"}, "fusion_lon": 0.0}, {"lat": 38.9533185, "is_disabled": 0, "type": "electric_bike", "lon": -76.98816733333334, "bike_id": "f64d21a3344a58d9d7308ca59b45ac53", "fusion_lat": 0.0, "name": "f64d21a3344a58d9d7308ca59b45ac53", "is_reserved": 0, "rental_uris": {"android": "https://dc.lft.to/lastmile_qr_scan", "ios": "https://dc.lft.to/lastmile_qr_scan"}, "fusion_lon": 0.0}, {"lat": 38.84429633333333, "is_disabled": 0, "type": "electric_scooter", "lon": -76.99779016666666, "bike_id": "94fc030cb28eff0105476b1dd8d7f8c6", "fusion_lat": 0.0, "name": "94fc030cb28eff0105476b1dd8d7f8c6", "is_reserved": 0, "rental_uris": {"android": "https://dc.lft.to/lastmile_qr_scan", "ios": "https://dc.lft.to/lastmile_qr_scan"}, "fusion_lon": 0.0}, {"lat": 38.917118333333335, "is_disabled": 0, "type": "electric_scooter", "lon": -77.010998, "bike_id": "2575c12dde711a34f966713a59c93d4a", "fusion_lat": 0.0, "name": "2575c12dde711a34f966713a59c93d4a", "is_reserved": 0, "rental_uris": {"android": "https://dc.lft.to/lastmile_qr_scan", "ios": "https://dc.lft.to/lastmile_qr_scan"}, "fusion_lon": 0.0}, {"lat": 38.91685833333333, "is_disabled": 0, "type": "electric_scooter", "lon": -77.02948666666667, "bike_id": "4a7342887bb002b78cf58594924fcd76", "fusion_lat": 0.0, "name": "4a7342887bb002b78cf58594924fcd76", "is_reserved": 0, "rental_uris": {"android": "https://dc.lft.to/lastmile_qr_scan", "ios": "https://dc.lft.to/lastmile_qr_scan"}, "fusion_lon": 0.0}, {"lat": 38.92248816666667, "is_disabled": 0, "type": "electric_scooter", "lon": -77.03887166666667, "bike_id": "efc48fbc703af95f4f752ec7b68503de", "fusion_lat": 0.0, "name": "efc48fbc703af95f4f752ec7b68503de", "is_reserved": 0, "rental_uris": {"android": "https://dc.lft.to/lastmile_qr_scan", "ios": "https://dc.lft.to/lastmile_qr_scan"}, "fusion_lon": 0.0}, {"lat": 38.90732966666667, "is_disabled": 0, "type": "electric_scooter", "lon": -77.031739, "bike_id": "ba0f11cc726422a0c46f0622826109ab", "fusion_lat": 0.0, "name": "ba0f11cc726422a0c46f0622826109ab", "is_reserved": 0, "rental_uris": {"android": "https://dc.lft.to/lastmile_qr_scan", "ios": "https://dc.lft.to/lastmile_qr_scan"}, "fusion_lon": 0.0}, {"lat": 38.866173333333336, "is_disabled": 0, "type": "electric_scooter", "lon": -76.98646, "bike_id": "3fdcbe25b4e5210afd0e0e4cc8d0198c", "fusion_lat": 0.0, "name": "3fdcbe25b4e5210afd0e0e4cc8d0198c", "is_reserved": 0, "rental_uris": {"android": "https://dc.lft.to/lastmile_qr_scan", "ios": "https://dc.lft.to/lastmile_qr_scan"}, "fusion_lon": 0.0}, {"lat": 38.915603833333336, "is_disabled": 0, "type": "electric_scooter", "lon": -77.03237116666666, "bike_id": "4ed17a55a026e58b74b867e1201f41cf", "fusion_lat": 0.0, "name": "4ed17a55a026e58b74b867e1201f41cf", "is_reserved": 0, "rental_uris": {"android": "https://dc.lft.to/lastmile_qr_scan", "ios": "https://dc.lft.to/lastmile_qr_scan"}, "fusion_lon": 0.0}, {"lat": 38.907309166666664, "is_disabled": 0, "type": "electric_scooter", "lon": -77.04824166666667, "bike_id": "2519976af0bbd5a0fdfe2888716275ab", "fusion_lat": 0.0, "name": "2519976af0bbd5a0fdfe2888716275ab", "is_reserved": 0, "rental_uris": {"android": "https://dc.lft.to/lastmile_qr_scan", "ios": "https://dc.lft.to/lastmile_qr_scan"}, "fusion_lon": 0.0}, {"lat": 39.0305185, "is_disabled": 0, "type": "electric_bike", "lon": -77.094816, "bike_id": "690df8c0a3325e0681f2859432926d86", "fusion_lat": 0.0, "name": "690df8c0a3325e0681f2859432926d86", "is_reserved": 0, "rental_uris": {"android": "https://dc.lft.to/lastmile_qr_scan", "ios": "https://dc.lft.to/lastmile_qr_scan"}, "fusion_lon": 0.0}, {"lat": 38.921844666666665, "is_disabled": 0, "type": "electric_scooter", "lon": -77.04225266666667, "bike_id": "f98b74a87f8da36ab807f11008b78eee", "fusion_lat": 0.0, "name": "f98b74a87f8da36ab807f11008b78eee", "is_reserved": 0, "rental_uris": {"android": "https://dc.lft.to/lastmile_qr_scan", "ios": "https://dc.lft.to/lastmile_qr_scan"}, "fusion_lon": 0.0}, {"lat": 38.9096995, "is_disabled": 0, "type": "electric_scooter", "lon": -77.0451255, "bike_id": "147c058de1a7e1a40f556c9750a3c7e1", "fusion_lat": 0.0, "name": "147c058de1a7e1a40f556c9750a3c7e1", "is_reserved": 0, "rental_uris": {"android": "https://dc.lft.to/lastmile_qr_scan", "ios": "https://dc.lft.to/lastmile_qr_scan"}, "fusion_lon": 0.0}, {"lat": 38.91709516666667, "is_disabled": 0, "type": "electric_scooter", "lon": -77.035557, "bike_id": "34a4c659df31b477a8ee2344f845b42e", "fusion_lat": 0.0, "name": "34a4c659df31b477a8ee2344f845b42e", "is_reserved": 0, "rental_uris": {"android": "https://dc.lft.to/lastmile_qr_scan", "ios": "https://dc.lft.to/lastmile_qr_scan"}, "fusion_lon": 0.0}, {"lat": 38.93683566666667, "is_disabled": 0, "type": "electric_scooter", "lon": -77.0357285, "bike_id": "3ea659673f8559d34dcc80b0039a1e63", "fusion_lat": 0.0, "name": "3ea659673f8559d34dcc80b0039a1e63", "is_reserved": 0, "rental_uris": {"android": "https://dc.lft.to/lastmile_qr_scan", "ios": "https://dc.lft.to/lastmile_qr_scan"}, "fusion_lon": 0.0}, {"lat": 38.923276666666666, "is_disabled": 0, "type": "electric_scooter", "lon": -77.03900866666666, "bike_id": "15d0d2084c4b3888dbaa9d4f3bac3056", "fusion_lat": 0.0, "name": "15d0d2084c4b3888dbaa9d4f3bac3056", "is_reserved": 0, "rental_uris": {"android": "https://dc.lft.to/lastmile_qr_scan", "ios": "https://dc.lft.to/lastmile_qr_scan"}, "fusion_lon": 0.0}, {"lat": 38.907573, "is_disabled": 0, "type": "electric_scooter", "lon": -76.998695, "bike_id": "837b990578abc43e88d22288047e1e56", "fusion_lat": 0.0, "name": "837b990578abc43e88d22288047e1e56", "is_reserved": 0, "rental_uris": {"android": "https://dc.lft.to/lastmile_qr_scan", "ios": "https://dc.lft.to/lastmile_qr_scan"}, "fusion_lon": 0.0}, {"lat": 38.928898833333335, "is_disabled": 0, "type": "electric_scooter", "lon": -77.03249316666667, "bike_id": "d3f28ca4c0c0e81f06c05b348aac6a17", "fusion_lat": 0.0, "name": "d3f28ca4c0c0e81f06c05b348aac6a17", "is_reserved": 0, "rental_uris": {"android": "https://dc.lft.to/lastmile_qr_scan", "ios": "https://dc.lft.to/lastmile_qr_scan"}, "fusion_lon": 0.0}, {"lat": 38.9289645, "is_disabled": 0, "type": "electric_scooter", "lon": -77.03262283333333, "bike_id": "e1f94af99b78824363891fb6378e0e18", "fusion_lat": 0.0, "name": "e1f94af99b78824363891fb6378e0e18", "is_reserved": 0, "rental_uris": {"android": "https://dc.lft.to/lastmile_qr_scan", "ios": "https://dc.lft.to/lastmile_qr_scan"}, "fusion_lon": 0.0}, {"lat": 38.92200166666667, "is_disabled": 0, "type": "electric_scooter", "lon": -77.04256366666667, "bike_id": "bf15c0c689cae3e7fbd34cbd7019aaf3", "fusion_lat": 0.0, "name": "bf15c0c689cae3e7fbd34cbd7019aaf3", "is_reserved": 0, "rental_uris": {"android": "https://dc.lft.to/lastmile_qr_scan", "ios": "https://dc.lft.to/lastmile_qr_scan"}, "fusion_lon": 0.0}, {"lat": 38.88514416666666, "is_disabled": 0, "type": "electric_scooter", "lon": -77.00569933333334, "bike_id": "b62490c720c2c1ddefb4d7e705f1cfaa", "fusion_lat": 0.0, "name": "b62490c720c2c1ddefb4d7e705f1cfaa", "is_reserved": 0, "rental_uris": {"android": "https://dc.lft.to/lastmile_qr_scan", "ios": "https://dc.lft.to/lastmile_qr_scan"}, "fusion_lon": 0.0}, {"lat": 38.89512416666667, "is_disabled": 0, "type": "electric_scooter", "lon": -77.0435775, "bike_id": "c8005984cf905b87c75ece6c834aeed7", "fusion_lat": 0.0, "name": "c8005984cf905b87c75ece6c834aeed7", "is_reserved": 0, "rental_uris": {"android": "https://dc.lft.to/lastmile_qr_scan", "ios": "https://dc.lft.to/lastmile_qr_scan"}, "fusion_lon": 0.0}, {"lat": 38.908898, "is_disabled": 0, "type": "electric_scooter", "lon": -77.04325616666667, "bike_id": "56c82775586a42bd1376673db7bd8a4e", "fusion_lat": 0.0, "name": "56c82775586a42bd1376673db7bd8a4e", "is_reserved": 0, "rental_uris": {"android": "https://dc.lft.to/lastmile_qr_scan", "ios": "https://dc.lft.to/lastmile_qr_scan"}, "fusion_lon": 0.0}, {"lat": 38.92625966666667, "is_disabled": 0, "type": "electric_scooter", "lon": -77.0378295, "bike_id": "b9c0246726beafb6b4091b1e480c70de", "fusion_lat": 0.0, "name": "b9c0246726beafb6b4091b1e480c70de", "is_reserved": 0, "rental_uris": {"android": "https://dc.lft.to/lastmile_qr_scan", "ios": "https://dc.lft.to/lastmile_qr_scan"}, "fusion_lon": 0.0}, {"lat": 38.92151633333334, "is_disabled": 0, "type": "electric_scooter", "lon": -77.03448666666667, "bike_id": "a63e554a95586be371ee02a1d6018783", "fusion_lat": 0.0, "name": "a63e554a95586be371ee02a1d6018783", "is_reserved": 0, "rental_uris": {"android": "https://dc.lft.to/lastmile_qr_scan", "ios": "https://dc.lft.to/lastmile_qr_scan"}, "fusion_lon": 0.0}, {"lat": 38.902415833333336, "is_disabled": 0, "type": "electric_scooter", "lon": -77.0435075, "bike_id": "a0767b4b46a8be7ae6a2ae8fef2eb678", "fusion_lat": 0.0, "name": "a0767b4b46a8be7ae6a2ae8fef2eb678", "is_reserved": 0, "rental_uris": {"android": "https://dc.lft.to/lastmile_qr_scan", "ios": "https://dc.lft.to/lastmile_qr_scan"}, "fusion_lon": 0.0}, {"lat": 38.95881833333333, "is_disabled": 0, "type": "electric_bike", "lon": -76.9249095, "bike_id": "84439f81ee12da8cbb74b113188c358a", "fusion_lat": 0.0, "name": "84439f81ee12da8cbb74b113188c358a", "is_reserved": 0, "rental_uris": {"android": "https://dc.lft.to/lastmile_qr_scan", "ios": "https://dc.lft.to/lastmile_qr_scan"}, "fusion_lon": 0.0}, {"lat": 38.91707383333333, "is_disabled": 0, "type": "electric_scooter", "lon": -77.0321775, "bike_id": "8d4a4f3516fb6778224d730650a7b2ff", "fusion_lat": 0.0, "name": "8d4a4f3516fb6778224d730650a7b2ff", "is_reserved": 0, "rental_uris": {"android": "https://dc.lft.to/lastmile_qr_scan", "ios": "https://dc.lft.to/lastmile_qr_scan"}, "fusion_lon": 0.0}, {"lat": 38.916815166666666, "is_disabled": 0, "type": "electric_scooter", "lon": -77.00196716666666, "bike_id": "d65edce5b9c04db5b46b12a76af3b7e8", "fusion_lat": 0.0, "name": "d65edce5b9c04db5b46b12a76af3b7e8", "is_reserved": 0, "rental_uris": {"android": "https://dc.lft.to/lastmile_qr_scan", "ios": "https://dc.lft.to/lastmile_qr_scan"}, "fusion_lon": 0.0}, {"lat": 38.91756916666667, "is_disabled": 0, "type": "electric_scooter", "lon": -76.97623383333334, "bike_id": "33671736e336d11b73cc2a97dc30208e", "fusion_lat": 0.0, "name": "33671736e336d11b73cc2a97dc30208e", "is_reserved": 0, "rental_uris": {"android": "https://dc.lft.to/lastmile_qr_scan", "ios": "https://dc.lft.to/lastmile_qr_scan"}, "fusion_lon": 0.0}, {"lat": 38.883655166666664, "is_disabled": 0, "type": "electric_scooter", "lon": -76.94153483333334, "bike_id": "8f800110355260ca5f95955b71fc93b6", "fusion_lat": 0.0, "name": "8f800110355260ca5f95955b71fc93b6", "is_reserved": 0, "rental_uris": {"android": "https://dc.lft.to/lastmile_qr_scan", "ios": "https://dc.lft.to/lastmile_qr_scan"}, "fusion_lon": 0.0}, {"lat": 38.973270666666664, "is_disabled": 0, "type": "electric_bike", "lon": -77.0214835, "bike_id": "ef032c7ef3cd9d0659caba88b892c711", "fusion_lat": 0.0, "name": "ef032c7ef3cd9d0659caba88b892c711", "is_reserved": 0, "rental_uris": {"android": "https://dc.lft.to/lastmile_qr_scan", "ios": "https://dc.lft.to/lastmile_qr_scan"}, "fusion_lon": 0.0}, {"lat": 38.923197, "is_disabled": 0, "type": "electric_scooter", "lon": -77.0412185, "bike_id": "cf32fe6d941b99d021f42879532eb02c", "fusion_lat": 0.0, "name": "cf32fe6d941b99d021f42879532eb02c", "is_reserved": 0, "rental_uris": {"android": "https://dc.lft.to/lastmile_qr_scan", "ios": "https://dc.lft.to/lastmile_qr_scan"}, "fusion_lon": 0.0}, {"lat": 38.88306933333333, "is_disabled": 0, "type": "electric_bike", "lon": -77.0315755, "bike_id": "dcdcba32f802f9ef45c4295f01ed2211", "fusion_lat": 0.0, "name": "dcdcba32f802f9ef45c4295f01ed2211", "is_reserved": 0, "rental_uris": {"android": "https://dc.lft.to/lastmile_qr_scan", "ios": "https://dc.lft.to/lastmile_qr_scan"}, "fusion_lon": 0.0}, {"lat": 39.030505, "is_disabled": 0, "type": "electric_bike", "lon": -77.09479366666666, "bike_id": "9e8f903a90726ebbf9ba9c7904428f4a", "fusion_lat": 0.0, "name": "9e8f903a90726ebbf9ba9c7904428f4a", "is_reserved": 0, "rental_uris": {"android": "https://dc.lft.to/lastmile_qr_scan", "ios": "https://dc.lft.to/lastmile_qr_scan"}, "fusion_lon": 0.0}, {"lat": 38.872176833333334, "is_disabled": 0, "type": "electric_scooter", "lon": -77.01762883333333, "bike_id": "0a85d2ef27c34328c026213f5fcfebc1", "fusion_lat": 0.0, "name": "0a85d2ef27c34328c026213f5fcfebc1", "is_reserved": 0, "rental_uris": {"android": "https://dc.lft.to/lastmile_qr_scan", "ios": "https://dc.lft.to/lastmile_qr_scan"}, "fusion_lon": 0.0}, {"lat": 38.916853333333336, "is_disabled": 0, "type": "electric_scooter", "lon": -77.02949483333333, "bike_id": "e17d9722fef971277a430e037d054c87", "fusion_lat": 0.0, "name": "e17d9722fef971277a430e037d054c87", "is_reserved": 0, "rental_uris": {"android": "https://dc.lft.to/lastmile_qr_scan", "ios": "https://dc.lft.to/lastmile_qr_scan"}, "fusion_lon": 0.0}, {"lat": 38.90280933333333, "is_disabled": 0, "type": "electric_scooter", "lon": -77.03440416666666, "bike_id": "675d2d2738d8812232bb583e39a3fcea", "fusion_lat": 0.0, "name": "675d2d2738d8812232bb583e39a3fcea", "is_reserved": 0, "rental_uris": {"android": "https://dc.lft.to/lastmile_qr_scan", "ios": "https://dc.lft.to/lastmile_qr_scan"}, "fusion_lon": 0.0}, {"lat": 38.945170166666664, "is_disabled": 0, "type": "electric_scooter", "lon": -77.06392833333334, "bike_id": "a8d9f8da434c011cfa88823960117a4c", "fusion_lat": 0.0, "name": "a8d9f8da434c011cfa88823960117a4c", "is_reserved": 0, "rental_uris": {"android": "https://dc.lft.to/lastmile_qr_scan", "ios": "https://dc.lft.to/lastmile_qr_scan"}, "fusion_lon": 0.0}, {"lat": 39.02431216666667, "is_disabled": 0, "type": "electric_bike", "lon": -77.13101533333334, "bike_id": "7980975fe16e732780de477a428f5976", "fusion_lat": 0.0, "name": "7980975fe16e732780de477a428f5976", "is_reserved": 0, "rental_uris": {"android": "https://dc.lft.to/lastmile_qr_scan", "ios": "https://dc.lft.to/lastmile_qr_scan"}, "fusion_lon": 0.0}, {"lat": 38.88709166666666, "is_disabled": 0, "type": "electric_scooter", "lon": -77.0319575, "bike_id": "154d025a923c7b7fca335b1649ae657d", "fusion_lat": 0.0, "name": "154d025a923c7b7fca335b1649ae657d", "is_reserved": 0, "rental_uris": {"android": "https://dc.lft.to/lastmile_qr_scan", "ios": "https://dc.lft.to/lastmile_qr_scan"}, "fusion_lon": 0.0}, {"lat": 38.88585333333333, "is_disabled": 0, "type": "electric_scooter", "lon": -77.01228266666666, "bike_id": "05fbe10cc90aecfacf79503436ea489d", "fusion_lat": 0.0, "name": "05fbe10cc90aecfacf79503436ea489d", "is_reserved": 0, "rental_uris": {"android": "https://dc.lft.to/lastmile_qr_scan", "ios": "https://dc.lft.to/lastmile_qr_scan"}, "fusion_lon": 0.0}, {"lat": 38.964943166666664, "is_disabled": 0, "type": "electric_bike", "lon": -76.938462, "bike_id": "ce92ff8424d4778811b6a9cb39542021", "fusion_lat": 0.0, "name": "ce92ff8424d4778811b6a9cb39542021", "is_reserved": 0, "rental_uris": {"android": "https://dc.lft.to/lastmile_qr_scan", "ios": "https://dc.lft.to/lastmile_qr_scan"}, "fusion_lon": 0.0}, {"lat": 38.86236666666667, "is_disabled": 0, "type": "electric_scooter", "lon": -76.99545883333333, "bike_id": "0df36368333872399ef2872bc302aaaa", "fusion_lat": 0.0, "name": "0df36368333872399ef2872bc302aaaa", "is_reserved": 0, "rental_uris": {"android": "https://dc.lft.to/lastmile_qr_scan", "ios": "https://dc.lft.to/lastmile_qr_scan"}, "fusion_lon": 0.0}, {"lat": 38.936167, "is_disabled": 0, "type": "electric_scooter", "lon": -77.03215716666666, "bike_id": "1596ccacef69a93057e4f3aec0575d79", "fusion_lat": 0.0, "name": "1596ccacef69a93057e4f3aec0575d79", "is_reserved": 0, "rental_uris": {"android": "https://dc.lft.to/lastmile_qr_scan", "ios": "https://dc.lft.to/lastmile_qr_scan"}, "fusion_lon": 0.0}, {"lat": 38.90774183333333, "is_disabled": 0, "type": "electric_scooter", "lon": -77.03861983333333, "bike_id": "fdedba1e0af56268a5d4a807aa53a935", "fusion_lat": 0.0, "name": "fdedba1e0af56268a5d4a807aa53a935", "is_reserved": 0, "rental_uris": {"android": "https://dc.lft.to/lastmile_qr_scan", "ios": "https://dc.lft.to/lastmile_qr_scan"}, "fusion_lon": 0.0}, {"lat": 38.90970933333333, "is_disabled": 0, "type": "electric_scooter", "lon": -77.0216325, "bike_id": "48cf5c2a96552c2aab228548758123dc", "fusion_lat": 0.0, "name": "48cf5c2a96552c2aab228548758123dc", "is_reserved": 0, "rental_uris": {"android": "https://dc.lft.to/lastmile_qr_scan", "ios": "https://dc.lft.to/lastmile_qr_scan"}, "fusion_lon": 0.0}, {"lat": 38.90274333333333, "is_disabled": 0, "type": "electric_scooter", "lon": -77.0345025, "bike_id": "aee07aa4b3694ec74f4c1366bdf46ce8", "fusion_lat": 0.0, "name": "aee07aa4b3694ec74f4c1366bdf46ce8", "is_reserved": 0, "rental_uris": {"android": "https://dc.lft.to/lastmile_qr_scan", "ios": "https://dc.lft.to/lastmile_qr_scan"}, "fusion_lon": 0.0}, {"lat": 38.924666333333334, "is_disabled": 0, "type": "electric_scooter", "lon": -77.03965066666666, "bike_id": "7c6732dc2986a81547296a0a42f0d6ce", "fusion_lat": 0.0, "name": "7c6732dc2986a81547296a0a42f0d6ce", "is_reserved": 0, "rental_uris": {"android": "https://dc.lft.to/lastmile_qr_scan", "ios": "https://dc.lft.to/lastmile_qr_scan"}, "fusion_lon": 0.0}, {"lat": 38.903628833333336, "is_disabled": 0, "type": "electric_scooter", "lon": -76.97652733333334, "bike_id": "f44d0b15caf69b9df4b739c80df84303", "fusion_lat": 0.0, "name": "f44d0b15caf69b9df4b739c80df84303", "is_reserved": 0, "rental_uris": {"android": "https://dc.lft.to/lastmile_qr_scan", "ios": "https://dc.lft.to/lastmile_qr_scan"}, "fusion_lon": 0.0}, {"lat": 38.793100833333334, "is_disabled": 0, "type": "electric_bike", "lon": -77.04924466666667, "bike_id": "32564df8eea3629af48013cbc7924828", "fusion_lat": 0.0, "name": "32564df8eea3629af48013cbc7924828", "is_reserved": 0, "rental_uris": {"android": "https://dc.lft.to/lastmile_qr_scan", "ios": "https://dc.lft.to/lastmile_qr_scan"}, "fusion_lon": 0.0}, {"lat": 38.895872833333335, "is_disabled": 0, "type": "electric_scooter", "lon": -77.04361533333334, "bike_id": "cf0058f5e36220a33bcc1de19a377ea9", "fusion_lat": 0.0, "name": "cf0058f5e36220a33bcc1de19a377ea9", "is_reserved": 0, "rental_uris": {"android": "https://dc.lft.to/lastmile_qr_scan", "ios": "https://dc.lft.to/lastmile_qr_scan"}, "fusion_lon": 0.0}, {"lat": 38.90209866666667, "is_disabled": 0, "type": "electric_scooter", "lon": -76.9884735, "bike_id": "b80ece50d9ead11781c65ee7b0043abb", "fusion_lat": 0.0, "name": "b80ece50d9ead11781c65ee7b0043abb", "is_reserved": 0, "rental_uris": {"android": "https://dc.lft.to/lastmile_qr_scan", "ios": "https://dc.lft.to/lastmile_qr_scan"}, "fusion_lon": 0.0}, {"lat": 38.9465595, "is_disabled": 0, "type": "electric_scooter", "lon": -77.064726, "bike_id": "06df405a779c05213d443de0359c8cd2", "fusion_lat": 0.0, "name": "06df405a779c05213d443de0359c8cd2", "is_reserved": 0, "rental_uris": {"android": "https://dc.lft.to/lastmile_qr_scan", "ios": "https://dc.lft.to/lastmile_qr_scan"}, "fusion_lon": 0.0}, {"lat": 38.89659533333333, "is_disabled": 0, "type": "electric_scooter", "lon": -77.00912216666667, "bike_id": "df1fde7c61d4f49395a9939b74a5eadc", "fusion_lat": 0.0, "name": "df1fde7c61d4f49395a9939b74a5eadc", "is_reserved": 0, "rental_uris": {"android": "https://dc.lft.to/lastmile_qr_scan", "ios": "https://dc.lft.to/lastmile_qr_scan"}, "fusion_lon": 0.0}, {"lat": 38.92058633333333, "is_disabled": 0, "type": "electric_scooter", "lon": -77.0334085, "bike_id": "bf601f836b2af14da7bae47340ee2005", "fusion_lat": 0.0, "name": "bf601f836b2af14da7bae47340ee2005", "is_reserved": 0, "rental_uris": {"android": "https://dc.lft.to/lastmile_qr_scan", "ios": "https://dc.lft.to/lastmile_qr_scan"}, "fusion_lon": 0.0}, {"lat": 38.9247095, "is_disabled": 0, "type": "electric_scooter", "lon": -77.03934533333333, "bike_id": "20859226744291114bcf4baa487d67ab", "fusion_lat": 0.0, "name": "20859226744291114bcf4baa487d67ab", "is_reserved": 0, "rental_uris": {"android": "https://dc.lft.to/lastmile_qr_scan", "ios": "https://dc.lft.to/lastmile_qr_scan"}, "fusion_lon": 0.0}, {"lat": 38.926633, "is_disabled": 0, "type": "electric_scooter", "lon": -77.05597583333333, "bike_id": "9a15e04292f72f2641981aa270f142de", "fusion_lat": 0.0, "name": "9a15e04292f72f2641981aa270f142de", "is_reserved": 0, "rental_uris": {"android": "https://dc.lft.to/lastmile_qr_scan", "ios": "https://dc.lft.to/lastmile_qr_scan"}, "fusion_lon": 0.0}, {"lat": 38.89871016666667, "is_disabled": 0, "type": "electric_scooter", "lon": -77.02792533333333, "bike_id": "84e7b90ce0a325bf1e06c2dfce248648", "fusion_lat": 0.0, "name": "84e7b90ce0a325bf1e06c2dfce248648", "is_reserved": 0, "rental_uris": {"android": "https://dc.lft.to/lastmile_qr_scan", "ios": "https://dc.lft.to/lastmile_qr_scan"}, "fusion_lon": 0.0}, {"lat": 38.91960566666667, "is_disabled": 0, "type": "electric_scooter", "lon": -77.03961183333334, "bike_id": "80959c6f3924b8004a858993444a7081", "fusion_lat": 0.0, "name": "80959c6f3924b8004a858993444a7081", "is_reserved": 0, "rental_uris": {"android": "https://dc.lft.to/lastmile_qr_scan", "ios": "https://dc.lft.to/lastmile_qr_scan"}, "fusion_lon": 0.0}, {"lat": 38.895483, "is_disabled": 0, "type": "electric_scooter", "lon": -76.9336375, "bike_id": "19ca7004d916afd712f5db167d7b47db", "fusion_lat": 0.0, "name": "19ca7004d916afd712f5db167d7b47db", "is_reserved": 0, "rental_uris": {"android": "https://dc.lft.to/lastmile_qr_scan", "ios": "https://dc.lft.to/lastmile_qr_scan"}, "fusion_lon": 0.0}, {"lat": 38.915648833333336, "is_disabled": 0, "type": "electric_scooter", "lon": -77.0315415, "bike_id": "f343232f62f98d33acc782adcdb0c9b7", "fusion_lat": 0.0, "name": "f343232f62f98d33acc782adcdb0c9b7", "is_reserved": 0, "rental_uris": {"android": "https://dc.lft.to/lastmile_qr_scan", "ios": "https://dc.lft.to/lastmile_qr_scan"}, "fusion_lon": 0.0}, {"lat": 38.911076333333334, "is_disabled": 0, "type": "electric_scooter", "lon": -77.03082316666666, "bike_id": "0b5e5caba5aa0b6c52ddbd332148f1e9", "fusion_lat": 0.0, "name": "0b5e5caba5aa0b6c52ddbd332148f1e9", "is_reserved": 0, "rental_uris": {"android": "https://dc.lft.to/lastmile_qr_scan", "ios": "https://dc.lft.to/lastmile_qr_scan"}, "fusion_lon": 0.0}, {"lat": 38.9171195, "is_disabled": 0, "type": "electric_scooter", "lon": -77.00867816666667, "bike_id": "6ed0411f89baeb95181c2f23de130508", "fusion_lat": 0.0, "name": "6ed0411f89baeb95181c2f23de130508", "is_reserved": 0, "rental_uris": {"android": "https://dc.lft.to/lastmile_qr_scan", "ios": "https://dc.lft.to/lastmile_qr_scan"}, "fusion_lon": 0.0}, {"lat": 38.85795916666667, "is_disabled": 0, "type": "electric_bike", "lon": -77.099607, "bike_id": "a3894695026ef3bad0a7d61e631a5b4e", "fusion_lat": 0.0, "name": "a3894695026ef3bad0a7d61e631a5b4e", "is_reserved": 0, "rental_uris": {"android": "https://dc.lft.to/lastmile_qr_scan", "ios": "https://dc.lft.to/lastmile_qr_scan"}, "fusion_lon": 0.0}, {"lat": 38.91548183333333, "is_disabled": 0, "type": "electric_scooter", "lon": -77.03177733333334, "bike_id": "ecb0c01851eafcfb9278e356b650263e", "fusion_lat": 0.0, "name": "ecb0c01851eafcfb9278e356b650263e", "is_reserved": 0, "rental_uris": {"android": "https://dc.lft.to/lastmile_qr_scan", "ios": "https://dc.lft.to/lastmile_qr_scan"}, "fusion_lon": 0.0}, {"lat": 38.92208, "is_disabled": 0, "type": "electric_scooter", "lon": -77.0377545, "bike_id": "880a9b7c15db9c2c2ecd1011b536e62f", "fusion_lat": 0.0, "name": "880a9b7c15db9c2c2ecd1011b536e62f", "is_reserved": 0, "rental_uris": {"android": "https://dc.lft.to/lastmile_qr_scan", "ios": "https://dc.lft.to/lastmile_qr_scan"}, "fusion_lon": 0.0}, {"lat": 38.87687833333333, "is_disabled": 0, "type": "electric_scooter", "lon": -77.0176085, "bike_id": "abc9ff50701959498b27a330ce1614d5", "fusion_lat": 0.0, "name": "abc9ff50701959498b27a330ce1614d5", "is_reserved": 0, "rental_uris": {"android": "https://dc.lft.to/lastmile_qr_scan", "ios": "https://dc.lft.to/lastmile_qr_scan"}, "fusion_lon": 0.0}, {"lat": 38.9170455, "is_disabled": 0, "type": "electric_scooter", "lon": -77.037164, "bike_id": "2894777c164a32573df6c998df56c4e7", "fusion_lat": 0.0, "name": "2894777c164a32573df6c998df56c4e7", "is_reserved": 0, "rental_uris": {"android": "https://dc.lft.to/lastmile_qr_scan", "ios": "https://dc.lft.to/lastmile_qr_scan"}, "fusion_lon": 0.0}, {"lat": 38.916941666666666, "is_disabled": 0, "type": "electric_scooter", "lon": -77.04595716666667, "bike_id": "715cfd75e20afd3fca0b34d5daf91c78", "fusion_lat": 0.0, "name": "715cfd75e20afd3fca0b34d5daf91c78", "is_reserved": 0, "rental_uris": {"android": "https://dc.lft.to/lastmile_qr_scan", "ios": "https://dc.lft.to/lastmile_qr_scan"}, "fusion_lon": 0.0}, {"lat": 38.91113283333333, "is_disabled": 0, "type": "electric_scooter", "lon": -77.021688, "bike_id": "ff1eface37d0805eb5b8883f3cdc2c64", "fusion_lat": 0.0, "name": "ff1eface37d0805eb5b8883f3cdc2c64", "is_reserved": 0, "rental_uris": {"android": "https://dc.lft.to/lastmile_qr_scan", "ios": "https://dc.lft.to/lastmile_qr_scan"}, "fusion_lon": 0.0}, {"lat": 38.85317883333333, "is_disabled": 0, "type": "electric_scooter", "lon": -76.98027866666666, "bike_id": "bde1aed12422dc7cd2a1ba66b8e52874", "fusion_lat": 0.0, "name": "bde1aed12422dc7cd2a1ba66b8e52874", "is_reserved": 0, "rental_uris": {"android": "https://dc.lft.to/lastmile_qr_scan", "ios": "https://dc.lft.to/lastmile_qr_scan"}, "fusion_lon": 0.0}, {"lat": 38.927492666666666, "is_disabled": 0, "type": "electric_scooter", "lon": -76.996238, "bike_id": "4814593d7220d68997b0161b084997a6", "fusion_lat": 0.0, "name": "4814593d7220d68997b0161b084997a6", "is_reserved": 0, "rental_uris": {"android": "https://dc.lft.to/lastmile_qr_scan", "ios": "https://dc.lft.to/lastmile_qr_scan"}, "fusion_lon": 0.0}, {"lat": 38.87407533333333, "is_disabled": 0, "type": "electric_scooter", "lon": -77.01450366666667, "bike_id": "dc0dbcdb74e89e1ea7e72976918a1a62", "fusion_lat": 0.0, "name": "dc0dbcdb74e89e1ea7e72976918a1a62", "is_reserved": 0, "rental_uris": {"android": "https://dc.lft.to/lastmile_qr_scan", "ios": "https://dc.lft.to/lastmile_qr_scan"}, "fusion_lon": 0.0}, {"lat": 38.907214, "is_disabled": 0, "type": "electric_scooter", "lon": -77.02977, "bike_id": "76a44dc83dc3f84f19bb28cf8647502e", "fusion_lat": 0.0, "name": "76a44dc83dc3f84f19bb28cf8647502e", "is_reserved": 0, "rental_uris": {"android": "https://dc.lft.to/lastmile_qr_scan", "ios": "https://dc.lft.to/lastmile_qr_scan"}, "fusion_lon": 0.0}, {"lat": 38.92767466666667, "is_disabled": 0, "type": "electric_scooter", "lon": -77.03251066666667, "bike_id": "77993247e8f461572d38b2155c17180a", "fusion_lat": 0.0, "name": "77993247e8f461572d38b2155c17180a", "is_reserved": 0, "rental_uris": {"android": "https://dc.lft.to/lastmile_qr_scan", "ios": "https://dc.lft.to/lastmile_qr_scan"}, "fusion_lon": 0.0}, {"lat": 38.937412, "is_disabled": 0, "type": "electric_scooter", "lon": -77.034951, "bike_id": "8406aaa312d7d0dc8acbdb433edb9198", "fusion_lat": 0.0, "name": "8406aaa312d7d0dc8acbdb433edb9198", "is_reserved": 0, "rental_uris": {"android": "https://dc.lft.to/lastmile_qr_scan", "ios": "https://dc.lft.to/lastmile_qr_scan"}, "fusion_lon": 0.0}, {"lat": 38.88122333333333, "is_disabled": 0, "type": "electric_scooter", "lon": -77.0196155, "bike_id": "352a90e6f3d5cede17f3709c00a788ef", "fusion_lat": 0.0, "name": "352a90e6f3d5cede17f3709c00a788ef", "is_reserved": 0, "rental_uris": {"android": "https://dc.lft.to/lastmile_qr_scan", "ios": "https://dc.lft.to/lastmile_qr_scan"}, "fusion_lon": 0.0}, {"lat": 38.92621066666667, "is_disabled": 0, "type": "electric_scooter", "lon": -77.0441655, "bike_id": "6d140ec95f116bfebf77899e6970b4d7", "fusion_lat": 0.0, "name": "6d140ec95f116bfebf77899e6970b4d7", "is_reserved": 0, "rental_uris": {"android": "https://dc.lft.to/lastmile_qr_scan", "ios": "https://dc.lft.to/lastmile_qr_scan"}, "fusion_lon": 0.0}, {"lat": 38.872311833333335, "is_disabled": 0, "type": "electric_scooter", "lon": -77.011923, "bike_id": "94a3413a0fd6d5b85dcade1a627ef732", "fusion_lat": 0.0, "name": "94a3413a0fd6d5b85dcade1a627ef732", "is_reserved": 0, "rental_uris": {"android": "https://dc.lft.to/lastmile_qr_scan", "ios": "https://dc.lft.to/lastmile_qr_scan"}, "fusion_lon": 0.0}, {"lat": 38.9097265, "is_disabled": 0, "type": "electric_scooter", "lon": -77.03857133333334, "bike_id": "a0f22c89a6a33f0d79d8639e38d76c40", "fusion_lat": 0.0, "name": "a0f22c89a6a33f0d79d8639e38d76c40", "is_reserved": 0, "rental_uris": {"android": "https://dc.lft.to/lastmile_qr_scan", "ios": "https://dc.lft.to/lastmile_qr_scan"}, "fusion_lon": 0.0}, {"lat": 38.909738833333336, "is_disabled": 0, "type": "electric_scooter", "lon": -77.03210983333334, "bike_id": "025c36644177bef7972376f020eef078", "fusion_lat": 0.0, "name": "025c36644177bef7972376f020eef078", "is_reserved": 0, "rental_uris": {"android": "https://dc.lft.to/lastmile_qr_scan", "ios": "https://dc.lft.to/lastmile_qr_scan"}, "fusion_lon": 0.0}, {"lat": 38.92886933333333, "is_disabled": 0, "type": "electric_scooter", "lon": -77.03872116666666, "bike_id": "1e8059c598cbbb8a5cfe32c5a366054f", "fusion_lat": 0.0, "name": "1e8059c598cbbb8a5cfe32c5a366054f", "is_reserved": 0, "rental_uris": {"android": "https://dc.lft.to/lastmile_qr_scan", "ios": "https://dc.lft.to/lastmile_qr_scan"}, "fusion_lon": 0.0}, {"lat": 38.901231333333335, "is_disabled": 0, "type": "electric_scooter", "lon": -77.0032515, "bike_id": "160b19f1b6d6e387c09f20e875a1937a", "fusion_lat": 0.0, "name": "160b19f1b6d6e387c09f20e875a1937a", "is_reserved": 0, "rental_uris": {"android": "https://dc.lft.to/lastmile_qr_scan", "ios": "https://dc.lft.to/lastmile_qr_scan"}, "fusion_lon": 0.0}, {"lat": 38.89617916666667, "is_disabled": 0, "type": "electric_scooter", "lon": -76.9565655, "bike_id": "4a6fa94dfc03561e701dfff05c9c5a55", "fusion_lat": 0.0, "name": "4a6fa94dfc03561e701dfff05c9c5a55", "is_reserved": 0, "rental_uris": {"android": "https://dc.lft.to/lastmile_qr_scan", "ios": "https://dc.lft.to/lastmile_qr_scan"}, "fusion_lon": 0.0}, {"lat": 38.93483966666667, "is_disabled": 0, "type": "electric_scooter", "lon": -77.03399333333333, "bike_id": "d8c236936b0ef58de6296f5314ffd76a", "fusion_lat": 0.0, "name": "d8c236936b0ef58de6296f5314ffd76a", "is_reserved": 0, "rental_uris": {"android": "https://dc.lft.to/lastmile_qr_scan", "ios": "https://dc.lft.to/lastmile_qr_scan"}, "fusion_lon": 0.0}, {"lat": 38.924422, "is_disabled": 0, "type": "electric_scooter", "lon": -77.04027083333334, "bike_id": "0c2f4b2d361858ae52f57727f65a3ad8", "fusion_lat": 0.0, "name": "0c2f4b2d361858ae52f57727f65a3ad8", "is_reserved": 0, "rental_uris": {"android": "https://dc.lft.to/lastmile_qr_scan", "ios": "https://dc.lft.to/lastmile_qr_scan"}, "fusion_lon": 0.0}, {"lat": 38.93095, "is_disabled": 0, "type": "electric_scooter", "lon": -77.03752266666666, "bike_id": "58da379256b461e8c3d04dc2d9386c54", "fusion_lat": 0.0, "name": "58da379256b461e8c3d04dc2d9386c54", "is_reserved": 0, "rental_uris": {"android": "https://dc.lft.to/lastmile_qr_scan", "ios": "https://dc.lft.to/lastmile_qr_scan"}, "fusion_lon": 0.0}, {"lat": 38.929189666666666, "is_disabled": 0, "type": "electric_scooter", "lon": -77.03169966666667, "bike_id": "f6d3f68ef87478a00398b1226f12301b", "fusion_lat": 0.0, "name": "f6d3f68ef87478a00398b1226f12301b", "is_reserved": 0, "rental_uris": {"android": "https://dc.lft.to/lastmile_qr_scan", "ios": "https://dc.lft.to/lastmile_qr_scan"}, "fusion_lon": 0.0}, {"lat": 38.908419333333335, "is_disabled": 0, "type": "electric_scooter", "lon": -77.0634645, "bike_id": "f904dcb0997cf06fb97d31a2c9e05c5f", "fusion_lat": 0.0, "name": "f904dcb0997cf06fb97d31a2c9e05c5f", "is_reserved": 0, "rental_uris": {"android": "https://dc.lft.to/lastmile_qr_scan", "ios": "https://dc.lft.to/lastmile_qr_scan"}, "fusion_lon": 0.0}, {"lat": 38.920655, "is_disabled": 0, "type": "electric_scooter", "lon": -77.02496916666666, "bike_id": "05f04d48044258769aaa0035a2147ae7", "fusion_lat": 0.0, "name": "05f04d48044258769aaa0035a2147ae7", "is_reserved": 0, "rental_uris": {"android": "https://dc.lft.to/lastmile_qr_scan", "ios": "https://dc.lft.to/lastmile_qr_scan"}, "fusion_lon": 0.0}, {"lat": 38.890499, "is_disabled": 0, "type": "electric_scooter", "lon": -76.94071783333334, "bike_id": "c6612ec50179dfd91d4c74329cee7c9c", "fusion_lat": 0.0, "name": "c6612ec50179dfd91d4c74329cee7c9c", "is_reserved": 0, "rental_uris": {"android": "https://dc.lft.to/lastmile_qr_scan", "ios": "https://dc.lft.to/lastmile_qr_scan"}, "fusion_lon": 0.0}, {"lat": 38.91414366666667, "is_disabled": 0, "type": "electric_scooter", "lon": -77.02229583333333, "bike_id": "8b7cd4fc970227775727d67e2e241b91", "fusion_lat": 0.0, "name": "8b7cd4fc970227775727d67e2e241b91", "is_reserved": 0, "rental_uris": {"android": "https://dc.lft.to/lastmile_qr_scan", "ios": "https://dc.lft.to/lastmile_qr_scan"}, "fusion_lon": 0.0}, {"lat": 38.897421666666666, "is_disabled": 0, "type": "electric_scooter", "lon": -77.03166966666667, "bike_id": "699eec9c337937937549ed8372521e8e", "fusion_lat": 0.0, "name": "699eec9c337937937549ed8372521e8e", "is_reserved": 0, "rental_uris": {"android": "https://dc.lft.to/lastmile_qr_scan", "ios": "https://dc.lft.to/lastmile_qr_scan"}, "fusion_lon": 0.0}, {"lat": 38.85854833333333, "is_disabled": 0, "type": "electric_bike", "lon": -77.09752266666666, "bike_id": "79d775d3f1ea47bec39698bc6b998d6b", "fusion_lat": 0.0, "name": "79d775d3f1ea47bec39698bc6b998d6b", "is_reserved": 0, "rental_uris": {"android": "https://dc.lft.to/lastmile_qr_scan", "ios": "https://dc.lft.to/lastmile_qr_scan"}, "fusion_lon": 0.0}, {"lat": 38.95874166666667, "is_disabled": 0, "type": "electric_bike", "lon": -76.92507816666667, "bike_id": "39c6568c0d58db7ccaa481a1eb82f070", "fusion_lat": 0.0, "name": "39c6568c0d58db7ccaa481a1eb82f070", "is_reserved": 0, "rental_uris": {"android": "https://dc.lft.to/lastmile_qr_scan", "ios": "https://dc.lft.to/lastmile_qr_scan"}, "fusion_lon": 0.0}, {"lat": 38.895431333333335, "is_disabled": 0, "type": "electric_scooter", "lon": -77.04988033333333, "bike_id": "c3b4c2ae8eccbe4e4d00d0a4b18c6350", "fusion_lat": 0.0, "name": "c3b4c2ae8eccbe4e4d00d0a4b18c6350", "is_reserved": 0, "rental_uris": {"android": "https://dc.lft.to/lastmile_qr_scan", "ios": "https://dc.lft.to/lastmile_qr_scan"}, "fusion_lon": 0.0}, {"lat": 38.91724083333333, "is_disabled": 0, "type": "electric_scooter", "lon": -77.02301316666667, "bike_id": "0efa4f09124042e49b748f5206710762", "fusion_lat": 0.0, "name": "0efa4f09124042e49b748f5206710762", "is_reserved": 0, "rental_uris": {"android": "https://dc.lft.to/lastmile_qr_scan", "ios": "https://dc.lft.to/lastmile_qr_scan"}, "fusion_lon": 0.0}, {"lat": 38.91420466666667, "is_disabled": 0, "type": "electric_scooter", "lon": -77.03172366666666, "bike_id": "6e081ab627da5fe3fb389ab86196a372", "fusion_lat": 0.0, "name": "6e081ab627da5fe3fb389ab86196a372", "is_reserved": 0, "rental_uris": {"android": "https://dc.lft.to/lastmile_qr_scan", "ios": "https://dc.lft.to/lastmile_qr_scan"}, "fusion_lon": 0.0}, {"lat": 38.926775666666664, "is_disabled": 0, "type": "electric_scooter", "lon": -77.00739316666666, "bike_id": "a0fd81295e7c7655b13bf58505c2b9d0", "fusion_lat": 0.0, "name": "a0fd81295e7c7655b13bf58505c2b9d0", "is_reserved": 0, "rental_uris": {"android": "https://dc.lft.to/lastmile_qr_scan", "ios": "https://dc.lft.to/lastmile_qr_scan"}, "fusion_lon": 0.0}, {"lat": 38.88462, "is_disabled": 0, "type": "electric_scooter", "lon": -77.0154785, "bike_id": "689b95b90dea3793e052989b658a4cd7", "fusion_lat": 0.0, "name": "689b95b90dea3793e052989b658a4cd7", "is_reserved": 0, "rental_uris": {"android": "https://dc.lft.to/lastmile_qr_scan", "ios": "https://dc.lft.to/lastmile_qr_scan"}, "fusion_lon": 0.0}, {"lat": 38.89143933333333, "is_disabled": 0, "type": "electric_bike", "lon": -77.113051, "bike_id": "21c644e4d08bc00961075111886f8615", "fusion_lat": 0.0, "name": "21c644e4d08bc00961075111886f8615", "is_reserved": 0, "rental_uris": {"android": "https://dc.lft.to/lastmile_qr_scan", "ios": "https://dc.lft.to/lastmile_qr_scan"}, "fusion_lon": 0.0}, {"lat": 38.92030116666667, "is_disabled": 0, "type": "electric_scooter", "lon": -77.03122483333334, "bike_id": "6442e9a998c1a694b5568b7a8d5f6fe7", "fusion_lat": 0.0, "name": "6442e9a998c1a694b5568b7a8d5f6fe7", "is_reserved": 0, "rental_uris": {"android": "https://dc.lft.to/lastmile_qr_scan", "ios": "https://dc.lft.to/lastmile_qr_scan"}, "fusion_lon": 0.0}, {"lat": 38.89219666666666, "is_disabled": 0, "type": "electric_bike", "lon": -77.10783166666667, "bike_id": "55eb5da7692a91ad4a5536fd704cf77c", "fusion_lat": 0.0, "name": "55eb5da7692a91ad4a5536fd704cf77c", "is_reserved": 0, "rental_uris": {"android": "https://dc.lft.to/lastmile_qr_scan", "ios": "https://dc.lft.to/lastmile_qr_scan"}, "fusion_lon": 0.0}, {"lat": 38.908205833333334, "is_disabled": 0, "type": "electric_scooter", "lon": -76.99674949999999, "bike_id": "e6ecbb573fa47d4cb002846beec95778", "fusion_lat": 0.0, "name": "e6ecbb573fa47d4cb002846beec95778", "is_reserved": 0, "rental_uris": {"android": "https://dc.lft.to/lastmile_qr_scan", "ios": "https://dc.lft.to/lastmile_qr_scan"}, "fusion_lon": 0.0}, {"lat": 38.91732016666667, "is_disabled": 0, "type": "electric_scooter", "lon": -77.03660183333334, "bike_id": "150cde513b29d9e19f9ab7c3d3599c10", "fusion_lat": 0.0, "name": "150cde513b29d9e19f9ab7c3d3599c10", "is_reserved": 0, "rental_uris": {"android": "https://dc.lft.to/lastmile_qr_scan", "ios": "https://dc.lft.to/lastmile_qr_scan"}, "fusion_lon": 0.0}, {"lat": 38.90023266666667, "is_disabled": 0, "type": "electric_scooter", "lon": -77.00204566666666, "bike_id": "26b8b7acf8e00df10c6ff6af76f21af0", "fusion_lat": 0.0, "name": "26b8b7acf8e00df10c6ff6af76f21af0", "is_reserved": 0, "rental_uris": {"android": "https://dc.lft.to/lastmile_qr_scan", "ios": "https://dc.lft.to/lastmile_qr_scan"}, "fusion_lon": 0.0}, {"lat": 38.9575095, "is_disabled": 0, "type": "electric_bike", "lon": -77.023177, "bike_id": "9d83084cb5f3f8af9f52df74c0376bd6", "fusion_lat": 0.0, "name": "9d83084cb5f3f8af9f52df74c0376bd6", "is_reserved": 0, "rental_uris": {"android": "https://dc.lft.to/lastmile_qr_scan", "ios": "https://dc.lft.to/lastmile_qr_scan"}, "fusion_lon": 0.0}, {"lat": 38.900353333333335, "is_disabled": 0, "type": "electric_scooter", "lon": -77.00532766666667, "bike_id": "a9d81cf34a856f31c2221631608ef375", "fusion_lat": 0.0, "name": "a9d81cf34a856f31c2221631608ef375", "is_reserved": 0, "rental_uris": {"android": "https://dc.lft.to/lastmile_qr_scan", "ios": "https://dc.lft.to/lastmile_qr_scan"}, "fusion_lon": 0.0}, {"lat": 38.91717166666667, "is_disabled": 0, "type": "electric_scooter", "lon": -77.03119166666667, "bike_id": "7fcdf526e6e53a4026ae424632ea9b44", "fusion_lat": 0.0, "name": "7fcdf526e6e53a4026ae424632ea9b44", "is_reserved": 0, "rental_uris": {"android": "https://dc.lft.to/lastmile_qr_scan", "ios": "https://dc.lft.to/lastmile_qr_scan"}, "fusion_lon": 0.0}, {"lat": 38.9038695, "is_disabled": 0, "type": "electric_scooter", "lon": -77.04452016666667, "bike_id": "e068a340084bca39dacfbfa7e35d949a", "fusion_lat": 0.0, "name": "e068a340084bca39dacfbfa7e35d949a", "is_reserved": 0, "rental_uris": {"android": "https://dc.lft.to/lastmile_qr_scan", "ios": "https://dc.lft.to/lastmile_qr_scan"}, "fusion_lon": 0.0}, {"lat": 38.90983766666667, "is_disabled": 0, "type": "electric_scooter", "lon": -77.02264366666667, "bike_id": "5690f4d9678e4987bfc9fcc44d072b41", "fusion_lat": 0.0, "name": "5690f4d9678e4987bfc9fcc44d072b41", "is_reserved": 0, "rental_uris": {"android": "https://dc.lft.to/lastmile_qr_scan", "ios": "https://dc.lft.to/lastmile_qr_scan"}, "fusion_lon": 0.0}, {"lat": 38.914074, "is_disabled": 0, "type": "electric_scooter", "lon": -77.03266966666666, "bike_id": "9c5f442e5e310a457d3f68de47674e74", "fusion_lat": 0.0, "name": "9c5f442e5e310a457d3f68de47674e74", "is_reserved": 0, "rental_uris": {"android": "https://dc.lft.to/lastmile_qr_scan", "ios": "https://dc.lft.to/lastmile_qr_scan"}, "fusion_lon": 0.0}, {"lat": 38.870686, "is_disabled": 0, "type": "electric_scooter", "lon": -77.00841366666667, "bike_id": "6bacaf29d5aef83d32a653ace051ca94", "fusion_lat": 0.0, "name": "6bacaf29d5aef83d32a653ace051ca94", "is_reserved": 0, "rental_uris": {"android": "https://dc.lft.to/lastmile_qr_scan", "ios": "https://dc.lft.to/lastmile_qr_scan"}, "fusion_lon": 0.0}, {"lat": 38.8747645, "is_disabled": 0, "type": "electric_scooter", "lon": -77.00938183333334, "bike_id": "446caad187081174df631aa6bdb1701e", "fusion_lat": 0.0, "name": "446caad187081174df631aa6bdb1701e", "is_reserved": 0, "rental_uris": {"android": "https://dc.lft.to/lastmile_qr_scan", "ios": "https://dc.lft.to/lastmile_qr_scan"}, "fusion_lon": 0.0}, {"lat": 38.91705016666667, "is_disabled": 0, "type": "electric_scooter", "lon": -77.03210283333334, "bike_id": "e546570e47d5d79ca3dc84c45688f6be", "fusion_lat": 0.0, "name": "e546570e47d5d79ca3dc84c45688f6be", "is_reserved": 0, "rental_uris": {"android": "https://dc.lft.to/lastmile_qr_scan", "ios": "https://dc.lft.to/lastmile_qr_scan"}, "fusion_lon": 0.0}, {"lat": 38.902778166666664, "is_disabled": 0, "type": "electric_scooter", "lon": -76.97409083333334, "bike_id": "72e2aaece7b1923cc1ee32ff269b02ef", "fusion_lat": 0.0, "name": "72e2aaece7b1923cc1ee32ff269b02ef", "is_reserved": 0, "rental_uris": {"android": "https://dc.lft.to/lastmile_qr_scan", "ios": "https://dc.lft.to/lastmile_qr_scan"}, "fusion_lon": 0.0}, {"lat": 38.918912666666664, "is_disabled": 0, "type": "electric_scooter", "lon": -77.04124383333334, "bike_id": "c736026ef8cd0881682c56cd7cb9cdf4", "fusion_lat": 0.0, "name": "c736026ef8cd0881682c56cd7cb9cdf4", "is_reserved": 0, "rental_uris": {"android": "https://dc.lft.to/lastmile_qr_scan", "ios": "https://dc.lft.to/lastmile_qr_scan"}, "fusion_lon": 0.0}, {"lat": 38.917309, "is_disabled": 0, "type": "electric_scooter", "lon": -77.03654916666666, "bike_id": "f196cb06d7ffe3ead4af15bad79cb6f2", "fusion_lat": 0.0, "name": "f196cb06d7ffe3ead4af15bad79cb6f2", "is_reserved": 0, "rental_uris": {"android": "https://dc.lft.to/lastmile_qr_scan", "ios": "https://dc.lft.to/lastmile_qr_scan"}, "fusion_lon": 0.0}, {"lat": 38.91421233333333, "is_disabled": 0, "type": "electric_scooter", "lon": -77.031733, "bike_id": "e7e5e8625394147903b4a467e7379cfa", "fusion_lat": 0.0, "name": "e7e5e8625394147903b4a467e7379cfa", "is_reserved": 0, "rental_uris": {"android": "https://dc.lft.to/lastmile_qr_scan", "ios": "https://dc.lft.to/lastmile_qr_scan"}, "fusion_lon": 0.0}, {"lat": 38.919711, "is_disabled": 0, "type": "electric_scooter", "lon": -77.02384016666667, "bike_id": "86f3dc0aa1e6b1ab30363b58ebd2ae90", "fusion_lat": 0.0, "name": "86f3dc0aa1e6b1ab30363b58ebd2ae90", "is_reserved": 0, "rental_uris": {"android": "https://dc.lft.to/lastmile_qr_scan", "ios": "https://dc.lft.to/lastmile_qr_scan"}, "fusion_lon": 0.0}, {"lat": 38.9178575, "is_disabled": 0, "type": "electric_scooter", "lon": -77.02256333333334, "bike_id": "1fc545b61693400bfb58f14d4bf01a8a", "fusion_lat": 0.0, "name": "1fc545b61693400bfb58f14d4bf01a8a", "is_reserved": 0, "rental_uris": {"android": "https://dc.lft.to/lastmile_qr_scan", "ios": "https://dc.lft.to/lastmile_qr_scan"}, "fusion_lon": 0.0}, {"lat": 38.90264583333333, "is_disabled": 0, "type": "electric_scooter", "lon": -77.01728666666666, "bike_id": "2e135692a0e37258780ebd36efcdfcd8", "fusion_lat": 0.0, "name": "2e135692a0e37258780ebd36efcdfcd8", "is_reserved": 0, "rental_uris": {"android": "https://dc.lft.to/lastmile_qr_scan", "ios": "https://dc.lft.to/lastmile_qr_scan"}, "fusion_lon": 0.0}, {"lat": 38.904965833333335, "is_disabled": 0, "type": "electric_scooter", "lon": -77.0013245, "bike_id": "1ea0c252adfa34f92915c9d59ee48061", "fusion_lat": 0.0, "name": "1ea0c252adfa34f92915c9d59ee48061", "is_reserved": 0, "rental_uris": {"android": "https://dc.lft.to/lastmile_qr_scan", "ios": "https://dc.lft.to/lastmile_qr_scan"}, "fusion_lon": 0.0}, {"lat": 38.9177415, "is_disabled": 0, "type": "electric_scooter", "lon": -77.01486066666666, "bike_id": "6b4ec58c72fe8d953754ac1e66a0f251", "fusion_lat": 0.0, "name": "6b4ec58c72fe8d953754ac1e66a0f251", "is_reserved": 0, "rental_uris": {"android": "https://dc.lft.to/lastmile_qr_scan", "ios": "https://dc.lft.to/lastmile_qr_scan"}, "fusion_lon": 0.0}, {"lat": 38.90339266666667, "is_disabled": 0, "type": "electric_scooter", "lon": -77.06586316666667, "bike_id": "e910c8cd24a355eb14c7c0701f6d1c17", "fusion_lat": 0.0, "name": "e910c8cd24a355eb14c7c0701f6d1c17", "is_reserved": 0, "rental_uris": {"android": "https://dc.lft.to/lastmile_qr_scan", "ios": "https://dc.lft.to/lastmile_qr_scan"}, "fusion_lon": 0.0}, {"lat": 38.887706, "is_disabled": 0, "type": "electric_scooter", "lon": -76.95594583333333, "bike_id": "50cea682eae906fc510059ffc6796fba", "fusion_lat": 0.0, "name": "50cea682eae906fc510059ffc6796fba", "is_reserved": 0, "rental_uris": {"android": "https://dc.lft.to/lastmile_qr_scan", "ios": "https://dc.lft.to/lastmile_qr_scan"}, "fusion_lon": 0.0}, {"lat": 38.93568366666667, "is_disabled": 0, "type": "electric_scooter", "lon": -77.08764783333334, "bike_id": "5dfcbd83a12f0b19cdc5f8344125fb40", "fusion_lat": 0.0, "name": "5dfcbd83a12f0b19cdc5f8344125fb40", "is_reserved": 0, "rental_uris": {"android": "https://dc.lft.to/lastmile_qr_scan", "ios": "https://dc.lft.to/lastmile_qr_scan"}, "fusion_lon": 0.0}, {"lat": 38.89226766666667, "is_disabled": 0, "type": "electric_scooter", "lon": -77.04865666666667, "bike_id": "59bed239552c61a94bf83ecac1faaca9", "fusion_lat": 0.0, "name": "59bed239552c61a94bf83ecac1faaca9", "is_reserved": 0, "rental_uris": {"android": "https://dc.lft.to/lastmile_qr_scan", "ios": "https://dc.lft.to/lastmile_qr_scan"}, "fusion_lon": 0.0}, {"lat": 38.913071, "is_disabled": 0, "type": "electric_scooter", "lon": -77.032279, "bike_id": "e6b1bc5042eec9e2d10e894486153607", "fusion_lat": 0.0, "name": "e6b1bc5042eec9e2d10e894486153607", "is_reserved": 0, "rental_uris": {"android": "https://dc.lft.to/lastmile_qr_scan", "ios": "https://dc.lft.to/lastmile_qr_scan"}, "fusion_lon": 0.0}, {"lat": 38.914255833333335, "is_disabled": 0, "type": "electric_scooter", "lon": -77.031766, "bike_id": "60b871b2f84749d06209afeedcb8ad55", "fusion_lat": 0.0, "name": "60b871b2f84749d06209afeedcb8ad55", "is_reserved": 0, "rental_uris": {"android": "https://dc.lft.to/lastmile_qr_scan", "ios": "https://dc.lft.to/lastmile_qr_scan"}, "fusion_lon": 0.0}, {"lat": 38.903253166666666, "is_disabled": 0, "type": "electric_scooter", "lon": -77.02069516666667, "bike_id": "6faba65b7414f92af62afe6a26cad925", "fusion_lat": 0.0, "name": "6faba65b7414f92af62afe6a26cad925", "is_reserved": 0, "rental_uris": {"android": "https://dc.lft.to/lastmile_qr_scan", "ios": "https://dc.lft.to/lastmile_qr_scan"}, "fusion_lon": 0.0},