{"data": {"bikes": [{"type": "electric_scooter", "name": "d4db0087f537293acec5a2a7a6ac31fd", "rental_uris": {"ios": "https://dc.lft.to/lastmile_qr_scan", "android": "https://dc.lft.to/lastmile_qr_scan"}, "fusion_lon": 0.0, "lat": 38.918208166666666, "is_disabled": 0, "bike_id": "d4db0087f537293acec5a2a7a6ac31fd", "fusion_lat": 0.0, "is_reserved": 0, "lon": -77.01210283333333}, {"type": "electric_scooter", "name": "8694fa3fd8386f7b0429a94fc71d9518", "rental_uris": {"ios": "https://dc.lft.to/lastmile_qr_scan", "android": "https://dc.lft.to/lastmile_qr_scan"}, "fusion_lon": 0.0, "lat": 38.9225715, "is_disabled": 0, "bike_id": "8694fa3fd8386f7b0429a94fc71d9518", "fusion_lat": 0.0, "is_reserved": 0, "lon": -77.04256516666666}, {"type": "electric_scooter", "name": "39a87e27f638cac6c2dfbd553f768393", "rental_uris": {"ios": "https://dc.lft.to/lastmile_qr_scan", "android": "https://dc.lft.to/lastmile_qr_scan"}, "fusion_lon": 0.0, "lat": 38.91815066666667, "is_disabled": 0, "bike_id": "39a87e27f638cac6c2dfbd553f768393", "fusion_lat": 0.0, "is_reserved": 0, "lon": -77.02478733333334}, {"type": "electric_scooter", "name": "5f681bb3925daa9c47dcf1cde3697fd0", "rental_uris": {"ios": "https://dc.lft.to/lastmile_qr_scan", "android": "https://dc.lft.to/lastmile_qr_scan"}, "fusion_lon": 0.0, "lat": 38.895446666666665, "is_disabled": 0, "bike_id": "5f681bb3925daa9c47dcf1cde3697fd0", "fusion_lat": 0.0, "is_reserved": 0, "lon": -76.98214533333334}, {"type": "electric_scooter", "name": "eb1dc094770382532ae2e0b0f46fcf1a", "rental_uris": {"ios": "https://dc.lft.to/lastmile_qr_scan", "android": "https://dc.lft.to/lastmile_qr_scan"}, "fusion_lon": 0.0, "lat": 38.9097365, "is_disabled": 0, "bike_id": "eb1dc094770382532ae2e0b0f46fcf1a", "fusion_lat": 0.0, "is_reserved": 0, "lon": -77.03212733333334}, {"type": "electric_scooter", "name": "c6ea019b552b92dfc5e08f2b875a0157", "rental_uris": {"ios": "https://dc.lft.to/lastmile_qr_scan", "android": "https://dc.lft.to/lastmile_qr_scan"}, "fusion_lon": 0.0, "lat": 38.904108666666666, "is_disabled": 0, "bike_id": "c6ea019b552b92dfc5e08f2b875a0157", "fusion_lat": 0.0, "is_reserved": 0, "lon": -76.99286416666666}, {"type": "electric_scooter", "name": "c61493b702c6eea51828430161210a58", "rental_uris": {"ios": "https://dc.lft.to/lastmile_qr_scan", "android": "https://dc.lft.to/lastmile_qr_scan"}, "fusion_lon": 0.0, "lat": 38.91747266666667, "is_disabled": 0, "bike_id": "c61493b702c6eea51828430161210a58", "fusion_lat": 0.0, "is_reserved": 0, "lon": -77.0145195}, {"type": "electric_scooter", "name": "a3ee5d5d0a5748966f243e24e4d16f09", "rental_uris": {"ios": "https://dc.lft.to/lastmile_qr_scan", "android": "https://dc.lft.to/lastmile_qr_scan"}, "fusion_lon": 0.0, "lat": 38.9025865, "is_disabled": 0, "bike_id": "a3ee5d5d0a5748966f243e24e4d16f09", "fusion_lat": 0.0, "is_reserved": 0, "lon": -77.008865}, {"type": "electric_scooter", "name": "16bcc4f898ded735d20ef63395a27a20", "rental_uris": {"ios": "https://dc.lft.to/lastmile_qr_scan", "android": "https://dc.lft.to/lastmile_qr_scan"}, "fusion_lon": 0.0, "lat": 38.909748, "is_disabled": 0, "bike_id": "16bcc4f898ded735d20ef63395a27a20", "fusion_lat": 0.0, "is_reserved": 0, "lon": -77.0343685}, {"type": "electric_scooter", "name": "8704d1ccc67f067d486ae603387e27d8", "rental_uris": {"ios": "https://dc.lft.to/lastmile_qr_scan", "android": "https://dc.lft.to/lastmile_qr_scan"}, "fusion_lon": 0.0, "lat": 38.9419355, "is_disabled": 0, "bike_id": "8704d1ccc67f067d486ae603387e27d8", "fusion_lat": 0.0, "is_reserved": 0, "lon": -77.03838316666666}, {"type": "electric_scooter", "name": "e71ea1730b5be35a2bef16696453c0c2", "rental_uris": {"ios": "https://dc.lft.to/lastmile_qr_scan", "android": "https://dc.lft.to/lastmile_qr_scan"}, "fusion_lon": 0.0, "lat": 38.8971205, "is_disabled": 0, "bike_id": "e71ea1730b5be35a2bef16696453c0c2", "fusion_lat": 0.0, "is_reserved": 0, "lon": -77.00839083333334}, {"type": "electric_scooter", "name": "af9e0072bb0fe2ab80baad819d501668", "rental_uris": {"ios": "https://dc.lft.to/lastmile_qr_scan", "android": "https://dc.lft.to/lastmile_qr_scan"}, "fusion_lon": 0.0, "lat": 38.91430666666667, "is_disabled": 0, "bike_id": "af9e0072bb0fe2ab80baad819d501668", "fusion_lat": 0.0, "is_reserved": 0, "lon": -77.032077}, {"type": "electric_scooter", "name": "e908742bf409b9d1193126d6f087cbf6", "rental_uris": {"ios": "https://dc.lft.to/lastmile_qr_scan", "android": "https://dc.lft.to/lastmile_qr_scan"}, "fusion_lon": 0.0, "lat": 38.9181615, "is_disabled": 0, "bike_id": "e908742bf409b9d1193126d6f087cbf6", "fusion_lat": 0.0, "is_reserved": 0, "lon": -77.02474266666667}, {"type": "electric_scooter", "name": "8ad255251b5824f1c59c26d6e53dff7a", "rental_uris": {"ios": "https://dc.lft.to/lastmile_qr_scan", "android": "https://dc.lft.to/lastmile_qr_scan"}, "fusion_lon": 0.0, "lat": 38.89892016666667, "is_disabled": 0, "bike_id": "8ad255251b5824f1c59c26d6e53dff7a", "fusion_lat": 0.0, "is_reserved": 0, "lon": -77.052729}, {"type": "electric_scooter", "name": "31e34f92ddd9102b9093c0d73b850575", "rental_uris": {"ios": "https://dc.lft.to/lastmile_qr_scan", "android": "https://dc.lft.to/lastmile_qr_scan"}, "fusion_lon": 0.0, "lat": 38.89607483333333, "is_disabled": 0, "bike_id": "31e34f92ddd9102b9093c0d73b850575", "fusion_lat": 0.0, "is_reserved": 0, "lon": -77.0214525}, {"type": "electric_scooter", "name": "82e9b1fad39999903ecd7281dc154865", "rental_uris": {"ios": "https://dc.lft.to/lastmile_qr_scan", "android": "https://dc.lft.to/lastmile_qr_scan"}, "fusion_lon": 0.0, "lat": 38.9199795, "is_disabled": 0, "bike_id": "82e9b1fad39999903ecd7281dc154865", "fusion_lat": 0.0, "is_reserved": 0, "lon": -77.032222}, {"type": "electric_scooter", "name": "41b988817ad24fcf636712d42b03cd7c", "rental_uris": {"ios": "https://dc.lft.to/lastmile_qr_scan", "android": "https://dc.lft.to/lastmile_qr_scan"}, "fusion_lon": 0.0, "lat": 38.926116666666665, "is_disabled": 0, "bike_id": "41b988817ad24fcf636712d42b03cd7c", "fusion_lat": 0.0, "is_reserved": 0, "lon": -77.02221616666667}, {"type": "electric_scooter", "name": "b6401e77bacd1a087dbf11c27e85bf25", "rental_uris": {"ios": "https://dc.lft.to/lastmile_qr_scan", "android": "https://dc.lft.to/lastmile_qr_scan"}, "fusion_lon": 0.0, "lat": 38.917467, "is_disabled": 0, "bike_id": "b6401e77bacd1a087dbf11c27e85bf25", "fusion_lat": 0.0, "is_reserved": 0, "lon": -77.03186666666667}, {"type": "electric_scooter", "name": "532b3deeca8209538942090d0cb91050", "rental_uris": {"ios": "https://dc.lft.to/lastmile_qr_scan", "android": "https://dc.lft.to/lastmile_qr_scan"}, "fusion_lon": 0.0, "lat": 38.90256616666667, "is_disabled": 0, "bike_id": "532b3deeca8209538942090d0cb91050", "fusion_lat": 0.0, "is_reserved": 0, "lon": -77.03353933333334}, {"type": "electric_scooter", "name": "71d1289e931d2ec3b787a75a3bad44fe", "rental_uris": {"ios": "https://dc.lft.to/lastmile_qr_scan", "android": "https://dc.lft.to/lastmile_qr_scan"}, "fusion_lon": 0.0, "lat": 38.921209833333336, "is_disabled": 0, "bike_id": "71d1289e931d2ec3b787a75a3bad44fe", "fusion_lat": 0.0, "is_reserved": 0, "lon": -77.00916516666666}, {"type": "electric_scooter", "name": "c497c97c2f406f78a679da8a2b792ff6", "rental_uris": {"ios": "https://dc.lft.to/lastmile_qr_scan", "android": "https://dc.lft.to/lastmile_qr_scan"}, "fusion_lon": 0.0, "lat": 38.912172166666664, "is_disabled": 0, "bike_id": "c497c97c2f406f78a679da8a2b792ff6", "fusion_lat": 0.0, "is_reserved": 0, "lon": -77.04495833333333}, {"type": "electric_scooter", "name": "99870d1a99c4524ad4ba5c612f7bac69", "rental_uris": {"ios": "https://dc.lft.to/lastmile_qr_scan", "android": "https://dc.lft.to/lastmile_qr_scan"}, "fusion_lon": 0.0, "lat": 38.92314733333333, "is_disabled": 0, "bike_id": "99870d1a99c4524ad4ba5c612f7bac69", "fusion_lat": 0.0, "is_reserved": 0, "lon": -77.04015383333333}, {"type": "electric_scooter", "name": "c6ef8127da82097734295dc85de5ac04", "rental_uris": {"ios": "https://dc.lft.to/lastmile_qr_scan", "android": "https://dc.lft.to/lastmile_qr_scan"}, "fusion_lon": 0.0, "lat": 38.88489283333333, "is_disabled": 0, "bike_id": "c6ef8127da82097734295dc85de5ac04", "fusion_lat": 0.0, "is_reserved": 0, "lon": -77.00711766666667}, {"type": "electric_scooter", "name": "081e475360cb9a135aca94048903c4d5", "rental_uris": {"ios": "https://dc.lft.to/lastmile_qr_scan", "android": "https://dc.lft.to/lastmile_qr_scan"}, "fusion_lon": 0.0, "lat": 38.867228833333336, "is_disabled": 0, "bike_id": "081e475360cb9a135aca94048903c4d5", "fusion_lat": 0.0, "is_reserved": 0, "lon": -76.98700633333333}, {"type": "electric_scooter", "name": "0ffae3bda62028b67bbed66448587f17", "rental_uris": {"ios": "https://dc.lft.to/lastmile_qr_scan", "android": "https://dc.lft.to/lastmile_qr_scan"}, "fusion_lon": 0.0, "lat": 38.9012555, "is_disabled": 0, "bike_id": "0ffae3bda62028b67bbed66448587f17", "fusion_lat": 0.0, "is_reserved": 0, "lon": -77.01621566666667}, {"type": "electric_scooter", "name": "6e797d876418b7b4fa0b0ed7786ca1ae", "rental_uris": {"ios": "https://dc.lft.to/lastmile_qr_scan", "android": "https://dc.lft.to/lastmile_qr_scan"}, "fusion_lon": 0.0, "lat": 38.91267883333333, "is_disabled": 0, "bike_id": "6e797d876418b7b4fa0b0ed7786ca1ae", "fusion_lat": 0.0, "is_reserved": 0, "lon": -77.01440666666667}, {"type": "electric_scooter", "name": "78aba96bf2a745bd0dd5d351b809bba9", "rental_uris": {"ios": "https://dc.lft.to/lastmile_qr_scan", "android": "https://dc.lft.to/lastmile_qr_scan"}, "fusion_lon": 0.0, "lat": 38.88623483333333, "is_disabled": 0, "bike_id": "78aba96bf2a745bd0dd5d351b809bba9", "fusion_lat": 0.0, "is_reserved": 0, "lon": -77.015281}, {"type": "electric_scooter", "name": "073f22672342134cfefa2613a1574afe", "rental_uris": {"ios": "https://dc.lft.to/lastmile_qr_scan", "android": "https://dc.lft.to/lastmile_qr_scan"}, "fusion_lon": 0.0, "lat": 38.876656, "is_disabled": 0, "bike_id": "073f22672342134cfefa2613a1574afe", "fusion_lat": 0.0, "is_reserved": 0, "lon": -77.0052415}, {"type": "electric_scooter", "name": "93bb65b988d4d2b55c9c5caf16ce80ce", "rental_uris": {"ios": "https://dc.lft.to/lastmile_qr_scan", "android": "https://dc.lft.to/lastmile_qr_scan"}, "fusion_lon": 0.0, "lat": 38.93682483333333, "is_disabled": 0, "bike_id": "93bb65b988d4d2b55c9c5caf16ce80ce", "fusion_lat": 0.0, "is_reserved": 0, "lon": -77.08451333333333}, {"type": "electric_scooter", "name": "230beef6f3ec0b2228b26cae55ab0918", "rental_uris": {"ios": "https://dc.lft.to/lastmile_qr_scan", "android": "https://dc.lft.to/lastmile_qr_scan"}, "fusion_lon": 0.0, "lat": 38.90044233333333, "is_disabled": 0, "bike_id": "230beef6f3ec0b2228b26cae55ab0918", "fusion_lat": 0.0, "is_reserved": 0, "lon": -76.98849566666667}, {"type": "electric_scooter", "name": "bc37962e44a4955a516a4b7705495412", "rental_uris": {"ios": "https://dc.lft.to/lastmile_qr_scan", "android": "https://dc.lft.to/lastmile_qr_scan"}, "fusion_lon": 0.0, "lat": 38.915520666666666, "is_disabled": 0, "bike_id": "bc37962e44a4955a516a4b7705495412", "fusion_lat": 0.0, "is_reserved": 0, "lon": -77.03772316666667}, {"type": "electric_scooter", "name": "508ef50d1cd9b09b5a8f3c061153424a", "rental_uris": {"ios": "https://dc.lft.to/lastmile_qr_scan", "android": "https://dc.lft.to/lastmile_qr_scan"}, "fusion_lon": 0.0, "lat": 38.926151833333336, "is_disabled": 0, "bike_id": "508ef50d1cd9b09b5a8f3c061153424a", "fusion_lat": 0.0, "is_reserved": 0, "lon": -77.05709666666667}, {"type": "electric_scooter", "name": "e06373ac1dcb6dde1644d426a9cf9f92", "rental_uris": {"ios": "https://dc.lft.to/lastmile_qr_scan", "android": "https://dc.lft.to/lastmile_qr_scan"}, "fusion_lon": 0.0, "lat": 38.923670666666666, "is_disabled": 0, "bike_id": "e06373ac1dcb6dde1644d426a9cf9f92", "fusion_lat": 0.0, "is_reserved": 0, "lon": -77.05032866666667}, {"type": "electric_scooter", "name": "17216ae24578105e59fb980054ab53f5", "rental_uris": {"ios": "https://dc.lft.to/lastmile_qr_scan", "android": "https://dc.lft.to/lastmile_qr_scan"}, "fusion_lon": 0.0, "lat": 38.91257983333333, "is_disabled": 0, "bike_id": "17216ae24578105e59fb980054ab53f5", "fusion_lat": 0.0, "is_reserved": 0, "lon": -76.98356433333333}, {"type": "electric_scooter", "name": "254539cd3168770f4a8a4e259b3678d9", "rental_uris": {"ios": "https://dc.lft.to/lastmile_qr_scan", "android": "https://dc.lft.to/lastmile_qr_scan"}, "fusion_lon": 0.0, "lat": 38.8964185, "is_disabled": 0, "bike_id": "254539cd3168770f4a8a4e259b3678d9", "fusion_lat": 0.0, "is_reserved": 0, "lon": -77.026139}, {"type": "electric_scooter", "name": "30bfe284ec2f989e809646545f3f084f", "rental_uris": {"ios": "https://dc.lft.to/lastmile_qr_scan", "android": "https://dc.lft.to/lastmile_qr_scan"}, "fusion_lon": 0.0, "lat": 38.9059785, "is_disabled": 0, "bike_id": "30bfe284ec2f989e809646545f3f084f", "fusion_lat": 0.0, "is_reserved": 0, "lon": -77.040913}, {"type": "electric_scooter", "name": "2ac112e80f687ed4b8a332ad143a5553", "rental_uris": {"ios": "https://dc.lft.to/lastmile_qr_scan", "android": "https://dc.lft.to/lastmile_qr_scan"}, "fusion_lon": 0.0, "lat": 38.88912, "is_disabled": 0, "bike_id": "2ac112e80f687ed4b8a332ad143a5553", "fusion_lat": 0.0, "is_reserved": 0, "lon": -76.93680316666666}, {"type": "electric_scooter", "name": "6716acfc7caaf8edd960d88e5e09584d", "rental_uris": {"ios": "https://dc.lft.to/lastmile_qr_scan", "android": "https://dc.lft.to/lastmile_qr_scan"}, "fusion_lon": 0.0, "lat": 38.89234533333333, "is_disabled": 0, "bike_id": "6716acfc7caaf8edd960d88e5e09584d", "fusion_lat": 0.0, "is_reserved": 0, "lon": -77.04163066666666}, {"type": "electric_scooter", "name": "cd92ef83afaa96d5b617def49cce1da7", "rental_uris": {"ios": "https://dc.lft.to/lastmile_qr_scan", "android": "https://dc.lft.to/lastmile_qr_scan"}, "fusion_lon": 0.0, "lat": 38.87659433333334, "is_disabled": 0, "bike_id": "cd92ef83afaa96d5b617def49cce1da7", "fusion_lat": 0.0, "is_reserved": 0, "lon": -77.01719816666666}, {"type": "electric_scooter", "name": "e3885b9f45ffa2f0a442b0632a00e9b8", "rental_uris": {"ios": "https://dc.lft.to/lastmile_qr_scan", "android": "https://dc.lft.to/lastmile_qr_scan"}, "fusion_lon": 0.0, "lat": 38.891409333333335, "is_disabled": 0, "bike_id": "e3885b9f45ffa2f0a442b0632a00e9b8", "fusion_lat": 0.0, "is_reserved": 0, "lon": -76.99257983333334}, {"type": "electric_scooter", "name": "36a8b4ce0c641f7a18d43b742c3834f9", "rental_uris": {"ios": "https://dc.lft.to/lastmile_qr_scan", "android": "https://dc.lft.to/lastmile_qr_scan"}, "fusion_lon": 0.0, "lat": 38.882971833333336, "is_disabled": 0, "bike_id": "36a8b4ce0c641f7a18d43b742c3834f9", "fusion_lat": 0.0, "is_reserved": 0, "lon": -76.94856133333333}, {"type": "electric_scooter", "name": "153c37d0c4d022e23c437734cdf3151d", "rental_uris": {"ios": "https://dc.lft.to/lastmile_qr_scan", "android": "https://dc.lft.to/lastmile_qr_scan"}, "fusion_lon": 0.0, "lat": 38.91784783333333, "is_disabled": 0, "bike_id": "153c37d0c4d022e23c437734cdf3151d", "fusion_lat": 0.0, "is_reserved": 0, "lon": -77.02280366666666}, {"type": "electric_scooter", "name": "61ea1539016e6ee0d2e84530cd3d2846", "rental_uris": {"ios": "https://dc.lft.to/lastmile_qr_scan", "android": "https://dc.lft.to/lastmile_qr_scan"}, "fusion_lon": 0.0, "lat": 38.919351, "is_disabled": 0, "bike_id": "61ea1539016e6ee0d2e84530cd3d2846", "fusion_lat": 0.0, "is_reserved": 0, "lon": -77.01360433333333}, {"type": "electric_scooter", "name": "46ee900ec4ced69b56d9c90153897314", "rental_uris": {"ios": "https://dc.lft.to/lastmile_qr_scan", "android": "https://dc.lft.to/lastmile_qr_scan"}, "fusion_lon": 0.0, "lat": 38.91472383333333, "is_disabled": 0, "bike_id": "46ee900ec4ced69b56d9c90153897314", "fusion_lat": 0.0, "is_reserved": 0, "lon": -77.03884716666667}, {"type": "electric_scooter", "name": "104c2c50ddbce1299fbe3269ffc022d5", "rental_uris": {"ios": "https://dc.lft.to/lastmile_qr_scan", "android": "https://dc.lft.to/lastmile_qr_scan"}, "fusion_lon": 0.0, "lat": 38.90035483333333, "is_disabled": 0, "bike_id": "104c2c50ddbce1299fbe3269ffc022d5", "fusion_lat": 0.0, "is_reserved": 0, "lon": -77.0316915}, {"type": "electric_scooter", "name": "1b1c6bfe6748f49969afd6b01c405212", "rental_uris": {"ios": "https://dc.lft.to/lastmile_qr_scan", "android": "https://dc.lft.to/lastmile_qr_scan"}, "fusion_lon": 0.0, "lat": 38.86418483333333, "is_disabled": 0, "bike_id": "1b1c6bfe6748f49969afd6b01c405212", "fusion_lat": 0.0, "is_reserved": 0, "lon": -76.98998116666667}, {"type": "electric_scooter", "name": "aecf8bcecb25ae77d848dd8aa5978c25", "rental_uris": {"ios": "https://dc.lft.to/lastmile_qr_scan", "android": "https://dc.lft.to/lastmile_qr_scan"}, "fusion_lon": 0.0, "lat": 38.890449833333335, "is_disabled": 0, "bike_id": "aecf8bcecb25ae77d848dd8aa5978c25", "fusion_lat": 0.0, "is_reserved": 0, "lon": -76.952468}, {"type": "electric_scooter", "name": "19ad1399bba3031d79fbbdf94a4164a9", "rental_uris": {"ios": "https://dc.lft.to/lastmile_qr_scan", "android": "https://dc.lft.to/lastmile_qr_scan"}, "fusion_lon": 0.0, "lat": 38.91112183333333, "is_disabled": 0, "bike_id": "19ad1399bba3031d79fbbdf94a4164a9", "fusion_lat": 0.0, "is_reserved": 0, "lon": -77.02419766666667}, {"type": "electric_scooter", "name": "a1b83a0e92a667ae8ecccad0011c0312", "rental_uris": {"ios": "https://dc.lft.to/lastmile_qr_scan", "android": "https://dc.lft.to/lastmile_qr_scan"}, "fusion_lon": 0.0, "lat": 38.924098, "is_disabled": 0, "bike_id": "a1b83a0e92a667ae8ecccad0011c0312", "fusion_lat": 0.0, "is_reserved": 0, "lon": -77.020329}, {"type": "electric_scooter", "name": "4fcf19c03f9f1f68ae93e4c2405a70ad", "rental_uris": {"ios": "https://dc.lft.to/lastmile_qr_scan", "android": "https://dc.lft.to/lastmile_qr_scan"}, "fusion_lon": 0.0, "lat": 38.918166166666666, "is_disabled": 0, "bike_id": "4fcf19c03f9f1f68ae93e4c2405a70ad", "fusion_lat": 0.0, "is_reserved": 0, "lon": -77.013542}, {"type": "electric_scooter", "name": "9bdebe35e3e1cebdeb03b44f05157c4a", "rental_uris": {"ios": "https://dc.lft.to/lastmile_qr_scan", "android": "https://dc.lft.to/lastmile_qr_scan"}, "fusion_lon": 0.0, "lat": 38.8788295, "is_disabled": 0, "bike_id": "9bdebe35e3e1cebdeb03b44f05157c4a", "fusion_lat": 0.0, "is_reserved": 0, "lon": -77.00138383333334}, {"type": "electric_scooter", "name": "6f41d9a5a07c9b2b9f19ef1d14391ffb", "rental_uris": {"ios": "https://dc.lft.to/lastmile_qr_scan", "android": "https://dc.lft.to/lastmile_qr_scan"}, "fusion_lon": 0.0, "lat": 38.9001475, "is_disabled": 0, "bike_id": "6f41d9a5a07c9b2b9f19ef1d14391ffb", "fusion_lat": 0.0, "is_reserved": 0, "lon": -77.010264}, {"type": "electric_scooter", "name": "3795dcf157b7b4103d159495a0727ca0", "rental_uris": {"ios": "https://dc.lft.to/lastmile_qr_scan", "android": "https://dc.lft.to/lastmile_qr_scan"}, "fusion_lon": 0.0, "lat": 38.90524166666667, "is_disabled": 0, "bike_id": "3795dcf157b7b4103d159495a0727ca0", "fusion_lat": 0.0, "is_reserved": 0, "lon": -77.06778116666666}, {"type": "electric_scooter", "name": "a01fd30865c546d5bc982cacc1271e9b", "rental_uris": {"ios": "https://dc.lft.to/lastmile_qr_scan", "android": "https://dc.lft.to/lastmile_qr_scan"}, "fusion_lon": 0.0, "lat": 38.912220833333336, "is_disabled": 0, "bike_id": "a01fd30865c546d5bc982cacc1271e9b", "fusion_lat": 0.0, "is_reserved": 0, "lon": -77.07684}, {"type": "electric_scooter", "name": "83344a45a185c6f29adb4efaede89cca", "rental_uris": {"ios": "https://dc.lft.to/lastmile_qr_scan", "android": "https://dc.lft.to/lastmile_qr_scan"}, "fusion_lon": 0.0, "lat": 38.9420195, "is_disabled": 0, "bike_id": "83344a45a185c6f29adb4efaede89cca", "fusion_lat": 0.0, "is_reserved": 0, "lon": -77.02593216666666}, {"type": "electric_scooter", "name": "332ddd0c38d0430518638242f18929b6", "rental_uris": {"ios": "https://dc.lft.to/lastmile_qr_scan", "android": "https://dc.lft.to/lastmile_qr_scan"}, "fusion_lon": 0.0, "lat": 38.9130015, "is_disabled": 0, "bike_id": "332ddd0c38d0430518638242f18929b6", "fusion_lat": 0.0, "is_reserved": 0, "lon": -77.04546466666666}, {"type": "electric_scooter", "name": "586cd7156c3c5a1efdd3e6620e8f3d39", "rental_uris": {"ios": "https://dc.lft.to/lastmile_qr_scan", "android": "https://dc.lft.to/lastmile_qr_scan"}, "fusion_lon": 0.0, "lat": 38.90789816666667, "is_disabled": 0, "bike_id": "586cd7156c3c5a1efdd3e6620e8f3d39", "fusion_lat": 0.0, "is_reserved": 0, "lon": -77.000225}, {"type": "electric_scooter", "name": "2d8fb278fefe46eb35462668798cf656", "rental_uris": {"ios": "https://dc.lft.to/lastmile_qr_scan", "android": "https://dc.lft.to/lastmile_qr_scan"}, "fusion_lon": 0.0, "lat": 38.89611883333333, "is_disabled": 0, "bike_id": "2d8fb278fefe46eb35462668798cf656", "fusion_lat": 0.0, "is_reserved": 0, "lon": -76.9927785}, {"type": "electric_scooter", "name": "7c5b1e0d6e83ccdc72f6a1cd5d14180c", "rental_uris": {"ios": "https://dc.lft.to/lastmile_qr_scan", "android": "https://dc.lft.to/lastmile_qr_scan"}, "fusion_lon": 0.0, "lat": 38.90447916666667, "is_disabled": 0, "bike_id": "7c5b1e0d6e83ccdc72f6a1cd5d14180c", "fusion_lat": 0.0, "is_reserved": 0, "lon": -76.97427466666667}, {"type": "electric_scooter", "name": "047676e61116aa04176dee55a364efa1", "rental_uris": {"ios": "https://dc.lft.to/lastmile_qr_scan", "android": "https://dc.lft.to/lastmile_qr_scan"}, "fusion_lon": 0.0, "lat": 38.92113483333333, "is_disabled": 0, "bike_id": "047676e61116aa04176dee55a364efa1", "fusion_lat": 0.0, "is_reserved": 0, "lon": -77.02403083333333}, {"type": "electric_scooter", "name": "85ee2dd45ed9a640587b3cacdd1b7d21", "rental_uris": {"ios": "https://dc.lft.to/lastmile_qr_scan", "android": "https://dc.lft.to/lastmile_qr_scan"}, "fusion_lon": 0.0, "lat": 38.93258683333333, "is_disabled": 0, "bike_id": "85ee2dd45ed9a640587b3cacdd1b7d21", "fusion_lat": 0.0, "is_reserved": 0, "lon": -77.03105266666667}, {"type": "electric_scooter", "name": "db900c3b601a1dfc66eb19d023855691", "rental_uris": {"ios": "https://dc.lft.to/lastmile_qr_scan", "android": "https://dc.lft.to/lastmile_qr_scan"}, "fusion_lon": 0.0, "lat": 38.92498783333333, "is_disabled": 0, "bike_id": "db900c3b601a1dfc66eb19d023855691", "fusion_lat": 0.0, "is_reserved": 0, "lon": -77.051019}, {"type": "electric_scooter", "name": "fada8c36a67d5990caaf2b811ee679d8", "rental_uris": {"ios": "https://dc.lft.to/lastmile_qr_scan", "android": "https://dc.lft.to/lastmile_qr_scan"}, "fusion_lon": 0.0, "lat": 38.903602666666664, "is_disabled": 0, "bike_id": "fada8c36a67d5990caaf2b811ee679d8", "fusion_lat": 0.0, "is_reserved": 0, "lon": -77.0259715}, {"type": "electric_scooter", "name": "4020ccf845fc5db2ee93695a46d71f19", "rental_uris": {"ios": "https://dc.lft.to/lastmile_qr_scan", "android": "https://dc.lft.to/lastmile_qr_scan"}, "fusion_lon": 0.0, "lat": 38.90834133333333, "is_disabled": 0, "bike_id": "4020ccf845fc5db2ee93695a46d71f19", "fusion_lat": 0.0, "is_reserved": 0, "lon": -76.99966333333333}, {"type": "electric_scooter", "name": "dd4135d2270856db02bc23022a1b9989", "rental_uris": {"ios": "https://dc.lft.to/lastmile_qr_scan", "android": "https://dc.lft.to/lastmile_qr_scan"}, "fusion_lon": 0.0, "lat": 38.908362833333335, "is_disabled": 0, "bike_id": "dd4135d2270856db02bc23022a1b9989", "fusion_lat": 0.0, "is_reserved": 0, "lon": -76.991894}, {"type": "electric_scooter", "name": "a962c53c9e44774198c56efdca434601", "rental_uris": {"ios": "https://dc.lft.to/lastmile_qr_scan", "android": "https://dc.lft.to/lastmile_qr_scan"}, "fusion_lon": 0.0, "lat": 38.8650405, "is_disabled": 0, "bike_id": "a962c53c9e44774198c56efdca434601", "fusion_lat": 0.0, "is_reserved": 0, "lon": -76.99001583333333}, {"type": "electric_scooter", "name": "41f4da7961f727a62cfeba6358d30e78", "rental_uris": {"ios": "https://dc.lft.to/lastmile_qr_scan", "android": "https://dc.lft.to/lastmile_qr_scan"}, "fusion_lon": 0.0, "lat": 38.915731666666666, "is_disabled": 0, "bike_id": "41f4da7961f727a62cfeba6358d30e78", "fusion_lat": 0.0, "is_reserved": 0, "lon": -77.023508}, {"type": "electric_scooter", "name": "b4954dae2841f658e3a3eff856125853", "rental_uris": {"ios": "https://dc.lft.to/lastmile_qr_scan", "android": "https://dc.lft.to/lastmile_qr_scan"}, "fusion_lon": 0.0, "lat": 38.89786266666667, "is_disabled": 0, "bike_id": "b4954dae2841f658e3a3eff856125853", "fusion_lat": 0.0, "is_reserved": 0, "lon": -76.93114233333333}, {"type": "electric_scooter", "name": "b15508aefabfe8634e5aa273dea938c0", "rental_uris": {"ios": "https://dc.lft.to/lastmile_qr_scan", "android": "https://dc.lft.to/lastmile_qr_scan"}, "fusion_lon": 0.0, "lat": 38.9361365, "is_disabled": 0, "bike_id": "b15508aefabfe8634e5aa273dea938c0", "fusion_lat": 0.0, "is_reserved": 0, "lon": -77.05860833333334}, {"type": "electric_scooter", "name": "7b400a8b1b2c6828656559c1b0df174b", "rental_uris": {"ios": "https://dc.lft.to/lastmile_qr_scan", "android": "https://dc.lft.to/lastmile_qr_scan"}, "fusion_lon": 0.0, "lat": 38.903697666666666, "is_disabled": 0, "bike_id": "7b400a8b1b2c6828656559c1b0df174b", "fusion_lat": 0.0, "is_reserved": 0, "lon": -77.03198116666667}, {"type": "electric_scooter", "name": "e12c3012b99bc9d2016f81106c141262", "rental_uris": {"ios": "https://dc.lft.to/lastmile_qr_scan", "android": "https://dc.lft.to/lastmile_qr_scan"}, "fusion_lon": 0.0, "lat": 38.9016515, "is_disabled": 0, "bike_id": "e12c3012b99bc9d2016f81106c141262", "fusion_lat": 0.0, "is_reserved": 0, "lon": -76.98069883333334}, {"type": "electric_scooter", "name": "4b229a1d5f1e185eb7660a94d0eb77cb", "rental_uris": {"ios": "https://dc.lft.to/lastmile_qr_scan", "android": "https://dc.lft.to/lastmile_qr_scan"}, "fusion_lon": 0.0, "lat": 38.904543333333336, "is_disabled": 0, "bike_id": "4b229a1d5f1e185eb7660a94d0eb77cb", "fusion_lat": 0.0, "is_reserved": 0, "lon": -77.01906283333334}, {"type": "electric_scooter", "name": "3d8b186b6f51a87e1f84e86c6fe2202b", "rental_uris": {"ios": "https://dc.lft.to/lastmile_qr_scan", "android": "https://dc.lft.to/lastmile_qr_scan"}, "fusion_lon": 0.0, "lat": 38.9297815, "is_disabled": 0, "bike_id": "3d8b186b6f51a87e1f84e86c6fe2202b", "fusion_lat": 0.0, "is_reserved": 0, "lon": -77.05501166666667}, {"type": "electric_scooter", "name": "405997b2ff0f6d2c41d5aaaeba6635cb", "rental_uris": {"ios": "https://dc.lft.to/lastmile_qr_scan", "android": "https://dc.lft.to/lastmile_qr_scan"}, "fusion_lon": 0.0, "lat": 38.902828166666666, "is_disabled": 0, "bike_id": "405997b2ff0f6d2c41d5aaaeba6635cb", "fusion_lat": 0.0, "is_reserved": 0, "lon": -77.03508616666667}, {"type": "electric_scooter", "name": "7320f705f14b06fa09d7a3017fb1a23f", "rental_uris": {"ios": "https://dc.lft.to/lastmile_qr_scan", "android": "https://dc.lft.to/lastmile_qr_scan"}, "fusion_lon": 0.0, "lat": 38.973712666666664, "is_disabled": 0, "bike_id": "7320f705f14b06fa09d7a3017fb1a23f", "fusion_lat": 0.0, "is_reserved": 0, "lon": -77.01852683333334}, {"type": "electric_scooter", "name": "95f31f25863d4393ef5f5a9311d7870c", "rental_uris": {"ios": "https://dc.lft.to/lastmile_qr_scan", "android": "https://dc.lft.to/lastmile_qr_scan"}, "fusion_lon": 0.0, "lat": 38.9016725, "is_disabled": 0, "bike_id": "95f31f25863d4393ef5f5a9311d7870c", "fusion_lat": 0.0, "is_reserved": 0, "lon": -77.01308466666667}, {"type": "electric_scooter", "name": "3fa9214f0ff655c5d3c86e65a0149fc9", "rental_uris": {"ios": "https://dc.lft.to/lastmile_qr_scan", "android": "https://dc.lft.to/lastmile_qr_scan"}, "fusion_lon": 0.0, "lat": 38.9124045, "is_disabled": 0, "bike_id": "3fa9214f0ff655c5d3c86e65a0149fc9", "fusion_lat": 0.0, "is_reserved": 0, "lon": -76.98792383333333}, {"type": "electric_scooter", "name": "01705ae5154b2ac83a3bafcd009f7753", "rental_uris": {"ios": "https://dc.lft.to/lastmile_qr_scan", "android": "https://dc.lft.to/lastmile_qr_scan"}, "fusion_lon": 0.0, "lat": 38.8922485, "is_disabled": 0, "bike_id": "01705ae5154b2ac83a3bafcd009f7753", "fusion_lat": 0.0, "is_reserved": 0, "lon": -77.04377533333333}, {"type": "electric_scooter", "name": "7c1503c8ad4abb9e3c42f06850487ad5", "rental_uris": {"ios": "https://dc.lft.to/lastmile_qr_scan", "android": "https://dc.lft.to/lastmile_qr_scan"}, "fusion_lon": 0.0, "lat": 38.892226, "is_disabled": 0, "bike_id": "7c1503c8ad4abb9e3c42f06850487ad5", "fusion_lat": 0.0, "is_reserved": 0, "lon": -77.03339766666667}, {"type": "electric_scooter", "name": "f7c3e7e196b7b7fcce5211eb85d44556", "rental_uris": {"ios": "https://dc.lft.to/lastmile_qr_scan", "android": "https://dc.lft.to/lastmile_qr_scan"}, "fusion_lon": 0.0, "lat": 38.9058045, "is_disabled": 0, "bike_id": "f7c3e7e196b7b7fcce5211eb85d44556", "fusion_lat": 0.0, "is_reserved": 0, "lon": -77.0056905}, {"type": "electric_scooter", "name": "01b0a7749786f2bb24faffca7c9bb11c", "rental_uris": {"ios": "https://dc.lft.to/lastmile_qr_scan", "android": "https://dc.lft.to/lastmile_qr_scan"}, "fusion_lon": 0.0, "lat": 38.933988666666664, "is_disabled": 0, "bike_id": "01b0a7749786f2bb24faffca7c9bb11c", "fusion_lat": 0.0, "is_reserved": 0, "lon": -77.05745816666666}, {"type": "electric_scooter", "name": "85a8548646a9bbfff5f891c69c1e382c", "rental_uris": {"ios": "https://dc.lft.to/lastmile_qr_scan", "android": "https://dc.lft.to/lastmile_qr_scan"}, "fusion_lon": 0.0, "lat": 38.91268, "is_disabled": 0, "bike_id": "85a8548646a9bbfff5f891c69c1e382c", "fusion_lat": 0.0, "is_reserved": 0, "lon": -77.02209116666667}, {"type": "electric_bike", "name": "8b746dece8fd83100ea8bcf588c5534c", "rental_uris": {"ios": "https://dc.lft.to/lastmile_qr_scan", "android": "https://dc.lft.to/lastmile_qr_scan"}, "fusion_lon": 0.0, "lat": 38.87679966666666, "is_disabled": 0, "bike_id": "8b746dece8fd83100ea8bcf588c5534c", "fusion_lat": 0.0, "is_reserved": 0, "lon": -77.0145445}, {"type": "electric_scooter", "name": "0acb6d6c677ce5f46fae571568f09341", "rental_uris": {"ios": "https://dc.lft.to/lastmile_qr_scan", "android": "https://dc.lft.to/lastmile_qr_scan"}, "fusion_lon": 0.0, "lat": 38.902924, "is_disabled": 0, "bike_id": "0acb6d6c677ce5f46fae571568f09341", "fusion_lat": 0.0, "is_reserved": 0, "lon": -76.976345}, {"type": "electric_scooter", "name": "df3fd2321b29bd5db665a31eafe6b0a6", "rental_uris": {"ios": "https://dc.lft.to/lastmile_qr_scan", "android": "https://dc.lft.to/lastmile_qr_scan"}, "fusion_lon": 0.0, "lat": 38.946207666666666, "is_disabled": 0, "bike_id": "df3fd2321b29bd5db665a31eafe6b0a6", "fusion_lat": 0.0, "is_reserved": 0, "lon": -77.03682066666667}, {"type": "electric_scooter", "name": "ac7f0986d61700d4e55e5767fed82648", "rental_uris": {"ios": "https://dc.lft.to/lastmile_qr_scan", "android": "https://dc.lft.to/lastmile_qr_scan"}, "fusion_lon": 0.0, "lat": 38.90530566666666, "is_disabled": 0, "bike_id": "ac7f0986d61700d4e55e5767fed82648", "fusion_lat": 0.0, "is_reserved": 0, "lon": -77.04854016666667}, {"type": "electric_scooter", "name": "c0334eecbcc4f020530865620c77a143", "rental_uris": {"ios": "https://dc.lft.to/lastmile_qr_scan", "android": "https://dc.lft.to/lastmile_qr_scan"}, "fusion_lon": 0.0, "lat": 38.89228333333333, "is_disabled": 0, "bike_id": "c0334eecbcc4f020530865620c77a143", "fusion_lat": 0.0, "is_reserved": 0, "lon": -77.03315483333333}, {"type": "electric_scooter", "name": "a9199e402b94bc3b1785281f8a0670b9", "rental_uris": {"ios": "https://dc.lft.to/lastmile_qr_scan", "android": "https://dc.lft.to/lastmile_qr_scan"}, "fusion_lon": 0.0, "lat": 38.975143333333335, "is_disabled": 0, "bike_id": "a9199e402b94bc3b1785281f8a0670b9", "fusion_lat": 0.0, "is_reserved": 0, "lon": -77.01672033333334}, {"type": "electric_scooter", "name": "02b6e53ca08319582aacd5260746590a", "rental_uris": {"ios": "https://dc.lft.to/lastmile_qr_scan", "android": "https://dc.lft.to/lastmile_qr_scan"}, "fusion_lon": 0.0, "lat": 38.926955666666665, "is_disabled": 0, "bike_id": "02b6e53ca08319582aacd5260746590a", "fusion_lat": 0.0, "is_reserved": 0, "lon": -77.03240816666667}, {"type": "electric_scooter", "name": "4d9307257b26116db5fa991344467181", "rental_uris": {"ios": "https://dc.lft.to/lastmile_qr_scan", "android": "https://dc.lft.to/lastmile_qr_scan"}, "fusion_lon": 0.0, "lat": 38.912546, "is_disabled": 0, "bike_id": "4d9307257b26116db5fa991344467181", "fusion_lat": 0.0, "is_reserved": 0, "lon": -77.04442483333334}, {"type": "electric_scooter", "name": "628a52e3f9020b97924f355f1cec644e", "rental_uris": {"ios": "https://dc.lft.to/lastmile_qr_scan", "android": "https://dc.lft.to/lastmile_qr_scan"}, "fusion_lon": 0.0, "lat": 38.91629283333333, "is_disabled": 0, "bike_id": "628a52e3f9020b97924f355f1cec644e", "fusion_lat": 0.0, "is_reserved": 0, "lon": -77.048733}, {"type": "electric_scooter", "name": "5228c6735659c6d256e44db7861b05da", "rental_uris": {"ios": "https://dc.lft.to/lastmile_qr_scan", "android": "https://dc.lft.to/lastmile_qr_scan"}, "fusion_lon": 0.0, "lat": 38.92115166666667, "is_disabled": 0, "bike_id": "5228c6735659c6d256e44db7861b05da", "fusion_lat": 0.0, "is_reserved": 0, "lon": -77.02523}, {"type": "electric_scooter", "name": "71744efe88d092ebe83b209184b913b9", "rental_uris": {"ios": "https://dc.lft.to/lastmile_qr_scan", "android": "https://dc.lft.to/lastmile_qr_scan"}, "fusion_lon": 0.0, "lat": 38.9047495, "is_disabled": 0, "bike_id": "71744efe88d092ebe83b209184b913b9", "fusion_lat": 0.0, "is_reserved": 0, "lon": -77.065332}, {"type": "electric_scooter", "name": "98c93c6144ac75130a83a3b94bcf88f1", "rental_uris": {"ios": "https://dc.lft.to/lastmile_qr_scan", "android": "https://dc.lft.to/lastmile_qr_scan"}, "fusion_lon": 0.0, "lat": 38.89723016666667, "is_disabled": 0, "bike_id": "98c93c6144ac75130a83a3b94bcf88f1", "fusion_lat": 0.0, "is_reserved": 0, "lon": -77.05523966666667}, {"type": "electric_scooter", "name": "51d9e178a7f070a770b585a2e285c511", "rental_uris": {"ios": "https://dc.lft.to/lastmile_qr_scan", "android": "https://dc.lft.to/lastmile_qr_scan"}, "fusion_lon": 0.0, "lat": 38.9141515, "is_disabled": 0, "bike_id": "51d9e178a7f070a770b585a2e285c511", "fusion_lat": 0.0, "is_reserved": 0, "lon": -77.018809}, {"type": "electric_bike", "name": "58fe9446f83a693f241a68740cb73379", "rental_uris": {"ios": "https://dc.lft.to/lastmile_qr_scan", "android": "https://dc.lft.to/lastmile_qr_scan"}, "fusion_lon": 0.0, "lat": 38.9977665, "is_disabled": 0, "bike_id": "58fe9446f83a693f241a68740cb73379", "fusion_lat": 0.0, "is_reserved": 0, "lon": -77.047197}, {"type": "electric_scooter", "name": "5d6d6d1955535c9c42da52fbc8f8ee3d", "rental_uris": {"ios": "https://dc.lft.to/lastmile_qr_scan", "android": "https://dc.lft.to/lastmile_qr_scan"}, "fusion_lon": 0.0, "lat": 38.9013985, "is_disabled": 0, "bike_id": "5d6d6d1955535c9c42da52fbc8f8ee3d", "fusion_lat": 0.0, "is_reserved": 0, "lon": -77.04218}, {"type": "electric_scooter", "name": "3d260448855b5c03f1df70ba0209cbf4", "rental_uris": {"ios": "https://dc.lft.to/lastmile_qr_scan", "android": "https://dc.lft.to/lastmile_qr_scan"}, "fusion_lon": 0.0, "lat": 38.93497433333334, "is_disabled": 0, "bike_id": "3d260448855b5c03f1df70ba0209cbf4", "fusion_lat": 0.0, "is_reserved": 0, "lon": -77.024149}, {"type": "electric_scooter", "name": "a706d65809292bc1ccdaec663c9589f8", "rental_uris": {"ios": "https://dc.lft.to/lastmile_qr_scan", "android": "https://dc.lft.to/lastmile_qr_scan"}, "fusion_lon": 0.0, "lat": 38.884937, "is_disabled": 0, "bike_id": "a706d65809292bc1ccdaec663c9589f8", "fusion_lat": 0.0, "is_reserved": 0, "lon": -77.00729733333333}, {"type": "electric_scooter", "name": "d51d0e87b7f80b88a5309b274b168f7f", "rental_uris": {"ios": "https://dc.lft.to/lastmile_qr_scan", "android": "https://dc.lft.to/lastmile_qr_scan"}, "fusion_lon": 0.0, "lat": 38.885199, "is_disabled": 0, "bike_id": "d51d0e87b7f80b88a5309b274b168f7f", "fusion_lat": 0.0, "is_reserved": 0, "lon": -77.01501966666666}, {"type": "electric_scooter", "name": "771f81c7f19b47e319f04e0d934bf69e", "rental_uris": {"ios": "https://dc.lft.to/lastmile_qr_scan", "android": "https://dc.lft.to/lastmile_qr_scan"}, "fusion_lon": 0.0, "lat": 38.874577, "is_disabled": 0, "bike_id": "771f81c7f19b47e319f04e0d934bf69e", "fusion_lat": 0.0, "is_reserved": 0, "lon": -77.0096965}, {"type": "electric_scooter", "name": "706ba43bfaedbb67e72665fd65dcbe02", "rental_uris": {"ios": "https://dc.lft.to/lastmile_qr_scan", "android": "https://dc.lft.to/lastmile_qr_scan"}, "fusion_lon": 0.0, "lat": 38.91477583333333, "is_disabled": 0, "bike_id": "706ba43bfaedbb67e72665fd65dcbe02", "fusion_lat": 0.0, "is_reserved": 0, "lon": -77.02960533333334}, {"type": "electric_scooter", "name": "a3736730749e0b4a48423943475dbe2f", "rental_uris": {"ios": "https://dc.lft.to/lastmile_qr_scan", "android": "https://dc.lft.to/lastmile_qr_scan"}, "fusion_lon": 0.0, "lat": 38.903168666666666, "is_disabled": 0, "bike_id": "a3736730749e0b4a48423943475dbe2f", "fusion_lat": 0.0, "is_reserved": 0, "lon": -77.02485716666666}, {"type": "electric_scooter", "name": "4126ffe9e88f3f48780ac343817270ea", "rental_uris": {"ios": "https://dc.lft.to/lastmile_qr_scan", "android": "https://dc.lft.to/lastmile_qr_scan"}, "fusion_lon": 0.0, "lat": 38.938435, "is_disabled": 0, "bike_id": "4126ffe9e88f3f48780ac343817270ea", "fusion_lat": 0.0, "is_reserved": 0, "lon": -77.0338735}, {"type": "electric_scooter", "name": "2d5a893b2daa687eb256068172be8fca", "rental_uris": {"ios": "https://dc.lft.to/lastmile_qr_scan", "android": "https://dc.lft.to/lastmile_qr_scan"}, "fusion_lon": 0.0, "lat": 38.860651833333336, "is_disabled": 0, "bike_id": "2d5a893b2daa687eb256068172be8fca", "fusion_lat": 0.0, "is_reserved": 0, "lon": -76.98501783333333}, {"type": "electric_scooter", "name": "85ab8b13a63bebe3082a56830477b1cd", "rental_uris": {"ios": "https://dc.lft.to/lastmile_qr_scan", "android": "https://dc.lft.to/lastmile_qr_scan"}, "fusion_lon": 0.0, "lat": 38.928488, "is_disabled": 0, "bike_id": "85ab8b13a63bebe3082a56830477b1cd", "fusion_lat": 0.0, "is_reserved": 0, "lon": -77.0330515}, {"type": "electric_scooter", "name": "c5c52189a7af98379e14d1f76ef85b08", "rental_uris": {"ios": "https://dc.lft.to/lastmile_qr_scan", "android": "https://dc.lft.to/lastmile_qr_scan"}, "fusion_lon": 0.0, "lat": 38.904441166666665, "is_disabled": 0, "bike_id": "c5c52189a7af98379e14d1f76ef85b08", "fusion_lat": 0.0, "is_reserved": 0, "lon": -76.9961815}, {"type": "electric_bike", "name": "2b43b2355161923e7247e1d7248f81ac", "rental_uris": {"ios": "https://dc.lft.to/lastmile_qr_scan", "android": "https://dc.lft.to/lastmile_qr_scan"}, "fusion_lon": 0.0, "lat": 38.984997166666666, "is_disabled": 0, "bike_id": "2b43b2355161923e7247e1d7248f81ac", "fusion_lat": 0.0, "is_reserved": 0, "lon": -76.98198033333334}, {"type": "electric_scooter", "name": "95b50103d394e3e0fad3242776533203", "rental_uris": {"ios": "https://dc.lft.to/lastmile_qr_scan", "android": "https://dc.lft.to/lastmile_qr_scan"}, "fusion_lon": 0.0, "lat": 38.902059666666666, "is_disabled": 0, "bike_id": "95b50103d394e3e0fad3242776533203", "fusion_lat": 0.0, "is_reserved": 0, "lon": -77.02379633333334}, {"type": "electric_scooter", "name": "4b079d5a0b451e4a83dd98e9e47a02cd", "rental_uris": {"ios": "https://dc.lft.to/lastmile_qr_scan", "android": "https://dc.lft.to/lastmile_qr_scan"}, "fusion_lon": 0.0, "lat": 38.887436, "is_disabled": 0, "bike_id": "4b079d5a0b451e4a83dd98e9e47a02cd", "fusion_lat": 0.0, "is_reserved": 0, "lon": -77.0173285}, {"type": "electric_scooter", "name": "05f3a2b74b2fe28eba05f10e442fbdc1", "rental_uris": {"ios": "https://dc.lft.to/lastmile_qr_scan", "android": "https://dc.lft.to/lastmile_qr_scan"}, "fusion_lon": 0.0, "lat": 38.884888333333336, "is_disabled": 0, "bike_id": "05f3a2b74b2fe28eba05f10e442fbdc1", "fusion_lat": 0.0, "is_reserved": 0, "lon": -77.00711933333334}, {"type": "electric_scooter", "name": "b283e5909906bd63aea273c0beaa138a", "rental_uris": {"ios": "https://dc.lft.to/lastmile_qr_scan", "android": "https://dc.lft.to/lastmile_qr_scan"}, "fusion_lon": 0.0, "lat": 38.917631, "is_disabled": 0, "bike_id": "b283e5909906bd63aea273c0beaa138a", "fusion_lat": 0.0, "is_reserved": 0, "lon": -77.01214933333333}, {"type": "electric_scooter", "name": "88d99d9f0cec5e9b5a21b78639fb0540", "rental_uris": {"ios": "https://dc.lft.to/lastmile_qr_scan", "android": "https://dc.lft.to/lastmile_qr_scan"}, "fusion_lon": 0.0, "lat": 38.924162, "is_disabled": 0, "bike_id": "88d99d9f0cec5e9b5a21b78639fb0540", "fusion_lat": 0.0, "is_reserved": 0, "lon": -77.05178416666666}, {"type": "electric_scooter", "name": "66dfacd4c87289a5b26305e55e31859f", "rental_uris": {"ios": "https://dc.lft.to/lastmile_qr_scan", "android": "https://dc.lft.to/lastmile_qr_scan"}, "fusion_lon": 0.0, "lat": 38.91715283333333, "is_disabled": 0, "bike_id": "66dfacd4c87289a5b26305e55e31859f", "fusion_lat": 0.0, "is_reserved": 0, "lon": -77.04155066666667}, {"type": "electric_scooter", "name": "8bd8fd13c8896f31e98de177c055f760", "rental_uris": {"ios": "https://dc.lft.to/lastmile_qr_scan", "android": "https://dc.lft.to/lastmile_qr_scan"}, "fusion_lon": 0.0, "lat": 38.88397233333333, "is_disabled": 0, "bike_id": "8bd8fd13c8896f31e98de177c055f760", "fusion_lat": 0.0, "is_reserved": 0, "lon": -76.98592366666666}, {"type": "electric_scooter", "name": "4239d5975da08722d0353655ae37e575", "rental_uris": {"ios": "https://dc.lft.to/lastmile_qr_scan", "android": "https://dc.lft.to/lastmile_qr_scan"}, "fusion_lon": 0.0, "lat": 38.913188, "is_disabled": 0, "bike_id": "4239d5975da08722d0353655ae37e575", "fusion_lat": 0.0, "is_reserved": 0, "lon": -77.017525}, {"type": "electric_scooter", "name": "219d3ff8a0f7e6ee73945a843ca4633e", "rental_uris": {"ios": "https://dc.lft.to/lastmile_qr_scan", "android": "https://dc.lft.to/lastmile_qr_scan"}, "fusion_lon": 0.0, "lat": 38.8955795, "is_disabled": 0, "bike_id": "219d3ff8a0f7e6ee73945a843ca4633e", "fusion_lat": 0.0, "is_reserved": 0, "lon": -76.99839333333334}, {"type": "electric_scooter", "name": "8808bd76038eb221fd437894c02d703b", "rental_uris": {"ios": "https://dc.lft.to/lastmile_qr_scan", "android": "https://dc.lft.to/lastmile_qr_scan"}, "fusion_lon": 0.0, "lat": 38.90123116666667, "is_disabled": 0, "bike_id": "8808bd76038eb221fd437894c02d703b", "fusion_lat": 0.0, "is_reserved": 0, "lon": -77.04638033333333}, {"type": "electric_scooter", "name": "25fe6337eac664fe5fbd5abb7de2d518", "rental_uris": {"ios": "https://dc.lft.to/lastmile_qr_scan", "android": "https://dc.lft.to/lastmile_qr_scan"}, "fusion_lon": 0.0, "lat": 38.91428333333333, "is_disabled": 0, "bike_id": "25fe6337eac664fe5fbd5abb7de2d518", "fusion_lat": 0.0, "is_reserved": 0, "lon": -77.06420583333333}, {"type": "electric_scooter", "name": "bfbb21483661520361a6b1c428e019bb", "rental_uris": {"ios": "https://dc.lft.to/lastmile_qr_scan", "android": "https://dc.lft.to/lastmile_qr_scan"}, "fusion_lon": 0.0, "lat": 38.928819833333336, "is_disabled": 0, "bike_id": "bfbb21483661520361a6b1c428e019bb", "fusion_lat": 0.0, "is_reserved": 0, "lon": -77.02708233333334}, {"type": "electric_scooter", "name": "f677e4d78c98ce319613aef063c1f29c", "rental_uris": {"ios": "https://dc.lft.to/lastmile_qr_scan", "android": "https://dc.lft.to/lastmile_qr_scan"}, "fusion_lon": 0.0, "lat": 38.913179166666666, "is_disabled": 0, "bike_id": "f677e4d78c98ce319613aef063c1f29c", "fusion_lat": 0.0, "is_reserved": 0, "lon": -77.01513233333333}, {"type": "electric_scooter", "name": "b82c3325321cd9c941c1373bf980d317", "rental_uris": {"ios": "https://dc.lft.to/lastmile_qr_scan", "android": "https://dc.lft.to/lastmile_qr_scan"}, "fusion_lon": 0.0, "lat": 38.898358333333334, "is_disabled": 0, "bike_id": "b82c3325321cd9c941c1373bf980d317", "fusion_lat": 0.0, "is_reserved": 0, "lon": -77.03170616666667}, {"type": "electric_scooter", "name": "61027133aa6e43e645dcd7ae492b8458", "rental_uris": {"ios": "https://dc.lft.to/lastmile_qr_scan", "android": "https://dc.lft.to/lastmile_qr_scan"}, "fusion_lon": 0.0, "lat": 38.902588, "is_disabled": 0, "bike_id": "61027133aa6e43e645dcd7ae492b8458", "fusion_lat": 0.0, "is_reserved": 0, "lon": -76.9745535}, {"type": "electric_scooter", "name": "94940f78cbbb04aa1e1583efa3eb982d", "rental_uris": {"ios": "https://dc.lft.to/lastmile_qr_scan", "android": "https://dc.lft.to/lastmile_qr_scan"}, "fusion_lon": 0.0, "lat": 38.908649833333335, "is_disabled": 0, "bike_id": "94940f78cbbb04aa1e1583efa3eb982d", "fusion_lat": 0.0, "is_reserved": 0, "lon": -76.997997}, {"type": "electric_scooter", "name": "f2de42f66007f186fa488e2f088f8b5e", "rental_uris": {"ios": "https://dc.lft.to/lastmile_qr_scan", "android": "https://dc.lft.to/lastmile_qr_scan"}, "fusion_lon": 0.0, "lat": 38.9150715, "is_disabled": 0, "bike_id": "f2de42f66007f186fa488e2f088f8b5e", "fusion_lat": 0.0, "is_reserved": 0, "lon": -77.03831816666667}, {"type": "electric_scooter", "name": "c649f8ca18dd58fc52680f5a48d17a70", "rental_uris": {"ios": "https://dc.lft.to/lastmile_qr_scan", "android": "https://dc.lft.to/lastmile_qr_scan"}, "fusion_lon": 0.0, "lat": 38.912571, "is_disabled": 0, "bike_id": "c649f8ca18dd58fc52680f5a48d17a70", "fusion_lat": 0.0, "is_reserved": 0, "lon": -77.0190975}, {"type": "electric_scooter", "name": "4667f9e42b86dbfe07400b9873c04748", "rental_uris": {"ios": "https://dc.lft.to/lastmile_qr_scan", "android": "https://dc.lft.to/lastmile_qr_scan"}, "fusion_lon": 0.0, "lat": 38.907858166666664, "is_disabled": 0, "bike_id": "4667f9e42b86dbfe07400b9873c04748", "fusion_lat": 0.0, "is_reserved": 0, "lon": -77.04006216666667}, {"type": "electric_scooter", "name": "6aff16cb675e15e54296661fae8a0cd8", "rental_uris": {"ios": "https://dc.lft.to/lastmile_qr_scan", "android": "https://dc.lft.to/lastmile_qr_scan"}, "fusion_lon": 0.0, "lat": 38.904108, "is_disabled": 0, "bike_id": "6aff16cb675e15e54296661fae8a0cd8", "fusion_lat": 0.0, "is_reserved": 0, "lon": -76.97332633333333}, {"type": "electric_scooter", "name": "e99d0a7afff69ae9f1c71da4968e849f", "rental_uris": {"ios": "https://dc.lft.to/lastmile_qr_scan", "android": "https://dc.lft.to/lastmile_qr_scan"}, "fusion_lon": 0.0, "lat": 38.921000166666666, "is_disabled": 0, "bike_id": "e99d0a7afff69ae9f1c71da4968e849f", "fusion_lat": 0.0, "is_reserved": 0, "lon": -77.0469295}, {"type": "electric_scooter", "name": "4bd74414452aa13bd1eae08c5ea440e2", "rental_uris": {"ios": "https://dc.lft.to/lastmile_qr_scan", "android": "https://dc.lft.to/lastmile_qr_scan"}, "fusion_lon": 0.0, "lat": 38.92059833333333, "is_disabled": 0, "bike_id": "4bd74414452aa13bd1eae08c5ea440e2", "fusion_lat": 0.0, "is_reserved": 0, "lon": -77.02535366666666}, {"type": "electric_scooter", "name": "00ee87e6513294e6f330cc6ea87163a1", "rental_uris": {"ios": "https://dc.lft.to/lastmile_qr_scan", "android": "https://dc.lft.to/lastmile_qr_scan"}, "fusion_lon": 0.0, "lat": 38.87392066666666, "is_disabled": 0, "bike_id": "00ee87e6513294e6f330cc6ea87163a1", "fusion_lat": 0.0, "is_reserved": 0, "lon": -77.00211283333333}, {"type": "electric_scooter", "name": "eb2cc865a25803fd4dae4a3344fef833", "rental_uris": {"ios": "https://dc.lft.to/lastmile_qr_scan", "android": "https://dc.lft.to/lastmile_qr_scan"}, "fusion_lon": 0.0, "lat": 38.9097875, "is_disabled": 0, "bike_id": "eb2cc865a25803fd4dae4a3344fef833", "fusion_lat": 0.0, "is_reserved": 0, "lon": -77.06503216666667}, {"type": "electric_scooter", "name": "3f0b3ea2772ed1631f6fe9a8653cf06b", "rental_uris": {"ios": "https://dc.lft.to/lastmile_qr_scan", "android": "https://dc.lft.to/lastmile_qr_scan"}, "fusion_lon": 0.0, "lat": 38.900154666666666, "is_disabled": 0, "bike_id": "3f0b3ea2772ed1631f6fe9a8653cf06b", "fusion_lat": 0.0, "is_reserved": 0, "lon": -76.98848483333333}, {"type": "electric_scooter", "name": "4a97dcb82a34b0a581c7311259f5baf1", "rental_uris": {"ios": "https://dc.lft.to/lastmile_qr_scan", "android": "https://dc.lft.to/lastmile_qr_scan"}, "fusion_lon": 0.0, "lat": 38.88333933333333, "is_disabled": 0, "bike_id": "4a97dcb82a34b0a581c7311259f5baf1", "fusion_lat": 0.0, "is_reserved": 0, "lon": -77.0173245}, {"type": "electric_scooter", "name": "e6cca8afc10c5b30977b8e470836f2fc", "rental_uris": {"ios": "https://dc.lft.to/lastmile_qr_scan", "android": "https://dc.lft.to/lastmile_qr_scan"}, "fusion_lon": 0.0, "lat": 38.904555333333334, "is_disabled": 0, "bike_id": "e6cca8afc10c5b30977b8e470836f2fc", "fusion_lat": 0.0, "is_reserved": 0, "lon": -77.03464933333333}, {"type": "electric_scooter", "name": "195d1fe0ca984807604d8d50361c739e", "rental_uris": {"ios": "https://dc.lft.to/lastmile_qr_scan", "android": "https://dc.lft.to/lastmile_qr_scan"}, "fusion_lon": 0.0, "lat": 38.91906733333333, "is_disabled": 0, "bike_id": "195d1fe0ca984807604d8d50361c739e", "fusion_lat": 0.0, "is_reserved": 0, "lon": -77.0410695}, {"type": "electric_bike", "name": "b5eb9f53da79760b895567ac90c64375", "rental_uris": {"ios": "https://dc.lft.to/lastmile_qr_scan", "android": "https://dc.lft.to/lastmile_qr_scan"}, "fusion_lon": 0.0, "lat": 39.0525495, "is_disabled": 0, "bike_id": "b5eb9f53da79760b895567ac90c64375", "fusion_lat": 0.0, "is_reserved": 0, "lon": -77.08067666666666}, {"type": "electric_scooter", "name": "23b97abf530f0464971000c8fd7a83ab", "rental_uris": {"ios": "https://dc.lft.to/lastmile_qr_scan", "android": "https://dc.lft.to/lastmile_qr_scan"}, "fusion_lon": 0.0, "lat": 38.905039333333335, "is_disabled": 0, "bike_id": "23b97abf530f0464971000c8fd7a83ab", "fusion_lat": 0.0, "is_reserved": 0, "lon": -77.02947166666667}, {"type": "electric_scooter", "name": "27357ec08636e0e9cdcc7f1e4a456c2e", "rental_uris": {"ios": "https://dc.lft.to/lastmile_qr_scan", "android": "https://dc.lft.to/lastmile_qr_scan"}, "fusion_lon": 0.0, "lat": 38.896156500000004, "is_disabled": 0, "bike_id": "27357ec08636e0e9cdcc7f1e4a456c2e", "fusion_lat": 0.0, "is_reserved": 0, "lon": -77.00919833333333}, {"type": "electric_scooter", "name": "2525222828c18ee60473961d44c0eb85", "rental_uris": {"ios": "https://dc.lft.to/lastmile_qr_scan", "android": "https://dc.lft.to/lastmile_qr_scan"}, "fusion_lon": 0.0, "lat": 38.93913666666667, "is_disabled": 0, "bike_id": "2525222828c18ee60473961d44c0eb85", "fusion_lat": 0.0, "is_reserved": 0, "lon": -77.03622033333333}, {"type": "electric_scooter", "name": "25cfdd32beb55ca39be82072857dbb6d", "rental_uris": {"ios": "https://dc.lft.to/lastmile_qr_scan", "android": "https://dc.lft.to/lastmile_qr_scan"}, "fusion_lon": 0.0, "lat": 38.87371016666667, "is_disabled": 0, "bike_id": "25cfdd32beb55ca39be82072857dbb6d", "fusion_lat": 0.0, "is_reserved": 0, "lon": -76.97004116666666}, {"type": "electric_scooter", "name": "fe05bd924d671f957fbcbf06f007459b", "rental_uris": {"ios": "https://dc.lft.to/lastmile_qr_scan", "android": "https://dc.lft.to/lastmile_qr_scan"}, "fusion_lon": 0.0, "lat": 38.88311183333333, "is_disabled": 0, "bike_id": "fe05bd924d671f957fbcbf06f007459b", "fusion_lat": 0.0, "is_reserved": 0, "lon": -77.01766916666666}, {"type": "electric_scooter", "name": "0aa13aac642049ee272687bae5151c14", "rental_uris": {"ios": "https://dc.lft.to/lastmile_qr_scan", "android": "https://dc.lft.to/lastmile_qr_scan"}, "fusion_lon": 0.0, "lat": 38.89875516666667, "is_disabled": 0, "bike_id": "0aa13aac642049ee272687bae5151c14", "fusion_lat": 0.0, "is_reserved": 0, "lon": -76.9318715}, {"type": "electric_bike", "name": "6032bc8449c1bda8064101f624bb564d", "rental_uris": {"ios": "https://dc.lft.to/lastmile_qr_scan", "android": "https://dc.lft.to/lastmile_qr_scan"}, "fusion_lon": 0.0, "lat": 38.93049283333333, "is_disabled": 0, "bike_id": "6032bc8449c1bda8064101f624bb564d", "fusion_lat": 0.0, "is_reserved": 0, "lon": -76.95835333333333}, {"type": "electric_scooter", "name": "aa721a27c8f1405ac470f1286cc94727", "rental_uris": {"ios": "https://dc.lft.to/lastmile_qr_scan", "android": "https://dc.lft.to/lastmile_qr_scan"}, "fusion_lon": 0.0, "lat": 38.917756, "is_disabled": 0, "bike_id": "aa721a27c8f1405ac470f1286cc94727", "fusion_lat": 0.0, "is_reserved": 0, "lon": -77.01917083333333}, {"type": "electric_bike", "name": "48e6d4fa11b6435e4f737dc38751a347", "rental_uris": {"ios": "https://dc.lft.to/lastmile_qr_scan", "android": "https://dc.lft.to/lastmile_qr_scan"}, "fusion_lon": 0.0, "lat": 38.816087833333334, "is_disabled": 0, "bike_id": "48e6d4fa11b6435e4f737dc38751a347", "fusion_lat": 0.0, "is_reserved": 0, "lon": -76.996564}, {"type": "electric_bike", "name": "80ec629ead2fdc18d8dd60af220e11f3", "rental_uris": {"ios": "https://dc.lft.to/lastmile_qr_scan", "android": "https://dc.lft.to/lastmile_qr_scan"}, "fusion_lon": 0.0, "lat": 38.89811383333333, "is_disabled": 0, "bike_id": "80ec629ead2fdc18d8dd60af220e11f3", "fusion_lat": 0.0, "is_reserved": 0, "lon": -76.99065566666667}, {"type": "electric_scooter", "name": "8b72ffd027168b82c80f96972dfdf2c6", "rental_uris": {"ios": "https://dc.lft.to/lastmile_qr_scan", "android": "https://dc.lft.to/lastmile_qr_scan"}, "fusion_lon": 0.0, "lat": 38.90913283333333, "is_disabled": 0, "bike_id": "8b72ffd027168b82c80f96972dfdf2c6", "fusion_lat": 0.0, "is_reserved": 0, "lon": -76.98634566666667}, {"type": "electric_scooter", "name": "fee77a136c9c6c8e308b4d86b377dbe4", "rental_uris": {"ios": "https://dc.lft.to/lastmile_qr_scan", "android": "https://dc.lft.to/lastmile_qr_scan"}, "fusion_lon": 0.0, "lat": 38.895270333333336, "is_disabled": 0, "bike_id": "fee77a136c9c6c8e308b4d86b377dbe4", "fusion_lat": 0.0, "is_reserved": 0, "lon": -77.002086}, {"type": "electric_bike", "name": "1cad6694d71af87ddff96a4db904acf3", "rental_uris": {"ios": "https://dc.lft.to/lastmile_qr_scan", "android": "https://dc.lft.to/lastmile_qr_scan"}, "fusion_lon": 0.0, "lat": 39.014195, "is_disabled": 0, "bike_id": "1cad6694d71af87ddff96a4db904acf3", "fusion_lat": 0.0, "is_reserved": 0, "lon": -77.044977}, {"type": "electric_scooter", "name": "ded235fe090287d03b858a1100eec96d", "rental_uris": {"ios": "https://dc.lft.to/lastmile_qr_scan", "android": "https://dc.lft.to/lastmile_qr_scan"}, "fusion_lon": 0.0, "lat": 38.920425, "is_disabled": 0, "bike_id": "ded235fe090287d03b858a1100eec96d", "fusion_lat": 0.0, "is_reserved": 0, "lon": -77.0178995}, {"type": "electric_scooter", "name": "7643f347e29b7a9a7a6f8867eb39a54d", "rental_uris": {"ios": "https://dc.lft.to/lastmile_qr_scan", "android": "https://dc.lft.to/lastmile_qr_scan"}, "fusion_lon": 0.0, "lat": 38.885040333333336, "is_disabled": 0, "bike_id": "7643f347e29b7a9a7a6f8867eb39a54d", "fusion_lat": 0.0, "is_reserved": 0, "lon": -76.99753016666666}, {"type": "electric_bike", "name": "9af0d37e9170c0f2aeffc1aefd3235a8", "rental_uris": {"ios": "https://dc.lft.to/lastmile_qr_scan", "android": "https://dc.lft.to/lastmile_qr_scan"}, "fusion_lon": 0.0, "lat": 38.85790733333333, "is_disabled": 0, "bike_id": "9af0d37e9170c0f2aeffc1aefd3235a8", "fusion_lat": 0.0, "is_reserved": 0, "lon": -77.09961383333334}, {"type": "electric_scooter", "name": "4191bbb6f09b5dacf1363b65644d9e72", "rental_uris": {"ios": "https://dc.lft.to/lastmile_qr_scan", "android": "https://dc.lft.to/lastmile_qr_scan"}, "fusion_lon": 0.0, "lat": 38.916128, "is_disabled": 0, "bike_id": "4191bbb6f09b5dacf1363b65644d9e72", "fusion_lat": 0.0, "is_reserved": 0, "lon": -77.04621816666666}, {"type": "electric_scooter", "name": "8daff994a22a84b35c126d80f421976e", "rental_uris": {"ios": "https://dc.lft.to/lastmile_qr_scan", "android": "https://dc.lft.to/lastmile_qr_scan"}, "fusion_lon": 0.0, "lat": 38.934019666666664, "is_disabled": 0, "bike_id": "8daff994a22a84b35c126d80f421976e", "fusion_lat": 0.0, "is_reserved": 0, "lon": -77.05745683333333}, {"type": "electric_scooter", "name": "d57ac0c17c17912228548e94a20687c6", "rental_uris": {"ios": "https://dc.lft.to/lastmile_qr_scan", "android": "https://dc.lft.to/lastmile_qr_scan"}, "fusion_lon": 0.0, "lat": 38.92085866666667, "is_disabled": 0, "bike_id": "d57ac0c17c17912228548e94a20687c6", "fusion_lat": 0.0, "is_reserved": 0, "lon": -77.022551}, {"type": "electric_scooter", "name": "9d58a86cf7e67229bebe46f6365fafec", "rental_uris": {"ios": "https://dc.lft.to/lastmile_qr_scan", "android": "https://dc.lft.to/lastmile_qr_scan"}, "fusion_lon": 0.0, "lat": 38.91419066666667, "is_disabled": 0, "bike_id": "9d58a86cf7e67229bebe46f6365fafec", "fusion_lat": 0.0, "is_reserved": 0, "lon": -77.02364583333333}, {"type": "electric_scooter", "name": "effaaba0d432c9aaf19ee4426cb45d4d", "rental_uris": {"ios": "https://dc.lft.to/lastmile_qr_scan", "android": "https://dc.lft.to/lastmile_qr_scan"}, "fusion_lon": 0.0, "lat": 38.91726383333334, "is_disabled": 0, "bike_id": "effaaba0d432c9aaf19ee4426cb45d4d", "fusion_lat": 0.0, "is_reserved": 0, "lon": -77.0258985}, {"type": "electric_scooter", "name": "6ac94e05d0f697a1a407d1a87e3c96fb", "rental_uris": {"ios": "https://dc.lft.to/lastmile_qr_scan", "android": "https://dc.lft.to/lastmile_qr_scan"}, "fusion_lon": 0.0, "lat": 38.896743666666666, "is_disabled": 0, "bike_id": "6ac94e05d0f697a1a407d1a87e3c96fb", "fusion_lat": 0.0, "is_reserved": 0, "lon": -77.00519616666666}, {"type": "electric_scooter", "name": "7e2d7ff6a4f845655d7775eebb104a8a", "rental_uris": {"ios": "https://dc.lft.to/lastmile_qr_scan", "android": "https://dc.lft.to/lastmile_qr_scan"}, "fusion_lon": 0.0, "lat": 38.92683133333333, "is_disabled": 0, "bike_id": "7e2d7ff6a4f845655d7775eebb104a8a", "fusion_lat": 0.0, "is_reserved": 0, "lon": -77.0379185}, {"type": "electric_scooter", "name": "8e8ece1eb7757b48d3af7e64557dd4de", "rental_uris": {"ios": "https://dc.lft.to/lastmile_qr_scan", "android": "https://dc.lft.to/lastmile_qr_scan"}, "fusion_lon": 0.0, "lat": 38.90809183333333, "is_disabled": 0, "bike_id": "8e8ece1eb7757b48d3af7e64557dd4de", "fusion_lat": 0.0, "is_reserved": 0, "lon": -77.0345175}, {"type": "electric_scooter", "name": "fb4ad2227e7c9872074e610f3bcca245", "rental_uris": {"ios": "https://dc.lft.to/lastmile_qr_scan", "android": "https://dc.lft.to/lastmile_qr_scan"}, "fusion_lon": 0.0, "lat": 38.910387166666666, "is_disabled": 0, "bike_id": "fb4ad2227e7c9872074e610f3bcca245", "fusion_lat": 0.0, "is_reserved": 0, "lon": -77.0410205}, {"type": "electric_scooter", "name": "e38e96c3ea3a0756240198cb3fa00acd", "rental_uris": {"ios": "https://dc.lft.to/lastmile_qr_scan", "android": "https://dc.lft.to/lastmile_qr_scan"}, "fusion_lon": 0.0, "lat": 38.92083916666667, "is_disabled": 0, "bike_id": "e38e96c3ea3a0756240198cb3fa00acd", "fusion_lat": 0.0, "is_reserved": 0, "lon": -77.0409235}, {"type": "electric_scooter", "name": "0267d10cd767af31dca848a4618831d8", "rental_uris": {"ios": "https://dc.lft.to/lastmile_qr_scan", "android": "https://dc.lft.to/lastmile_qr_scan"}, "fusion_lon": 0.0, "lat": 38.94327966666667, "is_disabled": 0, "bike_id": "0267d10cd767af31dca848a4618831d8", "fusion_lat": 0.0, "is_reserved": 0, "lon": -77.01310633333334}, {"type": "electric_scooter", "name": "97d26f7a7e7f16daa51530a52790fd40", "rental_uris": {"ios": "https://dc.lft.to/lastmile_qr_scan", "android": "https://dc.lft.to/lastmile_qr_scan"}, "fusion_lon": 0.0, "lat": 38.935600666666666, "is_disabled": 0, "bike_id": "97d26f7a7e7f16daa51530a52790fd40", "fusion_lat": 0.0, "is_reserved": 0, "lon": -77.081891}, {"type": "electric_scooter", "name": "e66843ffa8c8398ba3f5145f13875ad4", "rental_uris": {"ios": "https://dc.lft.to/lastmile_qr_scan", "android": "https://dc.lft.to/lastmile_qr_scan"}, "fusion_lon": 0.0, "lat": 38.892926833333334, "is_disabled": 0, "bike_id": "e66843ffa8c8398ba3f5145f13875ad4", "fusion_lat": 0.0, "is_reserved": 0, "lon": -76.975249}, {"type": "electric_scooter", "name": "0c329fe3f0214c5e65d93f6f05146b85", "rental_uris": {"ios": "https://dc.lft.to/lastmile_qr_scan", "android": "https://dc.lft.to/lastmile_qr_scan"}, "fusion_lon": 0.0, "lat": 38.91301583333333, "is_disabled": 0, "bike_id": "0c329fe3f0214c5e65d93f6f05146b85", "fusion_lat": 0.0, "is_reserved": 0, "lon": -77.0487005}, {"type": "electric_scooter", "name": "d81f934b51eb0c978529923e490f897b", "rental_uris": {"ios": "https://dc.lft.to/lastmile_qr_scan", "android": "https://dc.lft.to/lastmile_qr_scan"}, "fusion_lon": 0.0, "lat": 38.90170116666667, "is_disabled": 0, "bike_id": "d81f934b51eb0c978529923e490f897b", "fusion_lat": 0.0, "is_reserved": 0, "lon": -77.01307066666666}, {"type": "electric_scooter", "name": "8ff49882d8edd0c8555902d3d0827009", "rental_uris": {"ios": "https://dc.lft.to/lastmile_qr_scan", "android": "https://dc.lft.to/lastmile_qr_scan"}, "fusion_lon": 0.0, "lat": 38.901960333333335, "is_disabled": 0, "bike_id": "8ff49882d8edd0c8555902d3d0827009", "fusion_lat": 0.0, "is_reserved": 0, "lon": -76.9820745}, {"type": "electric_scooter", "name": "62b866b770a3402aa985c4c9b7cbf03a", "rental_uris": {"ios": "https://dc.lft.to/lastmile_qr_scan", "android": "https://dc.lft.to/lastmile_qr_scan"}, "fusion_lon": 0.0, "lat": 38.86167833333333, "is_disabled": 0, "bike_id": "62b866b770a3402aa985c4c9b7cbf03a", "fusion_lat": 0.0, "is_reserved": 0, "lon": -76.9837075}, {"type": "electric_scooter", "name": "a134a20fe2a34b5cdaa8abade543d0ac", "rental_uris": {"ios": "https://dc.lft.to/lastmile_qr_scan", "android": "https://dc.lft.to/lastmile_qr_scan"}, "fusion_lon": 0.0, "lat": 38.89284033333333, "is_disabled": 0, "bike_id": "a134a20fe2a34b5cdaa8abade543d0ac", "fusion_lat": 0.0, "is_reserved": 0, "lon": -76.9831285}, {"type": "electric_scooter", "name": "52d8b118926690ba2e7f58fe7f0a0f51", "rental_uris": {"ios": "https://dc.lft.to/lastmile_qr_scan", "android": "https://dc.lft.to/lastmile_qr_scan"}, "fusion_lon": 0.0, "lat": 38.9071825, "is_disabled": 0, "bike_id": "52d8b118926690ba2e7f58fe7f0a0f51", "fusion_lat": 0.0, "is_reserved": 0, "lon": -77.02563216666667}, {"type": "electric_scooter", "name": "69c09e92ad8cef218770fb8d217947ad", "rental_uris": {"ios": "https://dc.lft.to/lastmile_qr_scan", "android": "https://dc.lft.to/lastmile_qr_scan"}, "fusion_lon": 0.0, "lat": 38.919068, "is_disabled": 0, "bike_id": "69c09e92ad8cef218770fb8d217947ad", "fusion_lat": 0.0, "is_reserved": 0, "lon": -77.0344965}, {"type": "electric_scooter", "name": "cc1bd80742147310d1c4c546011133c8", "rental_uris": {"ios": "https://dc.lft.to/lastmile_qr_scan", "android": "https://dc.lft.to/lastmile_qr_scan"}, "fusion_lon": 0.0, "lat": 38.884499166666664, "is_disabled": 0, "bike_id": "cc1bd80742147310d1c4c546011133c8", "fusion_lat": 0.0, "is_reserved": 0, "lon": -76.95097383333334}, {"type": "electric_scooter", "name": "a1c781538669c6b8bcc0d6a1992ea88f", "rental_uris": {"ios": "https://dc.lft.to/lastmile_qr_scan", "android": "https://dc.lft.to/lastmile_qr_scan"}, "fusion_lon": 0.0, "lat": 38.90561816666667, "is_disabled": 0, "bike_id": "a1c781538669c6b8bcc0d6a1992ea88f", "fusion_lat": 0.0, "is_reserved": 0, "lon": -77.04010983333333}, {"type": "electric_bike", "name": "725c126848f47648cc08052e300f48ce", "rental_uris": {"ios": "https://dc.lft.to/lastmile_qr_scan", "android": "https://dc.lft.to/lastmile_qr_scan"}, "fusion_lon": 0.0, "lat": 38.95214816666667, "is_disabled": 0, "bike_id": "725c126848f47648cc08052e300f48ce", "fusion_lat": 0.0, "is_reserved": 0, "lon": -77.06981416666666}, {"type": "electric_scooter", "name": "41d6a2d3bedc5638d751168a544b8ec9", "rental_uris": {"ios": "https://dc.lft.to/lastmile_qr_scan", "android": "https://dc.lft.to/lastmile_qr_scan"}, "fusion_lon": 0.0, "lat": 38.895362, "is_disabled": 0, "bike_id": "41d6a2d3bedc5638d751168a544b8ec9", "fusion_lat": 0.0, "is_reserved": 0, "lon": -76.94891866666667}, {"type": "electric_scooter", "name": "6863c7f3efcd78afa94eb3e84d9a9aa2", "rental_uris": {"ios": "https://dc.lft.to/lastmile_qr_scan", "android": "https://dc.lft.to/lastmile_qr_scan"}, "fusion_lon": 0.0, "lat": 38.924724499999996, "is_disabled": 0, "bike_id": "6863c7f3efcd78afa94eb3e84d9a9aa2", "fusion_lat": 0.0, "is_reserved": 0, "lon": -77.0220425}, {"type": "electric_scooter", "name": "688e861fd17886743b8b081bc316c3c3", "rental_uris": {"ios": "https://dc.lft.to/lastmile_qr_scan", "android": "https://dc.lft.to/lastmile_qr_scan"}, "fusion_lon": 0.0, "lat": 38.92921533333333, "is_disabled": 0, "bike_id": "688e861fd17886743b8b081bc316c3c3", "fusion_lat": 0.0, "is_reserved": 0, "lon": -77.0204155}, {"type": "electric_scooter", "name": "29c11ea2f2aebfa624dfb18741217d5d", "rental_uris": {"ios": "https://dc.lft.to/lastmile_qr_scan", "android": "https://dc.lft.to/lastmile_qr_scan"}, "fusion_lon": 0.0, "lat": 38.92248416666666, "is_disabled": 0, "bike_id": "29c11ea2f2aebfa624dfb18741217d5d", "fusion_lat": 0.0, "is_reserved": 0, "lon": -77.03016416666667}, {"type": "electric_scooter", "name": "62d736389d779091b06468f73c67a073", "rental_uris": {"ios": "https://dc.lft.to/lastmile_qr_scan", "android": "https://dc.lft.to/lastmile_qr_scan"}, "fusion_lon": 0.0, "lat": 38.884269833333335, "is_disabled": 0, "bike_id": "62d736389d779091b06468f73c67a073", "fusion_lat": 0.0, "is_reserved": 0, "lon": -76.95760533333333}, {"type": "electric_scooter", "name": "e123fba4a77bbc07dd92521af803d68b", "rental_uris": {"ios": "https://dc.lft.to/lastmile_qr_scan", "android": "https://dc.lft.to/lastmile_qr_scan"}, "fusion_lon": 0.0, "lat": 38.91698783333333, "is_disabled": 0, "bike_id": "e123fba4a77bbc07dd92521af803d68b", "fusion_lat": 0.0, "is_reserved": 0, "lon": -77.0318875}, {"type": "electric_scooter", "name": "8e517b780bfa91bc55fa6ebd852f055c", "rental_uris": {"ios": "https://dc.lft.to/lastmile_qr_scan", "android": "https://dc.lft.to/lastmile_qr_scan"}, "fusion_lon": 0.0, "lat": 38.90697883333333, "is_disabled": 0, "bike_id": "8e517b780bfa91bc55fa6ebd852f055c", "fusion_lat": 0.0, "is_reserved": 0, "lon": -77.05643516666666}, {"type": "electric_scooter", "name": "e7d8a439ebf651bb6a66640a0617f010", "rental_uris": {"ios": "https://dc.lft.to/lastmile_qr_scan", "android": "https://dc.lft.to/lastmile_qr_scan"}, "fusion_lon": 0.0, "lat": 38.925137, "is_disabled": 0, "bike_id": "e7d8a439ebf651bb6a66640a0617f010", "fusion_lat": 0.0, "is_reserved": 0, "lon": -77.02283866666667}, {"type": "electric_scooter", "name": "66e0adc9c471a20643768bfdda245fad", "rental_uris": {"ios": "https://dc.lft.to/lastmile_qr_scan", "android": "https://dc.lft.to/lastmile_qr_scan"}, "fusion_lon": 0.0, "lat": 38.898331666666664, "is_disabled": 0, "bike_id": "66e0adc9c471a20643768bfdda245fad", "fusion_lat": 0.0, "is_reserved": 0, "lon": -77.0134195}, {"type": "electric_scooter", "name": "bfa84f2d3b49e66944665425d94948bb", "rental_uris": {"ios": "https://dc.lft.to/lastmile_qr_scan", "android": "https://dc.lft.to/lastmile_qr_scan"}, "fusion_lon": 0.0, "lat": 38.92063316666667, "is_disabled": 0, "bike_id": "bfa84f2d3b49e66944665425d94948bb", "fusion_lat": 0.0, "is_reserved": 0, "lon": -77.04226}, {"type": "electric_scooter", "name": "f4f85a3f600ff97897f709d9637b8abd", "rental_uris": {"ios": "https://dc.lft.to/lastmile_qr_scan", "android": "https://dc.lft.to/lastmile_qr_scan"}, "fusion_lon": 0.0, "lat": 38.927049333333336, "is_disabled": 0, "bike_id": "f4f85a3f600ff97897f709d9637b8abd", "fusion_lat": 0.0, "is_reserved": 0, "lon": -77.0243935}, {"type": "electric_scooter", "name": "cd3242cbcbfeb09a533d52d7dba5c405", "rental_uris": {"ios": "https://dc.lft.to/lastmile_qr_scan", "android": "https://dc.lft.to/lastmile_qr_scan"}, "fusion_lon": 0.0, "lat": 38.8848825, "is_disabled": 0, "bike_id": "cd3242cbcbfeb09a533d52d7dba5c405", "fusion_lat": 0.0, "is_reserved": 0, "lon": -76.95654983333333}, {"type": "electric_scooter", "name": "307d21c43aacf51e64726a3180ad283b", "rental_uris": {"ios": "https://dc.lft.to/lastmile_qr_scan", "android": "https://dc.lft.to/lastmile_qr_scan"}, "fusion_lon": 0.0, "lat": 38.928253166666664, "is_disabled": 0, "bike_id": "307d21c43aacf51e64726a3180ad283b", "fusion_lat": 0.0, "is_reserved": 0, "lon": -77.02623016666666}, {"type": "electric_scooter", "name": "e42c0ea4dfd41c49b731363fdbfbbe81", "rental_uris": {"ios": "https://dc.lft.to/lastmile_qr_scan", "android": "https://dc.lft.to/lastmile_qr_scan"}, "fusion_lon": 0.0, "lat": 38.911410000000004, "is_disabled": 0, "bike_id": "e42c0ea4dfd41c49b731363fdbfbbe81", "fusion_lat": 0.0, "is_reserved": 0, "lon": -77.02804616666667}, {"type": "electric_bike", "name": "a8c026830dbcdf508d040d2487b88ea4", "rental_uris": {"ios": "https://dc.lft.to/lastmile_qr_scan", "android": "https://dc.lft.to/lastmile_qr_scan"}, "fusion_lon": 0.0, "lat": 38.839489, "is_disabled": 0, "bike_id": "a8c026830dbcdf508d040d2487b88ea4", "fusion_lat": 0.0, "is_reserved": 0, "lon": -77.08756416666667}, {"type": "electric_scooter", "name": "2e68c2bd291d26ef134ab2394750cb7e", "rental_uris": {"ios": "https://dc.lft.to/lastmile_qr_scan", "android": "https://dc.lft.to/lastmile_qr_scan"}, "fusion_lon": 0.0, "lat": 38.9212705, "is_disabled": 0, "bike_id": "2e68c2bd291d26ef134ab2394750cb7e", "fusion_lat": 0.0, "is_reserved": 0, "lon": -77.04120516666667}, {"type": "electric_scooter", "name": "2df68e5bbfb7fccbc7af78bab47113a2", "rental_uris": {"ios": "https://dc.lft.to/lastmile_qr_scan", "android": "https://dc.lft.to/lastmile_qr_scan"}, "fusion_lon": 0.0, "lat": 38.90118783333333, "is_disabled": 0, "bike_id": "2df68e5bbfb7fccbc7af78bab47113a2", "fusion_lat": 0.0, "is_reserved": 0, "lon": -77.04989566666667}, {"type": "electric_scooter", "name": "b5b8d92b58aa6946ae8efff3b1606bac", "rental_uris": {"ios": "https://dc.lft.to/lastmile_qr_scan", "android": "https://dc.lft.to/lastmile_qr_scan"}, "fusion_lon": 0.0, "lat": 38.92215483333333, "is_disabled": 0, "bike_id": "b5b8d92b58aa6946ae8efff3b1606bac", "fusion_lat": 0.0, "is_reserved": 0, "lon": -77.024167}, {"type": "electric_scooter", "name": "fa776fe444b8e5e301937413a7afe341", "rental_uris": {"ios": "https://dc.lft.to/lastmile_qr_scan", "android": "https://dc.lft.to/lastmile_qr_scan"}, "fusion_lon": 0.0, "lat": 38.936667, "is_disabled": 0, "bike_id": "fa776fe444b8e5e301937413a7afe341", "fusion_lat": 0.0, "is_reserved": 0, "lon": -77.023886}, {"type": "electric_scooter", "name": "88e4661a114f320956581424b79d82a8", "rental_uris": {"ios": "https://dc.lft.to/lastmile_qr_scan", "android": "https://dc.lft.to/lastmile_qr_scan"}, "fusion_lon": 0.0, "lat": 38.91312083333333, "is_disabled": 0, "bike_id": "88e4661a114f320956581424b79d82a8", "fusion_lat": 0.0, "is_reserved": 0, "lon": -77.03172533333333}, {"type": "electric_scooter", "name": "6a9cb5227ae174b94037cf695e697427", "rental_uris": {"ios": "https://dc.lft.to/lastmile_qr_scan", "android": "https://dc.lft.to/lastmile_qr_scan"}, "fusion_lon": 0.0, "lat": 38.90946616666667, "is_disabled": 0, "bike_id": "6a9cb5227ae174b94037cf695e697427", "fusion_lat": 0.0, "is_reserved": 0, "lon": -77.02389683333334}, {"type": "electric_scooter", "name": "21be03faf3bfd480abfc5a877cd2528d", "rental_uris": {"ios": "https://dc.lft.to/lastmile_qr_scan", "android": "https://dc.lft.to/lastmile_qr_scan"}, "fusion_lon": 0.0, "lat": 38.90640633333334, "is_disabled": 0, "bike_id": "21be03faf3bfd480abfc5a877cd2528d", "fusion_lat": 0.0, "is_reserved": 0, "lon": -77.03431683333334}, {"type": "electric_scooter", "name": "e0f541bcadaa03781f0b7be923b7df10", "rental_uris": {"ios": "https://dc.lft.to/lastmile_qr_scan", "android": "https://dc.lft.to/lastmile_qr_scan"}, "fusion_lon": 0.0, "lat": 38.905509333333335, "is_disabled": 0, "bike_id": "e0f541bcadaa03781f0b7be923b7df10", "fusion_lat": 0.0, "is_reserved": 0, "lon": -77.004011}, {"type": "electric_scooter", "name": "6a17e2015ce2c6f234d21080bb6f30ea", "rental_uris": {"ios": "https://dc.lft.to/lastmile_qr_scan", "android": "https://dc.lft.to/lastmile_qr_scan"}, "fusion_lon": 0.0, "lat": 38.878362833333334, "is_disabled": 0, "bike_id": "6a17e2015ce2c6f234d21080bb6f30ea", "fusion_lat": 0.0, "is_reserved": 0, "lon": -76.99034833333333}, {"type": "electric_scooter", "name": "904c6ea4455f55c2088795cc1b5639f0", "rental_uris": {"ios": "https://dc.lft.to/lastmile_qr_scan", "android": "https://dc.lft.to/lastmile_qr_scan"}, "fusion_lon": 0.0, "lat": 38.84320133333333, "is_disabled": 0, "bike_id": "904c6ea4455f55c2088795cc1b5639f0", "fusion_lat": 0.0, "is_reserved": 0, "lon": -76.9994785}, {"type": "electric_scooter", "name": "2d2a642e7a8cef4adacc2657f5141a54", "rental_uris": {"ios": "https://dc.lft.to/lastmile_qr_scan", "android": "https://dc.lft.to/lastmile_qr_scan"}, "fusion_lon": 0.0, "lat": 38.92315766666667, "is_disabled": 0, "bike_id": "2d2a642e7a8cef4adacc2657f5141a54", "fusion_lat": 0.0, "is_reserved": 0, "lon": -77.045236}, {"type": "electric_scooter", "name": "4642725afef20ea65579c9d535e14004", "rental_uris": {"ios": "https://dc.lft.to/lastmile_qr_scan", "android": "https://dc.lft.to/lastmile_qr_scan"}, "fusion_lon": 0.0, "lat": 38.892228833333334, "is_disabled": 0, "bike_id": "4642725afef20ea65579c9d535e14004", "fusion_lat": 0.0, "is_reserved": 0, "lon": -77.0419625}, {"type": "electric_scooter", "name": "75dd96ad23c0a598adaef04ecfe8bd31", "rental_uris": {"ios": "https://dc.lft.to/lastmile_qr_scan", "android": "https://dc.lft.to/lastmile_qr_scan"}, "fusion_lon": 0.0, "lat": 38.90263233333334, "is_disabled": 0, "bike_id": "75dd96ad23c0a598adaef04ecfe8bd31", "fusion_lat": 0.0, "is_reserved": 0, "lon": -77.0184025}, {"type": "electric_scooter", "name": "4223bdecae5eda8ec1c55a7f0eb991b8", "rental_uris": {"ios": "https://dc.lft.to/lastmile_qr_scan", "android": "https://dc.lft.to/lastmile_qr_scan"}, "fusion_lon": 0.0, "lat": 38.916333, "is_disabled": 0, "bike_id": "4223bdecae5eda8ec1c55a7f0eb991b8", "fusion_lat": 0.0, "is_reserved": 0, "lon": -77.040053}, {"type": "electric_scooter", "name": "9562a947f9160c7e3cadbaea7c29033d", "rental_uris": {"ios": "https://dc.lft.to/lastmile_qr_scan", "android": "https://dc.lft.to/lastmile_qr_scan"}, "fusion_lon": 0.0, "lat": 38.954965333333334, "is_disabled": 0, "bike_id": "9562a947f9160c7e3cadbaea7c29033d", "fusion_lat": 0.0, "is_reserved": 0, "lon": -77.01725966666666}, {"type": "electric_scooter", "name": "5c7f463c5cb735d6df12cc901142167a", "rental_uris": {"ios": "https://dc.lft.to/lastmile_qr_scan", "android": "https://dc.lft.to/lastmile_qr_scan"}, "fusion_lon": 0.0, "lat": 38.927907166666664, "is_disabled": 0, "bike_id": "5c7f463c5cb735d6df12cc901142167a", "fusion_lat": 0.0, "is_reserved": 0, "lon": -77.031495}, {"type": "electric_scooter", "name": "ccab48f182603e6bd7714f5c152d6d20", "rental_uris": {"ios": "https://dc.lft.to/lastmile_qr_scan", "android": "https://dc.lft.to/lastmile_qr_scan"}, "fusion_lon": 0.0, "lat": 38.908313, "is_disabled": 0, "bike_id": "ccab48f182603e6bd7714f5c152d6d20", "fusion_lat": 0.0, "is_reserved": 0, "lon": -77.04354883333333}, {"type": "electric_bike", "name": "ad60992a60793d20d81e0d172d796a0b", "rental_uris": {"ios": "https://dc.lft.to/lastmile_qr_scan", "android": "https://dc.lft.to/lastmile_qr_scan"}, "fusion_lon": 0.0, "lat": 38.8646155, "is_disabled": 0, "bike_id": "ad60992a60793d20d81e0d172d796a0b", "fusion_lat": 0.0, "is_reserved": 0, "lon": -76.94530916666666}, {"type": "electric_scooter", "name": "bc44bc7449c50854e8b0bd0e2c1dfb63", "rental_uris": {"ios": "https://dc.lft.to/lastmile_qr_scan", "android": "https://dc.lft.to/lastmile_qr_scan"}, "fusion_lon": 0.0, "lat": 38.924657833333335, "is_disabled": 0, "bike_id": "bc44bc7449c50854e8b0bd0e2c1dfb63", "fusion_lat": 0.0, "is_reserved": 0, "lon": -77.0382365}, {"type": "electric_scooter", "name": "73f3635a3cb3672135c178abc57b727e", "rental_uris": {"ios": "https://dc.lft.to/lastmile_qr_scan", "android": "https://dc.lft.to/lastmile_qr_scan"}, "fusion_lon": 0.0, "lat": 38.928662833333334, "is_disabled": 0, "bike_id": "73f3635a3cb3672135c178abc57b727e", "fusion_lat": 0.0, "is_reserved": 0, "lon": -77.01419766666666}, {"type": "electric_scooter", "name": "cf6a9239dd7c03dbe2882d7555625d5c", "rental_uris": {"ios": "https://dc.lft.to/lastmile_qr_scan", "android": "https://dc.lft.to/lastmile_qr_scan"}, "fusion_lon": 0.0, "lat": 38.907309, "is_disabled": 0, "bike_id": "cf6a9239dd7c03dbe2882d7555625d5c", "fusion_lat": 0.0, "is_reserved": 0, "lon": -77.02370216666667}, {"type": "electric_scooter", "name": "d38f07572b0fdfbf76edaa40a430322e", "rental_uris": {"ios": "https://dc.lft.to/lastmile_qr_scan", "android": "https://dc.lft.to/lastmile_qr_scan"}, "fusion_lon": 0.0, "lat": 38.9361375, "is_disabled": 0, "bike_id": "d38f07572b0fdfbf76edaa40a430322e", "fusion_lat": 0.0, "is_reserved": 0, "lon": -77.05864216666667}, {"type": "electric_scooter", "name": "e672b38838a16d9cbccf7837cda2b233", "rental_uris": {"ios": "https://dc.lft.to/lastmile_qr_scan", "android": "https://dc.lft.to/lastmile_qr_scan"}, "fusion_lon": 0.0, "lat": 38.8580615, "is_disabled": 0, "bike_id": "e672b38838a16d9cbccf7837cda2b233", "fusion_lat": 0.0, "is_reserved": 0, "lon": -76.9865665}, {"type": "electric_scooter", "name": "896db62f2175986e553842a85bbc2644", "rental_uris": {"ios": "https://dc.lft.to/lastmile_qr_scan", "android": "https://dc.lft.to/lastmile_qr_scan"}, "fusion_lon": 0.0, "lat": 38.8850195, "is_disabled": 0, "bike_id": "896db62f2175986e553842a85bbc2644", "fusion_lat": 0.0, "is_reserved": 0, "lon": -77.00701116666667}, {"type": "electric_scooter", "name": "5a1fecfb81ca6edea2d33bd0cc34b0da", "rental_uris": {"ios": "https://dc.lft.to/lastmile_qr_scan", "android": "https://dc.lft.to/lastmile_qr_scan"}, "fusion_lon": 0.0, "lat": 38.866814833333336, "is_disabled": 0, "bike_id": "5a1fecfb81ca6edea2d33bd0cc34b0da", "fusion_lat": 0.0, "is_reserved": 0, "lon": -76.985709}, {"type": "electric_scooter", "name": "bf148a774dfd48252f83a79bab232277", "rental_uris": {"ios": "https://dc.lft.to/lastmile_qr_scan", "android": "https://dc.lft.to/lastmile_qr_scan"}, "fusion_lon": 0.0, "lat": 38.866309333333334, "is_disabled": 0, "bike_id": "bf148a774dfd48252f83a79bab232277", "fusion_lat": 0.0, "is_reserved": 0, "lon": -76.9871565}, {"type": "electric_scooter", "name": "7eddbbdb00ba8f176116dcacc896a6cd", "rental_uris": {"ios": "https://dc.lft.to/lastmile_qr_scan", "android": "https://dc.lft.to/lastmile_qr_scan"}, "fusion_lon": 0.0, "lat": 38.924706666666665, "is_disabled": 0, "bike_id": "7eddbbdb00ba8f176116dcacc896a6cd", "fusion_lat": 0.0, "is_reserved": 0, "lon": -77.02219616666666}, {"type": "electric_scooter", "name": "fc62c40283d6090226eb2607fb1be25e", "rental_uris": {"ios": "https://dc.lft.to/lastmile_qr_scan", "android": "https://dc.lft.to/lastmile_qr_scan"}, "fusion_lon": 0.0, "lat": 38.9272365, "is_disabled": 0, "bike_id": "fc62c40283d6090226eb2607fb1be25e", "fusion_lat": 0.0, "is_reserved": 0, "lon": -77.03996566666666}, {"type": "electric_bike", "name": "35f661de7573c154d3a0c03f5141c86c", "rental_uris": {"ios": "https://dc.lft.to/lastmile_qr_scan", "android": "https://dc.lft.to/lastmile_qr_scan"}, "fusion_lon": 0.0, "lat": 38.8279675, "is_disabled": 0, "bike_id": "35f661de7573c154d3a0c03f5141c86c", "fusion_lat": 0.0, "is_reserved": 0, "lon": -77.124865}, {"type": "electric_bike", "name": "6b110d21bffa40b81e297edc48ef571f", "rental_uris": {"ios": "https://dc.lft.to/lastmile_qr_scan", "android": "https://dc.lft.to/lastmile_qr_scan"}, "fusion_lon": 0.0, "lat": 38.909564333333336, "is_disabled": 0, "bike_id": "6b110d21bffa40b81e297edc48ef571f", "fusion_lat": 0.0, "is_reserved": 0, "lon": -76.9843805}, {"type": "electric_scooter", "name": "bdf3a8c1d5bbdb1d684eca233a8eae90", "rental_uris": {"ios": "https://dc.lft.to/lastmile_qr_scan", "android": "https://dc.lft.to/lastmile_qr_scan"}, "fusion_lon": 0.0, "lat": 38.88745816666667, "is_disabled": 0, "bike_id": "bdf3a8c1d5bbdb1d684eca233a8eae90", "fusion_lat": 0.0, "is_reserved": 0, "lon": -77.028428}, {"type": "electric_scooter", "name": "602a5ea714354092da6df83689eea637", "rental_uris": {"ios": "https://dc.lft.to/lastmile_qr_scan", "android": "https://dc.lft.to/lastmile_qr_scan"}, "fusion_lon": 0.0, "lat": 38.901418, "is_disabled": 0, "bike_id": "602a5ea714354092da6df83689eea637", "fusion_lat": 0.0, "is_reserved": 0, "lon": -77.041524}, {"type": "electric_scooter", "name": "4bdc6b9b09be658f40186c230c991eeb", "rental_uris": {"ios": "https://dc.lft.to/lastmile_qr_scan", "android": "https://dc.lft.to/lastmile_qr_scan"}, "fusion_lon": 0.0, "lat": 38.884125166666664, "is_disabled": 0, "bike_id": "4bdc6b9b09be658f40186c230c991eeb", "fusion_lat": 0.0, "is_reserved": 0, "lon": -77.01537}, {"type": "electric_scooter", "name": "d2ef9f442947ab067d57468a9bb3aaac", "rental_uris": {"ios": "https://dc.lft.to/lastmile_qr_scan", "android": "https://dc.lft.to/lastmile_qr_scan"}, "fusion_lon": 0.0, "lat": 38.885427, "is_disabled": 0, "bike_id": "d2ef9f442947ab067d57468a9bb3aaac", "fusion_lat": 0.0, "is_reserved": 0, "lon": -77.00050883333333}, {"type": "electric_scooter", "name": "d5eaacfe41798dea3f2dcf08a000cdfb", "rental_uris": {"ios": "https://dc.lft.to/lastmile_qr_scan", "android": "https://dc.lft.to/lastmile_qr_scan"}, "fusion_lon": 0.0, "lat": 38.89844033333333, "is_disabled": 0, "bike_id": "d5eaacfe41798dea3f2dcf08a000cdfb", "fusion_lat": 0.0, "is_reserved": 0, "lon": -77.03331766666666}, {"type": "electric_scooter", "name": "8dd2f338abef3957e060c9aa97b39a17", "rental_uris": {"ios": "https://dc.lft.to/lastmile_qr_scan", "android": "https://dc.lft.to/lastmile_qr_scan"}, "fusion_lon": 0.0, "lat": 38.91117083333334, "is_disabled": 0, "bike_id": "8dd2f338abef3957e060c9aa97b39a17", "fusion_lat": 0.0, "is_reserved": 0, "lon": -77.08127966666666}, {"type": "electric_bike", "name": "d0bbdc14d0ec552ab6f3c2abdc9ea8ee", "rental_uris": {"ios": "https://dc.lft.to/lastmile_qr_scan", "android": "https://dc.lft.to/lastmile_qr_scan"}, "fusion_lon": 0.0, "lat": 38.865184666666664, "is_disabled": 0, "bike_id": "d0bbdc14d0ec552ab6f3c2abdc9ea8ee", "fusion_lat": 0.0, "is_reserved": 0, "lon": -76.97334583333334}, {"type": "electric_scooter", "name": "9081c117e8e5e3733202b9e67130a3ec", "rental_uris": {"ios": "https://dc.lft.to/lastmile_qr_scan", "android": "https://dc.lft.to/lastmile_qr_scan"}, "fusion_lon": 0.0, "lat": 38.937363500000004, "is_disabled": 0, "bike_id": "9081c117e8e5e3733202b9e67130a3ec", "fusion_lat": 0.0, "is_reserved": 0, "lon": -77.0244305}, {"type": "electric_scooter", "name": "d7279f9c0ee9322a047c9011752e7391", "rental_uris": {"ios": "https://dc.lft.to/lastmile_qr_scan", "android": "https://dc.lft.to/lastmile_qr_scan"}, "fusion_lon": 0.0, "lat": 38.90500933333333, "is_disabled": 0, "bike_id": "d7279f9c0ee9322a047c9011752e7391", "fusion_lat": 0.0, "is_reserved": 0, "lon": -77.06108466666667}, {"type": "electric_scooter", "name": "8f1fcf603e8284a5e6bea6905ace1c36", "rental_uris": {"ios": "https://dc.lft.to/lastmile_qr_scan", "android": "https://dc.lft.to/lastmile_qr_scan"}, "fusion_lon": 0.0, "lat": 38.8771015, "is_disabled": 0, "bike_id": "8f1fcf603e8284a5e6bea6905ace1c36", "fusion_lat": 0.0, "is_reserved": 0, "lon": -77.00437216666667}, {"type": "electric_scooter", "name": "14bd8e137fe61e7e163c752d2b23255c", "rental_uris": {"ios": "https://dc.lft.to/lastmile_qr_scan", "android": "https://dc.lft.to/lastmile_qr_scan"}, "fusion_lon": 0.0, "lat": 38.92388483333333, "is_disabled": 0, "bike_id": "14bd8e137fe61e7e163c752d2b23255c", "fusion_lat": 0.0, "is_reserved": 0, "lon": -77.0248475}, {"type": "electric_scooter", "name": "6fd740668fdcbe533a33fca98df33963", "rental_uris": {"ios": "https://dc.lft.to/lastmile_qr_scan", "android": "https://dc.lft.to/lastmile_qr_scan"}, "fusion_lon": 0.0, "lat": 38.9226955, "is_disabled": 0, "bike_id": "6fd740668fdcbe533a33fca98df33963", "fusion_lat": 0.0, "is_reserved": 0, "lon": -77.0325785}, {"type": "electric_scooter", "name": "edb6ac9505fadb3105aa79f476415705", "rental_uris": {"ios": "https://dc.lft.to/lastmile_qr_scan", "android": "https://dc.lft.to/lastmile_qr_scan"}, "fusion_lon": 0.0, "lat": 38.9191745, "is_disabled": 0, "bike_id": "edb6ac9505fadb3105aa79f476415705", "fusion_lat": 0.0, "is_reserved": 0, "lon": -77.031922}, {"type": "electric_bike", "name": "44d0c689d0afb2e79edcdd719c48849d", "rental_uris": {"ios": "https://dc.lft.to/lastmile_qr_scan", "android": "https://dc.lft.to/lastmile_qr_scan"}, "fusion_lon": 0.0, "lat": 38.936321, "is_disabled": 0, "bike_id": "44d0c689d0afb2e79edcdd719c48849d", "fusion_lat": 0.0, "is_reserved": 0, "lon": -77.03659683333333}, {"type": "electric_scooter", "name": "6953e8eed6c73729f4cf16d11d2395d5", "rental_uris": {"ios": "https://dc.lft.to/lastmile_qr_scan", "android": "https://dc.lft.to/lastmile_qr_scan"}, "fusion_lon": 0.0, "lat": 38.9046485, "is_disabled": 0, "bike_id": "6953e8eed6c73729f4cf16d11d2395d5", "fusion_lat": 0.0, "is_reserved": 0, "lon": -77.03476866666666}, {"type": "electric_scooter", "name": "7c666bf9a38d9721d1f73998ee163465", "rental_uris": {"ios": "https://dc.lft.to/lastmile_qr_scan", "android": "https://dc.lft.to/lastmile_qr_scan"}, "fusion_lon": 0.0, "lat": 38.901252666666664, "is_disabled": 0, "bike_id": "7c666bf9a38d9721d1f73998ee163465", "fusion_lat": 0.0, "is_reserved": 0, "lon": -77.032428}, {"type": "electric_bike", "name": "735f7e16e51bf95f5f3547b449924541", "rental_uris": {"ios": "https://dc.lft.to/lastmile_qr_scan", "android": "https://dc.lft.to/lastmile_qr_scan"}, "fusion_lon": 0.0, "lat": 38.9317605, "is_disabled": 0, "bike_id": "735f7e16e51bf95f5f3547b449924541", "fusion_lat": 0.0, "is_reserved": 0, "lon": -77.03533816666666}, {"type": "electric_scooter", "name": "d879ec799df3a7b2174b3cde13120dc6", "rental_uris": {"ios": "https://dc.lft.to/lastmile_qr_scan", "android": "https://dc.lft.to/lastmile_qr_scan"}, "fusion_lon": 0.0, "lat": 38.9074115, "is_disabled": 0, "bike_id": "d879ec799df3a7b2174b3cde13120dc6", "fusion_lat": 0.0, "is_reserved": 0, "lon": -77.00192433333333}, {"type": "electric_scooter", "name": "19dc6494e0699bab71501b808b0e7292", "rental_uris": {"ios": "https://dc.lft.to/lastmile_qr_scan", "android": "https://dc.lft.to/lastmile_qr_scan"}, "fusion_lon": 0.0, "lat": 38.89743983333334, "is_disabled": 0, "bike_id": "19dc6494e0699bab71501b808b0e7292", "fusion_lat": 0.0, "is_reserved": 0, "lon": -77.02017016666667}, {"type": "electric_scooter", "name": "7cd71a5bbe12ab00fde74baed972df3a", "rental_uris": {"ios": "https://dc.lft.to/lastmile_qr_scan", "android": "https://dc.lft.to/lastmile_qr_scan"}, "fusion_lon": 0.0, "lat": 38.906701166666664, "is_disabled": 0, "bike_id": "7cd71a5bbe12ab00fde74baed972df3a", "fusion_lat": 0.0, "is_reserved": 0, "lon": -77.02594233333333}, {"type": "electric_scooter", "name": "eea4a9d998621ead169118a9e5370866", "rental_uris": {"ios": "https://dc.lft.to/lastmile_qr_scan", "android": "https://dc.lft.to/lastmile_qr_scan"}, "fusion_lon": 0.0, "lat": 38.90679033333333, "is_disabled": 0, "bike_id": "eea4a9d998621ead169118a9e5370866", "fusion_lat": 0.0, "is_reserved": 0, "lon": -77.06136266666667}, {"type": "electric_scooter", "name": "b13155b27510c90a507026ed6a638f61", "rental_uris": {"ios": "https://dc.lft.to/lastmile_qr_scan", "android": "https://dc.lft.to/lastmile_qr_scan"}, "fusion_lon": 0.0, "lat": 38.914368833333334, "is_disabled": 0, "bike_id": "b13155b27510c90a507026ed6a638f61", "fusion_lat": 0.0, "is_reserved": 0, "lon": -77.01214733333333}, {"type": "electric_scooter", "name": "8cbd0e6a418dfafa6911eed9441aaddc", "rental_uris": {"ios": "https://dc.lft.to/lastmile_qr_scan", "android": "https://dc.lft.to/lastmile_qr_scan"}, "fusion_lon": 0.0, "lat": 38.90034166666667, "is_disabled": 0, "bike_id": "8cbd0e6a418dfafa6911eed9441aaddc", "fusion_lat": 0.0, "is_reserved": 0, "lon": -77.00103666666666}, {"type": "electric_scooter", "name": "cd214a97eb6f0863f7b0be17826ef065", "rental_uris": {"ios": "https://dc.lft.to/lastmile_qr_scan", "android": "https://dc.lft.to/lastmile_qr_scan"}, "fusion_lon": 0.0, "lat": 38.9127325, "is_disabled": 0, "bike_id": "cd214a97eb6f0863f7b0be17826ef065", "fusion_lat": 0.0, "is_reserved": 0, "lon": -77.02212866666666}, {"type": "electric_scooter", "name": "0932585a19490200aaf1e085113684cb", "rental_uris": {"ios": "https://dc.lft.to/lastmile_qr_scan", "android": "https://dc.lft.to/lastmile_qr_scan"}, "fusion_lon": 0.0, "lat": 38.932218, "is_disabled": 0, "bike_id": "0932585a19490200aaf1e085113684cb", "fusion_lat": 0.0, "is_reserved": 0, "lon": -77.02685566666666}, {"type": "electric_scooter", "name": "45064c6fae15b1ce8ee158c5665a68a6", "rental_uris": {"ios": "https://dc.lft.to/lastmile_qr_scan", "android": "https://dc.lft.to/lastmile_qr_scan"}, "fusion_lon": 0.0, "lat": 38.925496, "is_disabled": 0, "bike_id": "45064c6fae15b1ce8ee158c5665a68a6", "fusion_lat": 0.0, "is_reserved": 0, "lon": -77.00071316666667}, {"type": "electric_bike", "name": "4678274b0a3dd819e030018ddaf4d0dd", "rental_uris": {"ios": "https://dc.lft.to/lastmile_qr_scan", "android": "https://dc.lft.to/lastmile_qr_scan"}, "fusion_lon": 0.0, "lat": 38.92669083333333, "is_disabled": 0, "bike_id": "4678274b0a3dd819e030018ddaf4d0dd", "fusion_lat": 0.0, "is_reserved": 0, "lon": -77.09849483333333}, {"type": "electric_scooter", "name": "6ad3b4c832efd36eb9bcd1d303e2ac4c", "rental_uris": {"ios": "https://dc.lft.to/lastmile_qr_scan", "android": "https://dc.lft.to/lastmile_qr_scan"}, "fusion_lon": 0.0, "lat": 38.938298333333336, "is_disabled": 0, "bike_id": "6ad3b4c832efd36eb9bcd1d303e2ac4c", "fusion_lat": 0.0, "is_reserved": 0, "lon": -77.08547783333333}, {"type": "electric_scooter", "name": "494fcb2d487f7438ac19281c33979391", "rental_uris": {"ios": "https://dc.lft.to/lastmile_qr_scan", "android": "https://dc.lft.to/lastmile_qr_scan"}, "fusion_lon": 0.0, "lat": 38.91696233333333, "is_disabled": 0, "bike_id": "494fcb2d487f7438ac19281c33979391", "fusion_lat": 0.0, "is_reserved": 0, "lon": -77.00743366666667}, {"type": "electric_bike", "name": "a2675fef3df55362f7155bd8a572467b", "rental_uris": {"ios": "https://dc.lft.to/lastmile_qr_scan", "android": "https://dc.lft.to/lastmile_qr_scan"}, "fusion_lon": 0.0, "lat": 38.95739566666666, "is_disabled": 0, "bike_id": "a2675fef3df55362f7155bd8a572467b", "fusion_lat": 0.0, "is_reserved": 0, "lon": -76.972536}, {"type": "electric_bike", "name": "c9ccb861a40a415662d50586c7739413", "rental_uris": {"ios": "https://dc.lft.to/lastmile_qr_scan", "android": "https://dc.lft.to/lastmile_qr_scan"}, "fusion_lon": 0.0, "lat": 38.957464, "is_disabled": 0, "bike_id": "c9ccb861a40a415662d50586c7739413", "fusion_lat": 0.0, "is_reserved": 0, "lon": -76.972552}, {"type": "electric_scooter", "name": "d2702eef46f031c5d0261718af910ed3", "rental_uris": {"ios": "https://dc.lft.to/lastmile_qr_scan", "android": "https://dc.lft.to/lastmile_qr_scan"}, "fusion_lon": 0.0, "lat": 38.894472, "is_disabled": 0, "bike_id": "d2702eef46f031c5d0261718af910ed3", "fusion_lat": 0.0, "is_reserved": 0, "lon": -77.02628766666666}, {"type": "electric_scooter", "name": "36f69d023efc74b2c4dc7c95edcda799", "rental_uris": {"ios": "https://dc.lft.to/lastmile_qr_scan", "android": "https://dc.lft.to/lastmile_qr_scan"}, "fusion_lon": 0.0, "lat": 38.91804, "is_disabled": 0, "bike_id": "36f69d023efc74b2c4dc7c95edcda799", "fusion_lat": 0.0, "is_reserved": 0, "lon": -77.03716683333333}, {"type": "electric_scooter", "name": "81f0c812ca9a5c0b856540a44dbe4f54", "rental_uris": {"ios": "https://dc.lft.to/lastmile_qr_scan", "android": "https://dc.lft.to/lastmile_qr_scan"}, "fusion_lon": 0.0, "lat": 38.902644333333335, "is_disabled": 0, "bike_id": "81f0c812ca9a5c0b856540a44dbe4f54", "fusion_lat": 0.0, "is_reserved": 0, "lon": -77.0383615}, {"type": "electric_scooter", "name": "6090f4d9e381f790f0d9c111fc9be6f0", "rental_uris": {"ios": "https://dc.lft.to/lastmile_qr_scan", "android": "https://dc.lft.to/lastmile_qr_scan"}, "fusion_lon": 0.0, "lat": 38.87899216666667, "is_disabled": 0, "bike_id": "6090f4d9e381f790f0d9c111fc9be6f0", "fusion_lat": 0.0, "is_reserved": 0, "lon": -77.01361366666667}, {"type": "electric_scooter", "name": "690ffa42f966b60a2881ed2427049195", "rental_uris": {"ios": "https://dc.lft.to/lastmile_qr_scan", "android": "https://dc.lft.to/lastmile_qr_scan"}, "fusion_lon": 0.0, "lat": 38.9374035, "is_disabled": 0, "bike_id": "690ffa42f966b60a2881ed2427049195", "fusion_lat": 0.0, "is_reserved": 0, "lon": -77.03255483333334}, {"type": "electric_scooter", "name": "1b0583d16fa3ac9dc7f2331093efb612", "rental_uris": {"ios": "https://dc.lft.to/lastmile_qr_scan", "android": "https://dc.lft.to/lastmile_qr_scan"}, "fusion_lon": 0.0, "lat": 38.9296695, "is_disabled": 0, "bike_id": "1b0583d16fa3ac9dc7f2331093efb612", "fusion_lat": 0.0, "is_reserved": 0, "lon": -77.03106083333333}, {"type": "electric_scooter", "name": "9e454c2672b554922288aa9a9296550d", "rental_uris": {"ios": "https://dc.lft.to/lastmile_qr_scan", "android": "https://dc.lft.to/lastmile_qr_scan"}, "fusion_lon": 0.0, "lat": 38.935377, "is_disabled": 0, "bike_id": "9e454c2672b554922288aa9a9296550d", "fusion_lat": 0.0, "is_reserved": 0, "lon": -77.0234805}, {"type": "electric_scooter", "name": "49b3faa07926f21c7b7daec967a4eae3", "rental_uris": {"ios": "https://dc.lft.to/lastmile_qr_scan", "android": "https://dc.lft.to/lastmile_qr_scan"}, "fusion_lon": 0.0, "lat": 38.90262516666667, "is_disabled": 0, "bike_id": "49b3faa07926f21c7b7daec967a4eae3", "fusion_lat": 0.0, "is_reserved": 0, "lon": -77.0176805}, {"type": "electric_scooter", "name": "7815b5ecae461939f65d4b8befc615de", "rental_uris": {"ios": "https://dc.lft.to/lastmile_qr_scan", "android": "https://dc.lft.to/lastmile_qr_scan"}, "fusion_lon": 0.0, "lat": 38.90274183333333, "is_disabled": 0, "bike_id": "7815b5ecae461939f65d4b8befc615de", "fusion_lat": 0.0, "is_reserved": 0, "lon": -77.01767283333334}, {"type": "electric_scooter", "name": "87bae6ac5838de78cfc02e6efb9165f2", "rental_uris": {"ios": "https://dc.lft.to/lastmile_qr_scan", "android": "https://dc.lft.to/lastmile_qr_scan"}, "fusion_lon": 0.0, "lat": 38.89746683333333, "is_disabled": 0, "bike_id": "87bae6ac5838de78cfc02e6efb9165f2", "fusion_lat": 0.0, "is_reserved": 0, "lon": -77.046163}, {"type": "electric_scooter", "name": "7fa972ec1df1afaacfa2353e7182aaf0", "rental_uris": {"ios": "https://dc.lft.to/lastmile_qr_scan", "android": "https://dc.lft.to/lastmile_qr_scan"}, "fusion_lon": 0.0, "lat": 38.913979, "is_disabled": 0, "bike_id": "7fa972ec1df1afaacfa2353e7182aaf0", "fusion_lat": 0.0, "is_reserved": 0, "lon": -77.04172566666666}, {"type": "electric_bike", "name": "266c9c57029f72fc3d1bd9e3d0a95b47", "rental_uris": {"ios": "https://dc.lft.to/lastmile_qr_scan", "android": "https://dc.lft.to/lastmile_qr_scan"}, "fusion_lon": 0.0, "lat": 38.93556683333333, "is_disabled": 0, "bike_id": "266c9c57029f72fc3d1bd9e3d0a95b47", "fusion_lat": 0.0, "is_reserved": 0, "lon": -77.03707566666667}, {"type": "electric_scooter", "name": "91a4f4396fd9df6717d36fe74b2127ef", "rental_uris": {"ios": "https://dc.lft.to/lastmile_qr_scan", "android": "https://dc.lft.to/lastmile_qr_scan"}, "fusion_lon": 0.0, "lat": 38.924377166666666, "is_disabled": 0, "bike_id": "91a4f4396fd9df6717d36fe74b2127ef", "fusion_lat": 0.0, "is_reserved": 0, "lon": -77.052122}, {"type": "electric_scooter", "name": "eee2522960a0346d363c1fcacb77c803", "rental_uris": {"ios": "https://dc.lft.to/lastmile_qr_scan", "android": "https://dc.lft.to/lastmile_qr_scan"}, "fusion_lon": 0.0, "lat": 38.97240583333333, "is_disabled": 0, "bike_id": "eee2522960a0346d363c1fcacb77c803", "fusion_lat": 0.0, "is_reserved": 0, "lon": -77.02719333333333}, {"type": "electric_bike", "name": "cfd006a7ff13d461a88551826a64b44f", "rental_uris": {"ios": "https://dc.lft.to/lastmile_qr_scan", "android": "https://dc.lft.to/lastmile_qr_scan"}, "fusion_lon": 0.0, "lat": 39.00380883333333, "is_disabled": 0, "bike_id": "cfd006a7ff13d461a88551826a64b44f", "fusion_lat": 0.0, "is_reserved": 0, "lon": -77.01297616666666}, {"type": "electric_scooter", "name": "581ce139ccff64ee55c58e32ca2ad9cd", "rental_uris": {"ios": "https://dc.lft.to/lastmile_qr_scan", "android": "https://dc.lft.to/lastmile_qr_scan"}, "fusion_lon": 0.0, "lat": 38.911768333333335, "is_disabled": 0, "bike_id": "581ce139ccff64ee55c58e32ca2ad9cd", "fusion_lat": 0.0, "is_reserved": 0, "lon": -77.0111255}, {"type": "electric_bike", "name": "c03298e8a901bd381084a535d9786692", "rental_uris": {"ios": "https://dc.lft.to/lastmile_qr_scan", "android": "https://dc.lft.to/lastmile_qr_scan"}, "fusion_lon": 0.0, "lat": 39.0122495, "is_disabled": 0, "bike_id": "c03298e8a901bd381084a535d9786692", "fusion_lat": 0.0, "is_reserved": 0, "lon": -77.110829}, {"type": "electric_scooter", "name": "9a588acb775e950241b6835b7dadec20", "rental_uris": {"ios": "https://dc.lft.to/lastmile_qr_scan", "android": "https://dc.lft.to/lastmile_qr_scan"}, "fusion_lon": 0.0, "lat": 38.8846635, "is_disabled": 0, "bike_id": "9a588acb775e950241b6835b7dadec20", "fusion_lat": 0.0, "is_reserved": 0, "lon": -77.0152835}, {"type": "electric_scooter", "name": "0ea031f3ddffc5e1ad06b63265100c0d", "rental_uris": {"ios": "https://dc.lft.to/lastmile_qr_scan", "android": "https://dc.lft.to/lastmile_qr_scan"}, "fusion_lon": 0.0, "lat": 38.933612833333335, "is_disabled": 0, "bike_id": "0ea031f3ddffc5e1ad06b63265100c0d", "fusion_lat": 0.0, "is_reserved": 0, "lon": -77.07357916666666}, {"type": "electric_scooter", "name": "95668f70448a16964ff303e98adb6ee5", "rental_uris": {"ios": "https://dc.lft.to/lastmile_qr_scan", "android": "https://dc.lft.to/lastmile_qr_scan"}, "fusion_lon": 0.0, "lat": 38.9092425, "is_disabled": 0, "bike_id": "95668f70448a16964ff303e98adb6ee5", "fusion_lat": 0.0, "is_reserved": 0, "lon": -77.03201366666667}, {"type": "electric_scooter", "name": "b2b25bc71c43bbb53fbcf0f34d45dac3", "rental_uris": {"ios": "https://dc.lft.to/lastmile_qr_scan", "android": "https://dc.lft.to/lastmile_qr_scan"}, "fusion_lon": 0.0, "lat": 38.9128235, "is_disabled": 0, "bike_id": "b2b25bc71c43bbb53fbcf0f34d45dac3", "fusion_lat": 0.0, "is_reserved": 0, "lon": -76.98461666666667}, {"type": "electric_scooter", "name": "c0c61a77766771e40ade52c78a1d190e", "rental_uris": {"ios": "https://dc.lft.to/lastmile_qr_scan", "android": "https://dc.lft.to/lastmile_qr_scan"}, "fusion_lon": 0.0, "lat": 38.92372783333333, "is_disabled": 0, "bike_id": "c0c61a77766771e40ade52c78a1d190e", "fusion_lat": 0.0, "is_reserved": 0, "lon": -77.01908133333333}, {"type": "electric_scooter", "name": "a3833931a5857462822e891f4180cc98", "rental_uris": {"ios": "https://dc.lft.to/lastmile_qr_scan", "android": "https://dc.lft.to/lastmile_qr_scan"}, "fusion_lon": 0.0, "lat": 38.903626, "is_disabled": 0, "bike_id": "a3833931a5857462822e891f4180cc98", "fusion_lat": 0.0, "is_reserved": 0, "lon": -77.00345083333333}, {"type": "electric_scooter", "name": "3b4c6fe7717382c87f9e6b692ef27d71", "rental_uris": {"ios": "https://dc.lft.to/lastmile_qr_scan", "android": "https://dc.lft.to/lastmile_qr_scan"}, "fusion_lon": 0.0, "lat": 38.92367333333333, "is_disabled": 0, "bike_id": "3b4c6fe7717382c87f9e6b692ef27d71", "fusion_lat": 0.0, "is_reserved": 0, "lon": -77.0502875}, {"type": "electric_scooter", "name": "e4b73dcac6f72314e2ecd5e82474793a", "rental_uris": {"ios": "https://dc.lft.to/lastmile_qr_scan", "android": "https://dc.lft.to/lastmile_qr_scan"}, "fusion_lon": 0.0, "lat": 38.919348666666664, "is_disabled": 0, "bike_id": "e4b73dcac6f72314e2ecd5e82474793a", "fusion_lat": 0.0, "is_reserved": 0, "lon": -77.0206645}, {"type": "electric_scooter", "name": "573dd976127591c16103cb792faaee67", "rental_uris": {"ios": "https://dc.lft.to/lastmile_qr_scan", "android": "https://dc.lft.to/lastmile_qr_scan"}, "fusion_lon": 0.0, "lat": 38.8849375, "is_disabled": 0, "bike_id": "573dd976127591c16103cb792faaee67", "fusion_lat": 0.0, "is_reserved": 0, "lon": -77.01086166666667}, {"type": "electric_scooter", "name": "309cfc79dcf4016cdab7506bafeb30de", "rental_uris": {"ios": "https://dc.lft.to/lastmile_qr_scan", "android": "https://dc.lft.to/lastmile_qr_scan"}, "fusion_lon": 0.0, "lat": 38.95643316666666, "is_disabled": 0, "bike_id": "309cfc79dcf4016cdab7506bafeb30de", "fusion_lat": 0.0, "is_reserved": 0, "lon": -77.02372766666667}, {"type": "electric_scooter", "name": "49df2e812e55f9546651877c4649e97a", "rental_uris": {"ios": "https://dc.lft.to/lastmile_qr_scan", "android": "https://dc.lft.to/lastmile_qr_scan"}, "fusion_lon": 0.0, "lat": 38.904328, "is_disabled": 0, "bike_id": "49df2e812e55f9546651877c4649e97a", "fusion_lat": 0.0, "is_reserved": 0, "lon": -77.0287825}, {"type": "electric_scooter", "name": "d0b27ebfe95b9f8609c4e7c8a78b837e", "rental_uris": {"ios": "https://dc.lft.to/lastmile_qr_scan", "android": "https://dc.lft.to/lastmile_qr_scan"}, "fusion_lon": 0.0, "lat": 38.917048666666666, "is_disabled": 0, "bike_id": "d0b27ebfe95b9f8609c4e7c8a78b837e", "fusion_lat": 0.0, "is_reserved": 0, "lon": -77.02292216666666}, {"type": "electric_bike", "name": "26248d64fcf2fd17aa63a95b2774b80e", "rental_uris": {"ios": "https://dc.lft.to/lastmile_qr_scan", "android": "https://dc.lft.to/lastmile_qr_scan"}, "fusion_lon": 0.0, "lat": 38.93598866666667, "is_disabled": 0, "bike_id": "26248d64fcf2fd17aa63a95b2774b80e", "fusion_lat": 0.0, "is_reserved": 0, "lon": -77.02119566666667}, {"type": "electric_scooter", "name": "da41adba121393ac5a39ad109a874b3d", "rental_uris": {"ios": "https://dc.lft.to/lastmile_qr_scan", "android": "https://dc.lft.to/lastmile_qr_scan"},