{"data": {"bikes": [{"name": "4e9086125c40075bf877a3841029d1f7", "fusion_lat": 0.0, "type": "electric_bike", "lat": 38.917614666666665, "is_reserved": 0, "is_disabled": 0, "fusion_lon": 0.0, "bike_id": "4e9086125c40075bf877a3841029d1f7", "lon": -76.97326116666666, "rental_uris": {"ios": "https://dc.lft.to/lastmile_qr_scan", "android": "https://dc.lft.to/lastmile_qr_scan"}}, {"name": "6d80d990636c8bb9d3f6e7829e69dc51", "fusion_lat": 0.0, "type": "electric_scooter", "lat": 38.883447833333335, "is_reserved": 0, "is_disabled": 0, "fusion_lon": 0.0, "bike_id": "6d80d990636c8bb9d3f6e7829e69dc51", "lon": -77.03164283333334, "rental_uris": {"ios": "https://dc.lft.to/lastmile_qr_scan", "android": "https://dc.lft.to/lastmile_qr_scan"}}, {"name": "9d9f545e33251deef98f7fe7313d9e5d", "fusion_lat": 0.0, "type": "electric_scooter", "lat": 38.9397415, "is_reserved": 0, "is_disabled": 0, "fusion_lon": 0.0, "bike_id": "9d9f545e33251deef98f7fe7313d9e5d", "lon": -77.03203283333333, "rental_uris": {"ios": "https://dc.lft.to/lastmile_qr_scan", "android": "https://dc.lft.to/lastmile_qr_scan"}}, {"name": "2707514ef1bd95504ab720bc52464790", "fusion_lat": 0.0, "type": "electric_bike", "lat": 38.872299, "is_reserved": 0, "is_disabled": 0, "fusion_lon": 0.0, "bike_id": "2707514ef1bd95504ab720bc52464790", "lon": -77.01170733333333, "rental_uris": {"ios": "https://dc.lft.to/lastmile_qr_scan", "android": "https://dc.lft.to/lastmile_qr_scan"}}, {"name": "359b75c11da982fd5cd3f2c7a0c30fcb", "fusion_lat": 0.0, "type": "electric_scooter", "lat": 38.8651245, "is_reserved": 0, "is_disabled": 0, "fusion_lon": 0.0, "bike_id": "359b75c11da982fd5cd3f2c7a0c30fcb", "lon": -76.973413, "rental_uris": {"ios": "https://dc.lft.to/lastmile_qr_scan", "android": "https://dc.lft.to/lastmile_qr_scan"}}, {"name": "0c7bcc765a246ef68013860f40dad711", "fusion_lat": 0.0, "type": "electric_scooter", "lat": 38.939091, "is_reserved": 0, "is_disabled": 0, "fusion_lon": 0.0, "bike_id": "0c7bcc765a246ef68013860f40dad711", "lon": -77.06044566666667, "rental_uris": {"ios": "https://dc.lft.to/lastmile_qr_scan", "android": "https://dc.lft.to/lastmile_qr_scan"}}, {"name": "8f3187c4cc2a3640e71af530c86e5fae", "fusion_lat": 0.0, "type": "electric_scooter", "lat": 38.88195316666667, "is_reserved": 0, "is_disabled": 0, "fusion_lon": 0.0, "bike_id": "8f3187c4cc2a3640e71af530c86e5fae", "lon": -77.02327633333333, "rental_uris": {"ios": "https://dc.lft.to/lastmile_qr_scan", "android": "https://dc.lft.to/lastmile_qr_scan"}}, {"name": "19872e069e4c100251905bb071497e32", "fusion_lat": 0.0, "type": "electric_scooter", "lat": 38.93434383333334, "is_reserved": 0, "is_disabled": 0, "fusion_lon": 0.0, "bike_id": "19872e069e4c100251905bb071497e32", "lon": -77.04654133333334, "rental_uris": {"ios": "https://dc.lft.to/lastmile_qr_scan", "android": "https://dc.lft.to/lastmile_qr_scan"}}, {"name": "83e98f49cdb962aef4685e34a1ba3b52", "fusion_lat": 0.0, "type": "electric_scooter", "lat": 38.9051315, "is_reserved": 0, "is_disabled": 0, "fusion_lon": 0.0, "bike_id": "83e98f49cdb962aef4685e34a1ba3b52", "lon": -77.06891633333333, "rental_uris": {"ios": "https://dc.lft.to/lastmile_qr_scan", "android": "https://dc.lft.to/lastmile_qr_scan"}}, {"name": "1121ee92278c52158b2aa13eecb46972", "fusion_lat": 0.0, "type": "electric_scooter", "lat": 38.938209, "is_reserved": 0, "is_disabled": 0, "fusion_lon": 0.0, "bike_id": "1121ee92278c52158b2aa13eecb46972", "lon": -77.02476833333333, "rental_uris": {"ios": "https://dc.lft.to/lastmile_qr_scan", "android": "https://dc.lft.to/lastmile_qr_scan"}}, {"name": "d35cb11ee3385ea0b1ae2c571cdf7f96", "fusion_lat": 0.0, "type": "electric_scooter", "lat": 38.91703066666667, "is_reserved": 0, "is_disabled": 0, "fusion_lon": 0.0, "bike_id": "d35cb11ee3385ea0b1ae2c571cdf7f96", "lon": -77.0417355, "rental_uris": {"ios": "https://dc.lft.to/lastmile_qr_scan", "android": "https://dc.lft.to/lastmile_qr_scan"}}, {"name": "84aa7a486819a0a1f04e79f3bdcc7ff1", "fusion_lat": 0.0, "type": "electric_scooter", "lat": 38.92603483333333, "is_reserved": 0, "is_disabled": 0, "fusion_lon": 0.0, "bike_id": "84aa7a486819a0a1f04e79f3bdcc7ff1", "lon": -77.0249405, "rental_uris": {"ios": "https://dc.lft.to/lastmile_qr_scan", "android": "https://dc.lft.to/lastmile_qr_scan"}}, {"name": "ecf1aee5aab82fa5c639f6959709b1aa", "fusion_lat": 0.0, "type": "electric_scooter", "lat": 38.86370633333333, "is_reserved": 0, "is_disabled": 0, "fusion_lon": 0.0, "bike_id": "ecf1aee5aab82fa5c639f6959709b1aa", "lon": -77.0136855, "rental_uris": {"ios": "https://dc.lft.to/lastmile_qr_scan", "android": "https://dc.lft.to/lastmile_qr_scan"}}, {"name": "98188bdf1cbfea3bc124754a16ff0c69", "fusion_lat": 0.0, "type": "electric_scooter", "lat": 38.900831833333335, "is_reserved": 0, "is_disabled": 0, "fusion_lon": 0.0, "bike_id": "98188bdf1cbfea3bc124754a16ff0c69", "lon": -77.01767233333334, "rental_uris": {"ios": "https://dc.lft.to/lastmile_qr_scan", "android": "https://dc.lft.to/lastmile_qr_scan"}}, {"name": "fefdb7374848a6146b187477a48bbbab", "fusion_lat": 0.0, "type": "electric_scooter", "lat": 38.90644116666667, "is_reserved": 0, "is_disabled": 0, "fusion_lon": 0.0, "bike_id": "fefdb7374848a6146b187477a48bbbab", "lon": -77.01400616666666, "rental_uris": {"ios": "https://dc.lft.to/lastmile_qr_scan", "android": "https://dc.lft.to/lastmile_qr_scan"}}, {"name": "41c9e2a8f57cf30b75f49841f49676cc", "fusion_lat": 0.0, "type": "electric_scooter", "lat": 38.912030666666666, "is_reserved": 0, "is_disabled": 0, "fusion_lon": 0.0, "bike_id": "41c9e2a8f57cf30b75f49841f49676cc", "lon": -77.002134, "rental_uris": {"ios": "https://dc.lft.to/lastmile_qr_scan", "android": "https://dc.lft.to/lastmile_qr_scan"}}, {"name": "32d4bb66582cbc1a2a8e8454e873e945", "fusion_lat": 0.0, "type": "electric_scooter", "lat": 38.93613116666667, "is_reserved": 0, "is_disabled": 0, "fusion_lon": 0.0, "bike_id": "32d4bb66582cbc1a2a8e8454e873e945", "lon": -77.05591033333333, "rental_uris": {"ios": "https://dc.lft.to/lastmile_qr_scan", "android": "https://dc.lft.to/lastmile_qr_scan"}}, {"name": "8a60f8baab0bc83f2f8b16fc93cdee42", "fusion_lat": 0.0, "type": "electric_scooter", "lat": 38.90078783333333, "is_reserved": 0, "is_disabled": 0, "fusion_lon": 0.0, "bike_id": "8a60f8baab0bc83f2f8b16fc93cdee42", "lon": -77.051995, "rental_uris": {"ios": "https://dc.lft.to/lastmile_qr_scan", "android": "https://dc.lft.to/lastmile_qr_scan"}}, {"name": "c370ab69607bcd0ed72ce4e6c4edd22c", "fusion_lat": 0.0, "type": "electric_bike", "lat": 38.968311, "is_reserved": 0, "is_disabled": 0, "fusion_lon": 0.0, "bike_id": "c370ab69607bcd0ed72ce4e6c4edd22c", "lon": -77.03334716666667, "rental_uris": {"ios": "https://dc.lft.to/lastmile_qr_scan", "android": "https://dc.lft.to/lastmile_qr_scan"}}, {"name": "2dc045107dac31f2c18bdd0017a99ef4", "fusion_lat": 0.0, "type": "electric_scooter", "lat": 38.91773333333333, "is_reserved": 0, "is_disabled": 0, "fusion_lon": 0.0, "bike_id": "2dc045107dac31f2c18bdd0017a99ef4", "lon": -77.02949466666666, "rental_uris": {"ios": "https://dc.lft.to/lastmile_qr_scan", "android": "https://dc.lft.to/lastmile_qr_scan"}}, {"name": "51335a2503133a7882c78ad741cd8f0b", "fusion_lat": 0.0, "type": "electric_scooter", "lat": 38.925700666666664, "is_reserved": 0, "is_disabled": 0, "fusion_lon": 0.0, "bike_id": "51335a2503133a7882c78ad741cd8f0b", "lon": -77.02894783333333, "rental_uris": {"ios": "https://dc.lft.to/lastmile_qr_scan", "android": "https://dc.lft.to/lastmile_qr_scan"}}, {"name": "01bbfb4ddd095a846149a94e0dfb057d", "fusion_lat": 0.0, "type": "electric_scooter", "lat": 38.91220916666666, "is_reserved": 0, "is_disabled": 0, "fusion_lon": 0.0, "bike_id": "01bbfb4ddd095a846149a94e0dfb057d", "lon": -77.04501816666667, "rental_uris": {"ios": "https://dc.lft.to/lastmile_qr_scan", "android": "https://dc.lft.to/lastmile_qr_scan"}}, {"name": "4fdebddea7d260d64c53f6ec7702e4c9", "fusion_lat": 0.0, "type": "electric_scooter", "lat": 38.89536066666667, "is_reserved": 0, "is_disabled": 0, "fusion_lon": 0.0, "bike_id": "4fdebddea7d260d64c53f6ec7702e4c9", "lon": -77.010679, "rental_uris": {"ios": "https://dc.lft.to/lastmile_qr_scan", "android": "https://dc.lft.to/lastmile_qr_scan"}}, {"name": "46aebc7e8ab87dfab963b8137ad8750c", "fusion_lat": 0.0, "type": "electric_scooter", "lat": 38.899046, "is_reserved": 0, "is_disabled": 0, "fusion_lon": 0.0, "bike_id": "46aebc7e8ab87dfab963b8137ad8750c", "lon": -77.03935266666667, "rental_uris": {"ios": "https://dc.lft.to/lastmile_qr_scan", "android": "https://dc.lft.to/lastmile_qr_scan"}}, {"name": "40f8eca165fb8ba299e5797b6e291861", "fusion_lat": 0.0, "type": "electric_scooter", "lat": 38.9031245, "is_reserved": 0, "is_disabled": 0, "fusion_lon": 0.0, "bike_id": "40f8eca165fb8ba299e5797b6e291861", "lon": -77.04168333333334, "rental_uris": {"ios": "https://dc.lft.to/lastmile_qr_scan", "android": "https://dc.lft.to/lastmile_qr_scan"}}, {"name": "6da7e1c114228802faf9da0a5fb1c57b", "fusion_lat": 0.0, "type": "electric_scooter", "lat": 38.89959416666667, "is_reserved": 0, "is_disabled": 0, "fusion_lon": 0.0, "bike_id": "6da7e1c114228802faf9da0a5fb1c57b", "lon": -77.03119133333334, "rental_uris": {"ios": "https://dc.lft.to/lastmile_qr_scan", "android": "https://dc.lft.to/lastmile_qr_scan"}}, {"name": "6c59528d88a02f564187710a301f42b4", "fusion_lat": 0.0, "type": "electric_scooter", "lat": 38.93635033333333, "is_reserved": 0, "is_disabled": 0, "fusion_lon": 0.0, "bike_id": "6c59528d88a02f564187710a301f42b4", "lon": -77.0588195, "rental_uris": {"ios": "https://dc.lft.to/lastmile_qr_scan", "android": "https://dc.lft.to/lastmile_qr_scan"}}, {"name": "3a6d3eb7c04cc51303fa4125888eff9a", "fusion_lat": 0.0, "type": "electric_scooter", "lat": 38.91333433333333, "is_reserved": 0, "is_disabled": 0, "fusion_lon": 0.0, "bike_id": "3a6d3eb7c04cc51303fa4125888eff9a", "lon": -77.031219, "rental_uris": {"ios": "https://dc.lft.to/lastmile_qr_scan", "android": "https://dc.lft.to/lastmile_qr_scan"}}, {"name": "24add2d5997a010ea4cabaf1ddf63211", "fusion_lat": 0.0, "type": "electric_scooter", "lat": 38.8784195, "is_reserved": 0, "is_disabled": 0, "fusion_lon": 0.0, "bike_id": "24add2d5997a010ea4cabaf1ddf63211", "lon": -77.0227905, "rental_uris": {"ios": "https://dc.lft.to/lastmile_qr_scan", "android": "https://dc.lft.to/lastmile_qr_scan"}}, {"name": "a8ca454578e20d3fc6047cfe3694cf78", "fusion_lat": 0.0, "type": "electric_scooter", "lat": 38.896086333333336, "is_reserved": 0, "is_disabled": 0, "fusion_lon": 0.0, "bike_id": "a8ca454578e20d3fc6047cfe3694cf78", "lon": -77.0469065, "rental_uris": {"ios": "https://dc.lft.to/lastmile_qr_scan", "android": "https://dc.lft.to/lastmile_qr_scan"}}, {"name": "042ea31c0f03197fd3116ae60d6dd2ff", "fusion_lat": 0.0, "type": "electric_scooter", "lat": 38.93524683333333, "is_reserved": 0, "is_disabled": 0, "fusion_lon": 0.0, "bike_id": "042ea31c0f03197fd3116ae60d6dd2ff", "lon": -77.0326375, "rental_uris": {"ios": "https://dc.lft.to/lastmile_qr_scan", "android": "https://dc.lft.to/lastmile_qr_scan"}}, {"name": "36af63d83dab657d8c939fe34656a7cc", "fusion_lat": 0.0, "type": "electric_scooter", "lat": 38.882220333333336, "is_reserved": 0, "is_disabled": 0, "fusion_lon": 0.0, "bike_id": "36af63d83dab657d8c939fe34656a7cc", "lon": -76.9418015, "rental_uris": {"ios": "https://dc.lft.to/lastmile_qr_scan", "android": "https://dc.lft.to/lastmile_qr_scan"}}, {"name": "0c1cf551e0ffe9e4111ccaf03b963f69", "fusion_lat": 0.0, "type": "electric_scooter", "lat": 38.91196733333334, "is_reserved": 0, "is_disabled": 0, "fusion_lon": 0.0, "bike_id": "0c1cf551e0ffe9e4111ccaf03b963f69", "lon": -77.031813, "rental_uris": {"ios": "https://dc.lft.to/lastmile_qr_scan", "android": "https://dc.lft.to/lastmile_qr_scan"}}, {"name": "5d6968cf903faf9e8b254e6082196989", "fusion_lat": 0.0, "type": "electric_scooter", "lat": 38.909723, "is_reserved": 0, "is_disabled": 0, "fusion_lon": 0.0, "bike_id": "5d6968cf903faf9e8b254e6082196989", "lon": -77.04667466666666, "rental_uris": {"ios": "https://dc.lft.to/lastmile_qr_scan", "android": "https://dc.lft.to/lastmile_qr_scan"}}, {"name": "4881cd79c531224876b4cd0ffd6845dd", "fusion_lat": 0.0, "type": "electric_scooter", "lat": 38.92140533333333, "is_reserved": 0, "is_disabled": 0, "fusion_lon": 0.0, "bike_id": "4881cd79c531224876b4cd0ffd6845dd", "lon": -77.045639, "rental_uris": {"ios": "https://dc.lft.to/lastmile_qr_scan", "android": "https://dc.lft.to/lastmile_qr_scan"}}, {"name": "fc0c91fe43c5ed27bea7c862474f07c5", "fusion_lat": 0.0, "type": "electric_scooter", "lat": 38.9101575, "is_reserved": 0, "is_disabled": 0, "fusion_lon": 0.0, "bike_id": "fc0c91fe43c5ed27bea7c862474f07c5", "lon": -77.04445083333333, "rental_uris": {"ios": "https://dc.lft.to/lastmile_qr_scan", "android": "https://dc.lft.to/lastmile_qr_scan"}}, {"name": "869ffb027a5f30dc39b340dbab87ae64", "fusion_lat": 0.0, "type": "electric_scooter", "lat": 38.900452666666666, "is_reserved": 0, "is_disabled": 0, "fusion_lon": 0.0, "bike_id": "869ffb027a5f30dc39b340dbab87ae64", "lon": -76.99147, "rental_uris": {"ios": "https://dc.lft.to/lastmile_qr_scan", "android": "https://dc.lft.to/lastmile_qr_scan"}}, {"name": "b05ff79e297ed69277ce8fa490669ac1", "fusion_lat": 0.0, "type": "electric_scooter", "lat": 38.9210545, "is_reserved": 0, "is_disabled": 0, "fusion_lon": 0.0, "bike_id": "b05ff79e297ed69277ce8fa490669ac1", "lon": -77.054779, "rental_uris": {"ios": "https://dc.lft.to/lastmile_qr_scan", "android": "https://dc.lft.to/lastmile_qr_scan"}}, {"name": "333debab98bcfafd3ea2f8649fde4af6", "fusion_lat": 0.0, "type": "electric_scooter", "lat": 38.9237725, "is_reserved": 0, "is_disabled": 0, "fusion_lon": 0.0, "bike_id": "333debab98bcfafd3ea2f8649fde4af6", "lon": -77.04096216666667, "rental_uris": {"ios": "https://dc.lft.to/lastmile_qr_scan", "android": "https://dc.lft.to/lastmile_qr_scan"}}, {"name": "909cb17460013fb140c27e745baf33e8", "fusion_lat": 0.0, "type": "electric_scooter", "lat": 38.86259833333333, "is_reserved": 0, "is_disabled": 0, "fusion_lon": 0.0, "bike_id": "909cb17460013fb140c27e745baf33e8", "lon": -76.98708916666666, "rental_uris": {"ios": "https://dc.lft.to/lastmile_qr_scan", "android": "https://dc.lft.to/lastmile_qr_scan"}}, {"name": "68332ad5b5bcf4c718c5c627df900603", "fusion_lat": 0.0, "type": "electric_scooter", "lat": 38.8899555, "is_reserved": 0, "is_disabled": 0, "fusion_lon": 0.0, "bike_id": "68332ad5b5bcf4c718c5c627df900603", "lon": -76.95416916666667, "rental_uris": {"ios": "https://dc.lft.to/lastmile_qr_scan", "android": "https://dc.lft.to/lastmile_qr_scan"}}, {"name": "86a4bec23a73b1c038253a34847c759b", "fusion_lat": 0.0, "type": "electric_scooter", "lat": 38.903833666666664, "is_reserved": 0, "is_disabled": 0, "fusion_lon": 0.0, "bike_id": "86a4bec23a73b1c038253a34847c759b", "lon": -77.04841816666666, "rental_uris": {"ios": "https://dc.lft.to/lastmile_qr_scan", "android": "https://dc.lft.to/lastmile_qr_scan"}}, {"name": "ab61dd6a72110ad04157a3bfe5fb0e18", "fusion_lat": 0.0, "type": "electric_scooter", "lat": 38.92377283333333, "is_reserved": 0, "is_disabled": 0, "fusion_lon": 0.0, "bike_id": "ab61dd6a72110ad04157a3bfe5fb0e18", "lon": -77.0313465, "rental_uris": {"ios": "https://dc.lft.to/lastmile_qr_scan", "android": "https://dc.lft.to/lastmile_qr_scan"}}, {"name": "8118eb2438eb7a38f6b9ac2eda39673e", "fusion_lat": 0.0, "type": "electric_scooter", "lat": 38.873196, "is_reserved": 0, "is_disabled": 0, "fusion_lon": 0.0, "bike_id": "8118eb2438eb7a38f6b9ac2eda39673e", "lon": -77.0010735, "rental_uris": {"ios": "https://dc.lft.to/lastmile_qr_scan", "android": "https://dc.lft.to/lastmile_qr_scan"}}, {"name": "2b955a3e0070e0c899d3e24bf57010a4", "fusion_lat": 0.0, "type": "electric_scooter", "lat": 38.90484216666667, "is_reserved": 0, "is_disabled": 0, "fusion_lon": 0.0, "bike_id": "2b955a3e0070e0c899d3e24bf57010a4", "lon": -76.97330166666667, "rental_uris": {"ios": "https://dc.lft.to/lastmile_qr_scan", "android": "https://dc.lft.to/lastmile_qr_scan"}}, {"name": "bcd6efaffecca9849bf9ba2c995bf7a0", "fusion_lat": 0.0, "type": "electric_scooter", "lat": 38.909398833333334, "is_reserved": 0, "is_disabled": 0, "fusion_lon": 0.0, "bike_id": "bcd6efaffecca9849bf9ba2c995bf7a0", "lon": -76.9849195, "rental_uris": {"ios": "https://dc.lft.to/lastmile_qr_scan", "android": "https://dc.lft.to/lastmile_qr_scan"}}, {"name": "0de676aea04bf555d644b6b32c9f19a3", "fusion_lat": 0.0, "type": "electric_scooter", "lat": 38.9370305, "is_reserved": 0, "is_disabled": 0, "fusion_lon": 0.0, "bike_id": "0de676aea04bf555d644b6b32c9f19a3", "lon": -77.0568545, "rental_uris": {"ios": "https://dc.lft.to/lastmile_qr_scan", "android": "https://dc.lft.to/lastmile_qr_scan"}}, {"name": "a9e764668ab185dfa1e875a528f30a8d", "fusion_lat": 0.0, "type": "electric_bike", "lat": 38.937150833333334, "is_reserved": 0, "is_disabled": 0, "fusion_lon": 0.0, "bike_id": "a9e764668ab185dfa1e875a528f30a8d", "lon": -77.03258616666666, "rental_uris": {"ios": "https://dc.lft.to/lastmile_qr_scan", "android": "https://dc.lft.to/lastmile_qr_scan"}}, {"name": "f6bf6f2d53e674b1b27e826843139567", "fusion_lat": 0.0, "type": "electric_bike", "lat": 38.95187283333333, "is_reserved": 0, "is_disabled": 0, "fusion_lon": 0.0, "bike_id": "f6bf6f2d53e674b1b27e826843139567", "lon": -76.9354245, "rental_uris": {"ios": "https://dc.lft.to/lastmile_qr_scan", "android": "https://dc.lft.to/lastmile_qr_scan"}}, {"name": "d205edd183ff63d0e1ea7815cc3a6e75", "fusion_lat": 0.0, "type": "electric_scooter", "lat": 38.895339166666666, "is_reserved": 0, "is_disabled": 0, "fusion_lon": 0.0, "bike_id": "d205edd183ff63d0e1ea7815cc3a6e75", "lon": -76.94924883333333, "rental_uris": {"ios": "https://dc.lft.to/lastmile_qr_scan", "android": "https://dc.lft.to/lastmile_qr_scan"}}, {"name": "5301840fba6f6778ec02554efe5bee2a", "fusion_lat": 0.0, "type": "electric_scooter", "lat": 38.89627733333333, "is_reserved": 0, "is_disabled": 0, "fusion_lon": 0.0, "bike_id": "5301840fba6f6778ec02554efe5bee2a", "lon": -77.02393066666667, "rental_uris": {"ios": "https://dc.lft.to/lastmile_qr_scan", "android": "https://dc.lft.to/lastmile_qr_scan"}}, {"name": "beede59b41ddcae9047b93107bc17c4b", "fusion_lat": 0.0, "type": "electric_bike", "lat": 38.89562866666667, "is_reserved": 0, "is_disabled": 0, "fusion_lon": 0.0, "bike_id": "beede59b41ddcae9047b93107bc17c4b", "lon": -77.12733766666666, "rental_uris": {"ios": "https://dc.lft.to/lastmile_qr_scan", "android": "https://dc.lft.to/lastmile_qr_scan"}}, {"name": "ab89aaad0f6c12139747bd40479968df", "fusion_lat": 0.0, "type": "electric_scooter", "lat": 38.916791, "is_reserved": 0, "is_disabled": 0, "fusion_lon": 0.0, "bike_id": "ab89aaad0f6c12139747bd40479968df", "lon": -77.03170483333334, "rental_uris": {"ios": "https://dc.lft.to/lastmile_qr_scan", "android": "https://dc.lft.to/lastmile_qr_scan"}}, {"name": "8cf8c0a75a26a68257308c4dd13432e6", "fusion_lat": 0.0, "type": "electric_scooter", "lat": 38.895978, "is_reserved": 0, "is_disabled": 0, "fusion_lon": 0.0, "bike_id": "8cf8c0a75a26a68257308c4dd13432e6", "lon": -77.041069, "rental_uris": {"ios": "https://dc.lft.to/lastmile_qr_scan", "android": "https://dc.lft.to/lastmile_qr_scan"}}, {"name": "fa7890b07cccce1b0ef71b7d82642fbd", "fusion_lat": 0.0, "type": "electric_scooter", "lat": 38.884327, "is_reserved": 0, "is_disabled": 0, "fusion_lon": 0.0, "bike_id": "fa7890b07cccce1b0ef71b7d82642fbd", "lon": -76.95755733333333, "rental_uris": {"ios": "https://dc.lft.to/lastmile_qr_scan", "android": "https://dc.lft.to/lastmile_qr_scan"}}, {"name": "b6509d71ad5730c97e524c38c806e889", "fusion_lat": 0.0, "type": "electric_scooter", "lat": 38.87648266666667, "is_reserved": 0, "is_disabled": 0, "fusion_lon": 0.0, "bike_id": "b6509d71ad5730c97e524c38c806e889", "lon": -76.96504083333333, "rental_uris": {"ios": "https://dc.lft.to/lastmile_qr_scan", "android": "https://dc.lft.to/lastmile_qr_scan"}}, {"name": "26e199dc9f28c00463c2c74659d60579", "fusion_lat": 0.0, "type": "electric_bike", "lat": 38.923015, "is_reserved": 0, "is_disabled": 0, "fusion_lon": 0.0, "bike_id": "26e199dc9f28c00463c2c74659d60579", "lon": -76.99389216666667, "rental_uris": {"ios": "https://dc.lft.to/lastmile_qr_scan", "android": "https://dc.lft.to/lastmile_qr_scan"}}, {"name": "0c510fc457d93a324928c0ecb317b96b", "fusion_lat": 0.0, "type": "electric_bike", "lat": 39.1056545, "is_reserved": 0, "is_disabled": 0, "fusion_lon": 0.0, "bike_id": "0c510fc457d93a324928c0ecb317b96b", "lon": -77.1526885, "rental_uris": {"ios": "https://dc.lft.to/lastmile_qr_scan", "android": "https://dc.lft.to/lastmile_qr_scan"}}, {"name": "d03578e4a15cd6da6aa41ae236204ffb", "fusion_lat": 0.0, "type": "electric_scooter", "lat": 38.91800466666667, "is_reserved": 0, "is_disabled": 0, "fusion_lon": 0.0, "bike_id": "d03578e4a15cd6da6aa41ae236204ffb", "lon": -77.04015516666666, "rental_uris": {"ios": "https://dc.lft.to/lastmile_qr_scan", "android": "https://dc.lft.to/lastmile_qr_scan"}}, {"name": "5ce4053b8e5535330710b9ed463b5786", "fusion_lat": 0.0, "type": "electric_scooter", "lat": 38.905787, "is_reserved": 0, "is_disabled": 0, "fusion_lon": 0.0, "bike_id": "5ce4053b8e5535330710b9ed463b5786", "lon": -77.00600816666666, "rental_uris": {"ios": "https://dc.lft.to/lastmile_qr_scan", "android": "https://dc.lft.to/lastmile_qr_scan"}}, {"name": "187e2efa31f3b1f9a5d32d6c4c6c77db", "fusion_lat": 0.0, "type": "electric_scooter", "lat": 38.922257, "is_reserved": 0, "is_disabled": 0, "fusion_lon": 0.0, "bike_id": "187e2efa31f3b1f9a5d32d6c4c6c77db", "lon": -77.02110933333333, "rental_uris": {"ios": "https://dc.lft.to/lastmile_qr_scan", "android": "https://dc.lft.to/lastmile_qr_scan"}}, {"name": "acd89a548a89e05687a27573a4d750cf", "fusion_lat": 0.0, "type": "electric_scooter", "lat": 38.91193666666667, "is_reserved": 0, "is_disabled": 0, "fusion_lon": 0.0, "bike_id": "acd89a548a89e05687a27573a4d750cf", "lon": -77.03219966666667, "rental_uris": {"ios": "https://dc.lft.to/lastmile_qr_scan", "android": "https://dc.lft.to/lastmile_qr_scan"}}, {"name": "aa954056dc555ffbdc6201bbdb3edfd0", "fusion_lat": 0.0, "type": "electric_scooter", "lat": 38.89222216666667, "is_reserved": 0, "is_disabled": 0, "fusion_lon": 0.0, "bike_id": "aa954056dc555ffbdc6201bbdb3edfd0", "lon": -77.02228733333334, "rental_uris": {"ios": "https://dc.lft.to/lastmile_qr_scan", "android": "https://dc.lft.to/lastmile_qr_scan"}}, {"name": "bb02843a36442b70d59ee1cb34f668c3", "fusion_lat": 0.0, "type": "electric_scooter", "lat": 38.906575333333336, "is_reserved": 0, "is_disabled": 0, "fusion_lon": 0.0, "bike_id": "bb02843a36442b70d59ee1cb34f668c3", "lon": -77.00992483333333, "rental_uris": {"ios": "https://dc.lft.to/lastmile_qr_scan", "android": "https://dc.lft.to/lastmile_qr_scan"}}, {"name": "cbd3b147e9950999b7b55b9fe823d15c", "fusion_lat": 0.0, "type": "electric_scooter", "lat": 38.91814633333333, "is_reserved": 0, "is_disabled": 0, "fusion_lon": 0.0, "bike_id": "cbd3b147e9950999b7b55b9fe823d15c", "lon": -77.03212883333333, "rental_uris": {"ios": "https://dc.lft.to/lastmile_qr_scan", "android": "https://dc.lft.to/lastmile_qr_scan"}}, {"name": "1db3f2e3b3003424de8c841bd6287b97", "fusion_lat": 0.0, "type": "electric_scooter", "lat": 38.861428833333335, "is_reserved": 0, "is_disabled": 0, "fusion_lon": 0.0, "bike_id": "1db3f2e3b3003424de8c841bd6287b97", "lon": -76.96776833333334, "rental_uris": {"ios": "https://dc.lft.to/lastmile_qr_scan", "android": "https://dc.lft.to/lastmile_qr_scan"}}, {"name": "d4721debc2196856929d158e1e66743d", "fusion_lat": 0.0, "type": "electric_scooter", "lat": 38.905206166666666, "is_reserved": 0, "is_disabled": 0, "fusion_lon": 0.0, "bike_id": "d4721debc2196856929d158e1e66743d", "lon": -77.02943416666666, "rental_uris": {"ios": "https://dc.lft.to/lastmile_qr_scan", "android": "https://dc.lft.to/lastmile_qr_scan"}}, {"name": "d021e4f33d6448dc5519e5ec27ef14ee", "fusion_lat": 0.0, "type": "electric_scooter", "lat": 38.92138583333333, "is_reserved": 0, "is_disabled": 0, "fusion_lon": 0.0, "bike_id": "d021e4f33d6448dc5519e5ec27ef14ee", "lon": -77.04505266666666, "rental_uris": {"ios": "https://dc.lft.to/lastmile_qr_scan", "android": "https://dc.lft.to/lastmile_qr_scan"}}, {"name": "8080313a025009007decfd5f07b19648", "fusion_lat": 0.0, "type": "electric_bike", "lat": 38.85247916666667, "is_reserved": 0, "is_disabled": 0, "fusion_lon": 0.0, "bike_id": "8080313a025009007decfd5f07b19648", "lon": -77.11427066666667, "rental_uris": {"ios": "https://dc.lft.to/lastmile_qr_scan", "android": "https://dc.lft.to/lastmile_qr_scan"}}, {"name": "24998cd0db1785a1b104be4b9706d4fe", "fusion_lat": 0.0, "type": "electric_scooter", "lat": 38.923819, "is_reserved": 0, "is_disabled": 0, "fusion_lon": 0.0, "bike_id": "24998cd0db1785a1b104be4b9706d4fe", "lon": -76.99022316666667, "rental_uris": {"ios": "https://dc.lft.to/lastmile_qr_scan", "android": "https://dc.lft.to/lastmile_qr_scan"}}, {"name": "6d61cba4a35563470fac0e4f150242b9", "fusion_lat": 0.0, "type": "electric_scooter", "lat": 38.92251266666667, "is_reserved": 0, "is_disabled": 0, "fusion_lon": 0.0, "bike_id": "6d61cba4a35563470fac0e4f150242b9", "lon": -77.02808483333334, "rental_uris": {"ios": "https://dc.lft.to/lastmile_qr_scan", "android": "https://dc.lft.to/lastmile_qr_scan"}}, {"name": "5e9910db42c2d2ccd684264ef2cd1140", "fusion_lat": 0.0, "type": "electric_bike", "lat": 38.9155385, "is_reserved": 0, "is_disabled": 0, "fusion_lon": 0.0, "bike_id": "5e9910db42c2d2ccd684264ef2cd1140", "lon": -76.98360883333334, "rental_uris": {"ios": "https://dc.lft.to/lastmile_qr_scan", "android": "https://dc.lft.to/lastmile_qr_scan"}}, {"name": "62ef1181159aed4253b56ee92c76ed53", "fusion_lat": 0.0, "type": "electric_scooter", "lat": 38.9264905, "is_reserved": 0, "is_disabled": 0, "fusion_lon": 0.0, "bike_id": "62ef1181159aed4253b56ee92c76ed53", "lon": -77.03318866666666, "rental_uris": {"ios": "https://dc.lft.to/lastmile_qr_scan", "android": "https://dc.lft.to/lastmile_qr_scan"}}, {"name": "9abe85a417033ddfa9ec1d11b7237e16", "fusion_lat": 0.0, "type": "electric_bike", "lat": 38.87076183333333, "is_reserved": 0, "is_disabled": 0, "fusion_lon": 0.0, "bike_id": "9abe85a417033ddfa9ec1d11b7237e16", "lon": -77.11057166666667, "rental_uris": {"ios": "https://dc.lft.to/lastmile_qr_scan", "android": "https://dc.lft.to/lastmile_qr_scan"}}, {"name": "ebd60602af97f1f9ad5712886922c03b", "fusion_lat": 0.0, "type": "electric_scooter", "lat": 38.90035866666667, "is_reserved": 0, "is_disabled": 0, "fusion_lon": 0.0, "bike_id": "ebd60602af97f1f9ad5712886922c03b", "lon": -77.00533933333334, "rental_uris": {"ios": "https://dc.lft.to/lastmile_qr_scan", "android": "https://dc.lft.to/lastmile_qr_scan"}}, {"name": "54cde0fa43a0f97c31d0475212f439e3", "fusion_lat": 0.0, "type": "electric_scooter", "lat": 38.8876965, "is_reserved": 0, "is_disabled": 0, "fusion_lon": 0.0, "bike_id": "54cde0fa43a0f97c31d0475212f439e3", "lon": -76.98026083333333, "rental_uris": {"ios": "https://dc.lft.to/lastmile_qr_scan", "android": "https://dc.lft.to/lastmile_qr_scan"}}, {"name": "4a5ea481bc8343e739ae8c73b3076543", "fusion_lat": 0.0, "type": "electric_scooter", "lat": 38.948379333333335, "is_reserved": 0, "is_disabled": 0, "fusion_lon": 0.0, "bike_id": "4a5ea481bc8343e739ae8c73b3076543", "lon": -77.0255375, "rental_uris": {"ios": "https://dc.lft.to/lastmile_qr_scan", "android": "https://dc.lft.to/lastmile_qr_scan"}}, {"name": "4c99ea4a862b833abcc7c07639e6b0ca", "fusion_lat": 0.0, "type": "electric_scooter", "lat": 38.91562966666667, "is_reserved": 0, "is_disabled": 0, "fusion_lon": 0.0, "bike_id": "4c99ea4a862b833abcc7c07639e6b0ca", "lon": -77.03234833333333, "rental_uris": {"ios": "https://dc.lft.to/lastmile_qr_scan", "android": "https://dc.lft.to/lastmile_qr_scan"}}, {"name": "d2fba73f4a27643fa1498f5965e44ecc", "fusion_lat": 0.0, "type": "electric_scooter", "lat": 38.917663, "is_reserved": 0, "is_disabled": 0, "fusion_lon": 0.0, "bike_id": "d2fba73f4a27643fa1498f5965e44ecc", "lon": -77.0175755, "rental_uris": {"ios": "https://dc.lft.to/lastmile_qr_scan", "android": "https://dc.lft.to/lastmile_qr_scan"}}, {"name": "b01120f44e6d64138fcd2467fd846d86", "fusion_lat": 0.0, "type": "electric_scooter", "lat": 38.9097385, "is_reserved": 0, "is_disabled": 0, "fusion_lon": 0.0, "bike_id": "b01120f44e6d64138fcd2467fd846d86", "lon": -77.040104, "rental_uris": {"ios": "https://dc.lft.to/lastmile_qr_scan", "android": "https://dc.lft.to/lastmile_qr_scan"}}, {"name": "d234b383cb61f4292b2426543be0d7ff", "fusion_lat": 0.0, "type": "electric_scooter", "lat": 38.8775075, "is_reserved": 0, "is_disabled": 0, "fusion_lon": 0.0, "bike_id": "d234b383cb61f4292b2426543be0d7ff", "lon": -76.97241066666666, "rental_uris": {"ios": "https://dc.lft.to/lastmile_qr_scan", "android": "https://dc.lft.to/lastmile_qr_scan"}}, {"name": "7e0eac98da006c651cd75ed57cae4e5e", "fusion_lat": 0.0, "type": "electric_bike", "lat": 38.91874166666667, "is_reserved": 0, "is_disabled": 0, "fusion_lon": 0.0, "bike_id": "7e0eac98da006c651cd75ed57cae4e5e", "lon": -77.0703905, "rental_uris": {"ios": "https://dc.lft.to/lastmile_qr_scan", "android": "https://dc.lft.to/lastmile_qr_scan"}}, {"name": "bc2d32228fcb9c495097fff5f24acce9", "fusion_lat": 0.0, "type": "electric_scooter", "lat": 38.897432, "is_reserved": 0, "is_disabled": 0, "fusion_lon": 0.0, "bike_id": "bc2d32228fcb9c495097fff5f24acce9", "lon": -77.04731566666666, "rental_uris": {"ios": "https://dc.lft.to/lastmile_qr_scan", "android": "https://dc.lft.to/lastmile_qr_scan"}}, {"name": "4dc935367cea4f6d3391083f9104052b", "fusion_lat": 0.0, "type": "electric_scooter", "lat": 38.91870383333333, "is_reserved": 0, "is_disabled": 0, "fusion_lon": 0.0, "bike_id": "4dc935367cea4f6d3391083f9104052b", "lon": -77.07340516666666, "rental_uris": {"ios": "https://dc.lft.to/lastmile_qr_scan", "android": "https://dc.lft.to/lastmile_qr_scan"}}, {"name": "b0bdac16fc7e1fd2a81fa1c7b677b9f0", "fusion_lat": 0.0, "type": "electric_scooter", "lat": 38.923477166666665, "is_reserved": 0, "is_disabled": 0, "fusion_lon": 0.0, "bike_id": "b0bdac16fc7e1fd2a81fa1c7b677b9f0", "lon": -77.054358, "rental_uris": {"ios": "https://dc.lft.to/lastmile_qr_scan", "android": "https://dc.lft.to/lastmile_qr_scan"}}, {"name": "3cd75173d55ca152c29a937b32237060", "fusion_lat": 0.0, "type": "electric_scooter", "lat": 38.894064166666666, "is_reserved": 0, "is_disabled": 0, "fusion_lon": 0.0, "bike_id": "3cd75173d55ca152c29a937b32237060", "lon": -76.9324045, "rental_uris": {"ios": "https://dc.lft.to/lastmile_qr_scan", "android": "https://dc.lft.to/lastmile_qr_scan"}}, {"name": "8df5846d53cef739470ff0f250bc7c7f", "fusion_lat": 0.0, "type": "electric_scooter", "lat": 38.930591666666665, "is_reserved": 0, "is_disabled": 0, "fusion_lon": 0.0, "bike_id": "8df5846d53cef739470ff0f250bc7c7f", "lon": -77.0232005, "rental_uris": {"ios": "https://dc.lft.to/lastmile_qr_scan", "android": "https://dc.lft.to/lastmile_qr_scan"}}, {"name": "8e97dce3ef4382d4748bc6b5c77ac1cd", "fusion_lat": 0.0, "type": "electric_scooter", "lat": 38.93217333333333, "is_reserved": 0, "is_disabled": 0, "fusion_lon": 0.0, "bike_id": "8e97dce3ef4382d4748bc6b5c77ac1cd", "lon": -77.03693033333333, "rental_uris": {"ios": "https://dc.lft.to/lastmile_qr_scan", "android": "https://dc.lft.to/lastmile_qr_scan"}}, {"name": "5555b0124156ea007f43fb3c5ad90b0e", "fusion_lat": 0.0, "type": "electric_scooter", "lat": 38.917622, "is_reserved": 0, "is_disabled": 0, "fusion_lon": 0.0, "bike_id": "5555b0124156ea007f43fb3c5ad90b0e", "lon": -77.03188266666666, "rental_uris": {"ios": "https://dc.lft.to/lastmile_qr_scan", "android": "https://dc.lft.to/lastmile_qr_scan"}}, {"name": "1bde6151212f8a0afaceaa050339d50a", "fusion_lat": 0.0, "type": "electric_scooter", "lat": 38.894803333333336, "is_reserved": 0, "is_disabled": 0, "fusion_lon": 0.0, "bike_id": "1bde6151212f8a0afaceaa050339d50a", "lon": -76.99226566666667, "rental_uris": {"ios": "https://dc.lft.to/lastmile_qr_scan", "android": "https://dc.lft.to/lastmile_qr_scan"}}, {"name": "be7ee4e05f5988c3f016ca43192c439e", "fusion_lat": 0.0, "type": "electric_bike", "lat": 38.8079255, "is_reserved": 0, "is_disabled": 0, "fusion_lon": 0.0, "bike_id": "be7ee4e05f5988c3f016ca43192c439e", "lon": -77.1296825, "rental_uris": {"ios": "https://dc.lft.to/lastmile_qr_scan", "android": "https://dc.lft.to/lastmile_qr_scan"}}, {"name": "68978e197e8332e6f41e74b0b06dfab4", "fusion_lat": 0.0, "type": "electric_scooter", "lat": 38.905799, "is_reserved": 0, "is_disabled": 0, "fusion_lon": 0.0, "bike_id": "68978e197e8332e6f41e74b0b06dfab4", "lon": -77.00612433333333, "rental_uris": {"ios": "https://dc.lft.to/lastmile_qr_scan", "android": "https://dc.lft.to/lastmile_qr_scan"}}, {"name": "2bae76a760bf7b8689a5687438e579e4", "fusion_lat": 0.0, "type": "electric_bike", "lat": 38.85211, "is_reserved": 0, "is_disabled": 0, "fusion_lon": 0.0, "bike_id": "2bae76a760bf7b8689a5687438e579e4", "lon": -77.0464475, "rental_uris": {"ios": "https://dc.lft.to/lastmile_qr_scan", "android": "https://dc.lft.to/lastmile_qr_scan"}}, {"name": "35b6814ad4968e2d3b90f57708ee71c4", "fusion_lat": 0.0, "type": "electric_scooter", "lat": 38.85659866666666, "is_reserved": 0, "is_disabled": 0, "fusion_lon": 0.0, "bike_id": "35b6814ad4968e2d3b90f57708ee71c4", "lon": -76.990463, "rental_uris": {"ios": "https://dc.lft.to/lastmile_qr_scan", "android": "https://dc.lft.to/lastmile_qr_scan"}}, {"name": "3d5e62d12c7a400689730e33f2fa4114", "fusion_lat": 0.0, "type": "electric_scooter", "lat": 38.87812733333333, "is_reserved": 0, "is_disabled": 0, "fusion_lon": 0.0, "bike_id": "3d5e62d12c7a400689730e33f2fa4114", "lon": -77.00597366666666, "rental_uris": {"ios": "https://dc.lft.to/lastmile_qr_scan", "android": "https://dc.lft.to/lastmile_qr_scan"}}, {"name": "cd01692d3d7385c810bfeb674b95fcad", "fusion_lat": 0.0, "type": "electric_scooter", "lat": 38.94704466666666, "is_reserved": 0, "is_disabled": 0, "fusion_lon": 0.0, "bike_id": "cd01692d3d7385c810bfeb674b95fcad", "lon": -77.01940316666666, "rental_uris": {"ios": "https://dc.lft.to/lastmile_qr_scan", "android": "https://dc.lft.to/lastmile_qr_scan"}}, {"name": "ba3b7b7d1f9e42e5ff8bb625b254182e", "fusion_lat": 0.0, "type": "electric_scooter", "lat": 38.92782016666666, "is_reserved": 0, "is_disabled": 0, "fusion_lon": 0.0, "bike_id": "ba3b7b7d1f9e42e5ff8bb625b254182e", "lon": -77.02780383333334, "rental_uris": {"ios": "https://dc.lft.to/lastmile_qr_scan", "android": "https://dc.lft.to/lastmile_qr_scan"}}, {"name": "0f65df0171f8ccfbaa4b8241537be8db", "fusion_lat": 0.0, "type": "electric_scooter", "lat": 38.9236, "is_reserved": 0, "is_disabled": 0, "fusion_lon": 0.0, "bike_id": "0f65df0171f8ccfbaa4b8241537be8db", "lon": -77.031627, "rental_uris": {"ios": "https://dc.lft.to/lastmile_qr_scan", "android": "https://dc.lft.to/lastmile_qr_scan"}}, {"name": "4b08521b9330fd6f45d0a9250b1bd969", "fusion_lat": 0.0, "type": "electric_bike", "lat": 39.00376966666666, "is_reserved": 0, "is_disabled": 0, "fusion_lon": 0.0, "bike_id": "4b08521b9330fd6f45d0a9250b1bd969", "lon": -77.01282983333333, "rental_uris": {"ios": "https://dc.lft.to/lastmile_qr_scan", "android": "https://dc.lft.to/lastmile_qr_scan"}}, {"name": "eb6f3ecaa60fc2e7f3e54241a4ef6fcf", "fusion_lat": 0.0, "type": "electric_scooter", "lat": 38.896088166666665, "is_reserved": 0, "is_disabled": 0, "fusion_lon": 0.0, "bike_id": "eb6f3ecaa60fc2e7f3e54241a4ef6fcf", "lon": -77.0468795, "rental_uris": {"ios": "https://dc.lft.to/lastmile_qr_scan", "android": "https://dc.lft.to/lastmile_qr_scan"}}, {"name": "ebf7e80663be9086ff3ce47f75b15d81", "fusion_lat": 0.0, "type": "electric_scooter", "lat": 38.9282315, "is_reserved": 0, "is_disabled": 0, "fusion_lon": 0.0, "bike_id": "ebf7e80663be9086ff3ce47f75b15d81", "lon": -77.02258083333334, "rental_uris": {"ios": "https://dc.lft.to/lastmile_qr_scan", "android": "https://dc.lft.to/lastmile_qr_scan"}}, {"name": "2d9959762b25d61d4834d5c326ac717c", "fusion_lat": 0.0, "type": "electric_scooter", "lat": 38.9025935, "is_reserved": 0, "is_disabled": 0, "fusion_lon": 0.0, "bike_id": "2d9959762b25d61d4834d5c326ac717c", "lon": -76.97702416666667, "rental_uris": {"ios": "https://dc.lft.to/lastmile_qr_scan", "android": "https://dc.lft.to/lastmile_qr_scan"}}, {"name": "ab384013563b4e0b6f176c5c5553a04d", "fusion_lat": 0.0, "type": "electric_scooter", "lat": 38.929660166666665, "is_reserved": 0, "is_disabled": 0, "fusion_lon": 0.0, "bike_id": "ab384013563b4e0b6f176c5c5553a04d", "lon": -77.04117516666666, "rental_uris": {"ios": "https://dc.lft.to/lastmile_qr_scan", "android": "https://dc.lft.to/lastmile_qr_scan"}}, {"name": "2172b61fbf0ba15c96accf2fd956e3ea", "fusion_lat": 0.0, "type": "electric_scooter", "lat": 38.875794166666665, "is_reserved": 0, "is_disabled": 0, "fusion_lon": 0.0, "bike_id": "2172b61fbf0ba15c96accf2fd956e3ea", "lon": -77.0106255, "rental_uris": {"ios": "https://dc.lft.to/lastmile_qr_scan", "android": "https://dc.lft.to/lastmile_qr_scan"}}, {"name": "56ddf6612123b472d252e02fd496486d", "fusion_lat": 0.0, "type": "electric_scooter", "lat": 38.917657166666665, "is_reserved": 0, "is_disabled": 0, "fusion_lon": 0.0, "bike_id": "56ddf6612123b472d252e02fd496486d", "lon": -77.09672516666667, "rental_uris": {"ios": "https://dc.lft.to/lastmile_qr_scan", "android": "https://dc.lft.to/lastmile_qr_scan"}}, {"name": "ab1114d3f318f9dc72ad8ed559673223", "fusion_lat": 0.0, "type": "electric_bike", "lat": 38.893491833333336, "is_reserved": 0, "is_disabled": 0, "fusion_lon": 0.0, "bike_id": "ab1114d3f318f9dc72ad8ed559673223", "lon": -76.99146966666666, "rental_uris": {"ios": "https://dc.lft.to/lastmile_qr_scan", "android": "https://dc.lft.to/lastmile_qr_scan"}}, {"name": "4532d3f252b9cb20a3c7a29c44df60e5", "fusion_lat": 0.0, "type": "electric_scooter", "lat": 38.91290133333333, "is_reserved": 0, "is_disabled": 0, "fusion_lon": 0.0, "bike_id": "4532d3f252b9cb20a3c7a29c44df60e5", "lon": -76.93746166666666, "rental_uris": {"ios": "https://dc.lft.to/lastmile_qr_scan", "android": "https://dc.lft.to/lastmile_qr_scan"}}, {"name": "2fa38070613f19b197ce2bd5ba2dbdd6", "fusion_lat": 0.0, "type": "electric_scooter", "lat": 38.902403666666665, "is_reserved": 0, "is_disabled": 0, "fusion_lon": 0.0, "bike_id": "2fa38070613f19b197ce2bd5ba2dbdd6", "lon": -77.01854733333333, "rental_uris": {"ios": "https://dc.lft.to/lastmile_qr_scan", "android": "https://dc.lft.to/lastmile_qr_scan"}}, {"name": "fdae09ecf143a1a36ec4244c63c1f2e0", "fusion_lat": 0.0, "type": "electric_scooter", "lat": 38.911452833333335, "is_reserved": 0, "is_disabled": 0, "fusion_lon": 0.0, "bike_id": "fdae09ecf143a1a36ec4244c63c1f2e0", "lon": -77.01688283333333, "rental_uris": {"ios": "https://dc.lft.to/lastmile_qr_scan", "android": "https://dc.lft.to/lastmile_qr_scan"}}, {"name": "33c1d9c591a3b3a13eb4da9137009216", "fusion_lat": 0.0, "type": "electric_scooter", "lat": 38.866588166666666, "is_reserved": 0, "is_disabled": 0, "fusion_lon": 0.0, "bike_id": "33c1d9c591a3b3a13eb4da9137009216", "lon": -76.98885016666667, "rental_uris": {"ios": "https://dc.lft.to/lastmile_qr_scan", "android": "https://dc.lft.to/lastmile_qr_scan"}}, {"name": "8de56483ca903f3140cffb5dc4d1a099", "fusion_lat": 0.0, "type": "electric_scooter", "lat": 38.911109333333336, "is_reserved": 0, "is_disabled": 0, "fusion_lon": 0.0, "bike_id": "8de56483ca903f3140cffb5dc4d1a099", "lon": -77.02461566666666, "rental_uris": {"ios": "https://dc.lft.to/lastmile_qr_scan", "android": "https://dc.lft.to/lastmile_qr_scan"}}, {"name": "5caa067177e2be3ebe780b18c7098004", "fusion_lat": 0.0, "type": "electric_scooter", "lat": 38.95613916666667, "is_reserved": 0, "is_disabled": 0, "fusion_lon": 0.0, "bike_id": "5caa067177e2be3ebe780b18c7098004", "lon": -77.077129, "rental_uris": {"ios": "https://dc.lft.to/lastmile_qr_scan", "android": "https://dc.lft.to/lastmile_qr_scan"}}, {"name": "6d941737714c9972da6a83b2e8e44418", "fusion_lat": 0.0, "type": "electric_scooter", "lat": 38.86537416666667, "is_reserved": 0, "is_disabled": 0, "fusion_lon": 0.0, "bike_id": "6d941737714c9972da6a83b2e8e44418", "lon": -76.98706483333333, "rental_uris": {"ios": "https://dc.lft.to/lastmile_qr_scan", "android": "https://dc.lft.to/lastmile_qr_scan"}}, {"name": "bbab376432f7c9d17c52b94c6d19d807", "fusion_lat": 0.0, "type": "electric_scooter", "lat": 38.900277333333335, "is_reserved": 0, "is_disabled": 0, "fusion_lon": 0.0, "bike_id": "bbab376432f7c9d17c52b94c6d19d807", "lon": -76.99857933333334, "rental_uris": {"ios": "https://dc.lft.to/lastmile_qr_scan", "android": "https://dc.lft.to/lastmile_qr_scan"}}, {"name": "355f8405b5335036e06855f082b26232", "fusion_lat": 0.0, "type": "electric_scooter", "lat": 38.929074166666666, "is_reserved": 0, "is_disabled": 0, "fusion_lon": 0.0, "bike_id": "355f8405b5335036e06855f082b26232", "lon": -77.00521883333333, "rental_uris": {"ios": "https://dc.lft.to/lastmile_qr_scan", "android": "https://dc.lft.to/lastmile_qr_scan"}}, {"name": "c029baff38491a394a3e34839d14a9ce", "fusion_lat": 0.0, "type": "electric_scooter", "lat": 38.91179183333333, "is_reserved": 0, "is_disabled": 0, "fusion_lon": 0.0, "bike_id": "c029baff38491a394a3e34839d14a9ce", "lon": -77.03213183333334, "rental_uris": {"ios": "https://dc.lft.to/lastmile_qr_scan", "android": "https://dc.lft.to/lastmile_qr_scan"}}, {"name": "48c5d92cc1aa9c56fb73bc6dfb74a4e4", "fusion_lat": 0.0, "type": "electric_scooter", "lat": 38.91543333333333, "is_reserved": 0, "is_disabled": 0, "fusion_lon": 0.0, "bike_id": "48c5d92cc1aa9c56fb73bc6dfb74a4e4", "lon": -77.038552, "rental_uris": {"ios": "https://dc.lft.to/lastmile_qr_scan", "android": "https://dc.lft.to/lastmile_qr_scan"}}, {"name": "88fc883c914f4613013e4b25b1ef2529", "fusion_lat": 0.0, "type": "electric_scooter", "lat": 38.91199533333333, "is_reserved": 0, "is_disabled": 0, "fusion_lon": 0.0, "bike_id": "88fc883c914f4613013e4b25b1ef2529", "lon": -77.0344295, "rental_uris": {"ios": "https://dc.lft.to/lastmile_qr_scan", "android": "https://dc.lft.to/lastmile_qr_scan"}}, {"name": "dbfea50f3caa5d0e300c7da4af70d557", "fusion_lat": 0.0, "type": "electric_scooter", "lat": 38.919189, "is_reserved": 0, "is_disabled": 0, "fusion_lon": 0.0, "bike_id": "dbfea50f3caa5d0e300c7da4af70d557", "lon": -77.0249315, "rental_uris": {"ios": "https://dc.lft.to/lastmile_qr_scan", "android": "https://dc.lft.to/lastmile_qr_scan"}}, {"name": "824b1b3d23c57ac09c2cff8fdce455d8", "fusion_lat": 0.0, "type": "electric_scooter", "lat": 38.9181825, "is_reserved": 0, "is_disabled": 0, "fusion_lon": 0.0, "bike_id": "824b1b3d23c57ac09c2cff8fdce455d8", "lon": -77.0356725, "rental_uris": {"ios": "https://dc.lft.to/lastmile_qr_scan", "android": "https://dc.lft.to/lastmile_qr_scan"}}, {"name": "99425add64e872eb583cf0b85f01e845", "fusion_lat": 0.0, "type": "electric_scooter", "lat": 38.902639666666666, "is_reserved": 0, "is_disabled": 0, "fusion_lon": 0.0, "bike_id": "99425add64e872eb583cf0b85f01e845", "lon": -77.03004933333334, "rental_uris": {"ios": "https://dc.lft.to/lastmile_qr_scan", "android": "https://dc.lft.to/lastmile_qr_scan"}}, {"name": "7acd97687cb770f01f15f8230252440a", "fusion_lat": 0.0, "type": "electric_scooter", "lat": 38.90032683333333, "is_reserved": 0, "is_disabled": 0, "fusion_lon": 0.0, "bike_id": "7acd97687cb770f01f15f8230252440a", "lon": -77.01183116666667, "rental_uris": {"ios": "https://dc.lft.to/lastmile_qr_scan", "android": "https://dc.lft.to/lastmile_qr_scan"}}, {"name": "8a7a8ee511c021dc5f52779e373f2b78", "fusion_lat": 0.0, "type": "electric_scooter", "lat": 38.90160216666666, "is_reserved": 0, "is_disabled": 0, "fusion_lon": 0.0, "bike_id": "8a7a8ee511c021dc5f52779e373f2b78", "lon": -77.05403233333334, "rental_uris": {"ios": "https://dc.lft.to/lastmile_qr_scan", "android": "https://dc.lft.to/lastmile_qr_scan"}}, {"name": "e908c0be9de05a0ad4c5d0932156b2c8", "fusion_lat": 0.0, "type": "electric_bike", "lat": 39.06131333333333, "is_reserved": 0, "is_disabled": 0, "fusion_lon": 0.0, "bike_id": "e908c0be9de05a0ad4c5d0932156b2c8", "lon": -77.05066066666667, "rental_uris": {"ios": "https://dc.lft.to/lastmile_qr_scan", "android": "https://dc.lft.to/lastmile_qr_scan"}}, {"name": "65ee7049c185b78f4e4d7349942a5654", "fusion_lat": 0.0, "type": "electric_scooter", "lat": 38.918017, "is_reserved": 0, "is_disabled": 0, "fusion_lon": 0.0, "bike_id": "65ee7049c185b78f4e4d7349942a5654", "lon": -77.034376, "rental_uris": {"ios": "https://dc.lft.to/lastmile_qr_scan", "android": "https://dc.lft.to/lastmile_qr_scan"}}, {"name": "78e1c52b456c37c02d510fa59253c2df", "fusion_lat": 0.0, "type": "electric_scooter", "lat": 38.905414, "is_reserved": 0, "is_disabled": 0, "fusion_lon": 0.0, "bike_id": "78e1c52b456c37c02d510fa59253c2df", "lon": -77.0626665, "rental_uris": {"ios": "https://dc.lft.to/lastmile_qr_scan", "android": "https://dc.lft.to/lastmile_qr_scan"}}, {"name": "bbcb09af886f8c3a6fad97820739f38f", "fusion_lat": 0.0, "type": "electric_scooter", "lat": 38.918115666666665, "is_reserved": 0, "is_disabled": 0, "fusion_lon": 0.0, "bike_id": "bbcb09af886f8c3a6fad97820739f38f", "lon": -77.0102065, "rental_uris": {"ios": "https://dc.lft.to/lastmile_qr_scan", "android": "https://dc.lft.to/lastmile_qr_scan"}}, {"name": "68b50fdf4c0b398ab9c0612acb718ddd", "fusion_lat": 0.0, "type": "electric_scooter", "lat": 38.9390375, "is_reserved": 0, "is_disabled": 0, "fusion_lon": 0.0, "bike_id": "68b50fdf4c0b398ab9c0612acb718ddd", "lon": -77.0604065, "rental_uris": {"ios": "https://dc.lft.to/lastmile_qr_scan", "android": "https://dc.lft.to/lastmile_qr_scan"}}, {"name": "beea9582274d366e6a5cf4ca3369404a", "fusion_lat": 0.0, "type": "electric_scooter", "lat": 38.9371305, "is_reserved": 0, "is_disabled": 0, "fusion_lon": 0.0, "bike_id": "beea9582274d366e6a5cf4ca3369404a", "lon": -77.02465883333333, "rental_uris": {"ios": "https://dc.lft.to/lastmile_qr_scan", "android": "https://dc.lft.to/lastmile_qr_scan"}}, {"name": "8d70f829176cad937c6996996d9c2217", "fusion_lat": 0.0, "type": "electric_scooter", "lat": 38.8838675, "is_reserved": 0, "is_disabled": 0, "fusion_lon": 0.0, "bike_id": "8d70f829176cad937c6996996d9c2217", "lon": -76.98553466666667, "rental_uris": {"ios": "https://dc.lft.to/lastmile_qr_scan", "android": "https://dc.lft.to/lastmile_qr_scan"}}, {"name": "5ad640faabd90116c202874b58dd9b3f", "fusion_lat": 0.0, "type": "electric_bike", "lat": 38.952712166666664, "is_reserved": 0, "is_disabled": 0, "fusion_lon": 0.0, "bike_id": "5ad640faabd90116c202874b58dd9b3f", "lon": -77.06978616666666, "rental_uris": {"ios": "https://dc.lft.to/lastmile_qr_scan", "android": "https://dc.lft.to/lastmile_qr_scan"}}, {"name": "5c927e5be76acc99eea76bf23a7f2adf", "fusion_lat": 0.0, "type": "electric_scooter", "lat": 38.93336216666667, "is_reserved": 0, "is_disabled": 0, "fusion_lon": 0.0, "bike_id": "5c927e5be76acc99eea76bf23a7f2adf", "lon": -77.04370366666667, "rental_uris": {"ios": "https://dc.lft.to/lastmile_qr_scan", "android": "https://dc.lft.to/lastmile_qr_scan"}}, {"name": "025f21378c1499675527bc0fa3bdab32", "fusion_lat": 0.0, "type": "electric_bike", "lat": 38.92878833333333, "is_reserved": 0, "is_disabled": 0, "fusion_lon": 0.0, "bike_id": "025f21378c1499675527bc0fa3bdab32", "lon": -77.04261783333334, "rental_uris": {"ios": "https://dc.lft.to/lastmile_qr_scan", "android": "https://dc.lft.to/lastmile_qr_scan"}}, {"name": "0f0333e9bb17731ae553a1e22d21d069", "fusion_lat": 0.0, "type": "electric_scooter", "lat": 38.892981666666664, "is_reserved": 0, "is_disabled": 0, "fusion_lon": 0.0, "bike_id": "0f0333e9bb17731ae553a1e22d21d069", "lon": -76.93927, "rental_uris": {"ios": "https://dc.lft.to/lastmile_qr_scan", "android": "https://dc.lft.to/lastmile_qr_scan"}}, {"name": "1e7a0a14c89bbac67bf2457f5a123f3d", "fusion_lat": 0.0, "type": "electric_scooter", "lat": 38.918229833333335, "is_reserved": 0, "is_disabled": 0, "fusion_lon": 0.0, "bike_id": "1e7a0a14c89bbac67bf2457f5a123f3d", "lon": -77.04013483333334, "rental_uris": {"ios": "https://dc.lft.to/lastmile_qr_scan", "android": "https://dc.lft.to/lastmile_qr_scan"}}, {"name": "fbe1208b0aca88b432ccadca1796660c", "fusion_lat": 0.0, "type": "electric_scooter", "lat": 38.909079, "is_reserved": 0, "is_disabled": 0, "fusion_lon": 0.0, "bike_id": "fbe1208b0aca88b432ccadca1796660c", "lon": -77.03457133333333, "rental_uris": {"ios": "https://dc.lft.to/lastmile_qr_scan", "android": "https://dc.lft.to/lastmile_qr_scan"}}, {"name": "134268e2b1ae49c599f86042337fe90d", "fusion_lat": 0.0, "type": "electric_scooter", "lat": 38.899044, "is_reserved": 0, "is_disabled": 0, "fusion_lon": 0.0, "bike_id": "134268e2b1ae49c599f86042337fe90d", "lon": -77.0393135, "rental_uris": {"ios": "https://dc.lft.to/lastmile_qr_scan", "android": "https://dc.lft.to/lastmile_qr_scan"}}, {"name": "bb9495175c838b0ab407089139d07ed5", "fusion_lat": 0.0, "type": "electric_scooter", "lat": 38.884101333333334, "is_reserved": 0, "is_disabled": 0, "fusion_lon": 0.0, "bike_id": "bb9495175c838b0ab407089139d07ed5", "lon": -77.0327895, "rental_uris": {"ios": "https://dc.lft.to/lastmile_qr_scan", "android": "https://dc.lft.to/lastmile_qr_scan"}}, {"name": "f702fbb7db0c5e0e373ca111aee3cb73", "fusion_lat": 0.0, "type": "electric_bike", "lat": 38.832398, "is_reserved": 0, "is_disabled": 0, "fusion_lon": 0.0, "bike_id": "f702fbb7db0c5e0e373ca111aee3cb73", "lon": -76.946181, "rental_uris": {"ios": "https://dc.lft.to/lastmile_qr_scan", "android": "https://dc.lft.to/lastmile_qr_scan"}}, {"name": "ec424e66ab5b61625533bed76a3f04f1", "fusion_lat": 0.0, "type": "electric_scooter", "lat": 38.939641, "is_reserved": 0, "is_disabled": 0, "fusion_lon": 0.0, "bike_id": "ec424e66ab5b61625533bed76a3f04f1", "lon": -77.027512, "rental_uris": {"ios": "https://dc.lft.to/lastmile_qr_scan", "android": "https://dc.lft.to/lastmile_qr_scan"}}, {"name": "461817febbc3732c00ce0887d66508aa", "fusion_lat": 0.0, "type": "electric_scooter", "lat": 38.905569666666665, "is_reserved": 0, "is_disabled": 0, "fusion_lon": 0.0, "bike_id": "461817febbc3732c00ce0887d66508aa", "lon": -77.00536883333334, "rental_uris": {"ios": "https://dc.lft.to/lastmile_qr_scan", "android": "https://dc.lft.to/lastmile_qr_scan"}}, {"name": "a3b118d4e8ca258cccc7f27f738d23be", "fusion_lat": 0.0, "type": "electric_bike", "lat": 39.058131333333336, "is_reserved": 0, "is_disabled": 0, "fusion_lon": 0.0, "bike_id": "a3b118d4e8ca258cccc7f27f738d23be", "lon": -77.126266, "rental_uris": {"ios": "https://dc.lft.to/lastmile_qr_scan", "android": "https://dc.lft.to/lastmile_qr_scan"}}, {"name": "eaed5f33d106e7e4d9dc18781dac6b76", "fusion_lat": 0.0, "type": "electric_bike", "lat": 38.953562166666664, "is_reserved": 0, "is_disabled": 0, "fusion_lon": 0.0, "bike_id": "eaed5f33d106e7e4d9dc18781dac6b76", "lon": -76.98097533333333, "rental_uris": {"ios": "https://dc.lft.to/lastmile_qr_scan", "android": "https://dc.lft.to/lastmile_qr_scan"}}, {"name": "b5c27d948c6645319e62c01779cd5f0e", "fusion_lat": 0.0, "type": "electric_scooter", "lat": 38.9180815, "is_reserved": 0, "is_disabled": 0, "fusion_lon": 0.0, "bike_id": "b5c27d948c6645319e62c01779cd5f0e", "lon": -77.04003083333333, "rental_uris": {"ios": "https://dc.lft.to/lastmile_qr_scan", "android": "https://dc.lft.to/lastmile_qr_scan"}}, {"name": "d75b75c699d23ce2b84e76c2b9ceb4b8", "fusion_lat": 0.0, "type": "electric_bike", "lat": 38.84613366666667, "is_reserved": 0, "is_disabled": 0, "fusion_lon": 0.0, "bike_id": "d75b75c699d23ce2b84e76c2b9ceb4b8", "lon": -76.97826916666666, "rental_uris": {"ios": "https://dc.lft.to/lastmile_qr_scan", "android": "https://dc.lft.to/lastmile_qr_scan"}}, {"name": "e894b2bb0df359999c0ceb0791ad6e28", "fusion_lat": 0.0, "type": "electric_scooter", "lat": 38.92856066666667, "is_reserved": 0, "is_disabled": 0, "fusion_lon": 0.0, "bike_id": "e894b2bb0df359999c0ceb0791ad6e28", "lon": -77.01406533333333, "rental_uris": {"ios": "https://dc.lft.to/lastmile_qr_scan", "android": "https://dc.lft.to/lastmile_qr_scan"}}, {"name": "1b10a8b2d193b58ea28a9352a85bb223", "fusion_lat": 0.0, "type": "electric_scooter", "lat": 38.887313, "is_reserved": 0, "is_disabled": 0, "fusion_lon": 0.0, "bike_id": "1b10a8b2d193b58ea28a9352a85bb223", "lon": -77.01763783333334, "rental_uris": {"ios": "https://dc.lft.to/lastmile_qr_scan", "android": "https://dc.lft.to/lastmile_qr_scan"}}, {"name": "9847abf4e3f6c05b7e13fe935aa26527", "fusion_lat": 0.0, "type": "electric_scooter", "lat": 38.9013895, "is_reserved": 0, "is_disabled": 0, "fusion_lon": 0.0, "bike_id": "9847abf4e3f6c05b7e13fe935aa26527", "lon": -77.01797816666667, "rental_uris": {"ios": "https://dc.lft.to/lastmile_qr_scan", "android": "https://dc.lft.to/lastmile_qr_scan"}}, {"name": "c4673fdd0c00cfd594c3c7ab3121af15", "fusion_lat": 0.0, "type": "electric_bike", "lat": 39.08903266666667, "is_reserved": 0, "is_disabled": 0, "fusion_lon": 0.0, "bike_id": "c4673fdd0c00cfd594c3c7ab3121af15", "lon": -77.17847216666667, "rental_uris": {"ios": "https://dc.lft.to/lastmile_qr_scan", "android": "https://dc.lft.to/lastmile_qr_scan"}}, {"name": "9373e4cd78597c47214886827f0bbeac", "fusion_lat": 0.0, "type": "electric_scooter", "lat": 38.910430833333336, "is_reserved": 0, "is_disabled": 0, "fusion_lon": 0.0, "bike_id": "9373e4cd78597c47214886827f0bbeac", "lon": -77.04344016666667, "rental_uris": {"ios": "https://dc.lft.to/lastmile_qr_scan", "android": "https://dc.lft.to/lastmile_qr_scan"}}, {"name": "3dd88ff6b1c190a2eaf568517bbefca8", "fusion_lat": 0.0, "type": "electric_bike", "lat": 38.917656, "is_reserved": 0, "is_disabled": 0, "fusion_lon": 0.0, "bike_id": "3dd88ff6b1c190a2eaf568517bbefca8", "lon": -76.97335416666667, "rental_uris": {"ios": "https://dc.lft.to/lastmile_qr_scan", "android": "https://dc.lft.to/lastmile_qr_scan"}}, {"name": "54e6687d8bf4d8836b26b1e2c57a21c9", "fusion_lat": 0.0, "type": "electric_scooter", "lat": 38.90296983333333, "is_reserved": 0, "is_disabled": 0, "fusion_lon": 0.0, "bike_id": "54e6687d8bf4d8836b26b1e2c57a21c9", "lon": -77.05811633333333, "rental_uris": {"ios": "https://dc.lft.to/lastmile_qr_scan", "android": "https://dc.lft.to/lastmile_qr_scan"}}, {"name": "536fe0aaa436d0639a209b0156ae52ca", "fusion_lat": 0.0, "type": "electric_scooter", "lat": 38.842939666666666, "is_reserved": 0, "is_disabled": 0, "fusion_lon": 0.0, "bike_id": "536fe0aaa436d0639a209b0156ae52ca", "lon": -76.9994955, "rental_uris": {"ios": "https://dc.lft.to/lastmile_qr_scan", "android": "https://dc.lft.to/lastmile_qr_scan"}}, {"name": "e67ffb0e00483ce6b95d1025c202526f", "fusion_lat": 0.0, "type": "electric_scooter", "lat": 38.88431816666667, "is_reserved": 0, "is_disabled": 0, "fusion_lon": 0.0, "bike_id": "e67ffb0e00483ce6b95d1025c202526f", "lon": -77.03040916666667, "rental_uris": {"ios": "https://dc.lft.to/lastmile_qr_scan", "android": "https://dc.lft.to/lastmile_qr_scan"}}, {"name": "41cdab41552efac476e486cacbd1e399", "fusion_lat": 0.0, "type": "electric_scooter", "lat": 38.94026183333333, "is_reserved": 0, "is_disabled": 0, "fusion_lon": 0.0, "bike_id": "41cdab41552efac476e486cacbd1e399", "lon": -77.06897083333334, "rental_uris": {"ios": "https://dc.lft.to/lastmile_qr_scan", "android": "https://dc.lft.to/lastmile_qr_scan"}}, {"name": "4415f5aedf8add7dae1aaad01391ca41", "fusion_lat": 0.0, "type": "electric_scooter", "lat": 38.918081666666666, "is_reserved": 0, "is_disabled": 0, "fusion_lon": 0.0, "bike_id": "4415f5aedf8add7dae1aaad01391ca41", "lon": -77.034416, "rental_uris": {"ios": "https://dc.lft.to/lastmile_qr_scan", "android": "https://dc.lft.to/lastmile_qr_scan"}}, {"name": "b0cb07504dbb52df9d880611a4c1fd73", "fusion_lat": 0.0, "type": "electric_scooter", "lat": 38.906382, "is_reserved": 0, "is_disabled": 0, "fusion_lon": 0.0, "bike_id": "b0cb07504dbb52df9d880611a4c1fd73", "lon": -76.985698, "rental_uris": {"ios": "https://dc.lft.to/lastmile_qr_scan", "android": "https://dc.lft.to/lastmile_qr_scan"}}, {"name": "3d3738dba12348eaed15564f0ff27c7c", "fusion_lat": 0.0, "type": "electric_scooter", "lat": 38.9231165, "is_reserved": 0, "is_disabled": 0, "fusion_lon": 0.0, "bike_id": "3d3738dba12348eaed15564f0ff27c7c", "lon": -77.0298085, "rental_uris": {"ios": "https://dc.lft.to/lastmile_qr_scan", "android": "https://dc.lft.to/lastmile_qr_scan"}}, {"name": "be3a885f71d1cd76cdb2698100f51646", "fusion_lat": 0.0, "type": "electric_scooter", "lat": 38.922059833333336, "is_reserved": 0, "is_disabled": 0, "fusion_lon": 0.0, "bike_id": "be3a885f71d1cd76cdb2698100f51646", "lon": -77.04127266666667, "rental_uris": {"ios": "https://dc.lft.to/lastmile_qr_scan", "android": "https://dc.lft.to/lastmile_qr_scan"}}, {"name": "f0f21836ed343455dccd233d17e42b02", "fusion_lat": 0.0, "type": "electric_scooter", "lat": 38.92895083333333, "is_reserved": 0, "is_disabled": 0, "fusion_lon": 0.0, "bike_id": "f0f21836ed343455dccd233d17e42b02", "lon": -77.032702, "rental_uris": {"ios": "https://dc.lft.to/lastmile_qr_scan", "android": "https://dc.lft.to/lastmile_qr_scan"}}, {"name": "0f077de03a10a38d0ac1fbcd2ba40101", "fusion_lat": 0.0, "type": "electric_bike", "lat": 38.824479333333336, "is_reserved": 0, "is_disabled": 0, "fusion_lon": 0.0, "bike_id": "0f077de03a10a38d0ac1fbcd2ba40101", "lon": -77.07047883333334, "rental_uris": {"ios": "https://dc.lft.to/lastmile_qr_scan", "android": "https://dc.lft.to/lastmile_qr_scan"}}, {"name": "92a37d92e939d55fd6a88cb059ffb507", "fusion_lat": 0.0, "type": "electric_scooter", "lat": 38.8791555, "is_reserved": 0, "is_disabled": 0, "fusion_lon": 0.0, "bike_id": "92a37d92e939d55fd6a88cb059ffb507", "lon": -77.02239016666667, "rental_uris": {"ios": "https://dc.lft.to/lastmile_qr_scan", "android": "https://dc.lft.to/lastmile_qr_scan"}}, {"name": "b9840ef6d2f5ad0df8c9c87fb5cfd982", "fusion_lat": 0.0, "type": "electric_scooter", "lat": 38.933898, "is_reserved": 0, "is_disabled": 0, "fusion_lon": 0.0, "bike_id": "b9840ef6d2f5ad0df8c9c87fb5cfd982", "lon": -77.0737845, "rental_uris": {"ios": "https://dc.lft.to/lastmile_qr_scan", "android": "https://dc.lft.to/lastmile_qr_scan"}}, {"name": "c2809b6bf4163d48d6ef69d2b48fb508", "fusion_lat": 0.0, "type": "electric_scooter", "lat": 38.86266966666667, "is_reserved": 0, "is_disabled": 0, "fusion_lon": 0.0, "bike_id": "c2809b6bf4163d48d6ef69d2b48fb508", "lon": -76.98715466666667, "rental_uris": {"ios": "https://dc.lft.to/lastmile_qr_scan", "android": "https://dc.lft.to/lastmile_qr_scan"}}, {"name": "5ee408d06b263bf49fb2156543429c78", "fusion_lat": 0.0, "type": "electric_scooter", "lat": 38.916824, "is_reserved": 0, "is_disabled": 0, "fusion_lon": 0.0, "bike_id": "5ee408d06b263bf49fb2156543429c78", "lon": -77.0289965, "rental_uris": {"ios": "https://dc.lft.to/lastmile_qr_scan", "android": "https://dc.lft.to/lastmile_qr_scan"}}, {"name": "9010737cbcbdb5bd7ff773f2a8ae2eae", "fusion_lat": 0.0, "type": "electric_bike", "lat": 38.844306, "is_reserved": 0, "is_disabled": 0, "fusion_lon": 0.0, "bike_id": "9010737cbcbdb5bd7ff773f2a8ae2eae", "lon": -77.11262733333334, "rental_uris": {"ios": "https://dc.lft.to/lastmile_qr_scan", "android": "https://dc.lft.to/lastmile_qr_scan"}}, {"name": "0fdb4f0c36ecfadcafcaf520510bc8fc", "fusion_lat": 0.0, "type": "electric_scooter", "lat": 38.89486616666667, "is_reserved": 0, "is_disabled": 0, "fusion_lon": 0.0, "bike_id": "0fdb4f0c36ecfadcafcaf520510bc8fc", "lon": -77.01016966666667, "rental_uris": {"ios": "https://dc.lft.to/lastmile_qr_scan", "android": "https://dc.lft.to/lastmile_qr_scan"}}, {"name": "87e42327a76032da2fd25125a5094a77", "fusion_lat": 0.0, "type": "electric_bike", "lat": 38.886177, "is_reserved": 0, "is_disabled": 0, "fusion_lon": 0.0, "bike_id": "87e42327a76032da2fd25125a5094a77", "lon": -77.10753116666666, "rental_uris": {"ios": "https://dc.lft.to/lastmile_qr_scan", "android": "https://dc.lft.to/lastmile_qr_scan"}}, {"name": "16983f68c5d5d3b899e334ef7a115c03", "fusion_lat": 0.0, "type": "electric_bike", "lat": 39.05348266666667, "is_reserved": 0, "is_disabled": 0, "fusion_lon": 0.0, "bike_id": "16983f68c5d5d3b899e334ef7a115c03", "lon": -77.13597066666667, "rental_uris": {"ios": "https://dc.lft.to/lastmile_qr_scan", "android": "https://dc.lft.to/lastmile_qr_scan"}}, {"name": "46b94ad20e8179990be35b925d48faf7", "fusion_lat": 0.0, "type": "electric_scooter", "lat": 38.904412666666666, "is_reserved": 0, "is_disabled": 0, "fusion_lon": 0.0, "bike_id": "46b94ad20e8179990be35b925d48faf7", "lon": -77.03125316666667, "rental_uris": {"ios": "https://dc.lft.to/lastmile_qr_scan", "android": "https://dc.lft.to/lastmile_qr_scan"}}, {"name": "4abc3d2e801fcd1f9d573a4c1c3abb39", "fusion_lat": 0.0, "type": "electric_scooter", "lat": 38.90848533333333, "is_reserved": 0, "is_disabled": 0, "fusion_lon": 0.0, "bike_id": "4abc3d2e801fcd1f9d573a4c1c3abb39", "lon": -77.02596216666667, "rental_uris": {"ios": "https://dc.lft.to/lastmile_qr_scan", "android": "https://dc.lft.to/lastmile_qr_scan"}}, {"name": "7188db60f6dd5eea738fbc95c6e94750", "fusion_lat": 0.0, "type": "electric_scooter", "lat": 38.90009116666667, "is_reserved": 0, "is_disabled": 0, "fusion_lon": 0.0, "bike_id": "7188db60f6dd5eea738fbc95c6e94750", "lon": -77.0234, "rental_uris": {"ios": "https://dc.lft.to/lastmile_qr_scan", "android": "https://dc.lft.to/lastmile_qr_scan"}}, {"name": "eb27536f3cf9e013ce4c04b50ce19c6a", "fusion_lat": 0.0, "type": "electric_scooter", "lat": 38.9118755, "is_reserved": 0, "is_disabled": 0, "fusion_lon": 0.0, "bike_id": "eb27536f3cf9e013ce4c04b50ce19c6a", "lon": -77.06088266666667, "rental_uris": {"ios": "https://dc.lft.to/lastmile_qr_scan", "android": "https://dc.lft.to/lastmile_qr_scan"}}, {"name": "fb70b75e3d9cc840749e6b7e7759022f", "fusion_lat": 0.0, "type": "electric_scooter", "lat": 38.912162, "is_reserved": 0, "is_disabled": 0, "fusion_lon": 0.0, "bike_id": "fb70b75e3d9cc840749e6b7e7759022f", "lon": -77.07589716666666, "rental_uris": {"ios": "https://dc.lft.to/lastmile_qr_scan", "android": "https://dc.lft.to/lastmile_qr_scan"}}, {"name": "94555e5f7a9b775bb8475d8dc144d33c", "fusion_lat": 0.0, "type": "electric_scooter", "lat": 38.889908166666665, "is_reserved": 0, "is_disabled": 0, "fusion_lon": 0.0, "bike_id": "94555e5f7a9b775bb8475d8dc144d33c", "lon": -76.95414116666667, "rental_uris": {"ios": "https://dc.lft.to/lastmile_qr_scan", "android": "https://dc.lft.to/lastmile_qr_scan"}}, {"name": "2a63b2766f8461d413f08fde99e864fb", "fusion_lat": 0.0, "type": "electric_scooter", "lat": 38.90506166666667, "is_reserved": 0, "is_disabled": 0, "fusion_lon": 0.0, "bike_id": "2a63b2766f8461d413f08fde99e864fb", "lon": -77.05116966666667, "rental_uris": {"ios": "https://dc.lft.to/lastmile_qr_scan", "android": "https://dc.lft.to/lastmile_qr_scan"}}, {"name": "49ec39ad54ac456d05c72d76148ddee6", "fusion_lat": 0.0, "type": "electric_bike", "lat": 38.9069375, "is_reserved": 0, "is_disabled": 0, "fusion_lon": 0.0, "bike_id": "49ec39ad54ac456d05c72d76148ddee6", "lon": -77.03588816666667, "rental_uris": {"ios": "https://dc.lft.to/lastmile_qr_scan", "android": "https://dc.lft.to/lastmile_qr_scan"}}, {"name": "8195fceaaa03ba0855799edc4fd6b11a", "fusion_lat": 0.0, "type": "electric_bike", "lat": 38.93412766666667, "is_reserved": 0, "is_disabled": 0, "fusion_lon": 0.0, "bike_id": "8195fceaaa03ba0855799edc4fd6b11a", "lon": -77.025082, "rental_uris": {"ios": "https://dc.lft.to/lastmile_qr_scan", "android": "https://dc.lft.to/lastmile_qr_scan"}}, {"name": "3ec796d307bdd3e89dfa9468ddb92ed6", "fusion_lat": 0.0, "type": "electric_scooter", "lat": 38.899104, "is_reserved": 0, "is_disabled": 0, "fusion_lon": 0.0, "bike_id": "3ec796d307bdd3e89dfa9468ddb92ed6", "lon": -77.0709665, "rental_uris": {"ios": "https://dc.lft.to/lastmile_qr_scan", "android": "https://dc.lft.to/lastmile_qr_scan"}}, {"name": "85d558c4136aa18f4ca5bdf64036dc33", "fusion_lat": 0.0, "type": "electric_scooter", "lat": 38.894825166666664, "is_reserved": 0, "is_disabled": 0, "fusion_lon": 0.0, "bike_id": "85d558c4136aa18f4ca5bdf64036dc33", "lon": -76.948726, "rental_uris": {"ios": "https://dc.lft.to/lastmile_qr_scan", "android": "https://dc.lft.to/lastmile_qr_scan"}}, {"name": "1e17bfb20010f11e8831c220cd415b3f", "fusion_lat": 0.0, "type": "electric_bike", "lat": 38.85547233333333, "is_reserved": 0, "is_disabled": 0, "fusion_lon": 0.0, "bike_id": "1e17bfb20010f11e8831c220cd415b3f", "lon": -77.10715633333334, "rental_uris": {"ios": "https://dc.lft.to/lastmile_qr_scan", "android": "https://dc.lft.to/lastmile_qr_scan"}}, {"name": "babed8e39141f80d8466b31d0217f512", "fusion_lat": 0.0, "type": "electric_scooter", "lat": 38.90245483333333, "is_reserved": 0, "is_disabled": 0, "fusion_lon": 0.0, "bike_id": "babed8e39141f80d8466b31d0217f512", "lon": -77.0437245, "rental_uris": {"ios": "https://dc.lft.to/lastmile_qr_scan", "android": "https://dc.lft.to/lastmile_qr_scan"}}, {"name": "3a445c496a56fc35e0b1e0fc2255a7f8", "fusion_lat": 0.0, "type": "electric_bike", "lat": 38.85628066666666, "is_reserved": 0, "is_disabled": 0, "fusion_lon": 0.0, "bike_id": "3a445c496a56fc35e0b1e0fc2255a7f8", "lon": -77.1129075, "rental_uris": {"ios": "https://dc.lft.to/lastmile_qr_scan", "android": "https://dc.lft.to/lastmile_qr_scan"}}, {"name": "531998077f9492bf19e607f0e45fbf70", "fusion_lat": 0.0, "type": "electric_scooter", "lat": 38.916938, "is_reserved": 0, "is_disabled": 0, "fusion_lon": 0.0, "bike_id": "531998077f9492bf19e607f0e45fbf70", "lon": -77.03505216666667, "rental_uris": {"ios": "https://dc.lft.to/lastmile_qr_scan", "android": "https://dc.lft.to/lastmile_qr_scan"}}, {"name": "80d1496b7063b02615bf8f03a62300ee", "fusion_lat": 0.0, "type": "electric_scooter", "lat": 38.898846166666665, "is_reserved": 0, "is_disabled": 0, "fusion_lon": 0.0, "bike_id": "80d1496b7063b02615bf8f03a62300ee", "lon": -76.93178416666666, "rental_uris": {"ios": "https://dc.lft.to/lastmile_qr_scan", "android": "https://dc.lft.to/lastmile_qr_scan"}}, {"name": "62fb72fbe8bbe40ce0d3a0f28c9da42e", "fusion_lat": 0.0, "type": "electric_scooter", "lat": 38.85810266666667, "is_reserved": 0, "is_disabled": 0, "fusion_lon": 0.0, "bike_id": "62fb72fbe8bbe40ce0d3a0f28c9da42e", "lon": -76.98651866666667, "rental_uris": {"ios": "https://dc.lft.to/lastmile_qr_scan", "android": "https://dc.lft.to/lastmile_qr_scan"}}, {"name": "a72c0faab8be62254c90916cd0635ec8", "fusion_lat": 0.0, "type": "electric_scooter", "lat": 38.899432833333336, "is_reserved": 0, "is_disabled": 0, "fusion_lon": 0.0, "bike_id": "a72c0faab8be62254c90916cd0635ec8", "lon": -77.02835016666667, "rental_uris": {"ios": "https://dc.lft.to/lastmile_qr_scan", "android": "https://dc.lft.to/lastmile_qr_scan"}}, {"name": "54e50e33b47d78048f4a139acfe59c47", "fusion_lat": 0.0, "type": "electric_scooter", "lat": 38.901390166666665, "is_reserved": 0, "is_disabled": 0, "fusion_lon": 0.0, "bike_id": "54e50e33b47d78048f4a139acfe59c47", "lon": -76.99118816666666, "rental_uris": {"ios": "https://dc.lft.to/lastmile_qr_scan", "android": "https://dc.lft.to/lastmile_qr_scan"}}, {"name": "2ff13a761d8cde47f4151415a49c79b4", "fusion_lat": 0.0, "type": "electric_scooter", "lat": 38.91255866666667, "is_reserved": 0, "is_disabled": 0, "fusion_lon": 0.0, "bike_id": "2ff13a761d8cde47f4151415a49c79b4", "lon": -77.009301, "rental_uris": {"ios": "https://dc.lft.to/lastmile_qr_scan", "android": "https://dc.lft.to/lastmile_qr_scan"}}, {"name": "c65f645009514804340f77e9fc892fa7", "fusion_lat": 0.0, "type": "electric_scooter", "lat": 38.920913166666665, "is_reserved": 0, "is_disabled": 0, "fusion_lon": 0.0, "bike_id": "c65f645009514804340f77e9fc892fa7", "lon": -77.04198016666666, "rental_uris": {"ios": "https://dc.lft.to/lastmile_qr_scan", "android": "https://dc.lft.to/lastmile_qr_scan"}}, {"name": "2845f626603f9fe93646b357fa5c9179", "fusion_lat": 0.0, "type": "electric_scooter", "lat": 38.91317766666667, "is_reserved": 0, "is_disabled": 0, "fusion_lon": 0.0, "bike_id": "2845f626603f9fe93646b357fa5c9179", "lon": -77.02178166666667, "rental_uris": {"ios": "https://dc.lft.to/lastmile_qr_scan", "android": "https://dc.lft.to/lastmile_qr_scan"}}, {"name": "4dd44e6fc1ea7883bda7abe1cf3c527d", "fusion_lat": 0.0, "type": "electric_scooter", "lat": 38.9390055, "is_reserved": 0, "is_disabled": 0, "fusion_lon": 0.0, "bike_id": "4dd44e6fc1ea7883bda7abe1cf3c527d", "lon": -77.024909, "rental_uris": {"ios": "https://dc.lft.to/lastmile_qr_scan", "android": "https://dc.lft.to/lastmile_qr_scan"}}, {"name": "678fab2e836fabc951d6023211fe606c", "fusion_lat": 0.0, "type": "electric_bike", "lat": 38.91550816666667, "is_reserved": 0, "is_disabled": 0, "fusion_lon": 0.0, "bike_id": "678fab2e836fabc951d6023211fe606c", "lon": -77.06765216666666, "rental_uris": {"ios": "https://dc.lft.to/lastmile_qr_scan", "android": "https://dc.lft.to/lastmile_qr_scan"}}, {"name": "0f0b58649e11bc76f1e0d4149fbc7a3c", "fusion_lat": 0.0, "type": "electric_scooter", "lat": 38.9125285, "is_reserved": 0, "is_disabled": 0, "fusion_lon": 0.0, "bike_id": "0f0b58649e11bc76f1e0d4149fbc7a3c", "lon": -77.03213683333334, "rental_uris": {"ios": "https://dc.lft.to/lastmile_qr_scan", "android": "https://dc.lft.to/lastmile_qr_scan"}}, {"name": "034eb7f6321b9dca6a49952e551a07a6", "fusion_lat": 0.0, "type": "electric_bike", "lat": 38.97097633333333, "is_reserved": 0, "is_disabled": 0, "fusion_lon": 0.0, "bike_id": "034eb7f6321b9dca6a49952e551a07a6", "lon": -77.069671, "rental_uris": {"ios": "https://dc.lft.to/lastmile_qr_scan", "android": "https://dc.lft.to/lastmile_qr_scan"}}, {"name": "699c97a90af148d80d997b9157e493c7", "fusion_lat": 0.0, "type": "electric_scooter", "lat": 38.88824666666667, "is_reserved": 0, "is_disabled": 0, "fusion_lon": 0.0, "bike_id": "699c97a90af148d80d997b9157e493c7", "lon": -77.04935, "rental_uris": {"ios": "https://dc.lft.to/lastmile_qr_scan", "android": "https://dc.lft.to/lastmile_qr_scan"}}, {"name": "1df0d14c5d48faf6dc8a86c005096bad", "fusion_lat": 0.0, "type": "electric_bike", "lat": 38.863790333333334, "is_reserved": 0, "is_disabled": 0, "fusion_lon": 0.0, "bike_id": "1df0d14c5d48faf6dc8a86c005096bad", "lon": -77.128997, "rental_uris": {"ios": "https://dc.lft.to/lastmile_qr_scan", "android": "https://dc.lft.to/lastmile_qr_scan"}}, {"name": "d27f5a1587269ba729ddefbc26a6b349", "fusion_lat": 0.0, "type": "electric_bike", "lat": 38.92708583333334, "is_reserved": 0, "is_disabled": 0, "fusion_lon": 0.0, "bike_id": "d27f5a1587269ba729ddefbc26a6b349", "lon": -77.02287333333334, "rental_uris": {"ios": "https://dc.lft.to/lastmile_qr_scan", "android": "https://dc.lft.to/lastmile_qr_scan"}}, {"name": "ab541a1049085b78cc0f337a8cea0ddd", "fusion_lat": 0.0, "type": "electric_scooter", "lat": 38.900293166666664, "is_reserved": 0, "is_disabled": 0, "fusion_lon": 0.0, "bike_id": "ab541a1049085b78cc0f337a8cea0ddd", "lon": -76.9895755, "rental_uris": {"ios": "https://dc.lft.to/lastmile_qr_scan", "android": "https://dc.lft.to/lastmile_qr_scan"}}, {"name": "12f1a33a2746fbb474f37bb30683986e", "fusion_lat": 0.0, "type": "electric_scooter", "lat": 38.920381166666665, "is_reserved": 0, "is_disabled": 0, "fusion_lon": 0.0, "bike_id": "12f1a33a2746fbb474f37bb30683986e", "lon": -77.03135416666667, "rental_uris": {"ios": "https://dc.lft.to/lastmile_qr_scan", "android": "https://dc.lft.to/lastmile_qr_scan"}}, {"name": "74141f4a59de4eac7253bd2b6c245423", "fusion_lat": 0.0, "type": "electric_scooter", "lat": 38.923903833333334, "is_reserved": 0, "is_disabled": 0, "fusion_lon": 0.0, "bike_id": "74141f4a59de4eac7253bd2b6c245423", "lon": -77.04091516666666, "rental_uris": {"ios": "https://dc.lft.to/lastmile_qr_scan", "android": "https://dc.lft.to/lastmile_qr_scan"}}, {"name": "252e29ae9d2d2e4890ceadbc891e7f2a", "fusion_lat": 0.0, "type": "electric_scooter", "lat": 38.892488666666665, "is_reserved": 0, "is_disabled": 0, "fusion_lon": 0.0, "bike_id": "252e29ae9d2d2e4890ceadbc891e7f2a", "lon": -77.01507733333334, "rental_uris": {"ios": "https://dc.lft.to/lastmile_qr_scan", "android": "https://dc.lft.to/lastmile_qr_scan"}}, {"name": "c69cb7bb9f8bd74709aab8ad88cd788e", "fusion_lat": 0.0, "type": "electric_scooter", "lat": 38.89595333333333, "is_reserved": 0, "is_disabled": 0, "fusion_lon": 0.0, "bike_id": "c69cb7bb9f8bd74709aab8ad88cd788e", "lon": -77.04682166666667, "rental_uris": {"ios": "https://dc.lft.to/lastmile_qr_scan", "android": "https://dc.lft.to/lastmile_qr_scan"}}, {"name": "36a96d123312fca22f5b83653984edfc", "fusion_lat": 0.0, "type": "electric_scooter", "lat": 38.90254766666666, "is_reserved": 0, "is_disabled": 0, "fusion_lon": 0.0, "bike_id": "36a96d123312fca22f5b83653984edfc", "lon": -77.04611033333333, "rental_uris": {"ios": "https://dc.lft.to/lastmile_qr_scan", "android": "https://dc.lft.to/lastmile_qr_scan"}}, {"name": "22dee2c3d756ff407fba09a74ceb9252", "fusion_lat": 0.0, "type": "electric_scooter", "lat": 38.925340166666665, "is_reserved": 0, "is_disabled": 0, "fusion_lon": 0.0, "bike_id": "22dee2c3d756ff407fba09a74ceb9252", "lon": -77.0321995, "rental_uris": {"ios": "https://dc.lft.to/lastmile_qr_scan", "android": "https://dc.lft.to/lastmile_qr_scan"}}, {"name": "d8f03b178c9cdd9ad4ca3a7253896b37", "fusion_lat": 0.0, "type": "electric_scooter", "lat": 38.89656016666667, "is_reserved": 0, "is_disabled": 0, "fusion_lon": 0.0, "bike_id": "d8f03b178c9cdd9ad4ca3a7253896b37", "lon": -77.05032733333333, "rental_uris": {"ios": "https://dc.lft.to/lastmile_qr_scan", "android": "https://dc.lft.to/lastmile_qr_scan"}}, {"name": "af17cafd8e6f61653fe15af6de2b82da", "fusion_lat": 0.0, "type": "electric_scooter", "lat": 38.90758966666667, "is_reserved": 0, "is_disabled": 0, "fusion_lon": 0.0, "bike_id": "af17cafd8e6f61653fe15af6de2b82da", "lon": -77.03583533333334, "rental_uris": {"ios": "https://dc.lft.to/lastmile_qr_scan", "android": "https://dc.lft.to/lastmile_qr_scan"}}, {"name": "eb71bc8bfa0f82d5faa7d8931beb1afc", "fusion_lat": 0.0, "type": "electric_scooter", "lat": 38.872456, "is_reserved": 0, "is_disabled": 0, "fusion_lon": 0.0, "bike_id": "eb71bc8bfa0f82d5faa7d8931beb1afc", "lon": -76.977236, "rental_uris": {"ios": "https://dc.lft.to/lastmile_qr_scan", "android": "https://dc.lft.to/lastmile_qr_scan"}}, {"name": "980d827c475e16cced468d35b22b1476", "fusion_lat": 0.0, "type": "electric_scooter", "lat": 38.921445, "is_reserved": 0, "is_disabled": 0, "fusion_lon": 0.0, "bike_id": "980d827c475e16cced468d35b22b1476", "lon": -77.03515066666667, "rental_uris": {"ios": "https://dc.lft.to/lastmile_qr_scan", "android": "https://dc.lft.to/lastmile_qr_scan"}}, {"name": "a61dc6a73cb7b192e94ae27475a16b33", "fusion_lat": 0.0, "type": "electric_scooter", "lat": 38.98497066666667, "is_reserved": 0, "is_disabled": 0, "fusion_lon": 0.0, "bike_id": "a61dc6a73cb7b192e94ae27475a16b33", "lon": -77.026457, "rental_uris": {"ios": "https://dc.lft.to/lastmile_qr_scan", "android": "https://dc.lft.to/lastmile_qr_scan"}}, {"name": "ad01c035c6f5ccb2259b4c7257397c2a", "fusion_lat": 0.0, "type": "electric_bike", "lat": 38.85064916666666, "is_reserved": 0, "is_disabled": 0, "fusion_lon": 0.0, "bike_id": "ad01c035c6f5ccb2259b4c7257397c2a", "lon": -76.973301, "rental_uris": {"ios": "https://dc.lft.to/lastmile_qr_scan", "android": "https://dc.lft.to/lastmile_qr_scan"}}, {"name": "ed636382cb1a13ae011a9e46065eacd8", "fusion_lat": 0.0, "type": "electric_scooter", "lat": 38.93687966666667, "is_reserved": 0, "is_disabled": 0, "fusion_lon": 0.0, "bike_id": "ed636382cb1a13ae011a9e46065eacd8", "lon": -77.03285233333334, "rental_uris": {"ios": "https://dc.lft.to/lastmile_qr_scan", "android": "https://dc.lft.to/lastmile_qr_scan"}}, {"name": "d5dda234e77641dfd1ee59bc81c325a3", "fusion_lat": 0.0, "type": "electric_scooter", "lat": 38.9617655, "is_reserved": 0, "is_disabled": 0, "fusion_lon": 0.0, "bike_id": "d5dda234e77641dfd1ee59bc81c325a3", "lon": -77.0323295, "rental_uris": {"ios": "https://dc.lft.to/lastmile_qr_scan", "android": "https://dc.lft.to/lastmile_qr_scan"}}, {"name": "8e78a98307f77c69373dceb389d98afe", "fusion_lat": 0.0, "type": "electric_scooter", "lat": 38.90960333333334, "is_reserved": 0, "is_disabled": 0, "fusion_lon": 0.0, "bike_id": "8e78a98307f77c69373dceb389d98afe", "lon": -77.03164933333333, "rental_uris": {"ios": "https://dc.lft.to/lastmile_qr_scan", "android": "https://dc.lft.to/lastmile_qr_scan"}}, {"name": "8fafb0b2d8a1d2f2ad0a1dbb20574820", "fusion_lat": 0.0, "type": "electric_scooter", "lat": 38.895800666666666, "is_reserved": 0, "is_disabled": 0, "fusion_lon": 0.0, "bike_id": "8fafb0b2d8a1d2f2ad0a1dbb20574820", "lon": -76.98183033333333, "rental_uris": {"ios": "https://dc.lft.to/lastmile_qr_scan", "android": "https://dc.lft.to/lastmile_qr_scan"}}, {"name": "dc09c21e47bfd22f015b59cafd744066", "fusion_lat": 0.0, "type": "electric_scooter", "lat": 38.89231983333333, "is_reserved": 0, "is_disabled": 0, "fusion_lon": 0.0, "bike_id": "dc09c21e47bfd22f015b59cafd744066", "lon": -77.050011, "rental_uris": {"ios": "https://dc.lft.to/lastmile_qr_scan", "android": "https://dc.lft.to/lastmile_qr_scan"}}, {"name": "3c61cb0514da2e7a0919efbfdbb2faee", "fusion_lat": 0.0, "type": "electric_scooter", "lat": 38.9176145, "is_reserved": 0, "is_disabled": 0, "fusion_lon": 0.0, "bike_id": "3c61cb0514da2e7a0919efbfdbb2faee", "lon": -77.031867, "rental_uris": {"ios": "https://dc.lft.to/lastmile_qr_scan", "android": "https://dc.lft.to/lastmile_qr_scan"}}, {"name": "3129b4e87b4bcf8d756eb2c309435a1e", "fusion_lat": 0.0, "type": "electric_bike", "lat": 38.85420116666667, "is_reserved": 0, "is_disabled": 0, "fusion_lon": 0.0, "bike_id": "3129b4e87b4bcf8d756eb2c309435a1e", "lon": -76.90958033333334, "rental_uris": {"ios": "https://dc.lft.to/lastmile_qr_scan", "android": "https://dc.lft.to/lastmile_qr_scan"}}, {"name": "f6dfaa187efa89fa1ae38605e462ef90", "fusion_lat": 0.0, "type": "electric_scooter", "lat": 38.9125365, "is_reserved": 0, "is_disabled": 0, "fusion_lon": 0.0, "bike_id": "f6dfaa187efa89fa1ae38605e462ef90", "lon": -77.00774833333334, "rental_uris": {"ios": "https://dc.lft.to/lastmile_qr_scan", "android": "https://dc.lft.to/lastmile_qr_scan"}}, {"name": "e3440cea432d9fcfff04b4e747eead15", "fusion_lat": 0.0, "type": "electric_scooter", "lat": 38.900739, "is_reserved": 0, "is_disabled": 0, "fusion_lon": 0.0, "bike_id": "e3440cea432d9fcfff04b4e747eead15", "lon": -77.05194283333333, "rental_uris": {"ios": "https://dc.lft.to/lastmile_qr_scan", "android": "https://dc.lft.to/lastmile_qr_scan"}}, {"name": "3ace29d937fd25b3c4d00736f2d317e7", "fusion_lat": 0.0, "type": "electric_scooter", "lat": 38.92124333333334, "is_reserved": 0, "is_disabled": 0, "fusion_lon": 0.0, "bike_id": "3ace29d937fd25b3c4d00736f2d317e7", "lon": -77.01305766666667, "rental_uris": {"ios": "https://dc.lft.to/lastmile_qr_scan", "android": "https://dc.lft.to/lastmile_qr_scan"}}, {"name": "ce612eb920e522e973385b6c8b16a41a", "fusion_lat": 0.0, "type": "electric_scooter", "lat": 38.93934216666667, "is_reserved": 0, "is_disabled": 0, "fusion_lon": 0.0, "bike_id": "ce612eb920e522e973385b6c8b16a41a", "lon": -77.03670866666667, "rental_uris": {"ios": "https://dc.lft.to/lastmile_qr_scan", "android": "https://dc.lft.to/lastmile_qr_scan"}}, {"name": "db3b3b5c3b8a6df7c12f5b54630906df", "fusion_lat": 0.0, "type": "electric_scooter", "lat": 38.9205405, "is_reserved": 0, "is_disabled": 0, "fusion_lon": 0.0, "bike_id": "db3b3b5c3b8a6df7c12f5b54630906df", "lon": -77.02437333333333, "rental_uris": {"ios": "https://dc.lft.to/lastmile_qr_scan", "android": "https://dc.lft.to/lastmile_qr_scan"}}, {"name": "10ae31c98a1858353dc7ebb831f935b3", "fusion_lat": 0.0, "type": "electric_scooter", "lat": 38.91842316666666, "is_reserved": 0, "is_disabled": 0, "fusion_lon": 0.0, "bike_id": "10ae31c98a1858353dc7ebb831f935b3", "lon": -77.02287483333333, "rental_uris": {"ios": "https://dc.lft.to/lastmile_qr_scan", "android": "https://dc.lft.to/lastmile_qr_scan"}}, {"name": "fb4484b23115cfbac40b4af4e76a36d3", "fusion_lat": 0.0, "type": "electric_bike", "lat": 38.81053716666667, "is_reserved": 0, "is_disabled": 0, "fusion_lon": 0.0, "bike_id": "fb4484b23115cfbac40b4af4e76a36d3", "lon": -77.08509383333333, "rental_uris": {"ios": "https://dc.lft.to/lastmile_qr_scan", "android": "https://dc.lft.to/lastmile_qr_scan"}}, {"name": "94b433251e5dfd52415ee93317465ad1", "fusion_lat": 0.0, "type": "electric_scooter", "lat": 38.92505033333333, "is_reserved": 0, "is_disabled": 0, "fusion_lon": 0.0, "bike_id": "94b433251e5dfd52415ee93317465ad1", "lon": -77.02357416666666, "rental_uris": {"ios": "https://dc.lft.to/lastmile_qr_scan", "android": "https://dc.lft.to/lastmile_qr_scan"}}, {"name": "1c8b6d3ff87a70774315796b6ee3a28f", "fusion_lat": 0.0, "type": "electric_scooter", "lat": 38.895285, "is_reserved": 0, "is_disabled": 0, "fusion_lon": 0.0, "bike_id": "1c8b6d3ff87a70774315796b6ee3a28f", "lon": -76.948907, "rental_uris": {"ios": "https://dc.lft.to/lastmile_qr_scan", "android": "https://dc.lft.to/lastmile_qr_scan"}}, {"name": "35800d6df71c72fe825fb6733b26d58e", "fusion_lat": 0.0, "type": "electric_scooter", "lat": 38.95487116666666, "is_reserved": 0, "is_disabled": 0, "fusion_lon": 0.0, "bike_id": "35800d6df71c72fe825fb6733b26d58e", "lon": -77.06983533333333, "rental_uris": {"ios": "https://dc.lft.to/lastmile_qr_scan", "android": "https://dc.lft.to/lastmile_qr_scan"}}, {"name": "6eee2f83296a78c018c347a0dbbfb766", "fusion_lat": 0.0, "type": "electric_scooter", "lat": 38.914881666666666, "is_reserved": 0, "is_disabled": 0, "fusion_lon": 0.0, "bike_id": "6eee2f83296a78c018c347a0dbbfb766", "lon": -77.02186416666666, "rental_uris": {"ios": "https://dc.lft.to/lastmile_qr_scan", "android": "https://dc.lft.to/lastmile_qr_scan"}}, {"name": "a836136203fed1e4861a99e958db769e", "fusion_lat": 0.0, "type": "electric_scooter", "lat": 38.87867766666667, "is_reserved": 0, "is_disabled": 0, "fusion_lon": 0.0, "bike_id": "a836136203fed1e4861a99e958db769e", "lon": -76.96530333333334, "rental_uris": {"ios": "https://dc.lft.to/lastmile_qr_scan", "android": "https://dc.lft.to/lastmile_qr_scan"}}, {"name": "25085cba20a402024dacd5925f04bd97", "fusion_lat": 0.0, "type": "electric_scooter", "lat": 38.90025416666667, "is_reserved": 0, "is_disabled": 0, "fusion_lon": 0.0, "bike_id": "25085cba20a402024dacd5925f04bd97", "lon": -77.046757, "rental_uris": {"ios": "https://dc.lft.to/lastmile_qr_scan", "android": "https://dc.lft.to/lastmile_qr_scan"}}, {"name": "2e3b442dcdcf88aa62a74d4ff1785ad7", "fusion_lat": 0.0, "type": "electric_scooter", "lat": 38.9180725, "is_reserved": 0, "is_disabled": 0, "fusion_lon": 0.0, "bike_id": "2e3b442dcdcf88aa62a74d4ff1785ad7", "lon": -77.02493816666667, "rental_uris": {"ios": "https://dc.lft.to/lastmile_qr_scan", "android": "https://dc.lft.to/lastmile_qr_scan"}}, {"name": "973709b6f0ff7e1b43b0c4ebaf14577b", "fusion_lat": 0.0, "type": "electric_scooter", "lat": 38.900326, "is_reserved": 0, "is_disabled": 0, "fusion_lon": 0.0, "bike_id": "973709b6f0ff7e1b43b0c4ebaf14577b", "lon": -76.99647183333333, "rental_uris": {"ios": "https://dc.lft.to/lastmile_qr_scan", "android": "https://dc.lft.to/lastmile_qr_scan"}}, {"name": "e9431ac5cfa0ec3c236d5081e0b10715", "fusion_lat": 0.0, "type": "electric_scooter", "lat": 38.907439333333336, "is_reserved": 0, "is_disabled": 0, "fusion_lon": 0.0, "bike_id": "e9431ac5cfa0ec3c236d5081e0b10715", "lon": -77.00789833333333, "rental_uris": {"ios": "https://dc.lft.to/lastmile_qr_scan", "android": "https://dc.lft.to/lastmile_qr_scan"}}, {"name": "a32cb25ba36377e8e5af3598a0cef533", "fusion_lat": 0.0, "type": "electric_scooter", "lat": 38.92251983333333, "is_reserved": 0, "is_disabled": 0, "fusion_lon": 0.0, "bike_id": "a32cb25ba36377e8e5af3598a0cef533", "lon": -77.0723855, "rental_uris": {"ios": "https://dc.lft.to/lastmile_qr_scan", "android": "https://dc.lft.to/lastmile_qr_scan"}}, {"name": "b245bd354f2512c129e979d4ad76086f", "fusion_lat": 0.0, "type": "electric_scooter", "lat": 38.906855, "is_reserved": 0, "is_disabled": 0, "fusion_lon": 0.0, "bike_id": "b245bd354f2512c129e979d4ad76086f", "lon": -77.03659516666667, "rental_uris": {"ios": "https://dc.lft.to/lastmile_qr_scan", "android": "https://dc.lft.to/lastmile_qr_scan"}}, {"name": "f77d9191d7d11a6135ff3ac42f624687", "fusion_lat": 0.0, "type": "electric_bike", "lat": 39.0000355, "is_reserved": 0, "is_disabled": 0, "fusion_lon": 0.0, "bike_id": "f77d9191d7d11a6135ff3ac42f624687", "lon": -76.99499966666667, "rental_uris": {"ios": "https://dc.lft.to/lastmile_qr_scan", "android": "https://dc.lft.to/lastmile_qr_scan"}}, {"name": "86af62852561629b0376b96838fcf88a", "fusion_lat": 0.0, "type": "electric_scooter", "lat": 38.901209, "is_reserved": 0, "is_disabled": 0, "fusion_lon": 0.0, "bike_id": "86af62852561629b0376b96838fcf88a", "lon": -77.051441, "rental_uris": {"ios": "https://dc.lft.to/lastmile_qr_scan", "android": "https://dc.lft.to/lastmile_qr_scan"}}, {"name": "cdf1355e862ee274dd4bbf681ac0bc85", "fusion_lat": 0.0, "type": "electric_scooter", "lat": 38.838390833333335, "is_reserved": 0, "is_disabled": 0, "fusion_lon": 0.0, "bike_id": "cdf1355e862ee274dd4bbf681ac0bc85", "lon": -76.99976483333333, "rental_uris": {"ios": "https://dc.lft.to/lastmile_qr_scan", "android": "https://dc.lft.to/lastmile_qr_scan"}}, {"name": "34f9adcf0a538ef89d86b5e2af830437", "fusion_lat": 0.0, "type": "electric_scooter", "lat": 38.8781185, "is_reserved": 0, "is_disabled": 0, "fusion_lon": 0.0, "bike_id": "34f9adcf0a538ef89d86b5e2af830437", "lon": -77.00349633333333, "rental_uris": {"ios": "https://dc.lft.to/lastmile_qr_scan", "android": "https://dc.lft.to/lastmile_qr_scan"}}, {"name": "83d21f79b6ea75cca2a7147005186d49", "fusion_lat": 0.0, "type": "electric_scooter", "lat": 38.905139166666665, "is_reserved": 0, "is_disabled": 0, "fusion_lon": 0.0, "bike_id": "83d21f79b6ea75cca2a7147005186d49", "lon": -77.06892666666667, "rental_uris": {"ios": "https://dc.lft.to/lastmile_qr_scan", "android": "https://dc.lft.to/lastmile_qr_scan"}}, {"name": "426efd4adde4be0070f6488883d5cf86", "fusion_lat": 0.0, "type": "electric_scooter", "lat": 38.89226583333333, "is_reserved": 0, "is_disabled": 0, "fusion_lon": 0.0, "bike_id": "426efd4adde4be0070f6488883d5cf86", "lon": -77.0433395, "rental_uris": {"ios": "https://dc.lft.to/lastmile_qr_scan", "android": "https://dc.lft.to/lastmile_qr_scan"}}, {"name": "3fcab3d393bffd6a568ec05c99da4133", "fusion_lat": 0.0, "type": "electric_scooter", "lat": 38.91807266666667, "is_reserved": 0, "is_disabled": 0, "fusion_lon": 0.0, "bike_id": "3fcab3d393bffd6a568ec05c99da4133", "lon": -77.03683016666666, "rental_uris": {"ios": "https://dc.lft.to/lastmile_qr_scan", "android": "https://dc.lft.to/lastmile_qr_scan"}}, {"name": "53cf5d51f075faa83e426a1a7b0d2b33", "fusion_lat": 0.0, "type": "electric_scooter", "lat": 38.91018016666666, "is_reserved": 0, "is_disabled": 0, "fusion_lon": 0.0, "bike_id": "53cf5d51f075faa83e426a1a7b0d2b33", "lon": -77.04444933333333, "rental_uris": {"ios": "https://dc.lft.to/lastmile_qr_scan", "android": "https://dc.lft.to/lastmile_qr_scan"}}, {"name": "3baacca5abca78c9a8619226bb49cb4a", "fusion_lat": 0.0, "type": "electric_scooter", "lat": 38.936659, "is_reserved": 0, "is_disabled": 0, "fusion_lon": 0.0, "bike_id": "3baacca5abca78c9a8619226bb49cb4a", "lon": -77.03266166666667, "rental_uris": {"ios": "https://dc.lft.to/lastmile_qr_scan", "android": "https://dc.lft.to/lastmile_qr_scan"}}, {"name": "317ebce494b620ab9f3aafde4ee66d47", "fusion_lat": 0.0, "type": "electric_scooter", "lat": 38.917102666666665, "is_reserved": 0, "is_disabled": 0, "fusion_lon": 0.0, "bike_id": "317ebce494b620ab9f3aafde4ee66d47", "lon": -77.03550916666667, "rental_uris": {"ios": "https://dc.lft.to/lastmile_qr_scan", "android": "https://dc.lft.to/lastmile_qr_scan"}}, {"name": "7aeb98a90d9d271a55b6ebe96230365e", "fusion_lat": 0.0, "type": "electric_scooter", "lat": 38.905552166666666, "is_reserved": 0, "is_disabled": 0, "fusion_lon": 0.0, "bike_id": "7aeb98a90d9d271a55b6ebe96230365e", "lon": -77.02429, "rental_uris": {"ios": "https://dc.lft.to/lastmile_qr_scan", "android": "https://dc.lft.to/lastmile_qr_scan"}}, {"name": "8dd6729b29b02f24c0d6250016efd731", "fusion_lat": 0.0, "type": "electric_scooter", "lat": 38.917658333333335, "is_reserved": 0, "is_disabled": 0, "fusion_lon": 0.0, "bike_id": "8dd6729b29b02f24c0d6250016efd731", "lon": -77.04743433333333, "rental_uris": {"ios": "https://dc.lft.to/lastmile_qr_scan", "android": "https://dc.lft.to/lastmile_qr_scan"}}, {"name": "e1944cb6a01cca022700e569540c8cd7", "fusion_lat": 0.0, "type": "electric_scooter", "lat": 38.89221233333333, "is_reserved": 0, "is_disabled": 0, "fusion_lon": 0.0, "bike_id": "e1944cb6a01cca022700e569540c8cd7", "lon": -77.0137405, "rental_uris": {"ios": "https://dc.lft.to/lastmile_qr_scan", "android": "https://dc.lft.to/lastmile_qr_scan"}}, {"name": "ddb61cd723d5676865acba929ef27b58", "fusion_lat": 0.0, "type": "electric_scooter", "lat": 38.938254, "is_reserved": 0, "is_disabled": 0, "fusion_lon": 0.0, "bike_id": "ddb61cd723d5676865acba929ef27b58", "lon": -77.0247755, "rental_uris": {"ios": "https://dc.lft.to/lastmile_qr_scan", "android": "https://dc.lft.to/lastmile_qr_scan"}}, {"name": "9d403f3d7e508b6d615220a390a64c6f", "fusion_lat": 0.0, "type": "electric_bike", "lat": 38.907605833333335, "is_reserved": 0, "is_disabled": 0, "fusion_lon": 0.0, "bike_id": "9d403f3d7e508b6d615220a390a64c6f", "lon": -77.03174933333334, "rental_uris": {"ios": "https://dc.lft.to/lastmile_qr_scan", "android": "https://dc.lft.to/lastmile_qr_scan"}}, {"name": "0380961c7a871c71b42bd7948005bc0d", "fusion_lat": 0.0, "type": "electric_scooter", "lat": 38.906437333333336, "is_reserved": 0, "is_disabled": 0, "fusion_lon": 0.0, "bike_id": "0380961c7a871c71b42bd7948005bc0d", "lon": -77.0061535, "rental_uris": {"ios": "https://dc.lft.to/lastmile_qr_scan", "android": "https://dc.lft.to/lastmile_qr_scan"}}, {"name": "474a06326776d71de1227eb1b7478cb9", "fusion_lat": 0.0, "type": "electric_bike", "lat": 38.8537065, "is_reserved": 0, "is_disabled": 0, "fusion_lon": 0.0, "bike_id": "474a06326776d71de1227eb1b7478cb9", "lon": -77.09868633333333, "rental_uris": {"ios": "https://dc.lft.to/lastmile_qr_scan", "android": "https://dc.lft.to/lastmile_qr_scan"}}, {"name": "ff02548702e7a2739657e2ed70e7b043", "fusion_lat": 0.0, "type": "electric_bike", "lat": 38.8272845, "is_reserved": 0, "is_disabled": 0, "fusion_lon": 0.0, "bike_id": "ff02548702e7a2739657e2ed70e7b043", "lon": -77.00858216666667, "rental_uris": {"ios": "https://dc.lft.to/lastmile_qr_scan", "android": "https://dc.lft.to/lastmile_qr_scan"}}, {"name": "d304f6798869141afadb11faafe2abad", "fusion_lat": 0.0, "type": "electric_scooter", "lat": 38.90969466666667, "is_reserved": 0, "is_disabled": 0, "fusion_lon": 0.0, "bike_id": "d304f6798869141afadb11faafe2abad", "lon": -77.021773, "rental_uris": {"ios": "https://dc.lft.to/lastmile_qr_scan", "android": "https://dc.lft.to/lastmile_qr_scan"}}, {"name": "f936b792c4cdb05a382072f903337afe", "fusion_lat": 0.0, "type": "electric_scooter", "lat": 38.89527833333333, "is_reserved": 0, "is_disabled": 0, "fusion_lon": 0.0, "bike_id": "f936b792c4cdb05a382072f903337afe", "lon": -76.9489085, "rental_uris": {"ios": "https://dc.lft.to/lastmile_qr_scan", "android": "https://dc.lft.to/lastmile_qr_scan"}}, {"name": "8b09aafa14ea7f8e33ff6a03cb2cd964", "fusion_lat": 0.0, "type": "electric_scooter", "lat": 38.92589533333334, "is_reserved": 0, "is_disabled": 0, "fusion_lon": 0.0, "bike_id": "8b09aafa14ea7f8e33ff6a03cb2cd964", "lon": -77.05304883333334, "rental_uris": {"ios": "https://dc.lft.to/lastmile_qr_scan", "android": "https://dc.lft.to/lastmile_qr_scan"}}, {"name": "41a35379214060492eb6445900f6edbe", "fusion_lat": 0.0, "type": "electric_scooter", "lat": 38.923210833333336, "is_reserved": 0, "is_disabled": 0, "fusion_lon": 0.0, "bike_id": "41a35379214060492eb6445900f6edbe", "lon": -77.05436333333333, "rental_uris": {"ios": "https://dc.lft.to/lastmile_qr_scan", "android": "https://dc.lft.to/lastmile_qr_scan"}}, {"name": "8f3f68a1fd0df7307780e76c0c212e0c", "fusion_lat": 0.0, "type": "electric_scooter", "lat": 38.952179666666666, "is_reserved": 0, "is_disabled": 0, "fusion_lon": 0.0, "bike_id": "8f3f68a1fd0df7307780e76c0c212e0c", "lon": -77.07066, "rental_uris": {"ios": "https://dc.lft.to/lastmile_qr_scan", "android": "https://dc.lft.to/lastmile_qr_scan"}}, {"name": "6a045df353ae4e3a4b1a7726624bc144", "fusion_lat": 0.0, "type": "electric_scooter", "lat": 38.9105515, "is_reserved": 0, "is_disabled": 0, "fusion_lon": 0.0, "bike_id": "6a045df353ae4e3a4b1a7726624bc144", "lon": -77.04576616666667, "rental_uris": {"ios": "https://dc.lft.to/lastmile_qr_scan", "android": "https://dc.lft.to/lastmile_qr_scan"}}, {"name": "aadebf35e38c70b79850957f596b506b", "fusion_lat": 0.0, "type": "electric_scooter", "lat": 38.901366, "is_reserved": 0, "is_disabled": 0, "fusion_lon": 0.0, "bike_id": "aadebf35e38c70b79850957f596b506b", "lon": -77.03344266666667, "rental_uris": {"ios": "https://dc.lft.to/lastmile_qr_scan", "android": "https://dc.lft.to/lastmile_qr_scan"}}, {"name": "226dfddac68e6e7ace0d0eb50f419aa3", "fusion_lat": 0.0, "type": "electric_scooter", "lat": 38.91897633333333, "is_reserved": 0, "is_disabled": 0, "fusion_lon": 0.0, "bike_id": "226dfddac68e6e7ace0d0eb50f419aa3", "lon": -77.052899, "rental_uris": {"ios": "https://dc.lft.to/lastmile_qr_scan", "android": "https://dc.lft.to/lastmile_qr_scan"}}, {"name": "5b9255a95991751676408de92af87bca", "fusion_lat": 0.0, "type": "electric_scooter", "lat": 38.922659333333335, "is_reserved": 0, "is_disabled": 0, "fusion_lon": 0.0, "bike_id": "5b9255a95991751676408de92af87bca", "lon": -77.03398483333334, "rental_uris": {"ios": "https://dc.lft.to/lastmile_qr_scan", "android": "https://dc.lft.to/lastmile_qr_scan"}}, {"name": "5b7e203f8268a15c6ef4fdaeb00fb38d", "fusion_lat": 0.0, "type": "electric_scooter", "lat": 38.8948445, "is_reserved": 0, "is_disabled": 0, "fusion_lon": 0.0, "bike_id": "5b7e203f8268a15c6ef4fdaeb00fb38d", "lon": -76.948697, "rental_uris": {"ios": "https://dc.lft.to/lastmile_qr_scan", "android": "https://dc.lft.to/lastmile_qr_scan"}}, {"name": "7defba8e01c117df974b860942df85c4", "fusion_lat": 0.0, "type": "electric_scooter", "lat": 38.86503233333333, "is_reserved": 0, "is_disabled": 0, "fusion_lon": 0.0, "bike_id": "7defba8e01c117df974b860942df85c4", "lon": -76.9900165, "rental_uris": {"ios": "https://dc.lft.to/lastmile_qr_scan", "android": "https://dc.lft.to/lastmile_qr_scan"}}, {"name": "6bf7e1a1f4586f996e84b6e311f19bb4", "fusion_lat": 0.0, "type": "electric_scooter", "lat": 38.895027, "is_reserved": 0, "is_disabled": 0, "fusion_lon": 0.0, "bike_id": "6bf7e1a1f4586f996e84b6e311f19bb4", "lon": -77.02383333333333, "rental_uris": {"ios": "https://dc.lft.to/lastmile_qr_scan", "android": "https://dc.lft.to/lastmile_qr_scan"}}, {"name": "69bebd637229967b584474d4e1b3f2a9", "fusion_lat": 0.0, "type": "electric_bike", "lat": 38.95273433333333, "is_reserved": 0, "is_disabled": 0, "fusion_lon": 0.0, "bike_id": "69bebd637229967b584474d4e1b3f2a9", "lon": -77.06976233333333, "rental_uris": {"ios": "https://dc.lft.to/lastmile_qr_scan", "android": "https://dc.lft.to/lastmile_qr_scan"}}, {"name": "c4a6d9217fefb03ea82440a6dafbbf7e", "fusion_lat": 0.0, "type": "electric_scooter", "lat": 38.915633, "is_reserved": 0, "is_disabled": 0, "fusion_lon": 0.0, "bike_id": "c4a6d9217fefb03ea82440a6dafbbf7e", "lon": -77.02949733333334, "rental_uris": {"ios": "https://dc.lft.to/lastmile_qr_scan", "android": "https://dc.lft.to/lastmile_qr_scan"}}, {"name": "be126a4deb3bc7e49235fa063cee5d8f", "fusion_lat": 0.0, "type": "electric_scooter", "lat": 38.94293116666667, "is_reserved": 0, "is_disabled": 0, "fusion_lon": 0.0, "bike_id": "be126a4deb3bc7e49235fa063cee5d8f", "lon": -77.02170666666666, "rental_uris": {"ios": "https://dc.lft.to/lastmile_qr_scan", "android": "https://dc.lft.to/lastmile_qr_scan"}}, {"name": "003e8a6fdae1ced0ed3973269ec8f6f0", "fusion_lat": 0.0, "type": "electric_scooter", "lat": 38.89848633333333, "is_reserved": 0, "is_disabled": 0, "fusion_lon": 0.0, "bike_id": "003e8a6fdae1ced0ed3973269ec8f6f0", "lon": -77.03335133333333, "rental_uris": {"ios": "https://dc.lft.to/lastmile_qr_scan", "android": "https://dc.lft.to/lastmile_qr_scan"}}, {"name": "7ac17b1f49b5788cd59f30acc2e40159", "fusion_lat": 0.0, "type": "electric_scooter", "lat": 38.909484666666664, "is_reserved": 0, "is_disabled": 0, "fusion_lon": 0.0, "bike_id": "7ac17b1f49b5788cd59f30acc2e40159", "lon": -77.026934, "rental_uris": {"ios": "https://dc.lft.to/lastmile_qr_scan", "android": "https://dc.lft.to/lastmile_qr_scan"}}, {"name": "3e6bd26bfffc9b3739fd2972734e9db6", "fusion_lat": 0.0, "type": "electric_scooter", "lat": 38.90971316666667, "is_reserved": 0, "is_disabled": 0, "fusion_lon": 0.0, "bike_id": "3e6bd26bfffc9b3739fd2972734e9db6", "lon": -77.03880916666667, "rental_uris": {"ios": "https://dc.lft.to/lastmile_qr_scan", "android": "https://dc.lft.to/lastmile_qr_scan"}}, {"name": "2a3533b01e0e259edf14becdcda895ee", "fusion_lat": 0.0, "type": "electric_scooter", "lat": 38.921937666666665, "is_reserved": 0, "is_disabled": 0, "fusion_lon": 0.0, "bike_id": "2a3533b01e0e259edf14becdcda895ee", "lon": -77.0402225, "rental_uris": {"ios": "https://dc.lft.to/lastmile_qr_scan", "android": "https://dc.lft.to/lastmile_qr_scan"}}, {"name": "6ce1fb7b7ba3ce913048001e291e8077", "fusion_lat": 0.0, "type": "electric_scooter", "lat": 38.866902833333334, "is_reserved": 0, "is_disabled": 0, "fusion_lon": 0.0, "bike_id": "6ce1fb7b7ba3ce913048001e291e8077", "lon": -76.98903716666666, "rental_uris": {"ios": "https://dc.lft.to/lastmile_qr_scan", "android": "https://dc.lft.to/lastmile_qr_scan"}}, {"name": "b3b98ed8dbd3aeda6fb92a2f3d654ce4", "fusion_lat": 0.0, "type": "electric_scooter", "lat": 38.89190266666667, "is_reserved": 0, "is_disabled": 0, "fusion_lon": 0.0, "bike_id": "b3b98ed8dbd3aeda6fb92a2f3d654ce4", "lon": -77.015826, "rental_uris": {"ios": "https://dc.lft.to/lastmile_qr_scan", "android": "https://dc.lft.to/lastmile_qr_scan"}}, {"name": "cb7a0cba1236749d44ace1d2a90c6b0c", "fusion_lat": 0.0, "type": "electric_scooter", "lat": 38.9106885, "is_reserved": 0, "is_disabled": 0, "fusion_lon": 0.0, "bike_id": "cb7a0cba1236749d44ace1d2a90c6b0c", "lon": -77.06713716666667, "rental_uris": {"ios": "https://dc.lft.to/lastmile_qr_scan", "android": "https://dc.lft.to/lastmile_qr_scan"}}, {"name": "2d20e458332c9fa137efb17f39e0cefb", "fusion_lat": 0.0, "type": "electric_scooter", "lat": 38.9003835, "is_reserved": 0, "is_disabled": 0, "fusion_lon": 0.0, "bike_id": "2d20e458332c9fa137efb17f39e0cefb", "lon": -77.01188816666667, "rental_uris": {"ios": "https://dc.lft.to/lastmile_qr_scan", "android": "https://dc.lft.to/lastmile_qr_scan"}}, {"name": "53e4a0f898147022010cded988a22183", "fusion_lat": 0.0, "type": "electric_scooter", "lat": 38.98473233333333, "is_reserved": 0, "is_disabled": 0, "fusion_lon": 0.0, "bike_id": "53e4a0f898147022010cded988a22183", "lon": -77.02642133333333, "rental_uris": {"ios": "https://dc.lft.to/lastmile_qr_scan", "android": "https://dc.lft.to/lastmile_qr_scan"}}, {"name": "b33fe9402f1840a78b06919c910ac582", "fusion_lat": 0.0, "type": "electric_bike", "lat": 38.89219583333333, "is_reserved": 0, "is_disabled": 0, "fusion_lon": 0.0, "bike_id": "b33fe9402f1840a78b06919c910ac582", "lon": -77.10778583333334, "rental_uris": {"ios": "https://dc.lft.to/lastmile_qr_scan", "android": "https://dc.lft.to/lastmile_qr_scan"}}, {"name": "6b61a0fdfda9b5f22ff04d05d318f6b2", "fusion_lat": 0.0, "type": "electric_scooter", "lat": 38.90578433333334, "is_reserved": 0, "is_disabled": 0, "fusion_lon": 0.0, "bike_id": "6b61a0fdfda9b5f22ff04d05d318f6b2", "lon": -77.04874833333334, "rental_uris": {"ios": "https://dc.lft.to/lastmile_qr_scan", "android": "https://dc.lft.to/lastmile_qr_scan"}}, {"name": "a8b1cfdde0e1085a7740519e1ce3b89a", "fusion_lat": 0.0, "type": "electric_scooter", "lat": 38.88687783333334, "is_reserved": 0, "is_disabled": 0, "fusion_lon": 0.0, "bike_id": "a8b1cfdde0e1085a7740519e1ce3b89a", "lon": -76.95763333333333, "rental_uris": {"ios": "https://dc.lft.to/lastmile_qr_scan", "android": "https://dc.lft.to/lastmile_qr_scan"}}, {"name": "9301179273b8a042466dc87d923c9d8b", "fusion_lat": 0.0, "type": "electric_scooter", "lat": 38.8585005, "is_reserved": 0, "is_disabled": 0, "fusion_lon": 0.0, "bike_id": "9301179273b8a042466dc87d923c9d8b", "lon": -76.95881166666666, "rental_uris": {"ios": "https://dc.lft.to/lastmile_qr_scan", "android": "https://dc.lft.to/lastmile_qr_scan"}},