{"data": {"bikes": [{"fusion_lat": 0.0, "lon": -77.026849, "is_reserved": 0, "bike_id": "90588571095ea526920f909952379ef2", "fusion_lon": 0.0, "rental_uris": {"android": "https://dc.lft.to/lastmile_qr_scan", "ios": "https://dc.lft.to/lastmile_qr_scan"}, "name": "90588571095ea526920f909952379ef2", "type": "electric_scooter", "lat": 38.91269483333333, "is_disabled": 0}, {"fusion_lat": 0.0, "lon": -77.02102033333334, "is_reserved": 0, "bike_id": "7e55c8c529c8e1c33e079f730c22de95", "fusion_lon": 0.0, "rental_uris": {"android": "https://dc.lft.to/lastmile_qr_scan", "ios": "https://dc.lft.to/lastmile_qr_scan"}, "name": "7e55c8c529c8e1c33e079f730c22de95", "type": "electric_scooter", "lat": 38.92188066666667, "is_disabled": 0}, {"fusion_lat": 0.0, "lon": -76.99649566666666, "is_reserved": 0, "bike_id": "7dc0c7b758c2cc6aa316dbd5eabc9c6e", "fusion_lon": 0.0, "rental_uris": {"android": "https://dc.lft.to/lastmile_qr_scan", "ios": "https://dc.lft.to/lastmile_qr_scan"}, "name": "7dc0c7b758c2cc6aa316dbd5eabc9c6e", "type": "electric_bike", "lat": 38.98827766666667, "is_disabled": 0}, {"fusion_lat": 0.0, "lon": -77.02853483333334, "is_reserved": 0, "bike_id": "ab315f930209b50d18784a521e4c6573", "fusion_lon": 0.0, "rental_uris": {"android": "https://dc.lft.to/lastmile_qr_scan", "ios": "https://dc.lft.to/lastmile_qr_scan"}, "name": "ab315f930209b50d18784a521e4c6573", "type": "electric_scooter", "lat": 38.931739, "is_disabled": 0}, {"fusion_lat": 0.0, "lon": -76.98374333333334, "is_reserved": 0, "bike_id": "13611291c0bbf0070fe153e287b05c13", "fusion_lon": 0.0, "rental_uris": {"android": "https://dc.lft.to/lastmile_qr_scan", "ios": "https://dc.lft.to/lastmile_qr_scan"}, "name": "13611291c0bbf0070fe153e287b05c13", "type": "electric_scooter", "lat": 38.91550316666667, "is_disabled": 0}, {"fusion_lat": 0.0, "lon": -77.04508083333333, "is_reserved": 0, "bike_id": "95f301cd5163f554d4e77ac4c136d391", "fusion_lon": 0.0, "rental_uris": {"android": "https://dc.lft.to/lastmile_qr_scan", "ios": "https://dc.lft.to/lastmile_qr_scan"}, "name": "95f301cd5163f554d4e77ac4c136d391", "type": "electric_scooter", "lat": 38.89224816666667, "is_disabled": 0}, {"fusion_lat": 0.0, "lon": -77.03677816666666, "is_reserved": 0, "bike_id": "cdfd875cea709c702b72cafefd801194", "fusion_lon": 0.0, "rental_uris": {"android": "https://dc.lft.to/lastmile_qr_scan", "ios": "https://dc.lft.to/lastmile_qr_scan"}, "name": "cdfd875cea709c702b72cafefd801194", "type": "electric_scooter", "lat": 38.910429, "is_disabled": 0}, {"fusion_lat": 0.0, "lon": -77.04825666666666, "is_reserved": 0, "bike_id": "ef10c235cae533f541c1c2297af016c0", "fusion_lon": 0.0, "rental_uris": {"android": "https://dc.lft.to/lastmile_qr_scan", "ios": "https://dc.lft.to/lastmile_qr_scan"}, "name": "ef10c235cae533f541c1c2297af016c0", "type": "electric_scooter", "lat": 38.904701833333334, "is_disabled": 0}, {"fusion_lat": 0.0, "lon": -77.06740083333334, "is_reserved": 0, "bike_id": "5252dd4beef66edd273df24a6f51ef50", "fusion_lon": 0.0, "rental_uris": {"android": "https://dc.lft.to/lastmile_qr_scan", "ios": "https://dc.lft.to/lastmile_qr_scan"}, "name": "5252dd4beef66edd273df24a6f51ef50", "type": "electric_scooter", "lat": 38.90691366666667, "is_disabled": 0}, {"fusion_lat": 0.0, "lon": -77.03906966666666, "is_reserved": 0, "bike_id": "aa9f1260db9769cb6fa17bb0301edcaf", "fusion_lon": 0.0, "rental_uris": {"android": "https://dc.lft.to/lastmile_qr_scan", "ios": "https://dc.lft.to/lastmile_qr_scan"}, "name": "aa9f1260db9769cb6fa17bb0301edcaf", "type": "electric_scooter", "lat": 38.91826316666667, "is_disabled": 0}, {"fusion_lat": 0.0, "lon": -77.032009, "is_reserved": 0, "bike_id": "f1b7915ad68afc615a5dadcde5aa52fb", "fusion_lon": 0.0, "rental_uris": {"android": "https://dc.lft.to/lastmile_qr_scan", "ios": "https://dc.lft.to/lastmile_qr_scan"}, "name": "f1b7915ad68afc615a5dadcde5aa52fb", "type": "electric_scooter", "lat": 38.908184, "is_disabled": 0}, {"fusion_lat": 0.0, "lon": -77.01155583333333, "is_reserved": 0, "bike_id": "1654cd0dc162d0006bad4d63afe3da44", "fusion_lon": 0.0, "rental_uris": {"android": "https://dc.lft.to/lastmile_qr_scan", "ios": "https://dc.lft.to/lastmile_qr_scan"}, "name": "1654cd0dc162d0006bad4d63afe3da44", "type": "electric_bike", "lat": 38.91150733333333, "is_disabled": 0}, {"fusion_lat": 0.0, "lon": -77.02200366666666, "is_reserved": 0, "bike_id": "6fb2fd1746a946a87b08945aae283edc", "fusion_lon": 0.0, "rental_uris": {"android": "https://dc.lft.to/lastmile_qr_scan", "ios": "https://dc.lft.to/lastmile_qr_scan"}, "name": "6fb2fd1746a946a87b08945aae283edc", "type": "electric_scooter", "lat": 38.89502683333333, "is_disabled": 0}, {"fusion_lat": 0.0, "lon": -77.03331266666666, "is_reserved": 0, "bike_id": "368ce6b677d8685003b78dce9e8b71ab", "fusion_lon": 0.0, "rental_uris": {"android": "https://dc.lft.to/lastmile_qr_scan", "ios": "https://dc.lft.to/lastmile_qr_scan"}, "name": "368ce6b677d8685003b78dce9e8b71ab", "type": "electric_scooter", "lat": 38.8973455, "is_disabled": 0}, {"fusion_lat": 0.0, "lon": -77.1075005, "is_reserved": 0, "bike_id": "b340cd1870da2febc812fede645f99d1", "fusion_lon": 0.0, "rental_uris": {"android": "https://dc.lft.to/lastmile_qr_scan", "ios": "https://dc.lft.to/lastmile_qr_scan"}, "name": "b340cd1870da2febc812fede645f99d1", "type": "electric_bike", "lat": 38.879531166666666, "is_disabled": 0}, {"fusion_lat": 0.0, "lon": -76.99693316666666, "is_reserved": 0, "bike_id": "7d9b0b5b8f0a8888cf589f478998a440", "fusion_lon": 0.0, "rental_uris": {"android": "https://dc.lft.to/lastmile_qr_scan", "ios": "https://dc.lft.to/lastmile_qr_scan"}, "name": "7d9b0b5b8f0a8888cf589f478998a440", "type": "electric_scooter", "lat": 38.90802716666666, "is_disabled": 0}, {"fusion_lat": 0.0, "lon": -77.02342833333333, "is_reserved": 0, "bike_id": "e713f52ef95c073a9e5c341e0a4cf6a6", "fusion_lon": 0.0, "rental_uris": {"android": "https://dc.lft.to/lastmile_qr_scan", "ios": "https://dc.lft.to/lastmile_qr_scan"}, "name": "e713f52ef95c073a9e5c341e0a4cf6a6", "type": "electric_scooter", "lat": 38.93525783333333, "is_disabled": 0}, {"fusion_lat": 0.0, "lon": -77.01349733333333, "is_reserved": 0, "bike_id": "c6e6c30494202cfd64a66ecd175d1ec5", "fusion_lon": 0.0, "rental_uris": {"android": "https://dc.lft.to/lastmile_qr_scan", "ios": "https://dc.lft.to/lastmile_qr_scan"}, "name": "c6e6c30494202cfd64a66ecd175d1ec5", "type": "electric_scooter", "lat": 38.869713, "is_disabled": 0}, {"fusion_lat": 0.0, "lon": -77.00757533333334, "is_reserved": 0, "bike_id": "fc4a4b5b759ce285dd82100f0aba4325", "fusion_lon": 0.0, "rental_uris": {"android": "https://dc.lft.to/lastmile_qr_scan", "ios": "https://dc.lft.to/lastmile_qr_scan"}, "name": "fc4a4b5b759ce285dd82100f0aba4325", "type": "electric_scooter", "lat": 38.92671933333333, "is_disabled": 0}, {"fusion_lat": 0.0, "lon": -77.02091616666667, "is_reserved": 0, "bike_id": "28fca783e94c2880d41edb0cd9f3c15b", "fusion_lon": 0.0, "rental_uris": {"android": "https://dc.lft.to/lastmile_qr_scan", "ios": "https://dc.lft.to/lastmile_qr_scan"}, "name": "28fca783e94c2880d41edb0cd9f3c15b", "type": "electric_scooter", "lat": 38.92710066666667, "is_disabled": 0}, {"fusion_lat": 0.0, "lon": -77.0279435, "is_reserved": 0, "bike_id": "b98b89bf040dba362fc81e8b29d02619", "fusion_lon": 0.0, "rental_uris": {"android": "https://dc.lft.to/lastmile_qr_scan", "ios": "https://dc.lft.to/lastmile_qr_scan"}, "name": "b98b89bf040dba362fc81e8b29d02619", "type": "electric_scooter", "lat": 38.95395883333333, "is_disabled": 0}, {"fusion_lat": 0.0, "lon": -77.04240783333333, "is_reserved": 0, "bike_id": "5dd6bc63eb2c1b13253ee5c46c40b434", "fusion_lon": 0.0, "rental_uris": {"android": "https://dc.lft.to/lastmile_qr_scan", "ios": "https://dc.lft.to/lastmile_qr_scan"}, "name": "5dd6bc63eb2c1b13253ee5c46c40b434", "type": "electric_scooter", "lat": 38.92221633333333, "is_disabled": 0}, {"fusion_lat": 0.0, "lon": -76.981136, "is_reserved": 0, "bike_id": "7a8bcdc5ab2c96051bcd08fa0c8c90d7", "fusion_lon": 0.0, "rental_uris": {"android": "https://dc.lft.to/lastmile_qr_scan", "ios": "https://dc.lft.to/lastmile_qr_scan"}, "name": "7a8bcdc5ab2c96051bcd08fa0c8c90d7", "type": "electric_scooter", "lat": 38.9040595, "is_disabled": 0}, {"fusion_lat": 0.0, "lon": -76.98365166666666, "is_reserved": 0, "bike_id": "b4293f1cb99586279529ebd37da5822d", "fusion_lon": 0.0, "rental_uris": {"android": "https://dc.lft.to/lastmile_qr_scan", "ios": "https://dc.lft.to/lastmile_qr_scan"}, "name": "b4293f1cb99586279529ebd37da5822d", "type": "electric_scooter", "lat": 38.9155065, "is_disabled": 0}, {"fusion_lat": 0.0, "lon": -77.0485385, "is_reserved": 0, "bike_id": "ccf62908ad17a95aee5400f66f039a3e", "fusion_lon": 0.0, "rental_uris": {"android": "https://dc.lft.to/lastmile_qr_scan", "ios": "https://dc.lft.to/lastmile_qr_scan"}, "name": "ccf62908ad17a95aee5400f66f039a3e", "type": "electric_scooter", "lat": 38.90519166666667, "is_disabled": 0}, {"fusion_lat": 0.0, "lon": -77.0424955, "is_reserved": 0, "bike_id": "5dbbb37a22e7f4a3ad1b49e2a8538b02", "fusion_lon": 0.0, "rental_uris": {"android": "https://dc.lft.to/lastmile_qr_scan", "ios": "https://dc.lft.to/lastmile_qr_scan"}, "name": "5dbbb37a22e7f4a3ad1b49e2a8538b02", "type": "electric_scooter", "lat": 38.920645, "is_disabled": 0}, {"fusion_lat": 0.0, "lon": -76.9801675, "is_reserved": 0, "bike_id": "74bc52b193b0e631cfea4191e1ee17e0", "fusion_lon": 0.0, "rental_uris": {"android": "https://dc.lft.to/lastmile_qr_scan", "ios": "https://dc.lft.to/lastmile_qr_scan"}, "name": "74bc52b193b0e631cfea4191e1ee17e0", "type": "electric_scooter", "lat": 38.9029015, "is_disabled": 0}, {"fusion_lat": 0.0, "lon": -77.03432016666666, "is_reserved": 0, "bike_id": "963fe11a970cf11401e5c5ce8096e4e1", "fusion_lon": 0.0, "rental_uris": {"android": "https://dc.lft.to/lastmile_qr_scan", "ios": "https://dc.lft.to/lastmile_qr_scan"}, "name": "963fe11a970cf11401e5c5ce8096e4e1", "type": "electric_scooter", "lat": 38.9103685, "is_disabled": 0}, {"fusion_lat": 0.0, "lon": -77.08036766666666, "is_reserved": 0, "bike_id": "4f163c175027d41b42c8877e78ff63bb", "fusion_lon": 0.0, "rental_uris": {"android": "https://dc.lft.to/lastmile_qr_scan", "ios": "https://dc.lft.to/lastmile_qr_scan"}, "name": "4f163c175027d41b42c8877e78ff63bb", "type": "electric_scooter", "lat": 38.923916166666665, "is_disabled": 0}, {"fusion_lat": 0.0, "lon": -77.031321, "is_reserved": 0, "bike_id": "2286f42f607fd808fa5655c85591b590", "fusion_lon": 0.0, "rental_uris": {"android": "https://dc.lft.to/lastmile_qr_scan", "ios": "https://dc.lft.to/lastmile_qr_scan"}, "name": "2286f42f607fd808fa5655c85591b590", "type": "electric_scooter", "lat": 38.920222, "is_disabled": 0}, {"fusion_lat": 0.0, "lon": -76.99881916666666, "is_reserved": 0, "bike_id": "4e4770bbde2f8562411d4c8a16fb6f0a", "fusion_lon": 0.0, "rental_uris": {"android": "https://dc.lft.to/lastmile_qr_scan", "ios": "https://dc.lft.to/lastmile_qr_scan"}, "name": "4e4770bbde2f8562411d4c8a16fb6f0a", "type": "electric_scooter", "lat": 38.90126383333333, "is_disabled": 0}, {"fusion_lat": 0.0, "lon": -77.03444433333334, "is_reserved": 0, "bike_id": "964305738d3c422f22ecfa91e97d07f3", "fusion_lon": 0.0, "rental_uris": {"android": "https://dc.lft.to/lastmile_qr_scan", "ios": "https://dc.lft.to/lastmile_qr_scan"}, "name": "964305738d3c422f22ecfa91e97d07f3", "type": "electric_scooter", "lat": 38.907931833333336, "is_disabled": 0}, {"fusion_lat": 0.0, "lon": -77.029017, "is_reserved": 0, "bike_id": "444e5b18de3856c7432b361a6d9cb9e6", "fusion_lon": 0.0, "rental_uris": {"android": "https://dc.lft.to/lastmile_qr_scan", "ios": "https://dc.lft.to/lastmile_qr_scan"}, "name": "444e5b18de3856c7432b361a6d9cb9e6", "type": "electric_scooter", "lat": 38.928166, "is_disabled": 0}, {"fusion_lat": 0.0, "lon": -77.018948, "is_reserved": 0, "bike_id": "0f782d26e4bceff24ef72d6deee46c49", "fusion_lon": 0.0, "rental_uris": {"android": "https://dc.lft.to/lastmile_qr_scan", "ios": "https://dc.lft.to/lastmile_qr_scan"}, "name": "0f782d26e4bceff24ef72d6deee46c49", "type": "electric_scooter", "lat": 38.9138585, "is_disabled": 0}, {"fusion_lat": 0.0, "lon": -77.05430483333333, "is_reserved": 0, "bike_id": "ef19df508402564ed48ee2aba646f9d4", "fusion_lon": 0.0, "rental_uris": {"android": "https://dc.lft.to/lastmile_qr_scan", "ios": "https://dc.lft.to/lastmile_qr_scan"}, "name": "ef19df508402564ed48ee2aba646f9d4", "type": "electric_scooter", "lat": 38.92339066666667, "is_disabled": 0}, {"fusion_lat": 0.0, "lon": -77.03471283333333, "is_reserved": 0, "bike_id": "b3051d8b97c5e0c314b3b50c03c95e3d", "fusion_lon": 0.0, "rental_uris": {"android": "https://dc.lft.to/lastmile_qr_scan", "ios": "https://dc.lft.to/lastmile_qr_scan"}, "name": "b3051d8b97c5e0c314b3b50c03c95e3d", "type": "electric_scooter", "lat": 38.91707616666667, "is_disabled": 0}, {"fusion_lat": 0.0, "lon": -77.03157783333333, "is_reserved": 0, "bike_id": "fb8b415fd208945cbdc0a11338f91796", "fusion_lon": 0.0, "rental_uris": {"android": "https://dc.lft.to/lastmile_qr_scan", "ios": "https://dc.lft.to/lastmile_qr_scan"}, "name": "fb8b415fd208945cbdc0a11338f91796", "type": "electric_scooter", "lat": 38.916127333333336, "is_disabled": 0}, {"fusion_lat": 0.0, "lon": -77.01008666666667, "is_reserved": 0, "bike_id": "bc62c1509c96b2a9603674a5f09a7e91", "fusion_lon": 0.0, "rental_uris": {"android": "https://dc.lft.to/lastmile_qr_scan", "ios": "https://dc.lft.to/lastmile_qr_scan"}, "name": "bc62c1509c96b2a9603674a5f09a7e91", "type": "electric_bike", "lat": 38.8796715, "is_disabled": 0}, {"fusion_lat": 0.0, "lon": -77.04241666666667, "is_reserved": 0, "bike_id": "ae52f8b14097aa1b7ca44745b26ad91b", "fusion_lon": 0.0, "rental_uris": {"android": "https://dc.lft.to/lastmile_qr_scan", "ios": "https://dc.lft.to/lastmile_qr_scan"}, "name": "ae52f8b14097aa1b7ca44745b26ad91b", "type": "electric_scooter", "lat": 38.906487, "is_disabled": 0}, {"fusion_lat": 0.0, "lon": -77.04662783333333, "is_reserved": 0, "bike_id": "4b4b533eadcde7a2e75cf06d151b6eb4", "fusion_lon": 0.0, "rental_uris": {"android": "https://dc.lft.to/lastmile_qr_scan", "ios": "https://dc.lft.to/lastmile_qr_scan"}, "name": "4b4b533eadcde7a2e75cf06d151b6eb4", "type": "electric_scooter", "lat": 38.913416166666664, "is_disabled": 0}, {"fusion_lat": 0.0, "lon": -77.04069383333334, "is_reserved": 0, "bike_id": "4684af003e4cb5f10659623c5d741fc4", "fusion_lon": 0.0, "rental_uris": {"android": "https://dc.lft.to/lastmile_qr_scan", "ios": "https://dc.lft.to/lastmile_qr_scan"}, "name": "4684af003e4cb5f10659623c5d741fc4", "type": "electric_scooter", "lat": 38.917131833333336, "is_disabled": 0}, {"fusion_lat": 0.0, "lon": -77.02870316666667, "is_reserved": 0, "bike_id": "484d4781377e401d657e88a005855d8f", "fusion_lon": 0.0, "rental_uris": {"android": "https://dc.lft.to/lastmile_qr_scan", "ios": "https://dc.lft.to/lastmile_qr_scan"}, "name": "484d4781377e401d657e88a005855d8f", "type": "electric_scooter", "lat": 38.903247, "is_disabled": 0}, {"fusion_lat": 0.0, "lon": -77.03492566666667, "is_reserved": 0, "bike_id": "701fbe671e66eaf3f92740b98716e5ac", "fusion_lon": 0.0, "rental_uris": {"android": "https://dc.lft.to/lastmile_qr_scan", "ios": "https://dc.lft.to/lastmile_qr_scan"}, "name": "701fbe671e66eaf3f92740b98716e5ac", "type": "electric_scooter", "lat": 38.9326545, "is_disabled": 0}, {"fusion_lat": 0.0, "lon": -77.027494, "is_reserved": 0, "bike_id": "e93a05cb4f07d725b7a585ae6f519bf1", "fusion_lon": 0.0, "rental_uris": {"android": "https://dc.lft.to/lastmile_qr_scan", "ios": "https://dc.lft.to/lastmile_qr_scan"}, "name": "e93a05cb4f07d725b7a585ae6f519bf1", "type": "electric_scooter", "lat": 38.924110166666665, "is_disabled": 0}, {"fusion_lat": 0.0, "lon": -77.03424833333334, "is_reserved": 0, "bike_id": "6f8f644b8e829c522027ce1d06632dad", "fusion_lon": 0.0, "rental_uris": {"android": "https://dc.lft.to/lastmile_qr_scan", "ios": "https://dc.lft.to/lastmile_qr_scan"}, "name": "6f8f644b8e829c522027ce1d06632dad", "type": "electric_scooter", "lat": 38.907928166666665, "is_disabled": 0}, {"fusion_lat": 0.0, "lon": -77.0326095, "is_reserved": 0, "bike_id": "b99c034cd6976b32e19a159fc7b43262", "fusion_lon": 0.0, "rental_uris": {"android": "https://dc.lft.to/lastmile_qr_scan", "ios": "https://dc.lft.to/lastmile_qr_scan"}, "name": "b99c034cd6976b32e19a159fc7b43262", "type": "electric_scooter", "lat": 38.929232666666664, "is_disabled": 0}, {"fusion_lat": 0.0, "lon": -77.03286416666667, "is_reserved": 0, "bike_id": "6c8bedf256f7c5c88435404a96d3e89d", "fusion_lon": 0.0, "rental_uris": {"android": "https://dc.lft.to/lastmile_qr_scan", "ios": "https://dc.lft.to/lastmile_qr_scan"}, "name": "6c8bedf256f7c5c88435404a96d3e89d", "type": "electric_scooter", "lat": 38.907461166666664, "is_disabled": 0}, {"fusion_lat": 0.0, "lon": -77.072355, "is_reserved": 0, "bike_id": "50bcba6d7e92300e1b13e616347b568a", "fusion_lon": 0.0, "rental_uris": {"android": "https://dc.lft.to/lastmile_qr_scan", "ios": "https://dc.lft.to/lastmile_qr_scan"}, "name": "50bcba6d7e92300e1b13e616347b568a", "type": "electric_scooter", "lat": 38.9400815, "is_disabled": 0}, {"fusion_lat": 0.0, "lon": -76.9787185, "is_reserved": 0, "bike_id": "adbfd8edb97552fb24bd522735c521fc", "fusion_lon": 0.0, "rental_uris": {"android": "https://dc.lft.to/lastmile_qr_scan", "ios": "https://dc.lft.to/lastmile_qr_scan"}, "name": "adbfd8edb97552fb24bd522735c521fc", "type": "electric_scooter", "lat": 38.88304016666667, "is_disabled": 0}, {"fusion_lat": 0.0, "lon": -76.9837585, "is_reserved": 0, "bike_id": "148cc284eadfa86ccb14ed0cbd670851", "fusion_lon": 0.0, "rental_uris": {"android": "https://dc.lft.to/lastmile_qr_scan", "ios": "https://dc.lft.to/lastmile_qr_scan"}, "name": "148cc284eadfa86ccb14ed0cbd670851", "type": "electric_scooter", "lat": 38.8612765, "is_disabled": 0}, {"fusion_lat": 0.0, "lon": -77.00366183333334, "is_reserved": 0, "bike_id": "dcb927df264ae7aeba3bf92f2cae39fa", "fusion_lon": 0.0, "rental_uris": {"android": "https://dc.lft.to/lastmile_qr_scan", "ios": "https://dc.lft.to/lastmile_qr_scan"}, "name": "dcb927df264ae7aeba3bf92f2cae39fa", "type": "electric_scooter", "lat": 38.8973425, "is_disabled": 0}, {"fusion_lat": 0.0, "lon": -77.01801933333333, "is_reserved": 0, "bike_id": "1221957be1984aa31f2fe8143730df61", "fusion_lon": 0.0, "rental_uris": {"android": "https://dc.lft.to/lastmile_qr_scan", "ios": "https://dc.lft.to/lastmile_qr_scan"}, "name": "1221957be1984aa31f2fe8143730df61", "type": "electric_scooter", "lat": 38.876726833333336, "is_disabled": 0}, {"fusion_lat": 0.0, "lon": -76.99625183333333, "is_reserved": 0, "bike_id": "b744e93dc6f9e4424bf87b41eecbc0f0", "fusion_lon": 0.0, "rental_uris": {"android": "https://dc.lft.to/lastmile_qr_scan", "ios": "https://dc.lft.to/lastmile_qr_scan"}, "name": "b744e93dc6f9e4424bf87b41eecbc0f0", "type": "electric_scooter", "lat": 38.88559133333333, "is_disabled": 0}, {"fusion_lat": 0.0, "lon": -77.00799783333333, "is_reserved": 0, "bike_id": "a42cb80e23afa7fcf41f8f65e392f579", "fusion_lon": 0.0, "rental_uris": {"android": "https://dc.lft.to/lastmile_qr_scan", "ios": "https://dc.lft.to/lastmile_qr_scan"}, "name": "a42cb80e23afa7fcf41f8f65e392f579", "type": "electric_scooter", "lat": 38.896417666666665, "is_disabled": 0}, {"fusion_lat": 0.0, "lon": -76.99520766666667, "is_reserved": 0, "bike_id": "5607472d16a251bb8402c93c00b115e3", "fusion_lon": 0.0, "rental_uris": {"android": "https://dc.lft.to/lastmile_qr_scan", "ios": "https://dc.lft.to/lastmile_qr_scan"}, "name": "5607472d16a251bb8402c93c00b115e3", "type": "electric_scooter", "lat": 38.89543916666667, "is_disabled": 0}, {"fusion_lat": 0.0, "lon": -77.03184483333334, "is_reserved": 0, "bike_id": "37fb9bf01666dde052a88707dcfa2a6a", "fusion_lon": 0.0, "rental_uris": {"android": "https://dc.lft.to/lastmile_qr_scan", "ios": "https://dc.lft.to/lastmile_qr_scan"}, "name": "37fb9bf01666dde052a88707dcfa2a6a", "type": "electric_scooter", "lat": 38.9135145, "is_disabled": 0}, {"fusion_lat": 0.0, "lon": -77.023246, "is_reserved": 0, "bike_id": "fe98fb464f91557972b17b44732445b6", "fusion_lon": 0.0, "rental_uris": {"android": "https://dc.lft.to/lastmile_qr_scan", "ios": "https://dc.lft.to/lastmile_qr_scan"}, "name": "fe98fb464f91557972b17b44732445b6", "type": "electric_scooter", "lat": 38.920819, "is_disabled": 0}, {"fusion_lat": 0.0, "lon": -77.02313266666667, "is_reserved": 0, "bike_id": "d8364a10a7914a449cc286c47619320e", "fusion_lon": 0.0, "rental_uris": {"android": "https://dc.lft.to/lastmile_qr_scan", "ios": "https://dc.lft.to/lastmile_qr_scan"}, "name": "d8364a10a7914a449cc286c47619320e", "type": "electric_scooter", "lat": 38.911077, "is_disabled": 0}, {"fusion_lat": 0.0, "lon": -77.08767016666667, "is_reserved": 0, "bike_id": "242c0c637dfbe448cd40073f090fa0c4", "fusion_lon": 0.0, "rental_uris": {"android": "https://dc.lft.to/lastmile_qr_scan", "ios": "https://dc.lft.to/lastmile_qr_scan"}, "name": "242c0c637dfbe448cd40073f090fa0c4", "type": "electric_bike", "lat": 38.839029833333335, "is_disabled": 0}, {"fusion_lat": 0.0, "lon": -77.00919166666667, "is_reserved": 0, "bike_id": "0d1dcc79c4b4218dd09de8b02f433996", "fusion_lon": 0.0, "rental_uris": {"android": "https://dc.lft.to/lastmile_qr_scan", "ios": "https://dc.lft.to/lastmile_qr_scan"}, "name": "0d1dcc79c4b4218dd09de8b02f433996", "type": "electric_scooter", "lat": 38.90176116666667, "is_disabled": 0}, {"fusion_lat": 0.0, "lon": -77.01753233333334, "is_reserved": 0, "bike_id": "3f79984e4dd69c8c6b13d86fb0e99eb3", "fusion_lon": 0.0, "rental_uris": {"android": "https://dc.lft.to/lastmile_qr_scan", "ios": "https://dc.lft.to/lastmile_qr_scan"}, "name": "3f79984e4dd69c8c6b13d86fb0e99eb3", "type": "electric_scooter", "lat": 38.89459166666666, "is_disabled": 0}, {"fusion_lat": 0.0, "lon": -76.96778216666667, "is_reserved": 0, "bike_id": "d2e97f25ba33452c356b2d65a81976ec", "fusion_lon": 0.0, "rental_uris": {"android": "https://dc.lft.to/lastmile_qr_scan", "ios": "https://dc.lft.to/lastmile_qr_scan"}, "name": "d2e97f25ba33452c356b2d65a81976ec", "type": "electric_scooter", "lat": 38.85926166666667, "is_disabled": 0}, {"fusion_lat": 0.0, "lon": -77.02829316666667, "is_reserved": 0, "bike_id": "d0552def1c32e3b1f7500fbab8922e0b", "fusion_lon": 0.0, "rental_uris": {"android": "https://dc.lft.to/lastmile_qr_scan", "ios": "https://dc.lft.to/lastmile_qr_scan"}, "name": "d0552def1c32e3b1f7500fbab8922e0b", "type": "electric_scooter", "lat": 38.96083216666667, "is_disabled": 0}, {"fusion_lat": 0.0, "lon": -76.977094, "is_reserved": 0, "bike_id": "a950711092b7ab6ac03cff558f3ecaa8", "fusion_lon": 0.0, "rental_uris": {"android": "https://dc.lft.to/lastmile_qr_scan", "ios": "https://dc.lft.to/lastmile_qr_scan"}, "name": "a950711092b7ab6ac03cff558f3ecaa8", "type": "electric_scooter", "lat": 38.88776, "is_disabled": 0}, {"fusion_lat": 0.0, "lon": -76.94821183333333, "is_reserved": 0, "bike_id": "2f0b04de6d10d98ae116a739d9fed66c", "fusion_lon": 0.0, "rental_uris": {"android": "https://dc.lft.to/lastmile_qr_scan", "ios": "https://dc.lft.to/lastmile_qr_scan"}, "name": "2f0b04de6d10d98ae116a739d9fed66c", "type": "electric_bike", "lat": 38.8938055, "is_disabled": 0}, {"fusion_lat": 0.0, "lon": -77.033418, "is_reserved": 0, "bike_id": "b8702378aec66b2161ee6278adb87962", "fusion_lon": 0.0, "rental_uris": {"android": "https://dc.lft.to/lastmile_qr_scan", "ios": "https://dc.lft.to/lastmile_qr_scan"}, "name": "b8702378aec66b2161ee6278adb87962", "type": "electric_scooter", "lat": 38.897368, "is_disabled": 0}, {"fusion_lat": 0.0, "lon": -77.01251466666666, "is_reserved": 0, "bike_id": "eb2a15174d413d9c42ebbe0ea6ac7a47", "fusion_lon": 0.0, "rental_uris": {"android": "https://dc.lft.to/lastmile_qr_scan", "ios": "https://dc.lft.to/lastmile_qr_scan"}, "name": "eb2a15174d413d9c42ebbe0ea6ac7a47", "type": "electric_scooter", "lat": 38.830523166666666, "is_disabled": 0}, {"fusion_lat": 0.0, "lon": -76.992761, "is_reserved": 0, "bike_id": "3fb846c6b02bc3ec391b6fd3cdca5689", "fusion_lon": 0.0, "rental_uris": {"android": "https://dc.lft.to/lastmile_qr_scan", "ios": "https://dc.lft.to/lastmile_qr_scan"}, "name": "3fb846c6b02bc3ec391b6fd3cdca5689", "type": "electric_scooter", "lat": 38.88618433333333, "is_disabled": 0}, {"fusion_lat": 0.0, "lon": -77.0448155, "is_reserved": 0, "bike_id": "0d95762212ce1a624a292733f03ce671", "fusion_lon": 0.0, "rental_uris": {"android": "https://dc.lft.to/lastmile_qr_scan", "ios": "https://dc.lft.to/lastmile_qr_scan"}, "name": "0d95762212ce1a624a292733f03ce671", "type": "electric_scooter", "lat": 38.924031, "is_disabled": 0}, {"fusion_lat": 0.0, "lon": -77.03956183333334, "is_reserved": 0, "bike_id": "e7d8f1cdf13ebd88b3de04058429b328", "fusion_lon": 0.0, "rental_uris": {"android": "https://dc.lft.to/lastmile_qr_scan", "ios": "https://dc.lft.to/lastmile_qr_scan"}, "name": "e7d8f1cdf13ebd88b3de04058429b328", "type": "electric_scooter", "lat": 38.89244766666667, "is_disabled": 0}, {"fusion_lat": 0.0, "lon": -77.03523366666667, "is_reserved": 0, "bike_id": "dc8e6d4dfe0bdcf997f36f4662cb94c8", "fusion_lon": 0.0, "rental_uris": {"android": "https://dc.lft.to/lastmile_qr_scan", "ios": "https://dc.lft.to/lastmile_qr_scan"}, "name": "dc8e6d4dfe0bdcf997f36f4662cb94c8", "type": "electric_scooter", "lat": 38.92315083333333, "is_disabled": 0}, {"fusion_lat": 0.0, "lon": -77.05587766666666, "is_reserved": 0, "bike_id": "b394e635c9ab38f46d9579606ca9c314", "fusion_lon": 0.0, "rental_uris": {"android": "https://dc.lft.to/lastmile_qr_scan", "ios": "https://dc.lft.to/lastmile_qr_scan"}, "name": "b394e635c9ab38f46d9579606ca9c314", "type": "electric_scooter", "lat": 38.9361065, "is_disabled": 0}, {"fusion_lat": 0.0, "lon": -77.01722716666667, "is_reserved": 0, "bike_id": "afe9e232b76f6069f825f038c684a774", "fusion_lon": 0.0, "rental_uris": {"android": "https://dc.lft.to/lastmile_qr_scan", "ios": "https://dc.lft.to/lastmile_qr_scan"}, "name": "afe9e232b76f6069f825f038c684a774", "type": "electric_scooter", "lat": 38.91488283333333, "is_disabled": 0}, {"fusion_lat": 0.0, "lon": -77.01984816666666, "is_reserved": 0, "bike_id": "b9e1e4bf967b3290c07d294e518b1819", "fusion_lon": 0.0, "rental_uris": {"android": "https://dc.lft.to/lastmile_qr_scan", "ios": "https://dc.lft.to/lastmile_qr_scan"}, "name": "b9e1e4bf967b3290c07d294e518b1819", "type": "electric_bike", "lat": 38.922699, "is_disabled": 0}, {"fusion_lat": 0.0, "lon": -76.98926916666667, "is_reserved": 0, "bike_id": "632dd7cee6f896f2c2360a0e082fa70e", "fusion_lon": 0.0, "rental_uris": {"android": "https://dc.lft.to/lastmile_qr_scan", "ios": "https://dc.lft.to/lastmile_qr_scan"}, "name": "632dd7cee6f896f2c2360a0e082fa70e", "type": "electric_scooter", "lat": 38.85809966666667, "is_disabled": 0}, {"fusion_lat": 0.0, "lon": -76.90708966666666, "is_reserved": 0, "bike_id": "736ea45f6dbb4cc5869848d8418bf870", "fusion_lon": 0.0, "rental_uris": {"android": "https://dc.lft.to/lastmile_qr_scan", "ios": "https://dc.lft.to/lastmile_qr_scan"}, "name": "736ea45f6dbb4cc5869848d8418bf870", "type": "electric_bike", "lat": 38.89596783333333, "is_disabled": 0}, {"fusion_lat": 0.0, "lon": -77.034402, "is_reserved": 0, "bike_id": "ab1cb4844e6abf774b10f7ac9f777843", "fusion_lon": 0.0, "rental_uris": {"android": "https://dc.lft.to/lastmile_qr_scan", "ios": "https://dc.lft.to/lastmile_qr_scan"}, "name": "ab1cb4844e6abf774b10f7ac9f777843", "type": "electric_scooter", "lat": 38.91801516666666, "is_disabled": 0}, {"fusion_lat": 0.0, "lon": -76.998164, "is_reserved": 0, "bike_id": "b5527ceb9d86934fb884e69209ba5ec0", "fusion_lon": 0.0, "rental_uris": {"android": "https://dc.lft.to/lastmile_qr_scan", "ios": "https://dc.lft.to/lastmile_qr_scan"}, "name": "b5527ceb9d86934fb884e69209ba5ec0", "type": "electric_scooter", "lat": 38.844306333333336, "is_disabled": 0}, {"fusion_lat": 0.0, "lon": -77.00503816666667, "is_reserved": 0, "bike_id": "e618ca44e971e2b99740e73d426747ab", "fusion_lon": 0.0, "rental_uris": {"android": "https://dc.lft.to/lastmile_qr_scan", "ios": "https://dc.lft.to/lastmile_qr_scan"}, "name": "e618ca44e971e2b99740e73d426747ab", "type": "electric_scooter", "lat": 38.8969015, "is_disabled": 0}, {"fusion_lat": 0.0, "lon": -76.99032916666667, "is_reserved": 0, "bike_id": "cfdd4d02c97d7429e76347bd16715465", "fusion_lon": 0.0, "rental_uris": {"android": "https://dc.lft.to/lastmile_qr_scan", "ios": "https://dc.lft.to/lastmile_qr_scan"}, "name": "cfdd4d02c97d7429e76347bd16715465", "type": "electric_scooter", "lat": 38.898525666666664, "is_disabled": 0}, {"fusion_lat": 0.0, "lon": -77.002555, "is_reserved": 0, "bike_id": "b649f5afb75f8f2593d31b8d513f5c47", "fusion_lon": 0.0, "rental_uris": {"android": "https://dc.lft.to/lastmile_qr_scan", "ios": "https://dc.lft.to/lastmile_qr_scan"}, "name": "b649f5afb75f8f2593d31b8d513f5c47", "type": "electric_bike", "lat": 38.952162, "is_disabled": 0}, {"fusion_lat": 0.0, "lon": -77.0216765, "is_reserved": 0, "bike_id": "4132796b132fc3b350280e8fb8fb6a3c", "fusion_lon": 0.0, "rental_uris": {"android": "https://dc.lft.to/lastmile_qr_scan", "ios": "https://dc.lft.to/lastmile_qr_scan"}, "name": "4132796b132fc3b350280e8fb8fb6a3c", "type": "electric_scooter", "lat": 38.91404216666667, "is_disabled": 0}, {"fusion_lat": 0.0, "lon": -77.02233933333333, "is_reserved": 0, "bike_id": "f3de17f73652c082f42785133b8af7cb", "fusion_lon": 0.0, "rental_uris": {"android": "https://dc.lft.to/lastmile_qr_scan", "ios": "https://dc.lft.to/lastmile_qr_scan"}, "name": "f3de17f73652c082f42785133b8af7cb", "type": "electric_scooter", "lat": 38.926135, "is_disabled": 0}, {"fusion_lat": 0.0, "lon": -77.0541595, "is_reserved": 0, "bike_id": "0c6778e94ceaef5959cf27a630006632", "fusion_lon": 0.0, "rental_uris": {"android": "https://dc.lft.to/lastmile_qr_scan", "ios": "https://dc.lft.to/lastmile_qr_scan"}, "name": "0c6778e94ceaef5959cf27a630006632", "type": "electric_scooter", "lat": 38.92788133333333, "is_disabled": 0}, {"fusion_lat": 0.0, "lon": -77.03664566666667, "is_reserved": 0, "bike_id": "d99a0adf1a26132753a8c90af32a2a9c", "fusion_lon": 0.0, "rental_uris": {"android": "https://dc.lft.to/lastmile_qr_scan", "ios": "https://dc.lft.to/lastmile_qr_scan"}, "name": "d99a0adf1a26132753a8c90af32a2a9c", "type": "electric_scooter", "lat": 38.91678116666667, "is_disabled": 0}, {"fusion_lat": 0.0, "lon": -77.003003, "is_reserved": 0, "bike_id": "e3d76c13b215e6a0fb241f102f2ff587", "fusion_lon": 0.0, "rental_uris": {"android": "https://dc.lft.to/lastmile_qr_scan", "ios": "https://dc.lft.to/lastmile_qr_scan"}, "name": "e3d76c13b215e6a0fb241f102f2ff587", "type": "electric_scooter", "lat": 38.91876666666667, "is_disabled": 0}, {"fusion_lat": 0.0, "lon": -77.04458333333334, "is_reserved": 0, "bike_id": "8dd09eba206113da3631de72c632dc90", "fusion_lon": 0.0, "rental_uris": {"android": "https://dc.lft.to/lastmile_qr_scan", "ios": "https://dc.lft.to/lastmile_qr_scan"}, "name": "8dd09eba206113da3631de72c632dc90", "type": "electric_scooter", "lat": 38.90831083333333, "is_disabled": 0}, {"fusion_lat": 0.0, "lon": -77.06854583333333, "is_reserved": 0, "bike_id": "0c001afae705326d01cd11062976e324", "fusion_lon": 0.0, "rental_uris": {"android": "https://dc.lft.to/lastmile_qr_scan", "ios": "https://dc.lft.to/lastmile_qr_scan"}, "name": "0c001afae705326d01cd11062976e324", "type": "electric_scooter", "lat": 38.938182, "is_disabled": 0}, {"fusion_lat": 0.0, "lon": -77.052821, "is_reserved": 0, "bike_id": "2e663f7579f42632f7632fe9ac10f5dd", "fusion_lon": 0.0, "rental_uris": {"android": "https://dc.lft.to/lastmile_qr_scan", "ios": "https://dc.lft.to/lastmile_qr_scan"}, "name": "2e663f7579f42632f7632fe9ac10f5dd", "type": "electric_scooter", "lat": 38.92545883333333, "is_disabled": 0}, {"fusion_lat": 0.0, "lon": -77.01766416666666, "is_reserved": 0, "bike_id": "2c04c2bfe4e1c368ae515baa8611e4de", "fusion_lon": 0.0, "rental_uris": {"android": "https://dc.lft.to/lastmile_qr_scan", "ios": "https://dc.lft.to/lastmile_qr_scan"}, "name": "2c04c2bfe4e1c368ae515baa8611e4de", "type": "electric_scooter", "lat": 38.921031, "is_disabled": 0}, {"fusion_lat": 0.0, "lon": -76.98113183333334, "is_reserved": 0, "bike_id": "84e9ca0c9930161f693ce716435c787e", "fusion_lon": 0.0, "rental_uris": {"android": "https://dc.lft.to/lastmile_qr_scan", "ios": "https://dc.lft.to/lastmile_qr_scan"}, "name": "84e9ca0c9930161f693ce716435c787e", "type": "electric_scooter", "lat": 38.903947, "is_disabled": 0}, {"fusion_lat": 0.0, "lon": -77.048629, "is_reserved": 0, "bike_id": "28e82b564edbff8a01a0a87d584d2e97", "fusion_lon": 0.0, "rental_uris": {"android": "https://dc.lft.to/lastmile_qr_scan", "ios": "https://dc.lft.to/lastmile_qr_scan"}, "name": "28e82b564edbff8a01a0a87d584d2e97", "type": "electric_scooter", "lat": 38.9095565, "is_disabled": 0}, {"fusion_lat": 0.0, "lon": -76.9835645, "is_reserved": 0, "bike_id": "2e94f0a658b53cc18525549dca26650e", "fusion_lon": 0.0, "rental_uris": {"android": "https://dc.lft.to/lastmile_qr_scan", "ios": "https://dc.lft.to/lastmile_qr_scan"}, "name": "2e94f0a658b53cc18525549dca26650e", "type": "electric_scooter", "lat": 38.88745083333333, "is_disabled": 0}, {"fusion_lat": 0.0, "lon": -76.9848025, "is_reserved": 0, "bike_id": "9c77e50beb28027c84236c47cc5ee725", "fusion_lon": 0.0, "rental_uris": {"android": "https://dc.lft.to/lastmile_qr_scan", "ios": "https://dc.lft.to/lastmile_qr_scan"}, "name": "9c77e50beb28027c84236c47cc5ee725", "type": "electric_bike", "lat": 38.91092366666667, "is_disabled": 0}, {"fusion_lat": 0.0, "lon": -77.01772083333333, "is_reserved": 0, "bike_id": "4f79056d039d342d7fb20ebcf63305cd", "fusion_lon": 0.0, "rental_uris": {"android": "https://dc.lft.to/lastmile_qr_scan", "ios": "https://dc.lft.to/lastmile_qr_scan"}, "name": "4f79056d039d342d7fb20ebcf63305cd", "type": "electric_scooter", "lat": 38.88280533333333, "is_disabled": 0}, {"fusion_lat": 0.0, "lon": -77.03468766666667, "is_reserved": 0, "bike_id": "45fcde868c65c141bb7aba3476d658e7", "fusion_lon": 0.0, "rental_uris": {"android": "https://dc.lft.to/lastmile_qr_scan", "ios": "https://dc.lft.to/lastmile_qr_scan"}, "name": "45fcde868c65c141bb7aba3476d658e7", "type": "electric_scooter", "lat": 38.913993, "is_disabled": 0}, {"fusion_lat": 0.0, "lon": -77.04654716666667, "is_reserved": 0, "bike_id": "aba6d8713706496b4349d4dba15a2421", "fusion_lon": 0.0, "rental_uris": {"android": "https://dc.lft.to/lastmile_qr_scan", "ios": "https://dc.lft.to/lastmile_qr_scan"}, "name": "aba6d8713706496b4349d4dba15a2421", "type": "electric_scooter", "lat": 38.913671, "is_disabled": 0}, {"fusion_lat": 0.0, "lon": -77.046896, "is_reserved": 0, "bike_id": "3a47549219a66547c8a0349c997771a0", "fusion_lon": 0.0, "rental_uris": {"android": "https://dc.lft.to/lastmile_qr_scan", "ios": "https://dc.lft.to/lastmile_qr_scan"}, "name": "3a47549219a66547c8a0349c997771a0", "type": "electric_scooter", "lat": 38.902344166666666, "is_disabled": 0}, {"fusion_lat": 0.0, "lon": -76.99842683333334, "is_reserved": 0, "bike_id": "0237fc13e3a396d2dfc49ff92cf29d12", "fusion_lon": 0.0, "rental_uris": {"android": "https://dc.lft.to/lastmile_qr_scan", "ios": "https://dc.lft.to/lastmile_qr_scan"}, "name": "0237fc13e3a396d2dfc49ff92cf29d12", "type": "electric_scooter", "lat": 38.890802666666666, "is_disabled": 0}, {"fusion_lat": 0.0, "lon": -77.03928033333334, "is_reserved": 0, "bike_id": "2df02e2051e10a110bd1a1072b6229d2", "fusion_lon": 0.0, "rental_uris": {"android": "https://dc.lft.to/lastmile_qr_scan", "ios": "https://dc.lft.to/lastmile_qr_scan"}, "name": "2df02e2051e10a110bd1a1072b6229d2", "type": "electric_scooter", "lat": 38.92496166666667, "is_disabled": 0}, {"fusion_lat": 0.0, "lon": -77.02458883333334, "is_reserved": 0, "bike_id": "7cbcb1f3830b5481f17b8c746ead38a8", "fusion_lon": 0.0, "rental_uris": {"android": "https://dc.lft.to/lastmile_qr_scan", "ios": "https://dc.lft.to/lastmile_qr_scan"}, "name": "7cbcb1f3830b5481f17b8c746ead38a8", "type": "electric_scooter", "lat": 38.924005666666666, "is_disabled": 0}, {"fusion_lat": 0.0, "lon": -76.98273433333334, "is_reserved": 0, "bike_id": "209f4c92979c0b9d815b96ca637ffbb7", "fusion_lon": 0.0, "rental_uris": {"android": "https://dc.lft.to/lastmile_qr_scan", "ios": "https://dc.lft.to/lastmile_qr_scan"}, "name": "209f4c92979c0b9d815b96ca637ffbb7", "type": "electric_scooter", "lat": 38.885297666666666, "is_disabled": 0}, {"fusion_lat": 0.0, "lon": -76.98715083333333, "is_reserved": 0, "bike_id": "aae66b3561a35334b5e184546a3af9a9", "fusion_lon": 0.0, "rental_uris": {"android": "https://dc.lft.to/lastmile_qr_scan", "ios": "https://dc.lft.to/lastmile_qr_scan"}, "name": "aae66b3561a35334b5e184546a3af9a9", "type": "electric_scooter", "lat": 38.86627216666667, "is_disabled": 0}, {"fusion_lat": 0.0, "lon": -76.98370683333333, "is_reserved": 0, "bike_id": "ab7da8cb496791598b63201dc752a40a", "fusion_lon": 0.0, "rental_uris": {"android": "https://dc.lft.to/lastmile_qr_scan", "ios": "https://dc.lft.to/lastmile_qr_scan"}, "name": "ab7da8cb496791598b63201dc752a40a", "type": "electric_scooter", "lat": 38.9065415, "is_disabled": 0}, {"fusion_lat": 0.0, "lon": -77.00345083333333, "is_reserved": 0, "bike_id": "9019bcb2786d1421ec69ded8c7f2b933", "fusion_lon": 0.0, "rental_uris": {"android": "https://dc.lft.to/lastmile_qr_scan", "ios": "https://dc.lft.to/lastmile_qr_scan"}, "name": "9019bcb2786d1421ec69ded8c7f2b933", "type": "electric_scooter", "lat": 38.88700433333333, "is_disabled": 0}, {"fusion_lat": 0.0, "lon": -76.99799916666667, "is_reserved": 0, "bike_id": "39d9f29d14d0cf3e8be658fcdc32fe5d", "fusion_lon": 0.0, "rental_uris": {"android": "https://dc.lft.to/lastmile_qr_scan", "ios": "https://dc.lft.to/lastmile_qr_scan"}, "name": "39d9f29d14d0cf3e8be658fcdc32fe5d", "type": "electric_scooter", "lat": 38.90019366666667, "is_disabled": 0}, {"fusion_lat": 0.0, "lon": -77.05816883333334, "is_reserved": 0, "bike_id": "848d09c773341b6a0ca9b9a3ccd3488c", "fusion_lon": 0.0, "rental_uris": {"android": "https://dc.lft.to/lastmile_qr_scan", "ios": "https://dc.lft.to/lastmile_qr_scan"}, "name": "848d09c773341b6a0ca9b9a3ccd3488c", "type": "electric_scooter", "lat": 38.9353275, "is_disabled": 0}, {"fusion_lat": 0.0, "lon": -77.03486683333334, "is_reserved": 0, "bike_id": "356c34656f5f80d0cebe0d228b34da0c", "fusion_lon": 0.0, "rental_uris": {"android": "https://dc.lft.to/lastmile_qr_scan", "ios": "https://dc.lft.to/lastmile_qr_scan"}, "name": "356c34656f5f80d0cebe0d228b34da0c", "type": "electric_scooter", "lat": 38.91887583333333, "is_disabled": 0}, {"fusion_lat": 0.0, "lon": -76.95183883333333, "is_reserved": 0, "bike_id": "b140e51a5a69fe4c60ce142b62be5dce", "fusion_lon": 0.0, "rental_uris": {"android": "https://dc.lft.to/lastmile_qr_scan", "ios": "https://dc.lft.to/lastmile_qr_scan"}, "name": "b140e51a5a69fe4c60ce142b62be5dce", "type": "electric_scooter", "lat": 38.907387, "is_disabled": 0}, {"fusion_lat": 0.0, "lon": -77.00467383333333, "is_reserved": 0, "bike_id": "a15f964737e489cf1a51df15f1f8e094", "fusion_lon": 0.0, "rental_uris": {"android": "https://dc.lft.to/lastmile_qr_scan", "ios": "https://dc.lft.to/lastmile_qr_scan"}, "name": "a15f964737e489cf1a51df15f1f8e094", "type": "electric_scooter", "lat": 38.8765615, "is_disabled": 0}, {"fusion_lat": 0.0, "lon": -77.022911, "is_reserved": 0, "bike_id": "158c34defba9eae78fd8bdc252431553", "fusion_lon": 0.0, "rental_uris": {"android": "https://dc.lft.to/lastmile_qr_scan", "ios": "https://dc.lft.to/lastmile_qr_scan"}, "name": "158c34defba9eae78fd8bdc252431553", "type": "electric_scooter", "lat": 38.89705933333333, "is_disabled": 0}, {"fusion_lat": 0.0, "lon": -77.07009816666667, "is_reserved": 0, "bike_id": "c82f6cd6cd302cf3145feac006b5e7f5", "fusion_lon": 0.0, "rental_uris": {"android": "https://dc.lft.to/lastmile_qr_scan", "ios": "https://dc.lft.to/lastmile_qr_scan"}, "name": "c82f6cd6cd302cf3145feac006b5e7f5", "type": "electric_bike", "lat": 38.9186255, "is_disabled": 0}, {"fusion_lat": 0.0, "lon": -77.0467555, "is_reserved": 0, "bike_id": "95b8d6307304e110eb0bd885566bc8c1", "fusion_lon": 0.0, "rental_uris": {"android": "https://dc.lft.to/lastmile_qr_scan", "ios": "https://dc.lft.to/lastmile_qr_scan"}, "name": "95b8d6307304e110eb0bd885566bc8c1", "type": "electric_scooter", "lat": 38.905886333333335, "is_disabled": 0}, {"fusion_lat": 0.0, "lon": -76.996133, "is_reserved": 0, "bike_id": "04192e7ad119955e09b975480b3719d4", "fusion_lon": 0.0, "rental_uris": {"android": "https://dc.lft.to/lastmile_qr_scan", "ios": "https://dc.lft.to/lastmile_qr_scan"}, "name": "04192e7ad119955e09b975480b3719d4", "type": "electric_scooter", "lat": 38.886186, "is_disabled": 0}, {"fusion_lat": 0.0, "lon": -76.98981883333333, "is_reserved": 0, "bike_id": "8b90ed17a2d0a20174182597679bf51e", "fusion_lon": 0.0, "rental_uris": {"android": "https://dc.lft.to/lastmile_qr_scan", "ios": "https://dc.lft.to/lastmile_qr_scan"}, "name": "8b90ed17a2d0a20174182597679bf51e", "type": "electric_scooter", "lat": 38.856897833333335, "is_disabled": 0}, {"fusion_lat": 0.0, "lon": -77.02350416666667, "is_reserved": 0, "bike_id": "3d8240406eadafbe7fa5d1a78c31fa11", "fusion_lon": 0.0, "rental_uris": {"android": "https://dc.lft.to/lastmile_qr_scan", "ios": "https://dc.lft.to/lastmile_qr_scan"}, "name": "3d8240406eadafbe7fa5d1a78c31fa11", "type": "electric_scooter", "lat": 38.9461255, "is_disabled": 0}, {"fusion_lat": 0.0, "lon": -76.97728833333333, "is_reserved": 0, "bike_id": "015b0d8e9b3ffdcfde2cf35ff2788766", "fusion_lon": 0.0, "rental_uris": {"android": "https://dc.lft.to/lastmile_qr_scan", "ios": "https://dc.lft.to/lastmile_qr_scan"}, "name": "015b0d8e9b3ffdcfde2cf35ff2788766", "type": "electric_scooter", "lat": 38.87244416666667, "is_disabled": 0}, {"fusion_lat": 0.0, "lon": -77.02142733333334, "is_reserved": 0, "bike_id": "7cb550ab1a54a998e30fca1cb744a99b", "fusion_lon": 0.0, "rental_uris": {"android": "https://dc.lft.to/lastmile_qr_scan", "ios": "https://dc.lft.to/lastmile_qr_scan"}, "name": "7cb550ab1a54a998e30fca1cb744a99b", "type": "electric_scooter", "lat": 38.92573816666667, "is_disabled": 0}, {"fusion_lat": 0.0, "lon": -76.990621, "is_reserved": 0, "bike_id": "6c01c8fe8526c431afd20decf41dada9", "fusion_lon": 0.0, "rental_uris": {"android": "https://dc.lft.to/lastmile_qr_scan", "ios": "https://dc.lft.to/lastmile_qr_scan"}, "name": "6c01c8fe8526c431afd20decf41dada9", "type": "electric_scooter", "lat": 38.86364316666667, "is_disabled": 0}, {"fusion_lat": 0.0, "lon": -77.02357766666667, "is_reserved": 0, "bike_id": "f25613178f9dec929e577ddc419ab3fd", "fusion_lon": 0.0, "rental_uris": {"android": "https://dc.lft.to/lastmile_qr_scan", "ios": "https://dc.lft.to/lastmile_qr_scan"}, "name": "f25613178f9dec929e577ddc419ab3fd", "type": "electric_scooter", "lat": 38.93068266666667, "is_disabled": 0}, {"fusion_lat": 0.0, "lon": -77.00468016666666, "is_reserved": 0, "bike_id": "034181c3de00db23a754b56657641759", "fusion_lon": 0.0, "rental_uris": {"android": "https://dc.lft.to/lastmile_qr_scan", "ios": "https://dc.lft.to/lastmile_qr_scan"}, "name": "034181c3de00db23a754b56657641759", "type": "electric_scooter", "lat": 38.876662333333336, "is_disabled": 0}, {"fusion_lat": 0.0, "lon": -77.044398, "is_reserved": 0, "bike_id": "bce3e63dc9fd64f8b9f3e91ab3a26016", "fusion_lon": 0.0, "rental_uris": {"android": "https://dc.lft.to/lastmile_qr_scan", "ios": "https://dc.lft.to/lastmile_qr_scan"}, "name": "bce3e63dc9fd64f8b9f3e91ab3a26016", "type": "electric_scooter", "lat": 38.92170333333333, "is_disabled": 0}, {"fusion_lat": 0.0, "lon": -77.0210175, "is_reserved": 0, "bike_id": "d126daa2cbd101ac9c50df868e7e36f2", "fusion_lon": 0.0, "rental_uris": {"android": "https://dc.lft.to/lastmile_qr_scan", "ios": "https://dc.lft.to/lastmile_qr_scan"}, "name": "d126daa2cbd101ac9c50df868e7e36f2", "type": "electric_scooter", "lat": 38.921529, "is_disabled": 0}, {"fusion_lat": 0.0, "lon": -76.99926616666667, "is_reserved": 0, "bike_id": "12c090b55cb4b3760b94ac9854583113", "fusion_lon": 0.0, "rental_uris": {"android": "https://dc.lft.to/lastmile_qr_scan", "ios": "https://dc.lft.to/lastmile_qr_scan"}, "name": "12c090b55cb4b3760b94ac9854583113", "type": "electric_scooter", "lat": 38.946866666666665, "is_disabled": 0}, {"fusion_lat": 0.0, "lon": -77.0279285, "is_reserved": 0, "bike_id": "75316d1bc758b4cbef305d5f25cf055e", "fusion_lon": 0.0, "rental_uris": {"android": "https://dc.lft.to/lastmile_qr_scan", "ios": "https://dc.lft.to/lastmile_qr_scan"}, "name": "75316d1bc758b4cbef305d5f25cf055e", "type": "electric_scooter", "lat": 38.930849, "is_disabled": 0}, {"fusion_lat": 0.0, "lon": -77.032224, "is_reserved": 0, "bike_id": "f9737605516d12ac2dbb7eeddf399bfd", "fusion_lon": 0.0, "rental_uris": {"android": "https://dc.lft.to/lastmile_qr_scan", "ios": "https://dc.lft.to/lastmile_qr_scan"}, "name": "f9737605516d12ac2dbb7eeddf399bfd", "type": "electric_scooter", "lat": 38.917882, "is_disabled": 0}, {"fusion_lat": 0.0, "lon": -77.00929683333334, "is_reserved": 0, "bike_id": "7d403dc4d2f2d1018f2b1371e121f554", "fusion_lon": 0.0, "rental_uris": {"android": "https://dc.lft.to/lastmile_qr_scan", "ios": "https://dc.lft.to/lastmile_qr_scan"}, "name": "7d403dc4d2f2d1018f2b1371e121f554", "type": "electric_scooter", "lat": 38.91807766666667, "is_disabled": 0}, {"fusion_lat": 0.0, "lon": -77.03840716666667, "is_reserved": 0, "bike_id": "9937b77cba2371b1546438fff8d0e538", "fusion_lon": 0.0, "rental_uris": {"android": "https://dc.lft.to/lastmile_qr_scan", "ios": "https://dc.lft.to/lastmile_qr_scan"}, "name": "9937b77cba2371b1546438fff8d0e538", "type": "electric_scooter", "lat": 38.91278616666666, "is_disabled": 0}, {"fusion_lat": 0.0, "lon": -76.97799316666666, "is_reserved": 0, "bike_id": "2813c4ae094df5e5da3333c52ebe127c", "fusion_lon": 0.0, "rental_uris": {"android": "https://dc.lft.to/lastmile_qr_scan", "ios": "https://dc.lft.to/lastmile_qr_scan"}, "name": "2813c4ae094df5e5da3333c52ebe127c", "type": "electric_scooter", "lat": 38.90315866666667, "is_disabled": 0}, {"fusion_lat": 0.0, "lon": -77.03189033333334, "is_reserved": 0, "bike_id": "b96e37c73d53c281edf285bd3e451ee0", "fusion_lon": 0.0, "rental_uris": {"android": "https://dc.lft.to/lastmile_qr_scan", "ios": "https://dc.lft.to/lastmile_qr_scan"}, "name": "b96e37c73d53c281edf285bd3e451ee0", "type": "electric_scooter", "lat": 38.92111116666667, "is_disabled": 0}, {"fusion_lat": 0.0, "lon": -77.03442016666666, "is_reserved": 0, "bike_id": "90bb8f0806518f05af3c5bec9d0c1f0b", "fusion_lon": 0.0, "rental_uris": {"android": "https://dc.lft.to/lastmile_qr_scan", "ios": "https://dc.lft.to/lastmile_qr_scan"}, "name": "90bb8f0806518f05af3c5bec9d0c1f0b", "type": "electric_scooter", "lat": 38.909724833333335, "is_disabled": 0}, {"fusion_lat": 0.0, "lon": -77.03305683333333, "is_reserved": 0, "bike_id": "2121b6645648d3b0c995a152fc406dc3", "fusion_lon": 0.0, "rental_uris": {"android": "https://dc.lft.to/lastmile_qr_scan", "ios": "https://dc.lft.to/lastmile_qr_scan"}, "name": "2121b6645648d3b0c995a152fc406dc3", "type": "electric_scooter", "lat": 38.956368, "is_disabled": 0}, {"fusion_lat": 0.0, "lon": -77.029453, "is_reserved": 0, "bike_id": "3b8d72e9a8a805f0265f5a374cc9055d", "fusion_lon": 0.0, "rental_uris": {"android": "https://dc.lft.to/lastmile_qr_scan", "ios": "https://dc.lft.to/lastmile_qr_scan"}, "name": "3b8d72e9a8a805f0265f5a374cc9055d", "type": "electric_scooter", "lat": 38.89620033333333, "is_disabled": 0}, {"fusion_lat": 0.0, "lon": -77.058857, "is_reserved": 0, "bike_id": "531eeddc4e569df9fe292c3717575c42", "fusion_lon": 0.0, "rental_uris": {"android": "https://dc.lft.to/lastmile_qr_scan", "ios": "https://dc.lft.to/lastmile_qr_scan"}, "name": "531eeddc4e569df9fe292c3717575c42", "type": "electric_scooter", "lat": 38.942956, "is_disabled": 0}, {"fusion_lat": 0.0, "lon": -77.02632366666667, "is_reserved": 0, "bike_id": "79714f4a24fab6f1e72c32c2d7138848", "fusion_lon": 0.0, "rental_uris": {"android": "https://dc.lft.to/lastmile_qr_scan", "ios": "https://dc.lft.to/lastmile_qr_scan"}, "name": "79714f4a24fab6f1e72c32c2d7138848", "type": "electric_scooter", "lat": 38.91705283333334, "is_disabled": 0}, {"fusion_lat": 0.0, "lon": -77.02774083333334, "is_reserved": 0, "bike_id": "fce7f3ea94bdcf3ff4f76619bbb9877a", "fusion_lon": 0.0, "rental_uris": {"android": "https://dc.lft.to/lastmile_qr_scan", "ios": "https://dc.lft.to/lastmile_qr_scan"}, "name": "fce7f3ea94bdcf3ff4f76619bbb9877a", "type": "electric_scooter", "lat": 38.95419833333333, "is_disabled": 0}, {"fusion_lat": 0.0, "lon": -76.99091866666667, "is_reserved": 0, "bike_id": "20bdbf591fc78ab8a78aa41a59cbd796", "fusion_lon": 0.0, "rental_uris": {"android": "https://dc.lft.to/lastmile_qr_scan", "ios": "https://dc.lft.to/lastmile_qr_scan"}, "name": "20bdbf591fc78ab8a78aa41a59cbd796", "type": "electric_bike", "lat": 38.86238633333333, "is_disabled": 0}, {"fusion_lat": 0.0, "lon": -76.9995385, "is_reserved": 0, "bike_id": "7beedac2bfebfd3347dcd51ab5c16839", "fusion_lon": 0.0, "rental_uris": {"android": "https://dc.lft.to/lastmile_qr_scan", "ios": "https://dc.lft.to/lastmile_qr_scan"}, "name": "7beedac2bfebfd3347dcd51ab5c16839", "type": "electric_scooter", "lat": 38.92352366666667, "is_disabled": 0}, {"fusion_lat": 0.0, "lon": -77.043078, "is_reserved": 0, "bike_id": "dc7d4d26e897552abb800dbdc5d45c72", "fusion_lon": 0.0, "rental_uris": {"android": "https://dc.lft.to/lastmile_qr_scan", "ios": "https://dc.lft.to/lastmile_qr_scan"}, "name": "dc7d4d26e897552abb800dbdc5d45c72", "type": "electric_scooter", "lat": 38.92330033333333, "is_disabled": 0}, {"fusion_lat": 0.0, "lon": -77.0254735, "is_reserved": 0, "bike_id": "bf835ff581e8d4c730e8e2319356dcc3", "fusion_lon": 0.0, "rental_uris": {"android": "https://dc.lft.to/lastmile_qr_scan", "ios": "https://dc.lft.to/lastmile_qr_scan"}, "name": "bf835ff581e8d4c730e8e2319356dcc3", "type": "electric_scooter", "lat": 38.942231, "is_disabled": 0}, {"fusion_lat": 0.0, "lon": -77.024217, "is_reserved": 0, "bike_id": "bdea105ab0d8318711632785544dc34f", "fusion_lon": 0.0, "rental_uris": {"android": "https://dc.lft.to/lastmile_qr_scan", "ios": "https://dc.lft.to/lastmile_qr_scan"}, "name": "bdea105ab0d8318711632785544dc34f", "type": "electric_scooter", "lat": 38.93707933333334, "is_disabled": 0}, {"fusion_lat": 0.0, "lon": -77.02604833333334, "is_reserved": 0, "bike_id": "e655ea26fd38fbd746c2f6e7021942ab", "fusion_lon": 0.0, "rental_uris": {"android": "https://dc.lft.to/lastmile_qr_scan", "ios": "https://dc.lft.to/lastmile_qr_scan"}, "name": "e655ea26fd38fbd746c2f6e7021942ab", "type": "electric_bike", "lat": 38.91652366666667, "is_disabled": 0}, {"fusion_lat": 0.0, "lon": -77.013918, "is_reserved": 0, "bike_id": "dc50d946f8bb91f4a22b00c23819f0ca", "fusion_lon": 0.0, "rental_uris": {"android": "https://dc.lft.to/lastmile_qr_scan", "ios": "https://dc.lft.to/lastmile_qr_scan"}, "name": "dc50d946f8bb91f4a22b00c23819f0ca", "type": "electric_scooter", "lat": 38.88729816666667, "is_disabled": 0}, {"fusion_lat": 0.0, "lon": -77.03088666666666, "is_reserved": 0, "bike_id": "80308c2763b4c803ff2544a47f99da53", "fusion_lon": 0.0, "rental_uris": {"android": "https://dc.lft.to/lastmile_qr_scan", "ios": "https://dc.lft.to/lastmile_qr_scan"}, "name": "80308c2763b4c803ff2544a47f99da53", "type": "electric_scooter", "lat": 38.92237866666667, "is_disabled": 0}, {"fusion_lat": 0.0, "lon": -77.03550616666666, "is_reserved": 0, "bike_id": "49bc5d9431142925e4563619f7be82f9", "fusion_lon": 0.0, "rental_uris": {"android": "https://dc.lft.to/lastmile_qr_scan", "ios": "https://dc.lft.to/lastmile_qr_scan"}, "name": "49bc5d9431142925e4563619f7be82f9", "type": "electric_scooter", "lat": 38.92421366666667, "is_disabled": 0}, {"fusion_lat": 0.0, "lon": -77.1310305, "is_reserved": 0, "bike_id": "9714618837a81d630c01ab3570e3dff5", "fusion_lon": 0.0, "rental_uris": {"android": "https://dc.lft.to/lastmile_qr_scan", "ios": "https://dc.lft.to/lastmile_qr_scan"}, "name": "9714618837a81d630c01ab3570e3dff5", "type": "electric_bike", "lat": 39.024292, "is_disabled": 0}, {"fusion_lat": 0.0, "lon": -77.0236725, "is_reserved": 0, "bike_id": "41a39c4b203743815e0ff8c0dd8e0683", "fusion_lon": 0.0, "rental_uris": {"android": "https://dc.lft.to/lastmile_qr_scan", "ios": "https://dc.lft.to/lastmile_qr_scan"}, "name": "41a39c4b203743815e0ff8c0dd8e0683", "type": "electric_scooter", "lat": 38.899935166666666, "is_disabled": 0}, {"fusion_lat": 0.0, "lon": -77.06078583333333, "is_reserved": 0, "bike_id": "73a5c0c90cde9ec6f08705a50b0bc178", "fusion_lon": 0.0, "rental_uris": {"android": "https://dc.lft.to/lastmile_qr_scan", "ios": "https://dc.lft.to/lastmile_qr_scan"}, "name": "73a5c0c90cde9ec6f08705a50b0bc178", "type": "electric_bike", "lat": 38.8858745, "is_disabled": 0}, {"fusion_lat": 0.0, "lon": -76.99528466666666, "is_reserved": 0, "bike_id": "fb0d97b59e99918178a3d4ab3cf3b89e", "fusion_lon": 0.0, "rental_uris": {"android": "https://dc.lft.to/lastmile_qr_scan", "ios": "https://dc.lft.to/lastmile_qr_scan"}, "name": "fb0d97b59e99918178a3d4ab3cf3b89e", "type": "electric_scooter", "lat": 38.877628, "is_disabled": 0}, {"fusion_lat": 0.0, "lon": -77.09598483333333, "is_reserved": 0, "bike_id": "21a696c330d7c573ae848dbc6c6b09de", "fusion_lon": 0.0, "rental_uris": {"android": "https://dc.lft.to/lastmile_qr_scan", "ios": "https://dc.lft.to/lastmile_qr_scan"}, "name": "21a696c330d7c573ae848dbc6c6b09de", "type": "electric_bike", "lat": 39.0288915, "is_disabled": 0}, {"fusion_lat": 0.0, "lon": -77.00580116666667, "is_reserved": 0, "bike_id": "d49651cfaef3a0e230fe6ed1719248a3", "fusion_lon": 0.0, "rental_uris": {"android": "https://dc.lft.to/lastmile_qr_scan", "ios": "https://dc.lft.to/lastmile_qr_scan"}, "name": "d49651cfaef3a0e230fe6ed1719248a3", "type": "electric_scooter", "lat": 38.906762, "is_disabled": 0}, {"fusion_lat": 0.0, "lon": -77.03314233333333, "is_reserved": 0, "bike_id": "86d853aff4f86a8776d0c239d9127964", "fusion_lon": 0.0, "rental_uris": {"android": "https://dc.lft.to/lastmile_qr_scan", "ios": "https://dc.lft.to/lastmile_qr_scan"}, "name": "86d853aff4f86a8776d0c239d9127964", "type": "electric_scooter", "lat": 38.90154116666667, "is_disabled": 0}, {"fusion_lat": 0.0, "lon": -77.02174033333333, "is_reserved": 0, "bike_id": "70329c9446f43b9de40d983448620d03", "fusion_lon": 0.0, "rental_uris": {"android": "https://dc.lft.to/lastmile_qr_scan", "ios": "https://dc.lft.to/lastmile_qr_scan"}, "name": "70329c9446f43b9de40d983448620d03", "type": "electric_scooter", "lat": 38.915538, "is_disabled": 0}, {"fusion_lat": 0.0, "lon": -77.00697316666667, "is_reserved": 0, "bike_id": "9543af20dcd6d66ac36641013211ccd7", "fusion_lon": 0.0, "rental_uris": {"android": "https://dc.lft.to/lastmile_qr_scan", "ios": "https://dc.lft.to/lastmile_qr_scan"}, "name": "9543af20dcd6d66ac36641013211ccd7", "type": "electric_scooter", "lat": 38.9524145, "is_disabled": 0}, {"fusion_lat": 0.0, "lon": -77.0141805, "is_reserved": 0, "bike_id": "f957fb58eec665c5b416a443c11ec653", "fusion_lon": 0.0, "rental_uris": {"android": "https://dc.lft.to/lastmile_qr_scan", "ios": "https://dc.lft.to/lastmile_qr_scan"}, "name": "f957fb58eec665c5b416a443c11ec653", "type": "electric_scooter", "lat": 38.928262833333335, "is_disabled": 0}, {"fusion_lat": 0.0, "lon": -76.99036416666667, "is_reserved": 0, "bike_id": "181cf961b3a576babb965302bb894014", "fusion_lon": 0.0, "rental_uris": {"android": "https://dc.lft.to/lastmile_qr_scan", "ios": "https://dc.lft.to/lastmile_qr_scan"}, "name": "181cf961b3a576babb965302bb894014", "type": "electric_bike", "lat": 38.93757883333333, "is_disabled": 0}, {"fusion_lat": 0.0, "lon": -77.03439733333333, "is_reserved": 0, "bike_id": "547eaff2e5ba77fb8665bf68462093d1", "fusion_lon": 0.0, "rental_uris": {"android": "https://dc.lft.to/lastmile_qr_scan", "ios": "https://dc.lft.to/lastmile_qr_scan"}, "name": "547eaff2e5ba77fb8665bf68462093d1", "type": "electric_scooter", "lat": 38.9036715, "is_disabled": 0}, {"fusion_lat": 0.0, "lon": -77.01514866666666, "is_reserved": 0, "bike_id": "34c96bc5ae70a3aca9f6ac3ef0faf157", "fusion_lon": 0.0, "rental_uris": {"android": "https://dc.lft.to/lastmile_qr_scan", "ios": "https://dc.lft.to/lastmile_qr_scan"}, "name": "34c96bc5ae70a3aca9f6ac3ef0faf157", "type": "electric_scooter", "lat": 38.892447833333335, "is_disabled": 0}, {"fusion_lat": 0.0, "lon": -77.03208766666667, "is_reserved": 0, "bike_id": "e94597a243e4adf28c46758a2ee0d8da", "fusion_lon": 0.0, "rental_uris": {"android": "https://dc.lft.to/lastmile_qr_scan", "ios": "https://dc.lft.to/lastmile_qr_scan"}, "name": "e94597a243e4adf28c46758a2ee0d8da", "type": "electric_scooter", "lat": 38.91176016666667, "is_disabled": 0}, {"fusion_lat": 0.0, "lon": -77.03669266666667, "is_reserved": 0, "bike_id": "1042f137570cce4322a8c16656641cb9", "fusion_lon": 0.0, "rental_uris": {"android": "https://dc.lft.to/lastmile_qr_scan", "ios": "https://dc.lft.to/lastmile_qr_scan"}, "name": "1042f137570cce4322a8c16656641cb9", "type": "electric_scooter", "lat": 38.9272695, "is_disabled": 0}, {"fusion_lat": 0.0, "lon": -77.017587, "is_reserved": 0, "bike_id": "72c873b4e003f33ac8695d6bffdb3074", "fusion_lon": 0.0, "rental_uris": {"android": "https://dc.lft.to/lastmile_qr_scan", "ios": "https://dc.lft.to/lastmile_qr_scan"}, "name": "72c873b4e003f33ac8695d6bffdb3074", "type": "electric_scooter", "lat": 38.88590816666667, "is_disabled": 0}, {"fusion_lat": 0.0, "lon": -77.02716283333334, "is_reserved": 0, "bike_id": "d20ba27bd590c40d600b47183ab68dbf", "fusion_lon": 0.0, "rental_uris": {"android": "https://dc.lft.to/lastmile_qr_scan", "ios": "https://dc.lft.to/lastmile_qr_scan"}, "name": "d20ba27bd590c40d600b47183ab68dbf", "type": "electric_scooter", "lat": 38.9245885, "is_disabled": 0}, {"fusion_lat": 0.0, "lon": -77.0661455, "is_reserved": 0, "bike_id": "a439f11f7ee169395d736758ed08b03a", "fusion_lon": 0.0, "rental_uris": {"android": "https://dc.lft.to/lastmile_qr_scan", "ios": "https://dc.lft.to/lastmile_qr_scan"}, "name": "a439f11f7ee169395d736758ed08b03a", "type": "electric_scooter", "lat": 38.903809833333334, "is_disabled": 0}, {"fusion_lat": 0.0, "lon": -77.03095633333334, "is_reserved": 0, "bike_id": "a5f7fd0f9310cce440d8d607bdcc8177", "fusion_lon": 0.0, "rental_uris": {"android": "https://dc.lft.to/lastmile_qr_scan", "ios": "https://dc.lft.to/lastmile_qr_scan"}, "name": "a5f7fd0f9310cce440d8d607bdcc8177", "type": "electric_scooter", "lat": 38.90412366666666, "is_disabled": 0}, {"fusion_lat": 0.0, "lon": -77.03435316666666, "is_reserved": 0, "bike_id": "543d62b2f58a60165c7d48eb5eb72e09", "fusion_lon": 0.0, "rental_uris": {"android": "https://dc.lft.to/lastmile_qr_scan", "ios": "https://dc.lft.to/lastmile_qr_scan"}, "name": "543d62b2f58a60165c7d48eb5eb72e09", "type": "electric_bike", "lat": 38.965236833333336, "is_disabled": 0}, {"fusion_lat": 0.0, "lon": -77.04358183333333, "is_reserved": 0, "bike_id": "1c9ae0e1b272e3b00cdfc15a47f1875a", "fusion_lon": 0.0, "rental_uris": {"android": "https://dc.lft.to/lastmile_qr_scan", "ios": "https://dc.lft.to/lastmile_qr_scan"}, "name": "1c9ae0e1b272e3b00cdfc15a47f1875a", "type": "electric_scooter", "lat": 38.91109383333333, "is_disabled": 0}, {"fusion_lat": 0.0, "lon": -76.99904383333333, "is_reserved": 0, "bike_id": "689557afc65602e3d71c8f6a9515d176", "fusion_lon": 0.0, "rental_uris": {"android": "https://dc.lft.to/lastmile_qr_scan", "ios": "https://dc.lft.to/lastmile_qr_scan"}, "name": "689557afc65602e3d71c8f6a9515d176", "type": "electric_scooter", "lat": 38.94820933333333, "is_disabled": 0}, {"fusion_lat": 0.0, "lon": -77.07907183333333, "is_reserved": 0, "bike_id": "b66c5ff1a0390e7c3293b31a2768d364", "fusion_lon": 0.0, "rental_uris": {"android": "https://dc.lft.to/lastmile_qr_scan", "ios": "https://dc.lft.to/lastmile_qr_scan"}, "name": "b66c5ff1a0390e7c3293b31a2768d364", "type": "electric_scooter", "lat": 38.94804283333333, "is_disabled": 0}, {"fusion_lat": 0.0, "lon": -77.09064933333333, "is_reserved": 0, "bike_id": "49954ce75b9b43653f4d275c5041f226", "fusion_lon": 0.0, "rental_uris": {"android": "https://dc.lft.to/lastmile_qr_scan", "ios": "https://dc.lft.to/lastmile_qr_scan"}, "name": "49954ce75b9b43653f4d275c5041f226", "type": "electric_bike", "lat": 38.862630833333334, "is_disabled": 0}, {"fusion_lat": 0.0, "lon": -76.978253, "is_reserved": 0, "bike_id": "31613f2a46a762b40d5ef7adea5c5856", "fusion_lon": 0.0, "rental_uris": {"android": "https://dc.lft.to/lastmile_qr_scan", "ios": "https://dc.lft.to/lastmile_qr_scan"}, "name": "31613f2a46a762b40d5ef7adea5c5856", "type": "electric_bike", "lat": 38.84370583333333, "is_disabled": 0}, {"fusion_lat": 0.0, "lon": -76.98710616666666, "is_reserved": 0, "bike_id": "69acba3b4dfd7db4d6217cd698914355", "fusion_lon": 0.0, "rental_uris": {"android": "https://dc.lft.to/lastmile_qr_scan", "ios": "https://dc.lft.to/lastmile_qr_scan"}, "name": "69acba3b4dfd7db4d6217cd698914355", "type": "electric_scooter", "lat": 38.89971466666667, "is_disabled": 0}, {"fusion_lat": 0.0, "lon": -77.01773833333333, "is_reserved": 0, "bike_id": "641bda60f38927f737a662b77558b8e6", "fusion_lon": 0.0, "rental_uris": {"android": "https://dc.lft.to/lastmile_qr_scan", "ios": "https://dc.lft.to/lastmile_qr_scan"}, "name": "641bda60f38927f737a662b77558b8e6", "type": "electric_scooter", "lat": 38.92107683333333, "is_disabled": 0}, {"fusion_lat": 0.0, "lon": -77.03231483333333, "is_reserved": 0, "bike_id": "495ba4ffa62c6541649a4f1201f997b8", "fusion_lon": 0.0, "rental_uris": {"android": "https://dc.lft.to/lastmile_qr_scan", "ios": "https://dc.lft.to/lastmile_qr_scan"}, "name": "495ba4ffa62c6541649a4f1201f997b8", "type": "electric_scooter", "lat": 38.91554566666667, "is_disabled": 0}, {"fusion_lat": 0.0, "lon": -76.9977605, "is_reserved": 0, "bike_id": "6798dfdba83df65fd76058d3df83a7b4", "fusion_lon": 0.0, "rental_uris": {"android": "https://dc.lft.to/lastmile_qr_scan", "ios": "https://dc.lft.to/lastmile_qr_scan"}, "name": "6798dfdba83df65fd76058d3df83a7b4", "type": "electric_scooter", "lat": 38.844317, "is_disabled": 0}, {"fusion_lat": 0.0, "lon": -76.94962016666666, "is_reserved": 0, "bike_id": "eb2649398634b9137e5d7a0f65429fe5", "fusion_lon": 0.0, "rental_uris": {"android": "https://dc.lft.to/lastmile_qr_scan", "ios": "https://dc.lft.to/lastmile_qr_scan"}, "name": "eb2649398634b9137e5d7a0f65429fe5", "type": "electric_scooter", "lat": 38.894392833333335, "is_disabled": 0}, {"fusion_lat": 0.0, "lon": -77.03206983333334, "is_reserved": 0, "bike_id": "66b61ded018a148739ff25466f9db3d1", "fusion_lon": 0.0, "rental_uris": {"android": "https://dc.lft.to/lastmile_qr_scan", "ios": "https://dc.lft.to/lastmile_qr_scan"}, "name": "66b61ded018a148739ff25466f9db3d1", "type": "electric_scooter", "lat": 38.896808166666666, "is_disabled": 0}, {"fusion_lat": 0.0, "lon": -76.94378166666667, "is_reserved": 0, "bike_id": "450e5b6b946d3846b4ba96f8303ef7b4", "fusion_lon": 0.0, "rental_uris": {"android": "https://dc.lft.to/lastmile_qr_scan", "ios": "https://dc.lft.to/lastmile_qr_scan"}, "name": "450e5b6b946d3846b4ba96f8303ef7b4", "type": "electric_scooter", "lat": 38.893253333333334, "is_disabled": 0}, {"fusion_lat": 0.0, "lon": -77.01913033333334, "is_reserved": 0, "bike_id": "c87959c9e1c1bf50acd8a673943cdf73", "fusion_lon": 0.0, "rental_uris": {"android": "https://dc.lft.to/lastmile_qr_scan", "ios": "https://dc.lft.to/lastmile_qr_scan"}, "name": "c87959c9e1c1bf50acd8a673943cdf73", "type": "electric_bike", "lat": 38.9377335, "is_disabled": 0}, {"fusion_lat": 0.0, "lon": -76.97424616666666, "is_reserved": 0, "bike_id": "ad0a0af023014ad1eb4ad588a42f0f27", "fusion_lon": 0.0, "rental_uris": {"android": "https://dc.lft.to/lastmile_qr_scan", "ios": "https://dc.lft.to/lastmile_qr_scan"}, "name": "ad0a0af023014ad1eb4ad588a42f0f27", "type": "electric_scooter", "lat": 38.90405466666667, "is_disabled": 0}, {"fusion_lat": 0.0, "lon": -77.031181, "is_reserved": 0, "bike_id": "c112ded9ae22995d44f39d678f5b3f86", "fusion_lon": 0.0, "rental_uris": {"android": "https://dc.lft.to/lastmile_qr_scan", "ios": "https://dc.lft.to/lastmile_qr_scan"}, "name": "c112ded9ae22995d44f39d678f5b3f86", "type": "electric_scooter", "lat": 38.92385383333333, "is_disabled": 0}, {"fusion_lat": 0.0, "lon": -77.01908183333333, "is_reserved": 0, "bike_id": "19bb7ba3f1cf8de3a0760fa9882a1850", "fusion_lon": 0.0, "rental_uris": {"android": "https://dc.lft.to/lastmile_qr_scan", "ios": "https://dc.lft.to/lastmile_qr_scan"}, "name": "19bb7ba3f1cf8de3a0760fa9882a1850", "type": "electric_scooter", "lat": 38.91937516666667, "is_disabled": 0}, {"fusion_lat": 0.0, "lon": -77.0239505, "is_reserved": 0, "bike_id": "8fb12d61b31a1a523b9564d4c68fd58f", "fusion_lon": 0.0, "rental_uris": {"android": "https://dc.lft.to/lastmile_qr_scan", "ios": "https://dc.lft.to/lastmile_qr_scan"}, "name": "8fb12d61b31a1a523b9564d4c68fd58f", "type": "electric_scooter", "lat": 38.916006, "is_disabled": 0}, {"fusion_lat": 0.0, "lon": -77.02931983333333, "is_reserved": 0, "bike_id": "94a71f6f267867ad194ff8f92526bcfd", "fusion_lon": 0.0, "rental_uris": {"android": "https://dc.lft.to/lastmile_qr_scan", "ios": "https://dc.lft.to/lastmile_qr_scan"}, "name": "94a71f6f267867ad194ff8f92526bcfd", "type": "electric_scooter", "lat": 38.899965333333334, "is_disabled": 0}, {"fusion_lat": 0.0, "lon": -76.93751, "is_reserved": 0, "bike_id": "f1f6af37e9b89654f4bb924e1b2d7031", "fusion_lon": 0.0, "rental_uris": {"android": "https://dc.lft.to/lastmile_qr_scan", "ios": "https://dc.lft.to/lastmile_qr_scan"}, "name": "f1f6af37e9b89654f4bb924e1b2d7031", "type": "electric_scooter", "lat": 38.8904875, "is_disabled": 0}, {"fusion_lat": 0.0, "lon": -77.02411783333334, "is_reserved": 0, "bike_id": "65d1df6f07d105ea8f15797ccbe1ef72", "fusion_lon": 0.0, "rental_uris": {"android": "https://dc.lft.to/lastmile_qr_scan", "ios": "https://dc.lft.to/lastmile_qr_scan"}, "name": "65d1df6f07d105ea8f15797ccbe1ef72", "type": "electric_scooter", "lat": 38.89252583333333, "is_disabled": 0}, {"fusion_lat": 0.0, "lon": -77.04109833333334, "is_reserved": 0, "bike_id": "7fadd8c1a699848c1f76f845879872b0", "fusion_lon": 0.0, "rental_uris": {"android": "https://dc.lft.to/lastmile_qr_scan", "ios": "https://dc.lft.to/lastmile_qr_scan"}, "name": "7fadd8c1a699848c1f76f845879872b0", "type": "electric_scooter", "lat": 38.92799216666667, "is_disabled": 0}, {"fusion_lat": 0.0, "lon": -77.02327316666667, "is_reserved": 0, "bike_id": "2e3b12d4dda703e91343b09b0b13f9c9", "fusion_lon": 0.0, "rental_uris": {"android": "https://dc.lft.to/lastmile_qr_scan", "ios": "https://dc.lft.to/lastmile_qr_scan"}, "name": "2e3b12d4dda703e91343b09b0b13f9c9", "type": "electric_scooter", "lat": 38.936014, "is_disabled": 0}, {"fusion_lat": 0.0, "lon": -77.0234545, "is_reserved": 0, "bike_id": "e46abac31d6b0e8573cfefc248ef2a5a", "fusion_lon": 0.0, "rental_uris": {"android": "https://dc.lft.to/lastmile_qr_scan", "ios": "https://dc.lft.to/lastmile_qr_scan"}, "name": "e46abac31d6b0e8573cfefc248ef2a5a", "type": "electric_scooter", "lat": 38.91693633333333, "is_disabled": 0}, {"fusion_lat": 0.0, "lon": -77.02469133333334, "is_reserved": 0, "bike_id": "a1c904c30828689eb39a78773c1ec88c", "fusion_lon": 0.0, "rental_uris": {"android": "https://dc.lft.to/lastmile_qr_scan", "ios": "https://dc.lft.to/lastmile_qr_scan"}, "name": "a1c904c30828689eb39a78773c1ec88c", "type": "electric_scooter", "lat": 38.932953833333336, "is_disabled": 0}, {"fusion_lat": 0.0, "lon": -77.0213425, "is_reserved": 0, "bike_id": "5d021e227640fb4e341a2bee10fd7704", "fusion_lon": 0.0, "rental_uris": {"android": "https://dc.lft.to/lastmile_qr_scan", "ios": "https://dc.lft.to/lastmile_qr_scan"}, "name": "5d021e227640fb4e341a2bee10fd7704", "type": "electric_scooter", "lat": 38.9241775, "is_disabled": 0}, {"fusion_lat": 0.0, "lon": -77.00907616666667, "is_reserved": 0, "bike_id": "1e60ed00594fcbdd013b8f09a97b528b", "fusion_lon": 0.0, "rental_uris": {"android": "https://dc.lft.to/lastmile_qr_scan", "ios": "https://dc.lft.to/lastmile_qr_scan"}, "name": "1e60ed00594fcbdd013b8f09a97b528b", "type": "electric_scooter", "lat": 38.89564883333333, "is_disabled": 0}, {"fusion_lat": 0.0, "lon": -77.02420266666667, "is_reserved": 0, "bike_id": "5863a53bfdf226e255eeffa17479a601", "fusion_lon": 0.0, "rental_uris": {"android": "https://dc.lft.to/lastmile_qr_scan", "ios": "https://dc.lft.to/lastmile_qr_scan"}, "name": "5863a53bfdf226e255eeffa17479a601", "type": "electric_scooter", "lat": 38.8963485, "is_disabled": 0}, {"fusion_lat": 0.0, "lon": -77.04565366666667, "is_reserved": 0, "bike_id": "91753749bcbdf53e7be70996583b588a", "fusion_lon": 0.0, "rental_uris": {"android": "https://dc.lft.to/lastmile_qr_scan", "ios": "https://dc.lft.to/lastmile_qr_scan"}, "name": "91753749bcbdf53e7be70996583b588a", "type": "electric_scooter", "lat": 38.917624333333336, "is_disabled": 0}, {"fusion_lat": 0.0, "lon": -77.02116933333333, "is_reserved": 0, "bike_id": "cb0106b7839f4de7f7593fca3ce1b3c1", "fusion_lon": 0.0, "rental_uris": {"android": "https://dc.lft.to/lastmile_qr_scan", "ios": "https://dc.lft.to/lastmile_qr_scan"}, "name": "cb0106b7839f4de7f7593fca3ce1b3c1", "type": "electric_scooter", "lat": 38.894934666666664, "is_disabled": 0}, {"fusion_lat": 0.0, "lon": -77.02289633333334, "is_reserved": 0, "bike_id": "149ccd651c47f69d9b058d87662d7212", "fusion_lon": 0.0, "rental_uris": {"android": "https://dc.lft.to/lastmile_qr_scan", "ios": "https://dc.lft.to/lastmile_qr_scan"}, "name": "149ccd651c47f69d9b058d87662d7212", "type": "electric_scooter", "lat": 38.9161285, "is_disabled": 0}, {"fusion_lat": 0.0, "lon": -77.02186866666666, "is_reserved": 0, "bike_id": "e8c541541b7acaa7a8a598db7fa16165", "fusion_lon": 0.0, "rental_uris": {"android": "https://dc.lft.to/lastmile_qr_scan", "ios": "https://dc.lft.to/lastmile_qr_scan"}, "name": "e8c541541b7acaa7a8a598db7fa16165", "type": "electric_scooter", "lat": 38.89478733333333, "is_disabled": 0}, {"fusion_lat": 0.0, "lon": -77.032349, "is_reserved": 0, "bike_id": "7009f9eaa8fe81a3b48283a63d8c2339", "fusion_lon": 0.0, "rental_uris": {"android": "https://dc.lft.to/lastmile_qr_scan", "ios": "https://dc.lft.to/lastmile_qr_scan"}, "name": "7009f9eaa8fe81a3b48283a63d8c2339", "type": "electric_scooter", "lat": 38.92633216666667, "is_disabled": 0}, {"fusion_lat": 0.0, "lon": -77.030908, "is_reserved": 0, "bike_id": "1328a218c7840757e4a9ed41b09bb7a3", "fusion_lon": 0.0, "rental_uris": {"android": "https://dc.lft.to/lastmile_qr_scan", "ios": "https://dc.lft.to/lastmile_qr_scan"}, "name": "1328a218c7840757e4a9ed41b09bb7a3", "type": "electric_scooter", "lat": 38.923765, "is_disabled": 0}, {"fusion_lat": 0.0, "lon": -77.07478766666667, "is_reserved": 0, "bike_id": "7cc709e637307d6a30afbb908d7f7dd1", "fusion_lon": 0.0, "rental_uris": {"android": "https://dc.lft.to/lastmile_qr_scan", "ios": "https://dc.lft.to/lastmile_qr_scan"}, "name": "7cc709e637307d6a30afbb908d7f7dd1", "type": "electric_scooter", "lat": 38.9637715, "is_disabled": 0}, {"fusion_lat": 0.0, "lon": -77.02401516666667, "is_reserved": 0, "bike_id": "0788b6b310ce55f2abf84347e39ceb86", "fusion_lon": 0.0, "rental_uris": {"android": "https://dc.lft.to/lastmile_qr_scan", "ios": "https://dc.lft.to/lastmile_qr_scan"}, "name": "0788b6b310ce55f2abf84347e39ceb86", "type": "electric_scooter", "lat": 38.957303333333336, "is_disabled": 0}, {"fusion_lat": 0.0, "lon": -76.94880933333333, "is_reserved": 0, "bike_id": "d639ae39e32e8a698bdd6fabe4fe654f", "fusion_lon": 0.0, "rental_uris": {"android": "https://dc.lft.to/lastmile_qr_scan", "ios": "https://dc.lft.to/lastmile_qr_scan"}, "name": "d639ae39e32e8a698bdd6fabe4fe654f", "type": "electric_scooter", "lat": 38.89552483333333, "is_disabled": 0}, {"fusion_lat": 0.0, "lon": -76.981018, "is_reserved": 0, "bike_id": "61808c5558a84b336b5d110376697014", "fusion_lon": 0.0, "rental_uris": {"android": "https://dc.lft.to/lastmile_qr_scan", "ios": "https://dc.lft.to/lastmile_qr_scan"}, "name": "61808c5558a84b336b5d110376697014", "type": "electric_scooter", "lat": 38.903952833333335, "is_disabled": 0}, {"fusion_lat": 0.0, "lon": -77.00725883333334, "is_reserved": 0, "bike_id": "666cc0283795443b68517a610e041fdd", "fusion_lon": 0.0, "rental_uris": {"android": "https://dc.lft.to/lastmile_qr_scan", "ios": "https://dc.lft.to/lastmile_qr_scan"}, "name": "666cc0283795443b68517a610e041fdd", "type": "electric_scooter", "lat": 38.88495, "is_disabled": 0}, {"fusion_lat": 0.0, "lon": -77.03202183333333, "is_reserved": 0, "bike_id": "47487d7bc11c371b67670ec814ca3031", "fusion_lon": 0.0, "rental_uris": {"android": "https://dc.lft.to/lastmile_qr_scan", "ios": "https://dc.lft.to/lastmile_qr_scan"}, "name": "47487d7bc11c371b67670ec814ca3031", "type": "electric_scooter", "lat": 38.91523933333333, "is_disabled": 0}, {"fusion_lat": 0.0, "lon": -77.04310616666666, "is_reserved": 0, "bike_id": "21c6b15f5b5e4940b35c7ee16b545bae", "fusion_lon": 0.0, "rental_uris": {"android": "https://dc.lft.to/lastmile_qr_scan", "ios": "https://dc.lft.to/lastmile_qr_scan"}, "name": "21c6b15f5b5e4940b35c7ee16b545bae", "type": "electric_scooter", "lat": 38.893594666666665, "is_disabled": 0}, {"fusion_lat": 0.0, "lon": -76.9463305, "is_reserved": 0, "bike_id": "c5df86c8e2b40212c54c53c3a31b1378", "fusion_lon": 0.0, "rental_uris": {"android": "https://dc.lft.to/lastmile_qr_scan", "ios": "https://dc.lft.to/lastmile_qr_scan"}, "name": "c5df86c8e2b40212c54c53c3a31b1378", "type": "electric_scooter", "lat": 38.89845783333333, "is_disabled": 0}, {"fusion_lat": 0.0, "lon": -77.03757266666666, "is_reserved": 0, "bike_id": "eddd56f5f08a47ee72e4a489ac81ec65", "fusion_lon": 0.0, "rental_uris": {"android": "https://dc.lft.to/lastmile_qr_scan", "ios": "https://dc.lft.to/lastmile_qr_scan"}, "name": "eddd56f5f08a47ee72e4a489ac81ec65", "type": "electric_scooter", "lat": 38.92915416666666, "is_disabled": 0}, {"fusion_lat": 0.0, "lon": -77.03128033333333, "is_reserved": 0, "bike_id": "a2b00bdeedcd2f333381ee3c5f8474f0", "fusion_lon": 0.0, "rental_uris": {"android": "https://dc.lft.to/lastmile_qr_scan", "ios": "https://dc.lft.to/lastmile_qr_scan"}, "name": "a2b00bdeedcd2f333381ee3c5f8474f0", "type": "electric_scooter", "lat": 38.912595, "is_disabled": 0}, {"fusion_lat": 0.0, "lon": -77.02707016666666, "is_reserved": 0, "bike_id": "c1e1606be37fe5674c8e69b61237f519", "fusion_lon": 0.0, "rental_uris": {"android": "https://dc.lft.to/lastmile_qr_scan", "ios": "https://dc.lft.to/lastmile_qr_scan"}, "name": "c1e1606be37fe5674c8e69b61237f519", "type": "electric_scooter", "lat": 38.906636, "is_disabled": 0}, {"fusion_lat": 0.0, "lon": -77.02493466666667, "is_reserved": 0, "bike_id": "3a476b12eb4ab8204003ba5192e85621", "fusion_lon": 0.0, "rental_uris": {"android": "https://dc.lft.to/lastmile_qr_scan", "ios": "https://dc.lft.to/lastmile_qr_scan"}, "name": "3a476b12eb4ab8204003ba5192e85621", "type": "electric_scooter", "lat": 38.918075333333334, "is_disabled": 0}, {"fusion_lat": 0.0, "lon": -77.00975733333334, "is_reserved": 0, "bike_id": "db8474d94cbe222b19c445066e7687e9", "fusion_lon": 0.0, "rental_uris": {"android": "https://dc.lft.to/lastmile_qr_scan", "ios": "https://dc.lft.to/lastmile_qr_scan"}, "name": "db8474d94cbe222b19c445066e7687e9", "type": "electric_scooter", "lat": 38.9141445, "is_disabled": 0}, {"fusion_lat": 0.0, "lon": -77.07073116666666, "is_reserved": 0, "bike_id": "bcc9c4b3de0f1c9be7137ce671377717", "fusion_lon": 0.0, "rental_uris": {"android": "https://dc.lft.to/lastmile_qr_scan", "ios": "https://dc.lft.to/lastmile_qr_scan"}, "name": "bcc9c4b3de0f1c9be7137ce671377717", "type": "electric_scooter", "lat": 38.931703166666665, "is_disabled": 0}, {"fusion_lat": 0.0, "lon": -76.9375585, "is_reserved": 0, "bike_id": "2949bf201864dfe4b204e6f71f4d8090", "fusion_lon": 0.0, "rental_uris": {"android": "https://dc.lft.to/lastmile_qr_scan", "ios": "https://dc.lft.to/lastmile_qr_scan"}, "name": "2949bf201864dfe4b204e6f71f4d8090", "type": "electric_scooter", "lat": 38.89043483333333, "is_disabled": 0}, {"fusion_lat": 0.0, "lon": -77.03221733333334, "is_reserved": 0, "bike_id": "9b4de6db1b3a937a54f33a8ed4c77c79", "fusion_lon": 0.0, "rental_uris": {"android": "https://dc.lft.to/lastmile_qr_scan", "ios": "https://dc.lft.to/lastmile_qr_scan"}, "name": "9b4de6db1b3a937a54f33a8ed4c77c79", "type": "electric_scooter", "lat": 38.92868383333333, "is_disabled": 0}, {"fusion_lat": 0.0, "lon": -77.01481066666666, "is_reserved": 0, "bike_id": "9207c906dbb7ac379fae786288c15885", "fusion_lon": 0.0, "rental_uris": {"android": "https://dc.lft.to/lastmile_qr_scan", "ios": "https://dc.lft.to/lastmile_qr_scan"}, "name": "9207c906dbb7ac379fae786288c15885", "type": "electric_scooter", "lat": 38.87638716666667, "is_disabled": 0}, {"fusion_lat": 0.0, "lon": -77.03474333333334, "is_reserved": 0, "bike_id": "3bdf9edea2527fa5fdf7ef717434a832", "fusion_lon": 0.0, "rental_uris": {"android": "https://dc.lft.to/lastmile_qr_scan", "ios": "https://dc.lft.to/lastmile_qr_scan"}, "name": "3bdf9edea2527fa5fdf7ef717434a832", "type": "electric_scooter", "lat": 38.9181055, "is_disabled": 0}, {"fusion_lat": 0.0, "lon": -76.99163666666666, "is_reserved": 0, "bike_id": "4d2481a64e230c9d748870581f37be38", "fusion_lon": 0.0, "rental_uris": {"android": "https://dc.lft.to/lastmile_qr_scan", "ios": "https://dc.lft.to/lastmile_qr_scan"}, "name": "4d2481a64e230c9d748870581f37be38", "type": "electric_scooter", "lat": 38.883311, "is_disabled": 0}, {"fusion_lat": 0.0, "lon": -76.97729833333334, "is_reserved": 0, "bike_id": "c6d076d1f5b035181263b8c1f80be6fc", "fusion_lon": 0.0, "rental_uris": {"android": "https://dc.lft.to/lastmile_qr_scan", "ios": "https://dc.lft.to/lastmile_qr_scan"}, "name": "c6d076d1f5b035181263b8c1f80be6fc", "type": "electric_scooter", "lat": 38.87290433333333, "is_disabled": 0}, {"fusion_lat": 0.0, "lon": -77.040307, "is_reserved": 0, "bike_id": "5c49cadf71f84d49a291d363606b00bf", "fusion_lon": 0.0, "rental_uris": {"android": "https://dc.lft.to/lastmile_qr_scan", "ios": "https://dc.lft.to/lastmile_qr_scan"}, "name": "5c49cadf71f84d49a291d363606b00bf", "type": "electric_scooter", "lat": 38.911148833333336, "is_disabled": 0}, {"fusion_lat": 0.0, "lon": -76.997435, "is_reserved": 0, "bike_id": "53f62429ae7e8cb138a433b9bc5124eb", "fusion_lon": 0.0, "rental_uris": {"android": "https://dc.lft.to/lastmile_qr_scan", "ios": "https://dc.lft.to/lastmile_qr_scan"}, "name": "53f62429ae7e8cb138a433b9bc5124eb", "type": "electric_scooter", "lat": 38.9099695, "is_disabled": 0}, {"fusion_lat": 0.0, "lon": -76.9701315, "is_reserved": 0, "bike_id": "118db27640ff782597c8dbbeee4bc53d", "fusion_lon": 0.0, "rental_uris": {"android": "https://dc.lft.to/lastmile_qr_scan", "ios": "https://dc.lft.to/lastmile_qr_scan"}, "name": "118db27640ff782597c8dbbeee4bc53d", "type": "electric_bike", "lat": 38.86365416666666, "is_disabled": 0}, {"fusion_lat": 0.0, "lon": -76.99934633333334, "is_reserved": 0, "bike_id": "858f7bec82c386e34cc630eebb78ed1a", "fusion_lon": 0.0, "rental_uris": {"android": "https://dc.lft.to/lastmile_qr_scan", "ios": "https://dc.lft.to/lastmile_qr_scan"}, "name": "858f7bec82c386e34cc630eebb78ed1a", "type": "electric_scooter", "lat": 38.90033966666667, "is_disabled": 0}, {"fusion_lat": 0.0, "lon": -77.0020455, "is_reserved": 0, "bike_id": "849e493e099289e686551b085d3e45f3", "fusion_lon": 0.0, "rental_uris": {"android": "https://dc.lft.to/lastmile_qr_scan", "ios": "https://dc.lft.to/lastmile_qr_scan"}, "name": "849e493e099289e686551b085d3e45f3", "type": "electric_scooter", "lat": 38.90235416666667, "is_disabled": 0}, {"fusion_lat": 0.0, "lon": -77.07798333333334, "is_reserved": 0, "bike_id": "200e554ff3876e023af8ceb83cddeb40", "fusion_lon": 0.0, "rental_uris": {"android": "https://dc.lft.to/lastmile_qr_scan", "ios": "https://dc.lft.to/lastmile_qr_scan"}, "name": "200e554ff3876e023af8ceb83cddeb40", "type": "electric_bike", "lat": 38.995986, "is_disabled": 0}, {"fusion_lat": 0.0, "lon": -77.1179985, "is_reserved": 0, "bike_id": "7ea6e66feabbccbee423d14d5ccac0df", "fusion_lon": 0.0, "rental_uris": {"android": "https://dc.lft.to/lastmile_qr_scan", "ios": "https://dc.lft.to/lastmile_qr_scan"}, "name": "7ea6e66feabbccbee423d14d5ccac0df", "type": "electric_bike", "lat": 38.8737485, "is_disabled": 0}, {"fusion_lat": 0.0, "lon": -77.0403355, "is_reserved": 0, "bike_id": "468a143471028fd0554ea51034d7c1c5", "fusion_lon": 0.0, "rental_uris": {"android": "https://dc.lft.to/lastmile_qr_scan", "ios": "https://dc.lft.to/lastmile_qr_scan"}, "name": "468a143471028fd0554ea51034d7c1c5", "type": "electric_scooter", "lat": 38.90600383333334, "is_disabled": 0}, {"fusion_lat": 0.0, "lon": -76.93738683333333, "is_reserved": 0, "bike_id": "dd9334104fd17cd625deebec3bb67a23", "fusion_lon": 0.0, "rental_uris": {"android": "https://dc.lft.to/lastmile_qr_scan", "ios": "https://dc.lft.to/lastmile_qr_scan"}, "name": "dd9334104fd17cd625deebec3bb67a23", "type": "electric_scooter", "lat": 38.890139, "is_disabled": 0}, {"fusion_lat": 0.0, "lon": -77.03862633333334, "is_reserved": 0, "bike_id": "6027f66c5716be791c83989bc5cd47f5", "fusion_lon": 0.0, "rental_uris": {"android": "https://dc.lft.to/lastmile_qr_scan", "ios": "https://dc.lft.to/lastmile_qr_scan"}, "name": "6027f66c5716be791c83989bc5cd47f5", "type": "electric_scooter", "lat": 38.912591666666664, "is_disabled": 0}, {"fusion_lat": 0.0, "lon": -77.05658233333334, "is_reserved": 0, "bike_id": "c429631596a249ac0733fe1a14c055d8", "fusion_lon": 0.0, "rental_uris": {"android": "https://dc.lft.to/lastmile_qr_scan", "ios": "https://dc.lft.to/lastmile_qr_scan"}, "name": "c429631596a249ac0733fe1a14c055d8", "type": "electric_bike", "lat": 38.9357715, "is_disabled": 0}, {"fusion_lat": 0.0, "lon": -77.01137916666667, "is_reserved": 0, "bike_id": "2a083a3f76ce7c482390a0920e99064f", "fusion_lon": 0.0, "rental_uris": {"android": "https://dc.lft.to/lastmile_qr_scan", "ios": "https://dc.lft.to/lastmile_qr_scan"}, "name": "2a083a3f76ce7c482390a0920e99064f", "type": "electric_scooter", "lat": 38.91592216666667, "is_disabled": 0}, {"fusion_lat": 0.0, "lon": -77.04377783333334, "is_reserved": 0, "bike_id": "908675b3fbe0960b2aba116ebfc9b7d5", "fusion_lon": 0.0, "rental_uris": {"android": "https://dc.lft.to/lastmile_qr_scan", "ios": "https://dc.lft.to/lastmile_qr_scan"}, "name": "908675b3fbe0960b2aba116ebfc9b7d5", "type": "electric_scooter", "lat": 38.92230383333333, "is_disabled": 0}, {"fusion_lat": 0.0, "lon": -76.987421, "is_reserved": 0, "bike_id": "0d321b95dae14116ceb5f2d5eff3a8a4", "fusion_lon": 0.0, "rental_uris": {"android": "https://dc.lft.to/lastmile_qr_scan", "ios": "https://dc.lft.to/lastmile_qr_scan"}, "name": "0d321b95dae14116ceb5f2d5eff3a8a4", "type": "electric_scooter", "lat": 38.886087833333335, "is_disabled": 0}, {"fusion_lat": 0.0, "lon": -77.02975583333334, "is_reserved": 0, "bike_id": "6d6cf7fe869c640f281ab4baa7261c20", "fusion_lon": 0.0, "rental_uris": {"android": "https://dc.lft.to/lastmile_qr_scan", "ios": "https://dc.lft.to/lastmile_qr_scan"}, "name": "6d6cf7fe869c640f281ab4baa7261c20", "type": "electric_scooter", "lat": 38.907243, "is_disabled": 0}, {"fusion_lat": 0.0, "lon": -77.03781, "is_reserved": 0, "bike_id": "3d992db00f34c59ae1f4463c64d75c1b", "fusion_lon": 0.0, "rental_uris": {"android": "https://dc.lft.to/lastmile_qr_scan", "ios": "https://dc.lft.to/lastmile_qr_scan"}, "name": "3d992db00f34c59ae1f4463c64d75c1b", "type": "electric_scooter", "lat": 38.91706416666667, "is_disabled": 0}, {"fusion_lat": 0.0, "lon": -77.04853583333333, "is_reserved": 0, "bike_id": "b421d6dcf408fdd94eb823b93e24c17e", "fusion_lon": 0.0, "rental_uris": {"android": "https://dc.lft.to/lastmile_qr_scan", "ios": "https://dc.lft.to/lastmile_qr_scan"}, "name": "b421d6dcf408fdd94eb823b93e24c17e", "type": "electric_scooter", "lat": 38.919580333333336, "is_disabled": 0}, {"fusion_lat": 0.0, "lon": -77.0194655, "is_reserved": 0, "bike_id": "7c2acce8a024d3d3d82dbecd68a0f1b0", "fusion_lon": 0.0, "rental_uris": {"android": "https://dc.lft.to/lastmile_qr_scan", "ios": "https://dc.lft.to/lastmile_qr_scan"}, "name": "7c2acce8a024d3d3d82dbecd68a0f1b0", "type": "electric_scooter", "lat": 38.924217, "is_disabled": 0}, {"fusion_lat": 0.0, "lon": -76.9888525, "is_reserved": 0, "bike_id": "5cd27eff2c6b5035a5ed90b9a8a059c9", "fusion_lon": 0.0, "rental_uris": {"android": "https://dc.lft.to/lastmile_qr_scan", "ios": "https://dc.lft.to/lastmile_qr_scan"}, "name": "5cd27eff2c6b5035a5ed90b9a8a059c9", "type": "electric_scooter", "lat": 38.8665915, "is_disabled": 0}, {"fusion_lat": 0.0, "lon": -77.039902, "is_reserved": 0, "bike_id": "149c6a1643a10c9639f4b1ba822603c0", "fusion_lon": 0.0, "rental_uris": {"android": "https://dc.lft.to/lastmile_qr_scan", "ios": "https://dc.lft.to/lastmile_qr_scan"}, "name": "149c6a1643a10c9639f4b1ba822603c0", "type": "electric_scooter", "lat": 38.892259833333334, "is_disabled": 0}, {"fusion_lat": 0.0, "lon": -77.0318005, "is_reserved": 0, "bike_id": "e41da71dd1b813f3fa6be0e10663c60d", "fusion_lon": 0.0, "rental_uris": {"android": "https://dc.lft.to/lastmile_qr_scan", "ios": "https://dc.lft.to/lastmile_qr_scan"}, "name": "e41da71dd1b813f3fa6be0e10663c60d", "type": "electric_scooter", "lat": 38.91937333333333, "is_disabled": 0}, {"fusion_lat": 0.0, "lon": -77.03359183333333, "is_reserved": 0, "bike_id": "99a29beb2b3ec0153ca04358fd5f503e", "fusion_lon": 0.0, "rental_uris": {"android": "https://dc.lft.to/lastmile_qr_scan", "ios": "https://dc.lft.to/lastmile_qr_scan"}, "name": "99a29beb2b3ec0153ca04358fd5f503e", "type": "electric_scooter", "lat": 38.91926866666667, "is_disabled": 0}, {"fusion_lat": 0.0, "lon": -77.02530883333333, "is_reserved": 0, "bike_id": "5a76e30a9337c8aaee5c6cb9ee233c41", "fusion_lon": 0.0, "rental_uris": {"android": "https://dc.lft.to/lastmile_qr_scan", "ios": "https://dc.lft.to/lastmile_qr_scan"}, "name": "5a76e30a9337c8aaee5c6cb9ee233c41", "type": "electric_scooter", "lat": 38.94255033333334, "is_disabled": 0}, {"fusion_lat": 0.0, "lon": -77.024864, "is_reserved": 0, "bike_id": "4774c61f9203b549a77191bc38045530", "fusion_lon": 0.0, "rental_uris": {"android": "https://dc.lft.to/lastmile_qr_scan", "ios": "https://dc.lft.to/lastmile_qr_scan"}, "name": "4774c61f9203b549a77191bc38045530", "type": "electric_scooter", "lat": 38.93867316666667, "is_disabled": 0}, {"fusion_lat": 0.0, "lon": -77.0199885, "is_reserved": 0, "bike_id": "970142fbb604297d35a4480e22159b92", "fusion_lon": 0.0, "rental_uris": {"android": "https://dc.lft.to/lastmile_qr_scan", "ios": "https://dc.lft.to/lastmile_qr_scan"}, "name": "970142fbb604297d35a4480e22159b92", "type": "electric_scooter", "lat": 38.87593866666667, "is_disabled": 0}, {"fusion_lat": 0.0, "lon": -77.03200033333333, "is_reserved": 0, "bike_id": "7a7f6096acea26bc55e8cdc5a77eb09b", "fusion_lon": 0.0, "rental_uris": {"android": "https://dc.lft.to/lastmile_qr_scan", "ios": "https://dc.lft.to/lastmile_qr_scan"}, "name": "7a7f6096acea26bc55e8cdc5a77eb09b", "type": "electric_scooter", "lat": 38.923531833333335, "is_disabled": 0}, {"fusion_lat": 0.0, "lon": -77.02719483333334, "is_reserved": 0, "bike_id": "a6690f08a262eccaa57443aa0a86c7df", "fusion_lon": 0.0, "rental_uris": {"android": "https://dc.lft.to/lastmile_qr_scan", "ios": "https://dc.lft.to/lastmile_qr_scan"}, "name": "a6690f08a262eccaa57443aa0a86c7df", "type": "electric_scooter", "lat": 38.9067335, "is_disabled": 0}, {"fusion_lat": 0.0, "lon": -77.03511583333334, "is_reserved": 0, "bike_id": "23e28445683c079459d69eb05d3d491b", "fusion_lon": 0.0, "rental_uris": {"android": "https://dc.lft.to/lastmile_qr_scan", "ios": "https://dc.lft.to/lastmile_qr_scan"}, "name": "23e28445683c079459d69eb05d3d491b", "type": "electric_scooter", "lat": 38.966245666666666, "is_disabled": 0}, {"fusion_lat": 0.0, "lon": -76.98538983333333, "is_reserved": 0, "bike_id": "8c1f876cc66a4625ab94277920a45160", "fusion_lon": 0.0, "rental_uris": {"android": "https://dc.lft.to/lastmile_qr_scan", "ios": "https://dc.lft.to/lastmile_qr_scan"}, "name": "8c1f876cc66a4625ab94277920a45160", "type": "electric_scooter", "lat": 38.91025966666667, "is_disabled": 0}, {"fusion_lat": 0.0, "lon": -77.039759, "is_reserved": 0, "bike_id": "92f2ba0f9ae461bf1febaa4680f02344", "fusion_lon": 0.0, "rental_uris": {"android": "https://dc.lft.to/lastmile_qr_scan", "ios": "https://dc.lft.to/lastmile_qr_scan"}, "name": "92f2ba0f9ae461bf1febaa4680f02344", "type": "electric_scooter", "lat": 38.89220916666667, "is_disabled": 0}, {"fusion_lat": 0.0, "lon": -77.06088583333333, "is_reserved": 0, "bike_id": "4c4f989ee46f02459086e6a51fce4418", "fusion_lon": 0.0, "rental_uris": {"android": "https://dc.lft.to/lastmile_qr_scan", "ios": "https://dc.lft.to/lastmile_qr_scan"}, "name": "4c4f989ee46f02459086e6a51fce4418", "type": "electric_scooter", "lat": 38.9117505, "is_disabled": 0}, {"fusion_lat": 0.0, "lon": -76.99637516666667, "is_reserved": 0, "bike_id": "1dfd66354c9d68ae25818b457071f884", "fusion_lon": 0.0, "rental_uris": {"android": "https://dc.lft.to/lastmile_qr_scan", "ios": "https://dc.lft.to/lastmile_qr_scan"}, "name": "1dfd66354c9d68ae25818b457071f884", "type": "electric_scooter", "lat": 38.900202166666666, "is_disabled": 0}, {"fusion_lat": 0.0, "lon": -77.02226366666666, "is_reserved": 0, "bike_id": "968d9545b15e291a18eaad28ee2a05bb", "fusion_lon": 0.0, "rental_uris": {"android": "https://dc.lft.to/lastmile_qr_scan", "ios": "https://dc.lft.to/lastmile_qr_scan"}, "name": "968d9545b15e291a18eaad28ee2a05bb", "type": "electric_scooter", "lat": 38.892223666666666, "is_disabled": 0}, {"fusion_lat": 0.0, "lon": -77.02201783333334, "is_reserved": 0, "bike_id": "493f3a9d4e7a0e364f9b3d766d5b9658", "fusion_lon": 0.0, "rental_uris": {"android": "https://dc.lft.to/lastmile_qr_scan", "ios": "https://dc.lft.to/lastmile_qr_scan"}, "name": "493f3a9d4e7a0e364f9b3d766d5b9658", "type": "electric_scooter", "lat": 38.909526166666666, "is_disabled": 0}, {"fusion_lat": 0.0, "lon": -77.006227, "is_reserved": 0, "bike_id": "28025f3baeed0e6c3c9d85e8f0ecf433", "fusion_lon": 0.0, "rental_uris": {"android": "https://dc.lft.to/lastmile_qr_scan", "ios": "https://dc.lft.to/lastmile_qr_scan"}, "name": "28025f3baeed0e6c3c9d85e8f0ecf433", "type": "electric_scooter", "lat": 38.9085335, "is_disabled": 0}, {"fusion_lat": 0.0, "lon": -77.04505483333334, "is_reserved": 0, "bike_id": "003b28ae73c5f5bc2c16903a8fc4045c", "fusion_lon": 0.0, "rental_uris": {"android": "https://dc.lft.to/lastmile_qr_scan", "ios": "https://dc.lft.to/lastmile_qr_scan"}, "name": "003b28ae73c5f5bc2c16903a8fc4045c", "type": "electric_scooter", "lat": 38.90548183333333, "is_disabled": 0}, {"fusion_lat": 0.0, "lon": -77.03475666666667, "is_reserved": 0, "bike_id": "88e75da807df4d303aefdb3e2b298ad7", "fusion_lon": 0.0, "rental_uris": {"android": "https://dc.lft.to/lastmile_qr_scan", "ios": "https://dc.lft.to/lastmile_qr_scan"}, "name": "88e75da807df4d303aefdb3e2b298ad7", "type": "electric_scooter", "lat": 38.92541683333334, "is_disabled": 0}, {"fusion_lat": 0.0, "lon": -77.05119533333334, "is_reserved": 0, "bike_id": "dd4327e87e9305a00a0c610961a04e6a", "fusion_lon": 0.0, "rental_uris": {"android": "https://dc.lft.to/lastmile_qr_scan", "ios": "https://dc.lft.to/lastmile_qr_scan"}, "name": "dd4327e87e9305a00a0c610961a04e6a", "type": "electric_scooter", "lat": 38.92341783333333, "is_disabled": 0}, {"fusion_lat": 0.0, "lon": -77.04445183333333, "is_reserved": 0, "bike_id": "16da8e0ef9d224d3699bd170b2e3d642", "fusion_lon": 0.0, "rental_uris": {"android": "https://dc.lft.to/lastmile_qr_scan", "ios": "https://dc.lft.to/lastmile_qr_scan"}, "name": "16da8e0ef9d224d3699bd170b2e3d642", "type": "electric_scooter", "lat": 38.91881883333333, "is_disabled": 0}, {"fusion_lat": 0.0, "lon": -77.02447683333334, "is_reserved": 0, "bike_id": "27fbd187d328cd60861a99fd4e1fadca", "fusion_lon": 0.0, "rental_uris": {"android": "https://dc.lft.to/lastmile_qr_scan", "ios": "https://dc.lft.to/lastmile_qr_scan"}, "name": "27fbd187d328cd60861a99fd4e1fadca", "type": "electric_scooter", "lat": 38.89753833333333, "is_disabled": 0}, {"fusion_lat": 0.0, "lon": -76.932682, "is_reserved": 0, "bike_id": "4f09e68d90f125909ac7ecf335060300", "fusion_lon": 0.0, "rental_uris": {"android": "https://dc.lft.to/lastmile_qr_scan", "ios": "https://dc.lft.to/lastmile_qr_scan"}, "name": "4f09e68d90f125909ac7ecf335060300", "type": "electric_scooter", "lat": 38.8989095, "is_disabled": 0}, {"fusion_lat": 0.0, "lon": -77.02309833333334, "is_reserved": 0, "bike_id": "671af447bf633e60fc675d6fafcc6670", "fusion_lon": 0.0, "rental_uris": {"android": "https://dc.lft.to/lastmile_qr_scan", "ios": "https://dc.lft.to/lastmile_qr_scan"}, "name": "671af447bf633e60fc675d6fafcc6670", "type": "electric_scooter", "lat": 38.918421, "is_disabled": 0}, {"fusion_lat": 0.0, "lon": -77.0465, "is_reserved": 0, "bike_id": "7b900607a757d58a83461298d3c79c96", "fusion_lon": 0.0, "rental_uris": {"android": "https://dc.lft.to/lastmile_qr_scan", "ios": "https://dc.lft.to/lastmile_qr_scan"}, "name": "7b900607a757d58a83461298d3c79c96", "type": "electric_scooter", "lat": 38.892246166666666, "is_disabled": 0}, {"fusion_lat": 0.0, "lon": -77.007284, "is_reserved": 0, "bike_id": "5c20f339cd38614bf98deb941440280e", "fusion_lon": 0.0, "rental_uris": {"android": "https://dc.lft.to/lastmile_qr_scan", "ios": "https://dc.lft.to/lastmile_qr_scan"}, "name": "5c20f339cd38614bf98deb941440280e", "type": "electric_scooter", "lat": 38.8849525, "is_disabled": 0}, {"fusion_lat": 0.0, "lon": -77.0236165, "is_reserved": 0, "bike_id": "12a8a26dd8686d38e537d4c672de6e30", "fusion_lon": 0.0, "rental_uris": {"android": "https://dc.lft.to/lastmile_qr_scan", "ios": "https://dc.lft.to/lastmile_qr_scan"}, "name": "12a8a26dd8686d38e537d4c672de6e30", "type": "electric_scooter", "lat": 38.920809, "is_disabled": 0}, {"fusion_lat": 0.0, "lon": -77.06165166666666, "is_reserved": 0, "bike_id": "3643d8b22f26faf2750d9d00188482be", "fusion_lon": 0.0, "rental_uris": {"android": "https://dc.lft.to/lastmile_qr_scan", "ios": "https://dc.lft.to/lastmile_qr_scan"}, "name": "3643d8b22f26faf2750d9d00188482be", "type": "electric_scooter", "lat": 38.90263366666667, "is_disabled": 0}, {"fusion_lat": 0.0, "lon": -77.1065435, "is_reserved": 0, "bike_id": "147c63c3b5087e53329b927116731d3c", "fusion_lon": 0.0, "rental_uris": {"android": "https://dc.lft.to/lastmile_qr_scan", "ios": "https://dc.lft.to/lastmile_qr_scan"}, "name": "147c63c3b5087e53329b927116731d3c", "type": "electric_bike", "lat": 38.873577, "is_disabled": 0}, {"fusion_lat": 0.0, "lon": -77.01577633333333, "is_reserved": 0, "bike_id": "4c2f9198543ede570e750766c7530f4f", "fusion_lon": 0.0, "rental_uris": {"android": "https://dc.lft.to/lastmile_qr_scan", "ios": "https://dc.lft.to/lastmile_qr_scan"}, "name": "4c2f9198543ede570e750766c7530f4f", "type": "electric_scooter", "lat": 38.8763975, "is_disabled": 0}, {"fusion_lat": 0.0, "lon": -77.03882483333334, "is_reserved": 0, "bike_id": "b04dff203defc7a3b8c08a4b6946a1bb", "fusion_lon": 0.0, "rental_uris": {"android": "https://dc.lft.to/lastmile_qr_scan", "ios": "https://dc.lft.to/lastmile_qr_scan"}, "name": "b04dff203defc7a3b8c08a4b6946a1bb", "type": "electric_scooter", "lat": 38.9119165, "is_disabled": 0}, {"fusion_lat": 0.0, "lon": -77.00368866666666, "is_reserved": 0, "bike_id": "bc5d7e55c703c4a6dd2d1b316ef435a8", "fusion_lon": 0.0, "rental_uris": {"android": "https://dc.lft.to/lastmile_qr_scan", "ios": "https://dc.lft.to/lastmile_qr_scan"}, "name": "bc5d7e55c703c4a6dd2d1b316ef435a8", "type": "electric_scooter", "lat": 38.882665333333335, "is_disabled": 0}, {"fusion_lat": 0.0, "lon": -77.117081, "is_reserved": 0, "bike_id": "7282ce13b57566c1c5ee2509a23d469e", "fusion_lon": 0.0, "rental_uris": {"android": "https://dc.lft.to/lastmile_qr_scan", "ios": "https://dc.lft.to/lastmile_qr_scan"}, "name": "7282ce13b57566c1c5ee2509a23d469e", "type": "electric_bike", "lat": 38.86743366666666, "is_disabled": 0}, {"fusion_lat": 0.0, "lon": -76.9846845, "is_reserved": 0, "bike_id": "931b9e50284636add10f88701dfc2516", "fusion_lon": 0.0, "rental_uris": {"android": "https://dc.lft.to/lastmile_qr_scan", "ios": "https://dc.lft.to/lastmile_qr_scan"}, "name": "931b9e50284636add10f88701dfc2516", "type": "electric_scooter", "lat": 38.90395566666667, "is_disabled": 0}, {"fusion_lat": 0.0, "lon": -77.01159883333334, "is_reserved": 0, "bike_id": "cb7a7ac2e15675e718f4edbe2f9a33ed", "fusion_lon": 0.0, "rental_uris": {"android": "https://dc.lft.to/lastmile_qr_scan", "ios": "https://dc.lft.to/lastmile_qr_scan"}, "name": "cb7a7ac2e15675e718f4edbe2f9a33ed", "type": "electric_scooter", "lat": 38.900082833333336, "is_disabled": 0}, {"fusion_lat": 0.0, "lon": -77.06331133333333, "is_reserved": 0, "bike_id": "f63b66b97006c3ffeb1fa680bd51095f", "fusion_lon": 0.0, "rental_uris": {"android": "https://dc.lft.to/lastmile_qr_scan", "ios": "https://dc.lft.to/lastmile_qr_scan"}, "name": "f63b66b97006c3ffeb1fa680bd51095f", "type": "electric_scooter", "lat": 38.944222333333336, "is_disabled": 0}, {"fusion_lat": 0.0, "lon": -77.02726833333334, "is_reserved": 0, "bike_id": "43e88368288a2b93def3ea2b9b056542", "fusion_lon": 0.0, "rental_uris": {"android": "https://dc.lft.to/lastmile_qr_scan", "ios": "https://dc.lft.to/lastmile_qr_scan"}, "name": "43e88368288a2b93def3ea2b9b056542", "type": "electric_scooter", "lat": 38.906652666666666, "is_disabled": 0}, {"fusion_lat": 0.0, "lon": -77.05064766666666, "is_reserved": 0, "bike_id": "d782d58959cf533d9783d97d805038d0", "fusion_lon": 0.0, "rental_uris": {"android": "https://dc.lft.to/lastmile_qr_scan", "ios": "https://dc.lft.to/lastmile_qr_scan"}, "name": "d782d58959cf533d9783d97d805038d0", "type": "electric_scooter", "lat": 38.903441666666666, "is_disabled": 0}, {"fusion_lat": 0.0, "lon": -77.03210583333333, "is_reserved": 0, "bike_id": "9d7488cf5459958a5e5b3a050c4587e5", "fusion_lon": 0.0, "rental_uris": {"android": "https://dc.lft.to/lastmile_qr_scan", "ios": "https://dc.lft.to/lastmile_qr_scan"}, "name": "9d7488cf5459958a5e5b3a050c4587e5", "type": "electric_scooter", "lat": 38.91255233333333, "is_disabled": 0}, {"fusion_lat": 0.0, "lon": -77.0217425, "is_reserved": 0, "bike_id": "34816045c975e1b0051815571eb681f9", "fusion_lon": 0.0, "rental_uris": {"android": "https://dc.lft.to/lastmile_qr_scan", "ios": "https://dc.lft.to/lastmile_qr_scan"}, "name": "34816045c975e1b0051815571eb681f9", "type": "electric_scooter", "lat": 38.895647, "is_disabled": 0}, {"fusion_lat": 0.0, "lon": -77.017043, "is_reserved": 0, "bike_id": "5846f70509f5543139116fff38367742", "fusion_lon": 0.0, "rental_uris": {"android": "https://dc.lft.to/lastmile_qr_scan", "ios": "https://dc.lft.to/lastmile_qr_scan"}, "name": "5846f70509f5543139116fff38367742", "type": "electric_scooter", "lat": 38.87935783333333, "is_disabled": 0}, {"fusion_lat": 0.0, "lon": -77.089562, "is_reserved": 0, "bike_id": "b4c447587062676d2e464fbebd80f469", "fusion_lon": 0.0, "rental_uris": {"android": "https://dc.lft.to/lastmile_qr_scan", "ios": "https://dc.lft.to/lastmile_qr_scan"}, "name": "b4c447587062676d2e464fbebd80f469", "type": "electric_bike", "lat": 38.842943166666664, "is_disabled": 0}, {"fusion_lat": 0.0, "lon": -76.94955283333333, "is_reserved": 0, "bike_id": "6bc7551d4879358214311a328e6fb130", "fusion_lon": 0.0, "rental_uris": {"android": "https://dc.lft.to/lastmile_qr_scan", "ios": "https://dc.lft.to/lastmile_qr_scan"}, "name": "6bc7551d4879358214311a328e6fb130", "type": "electric_scooter", "lat": 38.904977833333334, "is_disabled": 0}, {"fusion_lat": 0.0, "lon": -77.03130566666667, "is_reserved": 0, "bike_id": "975980c43be8d9b93bb3d27cde3825c9", "fusion_lon": 0.0, "rental_uris": {"android": "https://dc.lft.to/lastmile_qr_scan", "ios": "https://dc.lft.to/lastmile_qr_scan"}, "name": "975980c43be8d9b93bb3d27cde3825c9", "type": "electric_scooter", "lat": 38.91494516666667, "is_disabled": 0}, {"fusion_lat": 0.0, "lon": -77.03215816666666, "is_reserved": 0, "bike_id": "69aead70e219a2741aeb0d68ce8fb837", "fusion_lon": 0.0, "rental_uris": {"android": "https://dc.lft.to/lastmile_qr_scan", "ios": "https://dc.lft.to/lastmile_qr_scan"}, "name": "69aead70e219a2741aeb0d68ce8fb837", "type": "electric_scooter", "lat": 38.915553333333335, "is_disabled": 0}, {"fusion_lat": 0.0, "lon": -77.05054983333333, "is_reserved": 0, "bike_id": "2ec195200eb8d70f48f104b41dd07a8c", "fusion_lon": 0.0, "rental_uris": {"android": "https://dc.lft.to/lastmile_qr_scan", "ios": "https://dc.lft.to/lastmile_qr_scan"}, "name": "2ec195200eb8d70f48f104b41dd07a8c", "type": "electric_scooter", "lat": 38.92417666666667, "is_disabled": 0},