{"data": {"bikes": [{"type": "electric_scooter", "fusion_lon": 0.0, "bike_id": "714cc4c4d59cf07aea21a42d96bc725f", "is_disabled": 0, "lat": 38.87922866666667, "rental_uris": {"ios": "https://dc.lft.to/lastmile_qr_scan", "android": "https://dc.lft.to/lastmile_qr_scan"}, "is_reserved": 0, "lon": -76.99547933333334, "fusion_lat": 0.0, "name": "714cc4c4d59cf07aea21a42d96bc725f"}, {"type": "electric_scooter", "fusion_lon": 0.0, "bike_id": "d00631d6b569da0ef4e30f94097b9332", "is_disabled": 0, "lat": 38.90121366666666, "rental_uris": {"ios": "https://dc.lft.to/lastmile_qr_scan", "android": "https://dc.lft.to/lastmile_qr_scan"}, "is_reserved": 0, "lon": -77.03443616666667, "fusion_lat": 0.0, "name": "d00631d6b569da0ef4e30f94097b9332"}, {"type": "electric_scooter", "fusion_lon": 0.0, "bike_id": "29e390bd3525d4e3c5dfc1fc9d5b3355", "is_disabled": 0, "lat": 38.89222566666667, "rental_uris": {"ios": "https://dc.lft.to/lastmile_qr_scan", "android": "https://dc.lft.to/lastmile_qr_scan"}, "is_reserved": 0, "lon": -77.02627816666667, "fusion_lat": 0.0, "name": "29e390bd3525d4e3c5dfc1fc9d5b3355"}, {"type": "electric_scooter", "fusion_lon": 0.0, "bike_id": "2455eb3cd84aa519a5734ac52c3464d0", "is_disabled": 0, "lat": 38.871752, "rental_uris": {"ios": "https://dc.lft.to/lastmile_qr_scan", "android": "https://dc.lft.to/lastmile_qr_scan"}, "is_reserved": 0, "lon": -77.0062625, "fusion_lat": 0.0, "name": "2455eb3cd84aa519a5734ac52c3464d0"}, {"type": "electric_scooter", "fusion_lon": 0.0, "bike_id": "4672a35be2b677e374262d0ae1c2c538", "is_disabled": 0, "lat": 38.886115333333336, "rental_uris": {"ios": "https://dc.lft.to/lastmile_qr_scan", "android": "https://dc.lft.to/lastmile_qr_scan"}, "is_reserved": 0, "lon": -76.985565, "fusion_lat": 0.0, "name": "4672a35be2b677e374262d0ae1c2c538"}, {"type": "electric_scooter", "fusion_lon": 0.0, "bike_id": "8d4a7521c5d0185d7c52b4ca859d8cb0", "is_disabled": 0, "lat": 38.90849433333333, "rental_uris": {"ios": "https://dc.lft.to/lastmile_qr_scan", "android": "https://dc.lft.to/lastmile_qr_scan"}, "is_reserved": 0, "lon": -76.99689466666666, "fusion_lat": 0.0, "name": "8d4a7521c5d0185d7c52b4ca859d8cb0"}, {"type": "electric_scooter", "fusion_lon": 0.0, "bike_id": "6cf3ca4c570f9f18eef6d0ca3f8b487f", "is_disabled": 0, "lat": 38.892207666666664, "rental_uris": {"ios": "https://dc.lft.to/lastmile_qr_scan", "android": "https://dc.lft.to/lastmile_qr_scan"}, "is_reserved": 0, "lon": -77.022196, "fusion_lat": 0.0, "name": "6cf3ca4c570f9f18eef6d0ca3f8b487f"}, {"type": "electric_scooter", "fusion_lon": 0.0, "bike_id": "7e0838c922228c23b327066b076b0bae", "is_disabled": 0, "lat": 38.93701933333333, "rental_uris": {"ios": "https://dc.lft.to/lastmile_qr_scan", "android": "https://dc.lft.to/lastmile_qr_scan"}, "is_reserved": 0, "lon": -77.02412783333334, "fusion_lat": 0.0, "name": "7e0838c922228c23b327066b076b0bae"}, {"type": "electric_scooter", "fusion_lon": 0.0, "bike_id": "b039cf60e6c7280637d10cbad393093b", "is_disabled": 0, "lat": 38.918799666666665, "rental_uris": {"ios": "https://dc.lft.to/lastmile_qr_scan", "android": "https://dc.lft.to/lastmile_qr_scan"}, "is_reserved": 0, "lon": -77.02601883333334, "fusion_lat": 0.0, "name": "b039cf60e6c7280637d10cbad393093b"}, {"type": "electric_scooter", "fusion_lon": 0.0, "bike_id": "f91b8a4753ae585698caa141be089c05", "is_disabled": 0, "lat": 38.891969, "rental_uris": {"ios": "https://dc.lft.to/lastmile_qr_scan", "android": "https://dc.lft.to/lastmile_qr_scan"}, "is_reserved": 0, "lon": -77.0237855, "fusion_lat": 0.0, "name": "f91b8a4753ae585698caa141be089c05"}, {"type": "electric_scooter", "fusion_lon": 0.0, "bike_id": "021988ebbd331096e108f7c6fa77c073", "is_disabled": 0, "lat": 38.956515833333334, "rental_uris": {"ios": "https://dc.lft.to/lastmile_qr_scan", "android": "https://dc.lft.to/lastmile_qr_scan"}, "is_reserved": 0, "lon": -77.01972466666666, "fusion_lat": 0.0, "name": "021988ebbd331096e108f7c6fa77c073"}, {"type": "electric_scooter", "fusion_lon": 0.0, "bike_id": "0ed1ac4e04dc57ff6f0afedbc469df3f", "is_disabled": 0, "lat": 38.93121, "rental_uris": {"ios": "https://dc.lft.to/lastmile_qr_scan", "android": "https://dc.lft.to/lastmile_qr_scan"}, "is_reserved": 0, "lon": -77.02069533333334, "fusion_lat": 0.0, "name": "0ed1ac4e04dc57ff6f0afedbc469df3f"}, {"type": "electric_scooter", "fusion_lon": 0.0, "bike_id": "30e12ebf97171f21d7f3a9711939e08e", "is_disabled": 0, "lat": 38.924559, "rental_uris": {"ios": "https://dc.lft.to/lastmile_qr_scan", "android": "https://dc.lft.to/lastmile_qr_scan"}, "is_reserved": 0, "lon": -77.03286683333333, "fusion_lat": 0.0, "name": "30e12ebf97171f21d7f3a9711939e08e"}, {"type": "electric_scooter", "fusion_lon": 0.0, "bike_id": "7023dfb45f52ea74b02c6b72c5fd9355", "is_disabled": 0, "lat": 38.90866416666667, "rental_uris": {"ios": "https://dc.lft.to/lastmile_qr_scan", "android": "https://dc.lft.to/lastmile_qr_scan"}, "is_reserved": 0, "lon": -77.03499183333334, "fusion_lat": 0.0, "name": "7023dfb45f52ea74b02c6b72c5fd9355"}, {"type": "electric_bike", "fusion_lon": 0.0, "bike_id": "5b71c2f3f77c3f6a00c049e27e668c70", "is_disabled": 0, "lat": 38.831044, "rental_uris": {"ios": "https://dc.lft.to/lastmile_qr_scan", "android": "https://dc.lft.to/lastmile_qr_scan"}, "is_reserved": 0, "lon": -77.11286466666667, "fusion_lat": 0.0, "name": "5b71c2f3f77c3f6a00c049e27e668c70"}, {"type": "electric_scooter", "fusion_lon": 0.0, "bike_id": "3fdd1e643adb5c3fdfdd65a302a0c78b", "is_disabled": 0, "lat": 38.91335983333333, "rental_uris": {"ios": "https://dc.lft.to/lastmile_qr_scan", "android": "https://dc.lft.to/lastmile_qr_scan"}, "is_reserved": 0, "lon": -77.06332183333333, "fusion_lat": 0.0, "name": "3fdd1e643adb5c3fdfdd65a302a0c78b"}, {"type": "electric_bike", "fusion_lon": 0.0, "bike_id": "bb552965ada23d3d064e9a5c36d8a3bd", "is_disabled": 0, "lat": 38.935896166666666, "rental_uris": {"ios": "https://dc.lft.to/lastmile_qr_scan", "android": "https://dc.lft.to/lastmile_qr_scan"}, "is_reserved": 0, "lon": -77.03755783333334, "fusion_lat": 0.0, "name": "bb552965ada23d3d064e9a5c36d8a3bd"}, {"type": "electric_scooter", "fusion_lon": 0.0, "bike_id": "b50ce6f20ebe73670a64ae2173741298", "is_disabled": 0, "lat": 38.90974683333334, "rental_uris": {"ios": "https://dc.lft.to/lastmile_qr_scan", "android": "https://dc.lft.to/lastmile_qr_scan"}, "is_reserved": 0, "lon": -77.0384985, "fusion_lat": 0.0, "name": "b50ce6f20ebe73670a64ae2173741298"}, {"type": "electric_bike", "fusion_lon": 0.0, "bike_id": "fcac7055c33dd88e6acbf82ab326de3d", "is_disabled": 0, "lat": 38.90005216666667, "rental_uris": {"ios": "https://dc.lft.to/lastmile_qr_scan", "android": "https://dc.lft.to/lastmile_qr_scan"}, "is_reserved": 0, "lon": -77.0055, "fusion_lat": 0.0, "name": "fcac7055c33dd88e6acbf82ab326de3d"}, {"type": "electric_scooter", "fusion_lon": 0.0, "bike_id": "084603c94e515e70bd9a0df557f7c378", "is_disabled": 0, "lat": 38.903300333333334, "rental_uris": {"ios": "https://dc.lft.to/lastmile_qr_scan", "android": "https://dc.lft.to/lastmile_qr_scan"}, "is_reserved": 0, "lon": -77.0492525, "fusion_lat": 0.0, "name": "084603c94e515e70bd9a0df557f7c378"}, {"type": "electric_scooter", "fusion_lon": 0.0, "bike_id": "3484817f5d73f0f4f39d74c18696c6da", "is_disabled": 0, "lat": 38.907753666666665, "rental_uris": {"ios": "https://dc.lft.to/lastmile_qr_scan", "android": "https://dc.lft.to/lastmile_qr_scan"}, "is_reserved": 0, "lon": -77.02968616666666, "fusion_lat": 0.0, "name": "3484817f5d73f0f4f39d74c18696c6da"}, {"type": "electric_scooter", "fusion_lon": 0.0, "bike_id": "e9180e13b2c7d0e80b719cba6e0f9f01", "is_disabled": 0, "lat": 38.9134745, "rental_uris": {"ios": "https://dc.lft.to/lastmile_qr_scan", "android": "https://dc.lft.to/lastmile_qr_scan"}, "is_reserved": 0, "lon": -77.02945116666666, "fusion_lat": 0.0, "name": "e9180e13b2c7d0e80b719cba6e0f9f01"}, {"type": "electric_scooter", "fusion_lon": 0.0, "bike_id": "79a963a4fb686c42fcd0d793b9240638", "is_disabled": 0, "lat": 38.929004166666665, "rental_uris": {"ios": "https://dc.lft.to/lastmile_qr_scan", "android": "https://dc.lft.to/lastmile_qr_scan"}, "is_reserved": 0, "lon": -77.05808266666666, "fusion_lat": 0.0, "name": "79a963a4fb686c42fcd0d793b9240638"}, {"type": "electric_scooter", "fusion_lon": 0.0, "bike_id": "cfe9e748364d5d6509d42488614cb4fa", "is_disabled": 0, "lat": 38.93283383333333, "rental_uris": {"ios": "https://dc.lft.to/lastmile_qr_scan", "android": "https://dc.lft.to/lastmile_qr_scan"}, "is_reserved": 0, "lon": -77.04084483333334, "fusion_lat": 0.0, "name": "cfe9e748364d5d6509d42488614cb4fa"}, {"type": "electric_scooter", "fusion_lon": 0.0, "bike_id": "20a0bcaacf8c6617d358e957d8971e92", "is_disabled": 0, "lat": 38.923347666666665, "rental_uris": {"ios": "https://dc.lft.to/lastmile_qr_scan", "android": "https://dc.lft.to/lastmile_qr_scan"}, "is_reserved": 0, "lon": -77.03545866666667, "fusion_lat": 0.0, "name": "20a0bcaacf8c6617d358e957d8971e92"}, {"type": "electric_scooter", "fusion_lon": 0.0, "bike_id": "4c8244245c0cc55f81dd928a5e16ac6b", "is_disabled": 0, "lat": 38.90571033333333, "rental_uris": {"ios": "https://dc.lft.to/lastmile_qr_scan", "android": "https://dc.lft.to/lastmile_qr_scan"}, "is_reserved": 0, "lon": -77.02418516666667, "fusion_lat": 0.0, "name": "4c8244245c0cc55f81dd928a5e16ac6b"}, {"type": "electric_scooter", "fusion_lon": 0.0, "bike_id": "a930316eaed5a8aa21bf0a9501581106", "is_disabled": 0, "lat": 38.89918316666667, "rental_uris": {"ios": "https://dc.lft.to/lastmile_qr_scan", "android": "https://dc.lft.to/lastmile_qr_scan"}, "is_reserved": 0, "lon": -76.933817, "fusion_lat": 0.0, "name": "a930316eaed5a8aa21bf0a9501581106"}, {"type": "electric_scooter", "fusion_lon": 0.0, "bike_id": "379b850da339f24931b48db2ec4bbbcd", "is_disabled": 0, "lat": 38.87649783333333, "rental_uris": {"ios": "https://dc.lft.to/lastmile_qr_scan", "android": "https://dc.lft.to/lastmile_qr_scan"}, "is_reserved": 0, "lon": -76.96506766666667, "fusion_lat": 0.0, "name": "379b850da339f24931b48db2ec4bbbcd"}, {"type": "electric_scooter", "fusion_lon": 0.0, "bike_id": "39e6457db83657c731253fad9670f35a", "is_disabled": 0, "lat": 38.938259, "rental_uris": {"ios": "https://dc.lft.to/lastmile_qr_scan", "android": "https://dc.lft.to/lastmile_qr_scan"}, "is_reserved": 0, "lon": -76.98932333333333, "fusion_lat": 0.0, "name": "39e6457db83657c731253fad9670f35a"}, {"type": "electric_scooter", "fusion_lon": 0.0, "bike_id": "c210b28665b04ea0de7479ae8b77d7c7", "is_disabled": 0, "lat": 38.89685083333333, "rental_uris": {"ios": "https://dc.lft.to/lastmile_qr_scan", "android": "https://dc.lft.to/lastmile_qr_scan"}, "is_reserved": 0, "lon": -77.01959516666666, "fusion_lat": 0.0, "name": "c210b28665b04ea0de7479ae8b77d7c7"}, {"type": "electric_bike", "fusion_lon": 0.0, "bike_id": "02c55cfdf38d3efbb0fc55edf1d769bb", "is_disabled": 0, "lat": 38.992064, "rental_uris": {"ios": "https://dc.lft.to/lastmile_qr_scan", "android": "https://dc.lft.to/lastmile_qr_scan"}, "is_reserved": 0, "lon": -77.03194166666667, "fusion_lat": 0.0, "name": "02c55cfdf38d3efbb0fc55edf1d769bb"}, {"type": "electric_scooter", "fusion_lon": 0.0, "bike_id": "0e29ff3fa7eb2b0aec1a33ca15c61db1", "is_disabled": 0, "lat": 38.89730216666667, "rental_uris": {"ios": "https://dc.lft.to/lastmile_qr_scan", "android": "https://dc.lft.to/lastmile_qr_scan"}, "is_reserved": 0, "lon": -76.9849545, "fusion_lat": 0.0, "name": "0e29ff3fa7eb2b0aec1a33ca15c61db1"}, {"type": "electric_scooter", "fusion_lon": 0.0, "bike_id": "2c8a07e13e539a3eb8312c910f009d51", "is_disabled": 0, "lat": 38.90706683333333, "rental_uris": {"ios": "https://dc.lft.to/lastmile_qr_scan", "android": "https://dc.lft.to/lastmile_qr_scan"}, "is_reserved": 0, "lon": -76.985611, "fusion_lat": 0.0, "name": "2c8a07e13e539a3eb8312c910f009d51"}, {"type": "electric_scooter", "fusion_lon": 0.0, "bike_id": "c5af6d18ebdf2b4b6323c7e11f50d74f", "is_disabled": 0, "lat": 38.919267, "rental_uris": {"ios": "https://dc.lft.to/lastmile_qr_scan", "android": "https://dc.lft.to/lastmile_qr_scan"}, "is_reserved": 0, "lon": -77.02490733333333, "fusion_lat": 0.0, "name": "c5af6d18ebdf2b4b6323c7e11f50d74f"}, {"type": "electric_scooter", "fusion_lon": 0.0, "bike_id": "6b58c9b0442a1cea295c6c2a5d6d6902", "is_disabled": 0, "lat": 38.904178333333334, "rental_uris": {"ios": "https://dc.lft.to/lastmile_qr_scan", "android": "https://dc.lft.to/lastmile_qr_scan"}, "is_reserved": 0, "lon": -77.02528633333333, "fusion_lat": 0.0, "name": "6b58c9b0442a1cea295c6c2a5d6d6902"}, {"type": "electric_scooter", "fusion_lon": 0.0, "bike_id": "896c75b6478185f6fa7d8b05e95575bd", "is_disabled": 0, "lat": 38.90649533333333, "rental_uris": {"ios": "https://dc.lft.to/lastmile_qr_scan", "android": "https://dc.lft.to/lastmile_qr_scan"}, "is_reserved": 0, "lon": -77.0424455, "fusion_lat": 0.0, "name": "896c75b6478185f6fa7d8b05e95575bd"}, {"type": "electric_scooter", "fusion_lon": 0.0, "bike_id": "de13dfa0efe487cfd2299e6a61695ebd", "is_disabled": 0, "lat": 38.917173, "rental_uris": {"ios": "https://dc.lft.to/lastmile_qr_scan", "android": "https://dc.lft.to/lastmile_qr_scan"}, "is_reserved": 0, "lon": -77.02403283333334, "fusion_lat": 0.0, "name": "de13dfa0efe487cfd2299e6a61695ebd"}, {"type": "electric_scooter", "fusion_lon": 0.0, "bike_id": "b69382d1e77de2e50178b12ba55874ba", "is_disabled": 0, "lat": 38.919616166666664, "rental_uris": {"ios": "https://dc.lft.to/lastmile_qr_scan", "android": "https://dc.lft.to/lastmile_qr_scan"}, "is_reserved": 0, "lon": -77.02390166666666, "fusion_lat": 0.0, "name": "b69382d1e77de2e50178b12ba55874ba"}, {"type": "electric_bike", "fusion_lon": 0.0, "bike_id": "9936411e88767228e991abc7464a3965", "is_disabled": 0, "lat": 38.92216, "rental_uris": {"ios": "https://dc.lft.to/lastmile_qr_scan", "android": "https://dc.lft.to/lastmile_qr_scan"}, "is_reserved": 0, "lon": -77.08206733333333, "fusion_lat": 0.0, "name": "9936411e88767228e991abc7464a3965"}, {"type": "electric_scooter", "fusion_lon": 0.0, "bike_id": "80407f6ea13a2d98b64122a5e4c62a37", "is_disabled": 0, "lat": 38.87784083333333, "rental_uris": {"ios": "https://dc.lft.to/lastmile_qr_scan", "android": "https://dc.lft.to/lastmile_qr_scan"}, "is_reserved": 0, "lon": -76.99411516666666, "fusion_lat": 0.0, "name": "80407f6ea13a2d98b64122a5e4c62a37"}, {"type": "electric_scooter", "fusion_lon": 0.0, "bike_id": "f3eb34a649279183021e57e12ef3a890", "is_disabled": 0, "lat": 38.912673833333336, "rental_uris": {"ios": "https://dc.lft.to/lastmile_qr_scan", "android": "https://dc.lft.to/lastmile_qr_scan"}, "is_reserved": 0, "lon": -77.03796683333333, "fusion_lat": 0.0, "name": "f3eb34a649279183021e57e12ef3a890"}, {"type": "electric_bike", "fusion_lon": 0.0, "bike_id": "2947be86e3b34d8c3003fad1d156fc07", "is_disabled": 0, "lat": 38.856157833333334, "rental_uris": {"ios": "https://dc.lft.to/lastmile_qr_scan", "android": "https://dc.lft.to/lastmile_qr_scan"}, "is_reserved": 0, "lon": -77.11173866666667, "fusion_lat": 0.0, "name": "2947be86e3b34d8c3003fad1d156fc07"}, {"type": "electric_scooter", "fusion_lon": 0.0, "bike_id": "fbd900b12d83a9f2ab5e391ef86fd141", "is_disabled": 0, "lat": 38.908508499999996, "rental_uris": {"ios": "https://dc.lft.to/lastmile_qr_scan", "android": "https://dc.lft.to/lastmile_qr_scan"}, "is_reserved": 0, "lon": -76.9968555, "fusion_lat": 0.0, "name": "fbd900b12d83a9f2ab5e391ef86fd141"}, {"type": "electric_scooter", "fusion_lon": 0.0, "bike_id": "d4df8ce0f50272e66d575a11dd95bb13", "is_disabled": 0, "lat": 38.90523433333333, "rental_uris": {"ios": "https://dc.lft.to/lastmile_qr_scan", "android": "https://dc.lft.to/lastmile_qr_scan"}, "is_reserved": 0, "lon": -77.02969366666666, "fusion_lat": 0.0, "name": "d4df8ce0f50272e66d575a11dd95bb13"}, {"type": "electric_bike", "fusion_lon": 0.0, "bike_id": "c30c172f02c71b588639a4f7b2b8b0fc", "is_disabled": 0, "lat": 38.8622725, "rental_uris": {"ios": "https://dc.lft.to/lastmile_qr_scan", "android": "https://dc.lft.to/lastmile_qr_scan"}, "is_reserved": 0, "lon": -76.99585216666667, "fusion_lat": 0.0, "name": "c30c172f02c71b588639a4f7b2b8b0fc"}, {"type": "electric_scooter", "fusion_lon": 0.0, "bike_id": "c55f136a51fd08d4c748068c7f9ef17f", "is_disabled": 0, "lat": 38.917067833333334, "rental_uris": {"ios": "https://dc.lft.to/lastmile_qr_scan", "android": "https://dc.lft.to/lastmile_qr_scan"}, "is_reserved": 0, "lon": -77.034706, "fusion_lat": 0.0, "name": "c55f136a51fd08d4c748068c7f9ef17f"}, {"type": "electric_scooter", "fusion_lon": 0.0, "bike_id": "b4176a23317be23cabce5a0a8801aef8", "is_disabled": 0, "lat": 38.90036283333333, "rental_uris": {"ios": "https://dc.lft.to/lastmile_qr_scan", "android": "https://dc.lft.to/lastmile_qr_scan"}, "is_reserved": 0, "lon": -77.02388516666667, "fusion_lat": 0.0, "name": "b4176a23317be23cabce5a0a8801aef8"}, {"type": "electric_scooter", "fusion_lon": 0.0, "bike_id": "322466531a2e0851f3429ac9d9ad0e6d", "is_disabled": 0, "lat": 38.91772, "rental_uris": {"ios": "https://dc.lft.to/lastmile_qr_scan", "android": "https://dc.lft.to/lastmile_qr_scan"}, "is_reserved": 0, "lon": -77.02344133333334, "fusion_lat": 0.0, "name": "322466531a2e0851f3429ac9d9ad0e6d"}, {"type": "electric_scooter", "fusion_lon": 0.0, "bike_id": "21dd138be0cfdce4538ec498823bbd32", "is_disabled": 0, "lat": 38.92251683333333, "rental_uris": {"ios": "https://dc.lft.to/lastmile_qr_scan", "android": "https://dc.lft.to/lastmile_qr_scan"}, "is_reserved": 0, "lon": -77.07346166666666, "fusion_lat": 0.0, "name": "21dd138be0cfdce4538ec498823bbd32"}, {"type": "electric_scooter", "fusion_lon": 0.0, "bike_id": "697716d3aaa2b327ff8322611bbbf2ee", "is_disabled": 0, "lat": 38.876704833333335, "rental_uris": {"ios": "https://dc.lft.to/lastmile_qr_scan", "android": "https://dc.lft.to/lastmile_qr_scan"}, "is_reserved": 0, "lon": -77.00935983333333, "fusion_lat": 0.0, "name": "697716d3aaa2b327ff8322611bbbf2ee"}, {"type": "electric_scooter", "fusion_lon": 0.0, "bike_id": "d7d48e020d0f2f15fdd57b0a7e4c7713", "is_disabled": 0, "lat": 38.9034805, "rental_uris": {"ios": "https://dc.lft.to/lastmile_qr_scan", "android": "https://dc.lft.to/lastmile_qr_scan"}, "is_reserved": 0, "lon": -77.02387533333334, "fusion_lat": 0.0, "name": "d7d48e020d0f2f15fdd57b0a7e4c7713"}, {"type": "electric_scooter", "fusion_lon": 0.0, "bike_id": "6de15cae73b49d8dc75fee4b647dba29", "is_disabled": 0, "lat": 38.920819333333334, "rental_uris": {"ios": "https://dc.lft.to/lastmile_qr_scan", "android": "https://dc.lft.to/lastmile_qr_scan"}, "is_reserved": 0, "lon": -77.025111, "fusion_lat": 0.0, "name": "6de15cae73b49d8dc75fee4b647dba29"}, {"type": "electric_scooter", "fusion_lon": 0.0, "bike_id": "3d9a4cef4695b15ea90fc6bd820fa343", "is_disabled": 0, "lat": 38.97212866666667, "rental_uris": {"ios": "https://dc.lft.to/lastmile_qr_scan", "android": "https://dc.lft.to/lastmile_qr_scan"}, "is_reserved": 0, "lon": -77.0333715, "fusion_lat": 0.0, "name": "3d9a4cef4695b15ea90fc6bd820fa343"}, {"type": "electric_scooter", "fusion_lon": 0.0, "bike_id": "16ac3f9aa68257a194104f3a73e3fc9b", "is_disabled": 0, "lat": 38.904197333333336, "rental_uris": {"ios": "https://dc.lft.to/lastmile_qr_scan", "android": "https://dc.lft.to/lastmile_qr_scan"}, "is_reserved": 0, "lon": -77.04276266666666, "fusion_lat": 0.0, "name": "16ac3f9aa68257a194104f3a73e3fc9b"}, {"type": "electric_scooter", "fusion_lon": 0.0, "bike_id": "fd5f1706077fb009f4b3ed7b4eb7c385", "is_disabled": 0, "lat": 38.904143, "rental_uris": {"ios": "https://dc.lft.to/lastmile_qr_scan", "android": "https://dc.lft.to/lastmile_qr_scan"}, "is_reserved": 0, "lon": -77.03271216666667, "fusion_lat": 0.0, "name": "fd5f1706077fb009f4b3ed7b4eb7c385"}, {"type": "electric_scooter", "fusion_lon": 0.0, "bike_id": "9963e7701e20beb5f967badfb6dafc4d", "is_disabled": 0, "lat": 38.905121, "rental_uris": {"ios": "https://dc.lft.to/lastmile_qr_scan", "android": "https://dc.lft.to/lastmile_qr_scan"}, "is_reserved": 0, "lon": -76.95198233333333, "fusion_lat": 0.0, "name": "9963e7701e20beb5f967badfb6dafc4d"}, {"type": "electric_scooter", "fusion_lon": 0.0, "bike_id": "c278b3ae25fa211841f313ae3461aa86", "is_disabled": 0, "lat": 38.918881666666664, "rental_uris": {"ios": "https://dc.lft.to/lastmile_qr_scan", "android": "https://dc.lft.to/lastmile_qr_scan"}, "is_reserved": 0, "lon": -77.03824033333333, "fusion_lat": 0.0, "name": "c278b3ae25fa211841f313ae3461aa86"}, {"type": "electric_bike", "fusion_lon": 0.0, "bike_id": "fb59ae1d5f92cc25ead07e9810bbcb92", "is_disabled": 0, "lat": 38.87130833333333, "rental_uris": {"ios": "https://dc.lft.to/lastmile_qr_scan", "android": "https://dc.lft.to/lastmile_qr_scan"}, "is_reserved": 0, "lon": -76.9373075, "fusion_lat": 0.0, "name": "fb59ae1d5f92cc25ead07e9810bbcb92"}, {"type": "electric_scooter", "fusion_lon": 0.0, "bike_id": "b2a860abeab7e9669b6f58ae68005761", "is_disabled": 0, "lat": 38.8919985, "rental_uris": {"ios": "https://dc.lft.to/lastmile_qr_scan", "android": "https://dc.lft.to/lastmile_qr_scan"}, "is_reserved": 0, "lon": -77.00298066666667, "fusion_lat": 0.0, "name": "b2a860abeab7e9669b6f58ae68005761"}, {"type": "electric_scooter", "fusion_lon": 0.0, "bike_id": "c0ee9eaee85e1df04d93327ec0752de3", "is_disabled": 0, "lat": 38.900077, "rental_uris": {"ios": "https://dc.lft.to/lastmile_qr_scan", "android": "https://dc.lft.to/lastmile_qr_scan"}, "is_reserved": 0, "lon": -77.00672916666667, "fusion_lat": 0.0, "name": "c0ee9eaee85e1df04d93327ec0752de3"}, {"type": "electric_scooter", "fusion_lon": 0.0, "bike_id": "8ff5bc3afd850d58d51c2f5bc1c93787", "is_disabled": 0, "lat": 38.892256, "rental_uris": {"ios": "https://dc.lft.to/lastmile_qr_scan", "android": "https://dc.lft.to/lastmile_qr_scan"}, "is_reserved": 0, "lon": -77.04336216666667, "fusion_lat": 0.0, "name": "8ff5bc3afd850d58d51c2f5bc1c93787"}, {"type": "electric_scooter", "fusion_lon": 0.0, "bike_id": "2c5fe28d87ba853a010679518a5fdb3a", "is_disabled": 0, "lat": 38.957065166666666, "rental_uris": {"ios": "https://dc.lft.to/lastmile_qr_scan", "android": "https://dc.lft.to/lastmile_qr_scan"}, "is_reserved": 0, "lon": -77.024054, "fusion_lat": 0.0, "name": "2c5fe28d87ba853a010679518a5fdb3a"}, {"type": "electric_scooter", "fusion_lon": 0.0, "bike_id": "5e0d1c01ef5dd84c1e624af397dee587", "is_disabled": 0, "lat": 38.93605383333333, "rental_uris": {"ios": "https://dc.lft.to/lastmile_qr_scan", "android": "https://dc.lft.to/lastmile_qr_scan"}, "is_reserved": 0, "lon": -77.038133, "fusion_lat": 0.0, "name": "5e0d1c01ef5dd84c1e624af397dee587"}, {"type": "electric_scooter", "fusion_lon": 0.0, "bike_id": "c2f61346024cc26e58908348d1ac3fec", "is_disabled": 0, "lat": 38.90895533333333, "rental_uris": {"ios": "https://dc.lft.to/lastmile_qr_scan", "android": "https://dc.lft.to/lastmile_qr_scan"}, "is_reserved": 0, "lon": -77.0029485, "fusion_lat": 0.0, "name": "c2f61346024cc26e58908348d1ac3fec"}, {"type": "electric_scooter", "fusion_lon": 0.0, "bike_id": "362dd7d70516ed7473d7022a9a91e66f", "is_disabled": 0, "lat": 38.876492166666665, "rental_uris": {"ios": "https://dc.lft.to/lastmile_qr_scan", "android": "https://dc.lft.to/lastmile_qr_scan"}, "is_reserved": 0, "lon": -77.0005925, "fusion_lat": 0.0, "name": "362dd7d70516ed7473d7022a9a91e66f"}, {"type": "electric_scooter", "fusion_lon": 0.0, "bike_id": "1ed3dac49dea971ead32327f09d3c86e", "is_disabled": 0, "lat": 38.89220816666667, "rental_uris": {"ios": "https://dc.lft.to/lastmile_qr_scan", "android": "https://dc.lft.to/lastmile_qr_scan"}, "is_reserved": 0, "lon": -77.03160233333334, "fusion_lat": 0.0, "name": "1ed3dac49dea971ead32327f09d3c86e"}, {"type": "electric_scooter", "fusion_lon": 0.0, "bike_id": "ab9808dab485badb07bd960f79fe8166", "is_disabled": 0, "lat": 38.93604933333334, "rental_uris": {"ios": "https://dc.lft.to/lastmile_qr_scan", "android": "https://dc.lft.to/lastmile_qr_scan"}, "is_reserved": 0, "lon": -77.037941, "fusion_lat": 0.0, "name": "ab9808dab485badb07bd960f79fe8166"}, {"type": "electric_bike", "fusion_lon": 0.0, "bike_id": "dc1e2b1ec7afecc5dcce11fe45a45d46", "is_disabled": 0, "lat": 38.807559, "rental_uris": {"ios": "https://dc.lft.to/lastmile_qr_scan", "android": "https://dc.lft.to/lastmile_qr_scan"}, "is_reserved": 0, "lon": -77.09453083333334, "fusion_lat": 0.0, "name": "dc1e2b1ec7afecc5dcce11fe45a45d46"}, {"type": "electric_scooter", "fusion_lon": 0.0, "bike_id": "eaf89bef783a42504ef7cd11a92545ab", "is_disabled": 0, "lat": 38.927959666666666, "rental_uris": {"ios": "https://dc.lft.to/lastmile_qr_scan", "android": "https://dc.lft.to/lastmile_qr_scan"}, "is_reserved": 0, "lon": -77.0370015, "fusion_lat": 0.0, "name": "eaf89bef783a42504ef7cd11a92545ab"}, {"type": "electric_scooter", "fusion_lon": 0.0, "bike_id": "154d2d84d3519e43b68f2eadbff5bdbf", "is_disabled": 0, "lat": 38.87644866666667, "rental_uris": {"ios": "https://dc.lft.to/lastmile_qr_scan", "android": "https://dc.lft.to/lastmile_qr_scan"}, "is_reserved": 0, "lon": -77.0057045, "fusion_lat": 0.0, "name": "154d2d84d3519e43b68f2eadbff5bdbf"}, {"type": "electric_scooter", "fusion_lon": 0.0, "bike_id": "8586861d0c950ccef6a892bf3434c606", "is_disabled": 0, "lat": 38.954132666666666, "rental_uris": {"ios": "https://dc.lft.to/lastmile_qr_scan", "android": "https://dc.lft.to/lastmile_qr_scan"}, "is_reserved": 0, "lon": -77.03522466666666, "fusion_lat": 0.0, "name": "8586861d0c950ccef6a892bf3434c606"}, {"type": "electric_scooter", "fusion_lon": 0.0, "bike_id": "ec8860ee815b84650d92c1d27a624771", "is_disabled": 0, "lat": 38.920761166666665, "rental_uris": {"ios": "https://dc.lft.to/lastmile_qr_scan", "android": "https://dc.lft.to/lastmile_qr_scan"}, "is_reserved": 0, "lon": -77.02394, "fusion_lat": 0.0, "name": "ec8860ee815b84650d92c1d27a624771"}, {"type": "electric_scooter", "fusion_lon": 0.0, "bike_id": "a16502d24646c1039b84be554dad8a42", "is_disabled": 0, "lat": 38.9461295, "rental_uris": {"ios": "https://dc.lft.to/lastmile_qr_scan", "android": "https://dc.lft.to/lastmile_qr_scan"}, "is_reserved": 0, "lon": -77.07885983333334, "fusion_lat": 0.0, "name": "a16502d24646c1039b84be554dad8a42"}, {"type": "electric_scooter", "fusion_lon": 0.0, "bike_id": "8196f8292b1cf777c95c6c0c0a3886fd", "is_disabled": 0, "lat": 38.8766975, "rental_uris": {"ios": "https://dc.lft.to/lastmile_qr_scan", "android": "https://dc.lft.to/lastmile_qr_scan"}, "is_reserved": 0, "lon": -76.93123316666667, "fusion_lat": 0.0, "name": "8196f8292b1cf777c95c6c0c0a3886fd"}, {"type": "electric_scooter", "fusion_lon": 0.0, "bike_id": "790cbfa6bf3c5e4a5c37d5b9cd8094de", "is_disabled": 0, "lat": 38.957698, "rental_uris": {"ios": "https://dc.lft.to/lastmile_qr_scan", "android": "https://dc.lft.to/lastmile_qr_scan"}, "is_reserved": 0, "lon": -77.01494866666667, "fusion_lat": 0.0, "name": "790cbfa6bf3c5e4a5c37d5b9cd8094de"}, {"type": "electric_scooter", "fusion_lon": 0.0, "bike_id": "0f30f66fae7e4bda49e79bedd39ea45e", "is_disabled": 0, "lat": 38.879269666666666, "rental_uris": {"ios": "https://dc.lft.to/lastmile_qr_scan", "android": "https://dc.lft.to/lastmile_qr_scan"}, "is_reserved": 0, "lon": -76.99886066666667, "fusion_lat": 0.0, "name": "0f30f66fae7e4bda49e79bedd39ea45e"}, {"type": "electric_scooter", "fusion_lon": 0.0, "bike_id": "79c4318de47c2246498e9e6baa96f34b", "is_disabled": 0, "lat": 38.92656566666667, "rental_uris": {"ios": "https://dc.lft.to/lastmile_qr_scan", "android": "https://dc.lft.to/lastmile_qr_scan"}, "is_reserved": 0, "lon": -77.02436766666666, "fusion_lat": 0.0, "name": "79c4318de47c2246498e9e6baa96f34b"}, {"type": "electric_scooter", "fusion_lon": 0.0, "bike_id": "ed00ffc4b13cf4c7128317cff84b872d", "is_disabled": 0, "lat": 38.9056935, "rental_uris": {"ios": "https://dc.lft.to/lastmile_qr_scan", "android": "https://dc.lft.to/lastmile_qr_scan"}, "is_reserved": 0, "lon": -77.02420333333333, "fusion_lat": 0.0, "name": "ed00ffc4b13cf4c7128317cff84b872d"}, {"type": "electric_scooter", "fusion_lon": 0.0, "bike_id": "65f6252fc2c94dda304784a520d1d619", "is_disabled": 0, "lat": 38.9195175, "rental_uris": {"ios": "https://dc.lft.to/lastmile_qr_scan", "android": "https://dc.lft.to/lastmile_qr_scan"}, "is_reserved": 0, "lon": -77.041557, "fusion_lat": 0.0, "name": "65f6252fc2c94dda304784a520d1d619"}, {"type": "electric_scooter", "fusion_lon": 0.0, "bike_id": "095d1227876cca47d0e44a4076bd44e5", "is_disabled": 0, "lat": 38.94975866666667, "rental_uris": {"ios": "https://dc.lft.to/lastmile_qr_scan", "android": "https://dc.lft.to/lastmile_qr_scan"}, "is_reserved": 0, "lon": -77.02448083333333, "fusion_lat": 0.0, "name": "095d1227876cca47d0e44a4076bd44e5"}, {"type": "electric_scooter", "fusion_lon": 0.0, "bike_id": "66851304f9c6c66bca27599d7e34c965", "is_disabled": 0, "lat": 38.935228333333335, "rental_uris": {"ios": "https://dc.lft.to/lastmile_qr_scan", "android": "https://dc.lft.to/lastmile_qr_scan"}, "is_reserved": 0, "lon": -77.05442033333334, "fusion_lat": 0.0, "name": "66851304f9c6c66bca27599d7e34c965"}, {"type": "electric_scooter", "fusion_lon": 0.0, "bike_id": "ca87d15fbee4a0cd8ed6b23b59748e33", "is_disabled": 0, "lat": 38.924544833333336, "rental_uris": {"ios": "https://dc.lft.to/lastmile_qr_scan", "android": "https://dc.lft.to/lastmile_qr_scan"}, "is_reserved": 0, "lon": -77.03908566666667, "fusion_lat": 0.0, "name": "ca87d15fbee4a0cd8ed6b23b59748e33"}, {"type": "electric_bike", "fusion_lon": 0.0, "bike_id": "5f398fe881ecdcd9cc265f293d8bfab7", "is_disabled": 0, "lat": 38.943302, "rental_uris": {"ios": "https://dc.lft.to/lastmile_qr_scan", "android": "https://dc.lft.to/lastmile_qr_scan"}, "is_reserved": 0, "lon": -77.06055183333334, "fusion_lat": 0.0, "name": "5f398fe881ecdcd9cc265f293d8bfab7"}, {"type": "electric_scooter", "fusion_lon": 0.0, "bike_id": "c10367fb9dfc9d7f63826310cfe4f207", "is_disabled": 0, "lat": 38.90181616666667, "rental_uris": {"ios": "https://dc.lft.to/lastmile_qr_scan", "android": "https://dc.lft.to/lastmile_qr_scan"}, "is_reserved": 0, "lon": -77.02481483333334, "fusion_lat": 0.0, "name": "c10367fb9dfc9d7f63826310cfe4f207"}, {"type": "electric_scooter", "fusion_lon": 0.0, "bike_id": "c620828ed31f6fb565e60845dcbfd2e5", "is_disabled": 0, "lat": 38.922487, "rental_uris": {"ios": "https://dc.lft.to/lastmile_qr_scan", "android": "https://dc.lft.to/lastmile_qr_scan"}, "is_reserved": 0, "lon": -77.03034283333334, "fusion_lat": 0.0, "name": "c620828ed31f6fb565e60845dcbfd2e5"}, {"type": "electric_scooter", "fusion_lon": 0.0, "bike_id": "9b38be108293ce39028d335e613a8456", "is_disabled": 0, "lat": 38.904113, "rental_uris": {"ios": "https://dc.lft.to/lastmile_qr_scan", "android": "https://dc.lft.to/lastmile_qr_scan"}, "is_reserved": 0, "lon": -77.0678005, "fusion_lat": 0.0, "name": "9b38be108293ce39028d335e613a8456"}, {"type": "electric_scooter", "fusion_lon": 0.0, "bike_id": "680289eaab4ce33296f7cca87a198c45", "is_disabled": 0, "lat": 38.93732216666667, "rental_uris": {"ios": "https://dc.lft.to/lastmile_qr_scan", "android": "https://dc.lft.to/lastmile_qr_scan"}, "is_reserved": 0, "lon": -77.05954416666667, "fusion_lat": 0.0, "name": "680289eaab4ce33296f7cca87a198c45"}, {"type": "electric_scooter", "fusion_lon": 0.0, "bike_id": "4fbff40016e5e8179e393f93c8fa6ca4", "is_disabled": 0, "lat": 38.90008783333333, "rental_uris": {"ios": "https://dc.lft.to/lastmile_qr_scan", "android": "https://dc.lft.to/lastmile_qr_scan"}, "is_reserved": 0, "lon": -77.025895, "fusion_lat": 0.0, "name": "4fbff40016e5e8179e393f93c8fa6ca4"}, {"type": "electric_scooter", "fusion_lon": 0.0, "bike_id": "2dc9514ee50a79f00d8a6a0ebbfe13ea", "is_disabled": 0, "lat": 38.926852833333335, "rental_uris": {"ios": "https://dc.lft.to/lastmile_qr_scan", "android": "https://dc.lft.to/lastmile_qr_scan"}, "is_reserved": 0, "lon": -77.02262183333333, "fusion_lat": 0.0, "name": "2dc9514ee50a79f00d8a6a0ebbfe13ea"}, {"type": "electric_scooter", "fusion_lon": 0.0, "bike_id": "e8920d62952d3717f886a450c68c44a1", "is_disabled": 0, "lat": 38.910198, "rental_uris": {"ios": "https://dc.lft.to/lastmile_qr_scan", "android": "https://dc.lft.to/lastmile_qr_scan"}, "is_reserved": 0, "lon": -77.03852066666667, "fusion_lat": 0.0, "name": "e8920d62952d3717f886a450c68c44a1"}, {"type": "electric_scooter", "fusion_lon": 0.0, "bike_id": "73ad19cc817d992e7aba53a064da7113", "is_disabled": 0, "lat": 38.93557633333333, "rental_uris": {"ios": "https://dc.lft.to/lastmile_qr_scan", "android": "https://dc.lft.to/lastmile_qr_scan"}, "is_reserved": 0, "lon": -77.07457, "fusion_lat": 0.0, "name": "73ad19cc817d992e7aba53a064da7113"}, {"type": "electric_scooter", "fusion_lon": 0.0, "bike_id": "7d1db3eb52903737abb96ab7c98a60b0", "is_disabled": 0, "lat": 38.91274033333333, "rental_uris": {"ios": "https://dc.lft.to/lastmile_qr_scan", "android": "https://dc.lft.to/lastmile_qr_scan"}, "is_reserved": 0, "lon": -77.02963816666667, "fusion_lat": 0.0, "name": "7d1db3eb52903737abb96ab7c98a60b0"}, {"type": "electric_scooter", "fusion_lon": 0.0, "bike_id": "336558dca805e9230e1e13f6e3c09f12", "is_disabled": 0, "lat": 38.9213455, "rental_uris": {"ios": "https://dc.lft.to/lastmile_qr_scan", "android": "https://dc.lft.to/lastmile_qr_scan"}, "is_reserved": 0, "lon": -77.041269, "fusion_lat": 0.0, "name": "336558dca805e9230e1e13f6e3c09f12"}, {"type": "electric_scooter", "fusion_lon": 0.0, "bike_id": "d5393a2c67c073c4c67385edc625b9a7", "is_disabled": 0, "lat": 38.89229916666667, "rental_uris": {"ios": "https://dc.lft.to/lastmile_qr_scan", "android": "https://dc.lft.to/lastmile_qr_scan"}, "is_reserved": 0, "lon": -77.028282, "fusion_lat": 0.0, "name": "d5393a2c67c073c4c67385edc625b9a7"}, {"type": "electric_scooter", "fusion_lon": 0.0, "bike_id": "7e6008a83ad3ca917102a82cc14ce3fb", "is_disabled": 0, "lat": 38.891341, "rental_uris": {"ios": "https://dc.lft.to/lastmile_qr_scan", "android": "https://dc.lft.to/lastmile_qr_scan"}, "is_reserved": 0, "lon": -76.9889415, "fusion_lat": 0.0, "name": "7e6008a83ad3ca917102a82cc14ce3fb"}, {"type": "electric_scooter", "fusion_lon": 0.0, "bike_id": "9f9d13aa78e8665b2cd3f73297eff49f", "is_disabled": 0, "lat": 38.92290066666666, "rental_uris": {"ios": "https://dc.lft.to/lastmile_qr_scan", "android": "https://dc.lft.to/lastmile_qr_scan"}, "is_reserved": 0, "lon": -77.03192633333333, "fusion_lat": 0.0, "name": "9f9d13aa78e8665b2cd3f73297eff49f"}, {"type": "electric_scooter", "fusion_lon": 0.0, "bike_id": "12c302acaf521d304710850a4c9c3996", "is_disabled": 0, "lat": 38.91034583333333, "rental_uris": {"ios": "https://dc.lft.to/lastmile_qr_scan", "android": "https://dc.lft.to/lastmile_qr_scan"}, "is_reserved": 0, "lon": -77.04847733333334, "fusion_lat": 0.0, "name": "12c302acaf521d304710850a4c9c3996"}, {"type": "electric_scooter", "fusion_lon": 0.0, "bike_id": "57d5fad9b4dab9eab7ca1450818607fe", "is_disabled": 0, "lat": 38.90528, "rental_uris": {"ios": "https://dc.lft.to/lastmile_qr_scan", "android": "https://dc.lft.to/lastmile_qr_scan"}, "is_reserved": 0, "lon": -77.02952516666667, "fusion_lat": 0.0, "name": "57d5fad9b4dab9eab7ca1450818607fe"}, {"type": "electric_scooter", "fusion_lon": 0.0, "bike_id": "091d060673b8d2b40315fc691ee38d26", "is_disabled": 0, "lat": 38.897322333333335, "rental_uris": {"ios": "https://dc.lft.to/lastmile_qr_scan", "android": "https://dc.lft.to/lastmile_qr_scan"}, "is_reserved": 0, "lon": -77.0473805, "fusion_lat": 0.0, "name": "091d060673b8d2b40315fc691ee38d26"}, {"type": "electric_scooter", "fusion_lon": 0.0, "bike_id": "567fcb5637188fe7da0c83d66e29ae25", "is_disabled": 0, "lat": 38.9077895, "rental_uris": {"ios": "https://dc.lft.to/lastmile_qr_scan", "android": "https://dc.lft.to/lastmile_qr_scan"}, "is_reserved": 0, "lon": -77.00107683333333, "fusion_lat": 0.0, "name": "567fcb5637188fe7da0c83d66e29ae25"}, {"type": "electric_scooter", "fusion_lon": 0.0, "bike_id": "4e33db564a252e11384b95d5f31f3244", "is_disabled": 0, "lat": 38.92420833333333, "rental_uris": {"ios": "https://dc.lft.to/lastmile_qr_scan", "android": "https://dc.lft.to/lastmile_qr_scan"}, "is_reserved": 0, "lon": -77.02027816666667, "fusion_lat": 0.0, "name": "4e33db564a252e11384b95d5f31f3244"}, {"type": "electric_scooter", "fusion_lon": 0.0, "bike_id": "71502ff1b02c10dd1ebe64024380ac62", "is_disabled": 0, "lat": 38.892233166666664, "rental_uris": {"ios": "https://dc.lft.to/lastmile_qr_scan", "android": "https://dc.lft.to/lastmile_qr_scan"}, "is_reserved": 0, "lon": -77.04691416666667, "fusion_lat": 0.0, "name": "71502ff1b02c10dd1ebe64024380ac62"}, {"type": "electric_scooter", "fusion_lon": 0.0, "bike_id": "bb9d9b4cc7303372a4fb5db1b52d2e7a", "is_disabled": 0, "lat": 38.92466916666667, "rental_uris": {"ios": "https://dc.lft.to/lastmile_qr_scan", "android": "https://dc.lft.to/lastmile_qr_scan"}, "is_reserved": 0, "lon": -77.05237166666667, "fusion_lat": 0.0, "name": "bb9d9b4cc7303372a4fb5db1b52d2e7a"}, {"type": "electric_scooter", "fusion_lon": 0.0, "bike_id": "a7743b04e515ce252e47e49323e8ae2f", "is_disabled": 0, "lat": 38.92284816666667, "rental_uris": {"ios": "https://dc.lft.to/lastmile_qr_scan", "android": "https://dc.lft.to/lastmile_qr_scan"}, "is_reserved": 0, "lon": -77.02710366666666, "fusion_lat": 0.0, "name": "a7743b04e515ce252e47e49323e8ae2f"}, {"type": "electric_scooter", "fusion_lon": 0.0, "bike_id": "f21a98158d016e92791c57a3d4c30fc5", "is_disabled": 0, "lat": 38.900544833333335, "rental_uris": {"ios": "https://dc.lft.to/lastmile_qr_scan", "android": "https://dc.lft.to/lastmile_qr_scan"}, "is_reserved": 0, "lon": -76.99826883333333, "fusion_lat": 0.0, "name": "f21a98158d016e92791c57a3d4c30fc5"}, {"type": "electric_scooter", "fusion_lon": 0.0, "bike_id": "61ccdbae408f85cb192a52eb0ce664da", "is_disabled": 0, "lat": 38.926998, "rental_uris": {"ios": "https://dc.lft.to/lastmile_qr_scan", "android": "https://dc.lft.to/lastmile_qr_scan"}, "is_reserved": 0, "lon": -77.02343283333333, "fusion_lat": 0.0, "name": "61ccdbae408f85cb192a52eb0ce664da"}, {"type": "electric_scooter", "fusion_lon": 0.0, "bike_id": "e2e21a33d3da4cc2d629bde2da8d3a99", "is_disabled": 0, "lat": 38.919631, "rental_uris": {"ios": "https://dc.lft.to/lastmile_qr_scan", "android": "https://dc.lft.to/lastmile_qr_scan"}, "is_reserved": 0, "lon": -77.02710633333334, "fusion_lat": 0.0, "name": "e2e21a33d3da4cc2d629bde2da8d3a99"}, {"type": "electric_scooter", "fusion_lon": 0.0, "bike_id": "8fa02686e4fb9bab5bc5fb7cfa0090c4", "is_disabled": 0, "lat": 38.91768716666667, "rental_uris": {"ios": "https://dc.lft.to/lastmile_qr_scan", "android": "https://dc.lft.to/lastmile_qr_scan"}, "is_reserved": 0, "lon": -77.02346116666666, "fusion_lat": 0.0, "name": "8fa02686e4fb9bab5bc5fb7cfa0090c4"}, {"type": "electric_scooter", "fusion_lon": 0.0, "bike_id": "42ded02b917896f7ffa43d02f2781482", "is_disabled": 0, "lat": 38.929450333333335, "rental_uris": {"ios": "https://dc.lft.to/lastmile_qr_scan", "android": "https://dc.lft.to/lastmile_qr_scan"}, "is_reserved": 0, "lon": -77.055046, "fusion_lat": 0.0, "name": "42ded02b917896f7ffa43d02f2781482"}, {"type": "electric_scooter", "fusion_lon": 0.0, "bike_id": "61884c94af37f00739081cf68d0bf29d", "is_disabled": 0, "lat": 38.911035166666665, "rental_uris": {"ios": "https://dc.lft.to/lastmile_qr_scan", "android": "https://dc.lft.to/lastmile_qr_scan"}, "is_reserved": 0, "lon": -77.03838583333334, "fusion_lat": 0.0, "name": "61884c94af37f00739081cf68d0bf29d"}, {"type": "electric_scooter", "fusion_lon": 0.0, "bike_id": "aced82a8c546129a3172b7d37e409598", "is_disabled": 0, "lat": 38.9579845, "rental_uris": {"ios": "https://dc.lft.to/lastmile_qr_scan", "android": "https://dc.lft.to/lastmile_qr_scan"}, "is_reserved": 0, "lon": -77.024592, "fusion_lat": 0.0, "name": "aced82a8c546129a3172b7d37e409598"}, {"type": "electric_scooter", "fusion_lon": 0.0, "bike_id": "6ff3d71b4e33880ac8b5f1c28140954a", "is_disabled": 0, "lat": 38.89505783333333, "rental_uris": {"ios": "https://dc.lft.to/lastmile_qr_scan", "android": "https://dc.lft.to/lastmile_qr_scan"}, "is_reserved": 0, "lon": -77.00333416666666, "fusion_lat": 0.0, "name": "6ff3d71b4e33880ac8b5f1c28140954a"}, {"type": "electric_scooter", "fusion_lon": 0.0, "bike_id": "d6767b2425f2cb52e008663123e39aa1", "is_disabled": 0, "lat": 38.938437666666665, "rental_uris": {"ios": "https://dc.lft.to/lastmile_qr_scan", "android": "https://dc.lft.to/lastmile_qr_scan"}, "is_reserved": 0, "lon": -77.03390766666666, "fusion_lat": 0.0, "name": "d6767b2425f2cb52e008663123e39aa1"}, {"type": "electric_scooter", "fusion_lon": 0.0, "bike_id": "a771e9195a699a904a5554bd19954531", "is_disabled": 0, "lat": 38.905596, "rental_uris": {"ios": "https://dc.lft.to/lastmile_qr_scan", "android": "https://dc.lft.to/lastmile_qr_scan"}, "is_reserved": 0, "lon": -77.02211533333333, "fusion_lat": 0.0, "name": "a771e9195a699a904a5554bd19954531"}, {"type": "electric_scooter", "fusion_lon": 0.0, "bike_id": "666782e5b90b09c59ef2bb46c9247056", "is_disabled": 0, "lat": 38.9274345, "rental_uris": {"ios": "https://dc.lft.to/lastmile_qr_scan", "android": "https://dc.lft.to/lastmile_qr_scan"}, "is_reserved": 0, "lon": -77.0253485, "fusion_lat": 0.0, "name": "666782e5b90b09c59ef2bb46c9247056"}, {"type": "electric_scooter", "fusion_lon": 0.0, "bike_id": "3cb47f439a5ce317e8dfdbe5e45da6c0", "is_disabled": 0, "lat": 38.91480983333334, "rental_uris": {"ios": "https://dc.lft.to/lastmile_qr_scan", "android": "https://dc.lft.to/lastmile_qr_scan"}, "is_reserved": 0, "lon": -77.02189566666667, "fusion_lat": 0.0, "name": "3cb47f439a5ce317e8dfdbe5e45da6c0"}, {"type": "electric_scooter", "fusion_lon": 0.0, "bike_id": "4791fce1155e1dabe4a1fb24bb58130d", "is_disabled": 0, "lat": 38.917515333333334, "rental_uris": {"ios": "https://dc.lft.to/lastmile_qr_scan", "android": "https://dc.lft.to/lastmile_qr_scan"}, "is_reserved": 0, "lon": -77.04057783333333, "fusion_lat": 0.0, "name": "4791fce1155e1dabe4a1fb24bb58130d"}, {"type": "electric_scooter", "fusion_lon": 0.0, "bike_id": "99f1e555edf6313a82b63d473606dc98", "is_disabled": 0, "lat": 38.9041005, "rental_uris": {"ios": "https://dc.lft.to/lastmile_qr_scan", "android": "https://dc.lft.to/lastmile_qr_scan"}, "is_reserved": 0, "lon": -76.97333383333333, "fusion_lat": 0.0, "name": "99f1e555edf6313a82b63d473606dc98"}, {"type": "electric_scooter", "fusion_lon": 0.0, "bike_id": "3f5cd23522a26f6ca0e25b9ebdd238c6", "is_disabled": 0, "lat": 38.904316, "rental_uris": {"ios": "https://dc.lft.to/lastmile_qr_scan", "android": "https://dc.lft.to/lastmile_qr_scan"}, "is_reserved": 0, "lon": -77.0343645, "fusion_lat": 0.0, "name": "3f5cd23522a26f6ca0e25b9ebdd238c6"}, {"type": "electric_scooter", "fusion_lon": 0.0, "bike_id": "7cabae4e2a3d5ffc7aef73ae37fd7378", "is_disabled": 0, "lat": 38.883461833333335, "rental_uris": {"ios": "https://dc.lft.to/lastmile_qr_scan", "android": "https://dc.lft.to/lastmile_qr_scan"}, "is_reserved": 0, "lon": -76.93502633333334, "fusion_lat": 0.0, "name": "7cabae4e2a3d5ffc7aef73ae37fd7378"}, {"type": "electric_scooter", "fusion_lon": 0.0, "bike_id": "ed99735dff409e3046e9f9b11bb9cb06", "is_disabled": 0, "lat": 38.9014035, "rental_uris": {"ios": "https://dc.lft.to/lastmile_qr_scan", "android": "https://dc.lft.to/lastmile_qr_scan"}, "is_reserved": 0, "lon": -77.0441775, "fusion_lat": 0.0, "name": "ed99735dff409e3046e9f9b11bb9cb06"}, {"type": "electric_scooter", "fusion_lon": 0.0, "bike_id": "ba3c71e29f6d5b6a084303f6c8cb92a9", "is_disabled": 0, "lat": 38.9189525, "rental_uris": {"ios": "https://dc.lft.to/lastmile_qr_scan", "android": "https://dc.lft.to/lastmile_qr_scan"}, "is_reserved": 0, "lon": -77.03822366666667, "fusion_lat": 0.0, "name": "ba3c71e29f6d5b6a084303f6c8cb92a9"}, {"type": "electric_scooter", "fusion_lon": 0.0, "bike_id": "ae8aa483467ac2a3822f976e8d861e88", "is_disabled": 0, "lat": 38.88409466666667, "rental_uris": {"ios": "https://dc.lft.to/lastmile_qr_scan", "android": "https://dc.lft.to/lastmile_qr_scan"}, "is_reserved": 0, "lon": -77.004511, "fusion_lat": 0.0, "name": "ae8aa483467ac2a3822f976e8d861e88"}, {"type": "electric_scooter", "fusion_lon": 0.0, "bike_id": "e19ce0ed2c6e14cc6d8a6f4b28e793a8", "is_disabled": 0, "lat": 38.92088366666667, "rental_uris": {"ios": "https://dc.lft.to/lastmile_qr_scan", "android": "https://dc.lft.to/lastmile_qr_scan"}, "is_reserved": 0, "lon": -77.02514833333333, "fusion_lat": 0.0, "name": "e19ce0ed2c6e14cc6d8a6f4b28e793a8"}, {"type": "electric_scooter", "fusion_lon": 0.0, "bike_id": "c6d5cc93ecf8980bbc6d062fb1b58387", "is_disabled": 0, "lat": 38.92287016666667, "rental_uris": {"ios": "https://dc.lft.to/lastmile_qr_scan", "android": "https://dc.lft.to/lastmile_qr_scan"}, "is_reserved": 0, "lon": -77.03664866666666, "fusion_lat": 0.0, "name": "c6d5cc93ecf8980bbc6d062fb1b58387"}, {"type": "electric_scooter", "fusion_lon": 0.0, "bike_id": "44b86a45787dc9c26bd6c32ca9709a5e", "is_disabled": 0, "lat": 38.89232583333333, "rental_uris": {"ios": "https://dc.lft.to/lastmile_qr_scan", "android": "https://dc.lft.to/lastmile_qr_scan"}, "is_reserved": 0, "lon": -77.05003483333333, "fusion_lat": 0.0, "name": "44b86a45787dc9c26bd6c32ca9709a5e"}, {"type": "electric_scooter", "fusion_lon": 0.0, "bike_id": "2f5d6048f969e1fe40b1f90852bf64f4", "is_disabled": 0, "lat": 38.90569283333333, "rental_uris": {"ios": "https://dc.lft.to/lastmile_qr_scan", "android": "https://dc.lft.to/lastmile_qr_scan"}, "is_reserved": 0, "lon": -77.0057195, "fusion_lat": 0.0, "name": "2f5d6048f969e1fe40b1f90852bf64f4"}, {"type": "electric_scooter", "fusion_lon": 0.0, "bike_id": "a5d0088c17cd1d6835b38257b4075f59", "is_disabled": 0, "lat": 38.92633766666667, "rental_uris": {"ios": "https://dc.lft.to/lastmile_qr_scan", "android": "https://dc.lft.to/lastmile_qr_scan"}, "is_reserved": 0, "lon": -77.034665, "fusion_lat": 0.0, "name": "a5d0088c17cd1d6835b38257b4075f59"}, {"type": "electric_scooter", "fusion_lon": 0.0, "bike_id": "3bba6dd5fbd650d496c7f78c3436472f", "is_disabled": 0, "lat": 38.93715133333333, "rental_uris": {"ios": "https://dc.lft.to/lastmile_qr_scan", "android": "https://dc.lft.to/lastmile_qr_scan"}, "is_reserved": 0, "lon": -77.02432833333333, "fusion_lat": 0.0, "name": "3bba6dd5fbd650d496c7f78c3436472f"}, {"type": "electric_scooter", "fusion_lon": 0.0, "bike_id": "07312c385d53a4927a766fe9a9468ea5", "is_disabled": 0, "lat": 38.9211135, "rental_uris": {"ios": "https://dc.lft.to/lastmile_qr_scan", "android": "https://dc.lft.to/lastmile_qr_scan"}, "is_reserved": 0, "lon": -77.046908, "fusion_lat": 0.0, "name": "07312c385d53a4927a766fe9a9468ea5"}, {"type": "electric_scooter", "fusion_lon": 0.0, "bike_id": "5755a186db5193f0fb1c327fc9169fee", "is_disabled": 0, "lat": 38.91262566666666, "rental_uris": {"ios": "https://dc.lft.to/lastmile_qr_scan", "android": "https://dc.lft.to/lastmile_qr_scan"}, "is_reserved": 0, "lon": -77.00662, "fusion_lat": 0.0, "name": "5755a186db5193f0fb1c327fc9169fee"}, {"type": "electric_scooter", "fusion_lon": 0.0, "bike_id": "e5608c210beaa0febae99a9d6be67196", "is_disabled": 0, "lat": 38.87837116666667, "rental_uris": {"ios": "https://dc.lft.to/lastmile_qr_scan", "android": "https://dc.lft.to/lastmile_qr_scan"}, "is_reserved": 0, "lon": -77.00034316666667, "fusion_lat": 0.0, "name": "e5608c210beaa0febae99a9d6be67196"}, {"type": "electric_scooter", "fusion_lon": 0.0, "bike_id": "52aa3c646299a887f9a1848375488082", "is_disabled": 0, "lat": 38.89944766666667, "rental_uris": {"ios": "https://dc.lft.to/lastmile_qr_scan", "android": "https://dc.lft.to/lastmile_qr_scan"}, "is_reserved": 0, "lon": -77.04147583333334, "fusion_lat": 0.0, "name": "52aa3c646299a887f9a1848375488082"}, {"type": "electric_scooter", "fusion_lon": 0.0, "bike_id": "8c21098534f8ae8c3a07a256c4f8b8d5", "is_disabled": 0, "lat": 38.919976166666665, "rental_uris": {"ios": "https://dc.lft.to/lastmile_qr_scan", "android": "https://dc.lft.to/lastmile_qr_scan"}, "is_reserved": 0, "lon": -77.03223233333334, "fusion_lat": 0.0, "name": "8c21098534f8ae8c3a07a256c4f8b8d5"}, {"type": "electric_scooter", "fusion_lon": 0.0, "bike_id": "fe3d0c3f6298061c8a0c80459919b69d", "is_disabled": 0, "lat": 38.897338166666664, "rental_uris": {"ios": "https://dc.lft.to/lastmile_qr_scan", "android": "https://dc.lft.to/lastmile_qr_scan"}, "is_reserved": 0, "lon": -77.0551515, "fusion_lat": 0.0, "name": "fe3d0c3f6298061c8a0c80459919b69d"}, {"type": "electric_scooter", "fusion_lon": 0.0, "bike_id": "daccca845029649448a83a3822d685c2", "is_disabled": 0, "lat": 38.901171, "rental_uris": {"ios": "https://dc.lft.to/lastmile_qr_scan", "android": "https://dc.lft.to/lastmile_qr_scan"}, "is_reserved": 0, "lon": -77.0499045, "fusion_lat": 0.0, "name": "daccca845029649448a83a3822d685c2"}, {"type": "electric_scooter", "fusion_lon": 0.0, "bike_id": "ad2ed7a872d897e539011ccba2c9b40d", "is_disabled": 0, "lat": 38.905328, "rental_uris": {"ios": "https://dc.lft.to/lastmile_qr_scan", "android": "https://dc.lft.to/lastmile_qr_scan"}, "is_reserved": 0, "lon": -77.05934216666667, "fusion_lat": 0.0, "name": "ad2ed7a872d897e539011ccba2c9b40d"}, {"type": "electric_bike", "fusion_lon": 0.0, "bike_id": "864dd1c13f29f9deb05beff871a55cee", "is_disabled": 0, "lat": 38.875814166666665, "rental_uris": {"ios": "https://dc.lft.to/lastmile_qr_scan", "android": "https://dc.lft.to/lastmile_qr_scan"}, "is_reserved": 0, "lon": -77.23413416666666, "fusion_lat": 0.0, "name": "864dd1c13f29f9deb05beff871a55cee"}, {"type": "electric_scooter", "fusion_lon": 0.0, "bike_id": "645cf2fd568127fc2ba19fef11688ba2", "is_disabled": 0, "lat": 38.90156266666666, "rental_uris": {"ios": "https://dc.lft.to/lastmile_qr_scan", "android": "https://dc.lft.to/lastmile_qr_scan"}, "is_reserved": 0, "lon": -77.04039883333333, "fusion_lat": 0.0, "name": "645cf2fd568127fc2ba19fef11688ba2"}, {"type": "electric_scooter", "fusion_lon": 0.0, "bike_id": "ccb7cfda1807327056247e87727a2027", "is_disabled": 0, "lat": 38.91816383333333, "rental_uris": {"ios": "https://dc.lft.to/lastmile_qr_scan", "android": "https://dc.lft.to/lastmile_qr_scan"}, "is_reserved": 0, "lon": -77.02890066666667, "fusion_lat": 0.0, "name": "ccb7cfda1807327056247e87727a2027"}, {"type": "electric_bike", "fusion_lon": 0.0, "bike_id": "9dedab319c67acf140fb2735ac93bc4c", "is_disabled": 0, "lat": 38.98812866666667, "rental_uris": {"ios": "https://dc.lft.to/lastmile_qr_scan", "android": "https://dc.lft.to/lastmile_qr_scan"}, "is_reserved": 0, "lon": -76.939651, "fusion_lat": 0.0, "name": "9dedab319c67acf140fb2735ac93bc4c"}, {"type": "electric_scooter", "fusion_lon": 0.0, "bike_id": "aa6fd35e1027cfb766dd893ef242779f", "is_disabled": 0, "lat": 38.93497, "rental_uris": {"ios": "https://dc.lft.to/lastmile_qr_scan", "android": "https://dc.lft.to/lastmile_qr_scan"}, "is_reserved": 0, "lon": -77.043757, "fusion_lat": 0.0, "name": "aa6fd35e1027cfb766dd893ef242779f"}, {"type": "electric_scooter", "fusion_lon": 0.0, "bike_id": "5cb233c36a417625e2069573d4d419d8", "is_disabled": 0, "lat": 38.898696666666666, "rental_uris": {"ios": "https://dc.lft.to/lastmile_qr_scan", "android": "https://dc.lft.to/lastmile_qr_scan"}, "is_reserved": 0, "lon": -76.94667666666666, "fusion_lat": 0.0, "name": "5cb233c36a417625e2069573d4d419d8"}, {"type": "electric_scooter", "fusion_lon": 0.0, "bike_id": "fa09adcb8b48a8fa7232d6001fc2e218", "is_disabled": 0, "lat": 38.934711666666665, "rental_uris": {"ios": "https://dc.lft.to/lastmile_qr_scan", "android": "https://dc.lft.to/lastmile_qr_scan"}, "is_reserved": 0, "lon": -77.041399, "fusion_lat": 0.0, "name": "fa09adcb8b48a8fa7232d6001fc2e218"}, {"type": "electric_bike", "fusion_lon": 0.0, "bike_id": "467fa50624b94f82514e3af8178089d7", "is_disabled": 0, "lat": 38.993829, "rental_uris": {"ios": "https://dc.lft.to/lastmile_qr_scan", "android": "https://dc.lft.to/lastmile_qr_scan"}, "is_reserved": 0, "lon": -77.040702, "fusion_lat": 0.0, "name": "467fa50624b94f82514e3af8178089d7"}, {"type": "electric_scooter", "fusion_lon": 0.0, "bike_id": "fa6e73652f272fddc227909452dbca18", "is_disabled": 0, "lat": 38.909245166666665, "rental_uris": {"ios": "https://dc.lft.to/lastmile_qr_scan", "android": "https://dc.lft.to/lastmile_qr_scan"}, "is_reserved": 0, "lon": -76.999803, "fusion_lat": 0.0, "name": "fa6e73652f272fddc227909452dbca18"}, {"type": "electric_bike", "fusion_lon": 0.0, "bike_id": "d05ac3e484b950c55dfed5883949164b", "is_disabled": 0, "lat": 38.916297166666666, "rental_uris": {"ios": "https://dc.lft.to/lastmile_qr_scan", "android": "https://dc.lft.to/lastmile_qr_scan"}, "is_reserved": 0, "lon": -77.0316505, "fusion_lat": 0.0, "name": "d05ac3e484b950c55dfed5883949164b"}, {"type": "electric_scooter", "fusion_lon": 0.0, "bike_id": "2e99ac959ed7473a79db282f92960dc3", "is_disabled": 0, "lat": 38.923987, "rental_uris": {"ios": "https://dc.lft.to/lastmile_qr_scan", "android": "https://dc.lft.to/lastmile_qr_scan"}, "is_reserved": 0, "lon": -77.02700066666667, "fusion_lat": 0.0, "name": "2e99ac959ed7473a79db282f92960dc3"}, {"type": "electric_scooter", "fusion_lon": 0.0, "bike_id": "6d112a14a1614d137d7d26e65e8a14b8", "is_disabled": 0, "lat": 38.9129495, "rental_uris": {"ios": "https://dc.lft.to/lastmile_qr_scan", "android": "https://dc.lft.to/lastmile_qr_scan"}, "is_reserved": 0, "lon": -77.04516633333333, "fusion_lat": 0.0, "name": "6d112a14a1614d137d7d26e65e8a14b8"}, {"type": "electric_scooter", "fusion_lon": 0.0, "bike_id": "521cdd3833901325efab7d2872584933", "is_disabled": 0, "lat": 38.91771266666667, "rental_uris": {"ios": "https://dc.lft.to/lastmile_qr_scan", "android": "https://dc.lft.to/lastmile_qr_scan"}, "is_reserved": 0, "lon": -77.04334833333333, "fusion_lat": 0.0, "name": "521cdd3833901325efab7d2872584933"}, {"type": "electric_scooter", "fusion_lon": 0.0, "bike_id": "efc43a385b299132f792f6c8134c9bb4", "is_disabled": 0, "lat": 38.921316833333336, "rental_uris": {"ios": "https://dc.lft.to/lastmile_qr_scan", "android": "https://dc.lft.to/lastmile_qr_scan"}, "is_reserved": 0, "lon": -77.01807566666666, "fusion_lat": 0.0, "name": "efc43a385b299132f792f6c8134c9bb4"}, {"type": "electric_scooter", "fusion_lon": 0.0, "bike_id": "916e693e9c3e4528add59683a5197e7f", "is_disabled": 0, "lat": 38.919311, "rental_uris": {"ios": "https://dc.lft.to/lastmile_qr_scan", "android": "https://dc.lft.to/lastmile_qr_scan"}, "is_reserved": 0, "lon": -77.02367233333334, "fusion_lat": 0.0, "name": "916e693e9c3e4528add59683a5197e7f"}, {"type": "electric_bike", "fusion_lon": 0.0, "bike_id": "c4c49447fa7c9960631d9cf71d01a6f1", "is_disabled": 0, "lat": 38.88467816666667, "rental_uris": {"ios": "https://dc.lft.to/lastmile_qr_scan", "android": "https://dc.lft.to/lastmile_qr_scan"}, "is_reserved": 0, "lon": -76.952409, "fusion_lat": 0.0, "name": "c4c49447fa7c9960631d9cf71d01a6f1"}, {"type": "electric_scooter", "fusion_lon": 0.0, "bike_id": "3fb785ed607c18ca4b51df86d192b3ad", "is_disabled": 0, "lat": 38.939578166666664, "rental_uris": {"ios": "https://dc.lft.to/lastmile_qr_scan", "android": "https://dc.lft.to/lastmile_qr_scan"}, "is_reserved": 0, "lon": -77.0725525, "fusion_lat": 0.0, "name": "3fb785ed607c18ca4b51df86d192b3ad"}, {"type": "electric_scooter", "fusion_lon": 0.0, "bike_id": "42d02cc253ea49e3f6660767bc9716a6", "is_disabled": 0, "lat": 38.90896166666667, "rental_uris": {"ios": "https://dc.lft.to/lastmile_qr_scan", "android": "https://dc.lft.to/lastmile_qr_scan"}, "is_reserved": 0, "lon": -77.04486783333333, "fusion_lat": 0.0, "name": "42d02cc253ea49e3f6660767bc9716a6"}, {"type": "electric_scooter", "fusion_lon": 0.0, "bike_id": "62995a7a2216cabd767ab06cf629cb90", "is_disabled": 0, "lat": 38.882952333333336, "rental_uris": {"ios": "https://dc.lft.to/lastmile_qr_scan", "android": "https://dc.lft.to/lastmile_qr_scan"}, "is_reserved": 0, "lon": -77.02206066666666, "fusion_lat": 0.0, "name": "62995a7a2216cabd767ab06cf629cb90"}, {"type": "electric_scooter", "fusion_lon": 0.0, "bike_id": "911f339f65f254e537d444de57f151e4", "is_disabled": 0, "lat": 38.89228583333333, "rental_uris": {"ios": "https://dc.lft.to/lastmile_qr_scan", "android": "https://dc.lft.to/lastmile_qr_scan"}, "is_reserved": 0, "lon": -77.0321575, "fusion_lat": 0.0, "name": "911f339f65f254e537d444de57f151e4"}, {"type": "electric_scooter", "fusion_lon": 0.0, "bike_id": "aafeac6425e09cb54bc8a3f06dc02902", "is_disabled": 0, "lat": 38.886617333333334, "rental_uris": {"ios": "https://dc.lft.to/lastmile_qr_scan", "android": "https://dc.lft.to/lastmile_qr_scan"}, "is_reserved": 0, "lon": -77.02835216666666, "fusion_lat": 0.0, "name": "aafeac6425e09cb54bc8a3f06dc02902"}, {"type": "electric_scooter", "fusion_lon": 0.0, "bike_id": "e3ff43a6e8e4ca619dbc48c56bde3437", "is_disabled": 0, "lat": 38.903943166666664, "rental_uris": {"ios": "https://dc.lft.to/lastmile_qr_scan", "android": "https://dc.lft.to/lastmile_qr_scan"}, "is_reserved": 0, "lon": -77.017775, "fusion_lat": 0.0, "name": "e3ff43a6e8e4ca619dbc48c56bde3437"}, {"type": "electric_scooter", "fusion_lon": 0.0, "bike_id": "c12b6dd2ef8c1af8669db45d8639c4d9", "is_disabled": 0, "lat": 38.926524, "rental_uris": {"ios": "https://dc.lft.to/lastmile_qr_scan", "android": "https://dc.lft.to/lastmile_qr_scan"}, "is_reserved": 0, "lon": -77.02433066666667, "fusion_lat": 0.0, "name": "c12b6dd2ef8c1af8669db45d8639c4d9"}, {"type": "electric_scooter", "fusion_lon": 0.0, "bike_id": "fbfa4a86978bdfbdf6daff10503b07d4", "is_disabled": 0, "lat": 38.89233316666667, "rental_uris": {"ios": "https://dc.lft.to/lastmile_qr_scan", "android": "https://dc.lft.to/lastmile_qr_scan"}, "is_reserved": 0, "lon": -77.0466215, "fusion_lat": 0.0, "name": "fbfa4a86978bdfbdf6daff10503b07d4"}, {"type": "electric_scooter", "fusion_lon": 0.0, "bike_id": "5aafb9a5111c45ceae9f2dc2d28a4793", "is_disabled": 0, "lat": 38.914173166666664, "rental_uris": {"ios": "https://dc.lft.to/lastmile_qr_scan", "android": "https://dc.lft.to/lastmile_qr_scan"}, "is_reserved": 0, "lon": -77.01076816666667, "fusion_lat": 0.0, "name": "5aafb9a5111c45ceae9f2dc2d28a4793"}, {"type": "electric_bike", "fusion_lon": 0.0, "bike_id": "a3caf3deca86a3b5a57a31884736c025", "is_disabled": 0, "lat": 38.83584966666667, "rental_uris": {"ios": "https://dc.lft.to/lastmile_qr_scan", "android": "https://dc.lft.to/lastmile_qr_scan"}, "is_reserved": 0, "lon": -77.00139983333334, "fusion_lat": 0.0, "name": "a3caf3deca86a3b5a57a31884736c025"}, {"type": "electric_scooter", "fusion_lon": 0.0, "bike_id": "2b61ba006e4cfef93c9c53a861ad10e8", "is_disabled": 0, "lat": 38.904812666666665, "rental_uris": {"ios": "https://dc.lft.to/lastmile_qr_scan", "android": "https://dc.lft.to/lastmile_qr_scan"}, "is_reserved": 0, "lon": -77.0270735, "fusion_lat": 0.0, "name": "2b61ba006e4cfef93c9c53a861ad10e8"}, {"type": "electric_scooter", "fusion_lon": 0.0, "bike_id": "8f5826513f2776219fd7e09e4b354126", "is_disabled": 0, "lat": 38.919544, "rental_uris": {"ios": "https://dc.lft.to/lastmile_qr_scan", "android": "https://dc.lft.to/lastmile_qr_scan"}, "is_reserved": 0, "lon": -77.02605, "fusion_lat": 0.0, "name": "8f5826513f2776219fd7e09e4b354126"}, {"type": "electric_scooter", "fusion_lon": 0.0, "bike_id": "b09529a6a99678cfa142833602b237b3", "is_disabled": 0, "lat": 38.90425966666667, "rental_uris": {"ios": "https://dc.lft.to/lastmile_qr_scan", "android": "https://dc.lft.to/lastmile_qr_scan"}, "is_reserved": 0, "lon": -77.01838366666667, "fusion_lat": 0.0, "name": "b09529a6a99678cfa142833602b237b3"}, {"type": "electric_scooter", "fusion_lon": 0.0, "bike_id": "3fad5abfa7196c27c65a37741abc779c", "is_disabled": 0, "lat": 38.87867766666667, "rental_uris": {"ios": "https://dc.lft.to/lastmile_qr_scan", "android": "https://dc.lft.to/lastmile_qr_scan"}, "is_reserved": 0, "lon": -76.96258616666667, "fusion_lat": 0.0, "name": "3fad5abfa7196c27c65a37741abc779c"}, {"type": "electric_scooter", "fusion_lon": 0.0, "bike_id": "c8edf60c96d19b52469ae911da57659c", "is_disabled": 0, "lat": 38.90575283333333, "rental_uris": {"ios": "https://dc.lft.to/lastmile_qr_scan", "android": "https://dc.lft.to/lastmile_qr_scan"}, "is_reserved": 0, "lon": -77.04358266666667, "fusion_lat": 0.0, "name": "c8edf60c96d19b52469ae911da57659c"}, {"type": "electric_scooter", "fusion_lon": 0.0, "bike_id": "8cf277ba5ef746a42631e0d4db0d0103", "is_disabled": 0, "lat": 38.89219966666667, "rental_uris": {"ios": "https://dc.lft.to/lastmile_qr_scan", "android": "https://dc.lft.to/lastmile_qr_scan"}, "is_reserved": 0, "lon": -77.03218983333333, "fusion_lat": 0.0, "name": "8cf277ba5ef746a42631e0d4db0d0103"}, {"type": "electric_scooter", "fusion_lon": 0.0, "bike_id": "b433e4bb342065c029f42c579b686d5c", "is_disabled": 0, "lat": 38.91188066666667, "rental_uris": {"ios": "https://dc.lft.to/lastmile_qr_scan", "android": "https://dc.lft.to/lastmile_qr_scan"}, "is_reserved": 0, "lon": -77.04289316666667, "fusion_lat": 0.0, "name": "b433e4bb342065c029f42c579b686d5c"}, {"type": "electric_scooter", "fusion_lon": 0.0, "bike_id": "366b9ab56d30e256cb6c5c8d22a67adf", "is_disabled": 0, "lat": 38.918172166666665, "rental_uris": {"ios": "https://dc.lft.to/lastmile_qr_scan", "android": "https://dc.lft.to/lastmile_qr_scan"}, "is_reserved": 0, "lon": -77.031362, "fusion_lat": 0.0, "name": "366b9ab56d30e256cb6c5c8d22a67adf"}, {"type": "electric_scooter", "fusion_lon": 0.0, "bike_id": "ccc06f6a37a7b7a597b70c6e0a280b81", "is_disabled": 0, "lat": 38.903738, "rental_uris": {"ios": "https://dc.lft.to/lastmile_qr_scan", "android": "https://dc.lft.to/lastmile_qr_scan"}, "is_reserved": 0, "lon": -77.01733933333334, "fusion_lat": 0.0, "name": "ccc06f6a37a7b7a597b70c6e0a280b81"}, {"type": "electric_scooter", "fusion_lon": 0.0, "bike_id": "2e718e486cc9f5514cf63a7d3fa8d2a7", "is_disabled": 0, "lat": 38.917717833333334, "rental_uris": {"ios": "https://dc.lft.to/lastmile_qr_scan", "android": "https://dc.lft.to/lastmile_qr_scan"}, "is_reserved": 0, "lon": -77.0280605, "fusion_lat": 0.0, "name": "2e718e486cc9f5514cf63a7d3fa8d2a7"}, {"type": "electric_scooter", "fusion_lon": 0.0, "bike_id": "b3191748d8317468f2a6392bfabc6dc4", "is_disabled": 0, "lat": 38.892223666666666, "rental_uris": {"ios": "https://dc.lft.to/lastmile_qr_scan", "android": "https://dc.lft.to/lastmile_qr_scan"}, "is_reserved": 0, "lon": -77.02219216666667, "fusion_lat": 0.0, "name": "b3191748d8317468f2a6392bfabc6dc4"}, {"type": "electric_scooter", "fusion_lon": 0.0, "bike_id": "bd33be33d34930cf84c0dc0c17a2248c", "is_disabled": 0, "lat": 38.92279683333334, "rental_uris": {"ios": "https://dc.lft.to/lastmile_qr_scan", "android": "https://dc.lft.to/lastmile_qr_scan"}, "is_reserved": 0, "lon": -76.9945415, "fusion_lat": 0.0, "name": "bd33be33d34930cf84c0dc0c17a2248c"}, {"type": "electric_scooter", "fusion_lon": 0.0, "bike_id": "5d139661bd696437cf8289e158f5026e", "is_disabled": 0, "lat": 38.91808533333333, "rental_uris": {"ios": "https://dc.lft.to/lastmile_qr_scan", "android": "https://dc.lft.to/lastmile_qr_scan"}, "is_reserved": 0, "lon": -77.039965, "fusion_lat": 0.0, "name": "5d139661bd696437cf8289e158f5026e"}, {"type": "electric_scooter", "fusion_lon": 0.0, "bike_id": "04d8b365f3262821283e8d145b22fb5d", "is_disabled": 0, "lat": 38.907150666666666, "rental_uris": {"ios": "https://dc.lft.to/lastmile_qr_scan", "android": "https://dc.lft.to/lastmile_qr_scan"}, "is_reserved": 0, "lon": -77.02540716666667, "fusion_lat": 0.0, "name": "04d8b365f3262821283e8d145b22fb5d"}, {"type": "electric_scooter", "fusion_lon": 0.0, "bike_id": "9a2bf1c56d9104cdc4a7a9467a724533", "is_disabled": 0, "lat": 38.90261666666667, "rental_uris": {"ios": "https://dc.lft.to/lastmile_qr_scan", "android": "https://dc.lft.to/lastmile_qr_scan"}, "is_reserved": 0, "lon": -77.03577733333333, "fusion_lat": 0.0, "name": "9a2bf1c56d9104cdc4a7a9467a724533"}, {"type": "electric_scooter", "fusion_lon": 0.0, "bike_id": "78b91aa0a294dcb2be6a20cb6c90be40", "is_disabled": 0, "lat": 38.916702666666666, "rental_uris": {"ios": "https://dc.lft.to/lastmile_qr_scan", "android": "https://dc.lft.to/lastmile_qr_scan"}, "is_reserved": 0, "lon": -77.02400233333333, "fusion_lat": 0.0, "name": "78b91aa0a294dcb2be6a20cb6c90be40"}, {"type": "electric_scooter", "fusion_lon": 0.0, "bike_id": "351f290dc11ff152f7f471749af9bd6e", "is_disabled": 0, "lat": 38.916561, "rental_uris": {"ios": "https://dc.lft.to/lastmile_qr_scan", "android": "https://dc.lft.to/lastmile_qr_scan"}, "is_reserved": 0, "lon": -77.02386716666666, "fusion_lat": 0.0, "name": "351f290dc11ff152f7f471749af9bd6e"}, {"type": "electric_scooter", "fusion_lon": 0.0, "bike_id": "0667a27a99c4010de6ca63cb29561705", "is_disabled": 0, "lat": 38.92466016666667, "rental_uris": {"ios": "https://dc.lft.to/lastmile_qr_scan", "android": "https://dc.lft.to/lastmile_qr_scan"}, "is_reserved": 0, "lon": -77.0404995, "fusion_lat": 0.0, "name": "0667a27a99c4010de6ca63cb29561705"}, {"type": "electric_scooter", "fusion_lon": 0.0, "bike_id": "15f91087d96ddedd87f937e837d7ab44", "is_disabled": 0, "lat": 38.916628333333335, "rental_uris": {"ios": "https://dc.lft.to/lastmile_qr_scan", "android": "https://dc.lft.to/lastmile_qr_scan"}, "is_reserved": 0, "lon": -77.03851066666667, "fusion_lat": 0.0, "name": "15f91087d96ddedd87f937e837d7ab44"}, {"type": "electric_scooter", "fusion_lon": 0.0, "bike_id": "0935d0753f0b79187e98ba9a784824e0", "is_disabled": 0, "lat": 38.91882966666667, "rental_uris": {"ios": "https://dc.lft.to/lastmile_qr_scan", "android": "https://dc.lft.to/lastmile_qr_scan"}, "is_reserved": 0, "lon": -77.03503666666667, "fusion_lat": 0.0, "name": "0935d0753f0b79187e98ba9a784824e0"}, {"type": "electric_scooter", "fusion_lon": 0.0, "bike_id": "dd63e70ad0263512b471450d4e8fb5f5", "is_disabled": 0, "lat": 38.905098833333334, "rental_uris": {"ios": "https://dc.lft.to/lastmile_qr_scan", "android": "https://dc.lft.to/lastmile_qr_scan"}, "is_reserved": 0, "lon": -77.0633435, "fusion_lat": 0.0, "name": "dd63e70ad0263512b471450d4e8fb5f5"}, {"type": "electric_scooter", "fusion_lon": 0.0, "bike_id": "665b5acfb7ba6df0f474a7f49d9d3d81", "is_disabled": 0, "lat": 38.900378, "rental_uris": {"ios": "https://dc.lft.to/lastmile_qr_scan", "android": "https://dc.lft.to/lastmile_qr_scan"}, "is_reserved": 0, "lon": -76.99150116666667, "fusion_lat": 0.0, "name": "665b5acfb7ba6df0f474a7f49d9d3d81"}, {"type": "electric_scooter", "fusion_lon": 0.0, "bike_id": "9d186cdde32db7fc8d9a603b35084843", "is_disabled": 0, "lat": 38.879167, "rental_uris": {"ios": "https://dc.lft.to/lastmile_qr_scan", "android": "https://dc.lft.to/lastmile_qr_scan"}, "is_reserved": 0, "lon": -76.94326183333334, "fusion_lat": 0.0, "name": "9d186cdde32db7fc8d9a603b35084843"}, {"type": "electric_scooter", "fusion_lon": 0.0, "bike_id": "b9714a4f7f300d75693aa6cd67dfe262", "is_disabled": 0, "lat": 38.920134833333336, "rental_uris": {"ios": "https://dc.lft.to/lastmile_qr_scan", "android": "https://dc.lft.to/lastmile_qr_scan"}, "is_reserved": 0, "lon": -77.02465116666667, "fusion_lat": 0.0, "name": "b9714a4f7f300d75693aa6cd67dfe262"}, {"type": "electric_scooter", "fusion_lon": 0.0, "bike_id": "8918a41ee18ef3d10c323450a6632fdd", "is_disabled": 0, "lat": 38.93066983333333, "rental_uris": {"ios": "https://dc.lft.to/lastmile_qr_scan", "android": "https://dc.lft.to/lastmile_qr_scan"}, "is_reserved": 0, "lon": -77.03985466666667, "fusion_lat": 0.0, "name": "8918a41ee18ef3d10c323450a6632fdd"}, {"type": "electric_scooter", "fusion_lon": 0.0, "bike_id": "c13ec584cdd6ca215bf451e08a2ccb2a", "is_disabled": 0, "lat": 38.9003775, "rental_uris": {"ios": "https://dc.lft.to/lastmile_qr_scan", "android": "https://dc.lft.to/lastmile_qr_scan"}, "is_reserved": 0, "lon": -76.98559933333334, "fusion_lat": 0.0, "name": "c13ec584cdd6ca215bf451e08a2ccb2a"}, {"type": "electric_scooter", "fusion_lon": 0.0, "bike_id": "632ea07a739580c6944a0cc6ba4fdde6", "is_disabled": 0, "lat": 38.909706166666666, "rental_uris": {"ios": "https://dc.lft.to/lastmile_qr_scan", "android": "https://dc.lft.to/lastmile_qr_scan"}, "is_reserved": 0, "lon": -77.0386995, "fusion_lat": 0.0, "name": "632ea07a739580c6944a0cc6ba4fdde6"}, {"type": "electric_scooter", "fusion_lon": 0.0, "bike_id": "153c0befc94871b84c6ec0222ea6e15e", "is_disabled": 0, "lat": 38.920418166666664, "rental_uris": {"ios": "https://dc.lft.to/lastmile_qr_scan", "android": "https://dc.lft.to/lastmile_qr_scan"}, "is_reserved": 0, "lon": -77.04199483333333, "fusion_lat": 0.0, "name": "153c0befc94871b84c6ec0222ea6e15e"}, {"type": "electric_scooter", "fusion_lon": 0.0, "bike_id": "27d3fed1d2c9978c91748367561aeaf1", "is_disabled": 0, "lat": 38.94195633333333, "rental_uris": {"ios": "https://dc.lft.to/lastmile_qr_scan", "android": "https://dc.lft.to/lastmile_qr_scan"}, "is_reserved": 0, "lon": -77.02592333333334, "fusion_lat": 0.0, "name": "27d3fed1d2c9978c91748367561aeaf1"}, {"type": "electric_scooter", "fusion_lon": 0.0, "bike_id": "ddbf3c04d7a482b5f052075b169af377", "is_disabled": 0, "lat": 38.90037183333333, "rental_uris": {"ios": "https://dc.lft.to/lastmile_qr_scan", "android": "https://dc.lft.to/lastmile_qr_scan"}, "is_reserved": 0, "lon": -77.04837916666666, "fusion_lat": 0.0, "name": "ddbf3c04d7a482b5f052075b169af377"}, {"type": "electric_scooter", "fusion_lon": 0.0, "bike_id": "f380ac03b2a50369e0d4150285952538", "is_disabled": 0, "lat": 38.8950015, "rental_uris": {"ios": "https://dc.lft.to/lastmile_qr_scan", "android": "https://dc.lft.to/lastmile_qr_scan"}, "is_reserved": 0, "lon": -77.0094725, "fusion_lat": 0.0, "name": "f380ac03b2a50369e0d4150285952538"}, {"type": "electric_scooter", "fusion_lon": 0.0, "bike_id": "276f1804ddf6b3118b94814cf13c36be", "is_disabled": 0, "lat": 38.9258265, "rental_uris": {"ios": "https://dc.lft.to/lastmile_qr_scan", "android": "https://dc.lft.to/lastmile_qr_scan"}, "is_reserved": 0, "lon": -77.02575066666667, "fusion_lat": 0.0, "name": "276f1804ddf6b3118b94814cf13c36be"}, {"type": "electric_scooter", "fusion_lon": 0.0, "bike_id": "1238fc947d0cad6c2e4c1f14a0ccc459", "is_disabled": 0, "lat": 38.92765933333333, "rental_uris": {"ios": "https://dc.lft.to/lastmile_qr_scan", "android": "https://dc.lft.to/lastmile_qr_scan"}, "is_reserved": 0, "lon": -77.02821583333333, "fusion_lat": 0.0, "name": "1238fc947d0cad6c2e4c1f14a0ccc459"}, {"type": "electric_scooter", "fusion_lon": 0.0, "bike_id": "384ddab523a15748d74e2aa7331dc5e7", "is_disabled": 0, "lat": 38.89347033333333, "rental_uris": {"ios": "https://dc.lft.to/lastmile_qr_scan", "android": "https://dc.lft.to/lastmile_qr_scan"}, "is_reserved": 0, "lon": -76.952283, "fusion_lat": 0.0, "name": "384ddab523a15748d74e2aa7331dc5e7"}, {"type": "electric_scooter", "fusion_lon": 0.0, "bike_id": "a4b384c38edb8b4d67090b43b7085dfb", "is_disabled": 0, "lat": 38.90034083333333, "rental_uris": {"ios": "https://dc.lft.to/lastmile_qr_scan", "android": "https://dc.lft.to/lastmile_qr_scan"}, "is_reserved": 0, "lon": -77.00207233333333, "fusion_lat": 0.0, "name": "a4b384c38edb8b4d67090b43b7085dfb"}, {"type": "electric_scooter", "fusion_lon": 0.0, "bike_id": "081e464d10dd6eda9c29bf713535bbd2", "is_disabled": 0, "lat": 38.908296, "rental_uris": {"ios": "https://dc.lft.to/lastmile_qr_scan", "android": "https://dc.lft.to/lastmile_qr_scan"}, "is_reserved": 0, "lon": -77.033781, "fusion_lat": 0.0, "name": "081e464d10dd6eda9c29bf713535bbd2"}, {"type": "electric_scooter", "fusion_lon": 0.0, "bike_id": "21ef7980249dd8cfaf25564ec6108e5a", "is_disabled": 0, "lat": 38.9134985, "rental_uris": {"ios": "https://dc.lft.to/lastmile_qr_scan", "android": "https://dc.lft.to/lastmile_qr_scan"}, "is_reserved": 0, "lon": -77.0320875, "fusion_lat": 0.0, "name": "21ef7980249dd8cfaf25564ec6108e5a"}, {"type": "electric_scooter", "fusion_lon": 0.0, "bike_id": "12537e8c3b201c72d72ca57139ccc8a0", "is_disabled": 0, "lat": 38.9721395, "rental_uris": {"ios": "https://dc.lft.to/lastmile_qr_scan", "android": "https://dc.lft.to/lastmile_qr_scan"}, "is_reserved": 0, "lon": -77.0334055, "fusion_lat": 0.0, "name": "12537e8c3b201c72d72ca57139ccc8a0"}, {"type": "electric_bike", "fusion_lon": 0.0, "bike_id": "1856dbe6b474f9f0a6d8cd8a9165f48c", "is_disabled": 0, "lat": 38.935668666666665, "rental_uris": {"ios": "https://dc.lft.to/lastmile_qr_scan", "android": "https://dc.lft.to/lastmile_qr_scan"}, "is_reserved": 0, "lon": -77.106102, "fusion_lat": 0.0, "name": "1856dbe6b474f9f0a6d8cd8a9165f48c"}, {"type": "electric_scooter", "fusion_lon": 0.0, "bike_id": "c950791c275a2e77dff5e960dc199c1c", "is_disabled": 0, "lat": 38.876614333333336, "rental_uris": {"ios": "https://dc.lft.to/lastmile_qr_scan", "android": "https://dc.lft.to/lastmile_qr_scan"}, "is_reserved": 0, "lon": -76.99626816666667, "fusion_lat": 0.0, "name": "c950791c275a2e77dff5e960dc199c1c"}, {"type": "electric_scooter", "fusion_lon": 0.0, "bike_id": "95b9fa0bdd30e2174301f60d8c809696", "is_disabled": 0, "lat": 38.87989966666667, "rental_uris": {"ios": "https://dc.lft.to/lastmile_qr_scan", "android": "https://dc.lft.to/lastmile_qr_scan"}, "is_reserved": 0, "lon": -76.98683066666666, "fusion_lat": 0.0, "name": "95b9fa0bdd30e2174301f60d8c809696"}, {"type": "electric_scooter", "fusion_lon": 0.0, "bike_id": "e101e8d0f2b8190af2f72aa1191d86a3", "is_disabled": 0, "lat": 38.90446, "rental_uris": {"ios": "https://dc.lft.to/lastmile_qr_scan", "android": "https://dc.lft.to/lastmile_qr_scan"}, "is_reserved": 0, "lon": -77.05795616666667, "fusion_lat": 0.0, "name": "e101e8d0f2b8190af2f72aa1191d86a3"}, {"type": "electric_bike", "fusion_lon": 0.0, "bike_id": "85467140f8e2127ac9e0527e01a1725f", "is_disabled": 0, "lat": 38.846886166666664, "rental_uris": {"ios": "https://dc.lft.to/lastmile_qr_scan", "android": "https://dc.lft.to/lastmile_qr_scan"}, "is_reserved": 0, "lon": -76.9828335, "fusion_lat": 0.0, "name": "85467140f8e2127ac9e0527e01a1725f"}, {"type": "electric_scooter", "fusion_lon": 0.0, "bike_id": "6a30a04dafab264dc713d5f9e90f5ace", "is_disabled": 0, "lat": 38.89993033333333, "rental_uris": {"ios": "https://dc.lft.to/lastmile_qr_scan", "android": "https://dc.lft.to/lastmile_qr_scan"}, "is_reserved": 0, "lon": -77.0192725, "fusion_lat": 0.0, "name": "6a30a04dafab264dc713d5f9e90f5ace"}, {"type": "electric_bike", "fusion_lon": 0.0, "bike_id": "ae40de580adc0845c8bc4685ed979c03", "is_disabled": 0, "lat": 38.942935, "rental_uris": {"ios": "https://dc.lft.to/lastmile_qr_scan", "android": "https://dc.lft.to/lastmile_qr_scan"}, "is_reserved": 0, "lon": -77.07747633333334, "fusion_lat": 0.0, "name": "ae40de580adc0845c8bc4685ed979c03"}, {"type": "electric_scooter", "fusion_lon": 0.0, "bike_id": "132b8215b2f77cfa78c8d871c2c06556", "is_disabled": 0, "lat": 38.94194816666667, "rental_uris": {"ios": "https://dc.lft.to/lastmile_qr_scan", "android": "https://dc.lft.to/lastmile_qr_scan"}, "is_reserved": 0, "lon": -77.025251, "fusion_lat": 0.0, "name": "132b8215b2f77cfa78c8d871c2c06556"}, {"type": "electric_scooter", "fusion_lon": 0.0, "bike_id": "5d90caa2746826c6917c49f840ed284a", "is_disabled": 0, "lat": 38.963953833333335, "rental_uris": {"ios": "https://dc.lft.to/lastmile_qr_scan", "android": "https://dc.lft.to/lastmile_qr_scan"}, "is_reserved": 0, "lon": -77.02596016666666, "fusion_lat": 0.0, "name": "5d90caa2746826c6917c49f840ed284a"}, {"type": "electric_scooter", "fusion_lon": 0.0, "bike_id": "a8d438a64314998bb5457d406f66cb76", "is_disabled": 0, "lat": 38.905769166666666, "rental_uris": {"ios": "https://dc.lft.to/lastmile_qr_scan", "android": "https://dc.lft.to/lastmile_qr_scan"}, "is_reserved": 0, "lon": -77.0444935, "fusion_lat": 0.0, "name": "a8d438a64314998bb5457d406f66cb76"}, {"type": "electric_scooter", "fusion_lon": 0.0, "bike_id": "aa840bd2f43a5e275f6460037c063014", "is_disabled": 0, "lat": 38.903801, "rental_uris": {"ios": "https://dc.lft.to/lastmile_qr_scan", "android": "https://dc.lft.to/lastmile_qr_scan"}, "is_reserved": 0, "lon": -77.00194066666667, "fusion_lat": 0.0, "name": "aa840bd2f43a5e275f6460037c063014"}, {"type": "electric_scooter", "fusion_lon": 0.0, "bike_id": "5c007a7024e50876a0829eb7a906348c", "is_disabled": 0, "lat": 38.876402666666664, "rental_uris": {"ios": "https://dc.lft.to/lastmile_qr_scan", "android": "https://dc.lft.to/lastmile_qr_scan"}, "is_reserved": 0, "lon": -76.99799016666667, "fusion_lat": 0.0, "name": "5c007a7024e50876a0829eb7a906348c"}, {"type": "electric_scooter", "fusion_lon": 0.0, "bike_id": "5ef8c9ce5c8b6a58bf241eb5db8225fb", "is_disabled": 0, "lat": 38.9105435, "rental_uris": {"ios": "https://dc.lft.to/lastmile_qr_scan", "android": "https://dc.lft.to/lastmile_qr_scan"}, "is_reserved": 0, "lon": -77.07544466666667, "fusion_lat": 0.0, "name": "5ef8c9ce5c8b6a58bf241eb5db8225fb"}, {"type": "electric_scooter", "fusion_lon": 0.0, "bike_id": "01a0cd3f361f2c4b5dd8812eb08c57d3", "is_disabled": 0, "lat": 38.925914166666665, "rental_uris": {"ios": "https://dc.lft.to/lastmile_qr_scan", "android": "https://dc.lft.to/lastmile_qr_scan"}, "is_reserved": 0, "lon": -77.0249845, "fusion_lat": 0.0, "name": "01a0cd3f361f2c4b5dd8812eb08c57d3"}, {"type": "electric_scooter", "fusion_lon": 0.0, "bike_id": "19eb91daa7b7e003f74627d93b2815ed", "is_disabled": 0, "lat": 38.903164333333336, "rental_uris": {"ios": "https://dc.lft.to/lastmile_qr_scan", "android": "https://dc.lft.to/lastmile_qr_scan"}, "is_reserved": 0, "lon": -77.02650316666667, "fusion_lat": 0.0, "name": "19eb91daa7b7e003f74627d93b2815ed"}, {"type": "electric_scooter", "fusion_lon": 0.0, "bike_id": "3be612eaa8cc9632dbb1f5a7cd599e33", "is_disabled": 0, "lat": 38.956228833333334, "rental_uris": {"ios": "https://dc.lft.to/lastmile_qr_scan", "android": "https://dc.lft.to/lastmile_qr_scan"}, "is_reserved": 0, "lon": -77.0701295, "fusion_lat": 0.0, "name": "3be612eaa8cc9632dbb1f5a7cd599e33"}, {"type": "electric_scooter", "fusion_lon": 0.0, "bike_id": "7b4c7b19508072c745a1561e78a9fee9", "is_disabled": 0, "lat": 38.91606066666667, "rental_uris": {"ios": "https://dc.lft.to/lastmile_qr_scan", "android": "https://dc.lft.to/lastmile_qr_scan"}, "is_reserved": 0, "lon": -77.03201433333334, "fusion_lat": 0.0, "name": "7b4c7b19508072c745a1561e78a9fee9"}, {"type": "electric_bike", "fusion_lon": 0.0, "bike_id": "4a4931ecd7b156df7e8720debba98a56", "is_disabled": 0, "lat": 38.980431333333335, "rental_uris": {"ios": "https://dc.lft.to/lastmile_qr_scan", "android": "https://dc.lft.to/lastmile_qr_scan"}, "is_reserved": 0, "lon": -76.95792383333334, "fusion_lat": 0.0, "name": "4a4931ecd7b156df7e8720debba98a56"}, {"type": "electric_scooter", "fusion_lon": 0.0, "bike_id": "9408fe11b7b076e19df1ed7c449f302d", "is_disabled": 0, "lat": 38.96146516666667, "rental_uris": {"ios": "https://dc.lft.to/lastmile_qr_scan", "android": "https://dc.lft.to/lastmile_qr_scan"}, "is_reserved": 0, "lon": -77.02809133333334, "fusion_lat": 0.0, "name": "9408fe11b7b076e19df1ed7c449f302d"}, {"type": "electric_scooter", "fusion_lon": 0.0, "bike_id": "587b606dfd0ed4aaa842c70aaa0001d1", "is_disabled": 0, "lat": 38.873907, "rental_uris": {"ios": "https://dc.lft.to/lastmile_qr_scan", "android": "https://dc.lft.to/lastmile_qr_scan"}, "is_reserved": 0, "lon": -77.00137766666667, "fusion_lat": 0.0, "name": "587b606dfd0ed4aaa842c70aaa0001d1"}, {"type": "electric_scooter", "fusion_lon": 0.0, "bike_id": "11d6693cd32b4ab626c69cabc1ee5b92", "is_disabled": 0, "lat": 38.918185, "rental_uris": {"ios": "https://dc.lft.to/lastmile_qr_scan", "android": "https://dc.lft.to/lastmile_qr_scan"}, "is_reserved": 0, "lon": -77.04550066666667, "fusion_lat": 0.0, "name": "11d6693cd32b4ab626c69cabc1ee5b92"}, {"type": "electric_scooter", "fusion_lon": 0.0, "bike_id": "47a88ba747fe41a92739bfbfa3c4966b", "is_disabled": 0, "lat": 38.928746833333335, "rental_uris": {"ios": "https://dc.lft.to/lastmile_qr_scan", "android": "https://dc.lft.to/lastmile_qr_scan"}, "is_reserved": 0, "lon": -77.0326885, "fusion_lat": 0.0, "name": "47a88ba747fe41a92739bfbfa3c4966b"}, {"type": "electric_scooter", "fusion_lon": 0.0, "bike_id": "f464d608ef3705e8110e08d2c7e653d0", "is_disabled": 0, "lat": 38.9226985, "rental_uris": {"ios": "https://dc.lft.to/lastmile_qr_scan", "android": "https://dc.lft.to/lastmile_qr_scan"}, "is_reserved": 0, "lon": -77.0224635, "fusion_lat": 0.0, "name": "f464d608ef3705e8110e08d2c7e653d0"}, {"type": "electric_scooter", "fusion_lon": 0.0, "bike_id": "dfc1f8aec197ecda38b633b04fc4ceeb", "is_disabled": 0, "lat": 38.89993416666667, "rental_uris": {"ios": "https://dc.lft.to/lastmile_qr_scan", "android": "https://dc.lft.to/lastmile_qr_scan"}, "is_reserved": 0, "lon": -77.021852, "fusion_lat": 0.0, "name": "dfc1f8aec197ecda38b633b04fc4ceeb"}, {"type": "electric_scooter", "fusion_lon": 0.0, "bike_id": "4f6a76ab4727e9d1c38d3daef7aece4f", "is_disabled": 0, "lat": 38.903024, "rental_uris": {"ios": "https://dc.lft.to/lastmile_qr_scan", "android": "https://dc.lft.to/lastmile_qr_scan"}, "is_reserved": 0, "lon": -77.03727233333333, "fusion_lat": 0.0, "name": "4f6a76ab4727e9d1c38d3daef7aece4f"}, {"type": "electric_bike", "fusion_lon": 0.0, "bike_id": "9af5037a631405bb3934889784dd4c6e", "is_disabled": 0, "lat": 38.85762533333333, "rental_uris": {"ios": "https://dc.lft.to/lastmile_qr_scan", "android": "https://dc.lft.to/lastmile_qr_scan"}, "is_reserved": 0, "lon": -76.987555, "fusion_lat": 0.0, "name": "9af5037a631405bb3934889784dd4c6e"}, {"type": "electric_scooter", "fusion_lon": 0.0, "bike_id": "32e5cc433cd576224a0f6066bbbbf063", "is_disabled": 0, "lat": 38.918802166666666, "rental_uris": {"ios": "https://dc.lft.to/lastmile_qr_scan", "android": "https://dc.lft.to/lastmile_qr_scan"}, "is_reserved": 0, "lon": -77.02456683333334, "fusion_lat": 0.0, "name": "32e5cc433cd576224a0f6066bbbbf063"}, {"type": "electric_scooter", "fusion_lon": 0.0, "bike_id": "2ca40b577f17a997606a9930cde187a4", "is_disabled": 0, "lat": 38.9306145, "rental_uris": {"ios": "https://dc.lft.to/lastmile_qr_scan", "android": "https://dc.lft.to/lastmile_qr_scan"}, "is_reserved": 0, "lon": -77.032134, "fusion_lat": 0.0, "name": "2ca40b577f17a997606a9930cde187a4"}, {"type": "electric_scooter", "fusion_lon": 0.0, "bike_id": "16bbc70789fc8aa8241d7d99e3dac8fe", "is_disabled": 0, "lat": 38.92328583333333, "rental_uris": {"ios": "https://dc.lft.to/lastmile_qr_scan", "android": "https://dc.lft.to/lastmile_qr_scan"}, "is_reserved": 0, "lon": -77.00048883333334, "fusion_lat": 0.0, "name": "16bbc70789fc8aa8241d7d99e3dac8fe"}, {"type": "electric_scooter", "fusion_lon": 0.0, "bike_id": "bfb1d98bf7815633ac24b8dffde354e3", "is_disabled": 0, "lat": 38.897305333333335, "rental_uris": {"ios": "https://dc.lft.to/lastmile_qr_scan", "android": "https://dc.lft.to/lastmile_qr_scan"}, "is_reserved": 0, "lon": -77.03165233333333, "fusion_lat": 0.0, "name": "bfb1d98bf7815633ac24b8dffde354e3"}, {"type": "electric_scooter", "fusion_lon": 0.0, "bike_id": "8c5600818fa104e6f93dc1336900e36b", "is_disabled": 0, "lat": 38.917097, "rental_uris": {"ios": "https://dc.lft.to/lastmile_qr_scan", "android": "https://dc.lft.to/lastmile_qr_scan"}, "is_reserved": 0, "lon": -77.03475616666667, "fusion_lat": 0.0, "name": "8c5600818fa104e6f93dc1336900e36b"}, {"type": "electric_scooter", "fusion_lon": 0.0, "bike_id": "18a14fe83c5404d7bc52eeb5cc0df632", "is_disabled": 0, "lat": 38.90007516666667, "rental_uris": {"ios": "https://dc.lft.to/lastmile_qr_scan", "android": "https://dc.lft.to/lastmile_qr_scan"}, "is_reserved": 0, "lon": -77.048458, "fusion_lat": 0.0, "name": "18a14fe83c5404d7bc52eeb5cc0df632"}, {"type": "electric_bike", "fusion_lon": 0.0, "bike_id": "617d436d17dbb96c062154f626af147e", "is_disabled": 0, "lat": 38.950849, "rental_uris": {"ios": "https://dc.lft.to/lastmile_qr_scan", "android": "https://dc.lft.to/lastmile_qr_scan"}, "is_reserved": 0, "lon": -77.01232383333334, "fusion_lat": 0.0, "name": "617d436d17dbb96c062154f626af147e"}, {"type": "electric_scooter", "fusion_lon": 0.0, "bike_id": "ebc5a26cee98fc6dd5829eafeb29cc2b", "is_disabled": 0, "lat": 38.919539, "rental_uris": {"ios": "https://dc.lft.to/lastmile_qr_scan", "android": "https://dc.lft.to/lastmile_qr_scan"}, "is_reserved": 0, "lon": -77.0417265, "fusion_lat": 0.0, "name": "ebc5a26cee98fc6dd5829eafeb29cc2b"}, {"type": "electric_scooter", "fusion_lon": 0.0, "bike_id": "95da544786d9f080c500ef8bf36b4fc3", "is_disabled": 0, "lat": 38.907267, "rental_uris": {"ios": "https://dc.lft.to/lastmile_qr_scan", "android": "https://dc.lft.to/lastmile_qr_scan"}, "is_reserved": 0, "lon": -77.0415555, "fusion_lat": 0.0, "name": "95da544786d9f080c500ef8bf36b4fc3"}, {"type": "electric_scooter", "fusion_lon": 0.0, "bike_id": "37c38172b3ee2f2cc8001700432833ee", "is_disabled": 0, "lat": 38.899595833333336, "rental_uris": {"ios": "https://dc.lft.to/lastmile_qr_scan", "android": "https://dc.lft.to/lastmile_qr_scan"}, "is_reserved": 0, "lon": -77.01619666666667, "fusion_lat": 0.0, "name": "37c38172b3ee2f2cc8001700432833ee"}, {"type": "electric_scooter", "fusion_lon": 0.0, "bike_id": "c8d06f592f71a5a05a9a151eb52952e0", "is_disabled": 0, "lat": 38.796084666666665, "rental_uris": {"ios": "https://dc.lft.to/lastmile_qr_scan", "android": "https://dc.lft.to/lastmile_qr_scan"}, "is_reserved": 0, "lon": -77.074939, "fusion_lat": 0.0, "name": "c8d06f592f71a5a05a9a151eb52952e0"}, {"type": "electric_scooter", "fusion_lon": 0.0, "bike_id": "d53342922955f9c39fc9f6c0d046f5d5", "is_disabled": 0, "lat": 38.92294583333333, "rental_uris": {"ios": "https://dc.lft.to/lastmile_qr_scan", "android": "https://dc.lft.to/lastmile_qr_scan"}, "is_reserved": 0, "lon": -77.031882, "fusion_lat": 0.0, "name": "d53342922955f9c39fc9f6c0d046f5d5"}, {"type": "electric_scooter", "fusion_lon": 0.0, "bike_id": "51551563b1f6bc0e430cc275a00d0c87", "is_disabled": 0, "lat": 38.87715083333333, "rental_uris": {"ios": "https://dc.lft.to/lastmile_qr_scan", "android": "https://dc.lft.to/lastmile_qr_scan"}, "is_reserved": 0, "lon": -77.00660066666667, "fusion_lat": 0.0, "name": "51551563b1f6bc0e430cc275a00d0c87"}, {"type": "electric_scooter", "fusion_lon": 0.0, "bike_id": "cd0a5de887770cf577b205c9a22b5c36", "is_disabled": 0, "lat": 38.918322833333335, "rental_uris": {"ios": "https://dc.lft.to/lastmile_qr_scan", "android": "https://dc.lft.to/lastmile_qr_scan"}, "is_reserved": 0, "lon": -77.045164, "fusion_lat": 0.0, "name": "cd0a5de887770cf577b205c9a22b5c36"}, {"type": "electric_bike", "fusion_lon": 0.0, "bike_id": "cfdb1e12370aff208f309ff8703d6eb4", "is_disabled": 0, "lat": 38.9192415, "rental_uris": {"ios": "https://dc.lft.to/lastmile_qr_scan", "android": "https://dc.lft.to/lastmile_qr_scan"}, "is_reserved": 0, "lon": -77.0103825, "fusion_lat": 0.0, "name": "cfdb1e12370aff208f309ff8703d6eb4"}, {"type": "electric_scooter", "fusion_lon": 0.0, "bike_id": "58b2489989c54aeca74f0c110439e3d3", "is_disabled": 0, "lat": 38.912417833333336, "rental_uris": {"ios": "https://dc.lft.to/lastmile_qr_scan", "android": "https://dc.lft.to/lastmile_qr_scan"}, "is_reserved": 0, "lon": -77.0364645, "fusion_lat": 0.0, "name": "58b2489989c54aeca74f0c110439e3d3"}, {"type": "electric_scooter", "fusion_lon": 0.0, "bike_id": "3d7b3652ed0a89a0bb57017bfd0d843b", "is_disabled": 0, "lat": 38.9268375, "rental_uris": {"ios": "https://dc.lft.to/lastmile_qr_scan", "android": "https://dc.lft.to/lastmile_qr_scan"}, "is_reserved": 0, "lon": -77.027923, "fusion_lat": 0.0, "name": "3d7b3652ed0a89a0bb57017bfd0d843b"}, {"type": "electric_scooter", "fusion_lon": 0.0, "bike_id": "d7ab8e85e7762b6fd62c4e94068706cf", "is_disabled": 0, "lat": 38.860301666666665, "rental_uris": {"ios": "https://dc.lft.to/lastmile_qr_scan", "android": "https://dc.lft.to/lastmile_qr_scan"}, "is_reserved": 0, "lon": -76.97005966666667, "fusion_lat": 0.0, "name": "d7ab8e85e7762b6fd62c4e94068706cf"}, {"type": "electric_bike", "fusion_lon": 0.0, "bike_id": "83e8f4ee3d4c31d744fb04ed82a6e563", "is_disabled": 0, "lat": 38.967829, "rental_uris": {"ios": "https://dc.lft.to/lastmile_qr_scan", "android": "https://dc.lft.to/lastmile_qr_scan"}, "is_reserved": 0, "lon": -76.96262083333333, "fusion_lat": 0.0, "name": "83e8f4ee3d4c31d744fb04ed82a6e563"}, {"type": "electric_scooter", "fusion_lon": 0.0, "bike_id": "125a1250a23235553c1d2f8dcd9dc4a1", "is_disabled": 0, "lat": 38.899459666666665, "rental_uris": {"ios": "https://dc.lft.to/lastmile_qr_scan", "android": "https://dc.lft.to/lastmile_qr_scan"}, "is_reserved": 0, "lon": -76.9973785, "fusion_lat": 0.0, "name": "125a1250a23235553c1d2f8dcd9dc4a1"}, {"type": "electric_scooter", "fusion_lon": 0.0, "bike_id": "a94415d41fee0ecbdf90a922340290b5", "is_disabled": 0, "lat": 38.8958955, "rental_uris": {"ios": "https://dc.lft.to/lastmile_qr_scan", "android": "https://dc.lft.to/lastmile_qr_scan"}, "is_reserved": 0, "lon": -77.0299345, "fusion_lat": 0.0, "name": "a94415d41fee0ecbdf90a922340290b5"}, {"type": "electric_bike", "fusion_lon": 0.0, "bike_id": "a61f601f11f782f0b29559ac669c490e", "is_disabled": 0, "lat": 38.944776, "rental_uris": {"ios": "https://dc.lft.to/lastmile_qr_scan", "android": "https://dc.lft.to/lastmile_qr_scan"}, "is_reserved": 0, "lon": -76.9868785, "fusion_lat": 0.0, "name": "a61f601f11f782f0b29559ac669c490e"}, {"type": "electric_bike", "fusion_lon": 0.0, "bike_id": "72e00f7148210dd41fb9760f34f74184", "is_disabled": 0, "lat": 38.89852416666667, "rental_uris": {"ios": "https://dc.lft.to/lastmile_qr_scan", "android": "https://dc.lft.to/lastmile_qr_scan"}, "is_reserved": 0, "lon": -76.9318905, "fusion_lat": 0.0, "name": "72e00f7148210dd41fb9760f34f74184"}, {"type": "electric_scooter", "fusion_lon": 0.0, "bike_id": "76ba9d06ad57b4c7094d01a0915e715d", "is_disabled": 0, "lat": 38.9229035, "rental_uris": {"ios": "https://dc.lft.to/lastmile_qr_scan", "android": "https://dc.lft.to/lastmile_qr_scan"}, "is_reserved": 0, "lon": -77.03196533333333, "fusion_lat": 0.0, "name": "76ba9d06ad57b4c7094d01a0915e715d"}, {"type": "electric_scooter", "fusion_lon": 0.0, "bike_id": "88dde308c95cbb635a671f1605c15cee", "is_disabled": 0, "lat": 38.90526333333333, "rental_uris": {"ios": "https://dc.lft.to/lastmile_qr_scan", "android": "https://dc.lft.to/lastmile_qr_scan"}, "is_reserved": 0, "lon": -77.042929, "fusion_lat": 0.0, "name": "88dde308c95cbb635a671f1605c15cee"}, {"type": "electric_scooter", "fusion_lon": 0.0, "bike_id": "28ed5148cf4c6252c8b9591191934545", "is_disabled": 0, "lat": 38.93662716666667, "rental_uris": {"ios": "https://dc.lft.to/lastmile_qr_scan", "android": "https://dc.lft.to/lastmile_qr_scan"}, "is_reserved": 0, "lon": -77.03395, "fusion_lat": 0.0, "name": "28ed5148cf4c6252c8b9591191934545"}, {"type": "electric_scooter", "fusion_lon": 0.0, "bike_id": "4c81d977aa9b444e923e02ac18f440c9", "is_disabled": 0, "lat": 38.87750533333333, "rental_uris": {"ios": "https://dc.lft.to/lastmile_qr_scan", "android": "https://dc.lft.to/lastmile_qr_scan"}, "is_reserved": 0, "lon": -77.00755266666667, "fusion_lat": 0.0, "name": "4c81d977aa9b444e923e02ac18f440c9"}, {"type": "electric_bike", "fusion_lon": 0.0, "bike_id": "6a0c67e0a82fa2d976286581b5b007ca", "is_disabled": 0, "lat": 38.88301666666667, "rental_uris": {"ios": "https://dc.lft.to/lastmile_qr_scan", "android": "https://dc.lft.to/lastmile_qr_scan"}, "is_reserved": 0, "lon": -76.94974666666667, "fusion_lat": 0.0, "name": "6a0c67e0a82fa2d976286581b5b007ca"}, {"type": "electric_bike", "fusion_lon": 0.0, "bike_id": "c627470021d964e2b023e2afc10d68c4", "is_disabled": 0, "lat": 38.900841666666665, "rental_uris": {"ios": "https://dc.lft.to/lastmile_qr_scan", "android": "https://dc.lft.to/lastmile_qr_scan"}, "is_reserved": 0, "lon": -77.05063916666667, "fusion_lat": 0.0, "name": "c627470021d964e2b023e2afc10d68c4"}, {"type": "electric_scooter", "fusion_lon": 0.0, "bike_id": "527ebbccae9345669fa8aeb64660b453", "is_disabled": 0, "lat": 38.91056833333333, "rental_uris": {"ios": "https://dc.lft.to/lastmile_qr_scan", "android": "https://dc.lft.to/lastmile_qr_scan"}, "is_reserved": 0, "lon": -77.02654383333333, "fusion_lat": 0.0, "name": "527ebbccae9345669fa8aeb64660b453"}, {"type": "electric_scooter", "fusion_lon": 0.0, "bike_id": "9db2d9c1c7dfae1eb4b6da48f475e69c", "is_disabled": 0, "lat": 38.859470333333334, "rental_uris": {"ios": "https://dc.lft.to/lastmile_qr_scan", "android": "https://dc.lft.to/lastmile_qr_scan"}, "is_reserved": 0, "lon": -76.95878416666666, "fusion_lat": 0.0, "name": "9db2d9c1c7dfae1eb4b6da48f475e69c"}, {"type": "electric_scooter", "fusion_lon": 0.0, "bike_id": "f3f0f55cd84d8979fdd12b3dba85a9b9", "is_disabled": 0, "lat": 38.92083683333333, "rental_uris": {"ios": "https://dc.lft.to/lastmile_qr_scan", "android": "https://dc.lft.to/lastmile_qr_scan"}, "is_reserved": 0, "lon": -77.0230425, "fusion_lat": 0.0, "name": "f3f0f55cd84d8979fdd12b3dba85a9b9"}, {"type": "electric_scooter", "fusion_lon": 0.0, "bike_id": "9190d0c21c987d4bfdde5a688c2967fc", "is_disabled": 0, "lat": 38.92106616666667, "rental_uris": {"ios": "https://dc.lft.to/lastmile_qr_scan", "android": "https://dc.lft.to/lastmile_qr_scan"}, "is_reserved": 0, "lon": -77.048331, "fusion_lat": 0.0, "name": "9190d0c21c987d4bfdde5a688c2967fc"}, {"type": "electric_scooter", "fusion_lon": 0.0, "bike_id": "652f2f53a307059699526a029fe4f6f4", "is_disabled": 0, "lat": 38.932217, "rental_uris": {"ios": "https://dc.lft.to/lastmile_qr_scan", "android": "https://dc.lft.to/lastmile_qr_scan"}, "is_reserved": 0, "lon": -77.02383583333334, "fusion_lat": 0.0, "name": "652f2f53a307059699526a029fe4f6f4"}, {"type": "electric_scooter", "fusion_lon": 0.0, "bike_id": "726cc8b9236c31db0b85bd5dd2c84da1", "is_disabled": 0, "lat": 38.92505766666667, "rental_uris": {"ios": "https://dc.lft.to/lastmile_qr_scan", "android": "https://dc.lft.to/lastmile_qr_scan"}, "is_reserved": 0, "lon": -77.0217355, "fusion_lat": 0.0, "name": "726cc8b9236c31db0b85bd5dd2c84da1"}, {"type": "electric_scooter", "fusion_lon": 0.0, "bike_id": "31fffbf19a01dc08cb27ad4159e2b8fa", "is_disabled": 0, "lat": 38.9125745, "rental_uris": {"ios": "https://dc.lft.to/lastmile_qr_scan", "android": "https://dc.lft.to/lastmile_qr_scan"}, "is_reserved": 0, "lon": -77.03856816666666, "fusion_lat": 0.0, "name": "31fffbf19a01dc08cb27ad4159e2b8fa"}, {"type": "electric_scooter", "fusion_lon": 0.0, "bike_id": "d1365508aa8dbb5ac542647b46aa3d74", "is_disabled": 0, "lat": 38.9064785, "rental_uris": {"ios": "https://dc.lft.to/lastmile_qr_scan", "android": "https://dc.lft.to/lastmile_qr_scan"}, "is_reserved": 0, "lon": -77.01139016666667, "fusion_lat": 0.0, "name": "d1365508aa8dbb5ac542647b46aa3d74"}, {"type": "electric_scooter", "fusion_lon": 0.0, "bike_id": "3ba583d8816b017e5c366bf24a48ecbc", "is_disabled": 0, "lat": 38.944147, "rental_uris": {"ios": "https://dc.lft.to/lastmile_qr_scan", "android": "https://dc.lft.to/lastmile_qr_scan"}, "is_reserved": 0, "lon": -77.0050035, "fusion_lat": 0.0, "name": "3ba583d8816b017e5c366bf24a48ecbc"}, {"type": "electric_scooter", "fusion_lon": 0.0, "bike_id": "a9bb31b1e22501d3ade0dc02f02e07bf", "is_disabled": 0, "lat": 38.91459483333333, "rental_uris": {"ios": "https://dc.lft.to/lastmile_qr_scan", "android": "https://dc.lft.to/lastmile_qr_scan"}, "is_reserved": 0, "lon": -77.014877, "fusion_lat": 0.0, "name": "a9bb31b1e22501d3ade0dc02f02e07bf"}, {"type": "electric_scooter", "fusion_lon": 0.0, "bike_id": "411a1922a0bc5c5ca9704a551da6d92e", "is_disabled": 0, "lat": 38.927904, "rental_uris": {"ios": "https://dc.lft.to/lastmile_qr_scan", "android": "https://dc.lft.to/lastmile_qr_scan"}, "is_reserved": 0, "lon": -77.05413633333333, "fusion_lat": 0.0, "name": "411a1922a0bc5c5ca9704a551da6d92e"}, {"type": "electric_scooter", "fusion_lon": 0.0, "bike_id": "9f7a217711dad8c851bc3b2ebbeac2f5", "is_disabled": 0, "lat": 38.92332716666667, "rental_uris": {"ios": "https://dc.lft.to/lastmile_qr_scan", "android": "https://dc.lft.to/lastmile_qr_scan"}, "is_reserved": 0, "lon": -77.03615116666667, "fusion_lat": 0.0, "name": "9f7a217711dad8c851bc3b2ebbeac2f5"}, {"type": "electric_scooter", "fusion_lon": 0.0, "bike_id": "755496e316c36947ab9e8749e22f3ee6", "is_disabled": 0, "lat": 38.90268616666667, "rental_uris": {"ios": "https://dc.lft.to/lastmile_qr_scan", "android": "https://dc.lft.to/lastmile_qr_scan"}, "is_reserved": 0, "lon": -77.0032565, "fusion_lat": 0.0, "name": "755496e316c36947ab9e8749e22f3ee6"}, {"type": "electric_scooter", "fusion_lon": 0.0, "bike_id": "507dc88431c8ad2561079be897088954", "is_disabled": 0, "lat": 38.87576883333333, "rental_uris": {"ios": "https://dc.lft.to/lastmile_qr_scan", "android": "https://dc.lft.to/lastmile_qr_scan"}, "is_reserved": 0, "lon": -77.00612483333333, "fusion_lat": 0.0, "name": "507dc88431c8ad2561079be897088954"}, {"type": "electric_scooter", "fusion_lon": 0.0, "bike_id": "8c326c7daa1f1808f485bdb086b42e11", "is_disabled": 0, "lat": 38.89226016666667, "rental_uris": {"ios": "https://dc.lft.to/lastmile_qr_scan", "android": "https://dc.lft.to/lastmile_qr_scan"}, "is_reserved": 0, "lon": -77.03215, "fusion_lat": 0.0, "name": "8c326c7daa1f1808f485bdb086b42e11"}, {"type": "electric_scooter", "fusion_lon": 0.0, "bike_id": "5278f3507b41b2134341e31f660f371f", "is_disabled": 0, "lat": 38.90570533333333, "rental_uris": {"ios": "https://dc.lft.to/lastmile_qr_scan", "android": "https://dc.lft.to/lastmile_qr_scan"}, "is_reserved": 0, "lon": -77.03483333333334, "fusion_lat": 0.0, "name": "5278f3507b41b2134341e31f660f371f"}, {"type": "electric_bike", "fusion_lon": 0.0, "bike_id": "d85c87f2052c47e541280908ca70105b", "is_disabled": 0, "lat": 38.964768, "rental_uris": {"ios": "https://dc.lft.to/lastmile_qr_scan", "android": "https://dc.lft.to/lastmile_qr_scan"}, "is_reserved": 0, "lon": -77.03562583333333, "fusion_lat": 0.0, "name": "d85c87f2052c47e541280908ca70105b"}, {"type": "electric_scooter", "fusion_lon": 0.0, "bike_id": "e635345e70dec0f560056c0170856882", "is_disabled": 0, "lat": 38.93330016666667, "rental_uris": {"ios": "https://dc.lft.to/lastmile_qr_scan", "android": "https://dc.lft.to/lastmile_qr_scan"}, "is_reserved": 0, "lon": -77.0381075, "fusion_lat": 0.0, "name": "e635345e70dec0f560056c0170856882"}, {"type": "electric_bike", "fusion_lon": 0.0, "bike_id": "7a48fce48d28452142821d1d81451691", "is_disabled": 0, "lat": 38.9226105, "rental_uris": {"ios": "https://dc.lft.to/lastmile_qr_scan", "android": "https://dc.lft.to/lastmile_qr_scan"}, "is_reserved": 0, "lon": -77.03692266666667, "fusion_lat": 0.0, "name": "7a48fce48d28452142821d1d81451691"}, {"type": "electric_scooter", "fusion_lon": 0.0, "bike_id": "f53fe0ec3e436273e4c8d80b71ef74ec", "is_disabled": 0, "lat": 38.8922745, "rental_uris": {"ios": "https://dc.lft.to/lastmile_qr_scan", "android": "https://dc.lft.to/lastmile_qr_scan"}, "is_reserved": 0, "lon": -77.04661366666667, "fusion_lat": 0.0, "name": "f53fe0ec3e436273e4c8d80b71ef74ec"}, {"type": "electric_bike", "fusion_lon": 0.0, "bike_id": "9644b9f87cd9125fe1febd4794a9ae48", "is_disabled": 0, "lat": 38.891967666666666, "rental_uris": {"ios": "https://dc.lft.to/lastmile_qr_scan", "android": "https://dc.lft.to/lastmile_qr_scan"}, "is_reserved": 0, "lon": -76.99395716666666, "fusion_lat": 0.0, "name": "9644b9f87cd9125fe1febd4794a9ae48"}, {"type": "electric_scooter", "fusion_lon": 0.0, "bike_id": "7a3f1ef156edca847b250a69ba261550", "is_disabled": 0, "lat": 38.863636666666665, "rental_uris": {"ios": "https://dc.lft.to/lastmile_qr_scan", "android": "https://dc.lft.to/lastmile_qr_scan"}, "is_reserved": 0, "lon": -76.99044216666667, "fusion_lat": 0.0, "name": "7a3f1ef156edca847b250a69ba261550"}, {"type": "electric_scooter", "fusion_lon": 0.0, "bike_id": "913aac6ca47562808c58d012e5ed27f0", "is_disabled": 0, "lat": 38.92044283333333, "rental_uris": {"ios": "https://dc.lft.to/lastmile_qr_scan", "android": "https://dc.lft.to/lastmile_qr_scan"}, "is_reserved": 0, "lon": -77.03430466666667, "fusion_lat": 0.0, "name": "913aac6ca47562808c58d012e5ed27f0"}, {"type": "electric_scooter", "fusion_lon": 0.0, "bike_id": "eb1ea181580b11ee47d569487b0a44a3", "is_disabled": 0, "lat": 38.94906566666667, "rental_uris": {"ios": "https://dc.lft.to/lastmile_qr_scan", "android": "https://dc.lft.to/lastmile_qr_scan"}, "is_reserved": 0, "lon": -77.02388266666667, "fusion_lat": 0.0, "name": "eb1ea181580b11ee47d569487b0a44a3"}, {"type": "electric_scooter", "fusion_lon": 0.0, "bike_id": "7a7654a5af87c174dcccf13924dcf402", "is_disabled": 0, "lat": 38.90496233333333, "rental_uris": {"ios": "https://dc.lft.to/lastmile_qr_scan", "android": "https://dc.lft.to/lastmile_qr_scan"}, "is_reserved": 0, "lon": -77.0259315, "fusion_lat": 0.0, "name": "7a7654a5af87c174dcccf13924dcf402"}, {"type": "electric_scooter", "fusion_lon": 0.0, "bike_id": "925a790784fdcd0d6b928f557141e2e0", "is_disabled": 0, "lat": 38.92347083333333, "rental_uris": {"ios": "https://dc.lft.to/lastmile_qr_scan", "android": "https://dc.lft.to/lastmile_qr_scan"}, "is_reserved": 0, "lon": -77.036346, "fusion_lat": 0.0, "name": "925a790784fdcd0d6b928f557141e2e0"},