{"data": {"bikes": [{"name": "f349379cee4cfa3f36c4209dca39a31b", "fusion_lon": 0.0, "lat": 38.88659583333333, "is_reserved": 0, "type": "electric_scooter", "bike_id": "f349379cee4cfa3f36c4209dca39a31b", "is_disabled": 0, "rental_uris": {"android": "https://dc.lft.to/lastmile_qr_scan", "ios": "https://dc.lft.to/lastmile_qr_scan"}, "lon": -76.99989233333334, "fusion_lat": 0.0}, {"name": "0ebff980b228a5882d583b4dc5f787db", "fusion_lon": 0.0, "lat": 38.9245155, "is_reserved": 0, "type": "electric_scooter", "bike_id": "0ebff980b228a5882d583b4dc5f787db", "is_disabled": 0, "rental_uris": {"android": "https://dc.lft.to/lastmile_qr_scan", "ios": "https://dc.lft.to/lastmile_qr_scan"}, "lon": -77.03966033333333, "fusion_lat": 0.0}, {"name": "797fe7a8dc7c1d20a3a23934789229bd", "fusion_lon": 0.0, "lat": 38.924604, "is_reserved": 0, "type": "electric_scooter", "bike_id": "797fe7a8dc7c1d20a3a23934789229bd", "is_disabled": 0, "rental_uris": {"android": "https://dc.lft.to/lastmile_qr_scan", "ios": "https://dc.lft.to/lastmile_qr_scan"}, "lon": -77.02714, "fusion_lat": 0.0}, {"name": "ccf45439fadea12b7ce961792ad93f02", "fusion_lon": 0.0, "lat": 38.875512666666665, "is_reserved": 0, "type": "electric_scooter", "bike_id": "ccf45439fadea12b7ce961792ad93f02", "is_disabled": 0, "rental_uris": {"android": "https://dc.lft.to/lastmile_qr_scan", "ios": "https://dc.lft.to/lastmile_qr_scan"}, "lon": -77.0056615, "fusion_lat": 0.0}, {"name": "1253e9804b74c9ef15ce04c6bec5b547", "fusion_lon": 0.0, "lat": 38.88405616666667, "is_reserved": 0, "type": "electric_scooter", "bike_id": "1253e9804b74c9ef15ce04c6bec5b547", "is_disabled": 0, "rental_uris": {"android": "https://dc.lft.to/lastmile_qr_scan", "ios": "https://dc.lft.to/lastmile_qr_scan"}, "lon": -76.95396533333333, "fusion_lat": 0.0}, {"name": "43f66553c9e30d6c40e6b37b4110362e", "fusion_lon": 0.0, "lat": 38.908327666666665, "is_reserved": 0, "type": "electric_bike", "bike_id": "43f66553c9e30d6c40e6b37b4110362e", "is_disabled": 0, "rental_uris": {"android": "https://dc.lft.to/lastmile_qr_scan", "ios": "https://dc.lft.to/lastmile_qr_scan"}, "lon": -76.9331995, "fusion_lat": 0.0}, {"name": "5981b292274ec360d9bf3c98b26ccfec", "fusion_lon": 0.0, "lat": 38.919851, "is_reserved": 0, "type": "electric_scooter", "bike_id": "5981b292274ec360d9bf3c98b26ccfec", "is_disabled": 0, "rental_uris": {"android": "https://dc.lft.to/lastmile_qr_scan", "ios": "https://dc.lft.to/lastmile_qr_scan"}, "lon": -77.041709, "fusion_lat": 0.0}, {"name": "5f636440b1666a786e9cc828276cccad", "fusion_lon": 0.0, "lat": 38.940383, "is_reserved": 0, "type": "electric_scooter", "bike_id": "5f636440b1666a786e9cc828276cccad", "is_disabled": 0, "rental_uris": {"android": "https://dc.lft.to/lastmile_qr_scan", "ios": "https://dc.lft.to/lastmile_qr_scan"}, "lon": -77.029026, "fusion_lat": 0.0}, {"name": "a3476473324199ba42a08cebbf6a1844", "fusion_lon": 0.0, "lat": 38.838314833333335, "is_reserved": 0, "type": "electric_bike", "bike_id": "a3476473324199ba42a08cebbf6a1844", "is_disabled": 0, "rental_uris": {"android": "https://dc.lft.to/lastmile_qr_scan", "ios": "https://dc.lft.to/lastmile_qr_scan"}, "lon": -77.07914633333333, "fusion_lat": 0.0}, {"name": "5786181e6da6d10edf1c8072a3eb7451", "fusion_lon": 0.0, "lat": 38.91071733333333, "is_reserved": 0, "type": "electric_scooter", "bike_id": "5786181e6da6d10edf1c8072a3eb7451", "is_disabled": 0, "rental_uris": {"android": "https://dc.lft.to/lastmile_qr_scan", "ios": "https://dc.lft.to/lastmile_qr_scan"}, "lon": -77.0384145, "fusion_lat": 0.0}, {"name": "ff229cd47d4b6cb5ebb89e4581bc5853", "fusion_lon": 0.0, "lat": 38.90321266666667, "is_reserved": 0, "type": "electric_scooter", "bike_id": "ff229cd47d4b6cb5ebb89e4581bc5853", "is_disabled": 0, "rental_uris": {"android": "https://dc.lft.to/lastmile_qr_scan", "ios": "https://dc.lft.to/lastmile_qr_scan"}, "lon": -77.038501, "fusion_lat": 0.0}, {"name": "691205f41f96e395aeaef4ffff1fea2f", "fusion_lon": 0.0, "lat": 38.920741, "is_reserved": 0, "type": "electric_scooter", "bike_id": "691205f41f96e395aeaef4ffff1fea2f", "is_disabled": 0, "rental_uris": {"android": "https://dc.lft.to/lastmile_qr_scan", "ios": "https://dc.lft.to/lastmile_qr_scan"}, "lon": -77.02407666666667, "fusion_lat": 0.0}, {"name": "6cf02fdf5f82cccb7dc40d068975fca1", "fusion_lon": 0.0, "lat": 38.8853325, "is_reserved": 0, "type": "electric_scooter", "bike_id": "6cf02fdf5f82cccb7dc40d068975fca1", "is_disabled": 0, "rental_uris": {"android": "https://dc.lft.to/lastmile_qr_scan", "ios": "https://dc.lft.to/lastmile_qr_scan"}, "lon": -76.99825633333333, "fusion_lat": 0.0}, {"name": "80b37df2042c7985ce9daff07ce5b5b3", "fusion_lon": 0.0, "lat": 38.928806, "is_reserved": 0, "type": "electric_scooter", "bike_id": "80b37df2042c7985ce9daff07ce5b5b3", "is_disabled": 0, "rental_uris": {"android": "https://dc.lft.to/lastmile_qr_scan", "ios": "https://dc.lft.to/lastmile_qr_scan"}, "lon": -77.03305883333333, "fusion_lat": 0.0}, {"name": "83122f4743e81e7239ce1a40b933df45", "fusion_lon": 0.0, "lat": 38.90046266666667, "is_reserved": 0, "type": "electric_scooter", "bike_id": "83122f4743e81e7239ce1a40b933df45", "is_disabled": 0, "rental_uris": {"android": "https://dc.lft.to/lastmile_qr_scan", "ios": "https://dc.lft.to/lastmile_qr_scan"}, "lon": -77.0434235, "fusion_lat": 0.0}, {"name": "905c4c4f449e0be5c370e55568763f59", "fusion_lon": 0.0, "lat": 38.930795833333335, "is_reserved": 0, "type": "electric_scooter", "bike_id": "905c4c4f449e0be5c370e55568763f59", "is_disabled": 0, "rental_uris": {"android": "https://dc.lft.to/lastmile_qr_scan", "ios": "https://dc.lft.to/lastmile_qr_scan"}, "lon": -77.02794666666667, "fusion_lat": 0.0}, {"name": "deca4826e51b20f9fb6e63eb880ef9de", "fusion_lon": 0.0, "lat": 38.921711, "is_reserved": 0, "type": "electric_scooter", "bike_id": "deca4826e51b20f9fb6e63eb880ef9de", "is_disabled": 0, "rental_uris": {"android": "https://dc.lft.to/lastmile_qr_scan", "ios": "https://dc.lft.to/lastmile_qr_scan"}, "lon": -77.03832433333334, "fusion_lat": 0.0}, {"name": "1e666632df4f7f255f413b21ea87fc23", "fusion_lon": 0.0, "lat": 38.96778116666667, "is_reserved": 0, "type": "electric_bike", "bike_id": "1e666632df4f7f255f413b21ea87fc23", "is_disabled": 0, "rental_uris": {"android": "https://dc.lft.to/lastmile_qr_scan", "ios": "https://dc.lft.to/lastmile_qr_scan"}, "lon": -77.00036883333334, "fusion_lat": 0.0}, {"name": "09fa9386b3222d73d1aa94241dd02736", "fusion_lon": 0.0, "lat": 38.92284383333333, "is_reserved": 0, "type": "electric_scooter", "bike_id": "09fa9386b3222d73d1aa94241dd02736", "is_disabled": 0, "rental_uris": {"android": "https://dc.lft.to/lastmile_qr_scan", "ios": "https://dc.lft.to/lastmile_qr_scan"}, "lon": -77.0184425, "fusion_lat": 0.0}, {"name": "eafd0cf985256e60a8cc1a22f7a6b9cd", "fusion_lon": 0.0, "lat": 38.930001833333336, "is_reserved": 0, "type": "electric_scooter", "bike_id": "eafd0cf985256e60a8cc1a22f7a6b9cd", "is_disabled": 0, "rental_uris": {"android": "https://dc.lft.to/lastmile_qr_scan", "ios": "https://dc.lft.to/lastmile_qr_scan"}, "lon": -77.02110683333333, "fusion_lat": 0.0}, {"name": "f5757daedb7f56156f3a252a91357c68", "fusion_lon": 0.0, "lat": 38.90975133333333, "is_reserved": 0, "type": "electric_scooter", "bike_id": "f5757daedb7f56156f3a252a91357c68", "is_disabled": 0, "rental_uris": {"android": "https://dc.lft.to/lastmile_qr_scan", "ios": "https://dc.lft.to/lastmile_qr_scan"}, "lon": -77.03593833333333, "fusion_lat": 0.0}, {"name": "baa533fbddd485ae502e237111636788", "fusion_lon": 0.0, "lat": 38.86516266666667, "is_reserved": 0, "type": "electric_scooter", "bike_id": "baa533fbddd485ae502e237111636788", "is_disabled": 0, "rental_uris": {"android": "https://dc.lft.to/lastmile_qr_scan", "ios": "https://dc.lft.to/lastmile_qr_scan"}, "lon": -76.99019666666666, "fusion_lat": 0.0}, {"name": "909fe4c741edff6e5ddb161112a2a69b", "fusion_lon": 0.0, "lat": 38.904465333333334, "is_reserved": 0, "type": "electric_scooter", "bike_id": "909fe4c741edff6e5ddb161112a2a69b", "is_disabled": 0, "rental_uris": {"android": "https://dc.lft.to/lastmile_qr_scan", "ios": "https://dc.lft.to/lastmile_qr_scan"}, "lon": -76.979958, "fusion_lat": 0.0}, {"name": "039ebfc855bd0afb36f7fa4e2640472d", "fusion_lon": 0.0, "lat": 38.91566066666667, "is_reserved": 0, "type": "electric_scooter", "bike_id": "039ebfc855bd0afb36f7fa4e2640472d", "is_disabled": 0, "rental_uris": {"android": "https://dc.lft.to/lastmile_qr_scan", "ios": "https://dc.lft.to/lastmile_qr_scan"}, "lon": -77.03762983333333, "fusion_lat": 0.0}, {"name": "d29eadb1553af5c16d58fad2515529e6", "fusion_lon": 0.0, "lat": 38.898732833333334, "is_reserved": 0, "type": "electric_scooter", "bike_id": "d29eadb1553af5c16d58fad2515529e6", "is_disabled": 0, "rental_uris": {"android": "https://dc.lft.to/lastmile_qr_scan", "ios": "https://dc.lft.to/lastmile_qr_scan"}, "lon": -77.02381066666666, "fusion_lat": 0.0}, {"name": "70809fe18c94f84d7da475a1385abc9c", "fusion_lon": 0.0, "lat": 38.884835833333334, "is_reserved": 0, "type": "electric_bike", "bike_id": "70809fe18c94f84d7da475a1385abc9c", "is_disabled": 0, "rental_uris": {"android": "https://dc.lft.to/lastmile_qr_scan", "ios": "https://dc.lft.to/lastmile_qr_scan"}, "lon": -77.1277175, "fusion_lat": 0.0}, {"name": "697d8a7a4099c32fc28d876edd799a3e", "fusion_lon": 0.0, "lat": 38.90397316666667, "is_reserved": 0, "type": "electric_scooter", "bike_id": "697d8a7a4099c32fc28d876edd799a3e", "is_disabled": 0, "rental_uris": {"android": "https://dc.lft.to/lastmile_qr_scan", "ios": "https://dc.lft.to/lastmile_qr_scan"}, "lon": -77.02007016666667, "fusion_lat": 0.0}, {"name": "4eb33bb5192f0fe558826918830743c6", "fusion_lon": 0.0, "lat": 38.90172883333334, "is_reserved": 0, "type": "electric_scooter", "bike_id": "4eb33bb5192f0fe558826918830743c6", "is_disabled": 0, "rental_uris": {"android": "https://dc.lft.to/lastmile_qr_scan", "ios": "https://dc.lft.to/lastmile_qr_scan"}, "lon": -76.98061883333334, "fusion_lat": 0.0}, {"name": "265e2963c8d59783f21caed35dee182c", "fusion_lon": 0.0, "lat": 38.902607, "is_reserved": 0, "type": "electric_scooter", "bike_id": "265e2963c8d59783f21caed35dee182c", "is_disabled": 0, "rental_uris": {"android": "https://dc.lft.to/lastmile_qr_scan", "ios": "https://dc.lft.to/lastmile_qr_scan"}, "lon": -77.02824716666667, "fusion_lat": 0.0}, {"name": "f1d7669d3ff09aa0e364d04c5aaad102", "fusion_lon": 0.0, "lat": 38.933918166666665, "is_reserved": 0, "type": "electric_scooter", "bike_id": "f1d7669d3ff09aa0e364d04c5aaad102", "is_disabled": 0, "rental_uris": {"android": "https://dc.lft.to/lastmile_qr_scan", "ios": "https://dc.lft.to/lastmile_qr_scan"}, "lon": -77.03094116666666, "fusion_lat": 0.0}, {"name": "4106055d764a3df93a24378bec54a7a5", "fusion_lon": 0.0, "lat": 38.907289, "is_reserved": 0, "type": "electric_scooter", "bike_id": "4106055d764a3df93a24378bec54a7a5", "is_disabled": 0, "rental_uris": {"android": "https://dc.lft.to/lastmile_qr_scan", "ios": "https://dc.lft.to/lastmile_qr_scan"}, "lon": -77.01139516666667, "fusion_lat": 0.0}, {"name": "a1b6ad940d98eff0f956c79e675dce86", "fusion_lon": 0.0, "lat": 38.9194025, "is_reserved": 0, "type": "electric_scooter", "bike_id": "a1b6ad940d98eff0f956c79e675dce86", "is_disabled": 0, "rental_uris": {"android": "https://dc.lft.to/lastmile_qr_scan", "ios": "https://dc.lft.to/lastmile_qr_scan"}, "lon": -77.04485516666666, "fusion_lat": 0.0}, {"name": "d0f4c7efc7d8c431d33e3781799d3f04", "fusion_lon": 0.0, "lat": 38.911901, "is_reserved": 0, "type": "electric_scooter", "bike_id": "d0f4c7efc7d8c431d33e3781799d3f04", "is_disabled": 0, "rental_uris": {"android": "https://dc.lft.to/lastmile_qr_scan", "ios": "https://dc.lft.to/lastmile_qr_scan"}, "lon": -77.00228183333333, "fusion_lat": 0.0}, {"name": "e5ea58a12f9e7570f72bdf8f84858cad", "fusion_lon": 0.0, "lat": 38.94512566666667, "is_reserved": 0, "type": "electric_scooter", "bike_id": "e5ea58a12f9e7570f72bdf8f84858cad", "is_disabled": 0, "rental_uris": {"android": "https://dc.lft.to/lastmile_qr_scan", "ios": "https://dc.lft.to/lastmile_qr_scan"}, "lon": -77.03376683333333, "fusion_lat": 0.0}, {"name": "55ccd7b46c231f4f018d3cfcb7222477", "fusion_lon": 0.0, "lat": 38.933634166666664, "is_reserved": 0, "type": "electric_scooter", "bike_id": "55ccd7b46c231f4f018d3cfcb7222477", "is_disabled": 0, "rental_uris": {"android": "https://dc.lft.to/lastmile_qr_scan", "ios": "https://dc.lft.to/lastmile_qr_scan"}, "lon": -77.08853283333333, "fusion_lat": 0.0}, {"name": "40c8004d33dbae5fce44e6818fb2afec", "fusion_lon": 0.0, "lat": 38.88915266666667, "is_reserved": 0, "type": "electric_scooter", "bike_id": "40c8004d33dbae5fce44e6818fb2afec", "is_disabled": 0, "rental_uris": {"android": "https://dc.lft.to/lastmile_qr_scan", "ios": "https://dc.lft.to/lastmile_qr_scan"}, "lon": -76.99132516666667, "fusion_lat": 0.0}, {"name": "a57cf7391da98702e8e8e44b83f72595", "fusion_lon": 0.0, "lat": 38.9068025, "is_reserved": 0, "type": "electric_scooter", "bike_id": "a57cf7391da98702e8e8e44b83f72595", "is_disabled": 0, "rental_uris": {"android": "https://dc.lft.to/lastmile_qr_scan", "ios": "https://dc.lft.to/lastmile_qr_scan"}, "lon": -77.07170366666666, "fusion_lat": 0.0}, {"name": "b4dcd58804467742c8ce971a4f29201d", "fusion_lon": 0.0, "lat": 38.899959, "is_reserved": 0, "type": "electric_scooter", "bike_id": "b4dcd58804467742c8ce971a4f29201d", "is_disabled": 0, "rental_uris": {"android": "https://dc.lft.to/lastmile_qr_scan", "ios": "https://dc.lft.to/lastmile_qr_scan"}, "lon": -77.00661316666667, "fusion_lat": 0.0}, {"name": "33069fb7b0f24307a846224a1665ca3e", "fusion_lon": 0.0, "lat": 38.962282, "is_reserved": 0, "type": "electric_bike", "bike_id": "33069fb7b0f24307a846224a1665ca3e", "is_disabled": 0, "rental_uris": {"android": "https://dc.lft.to/lastmile_qr_scan", "ios": "https://dc.lft.to/lastmile_qr_scan"}, "lon": -77.026279, "fusion_lat": 0.0}, {"name": "5d048034af0ec6bdbb77bd5f47e2965b", "fusion_lon": 0.0, "lat": 38.92033216666667, "is_reserved": 0, "type": "electric_scooter", "bike_id": "5d048034af0ec6bdbb77bd5f47e2965b", "is_disabled": 0, "rental_uris": {"android": "https://dc.lft.to/lastmile_qr_scan", "ios": "https://dc.lft.to/lastmile_qr_scan"}, "lon": -77.025858, "fusion_lat": 0.0}, {"name": "4be6793264f9761356c3c099dd06ee20", "fusion_lon": 0.0, "lat": 38.8734545, "is_reserved": 0, "type": "electric_scooter", "bike_id": "4be6793264f9761356c3c099dd06ee20", "is_disabled": 0, "rental_uris": {"android": "https://dc.lft.to/lastmile_qr_scan", "ios": "https://dc.lft.to/lastmile_qr_scan"}, "lon": -77.00264916666667, "fusion_lat": 0.0}, {"name": "e85457307f96069f4823413717a29e59", "fusion_lon": 0.0, "lat": 38.872289333333335, "is_reserved": 0, "type": "electric_scooter", "bike_id": "e85457307f96069f4823413717a29e59", "is_disabled": 0, "rental_uris": {"android": "https://dc.lft.to/lastmile_qr_scan", "ios": "https://dc.lft.to/lastmile_qr_scan"}, "lon": -77.01762616666667, "fusion_lat": 0.0}, {"name": "a4a81c01b729b6f8e34370bcce258c60", "fusion_lon": 0.0, "lat": 38.92491533333333, "is_reserved": 0, "type": "electric_scooter", "bike_id": "a4a81c01b729b6f8e34370bcce258c60", "is_disabled": 0, "rental_uris": {"android": "https://dc.lft.to/lastmile_qr_scan", "ios": "https://dc.lft.to/lastmile_qr_scan"}, "lon": -77.03178166666666, "fusion_lat": 0.0}, {"name": "0b4dfebe1fbf8be5686ae01bea2d34b1", "fusion_lon": 0.0, "lat": 38.87729983333333, "is_reserved": 0, "type": "electric_scooter", "bike_id": "0b4dfebe1fbf8be5686ae01bea2d34b1", "is_disabled": 0, "rental_uris": {"android": "https://dc.lft.to/lastmile_qr_scan", "ios": "https://dc.lft.to/lastmile_qr_scan"}, "lon": -77.01781183333334, "fusion_lat": 0.0}, {"name": "409cf99b91122332b11d93ebbe8e7978", "fusion_lon": 0.0, "lat": 38.92460233333333, "is_reserved": 0, "type": "electric_scooter", "bike_id": "409cf99b91122332b11d93ebbe8e7978", "is_disabled": 0, "rental_uris": {"android": "https://dc.lft.to/lastmile_qr_scan", "ios": "https://dc.lft.to/lastmile_qr_scan"}, "lon": -77.02714766666666, "fusion_lat": 0.0}, {"name": "90c12cdeb3a87451dc988f6c65e72a84", "fusion_lon": 0.0, "lat": 38.91840583333333, "is_reserved": 0, "type": "electric_scooter", "bike_id": "90c12cdeb3a87451dc988f6c65e72a84", "is_disabled": 0, "rental_uris": {"android": "https://dc.lft.to/lastmile_qr_scan", "ios": "https://dc.lft.to/lastmile_qr_scan"}, "lon": -77.0228195, "fusion_lat": 0.0}, {"name": "4b396e7a850efb4be0517a45bfae90d7", "fusion_lon": 0.0, "lat": 38.89220366666667, "is_reserved": 0, "type": "electric_scooter", "bike_id": "4b396e7a850efb4be0517a45bfae90d7", "is_disabled": 0, "rental_uris": {"android": "https://dc.lft.to/lastmile_qr_scan", "ios": "https://dc.lft.to/lastmile_qr_scan"}, "lon": -77.04862883333334, "fusion_lat": 0.0}, {"name": "7f92a9c2b96b01efa5a8732af7c6045a", "fusion_lon": 0.0, "lat": 38.909615333333335, "is_reserved": 0, "type": "electric_scooter", "bike_id": "7f92a9c2b96b01efa5a8732af7c6045a", "is_disabled": 0, "rental_uris": {"android": "https://dc.lft.to/lastmile_qr_scan", "ios": "https://dc.lft.to/lastmile_qr_scan"}, "lon": -77.03284233333333, "fusion_lat": 0.0}, {"name": "b3b4331646ab055d0690c52024f2c07f", "fusion_lon": 0.0, "lat": 38.87010466666667, "is_reserved": 0, "type": "electric_scooter", "bike_id": "b3b4331646ab055d0690c52024f2c07f", "is_disabled": 0, "rental_uris": {"android": "https://dc.lft.to/lastmile_qr_scan", "ios": "https://dc.lft.to/lastmile_qr_scan"}, "lon": -76.98081083333334, "fusion_lat": 0.0}, {"name": "89b05ab4d7c9844b2a302fa1b6e8a96e", "fusion_lon": 0.0, "lat": 38.9451325, "is_reserved": 0, "type": "electric_scooter", "bike_id": "89b05ab4d7c9844b2a302fa1b6e8a96e", "is_disabled": 0, "rental_uris": {"android": "https://dc.lft.to/lastmile_qr_scan", "ios": "https://dc.lft.to/lastmile_qr_scan"}, "lon": -77.03365266666667, "fusion_lat": 0.0}, {"name": "7e738f7b37b0236a84b6b7725b331487", "fusion_lon": 0.0, "lat": 38.90988933333333, "is_reserved": 0, "type": "electric_scooter", "bike_id": "7e738f7b37b0236a84b6b7725b331487", "is_disabled": 0, "rental_uris": {"android": "https://dc.lft.to/lastmile_qr_scan", "ios": "https://dc.lft.to/lastmile_qr_scan"}, "lon": -77.03840983333333, "fusion_lat": 0.0}, {"name": "84e6bad83168557adff7d7abd74c9714", "fusion_lon": 0.0, "lat": 38.87663283333333, "is_reserved": 0, "type": "electric_scooter", "bike_id": "84e6bad83168557adff7d7abd74c9714", "is_disabled": 0, "rental_uris": {"android": "https://dc.lft.to/lastmile_qr_scan", "ios": "https://dc.lft.to/lastmile_qr_scan"}, "lon": -77.00312566666666, "fusion_lat": 0.0}, {"name": "68db536ac0206aed7b59a432e911f89d", "fusion_lon": 0.0, "lat": 38.8992565, "is_reserved": 0, "type": "electric_scooter", "bike_id": "68db536ac0206aed7b59a432e911f89d", "is_disabled": 0, "rental_uris": {"android": "https://dc.lft.to/lastmile_qr_scan", "ios": "https://dc.lft.to/lastmile_qr_scan"}, "lon": -77.003722, "fusion_lat": 0.0}, {"name": "83aa8d0e5711f933703976eaf5277674", "fusion_lon": 0.0, "lat": 38.906498666666664, "is_reserved": 0, "type": "electric_scooter", "bike_id": "83aa8d0e5711f933703976eaf5277674", "is_disabled": 0, "rental_uris": {"android": "https://dc.lft.to/lastmile_qr_scan", "ios": "https://dc.lft.to/lastmile_qr_scan"}, "lon": -77.04679366666667, "fusion_lat": 0.0}, {"name": "f15c62bbeb4a40d083f73e8307741d51", "fusion_lon": 0.0, "lat": 38.90938583333333, "is_reserved": 0, "type": "electric_scooter", "bike_id": "f15c62bbeb4a40d083f73e8307741d51", "is_disabled": 0, "rental_uris": {"android": "https://dc.lft.to/lastmile_qr_scan", "ios": "https://dc.lft.to/lastmile_qr_scan"}, "lon": -77.02691233333333, "fusion_lat": 0.0}, {"name": "01c4723bdacbd37758ff6a95501393a3", "fusion_lon": 0.0, "lat": 38.857886, "is_reserved": 0, "type": "electric_bike", "bike_id": "01c4723bdacbd37758ff6a95501393a3", "is_disabled": 0, "rental_uris": {"android": "https://dc.lft.to/lastmile_qr_scan", "ios": "https://dc.lft.to/lastmile_qr_scan"}, "lon": -77.120204, "fusion_lat": 0.0}, {"name": "3e75d668634898bed77afbde56b3d346", "fusion_lon": 0.0, "lat": 38.90016133333334, "is_reserved": 0, "type": "electric_scooter", "bike_id": "3e75d668634898bed77afbde56b3d346", "is_disabled": 0, "rental_uris": {"android": "https://dc.lft.to/lastmile_qr_scan", "ios": "https://dc.lft.to/lastmile_qr_scan"}, "lon": -77.0261635, "fusion_lat": 0.0}, {"name": "729b67cd2f6f37ce8ae3bf36c8cb4003", "fusion_lon": 0.0, "lat": 38.89539883333333, "is_reserved": 0, "type": "electric_scooter", "bike_id": "729b67cd2f6f37ce8ae3bf36c8cb4003", "is_disabled": 0, "rental_uris": {"android": "https://dc.lft.to/lastmile_qr_scan", "ios": "https://dc.lft.to/lastmile_qr_scan"}, "lon": -76.92950166666667, "fusion_lat": 0.0}, {"name": "c50108f6566881178a239787b4e6619f", "fusion_lon": 0.0, "lat": 38.9052485, "is_reserved": 0, "type": "electric_scooter", "bike_id": "c50108f6566881178a239787b4e6619f", "is_disabled": 0, "rental_uris": {"android": "https://dc.lft.to/lastmile_qr_scan", "ios": "https://dc.lft.to/lastmile_qr_scan"}, "lon": -76.98096883333334, "fusion_lat": 0.0}, {"name": "97929eee70d05f7abcfdfd89621bdf13", "fusion_lon": 0.0, "lat": 38.91673633333333, "is_reserved": 0, "type": "electric_scooter", "bike_id": "97929eee70d05f7abcfdfd89621bdf13", "is_disabled": 0, "rental_uris": {"android": "https://dc.lft.to/lastmile_qr_scan", "ios": "https://dc.lft.to/lastmile_qr_scan"}, "lon": -77.023304, "fusion_lat": 0.0}, {"name": "5654f6d923b280884a71c0d65895c22e", "fusion_lon": 0.0, "lat": 38.86266216666667, "is_reserved": 0, "type": "electric_bike", "bike_id": "5654f6d923b280884a71c0d65895c22e", "is_disabled": 0, "rental_uris": {"android": "https://dc.lft.to/lastmile_qr_scan", "ios": "https://dc.lft.to/lastmile_qr_scan"}, "lon": -76.983486, "fusion_lat": 0.0}, {"name": "9f2be236b6d8cf96a34c881cfc3b2ac3", "fusion_lon": 0.0, "lat": 38.935164, "is_reserved": 0, "type": "electric_scooter", "bike_id": "9f2be236b6d8cf96a34c881cfc3b2ac3", "is_disabled": 0, "rental_uris": {"android": "https://dc.lft.to/lastmile_qr_scan", "ios": "https://dc.lft.to/lastmile_qr_scan"}, "lon": -77.03289966666667, "fusion_lat": 0.0}, {"name": "582633735229c553458b35557e1b2c78", "fusion_lon": 0.0, "lat": 38.923181166666666, "is_reserved": 0, "type": "electric_scooter", "bike_id": "582633735229c553458b35557e1b2c78", "is_disabled": 0, "rental_uris": {"android": "https://dc.lft.to/lastmile_qr_scan", "ios": "https://dc.lft.to/lastmile_qr_scan"}, "lon": -77.04173783333333, "fusion_lat": 0.0}, {"name": "0ea4b63d77af7a9b8bf8b52f96d6c83e", "fusion_lon": 0.0, "lat": 38.925328, "is_reserved": 0, "type": "electric_scooter", "bike_id": "0ea4b63d77af7a9b8bf8b52f96d6c83e", "is_disabled": 0, "rental_uris": {"android": "https://dc.lft.to/lastmile_qr_scan", "ios": "https://dc.lft.to/lastmile_qr_scan"}, "lon": -77.076926, "fusion_lat": 0.0}, {"name": "3a5c56701c3da49f98edb7c0ca1a6dfd", "fusion_lon": 0.0, "lat": 38.981366, "is_reserved": 0, "type": "electric_scooter", "bike_id": "3a5c56701c3da49f98edb7c0ca1a6dfd", "is_disabled": 0, "rental_uris": {"android": "https://dc.lft.to/lastmile_qr_scan", "ios": "https://dc.lft.to/lastmile_qr_scan"}, "lon": -77.02227016666667, "fusion_lat": 0.0}, {"name": "3ab512e280ee0f7ac7e306978adc1fa6", "fusion_lon": 0.0, "lat": 38.92964083333333, "is_reserved": 0, "type": "electric_scooter", "bike_id": "3ab512e280ee0f7ac7e306978adc1fa6", "is_disabled": 0, "rental_uris": {"android": "https://dc.lft.to/lastmile_qr_scan", "ios": "https://dc.lft.to/lastmile_qr_scan"}, "lon": -77.03127833333333, "fusion_lat": 0.0}, {"name": "ef3d2ff2d2cae8d567f80635811a67da", "fusion_lon": 0.0, "lat": 38.89492583333333, "is_reserved": 0, "type": "electric_scooter", "bike_id": "ef3d2ff2d2cae8d567f80635811a67da", "is_disabled": 0, "rental_uris": {"android": "https://dc.lft.to/lastmile_qr_scan", "ios": "https://dc.lft.to/lastmile_qr_scan"}, "lon": -77.028712, "fusion_lat": 0.0}, {"name": "2c093d5e8680f58cba0f1e92b20fa1fa", "fusion_lon": 0.0, "lat": 38.922489, "is_reserved": 0, "type": "electric_scooter", "bike_id": "2c093d5e8680f58cba0f1e92b20fa1fa", "is_disabled": 0, "rental_uris": {"android": "https://dc.lft.to/lastmile_qr_scan", "ios": "https://dc.lft.to/lastmile_qr_scan"}, "lon": -77.01824883333333, "fusion_lat": 0.0}, {"name": "2c1b0d4b1114647c6b105858b230a377", "fusion_lon": 0.0, "lat": 38.91270333333333, "is_reserved": 0, "type": "electric_scooter", "bike_id": "2c1b0d4b1114647c6b105858b230a377", "is_disabled": 0, "rental_uris": {"android": "https://dc.lft.to/lastmile_qr_scan", "ios": "https://dc.lft.to/lastmile_qr_scan"}, "lon": -77.0222965, "fusion_lat": 0.0}, {"name": "cefe5e9ee46213cb6e20b07d6dc72d57", "fusion_lon": 0.0, "lat": 38.90718916666667, "is_reserved": 0, "type": "electric_scooter", "bike_id": "cefe5e9ee46213cb6e20b07d6dc72d57", "is_disabled": 0, "rental_uris": {"android": "https://dc.lft.to/lastmile_qr_scan", "ios": "https://dc.lft.to/lastmile_qr_scan"}, "lon": -77.01829716666667, "fusion_lat": 0.0}, {"name": "a37e8524378e8ffe018376d4c3004a50", "fusion_lon": 0.0, "lat": 38.914762833333334, "is_reserved": 0, "type": "electric_scooter", "bike_id": "a37e8524378e8ffe018376d4c3004a50", "is_disabled": 0, "rental_uris": {"android": "https://dc.lft.to/lastmile_qr_scan", "ios": "https://dc.lft.to/lastmile_qr_scan"}, "lon": -77.04493766666667, "fusion_lat": 0.0}, {"name": "1c17babcb905e7629f85040852f2124f", "fusion_lon": 0.0, "lat": 38.914912666666666, "is_reserved": 0, "type": "electric_scooter", "bike_id": "1c17babcb905e7629f85040852f2124f", "is_disabled": 0, "rental_uris": {"android": "https://dc.lft.to/lastmile_qr_scan", "ios": "https://dc.lft.to/lastmile_qr_scan"}, "lon": -77.0673775, "fusion_lat": 0.0}, {"name": "a1fb5d7e24521df334b7f4b05ce0a9db", "fusion_lon": 0.0, "lat": 38.91637083333333, "is_reserved": 0, "type": "electric_scooter", "bike_id": "a1fb5d7e24521df334b7f4b05ce0a9db", "is_disabled": 0, "rental_uris": {"android": "https://dc.lft.to/lastmile_qr_scan", "ios": "https://dc.lft.to/lastmile_qr_scan"}, "lon": -77.0019835, "fusion_lat": 0.0}, {"name": "f8c34acb01f13e84d9cc6543133d7381", "fusion_lon": 0.0, "lat": 38.92211066666667, "is_reserved": 0, "type": "electric_bike", "bike_id": "f8c34acb01f13e84d9cc6543133d7381", "is_disabled": 0, "rental_uris": {"android": "https://dc.lft.to/lastmile_qr_scan", "ios": "https://dc.lft.to/lastmile_qr_scan"}, "lon": -76.98798166666667, "fusion_lat": 0.0}, {"name": "1082bb31ac5cedeac263efefcb330a97", "fusion_lon": 0.0, "lat": 38.902648, "is_reserved": 0, "type": "electric_scooter", "bike_id": "1082bb31ac5cedeac263efefcb330a97", "is_disabled": 0, "rental_uris": {"android": "https://dc.lft.to/lastmile_qr_scan", "ios": "https://dc.lft.to/lastmile_qr_scan"}, "lon": -77.03956966666667, "fusion_lat": 0.0}, {"name": "a9a5f2f1d77bddaf6a1ab435d751df30", "fusion_lon": 0.0, "lat": 38.914174333333335, "is_reserved": 0, "type": "electric_scooter", "bike_id": "a9a5f2f1d77bddaf6a1ab435d751df30", "is_disabled": 0, "rental_uris": {"android": "https://dc.lft.to/lastmile_qr_scan", "ios": "https://dc.lft.to/lastmile_qr_scan"}, "lon": -77.021489, "fusion_lat": 0.0}, {"name": "379fc4bbdc3eef4845cd60923448513f", "fusion_lon": 0.0, "lat": 38.92044683333334, "is_reserved": 0, "type": "electric_scooter", "bike_id": "379fc4bbdc3eef4845cd60923448513f", "is_disabled": 0, "rental_uris": {"android": "https://dc.lft.to/lastmile_qr_scan", "ios": "https://dc.lft.to/lastmile_qr_scan"}, "lon": -77.0419465, "fusion_lat": 0.0}, {"name": "bb3967fa6d036f803702b891ea13b038", "fusion_lon": 0.0, "lat": 38.911962833333334, "is_reserved": 0, "type": "electric_scooter", "bike_id": "bb3967fa6d036f803702b891ea13b038", "is_disabled": 0, "rental_uris": {"android": "https://dc.lft.to/lastmile_qr_scan", "ios": "https://dc.lft.to/lastmile_qr_scan"}, "lon": -77.038401, "fusion_lat": 0.0}, {"name": "565f2b8bfdfb0f9da451308b96ce8806", "fusion_lon": 0.0, "lat": 38.86095483333333, "is_reserved": 0, "type": "electric_bike", "bike_id": "565f2b8bfdfb0f9da451308b96ce8806", "is_disabled": 0, "rental_uris": {"android": "https://dc.lft.to/lastmile_qr_scan", "ios": "https://dc.lft.to/lastmile_qr_scan"}, "lon": -77.09583966666666, "fusion_lat": 0.0}, {"name": "ee343d6a6eb3f11c6c2980e78c57bf31", "fusion_lon": 0.0, "lat": 38.88117233333333, "is_reserved": 0, "type": "electric_scooter", "bike_id": "ee343d6a6eb3f11c6c2980e78c57bf31", "is_disabled": 0, "rental_uris": {"android": "https://dc.lft.to/lastmile_qr_scan", "ios": "https://dc.lft.to/lastmile_qr_scan"}, "lon": -77.016645, "fusion_lat": 0.0}, {"name": "828f100f7e82f683bd090a0eb80c3886", "fusion_lon": 0.0, "lat": 38.936774, "is_reserved": 0, "type": "electric_scooter", "bike_id": "828f100f7e82f683bd090a0eb80c3886", "is_disabled": 0, "rental_uris": {"android": "https://dc.lft.to/lastmile_qr_scan", "ios": "https://dc.lft.to/lastmile_qr_scan"}, "lon": -77.03627133333333, "fusion_lat": 0.0}, {"name": "eb02f5cc6ef6ad0646076bfd01b8d690", "fusion_lon": 0.0, "lat": 38.9184565, "is_reserved": 0, "type": "electric_scooter", "bike_id": "eb02f5cc6ef6ad0646076bfd01b8d690", "is_disabled": 0, "rental_uris": {"android": "https://dc.lft.to/lastmile_qr_scan", "ios": "https://dc.lft.to/lastmile_qr_scan"}, "lon": -77.03178583333333, "fusion_lat": 0.0}, {"name": "fb345e4bb6a6b18723b9f4fafbb409be", "fusion_lon": 0.0, "lat": 38.917144666666665, "is_reserved": 0, "type": "electric_scooter", "bike_id": "fb345e4bb6a6b18723b9f4fafbb409be", "is_disabled": 0, "rental_uris": {"android": "https://dc.lft.to/lastmile_qr_scan", "ios": "https://dc.lft.to/lastmile_qr_scan"}, "lon": -77.038609, "fusion_lat": 0.0}, {"name": "0a0633ed50d7f5f33594c0e5439ef532", "fusion_lon": 0.0, "lat": 38.92091216666667, "is_reserved": 0, "type": "electric_scooter", "bike_id": "0a0633ed50d7f5f33594c0e5439ef532", "is_disabled": 0, "rental_uris": {"android": "https://dc.lft.to/lastmile_qr_scan", "ios": "https://dc.lft.to/lastmile_qr_scan"}, "lon": -77.00432566666667, "fusion_lat": 0.0}, {"name": "f0b5bd4653cb10e81df9c33717f23519", "fusion_lon": 0.0, "lat": 38.888111, "is_reserved": 0, "type": "electric_scooter", "bike_id": "f0b5bd4653cb10e81df9c33717f23519", "is_disabled": 0, "rental_uris": {"android": "https://dc.lft.to/lastmile_qr_scan", "ios": "https://dc.lft.to/lastmile_qr_scan"}, "lon": -76.933402, "fusion_lat": 0.0}, {"name": "b3eb8146ebb54c75bd78dff254e72419", "fusion_lon": 0.0, "lat": 38.924649333333335, "is_reserved": 0, "type": "electric_scooter", "bike_id": "b3eb8146ebb54c75bd78dff254e72419", "is_disabled": 0, "rental_uris": {"android": "https://dc.lft.to/lastmile_qr_scan", "ios": "https://dc.lft.to/lastmile_qr_scan"}, "lon": -77.02206133333334, "fusion_lat": 0.0}, {"name": "3d8e59f1a0c2c23bdf758fcab2413d35", "fusion_lon": 0.0, "lat": 38.8768045, "is_reserved": 0, "type": "electric_scooter", "bike_id": "3d8e59f1a0c2c23bdf758fcab2413d35", "is_disabled": 0, "rental_uris": {"android": "https://dc.lft.to/lastmile_qr_scan", "ios": "https://dc.lft.to/lastmile_qr_scan"}, "lon": -76.99828983333333, "fusion_lat": 0.0}, {"name": "f634155e11944211b9a8019909231110", "fusion_lon": 0.0, "lat": 38.93546383333333, "is_reserved": 0, "type": "electric_scooter", "bike_id": "f634155e11944211b9a8019909231110", "is_disabled": 0, "rental_uris": {"android": "https://dc.lft.to/lastmile_qr_scan", "ios": "https://dc.lft.to/lastmile_qr_scan"}, "lon": -77.0585875, "fusion_lat": 0.0}, {"name": "32be992372ea9df4cbc7519c045269c7", "fusion_lon": 0.0, "lat": 38.903278666666665, "is_reserved": 0, "type": "electric_scooter", "bike_id": "32be992372ea9df4cbc7519c045269c7", "is_disabled": 0, "rental_uris": {"android": "https://dc.lft.to/lastmile_qr_scan", "ios": "https://dc.lft.to/lastmile_qr_scan"}, "lon": -77.02723466666667, "fusion_lat": 0.0}, {"name": "26448ca8562d53c4d9fdc0b01bbfaf4f", "fusion_lon": 0.0, "lat": 38.89603616666667, "is_reserved": 0, "type": "electric_scooter", "bike_id": "26448ca8562d53c4d9fdc0b01bbfaf4f", "is_disabled": 0, "rental_uris": {"android": "https://dc.lft.to/lastmile_qr_scan", "ios": "https://dc.lft.to/lastmile_qr_scan"}, "lon": -77.0076555, "fusion_lat": 0.0}, {"name": "10014a0fae5d9c65b011c381cde26d01", "fusion_lon": 0.0, "lat": 38.961411166666664, "is_reserved": 0, "type": "electric_scooter", "bike_id": "10014a0fae5d9c65b011c381cde26d01", "is_disabled": 0, "rental_uris": {"android": "https://dc.lft.to/lastmile_qr_scan", "ios": "https://dc.lft.to/lastmile_qr_scan"}, "lon": -77.03236516666666, "fusion_lat": 0.0}, {"name": "86ac229c9a307e92d167deb332be6354", "fusion_lon": 0.0, "lat": 38.93767533333333, "is_reserved": 0, "type": "electric_scooter", "bike_id": "86ac229c9a307e92d167deb332be6354", "is_disabled": 0, "rental_uris": {"android": "https://dc.lft.to/lastmile_qr_scan", "ios": "https://dc.lft.to/lastmile_qr_scan"}, "lon": -77.02516266666666, "fusion_lat": 0.0}, {"name": "f477e8e2c25f5ec98f151c3b6191fc12", "fusion_lon": 0.0, "lat": 38.9103695, "is_reserved": 0, "type": "electric_scooter", "bike_id": "f477e8e2c25f5ec98f151c3b6191fc12", "is_disabled": 0, "rental_uris": {"android": "https://dc.lft.to/lastmile_qr_scan", "ios": "https://dc.lft.to/lastmile_qr_scan"}, "lon": -77.01334716666666, "fusion_lat": 0.0}, {"name": "c3c1d1a8c64c5e93b28bd261616aa461", "fusion_lon": 0.0, "lat": 38.906152166666665, "is_reserved": 0, "type": "electric_scooter", "bike_id": "c3c1d1a8c64c5e93b28bd261616aa461", "is_disabled": 0, "rental_uris": {"android": "https://dc.lft.to/lastmile_qr_scan", "ios": "https://dc.lft.to/lastmile_qr_scan"}, "lon": -77.0069905, "fusion_lat": 0.0}, {"name": "42fb775fb7f8abd899f1ec77c482a06e", "fusion_lon": 0.0, "lat": 38.90495933333333, "is_reserved": 0, "type": "electric_scooter", "bike_id": "42fb775fb7f8abd899f1ec77c482a06e", "is_disabled": 0, "rental_uris": {"android": "https://dc.lft.to/lastmile_qr_scan", "ios": "https://dc.lft.to/lastmile_qr_scan"}, "lon": -77.025921, "fusion_lat": 0.0}, {"name": "00b6dcf71553b88e918419a1ddb25e48", "fusion_lon": 0.0, "lat": 38.905110666666666, "is_reserved": 0, "type": "electric_scooter", "bike_id": "00b6dcf71553b88e918419a1ddb25e48", "is_disabled": 0, "rental_uris": {"android": "https://dc.lft.to/lastmile_qr_scan", "ios": "https://dc.lft.to/lastmile_qr_scan"}, "lon": -77.00136416666666, "fusion_lat": 0.0}, {"name": "233f37e56e3398304739ae14102ac31a", "fusion_lon": 0.0, "lat": 38.923599, "is_reserved": 0, "type": "electric_scooter", "bike_id": "233f37e56e3398304739ae14102ac31a", "is_disabled": 0, "rental_uris": {"android": "https://dc.lft.to/lastmile_qr_scan", "ios": "https://dc.lft.to/lastmile_qr_scan"}, "lon": -77.04158416666667, "fusion_lat": 0.0}, {"name": "a6350f155d5a9202618d101119680b1f", "fusion_lon": 0.0, "lat": 38.903473, "is_reserved": 0, "type": "electric_scooter", "bike_id": "a6350f155d5a9202618d101119680b1f", "is_disabled": 0, "rental_uris": {"android": "https://dc.lft.to/lastmile_qr_scan", "ios": "https://dc.lft.to/lastmile_qr_scan"}, "lon": -77.025745, "fusion_lat": 0.0}, {"name": "4f44581ad1c50ede5aad52ce25d15b08", "fusion_lon": 0.0, "lat": 38.897737666666664, "is_reserved": 0, "type": "electric_scooter", "bike_id": "4f44581ad1c50ede5aad52ce25d15b08", "is_disabled": 0, "rental_uris": {"android": "https://dc.lft.to/lastmile_qr_scan", "ios": "https://dc.lft.to/lastmile_qr_scan"}, "lon": -77.051608, "fusion_lat": 0.0}, {"name": "387661194f5e13dc23c58d871a797e59", "fusion_lon": 0.0, "lat": 39.039962833333334, "is_reserved": 0, "type": "electric_bike", "bike_id": "387661194f5e13dc23c58d871a797e59", "is_disabled": 0, "rental_uris": {"android": "https://dc.lft.to/lastmile_qr_scan", "ios": "https://dc.lft.to/lastmile_qr_scan"}, "lon": -76.999267, "fusion_lat": 0.0}, {"name": "e5c7e92c207433d48c6d8d0fd6c9c20d", "fusion_lon": 0.0, "lat": 38.923457, "is_reserved": 0, "type": "electric_scooter", "bike_id": "e5c7e92c207433d48c6d8d0fd6c9c20d", "is_disabled": 0, "rental_uris": {"android": "https://dc.lft.to/lastmile_qr_scan", "ios": "https://dc.lft.to/lastmile_qr_scan"}, "lon": -77.05080766666667, "fusion_lat": 0.0}, {"name": "bb5c19bb0d0476220922c456229b8a89", "fusion_lon": 0.0, "lat": 38.8071075, "is_reserved": 0, "type": "electric_bike", "bike_id": "bb5c19bb0d0476220922c456229b8a89", "is_disabled": 0, "rental_uris": {"android": "https://dc.lft.to/lastmile_qr_scan", "ios": "https://dc.lft.to/lastmile_qr_scan"}, "lon": -77.06172, "fusion_lat": 0.0}, {"name": "63892bd58df795f7218bf0c66ad15a9c", "fusion_lon": 0.0, "lat": 38.898536, "is_reserved": 0, "type": "electric_scooter", "bike_id": "63892bd58df795f7218bf0c66ad15a9c", "is_disabled": 0, "rental_uris": {"android": "https://dc.lft.to/lastmile_qr_scan", "ios": "https://dc.lft.to/lastmile_qr_scan"}, "lon": -76.98164133333333, "fusion_lat": 0.0}, {"name": "bab478ce26394c2c5f178ed4684fafc3", "fusion_lon": 0.0, "lat": 38.8651695, "is_reserved": 0, "type": "electric_scooter", "bike_id": "bab478ce26394c2c5f178ed4684fafc3", "is_disabled": 0, "rental_uris": {"android": "https://dc.lft.to/lastmile_qr_scan", "ios": "https://dc.lft.to/lastmile_qr_scan"}, "lon": -76.99018416666667, "fusion_lat": 0.0}, {"name": "a789734d4f505f433e59cc41014f0fcf", "fusion_lon": 0.0, "lat": 38.887488, "is_reserved": 0, "type": "electric_scooter", "bike_id": "a789734d4f505f433e59cc41014f0fcf", "is_disabled": 0, "rental_uris": {"android": "https://dc.lft.to/lastmile_qr_scan", "ios": "https://dc.lft.to/lastmile_qr_scan"}, "lon": -77.02726266666667, "fusion_lat": 0.0}, {"name": "c08e308f967b0d52953cbaf5a53b56ad", "fusion_lon": 0.0, "lat": 38.9173035, "is_reserved": 0, "type": "electric_scooter", "bike_id": "c08e308f967b0d52953cbaf5a53b56ad", "is_disabled": 0, "rental_uris": {"android": "https://dc.lft.to/lastmile_qr_scan", "ios": "https://dc.lft.to/lastmile_qr_scan"}, "lon": -77.03662283333334, "fusion_lat": 0.0}, {"name": "00445f3bc6ae6e9d8090679df88bee14", "fusion_lon": 0.0, "lat": 38.922185999999996, "is_reserved": 0, "type": "electric_scooter", "bike_id": "00445f3bc6ae6e9d8090679df88bee14", "is_disabled": 0, "rental_uris": {"android": "https://dc.lft.to/lastmile_qr_scan", "ios": "https://dc.lft.to/lastmile_qr_scan"}, "lon": -77.0346025, "fusion_lat": 0.0}, {"name": "0b0cb95ad42d30e779cc4dbf19264639", "fusion_lon": 0.0, "lat": 38.919166, "is_reserved": 0, "type": "electric_scooter", "bike_id": "0b0cb95ad42d30e779cc4dbf19264639", "is_disabled": 0, "rental_uris": {"android": "https://dc.lft.to/lastmile_qr_scan", "ios": "https://dc.lft.to/lastmile_qr_scan"}, "lon": -77.0321065, "fusion_lat": 0.0}, {"name": "25ba0593151ebe9db00b0b2d0c1b022d", "fusion_lon": 0.0, "lat": 38.80901816666667, "is_reserved": 0, "type": "electric_bike", "bike_id": "25ba0593151ebe9db00b0b2d0c1b022d", "is_disabled": 0, "rental_uris": {"android": "https://dc.lft.to/lastmile_qr_scan", "ios": "https://dc.lft.to/lastmile_qr_scan"}, "lon": -77.086739, "fusion_lat": 0.0}, {"name": "73290cb47bd9fef8e3836211b3dfb3c2", "fusion_lon": 0.0, "lat": 38.928216, "is_reserved": 0, "type": "electric_scooter", "bike_id": "73290cb47bd9fef8e3836211b3dfb3c2", "is_disabled": 0, "rental_uris": {"android": "https://dc.lft.to/lastmile_qr_scan", "ios": "https://dc.lft.to/lastmile_qr_scan"}, "lon": -77.01417316666667, "fusion_lat": 0.0}, {"name": "1747060bcc26ee642ead4ca0554b58fc", "fusion_lon": 0.0, "lat": 38.863890166666664, "is_reserved": 0, "type": "electric_scooter", "bike_id": "1747060bcc26ee642ead4ca0554b58fc", "is_disabled": 0, "rental_uris": {"android": "https://dc.lft.to/lastmile_qr_scan", "ios": "https://dc.lft.to/lastmile_qr_scan"}, "lon": -76.99042066666667, "fusion_lat": 0.0}, {"name": "3ea57b63639b6f4019aa83099833c6d5", "fusion_lon": 0.0, "lat": 38.8848845, "is_reserved": 0, "type": "electric_scooter", "bike_id": "3ea57b63639b6f4019aa83099833c6d5", "is_disabled": 0, "rental_uris": {"android": "https://dc.lft.to/lastmile_qr_scan", "ios": "https://dc.lft.to/lastmile_qr_scan"}, "lon": -77.031859, "fusion_lat": 0.0}, {"name": "de3f5d5a9d00f92614c7d2e5d2c05a98", "fusion_lon": 0.0, "lat": 38.8861405, "is_reserved": 0, "type": "electric_scooter", "bike_id": "de3f5d5a9d00f92614c7d2e5d2c05a98", "is_disabled": 0, "rental_uris": {"android": "https://dc.lft.to/lastmile_qr_scan", "ios": "https://dc.lft.to/lastmile_qr_scan"}, "lon": -76.9558415, "fusion_lat": 0.0}, {"name": "42059052dc25b4e8278f5acefd1d28f1", "fusion_lon": 0.0, "lat": 38.91211166666667, "is_reserved": 0, "type": "electric_scooter", "bike_id": "42059052dc25b4e8278f5acefd1d28f1", "is_disabled": 0, "rental_uris": {"android": "https://dc.lft.to/lastmile_qr_scan", "ios": "https://dc.lft.to/lastmile_qr_scan"}, "lon": -77.03846383333334, "fusion_lat": 0.0}, {"name": "54e01a4002193f6827a61d5d743ddb8f", "fusion_lon": 0.0, "lat": 38.900066833333334, "is_reserved": 0, "type": "electric_scooter", "bike_id": "54e01a4002193f6827a61d5d743ddb8f", "is_disabled": 0, "rental_uris": {"android": "https://dc.lft.to/lastmile_qr_scan", "ios": "https://dc.lft.to/lastmile_qr_scan"}, "lon": -77.045031, "fusion_lat": 0.0}, {"name": "0fa0a830937a2a7f4b59d7b85fae729f", "fusion_lon": 0.0, "lat": 38.9032275, "is_reserved": 0, "type": "electric_scooter", "bike_id": "0fa0a830937a2a7f4b59d7b85fae729f", "is_disabled": 0, "rental_uris": {"android": "https://dc.lft.to/lastmile_qr_scan", "ios": "https://dc.lft.to/lastmile_qr_scan"}, "lon": -76.97546916666667, "fusion_lat": 0.0}, {"name": "eb83c93248f86278094192d606e56b71", "fusion_lon": 0.0, "lat": 38.9360395, "is_reserved": 0, "type": "electric_bike", "bike_id": "eb83c93248f86278094192d606e56b71", "is_disabled": 0, "rental_uris": {"android": "https://dc.lft.to/lastmile_qr_scan", "ios": "https://dc.lft.to/lastmile_qr_scan"}, "lon": -77.035285, "fusion_lat": 0.0}, {"name": "b9a840920e8b929feef523e93284213f", "fusion_lon": 0.0, "lat": 38.9071485, "is_reserved": 0, "type": "electric_scooter", "bike_id": "b9a840920e8b929feef523e93284213f", "is_disabled": 0, "rental_uris": {"android": "https://dc.lft.to/lastmile_qr_scan", "ios": "https://dc.lft.to/lastmile_qr_scan"}, "lon": -76.984574, "fusion_lat": 0.0}, {"name": "e5effb148b6edcab896f1ccb613c34bc", "fusion_lon": 0.0, "lat": 38.9020775, "is_reserved": 0, "type": "electric_scooter", "bike_id": "e5effb148b6edcab896f1ccb613c34bc", "is_disabled": 0, "rental_uris": {"android": "https://dc.lft.to/lastmile_qr_scan", "ios": "https://dc.lft.to/lastmile_qr_scan"}, "lon": -77.02375116666667, "fusion_lat": 0.0}, {"name": "d6a9d18f448379d779f67b6d4f098748", "fusion_lon": 0.0, "lat": 38.87109383333333, "is_reserved": 0, "type": "electric_scooter", "bike_id": "d6a9d18f448379d779f67b6d4f098748", "is_disabled": 0, "rental_uris": {"android": "https://dc.lft.to/lastmile_qr_scan", "ios": "https://dc.lft.to/lastmile_qr_scan"}, "lon": -77.00746666666667, "fusion_lat": 0.0}, {"name": "6154789cedd965779f04948281d9feab", "fusion_lon": 0.0, "lat": 38.887463, "is_reserved": 0, "type": "electric_scooter", "bike_id": "6154789cedd965779f04948281d9feab", "is_disabled": 0, "rental_uris": {"android": "https://dc.lft.to/lastmile_qr_scan", "ios": "https://dc.lft.to/lastmile_qr_scan"}, "lon": -77.02843633333333, "fusion_lat": 0.0}, {"name": "c7165cd85e04d9e25514e651d952d837", "fusion_lon": 0.0, "lat": 38.935791333333334, "is_reserved": 0, "type": "electric_scooter", "bike_id": "c7165cd85e04d9e25514e651d952d837", "is_disabled": 0, "rental_uris": {"android": "https://dc.lft.to/lastmile_qr_scan", "ios": "https://dc.lft.to/lastmile_qr_scan"}, "lon": -77.02126633333333, "fusion_lat": 0.0}, {"name": "e87a2756cf151301ee8926645a8654dc", "fusion_lon": 0.0, "lat": 38.893120333333336, "is_reserved": 0, "type": "electric_scooter", "bike_id": "e87a2756cf151301ee8926645a8654dc", "is_disabled": 0, "rental_uris": {"android": "https://dc.lft.to/lastmile_qr_scan", "ios": "https://dc.lft.to/lastmile_qr_scan"}, "lon": -77.0500245, "fusion_lat": 0.0}, {"name": "812bfffc2cea573919e72e0057844ff3", "fusion_lon": 0.0, "lat": 38.93654683333333, "is_reserved": 0, "type": "electric_scooter", "bike_id": "812bfffc2cea573919e72e0057844ff3", "is_disabled": 0, "rental_uris": {"android": "https://dc.lft.to/lastmile_qr_scan", "ios": "https://dc.lft.to/lastmile_qr_scan"}, "lon": -77.02639066666667, "fusion_lat": 0.0}, {"name": "e78afd70195386c4d8d009690b756b61", "fusion_lon": 0.0, "lat": 38.928715833333335, "is_reserved": 0, "type": "electric_scooter", "bike_id": "e78afd70195386c4d8d009690b756b61", "is_disabled": 0, "rental_uris": {"android": "https://dc.lft.to/lastmile_qr_scan", "ios": "https://dc.lft.to/lastmile_qr_scan"}, "lon": -77.0285215, "fusion_lat": 0.0}, {"name": "153a84821c92703752331dc4b4d31d6a", "fusion_lon": 0.0, "lat": 38.90912433333333, "is_reserved": 0, "type": "electric_scooter", "bike_id": "153a84821c92703752331dc4b4d31d6a", "is_disabled": 0, "rental_uris": {"android": "https://dc.lft.to/lastmile_qr_scan", "ios": "https://dc.lft.to/lastmile_qr_scan"}, "lon": -77.027109, "fusion_lat": 0.0}, {"name": "77e457849bcf7798e09cb1881b30ca4b", "fusion_lon": 0.0, "lat": 38.888498166666665, "is_reserved": 0, "type": "electric_scooter", "bike_id": "77e457849bcf7798e09cb1881b30ca4b", "is_disabled": 0, "rental_uris": {"android": "https://dc.lft.to/lastmile_qr_scan", "ios": "https://dc.lft.to/lastmile_qr_scan"}, "lon": -76.92679466666667, "fusion_lat": 0.0}, {"name": "edd6008f642b92763746b1adbd65b488", "fusion_lon": 0.0, "lat": 38.920343833333334, "is_reserved": 0, "type": "electric_scooter", "bike_id": "edd6008f642b92763746b1adbd65b488", "is_disabled": 0, "rental_uris": {"android": "https://dc.lft.to/lastmile_qr_scan", "ios": "https://dc.lft.to/lastmile_qr_scan"}, "lon": -77.02584083333333, "fusion_lat": 0.0}, {"name": "efd3a39e36b896e045bba2565b7b9459", "fusion_lon": 0.0, "lat": 38.8693785, "is_reserved": 0, "type": "electric_bike", "bike_id": "efd3a39e36b896e045bba2565b7b9459", "is_disabled": 0, "rental_uris": {"android": "https://dc.lft.to/lastmile_qr_scan", "ios": "https://dc.lft.to/lastmile_qr_scan"}, "lon": -77.0946585, "fusion_lat": 0.0}, {"name": "f036456db68579e4292c147ec0236c48", "fusion_lon": 0.0, "lat": 38.9278715, "is_reserved": 0, "type": "electric_scooter", "bike_id": "f036456db68579e4292c147ec0236c48", "is_disabled": 0, "rental_uris": {"android": "https://dc.lft.to/lastmile_qr_scan", "ios": "https://dc.lft.to/lastmile_qr_scan"}, "lon": -77.031527, "fusion_lat": 0.0}, {"name": "a761b7c6c40efc5b60e8c8bce22dd2f7", "fusion_lon": 0.0, "lat": 38.871776, "is_reserved": 0, "type": "electric_scooter", "bike_id": "a761b7c6c40efc5b60e8c8bce22dd2f7", "is_disabled": 0, "rental_uris": {"android": "https://dc.lft.to/lastmile_qr_scan", "ios": "https://dc.lft.to/lastmile_qr_scan"}, "lon": -77.00611566666667, "fusion_lat": 0.0}, {"name": "8af079119bd3525de18c728e5b27f1c0", "fusion_lon": 0.0, "lat": 38.928377833333336, "is_reserved": 0, "type": "electric_scooter", "bike_id": "8af079119bd3525de18c728e5b27f1c0", "is_disabled": 0, "rental_uris": {"android": "https://dc.lft.to/lastmile_qr_scan", "ios": "https://dc.lft.to/lastmile_qr_scan"}, "lon": -77.03275616666667, "fusion_lat": 0.0}, {"name": "9f39054b3d6578e48e068aa2df01ccf6", "fusion_lon": 0.0, "lat": 38.88430733333333, "is_reserved": 0, "type": "electric_scooter", "bike_id": "9f39054b3d6578e48e068aa2df01ccf6", "is_disabled": 0, "rental_uris": {"android": "https://dc.lft.to/lastmile_qr_scan", "ios": "https://dc.lft.to/lastmile_qr_scan"}, "lon": -76.9574795, "fusion_lat": 0.0}, {"name": "4feee4502c583414440e1da88e900636", "fusion_lon": 0.0, "lat": 38.9290095, "is_reserved": 0, "type": "electric_scooter", "bike_id": "4feee4502c583414440e1da88e900636", "is_disabled": 0, "rental_uris": {"android": "https://dc.lft.to/lastmile_qr_scan", "ios": "https://dc.lft.to/lastmile_qr_scan"}, "lon": -77.01642966666667, "fusion_lat": 0.0}, {"name": "e2a4eade14c652bdad29eb9e93942620", "fusion_lon": 0.0, "lat": 38.8812475, "is_reserved": 0, "type": "electric_scooter", "bike_id": "e2a4eade14c652bdad29eb9e93942620", "is_disabled": 0, "rental_uris": {"android": "https://dc.lft.to/lastmile_qr_scan", "ios": "https://dc.lft.to/lastmile_qr_scan"}, "lon": -77.01648866666666, "fusion_lat": 0.0}, {"name": "568aa076d8a6915690676309b28cc103", "fusion_lon": 0.0, "lat": 38.90196616666667, "is_reserved": 0, "type": "electric_scooter", "bike_id": "568aa076d8a6915690676309b28cc103", "is_disabled": 0, "rental_uris": {"android": "https://dc.lft.to/lastmile_qr_scan", "ios": "https://dc.lft.to/lastmile_qr_scan"}, "lon": -77.0129405, "fusion_lat": 0.0}, {"name": "786433e03a95866300db223bd6047dab", "fusion_lon": 0.0, "lat": 38.91901583333333, "is_reserved": 0, "type": "electric_scooter", "bike_id": "786433e03a95866300db223bd6047dab", "is_disabled": 0, "rental_uris": {"android": "https://dc.lft.to/lastmile_qr_scan", "ios": "https://dc.lft.to/lastmile_qr_scan"}, "lon": -77.02302166666666, "fusion_lat": 0.0}, {"name": "27aeb3a872061c0c35314e739bf4a58a", "fusion_lon": 0.0, "lat": 38.90381566666667, "is_reserved": 0, "type": "electric_scooter", "bike_id": "27aeb3a872061c0c35314e739bf4a58a", "is_disabled": 0, "rental_uris": {"android": "https://dc.lft.to/lastmile_qr_scan", "ios": "https://dc.lft.to/lastmile_qr_scan"}, "lon": -77.033374, "fusion_lat": 0.0}, {"name": "5e6902a7e682569e87bee983bdc9972b", "fusion_lon": 0.0, "lat": 38.89952316666667, "is_reserved": 0, "type": "electric_scooter", "bike_id": "5e6902a7e682569e87bee983bdc9972b", "is_disabled": 0, "rental_uris": {"android": "https://dc.lft.to/lastmile_qr_scan", "ios": "https://dc.lft.to/lastmile_qr_scan"}, "lon": -77.02206733333334, "fusion_lat": 0.0}, {"name": "10b3b919959c636562e745390cdc1fda", "fusion_lon": 0.0, "lat": 38.923160333333335, "is_reserved": 0, "type": "electric_scooter", "bike_id": "10b3b919959c636562e745390cdc1fda", "is_disabled": 0, "rental_uris": {"android": "https://dc.lft.to/lastmile_qr_scan", "ios": "https://dc.lft.to/lastmile_qr_scan"}, "lon": -77.043465, "fusion_lat": 0.0}, {"name": "d2f0333987d1e6ccee2bc25789f441ff", "fusion_lon": 0.0, "lat": 38.9573475, "is_reserved": 0, "type": "electric_scooter", "bike_id": "d2f0333987d1e6ccee2bc25789f441ff", "is_disabled": 0, "rental_uris": {"android": "https://dc.lft.to/lastmile_qr_scan", "ios": "https://dc.lft.to/lastmile_qr_scan"}, "lon": -77.024053, "fusion_lat": 0.0}, {"name": "f62c823db4bd160598a5881e8bafb5b8", "fusion_lon": 0.0, "lat": 38.921865333333336, "is_reserved": 0, "type": "electric_scooter", "bike_id": "f62c823db4bd160598a5881e8bafb5b8", "is_disabled": 0, "rental_uris": {"android": "https://dc.lft.to/lastmile_qr_scan", "ios": "https://dc.lft.to/lastmile_qr_scan"}, "lon": -77.01911833333334, "fusion_lat": 0.0}, {"name": "9ebb2d0622aacbaf076a647f763c8cf9", "fusion_lon": 0.0, "lat": 38.90060116666667, "is_reserved": 0, "type": "electric_scooter", "bike_id": "9ebb2d0622aacbaf076a647f763c8cf9", "is_disabled": 0, "rental_uris": {"android": "https://dc.lft.to/lastmile_qr_scan", "ios": "https://dc.lft.to/lastmile_qr_scan"}, "lon": -76.987119, "fusion_lat": 0.0}, {"name": "df9c80a0c9ddd46edca2f16640ca4e39", "fusion_lon": 0.0, "lat": 38.920906333333335, "is_reserved": 0, "type": "electric_scooter", "bike_id": "df9c80a0c9ddd46edca2f16640ca4e39", "is_disabled": 0, "rental_uris": {"android": "https://dc.lft.to/lastmile_qr_scan", "ios": "https://dc.lft.to/lastmile_qr_scan"}, "lon": -77.0229555, "fusion_lat": 0.0}, {"name": "50a73a47b7a639ca1bc1443d911139e1", "fusion_lon": 0.0, "lat": 38.904117666666664, "is_reserved": 0, "type": "electric_scooter", "bike_id": "50a73a47b7a639ca1bc1443d911139e1", "is_disabled": 0, "rental_uris": {"android": "https://dc.lft.to/lastmile_qr_scan", "ios": "https://dc.lft.to/lastmile_qr_scan"}, "lon": -76.973296, "fusion_lat": 0.0}, {"name": "f94b847548bdf2da8da218d6436121d0", "fusion_lon": 0.0, "lat": 38.904474, "is_reserved": 0, "type": "electric_scooter", "bike_id": "f94b847548bdf2da8da218d6436121d0", "is_disabled": 0, "rental_uris": {"android": "https://dc.lft.to/lastmile_qr_scan", "ios": "https://dc.lft.to/lastmile_qr_scan"}, "lon": -77.06290116666666, "fusion_lat": 0.0}, {"name": "332c921db18ba99dd5ef47b05d090eb1", "fusion_lon": 0.0, "lat": 38.89222183333333, "is_reserved": 0, "type": "electric_scooter", "bike_id": "332c921db18ba99dd5ef47b05d090eb1", "is_disabled": 0, "rental_uris": {"android": "https://dc.lft.to/lastmile_qr_scan", "ios": "https://dc.lft.to/lastmile_qr_scan"}, "lon": -77.04866916666667, "fusion_lat": 0.0}, {"name": "4dbc1a8caf1373664fb1eed26a3cf2a8", "fusion_lon": 0.0, "lat": 38.898437, "is_reserved": 0, "type": "electric_scooter", "bike_id": "4dbc1a8caf1373664fb1eed26a3cf2a8", "is_disabled": 0, "rental_uris": {"android": "https://dc.lft.to/lastmile_qr_scan", "ios": "https://dc.lft.to/lastmile_qr_scan"}, "lon": -77.02270983333334, "fusion_lat": 0.0}, {"name": "f84caa63366667ff0dd86908428d7bb6", "fusion_lon": 0.0, "lat": 38.90866366666667, "is_reserved": 0, "type": "electric_scooter", "bike_id": "f84caa63366667ff0dd86908428d7bb6", "is_disabled": 0, "rental_uris": {"android": "https://dc.lft.to/lastmile_qr_scan", "ios": "https://dc.lft.to/lastmile_qr_scan"}, "lon": -77.08596583333333, "fusion_lat": 0.0}, {"name": "847ee76ec9726bc1b3442544e8d46f91", "fusion_lon": 0.0, "lat": 38.951542833333335, "is_reserved": 0, "type": "electric_scooter", "bike_id": "847ee76ec9726bc1b3442544e8d46f91", "is_disabled": 0, "rental_uris": {"android": "https://dc.lft.to/lastmile_qr_scan", "ios": "https://dc.lft.to/lastmile_qr_scan"}, "lon": -77.01867733333333, "fusion_lat": 0.0}, {"name": "b46df11f0dd6f4c2ee44461a0d2ff2df", "fusion_lon": 0.0, "lat": 38.93488116666666, "is_reserved": 0, "type": "electric_bike", "bike_id": "b46df11f0dd6f4c2ee44461a0d2ff2df", "is_disabled": 0, "rental_uris": {"android": "https://dc.lft.to/lastmile_qr_scan", "ios": "https://dc.lft.to/lastmile_qr_scan"}, "lon": -77.03018833333333, "fusion_lat": 0.0}, {"name": "28c1139d34a0d8f115ec3e98300a873d", "fusion_lon": 0.0, "lat": 38.956889333333336, "is_reserved": 0, "type": "electric_bike", "bike_id": "28c1139d34a0d8f115ec3e98300a873d", "is_disabled": 0, "rental_uris": {"android": "https://dc.lft.to/lastmile_qr_scan", "ios": "https://dc.lft.to/lastmile_qr_scan"}, "lon": -77.02225366666667, "fusion_lat": 0.0}, {"name": "d25d7fae765aaf63c6177a983733d40e", "fusion_lon": 0.0, "lat": 38.906345, "is_reserved": 0, "type": "electric_scooter", "bike_id": "d25d7fae765aaf63c6177a983733d40e", "is_disabled": 0, "rental_uris": {"android": "https://dc.lft.to/lastmile_qr_scan", "ios": "https://dc.lft.to/lastmile_qr_scan"}, "lon": -77.02390633333333, "fusion_lat": 0.0}, {"name": "52f941ee0765a99eb2137f6bc507b05e", "fusion_lon": 0.0, "lat": 39.014782833333335, "is_reserved": 0, "type": "electric_bike", "bike_id": "52f941ee0765a99eb2137f6bc507b05e", "is_disabled": 0, "rental_uris": {"android": "https://dc.lft.to/lastmile_qr_scan", "ios": "https://dc.lft.to/lastmile_qr_scan"}, "lon": -77.05497716666666, "fusion_lat": 0.0}, {"name": "5ad6a4e28bd4a8dd5b721c31ddddc276", "fusion_lon": 0.0, "lat": 38.903923666666664, "is_reserved": 0, "type": "electric_scooter", "bike_id": "5ad6a4e28bd4a8dd5b721c31ddddc276", "is_disabled": 0, "rental_uris": {"android": "https://dc.lft.to/lastmile_qr_scan", "ios": "https://dc.lft.to/lastmile_qr_scan"}, "lon": -77.04077666666667, "fusion_lat": 0.0}, {"name": "e42ce0c72558422bf31cfc43caa7de15", "fusion_lon": 0.0, "lat": 38.92040816666667, "is_reserved": 0, "type": "electric_scooter", "bike_id": "e42ce0c72558422bf31cfc43caa7de15", "is_disabled": 0, "rental_uris": {"android": "https://dc.lft.to/lastmile_qr_scan", "ios": "https://dc.lft.to/lastmile_qr_scan"}, "lon": -77.024135, "fusion_lat": 0.0}, {"name": "a4a2248ec603f1b7bfe848cd7ed28532", "fusion_lon": 0.0, "lat": 38.9388625, "is_reserved": 0, "type": "electric_scooter", "bike_id": "a4a2248ec603f1b7bfe848cd7ed28532", "is_disabled": 0, "rental_uris": {"android": "https://dc.lft.to/lastmile_qr_scan", "ios": "https://dc.lft.to/lastmile_qr_scan"}, "lon": -77.024852, "fusion_lat": 0.0}, {"name": "515e9e7e2d1c78c46aa8123096e189c5", "fusion_lon": 0.0, "lat": 38.918336, "is_reserved": 0, "type": "electric_scooter", "bike_id": "515e9e7e2d1c78c46aa8123096e189c5", "is_disabled": 0, "rental_uris": {"android": "https://dc.lft.to/lastmile_qr_scan", "ios": "https://dc.lft.to/lastmile_qr_scan"}, "lon": -77.02324233333333, "fusion_lat": 0.0}, {"name": "259c725b1e74fcadecb9639c009c3798", "fusion_lon": 0.0, "lat": 38.928758, "is_reserved": 0, "type": "electric_scooter", "bike_id": "259c725b1e74fcadecb9639c009c3798", "is_disabled": 0, "rental_uris": {"android": "https://dc.lft.to/lastmile_qr_scan", "ios": "https://dc.lft.to/lastmile_qr_scan"}, "lon": -77.02647783333333, "fusion_lat": 0.0}, {"name": "616b4353afd7490d77771f77eb9dc3a3", "fusion_lon": 0.0, "lat": 38.92355366666666, "is_reserved": 0, "type": "electric_scooter", "bike_id": "616b4353afd7490d77771f77eb9dc3a3", "is_disabled": 0, "rental_uris": {"android": "https://dc.lft.to/lastmile_qr_scan", "ios": "https://dc.lft.to/lastmile_qr_scan"}, "lon": -77.03224216666666, "fusion_lat": 0.0}, {"name": "666deca475f49362d1d65d894a43026d", "fusion_lon": 0.0, "lat": 38.90003983333333, "is_reserved": 0, "type": "electric_scooter", "bike_id": "666deca475f49362d1d65d894a43026d", "is_disabled": 0, "rental_uris": {"android": "https://dc.lft.to/lastmile_qr_scan", "ios": "https://dc.lft.to/lastmile_qr_scan"}, "lon": -76.99297433333334, "fusion_lat": 0.0}, {"name": "f757215d754cdf67d84a58badf013fbe", "fusion_lon": 0.0, "lat": 38.922317666666665, "is_reserved": 0, "type": "electric_scooter", "bike_id": "f757215d754cdf67d84a58badf013fbe", "is_disabled": 0, "rental_uris": {"android": "https://dc.lft.to/lastmile_qr_scan", "ios": "https://dc.lft.to/lastmile_qr_scan"}, "lon": -77.03896116666667, "fusion_lat": 0.0}, {"name": "41d3d352ad31c2d54a5c65ab47f577bb", "fusion_lon": 0.0, "lat": 38.91930983333334, "is_reserved": 0, "type": "electric_scooter", "bike_id": "41d3d352ad31c2d54a5c65ab47f577bb", "is_disabled": 0, "rental_uris": {"android": "https://dc.lft.to/lastmile_qr_scan", "ios": "https://dc.lft.to/lastmile_qr_scan"}, "lon": -77.0342395, "fusion_lat": 0.0}, {"name": "5aa0137e256355ba34231f14db4cbb23", "fusion_lon": 0.0, "lat": 38.91057716666667, "is_reserved": 0, "type": "electric_scooter", "bike_id": "5aa0137e256355ba34231f14db4cbb23", "is_disabled": 0, "rental_uris": {"android": "https://dc.lft.to/lastmile_qr_scan", "ios": "https://dc.lft.to/lastmile_qr_scan"}, "lon": -77.04492716666667, "fusion_lat": 0.0}, {"name": "fbeecc1804876c36f2bcea5f9a19b636", "fusion_lon": 0.0, "lat": 38.93476283333333, "is_reserved": 0, "type": "electric_scooter", "bike_id": "fbeecc1804876c36f2bcea5f9a19b636", "is_disabled": 0, "rental_uris": {"android": "https://dc.lft.to/lastmile_qr_scan", "ios": "https://dc.lft.to/lastmile_qr_scan"}, "lon": -77.03578666666667, "fusion_lat": 0.0}, {"name": "ed322fa3c9a265b4b9ccd9437157b301", "fusion_lon": 0.0, "lat": 38.9187055, "is_reserved": 0, "type": "electric_scooter", "bike_id": "ed322fa3c9a265b4b9ccd9437157b301", "is_disabled": 0, "rental_uris": {"android": "https://dc.lft.to/lastmile_qr_scan", "ios": "https://dc.lft.to/lastmile_qr_scan"}, "lon": -77.03503183333333, "fusion_lat": 0.0}, {"name": "12313546fecf67f141ec6879d4773d1c", "fusion_lon": 0.0, "lat": 38.92393716666667, "is_reserved": 0, "type": "electric_scooter", "bike_id": "12313546fecf67f141ec6879d4773d1c", "is_disabled": 0, "rental_uris": {"android": "https://dc.lft.to/lastmile_qr_scan", "ios": "https://dc.lft.to/lastmile_qr_scan"}, "lon": -77.04058166666667, "fusion_lat": 0.0}, {"name": "73402eab7fdb701b970f5ada4f351290", "fusion_lon": 0.0, "lat": 38.8075425, "is_reserved": 0, "type": "electric_bike", "bike_id": "73402eab7fdb701b970f5ada4f351290", "is_disabled": 0, "rental_uris": {"android": "https://dc.lft.to/lastmile_qr_scan", "ios": "https://dc.lft.to/lastmile_qr_scan"}, "lon": -77.09454616666666, "fusion_lat": 0.0}, {"name": "8d111d6e6a8a03b731cbc2f5a3f7bcd6", "fusion_lon": 0.0, "lat": 38.911185333333336, "is_reserved": 0, "type": "electric_scooter", "bike_id": "8d111d6e6a8a03b731cbc2f5a3f7bcd6", "is_disabled": 0, "rental_uris": {"android": "https://dc.lft.to/lastmile_qr_scan", "ios": "https://dc.lft.to/lastmile_qr_scan"}, "lon": -77.02134483333333, "fusion_lat": 0.0}, {"name": "e47902c5919ec900cfe2f6324ebc59bb", "fusion_lon": 0.0, "lat": 38.896381833333336, "is_reserved": 0, "type": "electric_scooter", "bike_id": "e47902c5919ec900cfe2f6324ebc59bb", "is_disabled": 0, "rental_uris": {"android": "https://dc.lft.to/lastmile_qr_scan", "ios": "https://dc.lft.to/lastmile_qr_scan"}, "lon": -77.02129033333334, "fusion_lat": 0.0}, {"name": "89f1a70d602100ace3f63872506e48de", "fusion_lon": 0.0, "lat": 38.927739333333335, "is_reserved": 0, "type": "electric_scooter", "bike_id": "89f1a70d602100ace3f63872506e48de", "is_disabled": 0, "rental_uris": {"android": "https://dc.lft.to/lastmile_qr_scan", "ios": "https://dc.lft.to/lastmile_qr_scan"}, "lon": -77.0261915, "fusion_lat": 0.0}, {"name": "165db1299b343364ef72b8602c4884b2", "fusion_lon": 0.0, "lat": 38.91268016666667, "is_reserved": 0, "type": "electric_scooter", "bike_id": "165db1299b343364ef72b8602c4884b2", "is_disabled": 0, "rental_uris": {"android": "https://dc.lft.to/lastmile_qr_scan", "ios": "https://dc.lft.to/lastmile_qr_scan"}, "lon": -77.022275, "fusion_lat": 0.0}, {"name": "8f05dd081f041f13bbe44e875fa4652a", "fusion_lon": 0.0, "lat": 38.9077805, "is_reserved": 0, "type": "electric_scooter", "bike_id": "8f05dd081f041f13bbe44e875fa4652a", "is_disabled": 0, "rental_uris": {"android": "https://dc.lft.to/lastmile_qr_scan", "ios": "https://dc.lft.to/lastmile_qr_scan"}, "lon": -77.03829833333333, "fusion_lat": 0.0}, {"name": "089916ef8359b073b9d7b9b9a4c684cc", "fusion_lon": 0.0, "lat": 38.9014455, "is_reserved": 0, "type": "electric_scooter", "bike_id": "089916ef8359b073b9d7b9b9a4c684cc", "is_disabled": 0, "rental_uris": {"android": "https://dc.lft.to/lastmile_qr_scan", "ios": "https://dc.lft.to/lastmile_qr_scan"}, "lon": -77.04414533333333, "fusion_lat": 0.0}, {"name": "19b76252ae1e7a61a99ba3c3e50d4805", "fusion_lon": 0.0, "lat": 38.927687666666664, "is_reserved": 0, "type": "electric_scooter", "bike_id": "19b76252ae1e7a61a99ba3c3e50d4805", "is_disabled": 0, "rental_uris": {"android": "https://dc.lft.to/lastmile_qr_scan", "ios": "https://dc.lft.to/lastmile_qr_scan"}, "lon": -77.0270895, "fusion_lat": 0.0}, {"name": "b248dacd29911c2149f02c0157daafdc", "fusion_lon": 0.0, "lat": 38.900215833333334, "is_reserved": 0, "type": "electric_scooter", "bike_id": "b248dacd29911c2149f02c0157daafdc", "is_disabled": 0, "rental_uris": {"android": "https://dc.lft.to/lastmile_qr_scan", "ios": "https://dc.lft.to/lastmile_qr_scan"}, "lon": -77.00686933333333, "fusion_lat": 0.0}, {"name": "48f7b3c9ec914a1a8956b7491bc5ba55", "fusion_lon": 0.0, "lat": 38.86510333333333, "is_reserved": 0, "type": "electric_bike", "bike_id": "48f7b3c9ec914a1a8956b7491bc5ba55", "is_disabled": 0, "rental_uris": {"android": "https://dc.lft.to/lastmile_qr_scan", "ios": "https://dc.lft.to/lastmile_qr_scan"}, "lon": -76.97334133333334, "fusion_lat": 0.0}, {"name": "75cd10e52594db75bf3009a157cac78a", "fusion_lon": 0.0, "lat": 38.914152666666666, "is_reserved": 0, "type": "electric_scooter", "bike_id": "75cd10e52594db75bf3009a157cac78a", "is_disabled": 0, "rental_uris": {"android": "https://dc.lft.to/lastmile_qr_scan", "ios": "https://dc.lft.to/lastmile_qr_scan"}, "lon": -77.0307205, "fusion_lat": 0.0}, {"name": "89b2575346777564db16ab77c8d6d92f", "fusion_lon": 0.0, "lat": 38.9241545, "is_reserved": 0, "type": "electric_scooter", "bike_id": "89b2575346777564db16ab77c8d6d92f", "is_disabled": 0, "rental_uris": {"android": "https://dc.lft.to/lastmile_qr_scan", "ios": "https://dc.lft.to/lastmile_qr_scan"}, "lon": -77.05067733333334, "fusion_lat": 0.0}, {"name": "6c6bb0db9717eb8a8613deb8de9a8a51", "fusion_lon": 0.0, "lat": 38.91353316666667, "is_reserved": 0, "type": "electric_bike", "bike_id": "6c6bb0db9717eb8a8613deb8de9a8a51", "is_disabled": 0, "rental_uris": {"android": "https://dc.lft.to/lastmile_qr_scan", "ios": "https://dc.lft.to/lastmile_qr_scan"}, "lon": -77.02819566666666, "fusion_lat": 0.0}, {"name": "4eddfed0bab0293f583ca63fe2a47229", "fusion_lon": 0.0, "lat": 38.91836516666667, "is_reserved": 0, "type": "electric_scooter", "bike_id": "4eddfed0bab0293f583ca63fe2a47229", "is_disabled": 0, "rental_uris": {"android": "https://dc.lft.to/lastmile_qr_scan", "ios": "https://dc.lft.to/lastmile_qr_scan"}, "lon": -77.03188733333333, "fusion_lat": 0.0}, {"name": "b68216fafdc0bd71f7c2e258b0bdc1c5", "fusion_lon": 0.0, "lat": 38.876012833333334, "is_reserved": 0, "type": "electric_scooter", "bike_id": "b68216fafdc0bd71f7c2e258b0bdc1c5", "is_disabled": 0, "rental_uris": {"android": "https://dc.lft.to/lastmile_qr_scan", "ios": "https://dc.lft.to/lastmile_qr_scan"}, "lon": -77.000857, "fusion_lat": 0.0}, {"name": "c99b75772588b7b8223f9ddb11d17543", "fusion_lon": 0.0, "lat": 38.911033333333336, "is_reserved": 0, "type": "electric_scooter", "bike_id": "c99b75772588b7b8223f9ddb11d17543", "is_disabled": 0, "rental_uris": {"android": "https://dc.lft.to/lastmile_qr_scan", "ios": "https://dc.lft.to/lastmile_qr_scan"}, "lon": -77.042038, "fusion_lat": 0.0}, {"name": "f18ddaf6dd5400ffb071c089384d405d", "fusion_lon": 0.0, "lat": 38.854387833333334, "is_reserved": 0, "type": "electric_bike", "bike_id": "f18ddaf6dd5400ffb071c089384d405d", "is_disabled": 0, "rental_uris": {"android": "https://dc.lft.to/lastmile_qr_scan", "ios": "https://dc.lft.to/lastmile_qr_scan"}, "lon": -77.08308166666667, "fusion_lat": 0.0}, {"name": "3e7c9b59fbbbb6dfdca03e81efc8463d", "fusion_lon": 0.0, "lat": 38.92868683333333, "is_reserved": 0, "type": "electric_scooter", "bike_id": "3e7c9b59fbbbb6dfdca03e81efc8463d", "is_disabled": 0, "rental_uris": {"android": "https://dc.lft.to/lastmile_qr_scan", "ios": "https://dc.lft.to/lastmile_qr_scan"}, "lon": -77.02172933333334, "fusion_lat": 0.0}, {"name": "8466dcab27d21ff5105ce067466abccd", "fusion_lon": 0.0, "lat": 39.02436766666667, "is_reserved": 0, "type": "electric_bike", "bike_id": "8466dcab27d21ff5105ce067466abccd", "is_disabled": 0, "rental_uris": {"android": "https://dc.lft.to/lastmile_qr_scan", "ios": "https://dc.lft.to/lastmile_qr_scan"}, "lon": -77.13101733333333, "fusion_lat": 0.0}, {"name": "d7d1abeaaf96728de136be80f6ba17f2", "fusion_lon": 0.0, "lat": 38.90266233333333, "is_reserved": 0, "type": "electric_scooter", "bike_id": "d7d1abeaaf96728de136be80f6ba17f2", "is_disabled": 0, "rental_uris": {"android": "https://dc.lft.to/lastmile_qr_scan", "ios": "https://dc.lft.to/lastmile_qr_scan"}, "lon": -77.01773966666667, "fusion_lat": 0.0}, {"name": "353be12d42febb7704445cbedb1dc18f", "fusion_lon": 0.0, "lat": 38.92003783333333, "is_reserved": 0, "type": "electric_scooter", "bike_id": "353be12d42febb7704445cbedb1dc18f", "is_disabled": 0, "rental_uris": {"android": "https://dc.lft.to/lastmile_qr_scan", "ios": "https://dc.lft.to/lastmile_qr_scan"}, "lon": -77.03216433333333, "fusion_lat": 0.0}, {"name": "b60e78cccd2264d391b4f0dd0a1a1f54", "fusion_lon": 0.0, "lat": 38.86441133333334, "is_reserved": 0, "type": "electric_scooter", "bike_id": "b60e78cccd2264d391b4f0dd0a1a1f54", "is_disabled": 0, "rental_uris": {"android": "https://dc.lft.to/lastmile_qr_scan", "ios": "https://dc.lft.to/lastmile_qr_scan"}, "lon": -76.97442983333333, "fusion_lat": 0.0}, {"name": "53f93b7254add493efcf88de5cd49d33", "fusion_lon": 0.0, "lat": 38.935232666666664, "is_reserved": 0, "type": "electric_scooter", "bike_id": "53f93b7254add493efcf88de5cd49d33", "is_disabled": 0, "rental_uris": {"android": "https://dc.lft.to/lastmile_qr_scan", "ios": "https://dc.lft.to/lastmile_qr_scan"}, "lon": -77.03265366666666, "fusion_lat": 0.0}, {"name": "ae1d979af421481ec670630682fddf0c", "fusion_lon": 0.0, "lat": 38.922334666666664, "is_reserved": 0, "type": "electric_scooter", "bike_id": "ae1d979af421481ec670630682fddf0c", "is_disabled": 0, "rental_uris": {"android": "https://dc.lft.to/lastmile_qr_scan", "ios": "https://dc.lft.to/lastmile_qr_scan"}, "lon": -77.023355, "fusion_lat": 0.0}, {"name": "ee5c80ab30d39cd2005f904755a4f106", "fusion_lon": 0.0, "lat": 38.947838833333336, "is_reserved": 0, "type": "electric_bike", "bike_id": "ee5c80ab30d39cd2005f904755a4f106", "is_disabled": 0, "rental_uris": {"android": "https://dc.lft.to/lastmile_qr_scan", "ios": "https://dc.lft.to/lastmile_qr_scan"}, "lon": -76.97210666666666, "fusion_lat": 0.0}, {"name": "ec00dcc74dab9acde73d0fa2f6db6d86", "fusion_lon": 0.0, "lat": 38.90551766666667, "is_reserved": 0, "type": "electric_scooter", "bike_id": "ec00dcc74dab9acde73d0fa2f6db6d86", "is_disabled": 0, "rental_uris": {"android": "https://dc.lft.to/lastmile_qr_scan", "ios": "https://dc.lft.to/lastmile_qr_scan"}, "lon": -77.04657383333333, "fusion_lat": 0.0}, {"name": "9d4cf2eac37c7229f78a9e406a1d297a", "fusion_lon": 0.0, "lat": 38.914249833333336, "is_reserved": 0, "type": "electric_scooter", "bike_id": "9d4cf2eac37c7229f78a9e406a1d297a", "is_disabled": 0, "rental_uris": {"android": "https://dc.lft.to/lastmile_qr_scan", "ios": "https://dc.lft.to/lastmile_qr_scan"}, "lon": -77.04495783333333, "fusion_lat": 0.0}, {"name": "da31ba9c41c98fb4e9986161faac0b99", "fusion_lon": 0.0, "lat": 38.917094666666664, "is_reserved": 0, "type": "electric_scooter", "bike_id": "da31ba9c41c98fb4e9986161faac0b99", "is_disabled": 0, "rental_uris": {"android": "https://dc.lft.to/lastmile_qr_scan", "ios": "https://dc.lft.to/lastmile_qr_scan"}, "lon": -77.03478516666667, "fusion_lat": 0.0}, {"name": "3606f0172ab18e2859816519ddc1205b", "fusion_lon": 0.0, "lat": 38.91992966666667, "is_reserved": 0, "type": "electric_scooter", "bike_id": "3606f0172ab18e2859816519ddc1205b", "is_disabled": 0, "rental_uris": {"android": "https://dc.lft.to/lastmile_qr_scan", "ios": "https://dc.lft.to/lastmile_qr_scan"}, "lon": -77.03190633333334, "fusion_lat": 0.0}, {"name": "e3df239b7555ae71037bcda01a3792e0", "fusion_lon": 0.0, "lat": 38.905754, "is_reserved": 0, "type": "electric_scooter", "bike_id": "e3df239b7555ae71037bcda01a3792e0", "is_disabled": 0, "rental_uris": {"android": "https://dc.lft.to/lastmile_qr_scan", "ios": "https://dc.lft.to/lastmile_qr_scan"}, "lon": -77.044846, "fusion_lat": 0.0}, {"name": "11d7c9fc3a2fd7426d608e5f0ef8231a", "fusion_lon": 0.0, "lat": 38.87007033333333, "is_reserved": 0, "type": "electric_bike", "bike_id": "11d7c9fc3a2fd7426d608e5f0ef8231a", "is_disabled": 0, "rental_uris": {"android": "https://dc.lft.to/lastmile_qr_scan", "ios": "https://dc.lft.to/lastmile_qr_scan"}, "lon": -77.22986583333333, "fusion_lat": 0.0}, {"name": "16f6b46990bd19325c9648c9b3ffebe1", "fusion_lon": 0.0, "lat": 38.88763683333333, "is_reserved": 0, "type": "electric_scooter", "bike_id": "16f6b46990bd19325c9648c9b3ffebe1", "is_disabled": 0, "rental_uris": {"android": "https://dc.lft.to/lastmile_qr_scan", "ios": "https://dc.lft.to/lastmile_qr_scan"}, "lon": -76.95596483333334, "fusion_lat": 0.0}, {"name": "0370003575238faedcb61a405ead2d34", "fusion_lon": 0.0, "lat": 38.92315583333333, "is_reserved": 0, "type": "electric_scooter", "bike_id": "0370003575238faedcb61a405ead2d34", "is_disabled": 0, "rental_uris": {"android": "https://dc.lft.to/lastmile_qr_scan", "ios": "https://dc.lft.to/lastmile_qr_scan"}, "lon": -77.02976366666667, "fusion_lat": 0.0}, {"name": "f5d105f67314e971fe351f72914eacc2", "fusion_lon": 0.0, "lat": 38.9324195, "is_reserved": 0, "type": "electric_scooter", "bike_id": "f5d105f67314e971fe351f72914eacc2", "is_disabled": 0, "rental_uris": {"android": "https://dc.lft.to/lastmile_qr_scan", "ios": "https://dc.lft.to/lastmile_qr_scan"}, "lon": -77.03853283333333, "fusion_lat": 0.0}, {"name": "4da1dc254d35e021fee66b96c6be1111", "fusion_lon": 0.0, "lat": 38.90488366666666, "is_reserved": 0, "type": "electric_scooter", "bike_id": "4da1dc254d35e021fee66b96c6be1111", "is_disabled": 0, "rental_uris": {"android": "https://dc.lft.to/lastmile_qr_scan", "ios": "https://dc.lft.to/lastmile_qr_scan"}, "lon": -77.0601, "fusion_lat": 0.0}, {"name": "e9e98cdd2e5a34ecfa9c6e510ecabf11", "fusion_lon": 0.0, "lat": 38.9067255, "is_reserved": 0, "type": "electric_scooter", "bike_id": "e9e98cdd2e5a34ecfa9c6e510ecabf11", "is_disabled": 0, "rental_uris": {"android": "https://dc.lft.to/lastmile_qr_scan", "ios": "https://dc.lft.to/lastmile_qr_scan"}, "lon": -77.02971583333333, "fusion_lat": 0.0}, {"name": "c8393258274561500db1e6d613c2c3f7", "fusion_lon": 0.0, "lat": 38.879182166666666, "is_reserved": 0, "type": "electric_scooter", "bike_id": "c8393258274561500db1e6d613c2c3f7", "is_disabled": 0, "rental_uris": {"android": "https://dc.lft.to/lastmile_qr_scan", "ios": "https://dc.lft.to/lastmile_qr_scan"}, "lon": -76.999803, "fusion_lat": 0.0}, {"name": "dc3416a341377ec5c24e0b3bd77b4c7a", "fusion_lon": 0.0, "lat": 38.9251625, "is_reserved": 0, "type": "electric_scooter", "bike_id": "dc3416a341377ec5c24e0b3bd77b4c7a", "is_disabled": 0, "rental_uris": {"android": "https://dc.lft.to/lastmile_qr_scan", "ios": "https://dc.lft.to/lastmile_qr_scan"}, "lon": -77.02340133333334, "fusion_lat": 0.0}, {"name": "f5958d7d926c54e53dc48b715fe67ddd", "fusion_lon": 0.0, "lat": 38.893507, "is_reserved": 0, "type": "electric_scooter", "bike_id": "f5958d7d926c54e53dc48b715fe67ddd", "is_disabled": 0, "rental_uris": {"android": "https://dc.lft.to/lastmile_qr_scan", "ios": "https://dc.lft.to/lastmile_qr_scan"}, "lon": -77.02816133333333, "fusion_lat": 0.0}, {"name": "d5f30ed8001b5b098f3a9552df3f26b9", "fusion_lon": 0.0, "lat": 38.832357, "is_reserved": 0, "type": "electric_bike", "bike_id": "d5f30ed8001b5b098f3a9552df3f26b9", "is_disabled": 0, "rental_uris": {"android": "https://dc.lft.to/lastmile_qr_scan", "ios": "https://dc.lft.to/lastmile_qr_scan"}, "lon": -76.94614766666666, "fusion_lat": 0.0}, {"name": "a59c6c83faa7436f7c746e2ca78f902c", "fusion_lon": 0.0, "lat": 38.90642283333333, "is_reserved": 0, "type": "electric_scooter", "bike_id": "a59c6c83faa7436f7c746e2ca78f902c", "is_disabled": 0, "rental_uris": {"android": "https://dc.lft.to/lastmile_qr_scan", "ios": "https://dc.lft.to/lastmile_qr_scan"}, "lon": -77.038516, "fusion_lat": 0.0}, {"name": "13d8bc44b2ea4635bd3d1394368c5019", "fusion_lon": 0.0, "lat": 39.050511, "is_reserved": 0, "type": "electric_bike", "bike_id": "13d8bc44b2ea4635bd3d1394368c5019", "is_disabled": 0, "rental_uris": {"android": "https://dc.lft.to/lastmile_qr_scan", "ios": "https://dc.lft.to/lastmile_qr_scan"}, "lon": -77.0514405, "fusion_lat": 0.0}, {"name": "bd734163891b0c6a1241233bdc34ed87", "fusion_lon": 0.0, "lat": 38.927334, "is_reserved": 0, "type": "electric_scooter", "bike_id": "bd734163891b0c6a1241233bdc34ed87", "is_disabled": 0, "rental_uris": {"android": "https://dc.lft.to/lastmile_qr_scan", "ios": "https://dc.lft.to/lastmile_qr_scan"}, "lon": -77.05257933333333, "fusion_lat": 0.0}, {"name": "8857be8f617a084fd3c67c4657660a88", "fusion_lon": 0.0, "lat": 38.89808, "is_reserved": 0, "type": "electric_bike", "bike_id": "8857be8f617a084fd3c67c4657660a88", "is_disabled": 0, "rental_uris": {"android": "https://dc.lft.to/lastmile_qr_scan", "ios": "https://dc.lft.to/lastmile_qr_scan"}, "lon": -76.99063566666666, "fusion_lat": 0.0}, {"name": "4a903affdd72a6ec75b0b640e8d41b2d", "fusion_lon": 0.0, "lat": 38.874521333333334, "is_reserved": 0, "type": "electric_scooter", "bike_id": "4a903affdd72a6ec75b0b640e8d41b2d", "is_disabled": 0, "rental_uris": {"android": "https://dc.lft.to/lastmile_qr_scan", "ios": "https://dc.lft.to/lastmile_qr_scan"}, "lon": -77.01875066666666, "fusion_lat": 0.0}, {"name": "b2f5337e99c5bbf54450d98b46c36292", "fusion_lon": 0.0, "lat": 38.93240816666667, "is_reserved": 0, "type": "electric_scooter", "bike_id": "b2f5337e99c5bbf54450d98b46c36292", "is_disabled": 0, "rental_uris": {"android": "https://dc.lft.to/lastmile_qr_scan", "ios": "https://dc.lft.to/lastmile_qr_scan"}, "lon": -77.02046333333334, "fusion_lat": 0.0}, {"name": "c98835b53db3079472961efd81ae7080", "fusion_lon": 0.0, "lat": 38.93022716666667, "is_reserved": 0, "type": "electric_scooter", "bike_id": "c98835b53db3079472961efd81ae7080", "is_disabled": 0, "rental_uris": {"android": "https://dc.lft.to/lastmile_qr_scan", "ios": "https://dc.lft.to/lastmile_qr_scan"}, "lon": -77.06311383333333, "fusion_lat": 0.0}, {"name": "cd1e28213f732b8b4a03bc1911bf4398", "fusion_lon": 0.0, "lat": 38.90411233333333, "is_reserved": 0, "type": "electric_scooter", "bike_id": "cd1e28213f732b8b4a03bc1911bf4398", "is_disabled": 0, "rental_uris": {"android": "https://dc.lft.to/lastmile_qr_scan", "ios": "https://dc.lft.to/lastmile_qr_scan"}, "lon": -76.97331966666667, "fusion_lat": 0.0}, {"name": "7ac1bb7aec8eea3e2aaf4a40aeba7f2c", "fusion_lon": 0.0, "lat": 38.923193166666664, "is_reserved": 0, "type": "electric_scooter", "bike_id": "7ac1bb7aec8eea3e2aaf4a40aeba7f2c", "is_disabled": 0, "rental_uris": {"android": "https://dc.lft.to/lastmile_qr_scan", "ios": "https://dc.lft.to/lastmile_qr_scan"}, "lon": -77.04178166666667, "fusion_lat": 0.0}, {"name": "fda53591570e379dc310ec7246ad6993", "fusion_lon": 0.0, "lat": 38.923362166666664, "is_reserved": 0, "type": "electric_scooter", "bike_id": "fda53591570e379dc310ec7246ad6993", "is_disabled": 0, "rental_uris": {"android": "https://dc.lft.to/lastmile_qr_scan", "ios": "https://dc.lft.to/lastmile_qr_scan"}, "lon": -77.0508025, "fusion_lat": 0.0}, {"name": "650a6941b4ef564b385b53653f93c646", "fusion_lon": 0.0, "lat": 38.917831166666666, "is_reserved": 0, "type": "electric_scooter", "bike_id": "650a6941b4ef564b385b53653f93c646", "is_disabled": 0, "rental_uris": {"android": "https://dc.lft.to/lastmile_qr_scan", "ios": "https://dc.lft.to/lastmile_qr_scan"}, "lon": -77.01793483333333, "fusion_lat": 0.0}, {"name": "c28105af897f959cccd570d4cfdfbfb3", "fusion_lon": 0.0, "lat": 39.0136805, "is_reserved": 0, "type": "electric_bike", "bike_id": "c28105af897f959cccd570d4cfdfbfb3", "is_disabled": 0, "rental_uris": {"android": "https://dc.lft.to/lastmile_qr_scan", "ios": "https://dc.lft.to/lastmile_qr_scan"}, "lon": -76.92133466666667, "fusion_lat": 0.0}, {"name": "f6c8bb1556999ce1c54e8c8c7d104dbe", "fusion_lon": 0.0, "lat": 38.911104333333334, "is_reserved": 0, "type": "electric_scooter", "bike_id": "f6c8bb1556999ce1c54e8c8c7d104dbe", "is_disabled": 0, "rental_uris": {"android": "https://dc.lft.to/lastmile_qr_scan", "ios": "https://dc.lft.to/lastmile_qr_scan"}, "lon": -77.0480625, "fusion_lat": 0.0}, {"name": "8159f7bea26e98df38c7aa95d3c72bf2", "fusion_lon": 0.0, "lat": 38.94262783333333, "is_reserved": 0, "type": "electric_bike", "bike_id": "8159f7bea26e98df38c7aa95d3c72bf2", "is_disabled": 0, "rental_uris": {"android": "https://dc.lft.to/lastmile_qr_scan", "ios": "https://dc.lft.to/lastmile_qr_scan"}, "lon": -76.99069933333334, "fusion_lat": 0.0}, {"name": "03a2924e4ec992cd08aadd543c8ce598", "fusion_lon": 0.0, "lat": 38.8887355, "is_reserved": 0, "type": "electric_scooter", "bike_id": "03a2924e4ec992cd08aadd543c8ce598", "is_disabled": 0, "rental_uris": {"android": "https://dc.lft.to/lastmile_qr_scan", "ios": "https://dc.lft.to/lastmile_qr_scan"}, "lon": -76.99024416666667, "fusion_lat": 0.0}, {"name": "f6e25297c61a4d786e74f28cbbe5dfe3", "fusion_lon": 0.0, "lat": 38.917092833333335, "is_reserved": 0, "type": "electric_scooter", "bike_id": "f6e25297c61a4d786e74f28cbbe5dfe3", "is_disabled": 0, "rental_uris": {"android": "https://dc.lft.to/lastmile_qr_scan", "ios": "https://dc.lft.to/lastmile_qr_scan"}, "lon": -77.02330766666667, "fusion_lat": 0.0}, {"name": "780673d92da97f08871ca83c52af5eb2", "fusion_lon": 0.0, "lat": 38.919297, "is_reserved": 0, "type": "electric_bike", "bike_id": "780673d92da97f08871ca83c52af5eb2", "is_disabled": 0, "rental_uris": {"android": "https://dc.lft.to/lastmile_qr_scan", "ios": "https://dc.lft.to/lastmile_qr_scan"}, "lon": -77.07377766666667, "fusion_lat": 0.0}, {"name": "1e093e7d4b92b9bf28ff91e78d44587e", "fusion_lon": 0.0, "lat": 38.900785, "is_reserved": 0, "type": "electric_scooter", "bike_id": "1e093e7d4b92b9bf28ff91e78d44587e", "is_disabled": 0, "rental_uris": {"android": "https://dc.lft.to/lastmile_qr_scan", "ios": "https://dc.lft.to/lastmile_qr_scan"}, "lon": -77.04752416666666, "fusion_lat": 0.0}, {"name": "e2493cda7c1c23cf5108a9dc7bbf8c47", "fusion_lon": 0.0, "lat": 38.88268083333333, "is_reserved": 0, "type": "electric_scooter", "bike_id": "e2493cda7c1c23cf5108a9dc7bbf8c47", "is_disabled": 0, "rental_uris": {"android": "https://dc.lft.to/lastmile_qr_scan", "ios": "https://dc.lft.to/lastmile_qr_scan"}, "lon": -77.0084885, "fusion_lat": 0.0}, {"name": "489bd535db9d2a067ab0d5b0cc8cac51", "fusion_lon": 0.0, "lat": 38.919653333333336, "is_reserved": 0, "type": "electric_scooter", "bike_id": "489bd535db9d2a067ab0d5b0cc8cac51", "is_disabled": 0, "rental_uris": {"android": "https://dc.lft.to/lastmile_qr_scan", "ios": "https://dc.lft.to/lastmile_qr_scan"}, "lon": -77.03854733333333, "fusion_lat": 0.0}, {"name": "fe8e5fe260a5833b1d5a9f898b9d77da", "fusion_lon": 0.0, "lat": 38.930929666666664, "is_reserved": 0, "type": "electric_scooter", "bike_id": "fe8e5fe260a5833b1d5a9f898b9d77da", "is_disabled": 0, "rental_uris": {"android": "https://dc.lft.to/lastmile_qr_scan", "ios": "https://dc.lft.to/lastmile_qr_scan"}, "lon": -77.02538566666666, "fusion_lat": 0.0}, {"name": "1ad0f740ce96f10e57eee4d49346d769", "fusion_lon": 0.0, "lat": 38.93228033333333, "is_reserved": 0, "type": "electric_scooter", "bike_id": "1ad0f740ce96f10e57eee4d49346d769", "is_disabled": 0, "rental_uris": {"android": "https://dc.lft.to/lastmile_qr_scan", "ios": "https://dc.lft.to/lastmile_qr_scan"}, "lon": -77.03867316666667, "fusion_lat": 0.0}, {"name": "842193f89372c4b0eaa27d059e7852c8", "fusion_lon": 0.0, "lat": 38.8922055, "is_reserved": 0, "type": "electric_scooter", "bike_id": "842193f89372c4b0eaa27d059e7852c8", "is_disabled": 0, "rental_uris": {"android": "https://dc.lft.to/lastmile_qr_scan", "ios": "https://dc.lft.to/lastmile_qr_scan"}, "lon": -77.04800683333333, "fusion_lat": 0.0}, {"name": "c139d04643c9639af555f8e43f3cd30b", "fusion_lon": 0.0, "lat": 38.9160655, "is_reserved": 0, "type": "electric_scooter", "bike_id": "c139d04643c9639af555f8e43f3cd30b", "is_disabled": 0, "rental_uris": {"android": "https://dc.lft.to/lastmile_qr_scan", "ios": "https://dc.lft.to/lastmile_qr_scan"}, "lon": -77.0006795, "fusion_lat": 0.0}, {"name": "df92c52bceeff6794db2015714aa85ce", "fusion_lon": 0.0, "lat": 38.909664666666664, "is_reserved": 0, "type": "electric_scooter", "bike_id": "df92c52bceeff6794db2015714aa85ce", "is_disabled": 0, "rental_uris": {"android": "https://dc.lft.to/lastmile_qr_scan", "ios": "https://dc.lft.to/lastmile_qr_scan"}, "lon": -77.0093505, "fusion_lat": 0.0}, {"name": "1284afaae8f7f87a1118d52cdc9fb8f3", "fusion_lon": 0.0, "lat": 38.91182633333333, "is_reserved": 0, "type": "electric_scooter", "bike_id": "1284afaae8f7f87a1118d52cdc9fb8f3", "is_disabled": 0, "rental_uris": {"android": "https://dc.lft.to/lastmile_qr_scan", "ios": "https://dc.lft.to/lastmile_qr_scan"}, "lon": -77.03503416666666, "fusion_lat": 0.0}, {"name": "060ea033b94e31b5287995822a4b405a", "fusion_lon": 0.0, "lat": 38.93224633333333, "is_reserved": 0, "type": "electric_scooter", "bike_id": "060ea033b94e31b5287995822a4b405a", "is_disabled": 0, "rental_uris": {"android": "https://dc.lft.to/lastmile_qr_scan", "ios": "https://dc.lft.to/lastmile_qr_scan"}, "lon": -76.9960755, "fusion_lat": 0.0}, {"name": "a4813edaec0e0c91445b30431d6da728", "fusion_lon": 0.0, "lat": 38.92311866666667, "is_reserved": 0, "type": "electric_scooter", "bike_id": "a4813edaec0e0c91445b30431d6da728", "is_disabled": 0, "rental_uris": {"android": "https://dc.lft.to/lastmile_qr_scan", "ios": "https://dc.lft.to/lastmile_qr_scan"}, "lon": -77.02964116666666, "fusion_lat": 0.0}, {"name": "de5d4b356fbfb165e0a1db47a02f8107", "fusion_lon": 0.0, "lat": 38.96629016666667, "is_reserved": 0, "type": "electric_scooter", "bike_id": "de5d4b356fbfb165e0a1db47a02f8107", "is_disabled": 0, "rental_uris": {"android": "https://dc.lft.to/lastmile_qr_scan", "ios": "https://dc.lft.to/lastmile_qr_scan"}, "lon": -77.02252416666667, "fusion_lat": 0.0}, {"name": "72872efaeda96843adef09bd362f7eca", "fusion_lon": 0.0, "lat": 38.9370645, "is_reserved": 0, "type": "electric_scooter", "bike_id": "72872efaeda96843adef09bd362f7eca", "is_disabled": 0, "rental_uris": {"android": "https://dc.lft.to/lastmile_qr_scan", "ios": "https://dc.lft.to/lastmile_qr_scan"}, "lon": -77.06102716666666, "fusion_lat": 0.0}, {"name": "39dfd70c7b04a67484dfdf7c57671097", "fusion_lon": 0.0, "lat": 38.915716, "is_reserved": 0, "type": "electric_scooter", "bike_id": "39dfd70c7b04a67484dfdf7c57671097", "is_disabled": 0, "rental_uris": {"android": "https://dc.lft.to/lastmile_qr_scan", "ios": "https://dc.lft.to/lastmile_qr_scan"}, "lon": -77.01251016666667, "fusion_lat": 0.0}, {"name": "981a25033a81b0b103cd89ca7942dc3c", "fusion_lon": 0.0, "lat": 38.8544435, "is_reserved": 0, "type": "electric_scooter", "bike_id": "981a25033a81b0b103cd89ca7942dc3c", "is_disabled": 0, "rental_uris": {"android": "https://dc.lft.to/lastmile_qr_scan", "ios": "https://dc.lft.to/lastmile_qr_scan"}, "lon": -76.98607083333333, "fusion_lat": 0.0}, {"name": "817c4867f3c7f0a41a61a9b12ddc9d4f", "fusion_lon": 0.0, "lat": 38.906763166666664, "is_reserved": 0, "type": "electric_scooter", "bike_id": "817c4867f3c7f0a41a61a9b12ddc9d4f", "is_disabled": 0, "rental_uris": {"android": "https://dc.lft.to/lastmile_qr_scan", "ios": "https://dc.lft.to/lastmile_qr_scan"}, "lon": -77.0716435, "fusion_lat": 0.0}, {"name": "705ccc8ec80714b44553fbf04d40e395", "fusion_lon": 0.0, "lat": 39.056328666666666, "is_reserved": 0, "type": "electric_bike", "bike_id": "705ccc8ec80714b44553fbf04d40e395", "is_disabled": 0, "rental_uris": {"android": "https://dc.lft.to/lastmile_qr_scan", "ios": "https://dc.lft.to/lastmile_qr_scan"}, "lon": -77.12528416666666, "fusion_lat": 0.0}, {"name": "9eb6f8d958df7a47d0986e843ef14921", "fusion_lon": 0.0, "lat": 38.89222, "is_reserved": 0, "type": "electric_scooter", "bike_id": "9eb6f8d958df7a47d0986e843ef14921", "is_disabled": 0, "rental_uris": {"android": "https://dc.lft.to/lastmile_qr_scan", "ios": "https://dc.lft.to/lastmile_qr_scan"}, "lon": -77.04681316666667, "fusion_lat": 0.0}, {"name": "a17e154d122c07cb64c7824af7c4c0b8", "fusion_lon": 0.0, "lat": 38.91909866666666, "is_reserved": 0, "type": "electric_scooter", "bike_id": "a17e154d122c07cb64c7824af7c4c0b8", "is_disabled": 0, "rental_uris": {"android": "https://dc.lft.to/lastmile_qr_scan", "ios": "https://dc.lft.to/lastmile_qr_scan"}, "lon": -77.009916, "fusion_lat": 0.0}, {"name": "2b5d8921b860bf7726c5808661178627", "fusion_lon": 0.0, "lat": 38.90870433333333, "is_reserved": 0, "type": "electric_scooter", "bike_id": "2b5d8921b860bf7726c5808661178627", "is_disabled": 0, "rental_uris": {"android": "https://dc.lft.to/lastmile_qr_scan", "ios": "https://dc.lft.to/lastmile_qr_scan"}, "lon": -77.02420166666667, "fusion_lat": 0.0}, {"name": "1457c66ddd2fa0398ce45f7aaccd1ada", "fusion_lon": 0.0, "lat": 38.94562616666666, "is_reserved": 0, "type": "electric_bike", "bike_id": "1457c66ddd2fa0398ce45f7aaccd1ada", "is_disabled": 0, "rental_uris": {"android": "https://dc.lft.to/lastmile_qr_scan", "ios": "https://dc.lft.to/lastmile_qr_scan"}, "lon": -76.98750666666666, "fusion_lat": 0.0}, {"name": "a1a0a51dfa58ef309ddd83eb20f9a9f4", "fusion_lon": 0.0, "lat": 38.88460716666667, "is_reserved": 0, "type": "electric_scooter", "bike_id": "a1a0a51dfa58ef309ddd83eb20f9a9f4", "is_disabled": 0, "rental_uris": {"android": "https://dc.lft.to/lastmile_qr_scan", "ios": "https://dc.lft.to/lastmile_qr_scan"}, "lon": -76.95746216666667, "fusion_lat": 0.0}, {"name": "624f7c85d5a1430e30085e7c02358252", "fusion_lon": 0.0, "lat": 38.858961, "is_reserved": 0, "type": "electric_bike", "bike_id": "624f7c85d5a1430e30085e7c02358252", "is_disabled": 0, "rental_uris": {"android": "https://dc.lft.to/lastmile_qr_scan", "ios": "https://dc.lft.to/lastmile_qr_scan"}, "lon": -77.11862983333333, "fusion_lat": 0.0}, {"name": "53e01545882731f4868a16b49c90a3d6", "fusion_lon": 0.0, "lat": 38.9185875, "is_reserved": 0, "type": "electric_scooter", "bike_id": "53e01545882731f4868a16b49c90a3d6", "is_disabled": 0, "rental_uris": {"android": "https://dc.lft.to/lastmile_qr_scan", "ios": "https://dc.lft.to/lastmile_qr_scan"}, "lon": -77.044614, "fusion_lat": 0.0}, {"name": "008dc25c98e2b62818a77724df59f6bb", "fusion_lon": 0.0, "lat": 38.907293333333335, "is_reserved": 0, "type": "electric_scooter", "bike_id": "008dc25c98e2b62818a77724df59f6bb", "is_disabled": 0, "rental_uris": {"android": "https://dc.lft.to/lastmile_qr_scan", "ios": "https://dc.lft.to/lastmile_qr_scan"}, "lon": -77.011348, "fusion_lat": 0.0}, {"name": "7b0d2a89beb89d4642b568ce30fcc940", "fusion_lon": 0.0, "lat": 38.90315433333333, "is_reserved": 0, "type": "electric_scooter", "bike_id": "7b0d2a89beb89d4642b568ce30fcc940", "is_disabled": 0, "rental_uris": {"android": "https://dc.lft.to/lastmile_qr_scan", "ios": "https://dc.lft.to/lastmile_qr_scan"}, "lon": -76.97801166666666, "fusion_lat": 0.0}, {"name": "cff491c4411f95000ee00b578cfec84a", "fusion_lon": 0.0, "lat": 38.920503, "is_reserved": 0, "type": "electric_scooter", "bike_id": "cff491c4411f95000ee00b578cfec84a", "is_disabled": 0, "rental_uris": {"android": "https://dc.lft.to/lastmile_qr_scan", "ios": "https://dc.lft.to/lastmile_qr_scan"}, "lon": -77.04183233333333, "fusion_lat": 0.0}, {"name": "7d79e2a84f66f3360ef03b4aa3812b21", "fusion_lon": 0.0, "lat": 38.926596833333335, "is_reserved": 0, "type": "electric_scooter", "bike_id": "7d79e2a84f66f3360ef03b4aa3812b21", "is_disabled": 0, "rental_uris": {"android": "https://dc.lft.to/lastmile_qr_scan", "ios": "https://dc.lft.to/lastmile_qr_scan"}, "lon": -77.0370785, "fusion_lat": 0.0}, {"name": "fc82553b7b317278cb238ef1bf1383aa", "fusion_lon": 0.0, "lat": 38.88523633333333, "is_reserved": 0, "type": "electric_scooter", "bike_id": "fc82553b7b317278cb238ef1bf1383aa", "is_disabled": 0, "rental_uris": {"android": "https://dc.lft.to/lastmile_qr_scan", "ios": "https://dc.lft.to/lastmile_qr_scan"}, "lon": -77.06103866666666, "fusion_lat": 0.0}, {"name": "6bd38762a3b0e86cd42ac3958a5480cb", "fusion_lon": 0.0, "lat": 38.8984125, "is_reserved": 0, "type": "electric_scooter", "bike_id": "6bd38762a3b0e86cd42ac3958a5480cb", "is_disabled": 0, "rental_uris": {"android": "https://dc.lft.to/lastmile_qr_scan", "ios": "https://dc.lft.to/lastmile_qr_scan"}, "lon": -77.02269916666667, "fusion_lat": 0.0}, {"name": "a663a9d4d999ccf26d1827897ce3a0d9", "fusion_lon": 0.0, "lat": 38.9007045, "is_reserved": 0, "type": "electric_scooter", "bike_id": "a663a9d4d999ccf26d1827897ce3a0d9", "is_disabled": 0, "rental_uris": {"android": "https://dc.lft.to/lastmile_qr_scan", "ios": "https://dc.lft.to/lastmile_qr_scan"}, "lon": -77.04645133333334, "fusion_lat": 0.0}, {"name": "827ef082fdfd53446f33201f67677a0c", "fusion_lon": 0.0, "lat": 38.90604233333333, "is_reserved": 0, "type": "electric_scooter", "bike_id": "827ef082fdfd53446f33201f67677a0c", "is_disabled": 0, "rental_uris": {"android": "https://dc.lft.to/lastmile_qr_scan", "ios": "https://dc.lft.to/lastmile_qr_scan"}, "lon": -76.99271583333334, "fusion_lat": 0.0}, {"name": "a2bae12cb540c40b6db26f5f0aa019cb", "fusion_lon": 0.0, "lat": 38.919151666666664, "is_reserved": 0, "type": "electric_scooter", "bike_id": "a2bae12cb540c40b6db26f5f0aa019cb", "is_disabled": 0, "rental_uris": {"android": "https://dc.lft.to/lastmile_qr_scan", "ios": "https://dc.lft.to/lastmile_qr_scan"}, "lon": -77.04805416666666, "fusion_lat": 0.0}, {"name": "3a2be4e3757fa2a05a68da678abf75f0", "fusion_lon": 0.0, "lat": 38.904728, "is_reserved": 0, "type": "electric_scooter", "bike_id": "3a2be4e3757fa2a05a68da678abf75f0", "is_disabled": 0, "rental_uris": {"android": "https://dc.lft.to/lastmile_qr_scan", "ios": "https://dc.lft.to/lastmile_qr_scan"}, "lon": -77.0288365, "fusion_lat": 0.0}, {"name": "2c1730f8b4cd0d71777cdbc23719707b", "fusion_lon": 0.0, "lat": 38.945112, "is_reserved": 0, "type": "electric_scooter", "bike_id": "2c1730f8b4cd0d71777cdbc23719707b", "is_disabled": 0, "rental_uris": {"android": "https://dc.lft.to/lastmile_qr_scan", "ios": "https://dc.lft.to/lastmile_qr_scan"}, "lon": -77.03319516666667, "fusion_lat": 0.0}, {"name": "1cbcbafbffd8ad5eaec3ab6b51ad1c52", "fusion_lon": 0.0, "lat": 38.8808025, "is_reserved": 0, "type": "electric_scooter", "bike_id": "1cbcbafbffd8ad5eaec3ab6b51ad1c52", "is_disabled": 0, "rental_uris": {"android": "https://dc.lft.to/lastmile_qr_scan", "ios": "https://dc.lft.to/lastmile_qr_scan"}, "lon": -76.98511066666667, "fusion_lat": 0.0}, {"name": "3a46511bad8b84665a6bfc7e521560c9", "fusion_lon": 0.0, "lat": 38.916692833333336, "is_reserved": 0, "type": "electric_scooter", "bike_id": "3a46511bad8b84665a6bfc7e521560c9", "is_disabled": 0, "rental_uris": {"android": "https://dc.lft.to/lastmile_qr_scan", "ios": "https://dc.lft.to/lastmile_qr_scan"}, "lon": -77.029733, "fusion_lat": 0.0}, {"name": "189a73b4f5dc6300704a4a96b57b263e", "fusion_lon": 0.0, "lat": 38.90020066666666, "is_reserved": 0, "type": "electric_scooter", "bike_id": "189a73b4f5dc6300704a4a96b57b263e", "is_disabled": 0, "rental_uris": {"android": "https://dc.lft.to/lastmile_qr_scan", "ios": "https://dc.lft.to/lastmile_qr_scan"}, "lon": -76.99905133333333, "fusion_lat": 0.0}, {"name": "2d1a9e2923b0b1def74fa79adce4b8f7", "fusion_lon": 0.0, "lat": 38.91664166666666, "is_reserved": 0, "type": "electric_scooter", "bike_id": "2d1a9e2923b0b1def74fa79adce4b8f7", "is_disabled": 0, "rental_uris": {"android": "https://dc.lft.to/lastmile_qr_scan", "ios": "https://dc.lft.to/lastmile_qr_scan"}, "lon": -77.02972283333334, "fusion_lat": 0.0}, {"name": "95639572be35e832e9b18bfa41c2683c", "fusion_lon": 0.0, "lat": 38.89327816666667, "is_reserved": 0, "type": "electric_scooter", "bike_id": "95639572be35e832e9b18bfa41c2683c", "is_disabled": 0, "rental_uris": {"android": "https://dc.lft.to/lastmile_qr_scan", "ios": "https://dc.lft.to/lastmile_qr_scan"}, "lon": -77.04865416666667, "fusion_lat": 0.0}, {"name": "5c5ed8979d93905effd0071ca8bb213b", "fusion_lon": 0.0, "lat": 38.951531333333335, "is_reserved": 0, "type": "electric_scooter", "bike_id": "5c5ed8979d93905effd0071ca8bb213b", "is_disabled": 0, "rental_uris": {"android": "https://dc.lft.to/lastmile_qr_scan", "ios": "https://dc.lft.to/lastmile_qr_scan"}, "lon": -77.0186585, "fusion_lat": 0.0}, {"name": "efc0582b0ba7ac3ae275e705f29f7b04", "fusion_lon": 0.0, "lat": 38.923311166666664, "is_reserved": 0, "type": "electric_scooter", "bike_id": "efc0582b0ba7ac3ae275e705f29f7b04", "is_disabled": 0, "rental_uris": {"android": "https://dc.lft.to/lastmile_qr_scan", "ios": "https://dc.lft.to/lastmile_qr_scan"}, "lon": -77.05683133333334, "fusion_lat": 0.0}, {"name": "8d7965a80d63f7e24bea01fe81a8bca8", "fusion_lon": 0.0, "lat": 38.905750166666664, "is_reserved": 0, "type": "electric_scooter", "bike_id": "8d7965a80d63f7e24bea01fe81a8bca8", "is_disabled": 0, "rental_uris": {"android": "https://dc.lft.to/lastmile_qr_scan", "ios": "https://dc.lft.to/lastmile_qr_scan"}, "lon": -77.0448895, "fusion_lat": 0.0}, {"name": "87d73c51f3e4ac8f7e08ea01cb08ff6c", "fusion_lon": 0.0, "lat": 38.92641733333333, "is_reserved": 0, "type": "electric_scooter", "bike_id": "87d73c51f3e4ac8f7e08ea01cb08ff6c", "is_disabled": 0, "rental_uris": {"android": "https://dc.lft.to/lastmile_qr_scan", "ios": "https://dc.lft.to/lastmile_qr_scan"}, "lon": -77.04142983333334, "fusion_lat": 0.0}, {"name": "d48f8b3de3ca99d100ca813c90e10daf", "fusion_lon": 0.0, "lat": 38.9141385, "is_reserved": 0, "type": "electric_scooter", "bike_id": "d48f8b3de3ca99d100ca813c90e10daf", "is_disabled": 0, "rental_uris": {"android": "https://dc.lft.to/lastmile_qr_scan", "ios": "https://dc.lft.to/lastmile_qr_scan"}, "lon": -77.02154766666666, "fusion_lat": 0.0}, {"name": "af2d8ea34e0b10ab6546202deb468d10", "fusion_lon": 0.0, "lat": 38.919585, "is_reserved": 0, "type": "electric_scooter", "bike_id": "af2d8ea34e0b10ab6546202deb468d10", "is_disabled": 0, "rental_uris": {"android": "https://dc.lft.to/lastmile_qr_scan", "ios": "https://dc.lft.to/lastmile_qr_scan"}, "lon": -77.03476383333333, "fusion_lat": 0.0}, {"name": "007b398135359883db917e5cf78586de", "fusion_lon": 0.0, "lat": 38.941832833333336, "is_reserved": 0, "type": "electric_scooter", "bike_id": "007b398135359883db917e5cf78586de", "is_disabled": 0, "rental_uris": {"android": "https://dc.lft.to/lastmile_qr_scan", "ios": "https://dc.lft.to/lastmile_qr_scan"}, "lon": -77.02488216666667, "fusion_lat": 0.0}, {"name": "66761614bce91d1e70e9557fdded315f", "fusion_lon": 0.0, "lat": 38.946168666666665, "is_reserved": 0, "type": "electric_scooter", "bike_id": "66761614bce91d1e70e9557fdded315f", "is_disabled": 0, "rental_uris": {"android": "https://dc.lft.to/lastmile_qr_scan", "ios": "https://dc.lft.to/lastmile_qr_scan"}, "lon": -77.0217415, "fusion_lat": 0.0}, {"name": "b001dff3e7d7b65ff3d04e3eced08db4", "fusion_lon": 0.0, "lat": 38.86503233333333, "is_reserved": 0, "type": "electric_scooter", "bike_id": "b001dff3e7d7b65ff3d04e3eced08db4", "is_disabled": 0, "rental_uris": {"android": "https://dc.lft.to/lastmile_qr_scan", "ios": "https://dc.lft.to/lastmile_qr_scan"}, "lon": -76.99001666666666, "fusion_lat": 0.0}, {"name": "91ce3e13021d527760130939371978f3", "fusion_lon": 0.0, "lat": 38.91692333333334, "is_reserved": 0, "type": "electric_scooter", "bike_id": "91ce3e13021d527760130939371978f3", "is_disabled": 0, "rental_uris": {"android": "https://dc.lft.to/lastmile_qr_scan", "ios": "https://dc.lft.to/lastmile_qr_scan"}, "lon": -77.02514633333334, "fusion_lat": 0.0}, {"name": "59b387859a09a43388631df8c444c287", "fusion_lon": 0.0, "lat": 38.921805, "is_reserved": 0, "type": "electric_scooter", "bike_id": "59b387859a09a43388631df8c444c287", "is_disabled": 0, "rental_uris": {"android": "https://dc.lft.to/lastmile_qr_scan", "ios": "https://dc.lft.to/lastmile_qr_scan"}, "lon": -77.0423915, "fusion_lat": 0.0}, {"name": "59e7560c3a16d351c9c081caacb44b4b", "fusion_lon": 0.0, "lat": 38.92048583333333, "is_reserved": 0, "type": "electric_scooter", "bike_id": "59e7560c3a16d351c9c081caacb44b4b", "is_disabled": 0, "rental_uris": {"android": "https://dc.lft.to/lastmile_qr_scan", "ios": "https://dc.lft.to/lastmile_qr_scan"}, "lon": -77.02983083333334, "fusion_lat": 0.0}, {"name": "c8d5b539e6b6b9e3f6bcee5188afdfbe", "fusion_lon": 0.0, "lat": 38.92699566666667, "is_reserved": 0, "type": "electric_scooter", "bike_id": "c8d5b539e6b6b9e3f6bcee5188afdfbe", "is_disabled": 0, "rental_uris": {"android": "https://dc.lft.to/lastmile_qr_scan", "ios": "https://dc.lft.to/lastmile_qr_scan"}, "lon": -77.02421616666666, "fusion_lat": 0.0}, {"name": "95bd4238922437ddc8b81fe6b65b97b1", "fusion_lon": 0.0, "lat": 38.92211433333333, "is_reserved": 0, "type": "electric_scooter", "bike_id": "95bd4238922437ddc8b81fe6b65b97b1", "is_disabled": 0, "rental_uris": {"android": "https://dc.lft.to/lastmile_qr_scan", "ios": "https://dc.lft.to/lastmile_qr_scan"}, "lon": -77.03291233333333, "fusion_lat": 0.0}, {"name": "38a7bb29fa7ef609a459ba3b5819732e", "fusion_lon": 0.0, "lat": 38.80758466666666, "is_reserved": 0, "type": "electric_bike", "bike_id": "38a7bb29fa7ef609a459ba3b5819732e", "is_disabled": 0, "rental_uris": {"android": "https://dc.lft.to/lastmile_qr_scan", "ios": "https://dc.lft.to/lastmile_qr_scan"}, "lon": -77.09471983333333, "fusion_lat": 0.0}, {"name": "547d0b336e3c4df18cd8d18ce40429c3", "fusion_lon": 0.0, "lat": 38.993434666666666, "is_reserved": 0, "type": "electric_bike", "bike_id": "547d0b336e3c4df18cd8d18ce40429c3", "is_disabled": 0, "rental_uris": {"android": "https://dc.lft.to/lastmile_qr_scan", "ios": "https://dc.lft.to/lastmile_qr_scan"}, "lon": -77.11577466666667, "fusion_lat": 0.0}, {"name": "15237c5fc93e70053139a89a04cd4b4f", "fusion_lon": 0.0, "lat": 38.917189, "is_reserved": 0, "type": "electric_scooter", "bike_id": "15237c5fc93e70053139a89a04cd4b4f", "is_disabled": 0, "rental_uris": {"android": "https://dc.lft.to/lastmile_qr_scan", "ios": "https://dc.lft.to/lastmile_qr_scan"}, "lon": -77.03190083333334, "fusion_lat": 0.0}, {"name": "906a34fd6d5484443f059162ac7475bb", "fusion_lon": 0.0, "lat": 38.90408, "is_reserved": 0, "type": "electric_scooter", "bike_id": "906a34fd6d5484443f059162ac7475bb", "is_disabled": 0, "rental_uris": {"android": "https://dc.lft.to/lastmile_qr_scan", "ios": "https://dc.lft.to/lastmile_qr_scan"}, "lon": -77.02505683333334, "fusion_lat": 0.0},