{"data": {"bikes": [{"bike_id": "723127494f03713e75c7c660f01348f9", "type": "electric_scooter", "is_disabled": 0, "lat": 38.91401966666667, "rental_uris": {"ios": "https://dc.lft.to/lastmile_qr_scan", "android": "https://dc.lft.to/lastmile_qr_scan"}, "is_reserved": 0, "fusion_lon": 0.0, "fusion_lat": 0.0, "lon": -76.98188866666666, "name": "723127494f03713e75c7c660f01348f9"}, {"bike_id": "4c2b068f40c676550f6d60abc50bfa95", "type": "electric_scooter", "is_disabled": 0, "lat": 38.91928683333333, "rental_uris": {"ios": "https://dc.lft.to/lastmile_qr_scan", "android": "https://dc.lft.to/lastmile_qr_scan"}, "is_reserved": 0, "fusion_lon": 0.0, "fusion_lat": 0.0, "lon": -77.031815, "name": "4c2b068f40c676550f6d60abc50bfa95"}, {"bike_id": "44000a76c0311898eced3e7952c03a7e", "type": "electric_bike", "is_disabled": 0, "lat": 38.993280166666665, "rental_uris": {"ios": "https://dc.lft.to/lastmile_qr_scan", "android": "https://dc.lft.to/lastmile_qr_scan"}, "is_reserved": 0, "fusion_lon": 0.0, "fusion_lat": 0.0, "lon": -76.9461235, "name": "44000a76c0311898eced3e7952c03a7e"}, {"bike_id": "00c688e2e63033a4fd32665e47f52ea5", "type": "electric_scooter", "is_disabled": 0, "lat": 38.933558166666664, "rental_uris": {"ios": "https://dc.lft.to/lastmile_qr_scan", "android": "https://dc.lft.to/lastmile_qr_scan"}, "is_reserved": 0, "fusion_lon": 0.0, "fusion_lat": 0.0, "lon": -77.073585, "name": "00c688e2e63033a4fd32665e47f52ea5"}, {"bike_id": "8def083e8490c59d9c06913ab37832db", "type": "electric_bike", "is_disabled": 0, "lat": 38.85536033333333, "rental_uris": {"ios": "https://dc.lft.to/lastmile_qr_scan", "android": "https://dc.lft.to/lastmile_qr_scan"}, "is_reserved": 0, "fusion_lon": 0.0, "fusion_lat": 0.0, "lon": -77.1201765, "name": "8def083e8490c59d9c06913ab37832db"}, {"bike_id": "9e14db2463c3df276b4663eeef968a55", "type": "electric_scooter", "is_disabled": 0, "lat": 38.907887333333335, "rental_uris": {"ios": "https://dc.lft.to/lastmile_qr_scan", "android": "https://dc.lft.to/lastmile_qr_scan"}, "is_reserved": 0, "fusion_lon": 0.0, "fusion_lat": 0.0, "lon": -77.002156, "name": "9e14db2463c3df276b4663eeef968a55"}, {"bike_id": "761049789d93953aa5b18f81075fe3d7", "type": "electric_scooter", "is_disabled": 0, "lat": 38.903032333333336, "rental_uris": {"ios": "https://dc.lft.to/lastmile_qr_scan", "android": "https://dc.lft.to/lastmile_qr_scan"}, "is_reserved": 0, "fusion_lon": 0.0, "fusion_lat": 0.0, "lon": -77.04952, "name": "761049789d93953aa5b18f81075fe3d7"}, {"bike_id": "a691b5d55d81c550bf5b60fc65f8800c", "type": "electric_scooter", "is_disabled": 0, "lat": 38.935978666666664, "rental_uris": {"ios": "https://dc.lft.to/lastmile_qr_scan", "android": "https://dc.lft.to/lastmile_qr_scan"}, "is_reserved": 0, "fusion_lon": 0.0, "fusion_lat": 0.0, "lon": -77.0366005, "name": "a691b5d55d81c550bf5b60fc65f8800c"}, {"bike_id": "97c529e999b14c30b01dca15ed75498b", "type": "electric_scooter", "is_disabled": 0, "lat": 38.90219783333333, "rental_uris": {"ios": "https://dc.lft.to/lastmile_qr_scan", "android": "https://dc.lft.to/lastmile_qr_scan"}, "is_reserved": 0, "fusion_lon": 0.0, "fusion_lat": 0.0, "lon": -77.04018766666667, "name": "97c529e999b14c30b01dca15ed75498b"}, {"bike_id": "21ea6590421c7d88c4bc50924dc834a1", "type": "electric_scooter", "is_disabled": 0, "lat": 38.93534733333333, "rental_uris": {"ios": "https://dc.lft.to/lastmile_qr_scan", "android": "https://dc.lft.to/lastmile_qr_scan"}, "is_reserved": 0, "fusion_lon": 0.0, "fusion_lat": 0.0, "lon": -77.058134, "name": "21ea6590421c7d88c4bc50924dc834a1"}, {"bike_id": "989a0206ba68a61b2709197ad25efd81", "type": "electric_scooter", "is_disabled": 0, "lat": 38.915987333333334, "rental_uris": {"ios": "https://dc.lft.to/lastmile_qr_scan", "android": "https://dc.lft.to/lastmile_qr_scan"}, "is_reserved": 0, "fusion_lon": 0.0, "fusion_lat": 0.0, "lon": -77.03223716666666, "name": "989a0206ba68a61b2709197ad25efd81"}, {"bike_id": "260424302b07eeb8f210efffe800edc1", "type": "electric_scooter", "is_disabled": 0, "lat": 38.922123166666665, "rental_uris": {"ios": "https://dc.lft.to/lastmile_qr_scan", "android": "https://dc.lft.to/lastmile_qr_scan"}, "is_reserved": 0, "fusion_lon": 0.0, "fusion_lat": 0.0, "lon": -77.03660966666666, "name": "260424302b07eeb8f210efffe800edc1"}, {"bike_id": "0154476157963db0458d03db946f7da2", "type": "electric_scooter", "is_disabled": 0, "lat": 38.87848783333333, "rental_uris": {"ios": "https://dc.lft.to/lastmile_qr_scan", "android": "https://dc.lft.to/lastmile_qr_scan"}, "is_reserved": 0, "fusion_lon": 0.0, "fusion_lat": 0.0, "lon": -76.986175, "name": "0154476157963db0458d03db946f7da2"}, {"bike_id": "bef94bdb4be500fca5614db0d82cae2d", "type": "electric_scooter", "is_disabled": 0, "lat": 38.9328915, "rental_uris": {"ios": "https://dc.lft.to/lastmile_qr_scan", "android": "https://dc.lft.to/lastmile_qr_scan"}, "is_reserved": 0, "fusion_lon": 0.0, "fusion_lat": 0.0, "lon": -77.03541016666667, "name": "bef94bdb4be500fca5614db0d82cae2d"}, {"bike_id": "b027ed5a494bfbf1f65ba2d3bf86f2b9", "type": "electric_scooter", "is_disabled": 0, "lat": 38.88934183333333, "rental_uris": {"ios": "https://dc.lft.to/lastmile_qr_scan", "android": "https://dc.lft.to/lastmile_qr_scan"}, "is_reserved": 0, "fusion_lon": 0.0, "fusion_lat": 0.0, "lon": -76.93579683333333, "name": "b027ed5a494bfbf1f65ba2d3bf86f2b9"}, {"bike_id": "24417dbb59c81587af1da2891f5f8663", "type": "electric_scooter", "is_disabled": 0, "lat": 38.8805245, "rental_uris": {"ios": "https://dc.lft.to/lastmile_qr_scan", "android": "https://dc.lft.to/lastmile_qr_scan"}, "is_reserved": 0, "fusion_lon": 0.0, "fusion_lat": 0.0, "lon": -77.0055835, "name": "24417dbb59c81587af1da2891f5f8663"}, {"bike_id": "96004dc0e29ca5c00093b29af8c59040", "type": "electric_scooter", "is_disabled": 0, "lat": 38.9182285, "rental_uris": {"ios": "https://dc.lft.to/lastmile_qr_scan", "android": "https://dc.lft.to/lastmile_qr_scan"}, "is_reserved": 0, "fusion_lon": 0.0, "fusion_lat": 0.0, "lon": -77.025049, "name": "96004dc0e29ca5c00093b29af8c59040"}, {"bike_id": "8acf2fa8aaf96bd5b6ea76dc885814e4", "type": "electric_scooter", "is_disabled": 0, "lat": 38.846427166666665, "rental_uris": {"ios": "https://dc.lft.to/lastmile_qr_scan", "android": "https://dc.lft.to/lastmile_qr_scan"}, "is_reserved": 0, "fusion_lon": 0.0, "fusion_lat": 0.0, "lon": -76.99128983333334, "name": "8acf2fa8aaf96bd5b6ea76dc885814e4"}, {"bike_id": "ab97ccc032cdbeee72497c51a609d115", "type": "electric_scooter", "is_disabled": 0, "lat": 38.9192675, "rental_uris": {"ios": "https://dc.lft.to/lastmile_qr_scan", "android": "https://dc.lft.to/lastmile_qr_scan"}, "is_reserved": 0, "fusion_lon": 0.0, "fusion_lat": 0.0, "lon": -77.034215, "name": "ab97ccc032cdbeee72497c51a609d115"}, {"bike_id": "4d5a99168268309edc8e628aad9aa745", "type": "electric_scooter", "is_disabled": 0, "lat": 38.888600833333335, "rental_uris": {"ios": "https://dc.lft.to/lastmile_qr_scan", "android": "https://dc.lft.to/lastmile_qr_scan"}, "is_reserved": 0, "fusion_lon": 0.0, "fusion_lat": 0.0, "lon": -76.991418, "name": "4d5a99168268309edc8e628aad9aa745"}, {"bike_id": "26887b54f9b78870faa786b09f0ebd02", "type": "electric_scooter", "is_disabled": 0, "lat": 38.920426, "rental_uris": {"ios": "https://dc.lft.to/lastmile_qr_scan", "android": "https://dc.lft.to/lastmile_qr_scan"}, "is_reserved": 0, "fusion_lon": 0.0, "fusion_lat": 0.0, "lon": -77.0243855, "name": "26887b54f9b78870faa786b09f0ebd02"}, {"bike_id": "1b71fb454a3a7b158b08ccf29aa152a0", "type": "electric_scooter", "is_disabled": 0, "lat": 38.919682333333334, "rental_uris": {"ios": "https://dc.lft.to/lastmile_qr_scan", "android": "https://dc.lft.to/lastmile_qr_scan"}, "is_reserved": 0, "fusion_lon": 0.0, "fusion_lat": 0.0, "lon": -77.04271416666667, "name": "1b71fb454a3a7b158b08ccf29aa152a0"}, {"bike_id": "eece205c4df9c91581829b0e8514bb1c", "type": "electric_scooter", "is_disabled": 0, "lat": 38.893597666666665, "rental_uris": {"ios": "https://dc.lft.to/lastmile_qr_scan", "android": "https://dc.lft.to/lastmile_qr_scan"}, "is_reserved": 0, "fusion_lon": 0.0, "fusion_lat": 0.0, "lon": -76.94932566666667, "name": "eece205c4df9c91581829b0e8514bb1c"}, {"bike_id": "e603389c32b6042da764fc17821e458d", "type": "electric_bike", "is_disabled": 0, "lat": 38.82178566666666, "rental_uris": {"ios": "https://dc.lft.to/lastmile_qr_scan", "android": "https://dc.lft.to/lastmile_qr_scan"}, "is_reserved": 0, "fusion_lon": 0.0, "fusion_lat": 0.0, "lon": -76.99510266666667, "name": "e603389c32b6042da764fc17821e458d"}, {"bike_id": "df702dc728b8bdc34b2d61d7139e83be", "type": "electric_scooter", "is_disabled": 0, "lat": 38.92670566666666, "rental_uris": {"ios": "https://dc.lft.to/lastmile_qr_scan", "android": "https://dc.lft.to/lastmile_qr_scan"}, "is_reserved": 0, "fusion_lon": 0.0, "fusion_lat": 0.0, "lon": -77.03023883333333, "name": "df702dc728b8bdc34b2d61d7139e83be"}, {"bike_id": "b4edd7c52cdf61ba9ee56896432b3b9e", "type": "electric_scooter", "is_disabled": 0, "lat": 38.871598666666664, "rental_uris": {"ios": "https://dc.lft.to/lastmile_qr_scan", "android": "https://dc.lft.to/lastmile_qr_scan"}, "is_reserved": 0, "fusion_lon": 0.0, "fusion_lat": 0.0, "lon": -77.01351766666667, "name": "b4edd7c52cdf61ba9ee56896432b3b9e"}, {"bike_id": "6e3357a3463154ac6bcbd392bb6f311b", "type": "electric_bike", "is_disabled": 0, "lat": 39.04306833333333, "rental_uris": {"ios": "https://dc.lft.to/lastmile_qr_scan", "android": "https://dc.lft.to/lastmile_qr_scan"}, "is_reserved": 0, "fusion_lon": 0.0, "fusion_lat": 0.0, "lon": -77.05160466666666, "name": "6e3357a3463154ac6bcbd392bb6f311b"}, {"bike_id": "77fd29dbbf92397359c9d534e9738d93", "type": "electric_scooter", "is_disabled": 0, "lat": 38.904218166666666, "rental_uris": {"ios": "https://dc.lft.to/lastmile_qr_scan", "android": "https://dc.lft.to/lastmile_qr_scan"}, "is_reserved": 0, "fusion_lon": 0.0, "fusion_lat": 0.0, "lon": -77.048715, "name": "77fd29dbbf92397359c9d534e9738d93"}, {"bike_id": "328a03695b296c09b1e7c445bcb870ca", "type": "electric_scooter", "is_disabled": 0, "lat": 38.920317833333335, "rental_uris": {"ios": "https://dc.lft.to/lastmile_qr_scan", "android": "https://dc.lft.to/lastmile_qr_scan"}, "is_reserved": 0, "fusion_lon": 0.0, "fusion_lat": 0.0, "lon": -77.04087983333334, "name": "328a03695b296c09b1e7c445bcb870ca"}, {"bike_id": "eea6d88d9e92646370b15df6df5161b1", "type": "electric_scooter", "is_disabled": 0, "lat": 38.92799766666667, "rental_uris": {"ios": "https://dc.lft.to/lastmile_qr_scan", "android": "https://dc.lft.to/lastmile_qr_scan"}, "is_reserved": 0, "fusion_lon": 0.0, "fusion_lat": 0.0, "lon": -77.032031, "name": "eea6d88d9e92646370b15df6df5161b1"}, {"bike_id": "bf61c17a18624f061c264916f25bf4b5", "type": "electric_scooter", "is_disabled": 0, "lat": 38.90559833333333, "rental_uris": {"ios": "https://dc.lft.to/lastmile_qr_scan", "android": "https://dc.lft.to/lastmile_qr_scan"}, "is_reserved": 0, "fusion_lon": 0.0, "fusion_lat": 0.0, "lon": -77.0652485, "name": "bf61c17a18624f061c264916f25bf4b5"}, {"bike_id": "6a4440e4e27d0bf7fbb26b17718b8a6e", "type": "electric_scooter", "is_disabled": 0, "lat": 38.90362783333333, "rental_uris": {"ios": "https://dc.lft.to/lastmile_qr_scan", "android": "https://dc.lft.to/lastmile_qr_scan"}, "is_reserved": 0, "fusion_lon": 0.0, "fusion_lat": 0.0, "lon": -76.99941466666667, "name": "6a4440e4e27d0bf7fbb26b17718b8a6e"}, {"bike_id": "fb07906934103f0ef47053717a80d769", "type": "electric_scooter", "is_disabled": 0, "lat": 38.87628083333333, "rental_uris": {"ios": "https://dc.lft.to/lastmile_qr_scan", "android": "https://dc.lft.to/lastmile_qr_scan"}, "is_reserved": 0, "fusion_lon": 0.0, "fusion_lat": 0.0, "lon": -76.96524333333333, "name": "fb07906934103f0ef47053717a80d769"}, {"bike_id": "1f74423a034457edec288c73d0bd8d90", "type": "electric_scooter", "is_disabled": 0, "lat": 38.91693183333334, "rental_uris": {"ios": "https://dc.lft.to/lastmile_qr_scan", "android": "https://dc.lft.to/lastmile_qr_scan"}, "is_reserved": 0, "fusion_lon": 0.0, "fusion_lat": 0.0, "lon": -77.02874366666667, "name": "1f74423a034457edec288c73d0bd8d90"}, {"bike_id": "772d4a174908dfc681ce6f483b5b3879", "type": "electric_scooter", "is_disabled": 0, "lat": 38.9004885, "rental_uris": {"ios": "https://dc.lft.to/lastmile_qr_scan", "android": "https://dc.lft.to/lastmile_qr_scan"}, "is_reserved": 0, "fusion_lon": 0.0, "fusion_lat": 0.0, "lon": -77.01331533333334, "name": "772d4a174908dfc681ce6f483b5b3879"}, {"bike_id": "7c7ace4c07ad839bc46a6ff14817ba33", "type": "electric_scooter", "is_disabled": 0, "lat": 38.900649666666666, "rental_uris": {"ios": "https://dc.lft.to/lastmile_qr_scan", "android": "https://dc.lft.to/lastmile_qr_scan"}, "is_reserved": 0, "fusion_lon": 0.0, "fusion_lat": 0.0, "lon": -76.92738283333334, "name": "7c7ace4c07ad839bc46a6ff14817ba33"}, {"bike_id": "6b99d6883356304405a0fcbc57e65626", "type": "electric_scooter", "is_disabled": 0, "lat": 38.906405, "rental_uris": {"ios": "https://dc.lft.to/lastmile_qr_scan", "android": "https://dc.lft.to/lastmile_qr_scan"}, "is_reserved": 0, "fusion_lon": 0.0, "fusion_lat": 0.0, "lon": -77.03132133333334, "name": "6b99d6883356304405a0fcbc57e65626"}, {"bike_id": "43fa532402cf02224d3bc511db9ef052", "type": "electric_scooter", "is_disabled": 0, "lat": 38.906067, "rental_uris": {"ios": "https://dc.lft.to/lastmile_qr_scan", "android": "https://dc.lft.to/lastmile_qr_scan"}, "is_reserved": 0, "fusion_lon": 0.0, "fusion_lat": 0.0, "lon": -77.0074705, "name": "43fa532402cf02224d3bc511db9ef052"}, {"bike_id": "2d2da4320758934a1d44a2bdc799d575", "type": "electric_scooter", "is_disabled": 0, "lat": 38.949960833333336, "rental_uris": {"ios": "https://dc.lft.to/lastmile_qr_scan", "android": "https://dc.lft.to/lastmile_qr_scan"}, "is_reserved": 0, "fusion_lon": 0.0, "fusion_lat": 0.0, "lon": -77.018302, "name": "2d2da4320758934a1d44a2bdc799d575"}, {"bike_id": "7b2a3bfb2ae52c3602fe8e29fcdda195", "type": "electric_scooter", "is_disabled": 0, "lat": 38.905004, "rental_uris": {"ios": "https://dc.lft.to/lastmile_qr_scan", "android": "https://dc.lft.to/lastmile_qr_scan"}, "is_reserved": 0, "fusion_lon": 0.0, "fusion_lat": 0.0, "lon": -77.068825, "name": "7b2a3bfb2ae52c3602fe8e29fcdda195"}, {"bike_id": "8fe09102ea444720d406d8684c432cbc", "type": "electric_scooter", "is_disabled": 0, "lat": 38.95581633333333, "rental_uris": {"ios": "https://dc.lft.to/lastmile_qr_scan", "android": "https://dc.lft.to/lastmile_qr_scan"}, "is_reserved": 0, "fusion_lon": 0.0, "fusion_lat": 0.0, "lon": -77.08034533333333, "name": "8fe09102ea444720d406d8684c432cbc"}, {"bike_id": "438389272d2253286fa3c15413255562", "type": "electric_bike", "is_disabled": 0, "lat": 38.95618966666667, "rental_uris": {"ios": "https://dc.lft.to/lastmile_qr_scan", "android": "https://dc.lft.to/lastmile_qr_scan"}, "is_reserved": 0, "fusion_lon": 0.0, "fusion_lat": 0.0, "lon": -76.93870883333334, "name": "438389272d2253286fa3c15413255562"}, {"bike_id": "05f1f9ec20c1e33bc776a8749b052789", "type": "electric_scooter", "is_disabled": 0, "lat": 38.928353, "rental_uris": {"ios": "https://dc.lft.to/lastmile_qr_scan", "android": "https://dc.lft.to/lastmile_qr_scan"}, "is_reserved": 0, "fusion_lon": 0.0, "fusion_lat": 0.0, "lon": -77.05505316666667, "name": "05f1f9ec20c1e33bc776a8749b052789"}, {"bike_id": "e5fe74df3c2750301982b4c256285655", "type": "electric_scooter", "is_disabled": 0, "lat": 38.87860633333333, "rental_uris": {"ios": "https://dc.lft.to/lastmile_qr_scan", "android": "https://dc.lft.to/lastmile_qr_scan"}, "is_reserved": 0, "fusion_lon": 0.0, "fusion_lat": 0.0, "lon": -77.00839666666667, "name": "e5fe74df3c2750301982b4c256285655"}, {"bike_id": "69f62bbedc61f2eacfee4740136c8644", "type": "electric_scooter", "is_disabled": 0, "lat": 38.9843105, "rental_uris": {"ios": "https://dc.lft.to/lastmile_qr_scan", "android": "https://dc.lft.to/lastmile_qr_scan"}, "is_reserved": 0, "fusion_lon": 0.0, "fusion_lat": 0.0, "lon": -77.026718, "name": "69f62bbedc61f2eacfee4740136c8644"}, {"bike_id": "539565a87e079ed8f9ff154931c30a2f", "type": "electric_scooter", "is_disabled": 0, "lat": 38.92797316666667, "rental_uris": {"ios": "https://dc.lft.to/lastmile_qr_scan", "android": "https://dc.lft.to/lastmile_qr_scan"}, "is_reserved": 0, "fusion_lon": 0.0, "fusion_lat": 0.0, "lon": -77.023885, "name": "539565a87e079ed8f9ff154931c30a2f"}, {"bike_id": "8068eb8872fe7f2a227990896ee856ee", "type": "electric_bike", "is_disabled": 0, "lat": 38.8097265, "rental_uris": {"ios": "https://dc.lft.to/lastmile_qr_scan", "android": "https://dc.lft.to/lastmile_qr_scan"}, "is_reserved": 0, "fusion_lon": 0.0, "fusion_lat": 0.0, "lon": -77.08626783333334, "name": "8068eb8872fe7f2a227990896ee856ee"}, {"bike_id": "838bcbf97dd567d2dc3eccfd13ecddae", "type": "electric_scooter", "is_disabled": 0, "lat": 38.92251733333333, "rental_uris": {"ios": "https://dc.lft.to/lastmile_qr_scan", "android": "https://dc.lft.to/lastmile_qr_scan"}, "is_reserved": 0, "fusion_lon": 0.0, "fusion_lat": 0.0, "lon": -77.01972383333333, "name": "838bcbf97dd567d2dc3eccfd13ecddae"}, {"bike_id": "e561ad651a0fecf685b10dd644208a90", "type": "electric_scooter", "is_disabled": 0, "lat": 38.88161, "rental_uris": {"ios": "https://dc.lft.to/lastmile_qr_scan", "android": "https://dc.lft.to/lastmile_qr_scan"}, "is_reserved": 0, "fusion_lon": 0.0, "fusion_lat": 0.0, "lon": -77.02766433333333, "name": "e561ad651a0fecf685b10dd644208a90"}, {"bike_id": "bec7d0b9f3329c10718eb679acadbd1b", "type": "electric_scooter", "is_disabled": 0, "lat": 38.928626333333334, "rental_uris": {"ios": "https://dc.lft.to/lastmile_qr_scan", "android": "https://dc.lft.to/lastmile_qr_scan"}, "is_reserved": 0, "fusion_lon": 0.0, "fusion_lat": 0.0, "lon": -77.0371395, "name": "bec7d0b9f3329c10718eb679acadbd1b"}, {"bike_id": "2d486506f8e981efa20e4a7a4a01fd92", "type": "electric_scooter", "is_disabled": 0, "lat": 38.86377, "rental_uris": {"ios": "https://dc.lft.to/lastmile_qr_scan", "android": "https://dc.lft.to/lastmile_qr_scan"}, "is_reserved": 0, "fusion_lon": 0.0, "fusion_lat": 0.0, "lon": -76.9905305, "name": "2d486506f8e981efa20e4a7a4a01fd92"}, {"bike_id": "1e62411527b93302391ce1d096ce5ad8", "type": "electric_scooter", "is_disabled": 0, "lat": 38.903122333333336, "rental_uris": {"ios": "https://dc.lft.to/lastmile_qr_scan", "android": "https://dc.lft.to/lastmile_qr_scan"}, "is_reserved": 0, "fusion_lon": 0.0, "fusion_lat": 0.0, "lon": -76.99129316666667, "name": "1e62411527b93302391ce1d096ce5ad8"}, {"bike_id": "f0989362b61f463bb095fa20bc8e43cb", "type": "electric_scooter", "is_disabled": 0, "lat": 38.917654666666664, "rental_uris": {"ios": "https://dc.lft.to/lastmile_qr_scan", "android": "https://dc.lft.to/lastmile_qr_scan"}, "is_reserved": 0, "fusion_lon": 0.0, "fusion_lat": 0.0, "lon": -77.04767883333334, "name": "f0989362b61f463bb095fa20bc8e43cb"}, {"bike_id": "12b6fa341dbebdd6ff0d0a9944cf419e", "type": "electric_scooter", "is_disabled": 0, "lat": 38.900391666666664, "rental_uris": {"ios": "https://dc.lft.to/lastmile_qr_scan", "android": "https://dc.lft.to/lastmile_qr_scan"}, "is_reserved": 0, "fusion_lon": 0.0, "fusion_lat": 0.0, "lon": -77.00183066666666, "name": "12b6fa341dbebdd6ff0d0a9944cf419e"}, {"bike_id": "65062909b195fd944f7a6636c13f242a", "type": "electric_scooter", "is_disabled": 0, "lat": 38.897095166666666, "rental_uris": {"ios": "https://dc.lft.to/lastmile_qr_scan", "android": "https://dc.lft.to/lastmile_qr_scan"}, "is_reserved": 0, "fusion_lon": 0.0, "fusion_lat": 0.0, "lon": -77.0229095, "name": "65062909b195fd944f7a6636c13f242a"}, {"bike_id": "f4ae0eb8544f2efc5d91c6bd29adbf81", "type": "electric_scooter", "is_disabled": 0, "lat": 38.92344766666667, "rental_uris": {"ios": "https://dc.lft.to/lastmile_qr_scan", "android": "https://dc.lft.to/lastmile_qr_scan"}, "is_reserved": 0, "fusion_lon": 0.0, "fusion_lat": 0.0, "lon": -77.05093883333333, "name": "f4ae0eb8544f2efc5d91c6bd29adbf81"}, {"bike_id": "6a0f498718104d9dfe96c125ba9fc9b4", "type": "electric_scooter", "is_disabled": 0, "lat": 38.916339, "rental_uris": {"ios": "https://dc.lft.to/lastmile_qr_scan", "android": "https://dc.lft.to/lastmile_qr_scan"}, "is_reserved": 0, "fusion_lon": 0.0, "fusion_lat": 0.0, "lon": -77.0396525, "name": "6a0f498718104d9dfe96c125ba9fc9b4"}, {"bike_id": "7c9108314d89b908a4c4dead8b31a58f", "type": "electric_scooter", "is_disabled": 0, "lat": 38.9319255, "rental_uris": {"ios": "https://dc.lft.to/lastmile_qr_scan", "android": "https://dc.lft.to/lastmile_qr_scan"}, "is_reserved": 0, "fusion_lon": 0.0, "fusion_lat": 0.0, "lon": -77.02018333333334, "name": "7c9108314d89b908a4c4dead8b31a58f"}, {"bike_id": "a459336e5f67df024a2a77bcfa54029f", "type": "electric_scooter", "is_disabled": 0, "lat": 38.86662833333333, "rental_uris": {"ios": "https://dc.lft.to/lastmile_qr_scan", "android": "https://dc.lft.to/lastmile_qr_scan"}, "is_reserved": 0, "fusion_lon": 0.0, "fusion_lat": 0.0, "lon": -77.0102665, "name": "a459336e5f67df024a2a77bcfa54029f"}, {"bike_id": "12f9a9bfde124de22fade3337c50f4f9", "type": "electric_scooter", "is_disabled": 0, "lat": 38.90156966666667, "rental_uris": {"ios": "https://dc.lft.to/lastmile_qr_scan", "android": "https://dc.lft.to/lastmile_qr_scan"}, "is_reserved": 0, "fusion_lon": 0.0, "fusion_lat": 0.0, "lon": -77.01636766666667, "name": "12f9a9bfde124de22fade3337c50f4f9"}, {"bike_id": "be7f0994f920c4ea94cc9abdb36d0faa", "type": "electric_scooter", "is_disabled": 0, "lat": 38.937483666666665, "rental_uris": {"ios": "https://dc.lft.to/lastmile_qr_scan", "android": "https://dc.lft.to/lastmile_qr_scan"}, "is_reserved": 0, "fusion_lon": 0.0, "fusion_lat": 0.0, "lon": -77.03577633333333, "name": "be7f0994f920c4ea94cc9abdb36d0faa"}, {"bike_id": "632ae05e9acd226809c8d1f7f0f74a9f", "type": "electric_scooter", "is_disabled": 0, "lat": 38.905596333333335, "rental_uris": {"ios": "https://dc.lft.to/lastmile_qr_scan", "android": "https://dc.lft.to/lastmile_qr_scan"}, "is_reserved": 0, "fusion_lon": 0.0, "fusion_lat": 0.0, "lon": -77.0055305, "name": "632ae05e9acd226809c8d1f7f0f74a9f"}, {"bike_id": "ae41f7ed90629d6596428f8ad8d30502", "type": "electric_scooter", "is_disabled": 0, "lat": 38.92579633333333, "rental_uris": {"ios": "https://dc.lft.to/lastmile_qr_scan", "android": "https://dc.lft.to/lastmile_qr_scan"}, "is_reserved": 0, "fusion_lon": 0.0, "fusion_lat": 0.0, "lon": -77.03024216666667, "name": "ae41f7ed90629d6596428f8ad8d30502"}, {"bike_id": "529805b8e41bb8e5ee64d9a169cab5c6", "type": "electric_scooter", "is_disabled": 0, "lat": 38.9125805, "rental_uris": {"ios": "https://dc.lft.to/lastmile_qr_scan", "android": "https://dc.lft.to/lastmile_qr_scan"}, "is_reserved": 0, "fusion_lon": 0.0, "fusion_lat": 0.0, "lon": -77.03265833333333, "name": "529805b8e41bb8e5ee64d9a169cab5c6"}, {"bike_id": "cd2c76982969e4a10a1ebf022ffbeeb9", "type": "electric_scooter", "is_disabled": 0, "lat": 38.93395366666667, "rental_uris": {"ios": "https://dc.lft.to/lastmile_qr_scan", "android": "https://dc.lft.to/lastmile_qr_scan"}, "is_reserved": 0, "fusion_lon": 0.0, "fusion_lat": 0.0, "lon": -77.02220633333333, "name": "cd2c76982969e4a10a1ebf022ffbeeb9"}, {"bike_id": "1822ac85155807bd01d50207a8cde37d", "type": "electric_bike", "is_disabled": 0, "lat": 38.9486785, "rental_uris": {"ios": "https://dc.lft.to/lastmile_qr_scan", "android": "https://dc.lft.to/lastmile_qr_scan"}, "is_reserved": 0, "fusion_lon": 0.0, "fusion_lat": 0.0, "lon": -77.02201983333333, "name": "1822ac85155807bd01d50207a8cde37d"}, {"bike_id": "60f0d4d1ba5b5fc1bb1b1a9018b46cbe", "type": "electric_scooter", "is_disabled": 0, "lat": 38.91236216666667, "rental_uris": {"ios": "https://dc.lft.to/lastmile_qr_scan", "android": "https://dc.lft.to/lastmile_qr_scan"}, "is_reserved": 0, "fusion_lon": 0.0, "fusion_lat": 0.0, "lon": -77.02219616666666, "name": "60f0d4d1ba5b5fc1bb1b1a9018b46cbe"}, {"bike_id": "4db7dd9e3ef940b48c6932eafa3305cd", "type": "electric_scooter", "is_disabled": 0, "lat": 38.91379416666667, "rental_uris": {"ios": "https://dc.lft.to/lastmile_qr_scan", "android": "https://dc.lft.to/lastmile_qr_scan"}, "is_reserved": 0, "fusion_lon": 0.0, "fusion_lat": 0.0, "lon": -77.04135983333333, "name": "4db7dd9e3ef940b48c6932eafa3305cd"}, {"bike_id": "34a550f4ee90826ba8bbe260e7a82c6d", "type": "electric_scooter", "is_disabled": 0, "lat": 38.9429285, "rental_uris": {"ios": "https://dc.lft.to/lastmile_qr_scan", "android": "https://dc.lft.to/lastmile_qr_scan"}, "is_reserved": 0, "fusion_lon": 0.0, "fusion_lat": 0.0, "lon": -77.02169483333333, "name": "34a550f4ee90826ba8bbe260e7a82c6d"}, {"bike_id": "38cac8ae7607621f7ac9b16b12021cef", "type": "electric_scooter", "is_disabled": 0, "lat": 38.9234185, "rental_uris": {"ios": "https://dc.lft.to/lastmile_qr_scan", "android": "https://dc.lft.to/lastmile_qr_scan"}, "is_reserved": 0, "fusion_lon": 0.0, "fusion_lat": 0.0, "lon": -77.036127, "name": "38cac8ae7607621f7ac9b16b12021cef"}, {"bike_id": "1d6e6756449607a8e43dda508b1d6a4a", "type": "electric_scooter", "is_disabled": 0, "lat": 38.8949865, "rental_uris": {"ios": "https://dc.lft.to/lastmile_qr_scan", "android": "https://dc.lft.to/lastmile_qr_scan"}, "is_reserved": 0, "fusion_lon": 0.0, "fusion_lat": 0.0, "lon": -77.01085266666666, "name": "1d6e6756449607a8e43dda508b1d6a4a"}, {"bike_id": "d68920b0a801554362bda6eb740fa7ea", "type": "electric_scooter", "is_disabled": 0, "lat": 38.940735, "rental_uris": {"ios": "https://dc.lft.to/lastmile_qr_scan", "android": "https://dc.lft.to/lastmile_qr_scan"}, "is_reserved": 0, "fusion_lon": 0.0, "fusion_lat": 0.0, "lon": -77.06110733333334, "name": "d68920b0a801554362bda6eb740fa7ea"}, {"bike_id": "2c2f88c10cf01218360efd696467619e", "type": "electric_scooter", "is_disabled": 0, "lat": 38.9183465, "rental_uris": {"ios": "https://dc.lft.to/lastmile_qr_scan", "android": "https://dc.lft.to/lastmile_qr_scan"}, "is_reserved": 0, "fusion_lon": 0.0, "fusion_lat": 0.0, "lon": -77.024535, "name": "2c2f88c10cf01218360efd696467619e"}, {"bike_id": "bb7fabd300542b155324d1018f8c95a6", "type": "electric_scooter", "is_disabled": 0, "lat": 38.947837166666666, "rental_uris": {"ios": "https://dc.lft.to/lastmile_qr_scan", "android": "https://dc.lft.to/lastmile_qr_scan"}, "is_reserved": 0, "fusion_lon": 0.0, "fusion_lat": 0.0, "lon": -77.0793605, "name": "bb7fabd300542b155324d1018f8c95a6"}, {"bike_id": "0ec7f96d88106cc51c5c067cbb1f501f", "type": "electric_scooter", "is_disabled": 0, "lat": 38.92333133333333, "rental_uris": {"ios": "https://dc.lft.to/lastmile_qr_scan", "android": "https://dc.lft.to/lastmile_qr_scan"}, "is_reserved": 0, "fusion_lon": 0.0, "fusion_lat": 0.0, "lon": -77.05367, "name": "0ec7f96d88106cc51c5c067cbb1f501f"}, {"bike_id": "07e3f41ea0b080186af5418dd621b0b4", "type": "electric_scooter", "is_disabled": 0, "lat": 38.9421175, "rental_uris": {"ios": "https://dc.lft.to/lastmile_qr_scan", "android": "https://dc.lft.to/lastmile_qr_scan"}, "is_reserved": 0, "fusion_lon": 0.0, "fusion_lat": 0.0, "lon": -77.02582383333333, "name": "07e3f41ea0b080186af5418dd621b0b4"}, {"bike_id": "c53796776fcfe0cb49aae05360454fc8", "type": "electric_scooter", "is_disabled": 0, "lat": 38.90733566666667, "rental_uris": {"ios": "https://dc.lft.to/lastmile_qr_scan", "android": "https://dc.lft.to/lastmile_qr_scan"}, "is_reserved": 0, "fusion_lon": 0.0, "fusion_lat": 0.0, "lon": -77.00935716666666, "name": "c53796776fcfe0cb49aae05360454fc8"}, {"bike_id": "23ca235bc4f09b6f7ab54da7059750cd", "type": "electric_scooter", "is_disabled": 0, "lat": 38.936955166666664, "rental_uris": {"ios": "https://dc.lft.to/lastmile_qr_scan", "android": "https://dc.lft.to/lastmile_qr_scan"}, "is_reserved": 0, "fusion_lon": 0.0, "fusion_lat": 0.0, "lon": -77.056645, "name": "23ca235bc4f09b6f7ab54da7059750cd"}, {"bike_id": "0a8d4aef626aa74b5d2d5cdba1d32c20", "type": "electric_bike", "is_disabled": 0, "lat": 39.056346833333336, "rental_uris": {"ios": "https://dc.lft.to/lastmile_qr_scan", "android": "https://dc.lft.to/lastmile_qr_scan"}, "is_reserved": 0, "fusion_lon": 0.0, "fusion_lat": 0.0, "lon": -77.125254, "name": "0a8d4aef626aa74b5d2d5cdba1d32c20"}, {"bike_id": "6d16922d178eef671cff4749a8d3c796", "type": "electric_scooter", "is_disabled": 0, "lat": 38.892298, "rental_uris": {"ios": "https://dc.lft.to/lastmile_qr_scan", "android": "https://dc.lft.to/lastmile_qr_scan"}, "is_reserved": 0, "fusion_lon": 0.0, "fusion_lat": 0.0, "lon": -77.0499155, "name": "6d16922d178eef671cff4749a8d3c796"}, {"bike_id": "4b867bed197e9b7dc6e8b8c8a865d76a", "type": "electric_scooter", "is_disabled": 0, "lat": 38.911169666666666, "rental_uris": {"ios": "https://dc.lft.to/lastmile_qr_scan", "android": "https://dc.lft.to/lastmile_qr_scan"}, "is_reserved": 0, "fusion_lon": 0.0, "fusion_lat": 0.0, "lon": -77.03246033333333, "name": "4b867bed197e9b7dc6e8b8c8a865d76a"}, {"bike_id": "91e855056d3cdebfa70c35fd2a6d3fa4", "type": "electric_scooter", "is_disabled": 0, "lat": 38.895, "rental_uris": {"ios": "https://dc.lft.to/lastmile_qr_scan", "android": "https://dc.lft.to/lastmile_qr_scan"}, "is_reserved": 0, "fusion_lon": 0.0, "fusion_lat": 0.0, "lon": -77.00214683333333, "name": "91e855056d3cdebfa70c35fd2a6d3fa4"}, {"bike_id": "be9d24aed5c3b9946970c5ba26e945be", "type": "electric_scooter", "is_disabled": 0, "lat": 38.910659, "rental_uris": {"ios": "https://dc.lft.to/lastmile_qr_scan", "android": "https://dc.lft.to/lastmile_qr_scan"}, "is_reserved": 0, "fusion_lon": 0.0, "fusion_lat": 0.0, "lon": -77.02602116666667, "name": "be9d24aed5c3b9946970c5ba26e945be"}, {"bike_id": "ff482d4531f38bde02e939674e8aa97c", "type": "electric_scooter", "is_disabled": 0, "lat": 38.91179533333333, "rental_uris": {"ios": "https://dc.lft.to/lastmile_qr_scan", "android": "https://dc.lft.to/lastmile_qr_scan"}, "is_reserved": 0, "fusion_lon": 0.0, "fusion_lat": 0.0, "lon": -77.0021105, "name": "ff482d4531f38bde02e939674e8aa97c"}, {"bike_id": "9ed641909700eda30fa0c518e14419e1", "type": "electric_scooter", "is_disabled": 0, "lat": 38.905726666666666, "rental_uris": {"ios": "https://dc.lft.to/lastmile_qr_scan", "android": "https://dc.lft.to/lastmile_qr_scan"}, "is_reserved": 0, "fusion_lon": 0.0, "fusion_lat": 0.0, "lon": -77.0057925, "name": "9ed641909700eda30fa0c518e14419e1"}, {"bike_id": "cae8adfee9f0a9adaec6192edb145af7", "type": "electric_scooter", "is_disabled": 0, "lat": 38.91509683333334, "rental_uris": {"ios": "https://dc.lft.to/lastmile_qr_scan", "android": "https://dc.lft.to/lastmile_qr_scan"}, "is_reserved": 0, "fusion_lon": 0.0, "fusion_lat": 0.0, "lon": -77.0218625, "name": "cae8adfee9f0a9adaec6192edb145af7"}, {"bike_id": "62746d579a6bb682fb53452d9a1d1640", "type": "electric_scooter", "is_disabled": 0, "lat": 38.88066666666667, "rental_uris": {"ios": "https://dc.lft.to/lastmile_qr_scan", "android": "https://dc.lft.to/lastmile_qr_scan"}, "is_reserved": 0, "fusion_lon": 0.0, "fusion_lat": 0.0, "lon": -76.93216716666667, "name": "62746d579a6bb682fb53452d9a1d1640"}, {"bike_id": "d9a5d29d3655c1aa63e72a63c9190911", "type": "electric_scooter", "is_disabled": 0, "lat": 38.924864, "rental_uris": {"ios": "https://dc.lft.to/lastmile_qr_scan", "android": "https://dc.lft.to/lastmile_qr_scan"}, "is_reserved": 0, "fusion_lon": 0.0, "fusion_lat": 0.0, "lon": -77.052054, "name": "d9a5d29d3655c1aa63e72a63c9190911"}, {"bike_id": "d08db1a4bf77d0a6062bc5edc7ad0590", "type": "electric_scooter", "is_disabled": 0, "lat": 38.92799683333333, "rental_uris": {"ios": "https://dc.lft.to/lastmile_qr_scan", "android": "https://dc.lft.to/lastmile_qr_scan"}, "is_reserved": 0, "fusion_lon": 0.0, "fusion_lat": 0.0, "lon": -77.02359533333333, "name": "d08db1a4bf77d0a6062bc5edc7ad0590"}, {"bike_id": "4eca181c90e066e0d82a7b3112fda4d6", "type": "electric_bike", "is_disabled": 0, "lat": 38.879836, "rental_uris": {"ios": "https://dc.lft.to/lastmile_qr_scan", "android": "https://dc.lft.to/lastmile_qr_scan"}, "is_reserved": 0, "fusion_lon": 0.0, "fusion_lat": 0.0, "lon": -76.91596716666666, "name": "4eca181c90e066e0d82a7b3112fda4d6"}, {"bike_id": "fcea1915652eeb68e552acfc1d5e16ac", "type": "electric_scooter", "is_disabled": 0, "lat": 38.916621166666665, "rental_uris": {"ios": "https://dc.lft.to/lastmile_qr_scan", "android": "https://dc.lft.to/lastmile_qr_scan"}, "is_reserved": 0, "fusion_lon": 0.0, "fusion_lat": 0.0, "lon": -77.028886, "name": "fcea1915652eeb68e552acfc1d5e16ac"}, {"bike_id": "e5ee4ff84b083a3314fb2d692ac30e4f", "type": "electric_scooter", "is_disabled": 0, "lat": 38.88745633333333, "rental_uris": {"ios": "https://dc.lft.to/lastmile_qr_scan", "android": "https://dc.lft.to/lastmile_qr_scan"}, "is_reserved": 0, "fusion_lon": 0.0, "fusion_lat": 0.0, "lon": -76.99625916666666, "name": "e5ee4ff84b083a3314fb2d692ac30e4f"}, {"bike_id": "859feba452235a4859f8ce1e11a6355c", "type": "electric_scooter", "is_disabled": 0, "lat": 38.88855383333333, "rental_uris": {"ios": "https://dc.lft.to/lastmile_qr_scan", "android": "https://dc.lft.to/lastmile_qr_scan"}, "is_reserved": 0, "fusion_lon": 0.0, "fusion_lat": 0.0, "lon": -77.00049716666666, "name": "859feba452235a4859f8ce1e11a6355c"}, {"bike_id": "9e85fd1821a5cc1e0cfb2d23291c9793", "type": "electric_scooter", "is_disabled": 0, "lat": 38.91905083333333, "rental_uris": {"ios": "https://dc.lft.to/lastmile_qr_scan", "android": "https://dc.lft.to/lastmile_qr_scan"}, "is_reserved": 0, "fusion_lon": 0.0, "fusion_lat": 0.0, "lon": -77.07080183333333, "name": "9e85fd1821a5cc1e0cfb2d23291c9793"}, {"bike_id": "62d1d6fedcf13da603775c332853015b", "type": "electric_scooter", "is_disabled": 0, "lat": 38.91870483333334, "rental_uris": {"ios": "https://dc.lft.to/lastmile_qr_scan", "android": "https://dc.lft.to/lastmile_qr_scan"}, "is_reserved": 0, "fusion_lon": 0.0, "fusion_lat": 0.0, "lon": -77.04757533333333, "name": "62d1d6fedcf13da603775c332853015b"}, {"bike_id": "f5ec95c10d85f38dc15222cf1d427b8f", "type": "electric_scooter", "is_disabled": 0, "lat": 38.897474833333334, "rental_uris": {"ios": "https://dc.lft.to/lastmile_qr_scan", "android": "https://dc.lft.to/lastmile_qr_scan"}, "is_reserved": 0, "fusion_lon": 0.0, "fusion_lat": 0.0, "lon": -76.99386516666667, "name": "f5ec95c10d85f38dc15222cf1d427b8f"}, {"bike_id": "55812052c246e4b5f427358327995265", "type": "electric_scooter", "is_disabled": 0, "lat": 38.89844466666667, "rental_uris": {"ios": "https://dc.lft.to/lastmile_qr_scan", "android": "https://dc.lft.to/lastmile_qr_scan"}, "is_reserved": 0, "fusion_lon": 0.0, "fusion_lat": 0.0, "lon": -76.94631133333333, "name": "55812052c246e4b5f427358327995265"}, {"bike_id": "8d47c9342c2081c532b519b19e43e5eb", "type": "electric_scooter", "is_disabled": 0, "lat": 38.90273216666667, "rental_uris": {"ios": "https://dc.lft.to/lastmile_qr_scan", "android": "https://dc.lft.to/lastmile_qr_scan"}, "is_reserved": 0, "fusion_lon": 0.0, "fusion_lat": 0.0, "lon": -77.03377383333333, "name": "8d47c9342c2081c532b519b19e43e5eb"}, {"bike_id": "a7d50628087dd0ae9eaaecd552af4324", "type": "electric_bike", "is_disabled": 0, "lat": 38.8151495, "rental_uris": {"ios": "https://dc.lft.to/lastmile_qr_scan", "android": "https://dc.lft.to/lastmile_qr_scan"}, "is_reserved": 0, "fusion_lon": 0.0, "fusion_lat": 0.0, "lon": -77.12648833333333, "name": "a7d50628087dd0ae9eaaecd552af4324"}, {"bike_id": "d7bd4ab8632358974996fb3fa51a414f", "type": "electric_scooter", "is_disabled": 0, "lat": 38.92453116666667, "rental_uris": {"ios": "https://dc.lft.to/lastmile_qr_scan", "android": "https://dc.lft.to/lastmile_qr_scan"}, "is_reserved": 0, "fusion_lon": 0.0, "fusion_lat": 0.0, "lon": -77.033361, "name": "d7bd4ab8632358974996fb3fa51a414f"}, {"bike_id": "b9f42a9d5828edb8da0a71bfcf70d7dc", "type": "electric_scooter", "is_disabled": 0, "lat": 38.9223395, "rental_uris": {"ios": "https://dc.lft.to/lastmile_qr_scan", "android": "https://dc.lft.to/lastmile_qr_scan"}, "is_reserved": 0, "fusion_lon": 0.0, "fusion_lat": 0.0, "lon": -76.9734255, "name": "b9f42a9d5828edb8da0a71bfcf70d7dc"}, {"bike_id": "9921202b67ae7425dbcabc201cc2524b", "type": "electric_bike", "is_disabled": 0, "lat": 38.79605516666667, "rental_uris": {"ios": "https://dc.lft.to/lastmile_qr_scan", "android": "https://dc.lft.to/lastmile_qr_scan"}, "is_reserved": 0, "fusion_lon": 0.0, "fusion_lat": 0.0, "lon": -76.997378, "name": "9921202b67ae7425dbcabc201cc2524b"}, {"bike_id": "81c5e8153c48aab9da0f05aa3be49274", "type": "electric_scooter", "is_disabled": 0, "lat": 38.92332283333333, "rental_uris": {"ios": "https://dc.lft.to/lastmile_qr_scan", "android": "https://dc.lft.to/lastmile_qr_scan"}, "is_reserved": 0, "fusion_lon": 0.0, "fusion_lat": 0.0, "lon": -77.0542, "name": "81c5e8153c48aab9da0f05aa3be49274"}, {"bike_id": "b5aa61d0ebbc57b214629a4546bf1832", "type": "electric_scooter", "is_disabled": 0, "lat": 38.9048055, "rental_uris": {"ios": "https://dc.lft.to/lastmile_qr_scan", "android": "https://dc.lft.to/lastmile_qr_scan"}, "is_reserved": 0, "fusion_lon": 0.0, "fusion_lat": 0.0, "lon": -77.06105283333333, "name": "b5aa61d0ebbc57b214629a4546bf1832"}, {"bike_id": "fc9491f73db1d1b3a639be5a94d26499", "type": "electric_scooter", "is_disabled": 0, "lat": 38.922320666666664, "rental_uris": {"ios": "https://dc.lft.to/lastmile_qr_scan", "android": "https://dc.lft.to/lastmile_qr_scan"}, "is_reserved": 0, "fusion_lon": 0.0, "fusion_lat": 0.0, "lon": -76.97343133333334, "name": "fc9491f73db1d1b3a639be5a94d26499"}, {"bike_id": "e32b4f291c81bfd11b26808bca93ad19", "type": "electric_bike", "is_disabled": 0, "lat": 38.81170633333333, "rental_uris": {"ios": "https://dc.lft.to/lastmile_qr_scan", "android": "https://dc.lft.to/lastmile_qr_scan"}, "is_reserved": 0, "fusion_lon": 0.0, "fusion_lat": 0.0, "lon": -77.0696185, "name": "e32b4f291c81bfd11b26808bca93ad19"}, {"bike_id": "42188085b765277c46ff3236c59284ba", "type": "electric_bike", "is_disabled": 0, "lat": 38.899985, "rental_uris": {"ios": "https://dc.lft.to/lastmile_qr_scan", "android": "https://dc.lft.to/lastmile_qr_scan"}, "is_reserved": 0, "fusion_lon": 0.0, "fusion_lat": 0.0, "lon": -77.07544883333334, "name": "42188085b765277c46ff3236c59284ba"}, {"bike_id": "37ae7c9581ad89bb3c6be01fdeca93fb", "type": "electric_scooter", "is_disabled": 0, "lat": 38.922895, "rental_uris": {"ios": "https://dc.lft.to/lastmile_qr_scan", "android": "https://dc.lft.to/lastmile_qr_scan"}, "is_reserved": 0, "fusion_lon": 0.0, "fusion_lat": 0.0, "lon": -76.99448833333334, "name": "37ae7c9581ad89bb3c6be01fdeca93fb"}, {"bike_id": "2371fc321067904a7865a5ee2ccd94b5", "type": "electric_scooter", "is_disabled": 0, "lat": 38.92252, "rental_uris": {"ios": "https://dc.lft.to/lastmile_qr_scan", "android": "https://dc.lft.to/lastmile_qr_scan"}, "is_reserved": 0, "fusion_lon": 0.0, "fusion_lat": 0.0, "lon": -77.039079, "name": "2371fc321067904a7865a5ee2ccd94b5"}, {"bike_id": "884c55d924058367090a8b94a7692436", "type": "electric_scooter", "is_disabled": 0, "lat": 38.905533166666665, "rental_uris": {"ios": "https://dc.lft.to/lastmile_qr_scan", "android": "https://dc.lft.to/lastmile_qr_scan"}, "is_reserved": 0, "fusion_lon": 0.0, "fusion_lat": 0.0, "lon": -76.99619033333333, "name": "884c55d924058367090a8b94a7692436"}, {"bike_id": "c464a2206056f6db815699451d865a2f", "type": "electric_scooter", "is_disabled": 0, "lat": 38.919742, "rental_uris": {"ios": "https://dc.lft.to/lastmile_qr_scan", "android": "https://dc.lft.to/lastmile_qr_scan"}, "is_reserved": 0, "fusion_lon": 0.0, "fusion_lat": 0.0, "lon": -77.042219, "name": "c464a2206056f6db815699451d865a2f"}, {"bike_id": "ccc802a3861c763e0129e41c09a25bd2", "type": "electric_scooter", "is_disabled": 0, "lat": 38.92486933333333, "rental_uris": {"ios": "https://dc.lft.to/lastmile_qr_scan", "android": "https://dc.lft.to/lastmile_qr_scan"}, "is_reserved": 0, "fusion_lon": 0.0, "fusion_lat": 0.0, "lon": -77.052081, "name": "ccc802a3861c763e0129e41c09a25bd2"}, {"bike_id": "66cf34c7f777d8efdbc78c5c851bf058", "type": "electric_scooter", "is_disabled": 0, "lat": 38.926560333333335, "rental_uris": {"ios": "https://dc.lft.to/lastmile_qr_scan", "android": "https://dc.lft.to/lastmile_qr_scan"}, "is_reserved": 0, "fusion_lon": 0.0, "fusion_lat": 0.0, "lon": -77.02450333333333, "name": "66cf34c7f777d8efdbc78c5c851bf058"}, {"bike_id": "9b0610a17f48607434806944b24519c8", "type": "electric_scooter", "is_disabled": 0, "lat": 38.8842355, "rental_uris": {"ios": "https://dc.lft.to/lastmile_qr_scan", "android": "https://dc.lft.to/lastmile_qr_scan"}, "is_reserved": 0, "fusion_lon": 0.0, "fusion_lat": 0.0, "lon": -76.9574015, "name": "9b0610a17f48607434806944b24519c8"}, {"bike_id": "f7e8e130b8e5a4a6d0e2a907724ae4a5", "type": "electric_bike", "is_disabled": 0, "lat": 38.8041385, "rental_uris": {"ios": "https://dc.lft.to/lastmile_qr_scan", "android": "https://dc.lft.to/lastmile_qr_scan"}, "is_reserved": 0, "fusion_lon": 0.0, "fusion_lat": 0.0, "lon": -77.05554533333333, "name": "f7e8e130b8e5a4a6d0e2a907724ae4a5"}, {"bike_id": "5110bc88e8e9762253aa903a815b9c0e", "type": "electric_scooter", "is_disabled": 0, "lat": 38.905877833333335, "rental_uris": {"ios": "https://dc.lft.to/lastmile_qr_scan", "android": "https://dc.lft.to/lastmile_qr_scan"}, "is_reserved": 0, "fusion_lon": 0.0, "fusion_lat": 0.0, "lon": -77.005765, "name": "5110bc88e8e9762253aa903a815b9c0e"}, {"bike_id": "f81d7436302e688f83aee1e05408f142", "type": "electric_bike", "is_disabled": 0, "lat": 38.89041683333333, "rental_uris": {"ios": "https://dc.lft.to/lastmile_qr_scan", "android": "https://dc.lft.to/lastmile_qr_scan"}, "is_reserved": 0, "fusion_lon": 0.0, "fusion_lat": 0.0, "lon": -77.08625633333334, "name": "f81d7436302e688f83aee1e05408f142"}, {"bike_id": "51cdde971d173395495c80fe1cf5add8", "type": "electric_bike", "is_disabled": 0, "lat": 38.953324, "rental_uris": {"ios": "https://dc.lft.to/lastmile_qr_scan", "android": "https://dc.lft.to/lastmile_qr_scan"}, "is_reserved": 0, "fusion_lon": 0.0, "fusion_lat": 0.0, "lon": -76.98248816666667, "name": "51cdde971d173395495c80fe1cf5add8"}, {"bike_id": "552c986528daf79d0f3f5a89b182aa19", "type": "electric_bike", "is_disabled": 0, "lat": 38.877303833333336, "rental_uris": {"ios": "https://dc.lft.to/lastmile_qr_scan", "android": "https://dc.lft.to/lastmile_qr_scan"}, "is_reserved": 0, "fusion_lon": 0.0, "fusion_lat": 0.0, "lon": -77.0035315, "name": "552c986528daf79d0f3f5a89b182aa19"}, {"bike_id": "759fea343ed41b677878fd5e159334a2", "type": "electric_scooter", "is_disabled": 0, "lat": 38.90720183333333, "rental_uris": {"ios": "https://dc.lft.to/lastmile_qr_scan", "android": "https://dc.lft.to/lastmile_qr_scan"}, "is_reserved": 0, "fusion_lon": 0.0, "fusion_lat": 0.0, "lon": -77.01019933333333, "name": "759fea343ed41b677878fd5e159334a2"}, {"bike_id": "4f3ba62e32b20816670d014b0f9e9880", "type": "electric_bike", "is_disabled": 0, "lat": 38.945133166666665, "rental_uris": {"ios": "https://dc.lft.to/lastmile_qr_scan", "android": "https://dc.lft.to/lastmile_qr_scan"}, "is_reserved": 0, "fusion_lon": 0.0, "fusion_lat": 0.0, "lon": -77.00669083333334, "name": "4f3ba62e32b20816670d014b0f9e9880"}, {"bike_id": "7a87e2fa2774f8f472cf6fcb47ef266c", "type": "electric_bike", "is_disabled": 0, "lat": 38.82954816666667, "rental_uris": {"ios": "https://dc.lft.to/lastmile_qr_scan", "android": "https://dc.lft.to/lastmile_qr_scan"}, "is_reserved": 0, "fusion_lon": 0.0, "fusion_lat": 0.0, "lon": -77.123534, "name": "7a87e2fa2774f8f472cf6fcb47ef266c"}, {"bike_id": "1ebdad19b31598f8b3b55ab6f0052966", "type": "electric_scooter", "is_disabled": 0, "lat": 38.86699683333333, "rental_uris": {"ios": "https://dc.lft.to/lastmile_qr_scan", "android": "https://dc.lft.to/lastmile_qr_scan"}, "is_reserved": 0, "fusion_lon": 0.0, "fusion_lat": 0.0, "lon": -76.9871165, "name": "1ebdad19b31598f8b3b55ab6f0052966"}, {"bike_id": "3b2acac5ea9a3a80fce572ed5b2fa654", "type": "electric_scooter", "is_disabled": 0, "lat": 38.94227583333333, "rental_uris": {"ios": "https://dc.lft.to/lastmile_qr_scan", "android": "https://dc.lft.to/lastmile_qr_scan"}, "is_reserved": 0, "fusion_lon": 0.0, "fusion_lat": 0.0, "lon": -77.01436133333333, "name": "3b2acac5ea9a3a80fce572ed5b2fa654"}, {"bike_id": "3ac51798b8637a03b73da9f6cd64186c", "type": "electric_scooter", "is_disabled": 0, "lat": 38.86204583333333, "rental_uris": {"ios": "https://dc.lft.to/lastmile_qr_scan", "android": "https://dc.lft.to/lastmile_qr_scan"}, "is_reserved": 0, "fusion_lon": 0.0, "fusion_lat": 0.0, "lon": -76.99463366666667, "name": "3ac51798b8637a03b73da9f6cd64186c"}, {"bike_id": "2bda2136a8b3b60b61c5ed8889a17edb", "type": "electric_scooter", "is_disabled": 0, "lat": 38.9472045, "rental_uris": {"ios": "https://dc.lft.to/lastmile_qr_scan", "android": "https://dc.lft.to/lastmile_qr_scan"}, "is_reserved": 0, "fusion_lon": 0.0, "fusion_lat": 0.0, "lon": -77.02776716666666, "name": "2bda2136a8b3b60b61c5ed8889a17edb"}, {"bike_id": "15c6cc786073ecaef6d1a25215623ef9", "type": "electric_scooter", "is_disabled": 0, "lat": 38.899272333333336, "rental_uris": {"ios": "https://dc.lft.to/lastmile_qr_scan", "android": "https://dc.lft.to/lastmile_qr_scan"}, "is_reserved": 0, "fusion_lon": 0.0, "fusion_lat": 0.0, "lon": -77.00362333333334, "name": "15c6cc786073ecaef6d1a25215623ef9"}, {"bike_id": "995da9e78cdb2ef76bb478213f1e961c", "type": "electric_scooter", "is_disabled": 0, "lat": 38.8575615, "rental_uris": {"ios": "https://dc.lft.to/lastmile_qr_scan", "android": "https://dc.lft.to/lastmile_qr_scan"}, "is_reserved": 0, "fusion_lon": 0.0, "fusion_lat": 0.0, "lon": -76.99306, "name": "995da9e78cdb2ef76bb478213f1e961c"}, {"bike_id": "b5ad9c6c7b8d3408169223007c4c4ce1", "type": "electric_scooter", "is_disabled": 0, "lat": 38.93818666666667, "rental_uris": {"ios": "https://dc.lft.to/lastmile_qr_scan", "android": "https://dc.lft.to/lastmile_qr_scan"}, "is_reserved": 0, "fusion_lon": 0.0, "fusion_lat": 0.0, "lon": -77.02711, "name": "b5ad9c6c7b8d3408169223007c4c4ce1"}, {"bike_id": "9bff772c30bb1b15c2b05bfaf5239822", "type": "electric_scooter", "is_disabled": 0, "lat": 38.89482683333333, "rental_uris": {"ios": "https://dc.lft.to/lastmile_qr_scan", "android": "https://dc.lft.to/lastmile_qr_scan"}, "is_reserved": 0, "fusion_lon": 0.0, "fusion_lat": 0.0, "lon": -76.99513383333333, "name": "9bff772c30bb1b15c2b05bfaf5239822"}, {"bike_id": "3d0b00c08ae0130c3700f4a570b1bfe3", "type": "electric_scooter", "is_disabled": 0, "lat": 38.92359533333333, "rental_uris": {"ios": "https://dc.lft.to/lastmile_qr_scan", "android": "https://dc.lft.to/lastmile_qr_scan"}, "is_reserved": 0, "fusion_lon": 0.0, "fusion_lat": 0.0, "lon": -77.03546266666666, "name": "3d0b00c08ae0130c3700f4a570b1bfe3"}, {"bike_id": "f05115a9b0118fd87b8b2b5bdde1f45d", "type": "electric_scooter", "is_disabled": 0, "lat": 38.93136883333333, "rental_uris": {"ios": "https://dc.lft.to/lastmile_qr_scan", "android": "https://dc.lft.to/lastmile_qr_scan"}, "is_reserved": 0, "fusion_lon": 0.0, "fusion_lat": 0.0, "lon": -77.05730916666667, "name": "f05115a9b0118fd87b8b2b5bdde1f45d"}, {"bike_id": "cfa7f70173e3418ccc299b53ecf21f8e", "type": "electric_scooter", "is_disabled": 0, "lat": 38.922745, "rental_uris": {"ios": "https://dc.lft.to/lastmile_qr_scan", "android": "https://dc.lft.to/lastmile_qr_scan"}, "is_reserved": 0, "fusion_lon": 0.0, "fusion_lat": 0.0, "lon": -77.01878783333333, "name": "cfa7f70173e3418ccc299b53ecf21f8e"}, {"bike_id": "a3c5bd772ce5c0d680c18a65dd3d3052", "type": "electric_scooter", "is_disabled": 0, "lat": 38.93375733333333, "rental_uris": {"ios": "https://dc.lft.to/lastmile_qr_scan", "android": "https://dc.lft.to/lastmile_qr_scan"}, "is_reserved": 0, "fusion_lon": 0.0, "fusion_lat": 0.0, "lon": -77.05729383333333, "name": "a3c5bd772ce5c0d680c18a65dd3d3052"}, {"bike_id": "ca9cefd04bea30945ec26c68a94acf50", "type": "electric_scooter", "is_disabled": 0, "lat": 38.9052625, "rental_uris": {"ios": "https://dc.lft.to/lastmile_qr_scan", "android": "https://dc.lft.to/lastmile_qr_scan"}, "is_reserved": 0, "fusion_lon": 0.0, "fusion_lat": 0.0, "lon": -76.98622583333334, "name": "ca9cefd04bea30945ec26c68a94acf50"}, {"bike_id": "9d9358bf235f206a871553d4c22f1a9c", "type": "electric_scooter", "is_disabled": 0, "lat": 38.8623545, "rental_uris": {"ios": "https://dc.lft.to/lastmile_qr_scan", "android": "https://dc.lft.to/lastmile_qr_scan"}, "is_reserved": 0, "fusion_lon": 0.0, "fusion_lat": 0.0, "lon": -76.99508866666666, "name": "9d9358bf235f206a871553d4c22f1a9c"}, {"bike_id": "5b84fe2010c266dcac7912f463aeff1e", "type": "electric_bike", "is_disabled": 0, "lat": 38.90624666666667, "rental_uris": {"ios": "https://dc.lft.to/lastmile_qr_scan", "android": "https://dc.lft.to/lastmile_qr_scan"}, "is_reserved": 0, "fusion_lon": 0.0, "fusion_lat": 0.0, "lon": -76.98601016666667, "name": "5b84fe2010c266dcac7912f463aeff1e"}, {"bike_id": "f28e84319182263d64683f0ac7b887ae", "type": "electric_scooter", "is_disabled": 0, "lat": 38.921627666666666, "rental_uris": {"ios": "https://dc.lft.to/lastmile_qr_scan", "android": "https://dc.lft.to/lastmile_qr_scan"}, "is_reserved": 0, "fusion_lon": 0.0, "fusion_lat": 0.0, "lon": -77.03843283333333, "name": "f28e84319182263d64683f0ac7b887ae"}, {"bike_id": "ed3d1c1ec6642e8f73678395e405f619", "type": "electric_scooter", "is_disabled": 0, "lat": 38.9097295, "rental_uris": {"ios": "https://dc.lft.to/lastmile_qr_scan", "android": "https://dc.lft.to/lastmile_qr_scan"}, "is_reserved": 0, "fusion_lon": 0.0, "fusion_lat": 0.0, "lon": -77.02283033333333, "name": "ed3d1c1ec6642e8f73678395e405f619"}, {"bike_id": "529a5a1a4940473ab9ad5021f0fa307e", "type": "electric_scooter", "is_disabled": 0, "lat": 38.91691183333333, "rental_uris": {"ios": "https://dc.lft.to/lastmile_qr_scan", "android": "https://dc.lft.to/lastmile_qr_scan"}, "is_reserved": 0, "fusion_lon": 0.0, "fusion_lat": 0.0, "lon": -77.02602716666667, "name": "529a5a1a4940473ab9ad5021f0fa307e"}, {"bike_id": "1ea4ff91b7248b76c455949240a6f706", "type": "electric_scooter", "is_disabled": 0, "lat": 38.9193315, "rental_uris": {"ios": "https://dc.lft.to/lastmile_qr_scan", "android": "https://dc.lft.to/lastmile_qr_scan"}, "is_reserved": 0, "fusion_lon": 0.0, "fusion_lat": 0.0, "lon": -77.025684, "name": "1ea4ff91b7248b76c455949240a6f706"}, {"bike_id": "50f575362320fc61863f1bc3a0336665", "type": "electric_scooter", "is_disabled": 0, "lat": 38.920977, "rental_uris": {"ios": "https://dc.lft.to/lastmile_qr_scan", "android": "https://dc.lft.to/lastmile_qr_scan"}, "is_reserved": 0, "fusion_lon": 0.0, "fusion_lat": 0.0, "lon": -77.03179616666667, "name": "50f575362320fc61863f1bc3a0336665"}, {"bike_id": "ef5ec1418f3c7b31391c4f29e9e47f1d", "type": "electric_scooter", "is_disabled": 0, "lat": 38.880495, "rental_uris": {"ios": "https://dc.lft.to/lastmile_qr_scan", "android": "https://dc.lft.to/lastmile_qr_scan"}, "is_reserved": 0, "fusion_lon": 0.0, "fusion_lat": 0.0, "lon": -77.0054585, "name": "ef5ec1418f3c7b31391c4f29e9e47f1d"}, {"bike_id": "43ed41ce9be2a2b2a3fbe575376ccbcb", "type": "electric_scooter", "is_disabled": 0, "lat": 38.90224966666667, "rental_uris": {"ios": "https://dc.lft.to/lastmile_qr_scan", "android": "https://dc.lft.to/lastmile_qr_scan"}, "is_reserved": 0, "fusion_lon": 0.0, "fusion_lat": 0.0, "lon": -77.04126283333333, "name": "43ed41ce9be2a2b2a3fbe575376ccbcb"}, {"bike_id": "075970a20fe73851e7fe0ec2427ecb28", "type": "electric_scooter", "is_disabled": 0, "lat": 38.88703016666667, "rental_uris": {"ios": "https://dc.lft.to/lastmile_qr_scan", "android": "https://dc.lft.to/lastmile_qr_scan"}, "is_reserved": 0, "fusion_lon": 0.0, "fusion_lat": 0.0, "lon": -77.01373216666667, "name": "075970a20fe73851e7fe0ec2427ecb28"}, {"bike_id": "a916d101c0dd28615d2b6145cd1cce4b", "type": "electric_scooter", "is_disabled": 0, "lat": 38.892575, "rental_uris": {"ios": "https://dc.lft.to/lastmile_qr_scan", "android": "https://dc.lft.to/lastmile_qr_scan"}, "is_reserved": 0, "fusion_lon": 0.0, "fusion_lat": 0.0, "lon": -76.92569933333333, "name": "a916d101c0dd28615d2b6145cd1cce4b"}, {"bike_id": "15ec5b40a89fd920e7612e40cd0b24c8", "type": "electric_bike", "is_disabled": 0, "lat": 38.99306133333333, "rental_uris": {"ios": "https://dc.lft.to/lastmile_qr_scan", "android": "https://dc.lft.to/lastmile_qr_scan"}, "is_reserved": 0, "fusion_lon": 0.0, "fusion_lat": 0.0, "lon": -77.025097, "name": "15ec5b40a89fd920e7612e40cd0b24c8"}, {"bike_id": "e05eff1ac6682c87c2249b5945580a3c", "type": "electric_scooter", "is_disabled": 0, "lat": 38.864397333333336, "rental_uris": {"ios": "https://dc.lft.to/lastmile_qr_scan", "android": "https://dc.lft.to/lastmile_qr_scan"}, "is_reserved": 0, "fusion_lon": 0.0, "fusion_lat": 0.0, "lon": -76.97993683333334, "name": "e05eff1ac6682c87c2249b5945580a3c"}, {"bike_id": "de9a1e5ea92e8ae2894869f312c2c79b", "type": "electric_scooter", "is_disabled": 0, "lat": 38.923239333333335, "rental_uris": {"ios": "https://dc.lft.to/lastmile_qr_scan", "android": "https://dc.lft.to/lastmile_qr_scan"}, "is_reserved": 0, "fusion_lon": 0.0, "fusion_lat": 0.0, "lon": -77.03901, "name": "de9a1e5ea92e8ae2894869f312c2c79b"}, {"bike_id": "c9220de365e0ba63d34f7d42a469b99f", "type": "electric_scooter", "is_disabled": 0, "lat": 38.921588, "rental_uris": {"ios": "https://dc.lft.to/lastmile_qr_scan", "android": "https://dc.lft.to/lastmile_qr_scan"}, "is_reserved": 0, "fusion_lon": 0.0, "fusion_lat": 0.0, "lon": -77.03377783333333, "name": "c9220de365e0ba63d34f7d42a469b99f"}, {"bike_id": "346f7365645b7baaf6fad8cc73b94421", "type": "electric_scooter", "is_disabled": 0, "lat": 38.95664033333333, "rental_uris": {"ios": "https://dc.lft.to/lastmile_qr_scan", "android": "https://dc.lft.to/lastmile_qr_scan"}, "is_reserved": 0, "fusion_lon": 0.0, "fusion_lat": 0.0, "lon": -77.02398733333334, "name": "346f7365645b7baaf6fad8cc73b94421"}, {"bike_id": "a2e129acc9a33c9c5afbbd64caf12dcc", "type": "electric_scooter", "is_disabled": 0, "lat": 38.924243833333335, "rental_uris": {"ios": "https://dc.lft.to/lastmile_qr_scan", "android": "https://dc.lft.to/lastmile_qr_scan"}, "is_reserved": 0, "fusion_lon": 0.0, "fusion_lat": 0.0, "lon": -77.0226185, "name": "a2e129acc9a33c9c5afbbd64caf12dcc"}, {"bike_id": "63288408d1b4ab9f22f0b396b71b1ffd", "type": "electric_scooter", "is_disabled": 0, "lat": 38.90723666666667, "rental_uris": {"ios": "https://dc.lft.to/lastmile_qr_scan", "android": "https://dc.lft.to/lastmile_qr_scan"}, "is_reserved": 0, "fusion_lon": 0.0, "fusion_lat": 0.0, "lon": -77.03436966666666, "name": "63288408d1b4ab9f22f0b396b71b1ffd"}, {"bike_id": "87639cb05c40b10dd5b8a91cab010280", "type": "electric_scooter", "is_disabled": 0, "lat": 38.917395, "rental_uris": {"ios": "https://dc.lft.to/lastmile_qr_scan", "android": "https://dc.lft.to/lastmile_qr_scan"}, "is_reserved": 0, "fusion_lon": 0.0, "fusion_lat": 0.0, "lon": -77.02603683333334, "name": "87639cb05c40b10dd5b8a91cab010280"}, {"bike_id": "c37cb5b9e6c036275b513fce26e874b5", "type": "electric_scooter", "is_disabled": 0, "lat": 38.838277166666664, "rental_uris": {"ios": "https://dc.lft.to/lastmile_qr_scan", "android": "https://dc.lft.to/lastmile_qr_scan"}, "is_reserved": 0, "fusion_lon": 0.0, "fusion_lat": 0.0, "lon": -77.00269483333334, "name": "c37cb5b9e6c036275b513fce26e874b5"}, {"bike_id": "91cc0c3dabef1a4b907a6263150e210e", "type": "electric_scooter", "is_disabled": 0, "lat": 38.914882166666665, "rental_uris": {"ios": "https://dc.lft.to/lastmile_qr_scan", "android": "https://dc.lft.to/lastmile_qr_scan"}, "is_reserved": 0, "fusion_lon": 0.0, "fusion_lat": 0.0, "lon": -76.98566216666667, "name": "91cc0c3dabef1a4b907a6263150e210e"}, {"bike_id": "a9abe186f9cc3cd05a29dd3c1ca1a446", "type": "electric_scooter", "is_disabled": 0, "lat": 38.90477833333333, "rental_uris": {"ios": "https://dc.lft.to/lastmile_qr_scan", "android": "https://dc.lft.to/lastmile_qr_scan"}, "is_reserved": 0, "fusion_lon": 0.0, "fusion_lat": 0.0, "lon": -77.00729066666666, "name": "a9abe186f9cc3cd05a29dd3c1ca1a446"}, {"bike_id": "a7229098f97a8bba8928a5ebdf29e436", "type": "electric_scooter", "is_disabled": 0, "lat": 38.9072075, "rental_uris": {"ios": "https://dc.lft.to/lastmile_qr_scan", "android": "https://dc.lft.to/lastmile_qr_scan"}, "is_reserved": 0, "fusion_lon": 0.0, "fusion_lat": 0.0, "lon": -77.03435933333333, "name": "a7229098f97a8bba8928a5ebdf29e436"}, {"bike_id": "ed61efbc7d20903ced6b1ae01eaf1f88", "type": "electric_scooter", "is_disabled": 0, "lat": 38.92156083333333, "rental_uris": {"ios": "https://dc.lft.to/lastmile_qr_scan", "android": "https://dc.lft.to/lastmile_qr_scan"}, "is_reserved": 0, "fusion_lon": 0.0, "fusion_lat": 0.0, "lon": -77.03314916666666, "name": "ed61efbc7d20903ced6b1ae01eaf1f88"}, {"bike_id": "c725289b0784e3ca5700aae4a0e53183", "type": "electric_scooter", "is_disabled": 0, "lat": 38.9225435, "rental_uris": {"ios": "https://dc.lft.to/lastmile_qr_scan", "android": "https://dc.lft.to/lastmile_qr_scan"}, "is_reserved": 0, "fusion_lon": 0.0, "fusion_lat": 0.0, "lon": -77.028326, "name": "c725289b0784e3ca5700aae4a0e53183"}, {"bike_id": "fe1c84f1d445ff9e2cdadcede132fd0d", "type": "electric_scooter", "is_disabled": 0, "lat": 38.89998383333333, "rental_uris": {"ios": "https://dc.lft.to/lastmile_qr_scan", "android": "https://dc.lft.to/lastmile_qr_scan"}, "is_reserved": 0, "fusion_lon": 0.0, "fusion_lat": 0.0, "lon": -77.010101, "name": "fe1c84f1d445ff9e2cdadcede132fd0d"}, {"bike_id": "9222bf907c62f1edb721f18aa14b39ef", "type": "electric_scooter", "is_disabled": 0, "lat": 38.9025135, "rental_uris": {"ios": "https://dc.lft.to/lastmile_qr_scan", "android": "https://dc.lft.to/lastmile_qr_scan"}, "is_reserved": 0, "fusion_lon": 0.0, "fusion_lat": 0.0, "lon": -76.98668083333334, "name": "9222bf907c62f1edb721f18aa14b39ef"}, {"bike_id": "35fd142a1fdb53cdf8b112f4735e2b2e", "type": "electric_scooter", "is_disabled": 0, "lat": 38.89678116666666, "rental_uris": {"ios": "https://dc.lft.to/lastmile_qr_scan", "android": "https://dc.lft.to/lastmile_qr_scan"}, "is_reserved": 0, "fusion_lon": 0.0, "fusion_lat": 0.0, "lon": -77.02386583333333, "name": "35fd142a1fdb53cdf8b112f4735e2b2e"}, {"bike_id": "5a1631e12a4492785716feb0522367a1", "type": "electric_scooter", "is_disabled": 0, "lat": 38.886, "rental_uris": {"ios": "https://dc.lft.to/lastmile_qr_scan", "android": "https://dc.lft.to/lastmile_qr_scan"}, "is_reserved": 0, "fusion_lon": 0.0, "fusion_lat": 0.0, "lon": -77.028351, "name": "5a1631e12a4492785716feb0522367a1"}, {"bike_id": "61a17d44e03ce9ae7f7890cf2556b95f", "type": "electric_scooter", "is_disabled": 0, "lat": 38.87869283333333, "rental_uris": {"ios": "https://dc.lft.to/lastmile_qr_scan", "android": "https://dc.lft.to/lastmile_qr_scan"}, "is_reserved": 0, "fusion_lon": 0.0, "fusion_lat": 0.0, "lon": -76.96981366666667, "name": "61a17d44e03ce9ae7f7890cf2556b95f"}, {"bike_id": "053b08e411a4fe1eb958e79d8aaa7318", "type": "electric_scooter", "is_disabled": 0, "lat": 38.8531685, "rental_uris": {"ios": "https://dc.lft.to/lastmile_qr_scan", "android": "https://dc.lft.to/lastmile_qr_scan"}, "is_reserved": 0, "fusion_lon": 0.0, "fusion_lat": 0.0, "lon": -76.980049, "name": "053b08e411a4fe1eb958e79d8aaa7318"}, {"bike_id": "887344cb9376b537a4748f716e76b822", "type": "electric_scooter", "is_disabled": 0, "lat": 38.9150515, "rental_uris": {"ios": "https://dc.lft.to/lastmile_qr_scan", "android": "https://dc.lft.to/lastmile_qr_scan"}, "is_reserved": 0, "fusion_lon": 0.0, "fusion_lat": 0.0, "lon": -77.0092235, "name": "887344cb9376b537a4748f716e76b822"}, {"bike_id": "021cfeca7cc7fea073ab8dd0b21a9a20", "type": "electric_scooter", "is_disabled": 0, "lat": 38.888481166666665, "rental_uris": {"ios": "https://dc.lft.to/lastmile_qr_scan", "android": "https://dc.lft.to/lastmile_qr_scan"}, "is_reserved": 0, "fusion_lon": 0.0, "fusion_lat": 0.0, "lon": -76.92676683333333, "name": "021cfeca7cc7fea073ab8dd0b21a9a20"}, {"bike_id": "3d2c01c7a6777175c9e1ea584d6c1ad3", "type": "electric_scooter", "is_disabled": 0, "lat": 38.91250433333333, "rental_uris": {"ios": "https://dc.lft.to/lastmile_qr_scan", "android": "https://dc.lft.to/lastmile_qr_scan"}, "is_reserved": 0, "fusion_lon": 0.0, "fusion_lat": 0.0, "lon": -77.03755066666666, "name": "3d2c01c7a6777175c9e1ea584d6c1ad3"}, {"bike_id": "9f680e1cf05f483573790756448de4cd", "type": "electric_scooter", "is_disabled": 0, "lat": 38.8668345, "rental_uris": {"ios": "https://dc.lft.to/lastmile_qr_scan", "android": "https://dc.lft.to/lastmile_qr_scan"}, "is_reserved": 0, "fusion_lon": 0.0, "fusion_lat": 0.0, "lon": -76.98584816666667, "name": "9f680e1cf05f483573790756448de4cd"}, {"bike_id": "88a1163c4739523b48ec0ab21f1cd540", "type": "electric_scooter", "is_disabled": 0, "lat": 38.915786833333335, "rental_uris": {"ios": "https://dc.lft.to/lastmile_qr_scan", "android": "https://dc.lft.to/lastmile_qr_scan"}, "is_reserved": 0, "fusion_lon": 0.0, "fusion_lat": 0.0, "lon": -77.02052366666666, "name": "88a1163c4739523b48ec0ab21f1cd540"}, {"bike_id": "c220662de480cacf941218e51068f51c", "type": "electric_scooter", "is_disabled": 0, "lat": 38.874227833333336, "rental_uris": {"ios": "https://dc.lft.to/lastmile_qr_scan", "android": "https://dc.lft.to/lastmile_qr_scan"}, "is_reserved": 0, "fusion_lon": 0.0, "fusion_lat": 0.0, "lon": -76.96909033333333, "name": "c220662de480cacf941218e51068f51c"}, {"bike_id": "6427cfabcf6730f77a3df997284503b8", "type": "electric_scooter", "is_disabled": 0, "lat": 38.902394, "rental_uris": {"ios": "https://dc.lft.to/lastmile_qr_scan", "android": "https://dc.lft.to/lastmile_qr_scan"}, "is_reserved": 0, "fusion_lon": 0.0, "fusion_lat": 0.0, "lon": -77.04327166666667, "name": "6427cfabcf6730f77a3df997284503b8"}, {"bike_id": "88ec24c04c15efd62380cf0668b2e613", "type": "electric_scooter", "is_disabled": 0, "lat": 38.92909566666667, "rental_uris": {"ios": "https://dc.lft.to/lastmile_qr_scan", "android": "https://dc.lft.to/lastmile_qr_scan"}, "is_reserved": 0, "fusion_lon": 0.0, "fusion_lat": 0.0, "lon": -77.0208135, "name": "88ec24c04c15efd62380cf0668b2e613"}, {"bike_id": "37afdfec69947a107f1f88c3067a6ec4", "type": "electric_scooter", "is_disabled": 0, "lat": 38.9163615, "rental_uris": {"ios": "https://dc.lft.to/lastmile_qr_scan", "android": "https://dc.lft.to/lastmile_qr_scan"}, "is_reserved": 0, "fusion_lon": 0.0, "fusion_lat": 0.0, "lon": -77.0228305, "name": "37afdfec69947a107f1f88c3067a6ec4"}, {"bike_id": "f1c25960c21df8347717c33542a0f8b7", "type": "electric_scooter", "is_disabled": 0, "lat": 38.94273033333333, "rental_uris": {"ios": "https://dc.lft.to/lastmile_qr_scan", "android": "https://dc.lft.to/lastmile_qr_scan"}, "is_reserved": 0, "fusion_lon": 0.0, "fusion_lat": 0.0, "lon": -77.03255416666667, "name": "f1c25960c21df8347717c33542a0f8b7"}, {"bike_id": "a965149c8690acb5c5fe740029634356", "type": "electric_scooter", "is_disabled": 0, "lat": 38.924782666666665, "rental_uris": {"ios": "https://dc.lft.to/lastmile_qr_scan", "android": "https://dc.lft.to/lastmile_qr_scan"}, "is_reserved": 0, "fusion_lon": 0.0, "fusion_lat": 0.0, "lon": -77.0283515, "name": "a965149c8690acb5c5fe740029634356"}, {"bike_id": "6904354c8c59d60ada6dcb02e484307b", "type": "electric_scooter", "is_disabled": 0, "lat": 38.91441966666667, "rental_uris": {"ios": "https://dc.lft.to/lastmile_qr_scan", "android": "https://dc.lft.to/lastmile_qr_scan"}, "is_reserved": 0, "fusion_lon": 0.0, "fusion_lat": 0.0, "lon": -77.02289116666667, "name": "6904354c8c59d60ada6dcb02e484307b"}, {"bike_id": "831870735cc3cd0a8cc915dc770c670c", "type": "electric_bike", "is_disabled": 0, "lat": 38.807603, "rental_uris": {"ios": "https://dc.lft.to/lastmile_qr_scan", "android": "https://dc.lft.to/lastmile_qr_scan"}, "is_reserved": 0, "fusion_lon": 0.0, "fusion_lat": 0.0, "lon": -77.09468483333333, "name": "831870735cc3cd0a8cc915dc770c670c"}, {"bike_id": "365245a5826298914f9954a05fcfbd91", "type": "electric_scooter", "is_disabled": 0, "lat": 38.8650365, "rental_uris": {"ios": "https://dc.lft.to/lastmile_qr_scan", "android": "https://dc.lft.to/lastmile_qr_scan"}, "is_reserved": 0, "fusion_lon": 0.0, "fusion_lat": 0.0, "lon": -76.99001383333334, "name": "365245a5826298914f9954a05fcfbd91"}, {"bike_id": "5a7f5583135916e9510d9f55668a63e7", "type": "electric_scooter", "is_disabled": 0, "lat": 38.919958333333334, "rental_uris": {"ios": "https://dc.lft.to/lastmile_qr_scan", "android": "https://dc.lft.to/lastmile_qr_scan"}, "is_reserved": 0, "fusion_lon": 0.0, "fusion_lat": 0.0, "lon": -77.01773683333333, "name": "5a7f5583135916e9510d9f55668a63e7"}, {"bike_id": "ab934f757399b8ffe76306194d4d6261", "type": "electric_scooter", "is_disabled": 0, "lat": 38.916155, "rental_uris": {"ios": "https://dc.lft.to/lastmile_qr_scan", "android": "https://dc.lft.to/lastmile_qr_scan"}, "is_reserved": 0, "fusion_lon": 0.0, "fusion_lat": 0.0, "lon": -77.03394, "name": "ab934f757399b8ffe76306194d4d6261"}, {"bike_id": "b399b68b52a0fa94d43e5a7512dcf8f2", "type": "electric_scooter", "is_disabled": 0, "lat": 38.922601666666665, "rental_uris": {"ios": "https://dc.lft.to/lastmile_qr_scan", "android": "https://dc.lft.to/lastmile_qr_scan"}, "is_reserved": 0, "fusion_lon": 0.0, "fusion_lat": 0.0, "lon": -77.03524666666667, "name": "b399b68b52a0fa94d43e5a7512dcf8f2"}, {"bike_id": "6befde09f7edf2094910d1908213410c", "type": "electric_scooter", "is_disabled": 0, "lat": 38.913372, "rental_uris": {"ios": "https://dc.lft.to/lastmile_qr_scan", "android": "https://dc.lft.to/lastmile_qr_scan"}, "is_reserved": 0, "fusion_lon": 0.0, "fusion_lat": 0.0, "lon": -77.03983516666666, "name": "6befde09f7edf2094910d1908213410c"}, {"bike_id": "6b766d4dd26654f6d9a80844faadb624", "type": "electric_scooter", "is_disabled": 0, "lat": 38.9239065, "rental_uris": {"ios": "https://dc.lft.to/lastmile_qr_scan", "android": "https://dc.lft.to/lastmile_qr_scan"}, "is_reserved": 0, "fusion_lon": 0.0, "fusion_lat": 0.0, "lon": -77.04467433333333, "name": "6b766d4dd26654f6d9a80844faadb624"}, {"bike_id": "6ff56d4771ef70d80a71c7ab83beb2e6", "type": "electric_scooter", "is_disabled": 0, "lat": 38.9315235, "rental_uris": {"ios": "https://dc.lft.to/lastmile_qr_scan", "android": "https://dc.lft.to/lastmile_qr_scan"}, "is_reserved": 0, "fusion_lon": 0.0, "fusion_lat": 0.0, "lon": -77.03349716666666, "name": "6ff56d4771ef70d80a71c7ab83beb2e6"}, {"bike_id": "95086665af8ceaaa83d3394aab15c39a", "type": "electric_scooter", "is_disabled": 0, "lat": 38.92152216666667, "rental_uris": {"ios": "https://dc.lft.to/lastmile_qr_scan", "android": "https://dc.lft.to/lastmile_qr_scan"}, "is_reserved": 0, "fusion_lon": 0.0, "fusion_lat": 0.0, "lon": -77.03319733333333, "name": "95086665af8ceaaa83d3394aab15c39a"}, {"bike_id": "3828905e957ad2d13989ee1c6e1bd154", "type": "electric_scooter", "is_disabled": 0, "lat": 38.911443, "rental_uris": {"ios": "https://dc.lft.to/lastmile_qr_scan", "android": "https://dc.lft.to/lastmile_qr_scan"}, "is_reserved": 0, "fusion_lon": 0.0, "fusion_lat": 0.0, "lon": -77.06546166666666, "name": "3828905e957ad2d13989ee1c6e1bd154"}, {"bike_id": "36368eea6652ca2a371846af7e19f2e5", "type": "electric_scooter", "is_disabled": 0, "lat": 38.90420566666667, "rental_uris": {"ios": "https://dc.lft.to/lastmile_qr_scan", "android": "https://dc.lft.to/lastmile_qr_scan"}, "is_reserved": 0, "fusion_lon": 0.0, "fusion_lat": 0.0, "lon": -77.05462416666667, "name": "36368eea6652ca2a371846af7e19f2e5"}, {"bike_id": "1946974754cae9ecf6203cfb1d475679", "type": "electric_scooter", "is_disabled": 0, "lat": 38.929086833333336, "rental_uris": {"ios": "https://dc.lft.to/lastmile_qr_scan", "android": "https://dc.lft.to/lastmile_qr_scan"}, "is_reserved": 0, "fusion_lon": 0.0, "fusion_lat": 0.0, "lon": -77.03263283333334, "name": "1946974754cae9ecf6203cfb1d475679"}, {"bike_id": "b825036ec9242842b36dab24d4a41bd3", "type": "electric_scooter", "is_disabled": 0, "lat": 38.90401083333333, "rental_uris": {"ios": "https://dc.lft.to/lastmile_qr_scan", "android": "https://dc.lft.to/lastmile_qr_scan"}, "is_reserved": 0, "fusion_lon": 0.0, "fusion_lat": 0.0, "lon": -77.06837466666667, "name": "b825036ec9242842b36dab24d4a41bd3"}, {"bike_id": "f41f63816d49cfe57499f6ec1df87fe2", "type": "electric_scooter", "is_disabled": 0, "lat": 38.9127075, "rental_uris": {"ios": "https://dc.lft.to/lastmile_qr_scan", "android": "https://dc.lft.to/lastmile_qr_scan"}, "is_reserved": 0, "fusion_lon": 0.0, "fusion_lat": 0.0, "lon": -77.05154333333333, "name": "f41f63816d49cfe57499f6ec1df87fe2"}, {"bike_id": "2102513e6ff93459ab5d011cf2dc8cd2", "type": "electric_scooter", "is_disabled": 0, "lat": 38.9227095, "rental_uris": {"ios": "https://dc.lft.to/lastmile_qr_scan", "android": "https://dc.lft.to/lastmile_qr_scan"}, "is_reserved": 0, "fusion_lon": 0.0, "fusion_lat": 0.0, "lon": -76.99122733333333, "name": "2102513e6ff93459ab5d011cf2dc8cd2"}, {"bike_id": "68fe2248b7903d9e30d1500aabcb4cf0", "type": "electric_scooter", "is_disabled": 0, "lat": 38.91868066666667, "rental_uris": {"ios": "https://dc.lft.to/lastmile_qr_scan", "android": "https://dc.lft.to/lastmile_qr_scan"}, "is_reserved": 0, "fusion_lon": 0.0, "fusion_lat": 0.0, "lon": -77.0150885, "name": "68fe2248b7903d9e30d1500aabcb4cf0"}, {"bike_id": "bd84430dd917581de5c25b1ed8086876", "type": "electric_scooter", "is_disabled": 0, "lat": 38.94334666666666, "rental_uris": {"ios": "https://dc.lft.to/lastmile_qr_scan", "android": "https://dc.lft.to/lastmile_qr_scan"}, "is_reserved": 0, "fusion_lon": 0.0, "fusion_lat": 0.0, "lon": -77.014783, "name": "bd84430dd917581de5c25b1ed8086876"}, {"bike_id": "4ab2be0b8e65b79989fc09c74c897586", "type": "electric_scooter", "is_disabled": 0, "lat": 38.8827015, "rental_uris": {"ios": "https://dc.lft.to/lastmile_qr_scan", "android": "https://dc.lft.to/lastmile_qr_scan"}, "is_reserved": 0, "fusion_lon": 0.0, "fusion_lat": 0.0, "lon": -76.9925525, "name": "4ab2be0b8e65b79989fc09c74c897586"}, {"bike_id": "695421f2ae4d333ff0ed551bb985f97f", "type": "electric_scooter", "is_disabled": 0, "lat": 38.90558633333333, "rental_uris": {"ios": "https://dc.lft.to/lastmile_qr_scan", "android": "https://dc.lft.to/lastmile_qr_scan"}, "is_reserved": 0, "fusion_lon": 0.0, "fusion_lat": 0.0, "lon": -77.0435325, "name": "695421f2ae4d333ff0ed551bb985f97f"}, {"bike_id": "edabcfc79076c7ed8d2f3d191b8ccaae", "type": "electric_scooter", "is_disabled": 0, "lat": 38.931059, "rental_uris": {"ios": "https://dc.lft.to/lastmile_qr_scan", "android": "https://dc.lft.to/lastmile_qr_scan"}, "is_reserved": 0, "fusion_lon": 0.0, "fusion_lat": 0.0, "lon": -77.03463366666666, "name": "edabcfc79076c7ed8d2f3d191b8ccaae"}, {"bike_id": "aebbf41edfe37d12bceee096afb0fe5a", "type": "electric_scooter", "is_disabled": 0, "lat": 38.908879, "rental_uris": {"ios": "https://dc.lft.to/lastmile_qr_scan", "android": "https://dc.lft.to/lastmile_qr_scan"}, "is_reserved": 0, "fusion_lon": 0.0, "fusion_lat": 0.0, "lon": -77.04506516666666, "name": "aebbf41edfe37d12bceee096afb0fe5a"}, {"bike_id": "b1737e7355d262fdd55d476e8ad48a19", "type": "electric_scooter", "is_disabled": 0, "lat": 38.91586316666667, "rental_uris": {"ios": "https://dc.lft.to/lastmile_qr_scan", "android": "https://dc.lft.to/lastmile_qr_scan"}, "is_reserved": 0, "fusion_lon": 0.0, "fusion_lat": 0.0, "lon": -77.01144716666667, "name": "b1737e7355d262fdd55d476e8ad48a19"}, {"bike_id": "a44adf9f6c6e60669c5765b0298c9cbc", "type": "electric_scooter", "is_disabled": 0, "lat": 38.932665166666666, "rental_uris": {"ios": "https://dc.lft.to/lastmile_qr_scan", "android": "https://dc.lft.to/lastmile_qr_scan"}, "is_reserved": 0, "fusion_lon": 0.0, "fusion_lat": 0.0, "lon": -77.038914, "name": "a44adf9f6c6e60669c5765b0298c9cbc"}, {"bike_id": "be127e67cf38ea5cda1948824dfd1f0a", "type": "electric_scooter", "is_disabled": 0, "lat": 38.923015166666666, "rental_uris": {"ios": "https://dc.lft.to/lastmile_qr_scan", "android": "https://dc.lft.to/lastmile_qr_scan"}, "is_reserved": 0, "fusion_lon": 0.0, "fusion_lat": 0.0, "lon": -77.0731415, "name": "be127e67cf38ea5cda1948824dfd1f0a"}, {"bike_id": "391141b3fce5cc02df7774742a341346", "type": "electric_scooter", "is_disabled": 0, "lat": 38.8976085, "rental_uris": {"ios": "https://dc.lft.to/lastmile_qr_scan", "android": "https://dc.lft.to/lastmile_qr_scan"}, "is_reserved": 0, "fusion_lon": 0.0, "fusion_lat": 0.0, "lon": -77.051556, "name": "391141b3fce5cc02df7774742a341346"}, {"bike_id": "a53f75f2f3ca38a397163f071e08a6e7", "type": "electric_scooter", "is_disabled": 0, "lat": 38.93686816666667, "rental_uris": {"ios": "https://dc.lft.to/lastmile_qr_scan", "android": "https://dc.lft.to/lastmile_qr_scan"}, "is_reserved": 0, "fusion_lon": 0.0, "fusion_lat": 0.0, "lon": -77.06622733333333, "name": "a53f75f2f3ca38a397163f071e08a6e7"}, {"bike_id": "6024018282680898b5958140ac2ed8ae", "type": "electric_bike", "is_disabled": 0, "lat": 38.89694516666667, "rental_uris": {"ios": "https://dc.lft.to/lastmile_qr_scan", "android": "https://dc.lft.to/lastmile_qr_scan"}, "is_reserved": 0, "fusion_lon": 0.0, "fusion_lat": 0.0, "lon": -77.08645616666666, "name": "6024018282680898b5958140ac2ed8ae"}, {"bike_id": "0f6b55fad3a4dacbc5a4ca9f1ff62f56", "type": "electric_scooter", "is_disabled": 0, "lat": 38.892931, "rental_uris": {"ios": "https://dc.lft.to/lastmile_qr_scan", "android": "https://dc.lft.to/lastmile_qr_scan"}, "is_reserved": 0, "fusion_lon": 0.0, "fusion_lat": 0.0, "lon": -77.04875183333333, "name": "0f6b55fad3a4dacbc5a4ca9f1ff62f56"}, {"bike_id": "80ea2cb83026d4507be56a610d6cee2f", "type": "electric_scooter", "is_disabled": 0, "lat": 38.90420983333333, "rental_uris": {"ios": "https://dc.lft.to/lastmile_qr_scan", "android": "https://dc.lft.to/lastmile_qr_scan"}, "is_reserved": 0, "fusion_lon": 0.0, "fusion_lat": 0.0, "lon": -77.024901, "name": "80ea2cb83026d4507be56a610d6cee2f"}, {"bike_id": "6f7419fa8a2fa3b06abdd8459cb2564d", "type": "electric_scooter", "is_disabled": 0, "lat": 38.91176883333333, "rental_uris": {"ios": "https://dc.lft.to/lastmile_qr_scan", "android": "https://dc.lft.to/lastmile_qr_scan"}, "is_reserved": 0, "fusion_lon": 0.0, "fusion_lat": 0.0, "lon": -77.00212666666667, "name": "6f7419fa8a2fa3b06abdd8459cb2564d"}, {"bike_id": "774831cb2725280440b087fac200262b", "type": "electric_scooter", "is_disabled": 0, "lat": 38.9402045, "rental_uris": {"ios": "https://dc.lft.to/lastmile_qr_scan", "android": "https://dc.lft.to/lastmile_qr_scan"}, "is_reserved": 0, "fusion_lon": 0.0, "fusion_lat": 0.0, "lon": -77.02763683333333, "name": "774831cb2725280440b087fac200262b"}, {"bike_id": "8379e3606c4f4ee3b6f16d15eebeee5b", "type": "electric_scooter", "is_disabled": 0, "lat": 38.921019, "rental_uris": {"ios": "https://dc.lft.to/lastmile_qr_scan", "android": "https://dc.lft.to/lastmile_qr_scan"}, "is_reserved": 0, "fusion_lon": 0.0, "fusion_lat": 0.0, "lon": -77.02524516666666, "name": "8379e3606c4f4ee3b6f16d15eebeee5b"}, {"bike_id": "9a1098bc5d8765d9c944abb384a9a224", "type": "electric_scooter", "is_disabled": 0, "lat": 38.922208166666664, "rental_uris": {"ios": "https://dc.lft.to/lastmile_qr_scan", "android": "https://dc.lft.to/lastmile_qr_scan"}, "is_reserved": 0, "fusion_lon": 0.0, "fusion_lat": 0.0, "lon": -77.03461533333333, "name": "9a1098bc5d8765d9c944abb384a9a224"}, {"bike_id": "82cc4b486c369365c82e5baf1888cfcb", "type": "electric_bike", "is_disabled": 0, "lat": 39.0399585, "rental_uris": {"ios": "https://dc.lft.to/lastmile_qr_scan", "android": "https://dc.lft.to/lastmile_qr_scan"}, "is_reserved": 0, "fusion_lon": 0.0, "fusion_lat": 0.0, "lon": -76.99926383333333, "name": "82cc4b486c369365c82e5baf1888cfcb"}, {"bike_id": "ce6446a9e70bfead36c59d99b816afde", "type": "electric_scooter", "is_disabled": 0, "lat": 38.90575366666667, "rental_uris": {"ios": "https://dc.lft.to/lastmile_qr_scan", "android": "https://dc.lft.to/lastmile_qr_scan"}, "is_reserved": 0, "fusion_lon": 0.0, "fusion_lat": 0.0, "lon": -77.02225016666667, "name": "ce6446a9e70bfead36c59d99b816afde"}, {"bike_id": "fb738cbccb58dc6dbf18b2943f622ee1", "type": "electric_scooter", "is_disabled": 0, "lat": 38.892950166666665, "rental_uris": {"ios": "https://dc.lft.to/lastmile_qr_scan", "android": "https://dc.lft.to/lastmile_qr_scan"}, "is_reserved": 0, "fusion_lon": 0.0, "fusion_lat": 0.0, "lon": -77.04871983333334, "name": "fb738cbccb58dc6dbf18b2943f622ee1"}, {"bike_id": "431f22fd8e45582e08d5d09304a579bb", "type": "electric_scooter", "is_disabled": 0, "lat": 38.9025775, "rental_uris": {"ios": "https://dc.lft.to/lastmile_qr_scan", "android": "https://dc.lft.to/lastmile_qr_scan"}, "is_reserved": 0, "fusion_lon": 0.0, "fusion_lat": 0.0, "lon": -76.975465, "name": "431f22fd8e45582e08d5d09304a579bb"}, {"bike_id": "1db527876d21b901b6cfb2dbbae02712", "type": "electric_scooter", "is_disabled": 0, "lat": 38.9152075, "rental_uris": {"ios": "https://dc.lft.to/lastmile_qr_scan", "android": "https://dc.lft.to/lastmile_qr_scan"}, "is_reserved": 0, "fusion_lon": 0.0, "fusion_lat": 0.0, "lon": -77.01220433333333, "name": "1db527876d21b901b6cfb2dbbae02712"}, {"bike_id": "a472aa74fa0c289025b8edf86ba36e16", "type": "electric_scooter", "is_disabled": 0, "lat": 38.900702833333334, "rental_uris": {"ios": "https://dc.lft.to/lastmile_qr_scan", "android": "https://dc.lft.to/lastmile_qr_scan"}, "is_reserved": 0, "fusion_lon": 0.0, "fusion_lat": 0.0, "lon": -77.03638866666667, "name": "a472aa74fa0c289025b8edf86ba36e16"}, {"bike_id": "8faba84008fb49c3dd3dac63a709d3bd", "type": "electric_scooter", "is_disabled": 0, "lat": 38.903866666666666, "rental_uris": {"ios": "https://dc.lft.to/lastmile_qr_scan", "android": "https://dc.lft.to/lastmile_qr_scan"}, "is_reserved": 0, "fusion_lon": 0.0, "fusion_lat": 0.0, "lon": -77.0381005, "name": "8faba84008fb49c3dd3dac63a709d3bd"}, {"bike_id": "22b7c428377f97e32c0a6337ed68758f", "type": "electric_scooter", "is_disabled": 0, "lat": 38.91708216666667, "rental_uris": {"ios": "https://dc.lft.to/lastmile_qr_scan", "android": "https://dc.lft.to/lastmile_qr_scan"}, "is_reserved": 0, "fusion_lon": 0.0, "fusion_lat": 0.0, "lon": -77.04615433333333, "name": "22b7c428377f97e32c0a6337ed68758f"}, {"bike_id": "2347f0a5905cdd67a63c6a74c4d1a5d0", "type": "electric_scooter", "is_disabled": 0, "lat": 38.91637883333333, "rental_uris": {"ios": "https://dc.lft.to/lastmile_qr_scan", "android": "https://dc.lft.to/lastmile_qr_scan"}, "is_reserved": 0, "fusion_lon": 0.0, "fusion_lat": 0.0, "lon": -77.0143045, "name": "2347f0a5905cdd67a63c6a74c4d1a5d0"}, {"bike_id": "f079a323d380ba5f50d09a36f6c96388", "type": "electric_bike", "is_disabled": 0, "lat": 38.86155883333333, "rental_uris": {"ios": "https://dc.lft.to/lastmile_qr_scan", "android": "https://dc.lft.to/lastmile_qr_scan"}, "is_reserved": 0, "fusion_lon": 0.0, "fusion_lat": 0.0, "lon": -77.0914335, "name": "f079a323d380ba5f50d09a36f6c96388"}, {"bike_id": "8ab29e387049d362d3ddaec9cd74f951", "type": "electric_bike", "is_disabled": 0, "lat": 38.929680833333336, "rental_uris": {"ios": "https://dc.lft.to/lastmile_qr_scan", "android": "https://dc.lft.to/lastmile_qr_scan"}, "is_reserved": 0, "fusion_lon": 0.0, "fusion_lat": 0.0, "lon": -77.18565933333333, "name": "8ab29e387049d362d3ddaec9cd74f951"}, {"bike_id": "3b31fd12b88f73d78d06d457a18024c9", "type": "electric_bike", "is_disabled": 0, "lat": 38.97155766666667, "rental_uris": {"ios": "https://dc.lft.to/lastmile_qr_scan", "android": "https://dc.lft.to/lastmile_qr_scan"}, "is_reserved": 0, "fusion_lon": 0.0, "fusion_lat": 0.0, "lon": -77.0271755, "name": "3b31fd12b88f73d78d06d457a18024c9"}, {"bike_id": "4130e439a50a84db16ae133bb77b7c69", "type": "electric_scooter", "is_disabled": 0, "lat": 38.927954, "rental_uris": {"ios": "https://dc.lft.to/lastmile_qr_scan", "android": "https://dc.lft.to/lastmile_qr_scan"}, "is_reserved": 0, "fusion_lon": 0.0, "fusion_lat": 0.0, "lon": -77.0212175, "name": "4130e439a50a84db16ae133bb77b7c69"}, {"bike_id": "b90a0d5381d7a430fa202c7ce063dfe7", "type": "electric_scooter", "is_disabled": 0, "lat": 38.93639183333333, "rental_uris": {"ios": "https://dc.lft.to/lastmile_qr_scan", "android": "https://dc.lft.to/lastmile_qr_scan"}, "is_reserved": 0, "fusion_lon": 0.0, "fusion_lat": 0.0, "lon": -77.05880283333333, "name": "b90a0d5381d7a430fa202c7ce063dfe7"}, {"bike_id": "4aabc454b191d0dc5946a443d4e3298d", "type": "electric_scooter", "is_disabled": 0, "lat": 38.902782333333334, "rental_uris": {"ios": "https://dc.lft.to/lastmile_qr_scan", "android": "https://dc.lft.to/lastmile_qr_scan"}, "is_reserved": 0, "fusion_lon": 0.0, "fusion_lat": 0.0, "lon": -77.05796116666667, "name": "4aabc454b191d0dc5946a443d4e3298d"}, {"bike_id": "0665b4a9bce82683f983e93599ff6740", "type": "electric_scooter", "is_disabled": 0, "lat": 38.91111516666667, "rental_uris": {"ios": "https://dc.lft.to/lastmile_qr_scan", "android": "https://dc.lft.to/lastmile_qr_scan"}, "is_reserved": 0, "fusion_lon": 0.0, "fusion_lat": 0.0, "lon": -77.01151283333333, "name": "0665b4a9bce82683f983e93599ff6740"}, {"bike_id": "7feafd0ad1c04013ec04c67204f12720", "type": "electric_scooter", "is_disabled": 0, "lat": 38.898453833333335, "rental_uris": {"ios": "https://dc.lft.to/lastmile_qr_scan", "android": "https://dc.lft.to/lastmile_qr_scan"}, "is_reserved": 0, "fusion_lon": 0.0, "fusion_lat": 0.0, "lon": -76.94630116666667, "name": "7feafd0ad1c04013ec04c67204f12720"}, {"bike_id": "7da6318d4d605acaf62c9c6aa10f7f6f", "type": "electric_scooter", "is_disabled": 0, "lat": 38.9324965, "rental_uris": {"ios": "https://dc.lft.to/lastmile_qr_scan", "android": "https://dc.lft.to/lastmile_qr_scan"}, "is_reserved": 0, "fusion_lon": 0.0, "fusion_lat": 0.0, "lon": -77.02000933333333, "name": "7da6318d4d605acaf62c9c6aa10f7f6f"}, {"bike_id": "54b48c2148c7bce98d21116cc59528cd", "type": "electric_scooter", "is_disabled": 0, "lat": 38.870706, "rental_uris": {"ios": "https://dc.lft.to/lastmile_qr_scan", "android": "https://dc.lft.to/lastmile_qr_scan"}, "is_reserved": 0, "fusion_lon": 0.0, "fusion_lat": 0.0, "lon": -76.98125933333333, "name": "54b48c2148c7bce98d21116cc59528cd"}, {"bike_id": "1404d529465c0395b3379a24ddee164f", "type": "electric_scooter", "is_disabled": 0, "lat": 38.92468516666667, "rental_uris": {"ios": "https://dc.lft.to/lastmile_qr_scan", "android": "https://dc.lft.to/lastmile_qr_scan"}, "is_reserved": 0, "fusion_lon": 0.0, "fusion_lat": 0.0, "lon": -77.05203883333333, "name": "1404d529465c0395b3379a24ddee164f"}, {"bike_id": "7f5453eb4c296abfa4bbd1681f40f2b1", "type": "electric_scooter", "is_disabled": 0, "lat": 38.900412, "rental_uris": {"ios": "https://dc.lft.to/lastmile_qr_scan", "android": "https://dc.lft.to/lastmile_qr_scan"}, "is_reserved": 0, "fusion_lon": 0.0, "fusion_lat": 0.0, "lon": -77.0366295, "name": "7f5453eb4c296abfa4bbd1681f40f2b1"}, {"bike_id": "f5956b24a159c93800be1e335ea0cb33", "type": "electric_scooter", "is_disabled": 0, "lat": 38.910739166666666, "rental_uris": {"ios": "https://dc.lft.to/lastmile_qr_scan", "android": "https://dc.lft.to/lastmile_qr_scan"}, "is_reserved": 0, "fusion_lon": 0.0, "fusion_lat": 0.0, "lon": -77.03851516666667, "name": "f5956b24a159c93800be1e335ea0cb33"}, {"bike_id": "2595b8d34e11506925866c9c3460fb75", "type": "electric_scooter", "is_disabled": 0, "lat": 38.873877666666665, "rental_uris": {"ios": "https://dc.lft.to/lastmile_qr_scan", "android": "https://dc.lft.to/lastmile_qr_scan"}, "is_reserved": 0, "fusion_lon": 0.0, "fusion_lat": 0.0, "lon": -77.04343066666667, "name": "2595b8d34e11506925866c9c3460fb75"}, {"bike_id": "0cbf3e88fc7e9ba95688a13fef9c7fcb", "type": "electric_scooter", "is_disabled": 0, "lat": 38.93669583333333, "rental_uris": {"ios": "https://dc.lft.to/lastmile_qr_scan", "android": "https://dc.lft.to/lastmile_qr_scan"}, "is_reserved": 0, "fusion_lon": 0.0, "fusion_lat": 0.0, "lon": -77.02432266666666, "name": "0cbf3e88fc7e9ba95688a13fef9c7fcb"}, {"bike_id": "0e3ed86f860d331c9c7f00d3c71101e0", "type": "electric_scooter", "is_disabled": 0, "lat": 38.9167315, "rental_uris": {"ios": "https://dc.lft.to/lastmile_qr_scan", "android": "https://dc.lft.to/lastmile_qr_scan"}, "is_reserved": 0, "fusion_lon": 0.0, "fusion_lat": 0.0, "lon": -77.04678316666667, "name": "0e3ed86f860d331c9c7f00d3c71101e0"}, {"bike_id": "bd61868fa516d1881d291186c13837cb", "type": "electric_scooter", "is_disabled": 0, "lat": 38.93515466666667, "rental_uris": {"ios": "https://dc.lft.to/lastmile_qr_scan", "android": "https://dc.lft.to/lastmile_qr_scan"}, "is_reserved": 0, "fusion_lon": 0.0, "fusion_lat": 0.0, "lon": -77.03358016666667, "name": "bd61868fa516d1881d291186c13837cb"}, {"bike_id": "4bf94e1336a34acfa1d9da2cf6f646a7", "type": "electric_scooter", "is_disabled": 0, "lat": 38.8933725, "rental_uris": {"ios": "https://dc.lft.to/lastmile_qr_scan", "android": "https://dc.lft.to/lastmile_qr_scan"}, "is_reserved": 0, "fusion_lon": 0.0, "fusion_lat": 0.0, "lon": -76.95049766666666, "name": "4bf94e1336a34acfa1d9da2cf6f646a7"}, {"bike_id": "993c90a889b9cea7e74f0f62ebd004e9", "type": "electric_scooter", "is_disabled": 0, "lat": 38.900886, "rental_uris": {"ios": "https://dc.lft.to/lastmile_qr_scan", "android": "https://dc.lft.to/lastmile_qr_scan"}, "is_reserved": 0, "fusion_lon": 0.0, "fusion_lat": 0.0, "lon": -76.98334516666667, "name": "993c90a889b9cea7e74f0f62ebd004e9"}, {"bike_id": "375eaa4796d92f3d28cb94573b238d57", "type": "electric_scooter", "is_disabled": 0, "lat": 38.914067, "rental_uris": {"ios": "https://dc.lft.to/lastmile_qr_scan", "android": "https://dc.lft.to/lastmile_qr_scan"}, "is_reserved": 0, "fusion_lon": 0.0, "fusion_lat": 0.0, "lon": -77.03220733333333, "name": "375eaa4796d92f3d28cb94573b238d57"}, {"bike_id": "1158660ef27bbee6f429519c151f76bb", "type": "electric_scooter", "is_disabled": 0, "lat": 38.90272066666667, "rental_uris": {"ios": "https://dc.lft.to/lastmile_qr_scan", "android": "https://dc.lft.to/lastmile_qr_scan"}, "is_reserved": 0, "fusion_lon": 0.0, "fusion_lat": 0.0, "lon": -77.03375983333333, "name": "1158660ef27bbee6f429519c151f76bb"}, {"bike_id": "b2861ffb062954bfabf6848c5236e9ee", "type": "electric_scooter", "is_disabled": 0, "lat": 38.901688, "rental_uris": {"ios": "https://dc.lft.to/lastmile_qr_scan", "android": "https://dc.lft.to/lastmile_qr_scan"}, "is_reserved": 0, "fusion_lon": 0.0, "fusion_lat": 0.0, "lon": -76.93026766666667, "name": "b2861ffb062954bfabf6848c5236e9ee"}, {"bike_id": "79a7752e80e6d1cb48b3645a21015be0", "type": "electric_scooter", "is_disabled": 0, "lat": 38.91612666666666, "rental_uris": {"ios": "https://dc.lft.to/lastmile_qr_scan", "android": "https://dc.lft.to/lastmile_qr_scan"}, "is_reserved": 0, "fusion_lon": 0.0, "fusion_lat": 0.0, "lon": -77.021618, "name": "79a7752e80e6d1cb48b3645a21015be0"}, {"bike_id": "a9721352a6b21a55c9694fa41b71b015", "type": "electric_scooter", "is_disabled": 0, "lat": 38.91504966666667, "rental_uris": {"ios": "https://dc.lft.to/lastmile_qr_scan", "android": "https://dc.lft.to/lastmile_qr_scan"}, "is_reserved": 0, "fusion_lon": 0.0, "fusion_lat": 0.0, "lon": -77.017718, "name": "a9721352a6b21a55c9694fa41b71b015"}, {"bike_id": "0726968622adf82badfb1249cc6b3b80", "type": "electric_scooter", "is_disabled": 0, "lat": 38.88699783333333, "rental_uris": {"ios": "https://dc.lft.to/lastmile_qr_scan", "android": "https://dc.lft.to/lastmile_qr_scan"}, "is_reserved": 0, "fusion_lon": 0.0, "fusion_lat": 0.0, "lon": -76.99611683333333, "name": "0726968622adf82badfb1249cc6b3b80"}, {"bike_id": "4307394c606c77f40dc1f0cd7a7f530c", "type": "electric_scooter", "is_disabled": 0, "lat": 38.95653733333333, "rental_uris": {"ios": "https://dc.lft.to/lastmile_qr_scan", "android": "https://dc.lft.to/lastmile_qr_scan"}, "is_reserved": 0, "fusion_lon": 0.0, "fusion_lat": 0.0, "lon": -77.010021, "name": "4307394c606c77f40dc1f0cd7a7f530c"}, {"bike_id": "af3915fcdaae691e1de4d6f7d5824b39", "type": "electric_scooter", "is_disabled": 0, "lat": 38.932511, "rental_uris": {"ios": "https://dc.lft.to/lastmile_qr_scan", "android": "https://dc.lft.to/lastmile_qr_scan"}, "is_reserved": 0, "fusion_lon": 0.0, "fusion_lat": 0.0, "lon": -77.03871366666667, "name": "af3915fcdaae691e1de4d6f7d5824b39"}, {"bike_id": "9412e99dfa1054f6010adf6f710e8d41", "type": "electric_scooter", "is_disabled": 0, "lat": 38.956336, "rental_uris": {"ios": "https://dc.lft.to/lastmile_qr_scan", "android": "https://dc.lft.to/lastmile_qr_scan"}, "is_reserved": 0, "fusion_lon": 0.0, "fusion_lat": 0.0, "lon": -77.0114115, "name": "9412e99dfa1054f6010adf6f710e8d41"}, {"bike_id": "ef551dbdae08849ab096900044ce28a1", "type": "electric_scooter", "is_disabled": 0, "lat": 38.924405666666665, "rental_uris": {"ios": "https://dc.lft.to/lastmile_qr_scan", "android": "https://dc.lft.to/lastmile_qr_scan"}, "is_reserved": 0, "fusion_lon": 0.0, "fusion_lat": 0.0, "lon": -77.042386, "name": "ef551dbdae08849ab096900044ce28a1"}, {"bike_id": "5b796100ab824dabf7a89243450de3bb", "type": "electric_bike", "is_disabled": 0, "lat": 38.8133105, "rental_uris": {"ios": "https://dc.lft.to/lastmile_qr_scan", "android": "https://dc.lft.to/lastmile_qr_scan"}, "is_reserved": 0, "fusion_lon": 0.0, "fusion_lat": 0.0, "lon": -77.05090166666666, "name": "5b796100ab824dabf7a89243450de3bb"}, {"bike_id": "e7d35167095faf86dc6c0ff98d42f8e5", "type": "electric_scooter", "is_disabled": 0, "lat": 38.886539, "rental_uris": {"ios": "https://dc.lft.to/lastmile_qr_scan", "android": "https://dc.lft.to/lastmile_qr_scan"}, "is_reserved": 0, "fusion_lon": 0.0, "fusion_lat": 0.0, "lon": -77.00116133333333, "name": "e7d35167095faf86dc6c0ff98d42f8e5"}, {"bike_id": "ee0326030781bf3ae0a71db4dba61b70", "type": "electric_scooter", "is_disabled": 0, "lat": 38.935406, "rental_uris": {"ios": "https://dc.lft.to/lastmile_qr_scan", "android": "https://dc.lft.to/lastmile_qr_scan"}, "is_reserved": 0, "fusion_lon": 0.0, "fusion_lat": 0.0, "lon": -77.0582805, "name": "ee0326030781bf3ae0a71db4dba61b70"}, {"bike_id": "846647edcfae4b398ff821fa1ecf88e1", "type": "electric_bike", "is_disabled": 0, "lat": 38.87478816666667, "rental_uris": {"ios": "https://dc.lft.to/lastmile_qr_scan", "android": "https://dc.lft.to/lastmile_qr_scan"}, "is_reserved": 0, "fusion_lon": 0.0, "fusion_lat": 0.0, "lon": -76.96520766666667, "name": "846647edcfae4b398ff821fa1ecf88e1"}, {"bike_id": "5e22d28005f561613ac2e8797a49e5df", "type": "electric_scooter", "is_disabled": 0, "lat": 38.88738883333333, "rental_uris": {"ios": "https://dc.lft.to/lastmile_qr_scan", "android": "https://dc.lft.to/lastmile_qr_scan"}, "is_reserved": 0, "fusion_lon": 0.0, "fusion_lat": 0.0, "lon": -77.01527033333333, "name": "5e22d28005f561613ac2e8797a49e5df"}, {"bike_id": "0115121df8e3ee4cf59248f11a32e020", "type": "electric_scooter", "is_disabled": 0, "lat": 38.92240433333333, "rental_uris": {"ios": "https://dc.lft.to/lastmile_qr_scan", "android": "https://dc.lft.to/lastmile_qr_scan"}, "is_reserved": 0, "fusion_lon": 0.0, "fusion_lat": 0.0, "lon": -77.03513316666667, "name": "0115121df8e3ee4cf59248f11a32e020"}, {"bike_id": "c6bf60d6e173147460765eeb0ea4bb88", "type": "electric_scooter", "is_disabled": 0, "lat": 38.91561683333333, "rental_uris": {"ios": "https://dc.lft.to/lastmile_qr_scan", "android": "https://dc.lft.to/lastmile_qr_scan"}, "is_reserved": 0, "fusion_lon": 0.0, "fusion_lat": 0.0, "lon": -77.04013483333334, "name": "c6bf60d6e173147460765eeb0ea4bb88"}, {"bike_id": "9b1de722eb4071eb8fe6b2c8843b2bb6", "type": "electric_scooter", "is_disabled": 0, "lat": 38.876493333333336, "rental_uris": {"ios": "https://dc.lft.to/lastmile_qr_scan", "android": "https://dc.lft.to/lastmile_qr_scan"}, "is_reserved": 0, "fusion_lon": 0.0, "fusion_lat": 0.0, "lon": -76.9650485, "name": "9b1de722eb4071eb8fe6b2c8843b2bb6"}, {"bike_id": "85eef48460a9643b5f5a4fc2d02f8af1", "type": "electric_scooter", "is_disabled": 0, "lat": 38.965698833333335, "rental_uris": {"ios": "https://dc.lft.to/lastmile_qr_scan", "android": "https://dc.lft.to/lastmile_qr_scan"}, "is_reserved": 0, "fusion_lon": 0.0, "fusion_lat": 0.0, "lon": -77.0277725, "name": "85eef48460a9643b5f5a4fc2d02f8af1"}, {"bike_id": "815014cec163022068e09cdd2486b42b", "type": "electric_scooter", "is_disabled": 0, "lat": 38.89751033333334, "rental_uris": {"ios": "https://dc.lft.to/lastmile_qr_scan", "android": "https://dc.lft.to/lastmile_qr_scan"}, "is_reserved": 0, "fusion_lon": 0.0, "fusion_lat": 0.0, "lon": -77.02929583333334, "name": "815014cec163022068e09cdd2486b42b"}, {"bike_id": "9dfeb3fe452898e8c66d73fa09cf79fa", "type": "electric_scooter", "is_disabled": 0, "lat": 38.900302, "rental_uris": {"ios": "https://dc.lft.to/lastmile_qr_scan", "android": "https://dc.lft.to/lastmile_qr_scan"}, "is_reserved": 0, "fusion_lon": 0.0, "fusion_lat": 0.0, "lon": -77.0112395, "name": "9dfeb3fe452898e8c66d73fa09cf79fa"}, {"bike_id": "6bc64ab9134031ca85b859fba89bc67f", "type": "electric_scooter", "is_disabled": 0, "lat": 38.937278166666665, "rental_uris": {"ios": "https://dc.lft.to/lastmile_qr_scan", "android": "https://dc.lft.to/lastmile_qr_scan"}, "is_reserved": 0, "fusion_lon": 0.0, "fusion_lat": 0.0, "lon": -77.02530233333333, "name": "6bc64ab9134031ca85b859fba89bc67f"}, {"bike_id": "7e34ebb198e637c5f9e89da07839d986", "type": "electric_scooter", "is_disabled": 0, "lat": 38.97368016666667, "rental_uris": {"ios": "https://dc.lft.to/lastmile_qr_scan", "android": "https://dc.lft.to/lastmile_qr_scan"}, "is_reserved": 0, "fusion_lon": 0.0, "fusion_lat": 0.0, "lon": -77.0186235, "name": "7e34ebb198e637c5f9e89da07839d986"}, {"bike_id": "29d2009f07290a14c274e00f39652f15", "type": "electric_scooter", "is_disabled": 0, "lat": 38.868918, "rental_uris": {"ios": "https://dc.lft.to/lastmile_qr_scan", "android": "https://dc.lft.to/lastmile_qr_scan"}, "is_reserved": 0, "fusion_lon": 0.0, "fusion_lat": 0.0, "lon": -76.983085, "name": "29d2009f07290a14c274e00f39652f15"}, {"bike_id": "795c5f20c4ca26ff476a1f141d2b4fe3", "type": "electric_scooter", "is_disabled": 0, "lat": 38.93966833333333, "rental_uris": {"ios": "https://dc.lft.to/lastmile_qr_scan", "android": "https://dc.lft.to/lastmile_qr_scan"}, "is_reserved": 0, "fusion_lon": 0.0, "fusion_lat": 0.0, "lon": -77.03753, "name": "795c5f20c4ca26ff476a1f141d2b4fe3"}, {"bike_id": "c877d44028c2f2e8f6426e67b231f74d", "type": "electric_bike", "is_disabled": 0, "lat": 38.995302833333334, "rental_uris": {"ios": "https://dc.lft.to/lastmile_qr_scan", "android": "https://dc.lft.to/lastmile_qr_scan"}, "is_reserved": 0, "fusion_lon": 0.0, "fusion_lat": 0.0, "lon": -77.0694775, "name": "c877d44028c2f2e8f6426e67b231f74d"}, {"bike_id": "94961164063ea2d1afaa2b01e8392867", "type": "electric_scooter", "is_disabled": 0, "lat": 38.903506, "rental_uris": {"ios": "https://dc.lft.to/lastmile_qr_scan", "android": "https://dc.lft.to/lastmile_qr_scan"}, "is_reserved": 0, "fusion_lon": 0.0, "fusion_lat": 0.0, "lon": -77.03642783333333, "name": "94961164063ea2d1afaa2b01e8392867"}, {"bike_id": "e65df9f4827f2219411c06e5c5eafd14", "type": "electric_scooter", "is_disabled": 0, "lat": 38.908078, "rental_uris": {"ios": "https://dc.lft.to/lastmile_qr_scan", "android": "https://dc.lft.to/lastmile_qr_scan"}, "is_reserved": 0, "fusion_lon": 0.0, "fusion_lat": 0.0, "lon": -77.0437235, "name": "e65df9f4827f2219411c06e5c5eafd14"}, {"bike_id": "84a3806a5773a7d42c925d02d7b03eaa", "type": "electric_scooter", "is_disabled": 0, "lat": 38.92608366666666, "rental_uris": {"ios": "https://dc.lft.to/lastmile_qr_scan", "android": "https://dc.lft.to/lastmile_qr_scan"}, "is_reserved": 0, "fusion_lon": 0.0, "fusion_lat": 0.0, "lon": -77.10234933333334, "name": "84a3806a5773a7d42c925d02d7b03eaa"}, {"bike_id": "192d8dc1a831aa041abe8b17b16c06e2", "type": "electric_scooter", "is_disabled": 0, "lat": 38.9014335, "rental_uris": {"ios": "https://dc.lft.to/lastmile_qr_scan", "android": "https://dc.lft.to/lastmile_qr_scan"}, "is_reserved": 0, "fusion_lon": 0.0, "fusion_lat": 0.0, "lon": -76.9308715, "name": "192d8dc1a831aa041abe8b17b16c06e2"}, {"bike_id": "99f6ec536619538be643e2e8f76b2ed2", "type": "electric_scooter", "is_disabled": 0, "lat": 38.906189, "rental_uris": {"ios": "https://dc.lft.to/lastmile_qr_scan", "android": "https://dc.lft.to/lastmile_qr_scan"}, "is_reserved": 0, "fusion_lon": 0.0, "fusion_lat": 0.0, "lon": -77.04137883333334, "name": "99f6ec536619538be643e2e8f76b2ed2"}, {"bike_id": "9e9b1c770d726c2739aaa2fbfaf6d506", "type": "electric_scooter", "is_disabled": 0, "lat": 38.89914666666667, "rental_uris": {"ios": "https://dc.lft.to/lastmile_qr_scan", "android": "https://dc.lft.to/lastmile_qr_scan"}, "is_reserved": 0, "fusion_lon": 0.0, "fusion_lat": 0.0, "lon": -76.93369833333334, "name": "9e9b1c770d726c2739aaa2fbfaf6d506"}, {"bike_id": "a640e4cbaed2bc9da80f3b49e407d689", "type": "electric_scooter", "is_disabled": 0, "lat": 38.92610366666667, "rental_uris": {"ios": "https://dc.lft.to/lastmile_qr_scan", "android": "https://dc.lft.to/lastmile_qr_scan"}, "is_reserved": 0, "fusion_lon": 0.0, "fusion_lat": 0.0, "lon": -77.0376305, "name": "a640e4cbaed2bc9da80f3b49e407d689"}, {"bike_id": "6bdace0baec3d25f6046d494f639d46c", "type": "electric_scooter", "is_disabled": 0, "lat": 38.93029383333333, "rental_uris": {"ios": "https://dc.lft.to/lastmile_qr_scan", "android": "https://dc.lft.to/lastmile_qr_scan"}, "is_reserved": 0, "fusion_lon": 0.0, "fusion_lat": 0.0, "lon": -77.03301783333333, "name": "6bdace0baec3d25f6046d494f639d46c"}, {"bike_id": "c685149b4bf4f0df0c76a4aa7141f84a", "type": "electric_scooter", "is_disabled": 0, "lat": 38.9346215, "rental_uris": {"ios": "https://dc.lft.to/lastmile_qr_scan", "android": "https://dc.lft.to/lastmile_qr_scan"}, "is_reserved": 0, "fusion_lon": 0.0, "fusion_lat": 0.0, "lon": -77.02242216666667, "name": "c685149b4bf4f0df0c76a4aa7141f84a"}, {"bike_id": "b422dad04a5d06443b5a4fadc8d99fdc", "type": "electric_bike", "is_disabled": 0, "lat": 38.957080500000004, "rental_uris": {"ios": "https://dc.lft.to/lastmile_qr_scan", "android": "https://dc.lft.to/lastmile_qr_scan"}, "is_reserved": 0, "fusion_lon": 0.0, "fusion_lat": 0.0, "lon": -77.02404883333334, "name": "b422dad04a5d06443b5a4fadc8d99fdc"}, {"bike_id": "f2307b2b78eae51879b31a92c955c14d", "type": "electric_scooter", "is_disabled": 0, "lat": 38.91266066666667, "rental_uris": {"ios": "https://dc.lft.to/lastmile_qr_scan", "android": "https://dc.lft.to/lastmile_qr_scan"}, "is_reserved": 0, "fusion_lon": 0.0, "fusion_lat": 0.0, "lon": -77.014919, "name": "f2307b2b78eae51879b31a92c955c14d"}, {"bike_id": "8bfc31980d5751a2dda726be3b5039df", "type": "electric_scooter", "is_disabled": 0, "lat": 38.91692783333333, "rental_uris": {"ios": "https://dc.lft.to/lastmile_qr_scan", "android": "https://dc.lft.to/lastmile_qr_scan"}, "is_reserved": 0, "fusion_lon": 0.0, "fusion_lat": 0.0, "lon": -77.02862783333333, "name": "8bfc31980d5751a2dda726be3b5039df"}, {"bike_id": "a33630a80bf487f768e0560d8b03438b", "type": "electric_scooter", "is_disabled": 0, "lat": 38.91409133333333, "rental_uris": {"ios": "https://dc.lft.to/lastmile_qr_scan", "android": "https://dc.lft.to/lastmile_qr_scan"}, "is_reserved": 0, "fusion_lon": 0.0, "fusion_lat": 0.0, "lon": -77.021287, "name": "a33630a80bf487f768e0560d8b03438b"}, {"bike_id": "7771bacd904f28f276a7c8eca921da2c", "type": "electric_scooter", "is_disabled": 0, "lat": 38.9170405, "rental_uris": {"ios": "https://dc.lft.to/lastmile_qr_scan", "android": "https://dc.lft.to/lastmile_qr_scan"}, "is_reserved": 0, "fusion_lon": 0.0, "fusion_lat": 0.0, "lon": -77.0286945, "name": "7771bacd904f28f276a7c8eca921da2c"}, {"bike_id": "77c504548e270bfc667f14b6d652cc75", "type": "electric_scooter", "is_disabled": 0, "lat": 38.92252383333334, "rental_uris": {"ios": "https://dc.lft.to/lastmile_qr_scan", "android": "https://dc.lft.to/lastmile_qr_scan"}, "is_reserved": 0, "fusion_lon": 0.0, "fusion_lat": 0.0, "lon": -77.03083116666667, "name": "77c504548e270bfc667f14b6d652cc75"}, {"bike_id": "17264ce15c137cc190c3aa8a9b0b9ed3", "type": "electric_scooter", "is_disabled": 0, "lat": 38.9315315, "rental_uris": {"ios": "https://dc.lft.to/lastmile_qr_scan", "android": "https://dc.lft.to/lastmile_qr_scan"}, "is_reserved": 0, "fusion_lon": 0.0, "fusion_lat": 0.0, "lon": -77.04518683333333, "name": "17264ce15c137cc190c3aa8a9b0b9ed3"}, {"bike_id": "26e17abc470c1ad76fb10b7ff4d998cc", "type": "electric_scooter", "is_disabled": 0, "lat": 38.92668066666667, "rental_uris": {"ios": "https://dc.lft.to/lastmile_qr_scan", "android": "https://dc.lft.to/lastmile_qr_scan"}, "is_reserved": 0, "fusion_lon": 0.0, "fusion_lat": 0.0, "lon": -77.0319725, "name": "26e17abc470c1ad76fb10b7ff4d998cc"}, {"bike_id": "6790577f7a9d0bab77207c2b11e00531", "type": "electric_scooter", "is_disabled": 0, "lat": 38.9045465, "rental_uris": {"ios": "https://dc.lft.to/lastmile_qr_scan", "android": "https://dc.lft.to/lastmile_qr_scan"},