{"data": {"bikes": [{"name": "faf2583040c0dcb6d1be3ca3a72a0e8e", "lon": -77.0434085, "lat": 38.913246, "type": "electric_scooter", "is_disabled": 0, "rental_uris": {"android": "https://dc.lft.to/lastmile_qr_scan", "ios": "https://dc.lft.to/lastmile_qr_scan"}, "fusion_lon": 0.0, "bike_id": "faf2583040c0dcb6d1be3ca3a72a0e8e", "fusion_lat": 0.0, "is_reserved": 0}, {"name": "76d4a4cab4936f60e24aeb91c12e461a", "lon": -77.02187166666667, "lat": 38.91484483333333, "type": "electric_scooter", "is_disabled": 0, "rental_uris": {"android": "https://dc.lft.to/lastmile_qr_scan", "ios": "https://dc.lft.to/lastmile_qr_scan"}, "fusion_lon": 0.0, "bike_id": "76d4a4cab4936f60e24aeb91c12e461a", "fusion_lat": 0.0, "is_reserved": 0}, {"name": "2b878f0fddefce821558ffea4e3a6d4a", "lon": -77.0468765, "lat": 38.892198, "type": "electric_scooter", "is_disabled": 0, "rental_uris": {"android": "https://dc.lft.to/lastmile_qr_scan", "ios": "https://dc.lft.to/lastmile_qr_scan"}, "fusion_lon": 0.0, "bike_id": "2b878f0fddefce821558ffea4e3a6d4a", "fusion_lat": 0.0, "is_reserved": 0}, {"name": "a6d7195e6f81550284641944e9e08fde", "lon": -77.02229733333333, "lat": 38.89981216666666, "type": "electric_scooter", "is_disabled": 0, "rental_uris": {"android": "https://dc.lft.to/lastmile_qr_scan", "ios": "https://dc.lft.to/lastmile_qr_scan"}, "fusion_lon": 0.0, "bike_id": "a6d7195e6f81550284641944e9e08fde", "fusion_lat": 0.0, "is_reserved": 0}, {"name": "40dc737de793ffb4a5cebecd5e683e94", "lon": -77.02361266666666, "lat": 38.932664833333334, "type": "electric_scooter", "is_disabled": 0, "rental_uris": {"android": "https://dc.lft.to/lastmile_qr_scan", "ios": "https://dc.lft.to/lastmile_qr_scan"}, "fusion_lon": 0.0, "bike_id": "40dc737de793ffb4a5cebecd5e683e94", "fusion_lat": 0.0, "is_reserved": 0}, {"name": "3187c7a7b24436e5626e4da3ea398ae0", "lon": -77.0231335, "lat": 38.895910666666666, "type": "electric_scooter", "is_disabled": 0, "rental_uris": {"android": "https://dc.lft.to/lastmile_qr_scan", "ios": "https://dc.lft.to/lastmile_qr_scan"}, "fusion_lon": 0.0, "bike_id": "3187c7a7b24436e5626e4da3ea398ae0", "fusion_lat": 0.0, "is_reserved": 0}, {"name": "2dc197f2ea015883f063ccdba13c4abd", "lon": -77.02203783333333, "lat": 38.895877166666665, "type": "electric_scooter", "is_disabled": 0, "rental_uris": {"android": "https://dc.lft.to/lastmile_qr_scan", "ios": "https://dc.lft.to/lastmile_qr_scan"}, "fusion_lon": 0.0, "bike_id": "2dc197f2ea015883f063ccdba13c4abd", "fusion_lat": 0.0, "is_reserved": 0}, {"name": "31dd1392e0414d3296ed6097b289200c", "lon": -77.00222733333334, "lat": 38.89896433333333, "type": "electric_scooter", "is_disabled": 0, "rental_uris": {"android": "https://dc.lft.to/lastmile_qr_scan", "ios": "https://dc.lft.to/lastmile_qr_scan"}, "fusion_lon": 0.0, "bike_id": "31dd1392e0414d3296ed6097b289200c", "fusion_lat": 0.0, "is_reserved": 0}, {"name": "7632721963a3ce87482b8e3defe89b9a", "lon": -77.05425316666667, "lat": 38.9284055, "type": "electric_scooter", "is_disabled": 0, "rental_uris": {"android": "https://dc.lft.to/lastmile_qr_scan", "ios": "https://dc.lft.to/lastmile_qr_scan"}, "fusion_lon": 0.0, "bike_id": "7632721963a3ce87482b8e3defe89b9a", "fusion_lat": 0.0, "is_reserved": 0}, {"name": "638901363c045077527e5957421b8069", "lon": -77.038044, "lat": 38.93216566666667, "type": "electric_scooter", "is_disabled": 0, "rental_uris": {"android": "https://dc.lft.to/lastmile_qr_scan", "ios": "https://dc.lft.to/lastmile_qr_scan"}, "fusion_lon": 0.0, "bike_id": "638901363c045077527e5957421b8069", "fusion_lat": 0.0, "is_reserved": 0}, {"name": "824978df30a870aaa5d827f57a0e2a7e", "lon": -77.01215716666667, "lat": 38.893262666666665, "type": "electric_scooter", "is_disabled": 0, "rental_uris": {"android": "https://dc.lft.to/lastmile_qr_scan", "ios": "https://dc.lft.to/lastmile_qr_scan"}, "fusion_lon": 0.0, "bike_id": "824978df30a870aaa5d827f57a0e2a7e", "fusion_lat": 0.0, "is_reserved": 0}, {"name": "614b4cd751fdd31899501c5658b6fd33", "lon": -77.04859616666667, "lat": 38.91329783333333, "type": "electric_scooter", "is_disabled": 0, "rental_uris": {"android": "https://dc.lft.to/lastmile_qr_scan", "ios": "https://dc.lft.to/lastmile_qr_scan"}, "fusion_lon": 0.0, "bike_id": "614b4cd751fdd31899501c5658b6fd33", "fusion_lat": 0.0, "is_reserved": 0}, {"name": "544ad3dc857bd4be6ac106c959a65256", "lon": -77.02115133333334, "lat": 38.92269016666667, "type": "electric_scooter", "is_disabled": 0, "rental_uris": {"android": "https://dc.lft.to/lastmile_qr_scan", "ios": "https://dc.lft.to/lastmile_qr_scan"}, "fusion_lon": 0.0, "bike_id": "544ad3dc857bd4be6ac106c959a65256", "fusion_lat": 0.0, "is_reserved": 0}, {"name": "4ae6929086bde36db1e4da6da1c0b326", "lon": -77.0723275, "lat": 38.93190883333333, "type": "electric_scooter", "is_disabled": 0, "rental_uris": {"android": "https://dc.lft.to/lastmile_qr_scan", "ios": "https://dc.lft.to/lastmile_qr_scan"}, "fusion_lon": 0.0, "bike_id": "4ae6929086bde36db1e4da6da1c0b326", "fusion_lat": 0.0, "is_reserved": 0}, {"name": "7a84d2864bd5b250316877aa911ad30d", "lon": -77.027932, "lat": 38.9297025, "type": "electric_scooter", "is_disabled": 0, "rental_uris": {"android": "https://dc.lft.to/lastmile_qr_scan", "ios": "https://dc.lft.to/lastmile_qr_scan"}, "fusion_lon": 0.0, "bike_id": "7a84d2864bd5b250316877aa911ad30d", "fusion_lat": 0.0, "is_reserved": 0}, {"name": "adebb31f102a023343f4f72465e5c37c", "lon": -77.029229, "lat": 38.94284183333333, "type": "electric_scooter", "is_disabled": 0, "rental_uris": {"android": "https://dc.lft.to/lastmile_qr_scan", "ios": "https://dc.lft.to/lastmile_qr_scan"}, "fusion_lon": 0.0, "bike_id": "adebb31f102a023343f4f72465e5c37c", "fusion_lat": 0.0, "is_reserved": 0}, {"name": "d4caeb88d19aca550599b067d609d203", "lon": -77.06390866666666, "lat": 38.94407983333333, "type": "electric_scooter", "is_disabled": 0, "rental_uris": {"android": "https://dc.lft.to/lastmile_qr_scan", "ios": "https://dc.lft.to/lastmile_qr_scan"}, "fusion_lon": 0.0, "bike_id": "d4caeb88d19aca550599b067d609d203", "fusion_lat": 0.0, "is_reserved": 0}, {"name": "b5d39e2ccaceb78644f9de5d7ae26af5", "lon": -77.0179905, "lat": 38.887435833333335, "type": "electric_scooter", "is_disabled": 0, "rental_uris": {"android": "https://dc.lft.to/lastmile_qr_scan", "ios": "https://dc.lft.to/lastmile_qr_scan"}, "fusion_lon": 0.0, "bike_id": "b5d39e2ccaceb78644f9de5d7ae26af5", "fusion_lat": 0.0, "is_reserved": 0}, {"name": "6021dd5b2debfc1f53f94e4bec3d9d58", "lon": -77.0307855, "lat": 38.92665266666667, "type": "electric_scooter", "is_disabled": 0, "rental_uris": {"android": "https://dc.lft.to/lastmile_qr_scan", "ios": "https://dc.lft.to/lastmile_qr_scan"}, "fusion_lon": 0.0, "bike_id": "6021dd5b2debfc1f53f94e4bec3d9d58", "fusion_lat": 0.0, "is_reserved": 0}, {"name": "0e42673e8955a31b0d2b0d4264e4d0e3", "lon": -77.03830116666667, "lat": 38.911105166666665, "type": "electric_scooter", "is_disabled": 0, "rental_uris": {"android": "https://dc.lft.to/lastmile_qr_scan", "ios": "https://dc.lft.to/lastmile_qr_scan"}, "fusion_lon": 0.0, "bike_id": "0e42673e8955a31b0d2b0d4264e4d0e3", "fusion_lat": 0.0, "is_reserved": 0}, {"name": "dd52753e03b337dbfb39a1ea6851083b", "lon": -76.93481766666666, "lat": 38.8949895, "type": "electric_scooter", "is_disabled": 0, "rental_uris": {"android": "https://dc.lft.to/lastmile_qr_scan", "ios": "https://dc.lft.to/lastmile_qr_scan"}, "fusion_lon": 0.0, "bike_id": "dd52753e03b337dbfb39a1ea6851083b", "fusion_lat": 0.0, "is_reserved": 0}, {"name": "4e70af8472a76150913d813cdd6d2ebb", "lon": -76.94642716666667, "lat": 38.8986535, "type": "electric_scooter", "is_disabled": 0, "rental_uris": {"android": "https://dc.lft.to/lastmile_qr_scan", "ios": "https://dc.lft.to/lastmile_qr_scan"}, "fusion_lon": 0.0, "bike_id": "4e70af8472a76150913d813cdd6d2ebb", "fusion_lat": 0.0, "is_reserved": 0}, {"name": "35ec586a29ff9c6f554164081ad865f5", "lon": -77.0370185, "lat": 38.92768783333333, "type": "electric_scooter", "is_disabled": 0, "rental_uris": {"android": "https://dc.lft.to/lastmile_qr_scan", "ios": "https://dc.lft.to/lastmile_qr_scan"}, "fusion_lon": 0.0, "bike_id": "35ec586a29ff9c6f554164081ad865f5", "fusion_lat": 0.0, "is_reserved": 0}, {"name": "27c26f3d2d0f87d3efc71cea7ec3d049", "lon": -77.030743, "lat": 38.899696666666664, "type": "electric_scooter", "is_disabled": 0, "rental_uris": {"android": "https://dc.lft.to/lastmile_qr_scan", "ios": "https://dc.lft.to/lastmile_qr_scan"}, "fusion_lon": 0.0, "bike_id": "27c26f3d2d0f87d3efc71cea7ec3d049", "fusion_lat": 0.0, "is_reserved": 0}, {"name": "6a5acff555da9a02d241a58bec3bbed2", "lon": -77.0327175, "lat": 38.9290165, "type": "electric_scooter", "is_disabled": 0, "rental_uris": {"android": "https://dc.lft.to/lastmile_qr_scan", "ios": "https://dc.lft.to/lastmile_qr_scan"}, "fusion_lon": 0.0, "bike_id": "6a5acff555da9a02d241a58bec3bbed2", "fusion_lat": 0.0, "is_reserved": 0}, {"name": "5471bed7288facb0bf7b369175bc6fbf", "lon": -77.07656366666667, "lat": 38.935226, "type": "electric_scooter", "is_disabled": 0, "rental_uris": {"android": "https://dc.lft.to/lastmile_qr_scan", "ios": "https://dc.lft.to/lastmile_qr_scan"}, "fusion_lon": 0.0, "bike_id": "5471bed7288facb0bf7b369175bc6fbf", "fusion_lat": 0.0, "is_reserved": 0}, {"name": "a10100fdb68fb5755c4ec5a7236e1165", "lon": -77.02213466666667, "lat": 38.92470266666667, "type": "electric_scooter", "is_disabled": 0, "rental_uris": {"android": "https://dc.lft.to/lastmile_qr_scan", "ios": "https://dc.lft.to/lastmile_qr_scan"}, "fusion_lon": 0.0, "bike_id": "a10100fdb68fb5755c4ec5a7236e1165", "fusion_lat": 0.0, "is_reserved": 0}, {"name": "66cebe1cc886e3ff6648fe1da8457788", "lon": -77.03329383333333, "lat": 38.91392366666667, "type": "electric_scooter", "is_disabled": 0, "rental_uris": {"android": "https://dc.lft.to/lastmile_qr_scan", "ios": "https://dc.lft.to/lastmile_qr_scan"}, "fusion_lon": 0.0, "bike_id": "66cebe1cc886e3ff6648fe1da8457788", "fusion_lat": 0.0, "is_reserved": 0}, {"name": "1b563e66d892f50316e8028a3ecb3b6b", "lon": -76.98881116666666, "lat": 38.86654633333333, "type": "electric_scooter", "is_disabled": 0, "rental_uris": {"android": "https://dc.lft.to/lastmile_qr_scan", "ios": "https://dc.lft.to/lastmile_qr_scan"}, "fusion_lon": 0.0, "bike_id": "1b563e66d892f50316e8028a3ecb3b6b", "fusion_lat": 0.0, "is_reserved": 0}, {"name": "4f3185b046646c0adb026ed0c2b08ed2", "lon": -77.03397816666667, "lat": 38.924353333333336, "type": "electric_scooter", "is_disabled": 0, "rental_uris": {"android": "https://dc.lft.to/lastmile_qr_scan", "ios": "https://dc.lft.to/lastmile_qr_scan"}, "fusion_lon": 0.0, "bike_id": "4f3185b046646c0adb026ed0c2b08ed2", "fusion_lat": 0.0, "is_reserved": 0}, {"name": "947bdaa10e5d83478151eb081128d579", "lon": -77.02134066666666, "lat": 38.92484266666666, "type": "electric_scooter", "is_disabled": 0, "rental_uris": {"android": "https://dc.lft.to/lastmile_qr_scan", "ios": "https://dc.lft.to/lastmile_qr_scan"}, "fusion_lon": 0.0, "bike_id": "947bdaa10e5d83478151eb081128d579", "fusion_lat": 0.0, "is_reserved": 0}, {"name": "0534320a3a6e3899006ccd1eea2302c6", "lon": -77.022199, "lat": 38.9246615, "type": "electric_scooter", "is_disabled": 0, "rental_uris": {"android": "https://dc.lft.to/lastmile_qr_scan", "ios": "https://dc.lft.to/lastmile_qr_scan"}, "fusion_lon": 0.0, "bike_id": "0534320a3a6e3899006ccd1eea2302c6", "fusion_lat": 0.0, "is_reserved": 0}, {"name": "312e68db2b9871d0d8a55ced125708ad", "lon": -76.9816265, "lat": 38.89944466666667, "type": "electric_scooter", "is_disabled": 0, "rental_uris": {"android": "https://dc.lft.to/lastmile_qr_scan", "ios": "https://dc.lft.to/lastmile_qr_scan"}, "fusion_lon": 0.0, "bike_id": "312e68db2b9871d0d8a55ced125708ad", "fusion_lat": 0.0, "is_reserved": 0}, {"name": "17087caed81afc1d131c494a04a99a83", "lon": -77.02706033333334, "lat": 38.90791183333333, "type": "electric_scooter", "is_disabled": 0, "rental_uris": {"android": "https://dc.lft.to/lastmile_qr_scan", "ios": "https://dc.lft.to/lastmile_qr_scan"}, "fusion_lon": 0.0, "bike_id": "17087caed81afc1d131c494a04a99a83", "fusion_lat": 0.0, "is_reserved": 0}, {"name": "0bac58f13eb921c4182920f874005253", "lon": -77.01352983333334, "lat": 38.8978695, "type": "electric_scooter", "is_disabled": 0, "rental_uris": {"android": "https://dc.lft.to/lastmile_qr_scan", "ios": "https://dc.lft.to/lastmile_qr_scan"}, "fusion_lon": 0.0, "bike_id": "0bac58f13eb921c4182920f874005253", "fusion_lat": 0.0, "is_reserved": 0}, {"name": "46803c232b1e830e7e0a661a984aff32", "lon": -76.95243833333333, "lat": 38.890410833333334, "type": "electric_scooter", "is_disabled": 0, "rental_uris": {"android": "https://dc.lft.to/lastmile_qr_scan", "ios": "https://dc.lft.to/lastmile_qr_scan"}, "fusion_lon": 0.0, "bike_id": "46803c232b1e830e7e0a661a984aff32", "fusion_lat": 0.0, "is_reserved": 0}, {"name": "2f80cff4005de3faa83c5d457c6becc7", "lon": -77.03175783333333, "lat": 38.907285333333334, "type": "electric_scooter", "is_disabled": 0, "rental_uris": {"android": "https://dc.lft.to/lastmile_qr_scan", "ios": "https://dc.lft.to/lastmile_qr_scan"}, "fusion_lon": 0.0, "bike_id": "2f80cff4005de3faa83c5d457c6becc7", "fusion_lat": 0.0, "is_reserved": 0}, {"name": "a79ab7f14d03b276fe26b2fd06055131", "lon": -77.02323683333333, "lat": 38.91927833333333, "type": "electric_scooter", "is_disabled": 0, "rental_uris": {"android": "https://dc.lft.to/lastmile_qr_scan", "ios": "https://dc.lft.to/lastmile_qr_scan"}, "fusion_lon": 0.0, "bike_id": "a79ab7f14d03b276fe26b2fd06055131", "fusion_lat": 0.0, "is_reserved": 0}, {"name": "92db30a74cfe022accc010ba9e07214a", "lon": -77.0364665, "lat": 38.9145415, "type": "electric_scooter", "is_disabled": 0, "rental_uris": {"android": "https://dc.lft.to/lastmile_qr_scan", "ios": "https://dc.lft.to/lastmile_qr_scan"}, "fusion_lon": 0.0, "bike_id": "92db30a74cfe022accc010ba9e07214a", "fusion_lat": 0.0, "is_reserved": 0}, {"name": "bcd9ad6d4e71068ccaab3f251c25420e", "lon": -77.0135365, "lat": 38.89219216666667, "type": "electric_scooter", "is_disabled": 0, "rental_uris": {"android": "https://dc.lft.to/lastmile_qr_scan", "ios": "https://dc.lft.to/lastmile_qr_scan"}, "fusion_lon": 0.0, "bike_id": "bcd9ad6d4e71068ccaab3f251c25420e", "fusion_lat": 0.0, "is_reserved": 0}, {"name": "e57b929a5825ed605d061fab38cae3b1", "lon": -77.032721, "lat": 38.89886833333333, "type": "electric_scooter", "is_disabled": 0, "rental_uris": {"android": "https://dc.lft.to/lastmile_qr_scan", "ios": "https://dc.lft.to/lastmile_qr_scan"}, "fusion_lon": 0.0, "bike_id": "e57b929a5825ed605d061fab38cae3b1", "fusion_lat": 0.0, "is_reserved": 0}, {"name": "2af3a5925f138e832d5c9172cb21460e", "lon": -77.02531166666667, "lat": 38.937491, "type": "electric_scooter", "is_disabled": 0, "rental_uris": {"android": "https://dc.lft.to/lastmile_qr_scan", "ios": "https://dc.lft.to/lastmile_qr_scan"}, "fusion_lon": 0.0, "bike_id": "2af3a5925f138e832d5c9172cb21460e", "fusion_lat": 0.0, "is_reserved": 0}, {"name": "1f97c8df29ac8594ccfaf6f14e9b1bdd", "lon": -77.02729483333333, "lat": 38.92873216666667, "type": "electric_scooter", "is_disabled": 0, "rental_uris": {"android": "https://dc.lft.to/lastmile_qr_scan", "ios": "https://dc.lft.to/lastmile_qr_scan"}, "fusion_lon": 0.0, "bike_id": "1f97c8df29ac8594ccfaf6f14e9b1bdd", "fusion_lat": 0.0, "is_reserved": 0}, {"name": "795271eb0953675b062c32e8df939948", "lon": -77.04010383333333, "lat": 38.9033735, "type": "electric_scooter", "is_disabled": 0, "rental_uris": {"android": "https://dc.lft.to/lastmile_qr_scan", "ios": "https://dc.lft.to/lastmile_qr_scan"}, "fusion_lon": 0.0, "bike_id": "795271eb0953675b062c32e8df939948", "fusion_lat": 0.0, "is_reserved": 0}, {"name": "2c8d6fc0d4586585e649c84bb9fab105", "lon": -77.01149816666667, "lat": 38.9568345, "type": "electric_scooter", "is_disabled": 0, "rental_uris": {"android": "https://dc.lft.to/lastmile_qr_scan", "ios": "https://dc.lft.to/lastmile_qr_scan"}, "fusion_lon": 0.0, "bike_id": "2c8d6fc0d4586585e649c84bb9fab105", "fusion_lat": 0.0, "is_reserved": 0}, {"name": "5f846186cbe307baae3341780be1c2a9", "lon": -77.0385755, "lat": 38.90288183333333, "type": "electric_scooter", "is_disabled": 0, "rental_uris": {"android": "https://dc.lft.to/lastmile_qr_scan", "ios": "https://dc.lft.to/lastmile_qr_scan"}, "fusion_lon": 0.0, "bike_id": "5f846186cbe307baae3341780be1c2a9", "fusion_lat": 0.0, "is_reserved": 0}, {"name": "fa1afa463baf1194e48a1d0fce388625", "lon": -77.02222533333334, "lat": 38.91254566666667, "type": "electric_scooter", "is_disabled": 0, "rental_uris": {"android": "https://dc.lft.to/lastmile_qr_scan", "ios": "https://dc.lft.to/lastmile_qr_scan"}, "fusion_lon": 0.0, "bike_id": "fa1afa463baf1194e48a1d0fce388625", "fusion_lat": 0.0, "is_reserved": 0}, {"name": "df6cc2880f606e5e34fb771ff0c6a944", "lon": -77.04351566666666, "lat": 38.90015266666666, "type": "electric_scooter", "is_disabled": 0, "rental_uris": {"android": "https://dc.lft.to/lastmile_qr_scan", "ios": "https://dc.lft.to/lastmile_qr_scan"}, "fusion_lon": 0.0, "bike_id": "df6cc2880f606e5e34fb771ff0c6a944", "fusion_lat": 0.0, "is_reserved": 0}, {"name": "6b5a384d381c81cae91996e8796f4039", "lon": -77.02967916666667, "lat": 38.90497216666667, "type": "electric_scooter", "is_disabled": 0, "rental_uris": {"android": "https://dc.lft.to/lastmile_qr_scan", "ios": "https://dc.lft.to/lastmile_qr_scan"}, "fusion_lon": 0.0, "bike_id": "6b5a384d381c81cae91996e8796f4039", "fusion_lat": 0.0, "is_reserved": 0}, {"name": "2371f5c093a0c4f4b52adba6f920cf49", "lon": -77.01372466666666, "lat": 38.87897066666667, "type": "electric_scooter", "is_disabled": 0, "rental_uris": {"android": "https://dc.lft.to/lastmile_qr_scan", "ios": "https://dc.lft.to/lastmile_qr_scan"}, "fusion_lon": 0.0, "bike_id": "2371f5c093a0c4f4b52adba6f920cf49", "fusion_lat": 0.0, "is_reserved": 0}, {"name": "040a312d08f914b0425532887878e6d4", "lon": -77.02007166666667, "lat": 38.90335683333333, "type": "electric_scooter", "is_disabled": 0, "rental_uris": {"android": "https://dc.lft.to/lastmile_qr_scan", "ios": "https://dc.lft.to/lastmile_qr_scan"}, "fusion_lon": 0.0, "bike_id": "040a312d08f914b0425532887878e6d4", "fusion_lat": 0.0, "is_reserved": 0}, {"name": "72d5b5a068d46796ec0735fba5011776", "lon": -77.0326725, "lat": 38.92896966666667, "type": "electric_scooter", "is_disabled": 0, "rental_uris": {"android": "https://dc.lft.to/lastmile_qr_scan", "ios": "https://dc.lft.to/lastmile_qr_scan"}, "fusion_lon": 0.0, "bike_id": "72d5b5a068d46796ec0735fba5011776", "fusion_lat": 0.0, "is_reserved": 0}, {"name": "e54caec2e9a17080d586944fe1f00b9a", "lon": -77.04, "lat": 38.93423666666666, "type": "electric_scooter", "is_disabled": 0, "rental_uris": {"android": "https://dc.lft.to/lastmile_qr_scan", "ios": "https://dc.lft.to/lastmile_qr_scan"}, "fusion_lon": 0.0, "bike_id": "e54caec2e9a17080d586944fe1f00b9a", "fusion_lat": 0.0, "is_reserved": 0}, {"name": "cdb72005d080df98b987c875c4271e2f", "lon": -76.9705525, "lat": 38.95875566666667, "type": "electric_bike", "is_disabled": 0, "rental_uris": {"android": "https://dc.lft.to/lastmile_qr_scan", "ios": "https://dc.lft.to/lastmile_qr_scan"}, "fusion_lon": 0.0, "bike_id": "cdb72005d080df98b987c875c4271e2f", "fusion_lat": 0.0, "is_reserved": 0}, {"name": "81c3b1b3707dffcd06b852cb3155067b", "lon": -77.03673383333333, "lat": 38.92150783333334, "type": "electric_scooter", "is_disabled": 0, "rental_uris": {"android": "https://dc.lft.to/lastmile_qr_scan", "ios": "https://dc.lft.to/lastmile_qr_scan"}, "fusion_lon": 0.0, "bike_id": "81c3b1b3707dffcd06b852cb3155067b", "fusion_lat": 0.0, "is_reserved": 0}, {"name": "1765c72e0152f15a664f161cf9204615", "lon": -77.01599683333333, "lat": 38.899614666666665, "type": "electric_scooter", "is_disabled": 0, "rental_uris": {"android": "https://dc.lft.to/lastmile_qr_scan", "ios": "https://dc.lft.to/lastmile_qr_scan"}, "fusion_lon": 0.0, "bike_id": "1765c72e0152f15a664f161cf9204615", "fusion_lat": 0.0, "is_reserved": 0}, {"name": "3e81b8a7ac462bd2d3992546c6c40127", "lon": -77.016047, "lat": 38.8996185, "type": "electric_scooter", "is_disabled": 0, "rental_uris": {"android": "https://dc.lft.to/lastmile_qr_scan", "ios": "https://dc.lft.to/lastmile_qr_scan"}, "fusion_lon": 0.0, "bike_id": "3e81b8a7ac462bd2d3992546c6c40127", "fusion_lat": 0.0, "is_reserved": 0}, {"name": "6a93755940fb2d09f215ea51e34535bb", "lon": -77.03232966666667, "lat": 38.9268535, "type": "electric_scooter", "is_disabled": 0, "rental_uris": {"android": "https://dc.lft.to/lastmile_qr_scan", "ios": "https://dc.lft.to/lastmile_qr_scan"}, "fusion_lon": 0.0, "bike_id": "6a93755940fb2d09f215ea51e34535bb", "fusion_lat": 0.0, "is_reserved": 0}, {"name": "4f1a49ebd8a3285bbbd183aaa6a38e94", "lon": -77.01972483333333, "lat": 38.908494166666664, "type": "electric_scooter", "is_disabled": 0, "rental_uris": {"android": "https://dc.lft.to/lastmile_qr_scan", "ios": "https://dc.lft.to/lastmile_qr_scan"}, "fusion_lon": 0.0, "bike_id": "4f1a49ebd8a3285bbbd183aaa6a38e94", "fusion_lat": 0.0, "is_reserved": 0}, {"name": "e4bc31daac368cb564d0502cb591a546", "lon": -76.973291, "lat": 38.904084166666664, "type": "electric_scooter", "is_disabled": 0, "rental_uris": {"android": "https://dc.lft.to/lastmile_qr_scan", "ios": "https://dc.lft.to/lastmile_qr_scan"}, "fusion_lon": 0.0, "bike_id": "e4bc31daac368cb564d0502cb591a546", "fusion_lat": 0.0, "is_reserved": 0}, {"name": "b09fff6ef7ac3db339075696b84dd820", "lon": -77.03208716666667, "lat": 38.8923255, "type": "electric_scooter", "is_disabled": 0, "rental_uris": {"android": "https://dc.lft.to/lastmile_qr_scan", "ios": "https://dc.lft.to/lastmile_qr_scan"}, "fusion_lon": 0.0, "bike_id": "b09fff6ef7ac3db339075696b84dd820", "fusion_lat": 0.0, "is_reserved": 0}, {"name": "a3cdec4f0bd69e9edb65afe32029cb4c", "lon": -77.036359, "lat": 38.903788, "type": "electric_scooter", "is_disabled": 0, "rental_uris": {"android": "https://dc.lft.to/lastmile_qr_scan", "ios": "https://dc.lft.to/lastmile_qr_scan"}, "fusion_lon": 0.0, "bike_id": "a3cdec4f0bd69e9edb65afe32029cb4c", "fusion_lat": 0.0, "is_reserved": 0}, {"name": "22428a0fc3d93ec6a4d66a9e40877709", "lon": -76.99409583333333, "lat": 38.877855833333335, "type": "electric_scooter", "is_disabled": 0, "rental_uris": {"android": "https://dc.lft.to/lastmile_qr_scan", "ios": "https://dc.lft.to/lastmile_qr_scan"}, "fusion_lon": 0.0, "bike_id": "22428a0fc3d93ec6a4d66a9e40877709", "fusion_lat": 0.0, "is_reserved": 0}, {"name": "49f3f74c4b4547e3fbc99ff6f3db4e7f", "lon": -77.02817583333334, "lat": 38.899128166666664, "type": "electric_scooter", "is_disabled": 0, "rental_uris": {"android": "https://dc.lft.to/lastmile_qr_scan", "ios": "https://dc.lft.to/lastmile_qr_scan"}, "fusion_lon": 0.0, "bike_id": "49f3f74c4b4547e3fbc99ff6f3db4e7f", "fusion_lat": 0.0, "is_reserved": 0}, {"name": "0bf5b57e75d91b1ed602ad3f9fa1e04d", "lon": -77.03447716666666, "lat": 38.920499, "type": "electric_scooter", "is_disabled": 0, "rental_uris": {"android": "https://dc.lft.to/lastmile_qr_scan", "ios": "https://dc.lft.to/lastmile_qr_scan"}, "fusion_lon": 0.0, "bike_id": "0bf5b57e75d91b1ed602ad3f9fa1e04d", "fusion_lat": 0.0, "is_reserved": 0}, {"name": "db001163982b9435a8fedeb5bcb08d7c", "lon": -77.00181416666666, "lat": 38.90716483333333, "type": "electric_scooter", "is_disabled": 0, "rental_uris": {"android": "https://dc.lft.to/lastmile_qr_scan", "ios": "https://dc.lft.to/lastmile_qr_scan"}, "fusion_lon": 0.0, "bike_id": "db001163982b9435a8fedeb5bcb08d7c", "fusion_lat": 0.0, "is_reserved": 0}, {"name": "bc8efc722983ab13b36b9bdd0b0a3a3f", "lon": -77.07839366666667, "lat": 38.949189, "type": "electric_bike", "is_disabled": 0, "rental_uris": {"android": "https://dc.lft.to/lastmile_qr_scan", "ios": "https://dc.lft.to/lastmile_qr_scan"}, "fusion_lon": 0.0, "bike_id": "bc8efc722983ab13b36b9bdd0b0a3a3f", "fusion_lat": 0.0, "is_reserved": 0}, {"name": "518650dd496e35642e5b953b8e0aedd7", "lon": -77.05037866666666, "lat": 38.896584833333335, "type": "electric_scooter", "is_disabled": 0, "rental_uris": {"android": "https://dc.lft.to/lastmile_qr_scan", "ios": "https://dc.lft.to/lastmile_qr_scan"}, "fusion_lon": 0.0, "bike_id": "518650dd496e35642e5b953b8e0aedd7", "fusion_lat": 0.0, "is_reserved": 0}, {"name": "74132089e0f9bad936a6d2fece6565f4", "lon": -77.0351625, "lat": 38.918325333333335, "type": "electric_scooter", "is_disabled": 0, "rental_uris": {"android": "https://dc.lft.to/lastmile_qr_scan", "ios": "https://dc.lft.to/lastmile_qr_scan"}, "fusion_lon": 0.0, "bike_id": "74132089e0f9bad936a6d2fece6565f4", "fusion_lat": 0.0, "is_reserved": 0}, {"name": "bcfb45642b5f82b110fb029d837f39df", "lon": -77.038688, "lat": 38.906535, "type": "electric_scooter", "is_disabled": 0, "rental_uris": {"android": "https://dc.lft.to/lastmile_qr_scan", "ios": "https://dc.lft.to/lastmile_qr_scan"}, "fusion_lon": 0.0, "bike_id": "bcfb45642b5f82b110fb029d837f39df", "fusion_lat": 0.0, "is_reserved": 0}, {"name": "3428f121c2b60992239e734e7f8f9544", "lon": -77.0396955, "lat": 38.902584166666664, "type": "electric_scooter", "is_disabled": 0, "rental_uris": {"android": "https://dc.lft.to/lastmile_qr_scan", "ios": "https://dc.lft.to/lastmile_qr_scan"}, "fusion_lon": 0.0, "bike_id": "3428f121c2b60992239e734e7f8f9544", "fusion_lat": 0.0, "is_reserved": 0}, {"name": "28107979dfe671beddfb83214017ab36", "lon": -76.99407483333333, "lat": 38.8778205, "type": "electric_scooter", "is_disabled": 0, "rental_uris": {"android": "https://dc.lft.to/lastmile_qr_scan", "ios": "https://dc.lft.to/lastmile_qr_scan"}, "fusion_lon": 0.0, "bike_id": "28107979dfe671beddfb83214017ab36", "fusion_lat": 0.0, "is_reserved": 0}, {"name": "dcbd7cd5fa2271a6bf0a9becc3eb455e", "lon": -77.041501, "lat": 38.923509, "type": "electric_scooter", "is_disabled": 0, "rental_uris": {"android": "https://dc.lft.to/lastmile_qr_scan", "ios": "https://dc.lft.to/lastmile_qr_scan"}, "fusion_lon": 0.0, "bike_id": "dcbd7cd5fa2271a6bf0a9becc3eb455e", "fusion_lat": 0.0, "is_reserved": 0}, {"name": "a6c1fcbe5ccabe42dc233de794977a04", "lon": -77.01957066666667, "lat": 38.923210166666664, "type": "electric_scooter", "is_disabled": 0, "rental_uris": {"android": "https://dc.lft.to/lastmile_qr_scan", "ios": "https://dc.lft.to/lastmile_qr_scan"}, "fusion_lon": 0.0, "bike_id": "a6c1fcbe5ccabe42dc233de794977a04", "fusion_lat": 0.0, "is_reserved": 0}, {"name": "8c70ede6dcb6f02276dc3c8d1fed5c91", "lon": -77.01570116666667, "lat": 38.92684, "type": "electric_scooter", "is_disabled": 0, "rental_uris": {"android": "https://dc.lft.to/lastmile_qr_scan", "ios": "https://dc.lft.to/lastmile_qr_scan"}, "fusion_lon": 0.0, "bike_id": "8c70ede6dcb6f02276dc3c8d1fed5c91", "fusion_lat": 0.0, "is_reserved": 0}, {"name": "bfbbbd73a8e156fc8a5eb0ac6acc9349", "lon": -77.024959, "lat": 38.9417115, "type": "electric_scooter", "is_disabled": 0, "rental_uris": {"android": "https://dc.lft.to/lastmile_qr_scan", "ios": "https://dc.lft.to/lastmile_qr_scan"}, "fusion_lon": 0.0, "bike_id": "bfbbbd73a8e156fc8a5eb0ac6acc9349", "fusion_lat": 0.0, "is_reserved": 0}, {"name": "8240152529dc6381bc5cb8dbc63a1441", "lon": -76.98653783333333, "lat": 38.858033, "type": "electric_scooter", "is_disabled": 0, "rental_uris": {"android": "https://dc.lft.to/lastmile_qr_scan", "ios": "https://dc.lft.to/lastmile_qr_scan"}, "fusion_lon": 0.0, "bike_id": "8240152529dc6381bc5cb8dbc63a1441", "fusion_lat": 0.0, "is_reserved": 0}, {"name": "b00002fc7171e60ccfc1c649f12181ae", "lon": -76.98712633333334, "lat": 38.8663065, "type": "electric_scooter", "is_disabled": 0, "rental_uris": {"android": "https://dc.lft.to/lastmile_qr_scan", "ios": "https://dc.lft.to/lastmile_qr_scan"}, "fusion_lon": 0.0, "bike_id": "b00002fc7171e60ccfc1c649f12181ae", "fusion_lat": 0.0, "is_reserved": 0}, {"name": "b75efea9f25e1d7316246d4d3af310e3", "lon": -77.03711266666667, "lat": 38.926335, "type": "electric_scooter", "is_disabled": 0, "rental_uris": {"android": "https://dc.lft.to/lastmile_qr_scan", "ios": "https://dc.lft.to/lastmile_qr_scan"}, "fusion_lon": 0.0, "bike_id": "b75efea9f25e1d7316246d4d3af310e3", "fusion_lat": 0.0, "is_reserved": 0}, {"name": "060940ddb48b1c6df1d5ffb0173baf7e", "lon": -77.04343916666667, "lat": 38.90127183333333, "type": "electric_scooter", "is_disabled": 0, "rental_uris": {"android": "https://dc.lft.to/lastmile_qr_scan", "ios": "https://dc.lft.to/lastmile_qr_scan"}, "fusion_lon": 0.0, "bike_id": "060940ddb48b1c6df1d5ffb0173baf7e", "fusion_lat": 0.0, "is_reserved": 0}, {"name": "c3cc43256edda79415a261921224edd1", "lon": -76.9955875, "lat": 38.920669, "type": "electric_scooter", "is_disabled": 0, "rental_uris": {"android": "https://dc.lft.to/lastmile_qr_scan", "ios": "https://dc.lft.to/lastmile_qr_scan"}, "fusion_lon": 0.0, "bike_id": "c3cc43256edda79415a261921224edd1", "fusion_lat": 0.0, "is_reserved": 0}, {"name": "169c789d3e555dc3e53d69df568cc3a5", "lon": -77.03186483333333, "lat": 38.90100433333333, "type": "electric_scooter", "is_disabled": 0, "rental_uris": {"android": "https://dc.lft.to/lastmile_qr_scan", "ios": "https://dc.lft.to/lastmile_qr_scan"}, "fusion_lon": 0.0, "bike_id": "169c789d3e555dc3e53d69df568cc3a5", "fusion_lat": 0.0, "is_reserved": 0}, {"name": "c92b2d76dc45227f26f41c66358a9749", "lon": -77.01530166666667, "lat": 38.884058833333334, "type": "electric_scooter", "is_disabled": 0, "rental_uris": {"android": "https://dc.lft.to/lastmile_qr_scan", "ios": "https://dc.lft.to/lastmile_qr_scan"}, "fusion_lon": 0.0, "bike_id": "c92b2d76dc45227f26f41c66358a9749", "fusion_lat": 0.0, "is_reserved": 0}, {"name": "74ffec1dc78f42151bbd17f5f978a685", "lon": -77.03868233333333, "lat": 38.9029695, "type": "electric_scooter", "is_disabled": 0, "rental_uris": {"android": "https://dc.lft.to/lastmile_qr_scan", "ios": "https://dc.lft.to/lastmile_qr_scan"}, "fusion_lon": 0.0, "bike_id": "74ffec1dc78f42151bbd17f5f978a685", "fusion_lat": 0.0, "is_reserved": 0}, {"name": "ca59897fc8968dc30e2a30370dc905bb", "lon": -76.98570566666666, "lat": 38.86677733333333, "type": "electric_scooter", "is_disabled": 0, "rental_uris": {"android": "https://dc.lft.to/lastmile_qr_scan", "ios": "https://dc.lft.to/lastmile_qr_scan"}, "fusion_lon": 0.0, "bike_id": "ca59897fc8968dc30e2a30370dc905bb", "fusion_lat": 0.0, "is_reserved": 0}, {"name": "f7cf602afc70c912f3ed109e2c0ba0b4", "lon": -77.0416735, "lat": 38.918308333333336, "type": "electric_scooter", "is_disabled": 0, "rental_uris": {"android": "https://dc.lft.to/lastmile_qr_scan", "ios": "https://dc.lft.to/lastmile_qr_scan"}, "fusion_lon": 0.0, "bike_id": "f7cf602afc70c912f3ed109e2c0ba0b4", "fusion_lat": 0.0, "is_reserved": 0}, {"name": "693401d19996f0e028e298f198fc9420", "lon": -77.03240783333334, "lat": 38.92726316666667, "type": "electric_scooter", "is_disabled": 0, "rental_uris": {"android": "https://dc.lft.to/lastmile_qr_scan", "ios": "https://dc.lft.to/lastmile_qr_scan"}, "fusion_lon": 0.0, "bike_id": "693401d19996f0e028e298f198fc9420", "fusion_lat": 0.0, "is_reserved": 0}, {"name": "2162da1fcdcf7f9c7beedddaf68dd0bc", "lon": -77.03330033333333, "lat": 38.8982105, "type": "electric_scooter", "is_disabled": 0, "rental_uris": {"android": "https://dc.lft.to/lastmile_qr_scan", "ios": "https://dc.lft.to/lastmile_qr_scan"}, "fusion_lon": 0.0, "bike_id": "2162da1fcdcf7f9c7beedddaf68dd0bc", "fusion_lat": 0.0, "is_reserved": 0}, {"name": "006572d69bb311858d1268467fcd4be8", "lon": -77.01722366666667, "lat": 38.8923145, "type": "electric_scooter", "is_disabled": 0, "rental_uris": {"android": "https://dc.lft.to/lastmile_qr_scan", "ios": "https://dc.lft.to/lastmile_qr_scan"}, "fusion_lon": 0.0, "bike_id": "006572d69bb311858d1268467fcd4be8", "fusion_lat": 0.0, "is_reserved": 0}, {"name": "990359eb36923410ede75c605b5ced7b", "lon": -77.01773216666666, "lat": 38.88412833333334, "type": "electric_scooter", "is_disabled": 0, "rental_uris": {"android": "https://dc.lft.to/lastmile_qr_scan", "ios": "https://dc.lft.to/lastmile_qr_scan"}, "fusion_lon": 0.0, "bike_id": "990359eb36923410ede75c605b5ced7b", "fusion_lat": 0.0, "is_reserved": 0}, {"name": "41f2c99ae9306b17955e2f53107b00d2", "lon": -77.02138966666666, "lat": 38.92341916666667, "type": "electric_scooter", "is_disabled": 0, "rental_uris": {"android": "https://dc.lft.to/lastmile_qr_scan", "ios": "https://dc.lft.to/lastmile_qr_scan"}, "fusion_lon": 0.0, "bike_id": "41f2c99ae9306b17955e2f53107b00d2", "fusion_lat": 0.0, "is_reserved": 0}, {"name": "157f4c2a80e034e37775992b0dbd7102", "lon": -77.02978016666667, "lat": 38.923590833333336, "type": "electric_scooter", "is_disabled": 0, "rental_uris": {"android": "https://dc.lft.to/lastmile_qr_scan", "ios": "https://dc.lft.to/lastmile_qr_scan"}, "fusion_lon": 0.0, "bike_id": "157f4c2a80e034e37775992b0dbd7102", "fusion_lat": 0.0, "is_reserved": 0}, {"name": "f13377c31c16f09c29f1dc1f0e1c693e", "lon": -77.12483316666666, "lat": 38.827786, "type": "electric_bike", "is_disabled": 0, "rental_uris": {"android": "https://dc.lft.to/lastmile_qr_scan", "ios": "https://dc.lft.to/lastmile_qr_scan"}, "fusion_lon": 0.0, "bike_id": "f13377c31c16f09c29f1dc1f0e1c693e", "fusion_lat": 0.0, "is_reserved": 0}, {"name": "d4d843936d7ca487566563a9860f26b1", "lon": -77.0241165, "lat": 38.8996465, "type": "electric_scooter", "is_disabled": 0, "rental_uris": {"android": "https://dc.lft.to/lastmile_qr_scan", "ios": "https://dc.lft.to/lastmile_qr_scan"}, "fusion_lon": 0.0, "bike_id": "d4d843936d7ca487566563a9860f26b1", "fusion_lat": 0.0, "is_reserved": 0}, {"name": "cded1561d600a64bc5d73a88596d8516", "lon": -77.0020105, "lat": 38.9060295, "type": "electric_scooter", "is_disabled": 0, "rental_uris": {"android": "https://dc.lft.to/lastmile_qr_scan", "ios": "https://dc.lft.to/lastmile_qr_scan"}, "fusion_lon": 0.0, "bike_id": "cded1561d600a64bc5d73a88596d8516", "fusion_lat": 0.0, "is_reserved": 0}, {"name": "f9995c9db6ffc82a0ccc530f04bc1bc8", "lon": -77.04194933333333, "lat": 38.89220133333333, "type": "electric_scooter", "is_disabled": 0, "rental_uris": {"android": "https://dc.lft.to/lastmile_qr_scan", "ios": "https://dc.lft.to/lastmile_qr_scan"}, "fusion_lon": 0.0, "bike_id": "f9995c9db6ffc82a0ccc530f04bc1bc8", "fusion_lat": 0.0, "is_reserved": 0}, {"name": "ce2a5de735cca15655c7f5051306fbd5", "lon": -77.01723733333333, "lat": 38.9549105, "type": "electric_scooter", "is_disabled": 0, "rental_uris": {"android": "https://dc.lft.to/lastmile_qr_scan", "ios": "https://dc.lft.to/lastmile_qr_scan"}, "fusion_lon": 0.0, "bike_id": "ce2a5de735cca15655c7f5051306fbd5", "fusion_lat": 0.0, "is_reserved": 0}, {"name": "e6114dcb06154563ba0735e1292ae3ef", "lon": -77.01399416666666, "lat": 38.92821, "type": "electric_scooter", "is_disabled": 0, "rental_uris": {"android": "https://dc.lft.to/lastmile_qr_scan", "ios": "https://dc.lft.to/lastmile_qr_scan"}, "fusion_lon": 0.0, "bike_id": "e6114dcb06154563ba0735e1292ae3ef", "fusion_lat": 0.0, "is_reserved": 0}, {"name": "fbffeee0aae2579ac1efa7431628d341", "lon": -77.018968, "lat": 38.92359783333333, "type": "electric_scooter", "is_disabled": 0, "rental_uris": {"android": "https://dc.lft.to/lastmile_qr_scan", "ios": "https://dc.lft.to/lastmile_qr_scan"}, "fusion_lon": 0.0, "bike_id": "fbffeee0aae2579ac1efa7431628d341", "fusion_lat": 0.0, "is_reserved": 0}, {"name": "916b63245058a7026e4ed654184064bc", "lon": -77.02735116666666, "lat": 38.92765583333333, "type": "electric_scooter", "is_disabled": 0, "rental_uris": {"android": "https://dc.lft.to/lastmile_qr_scan", "ios": "https://dc.lft.to/lastmile_qr_scan"}, "fusion_lon": 0.0, "bike_id": "916b63245058a7026e4ed654184064bc", "fusion_lat": 0.0, "is_reserved": 0}, {"name": "aea0a51c5dab28a9ebc8243526a7e28a", "lon": -76.98409966666667, "lat": 38.84646266666667, "type": "electric_scooter", "is_disabled": 0, "rental_uris": {"android": "https://dc.lft.to/lastmile_qr_scan", "ios": "https://dc.lft.to/lastmile_qr_scan"}, "fusion_lon": 0.0, "bike_id": "aea0a51c5dab28a9ebc8243526a7e28a", "fusion_lat": 0.0, "is_reserved": 0}, {"name": "d209d79e3536b4c20cd8fbc6ea1b4afd", "lon": -77.01891333333333, "lat": 38.8747205, "type": "electric_scooter", "is_disabled": 0, "rental_uris": {"android": "https://dc.lft.to/lastmile_qr_scan", "ios": "https://dc.lft.to/lastmile_qr_scan"}, "fusion_lon": 0.0, "bike_id": "d209d79e3536b4c20cd8fbc6ea1b4afd", "fusion_lat": 0.0, "is_reserved": 0}, {"name": "82a5232f38905dac62ea5ee44817a28d", "lon": -77.0392565, "lat": 38.90279816666666, "type": "electric_scooter", "is_disabled": 0, "rental_uris": {"android": "https://dc.lft.to/lastmile_qr_scan", "ios": "https://dc.lft.to/lastmile_qr_scan"}, "fusion_lon": 0.0, "bike_id": "82a5232f38905dac62ea5ee44817a28d", "fusion_lat": 0.0, "is_reserved": 0}, {"name": "22d59429f7918d54624749df0d6b6ac3", "lon": -77.00622566666667, "lat": 38.952548, "type": "electric_bike", "is_disabled": 0, "rental_uris": {"android": "https://dc.lft.to/lastmile_qr_scan", "ios": "https://dc.lft.to/lastmile_qr_scan"}, "fusion_lon": 0.0, "bike_id": "22d59429f7918d54624749df0d6b6ac3", "fusion_lat": 0.0, "is_reserved": 0}, {"name": "6ba01810dd17a026c150968fde100744", "lon": -77.043218, "lat": 38.905683, "type": "electric_scooter", "is_disabled": 0, "rental_uris": {"android": "https://dc.lft.to/lastmile_qr_scan", "ios": "https://dc.lft.to/lastmile_qr_scan"}, "fusion_lon": 0.0, "bike_id": "6ba01810dd17a026c150968fde100744", "fusion_lat": 0.0, "is_reserved": 0}, {"name": "34a44ac5ffe956e6a075af01f414a3ce", "lon": -77.02697316666666, "lat": 38.9180325, "type": "electric_scooter", "is_disabled": 0, "rental_uris": {"android": "https://dc.lft.to/lastmile_qr_scan", "ios": "https://dc.lft.to/lastmile_qr_scan"}, "fusion_lon": 0.0, "bike_id": "34a44ac5ffe956e6a075af01f414a3ce", "fusion_lat": 0.0, "is_reserved": 0}, {"name": "ed1ae3d99ca2d9464ad465ead4131986", "lon": -76.92044633333333, "lat": 38.8973405, "type": "electric_bike", "is_disabled": 0, "rental_uris": {"android": "https://dc.lft.to/lastmile_qr_scan", "ios": "https://dc.lft.to/lastmile_qr_scan"}, "fusion_lon": 0.0, "bike_id": "ed1ae3d99ca2d9464ad465ead4131986", "fusion_lat": 0.0, "is_reserved": 0}, {"name": "a7967571e6d2786194275361836e30be", "lon": -77.031964, "lat": 38.915712666666664, "type": "electric_scooter", "is_disabled": 0, "rental_uris": {"android": "https://dc.lft.to/lastmile_qr_scan", "ios": "https://dc.lft.to/lastmile_qr_scan"}, "fusion_lon": 0.0, "bike_id": "a7967571e6d2786194275361836e30be", "fusion_lat": 0.0, "is_reserved": 0}, {"name": "c12d0b52d931536bc2d326606462e242", "lon": -77.022215, "lat": 38.90156483333333, "type": "electric_scooter", "is_disabled": 0, "rental_uris": {"android": "https://dc.lft.to/lastmile_qr_scan", "ios": "https://dc.lft.to/lastmile_qr_scan"}, "fusion_lon": 0.0, "bike_id": "c12d0b52d931536bc2d326606462e242", "fusion_lat": 0.0, "is_reserved": 0}, {"name": "ae195d6b49bc78e9857033fc020c8a98", "lon": -77.02350966666667, "lat": 38.93534866666667, "type": "electric_scooter", "is_disabled": 0, "rental_uris": {"android": "https://dc.lft.to/lastmile_qr_scan", "ios": "https://dc.lft.to/lastmile_qr_scan"}, "fusion_lon": 0.0, "bike_id": "ae195d6b49bc78e9857033fc020c8a98", "fusion_lat": 0.0, "is_reserved": 0}, {"name": "29fd6b3defe38256eb57e47c1b52ad60", "lon": -77.01996366666667, "lat": 38.9662625, "type": "electric_scooter", "is_disabled": 0, "rental_uris": {"android": "https://dc.lft.to/lastmile_qr_scan", "ios": "https://dc.lft.to/lastmile_qr_scan"}, "fusion_lon": 0.0, "bike_id": "29fd6b3defe38256eb57e47c1b52ad60", "fusion_lat": 0.0, "is_reserved": 0}, {"name": "60947c94bdbb9fda6fde4c4ed2326883", "lon": -77.00555533333333, "lat": 38.87467266666667, "type": "electric_scooter", "is_disabled": 0, "rental_uris": {"android": "https://dc.lft.to/lastmile_qr_scan", "ios": "https://dc.lft.to/lastmile_qr_scan"}, "fusion_lon": 0.0, "bike_id": "60947c94bdbb9fda6fde4c4ed2326883", "fusion_lat": 0.0, "is_reserved": 0}, {"name": "3a437e96c43d67ed7220bf738c48802e", "lon": -77.04081583333334, "lat": 38.93275216666667, "type": "electric_scooter", "is_disabled": 0, "rental_uris": {"android": "https://dc.lft.to/lastmile_qr_scan", "ios": "https://dc.lft.to/lastmile_qr_scan"}, "fusion_lon": 0.0, "bike_id": "3a437e96c43d67ed7220bf738c48802e", "fusion_lat": 0.0, "is_reserved": 0}, {"name": "e29d2f9274e527d74ed439b9d36c373f", "lon": -76.99673416666667, "lat": 38.856497, "type": "electric_scooter", "is_disabled": 0, "rental_uris": {"android": "https://dc.lft.to/lastmile_qr_scan", "ios": "https://dc.lft.to/lastmile_qr_scan"}, "fusion_lon": 0.0, "bike_id": "e29d2f9274e527d74ed439b9d36c373f", "fusion_lat": 0.0, "is_reserved": 0}, {"name": "5ba638eac84ec75b35c23ce822a4aa74", "lon": -77.02072716666666, "lat": 38.89472583333333, "type": "electric_scooter", "is_disabled": 0, "rental_uris": {"android": "https://dc.lft.to/lastmile_qr_scan", "ios": "https://dc.lft.to/lastmile_qr_scan"}, "fusion_lon": 0.0, "bike_id": "5ba638eac84ec75b35c23ce822a4aa74", "fusion_lat": 0.0, "is_reserved": 0}, {"name": "73fa1cc4fc93d14abcbd10df4591a99b", "lon": -77.032027, "lat": 38.9083565, "type": "electric_scooter", "is_disabled": 0, "rental_uris": {"android": "https://dc.lft.to/lastmile_qr_scan", "ios": "https://dc.lft.to/lastmile_qr_scan"}, "fusion_lon": 0.0, "bike_id": "73fa1cc4fc93d14abcbd10df4591a99b", "fusion_lat": 0.0, "is_reserved": 0}, {"name": "e41a524e19fd47d1d097628aacd994d3", "lon": -77.03949383333334, "lat": 38.919655666666664, "type": "electric_scooter", "is_disabled": 0, "rental_uris": {"android": "https://dc.lft.to/lastmile_qr_scan", "ios": "https://dc.lft.to/lastmile_qr_scan"}, "fusion_lon": 0.0, "bike_id": "e41a524e19fd47d1d097628aacd994d3", "fusion_lat": 0.0, "is_reserved": 0}, {"name": "0d2be2dbc1c19fe7e417ac71f4ec5b39", "lon": -77.00215033333333, "lat": 38.88738383333333, "type": "electric_scooter", "is_disabled": 0, "rental_uris": {"android": "https://dc.lft.to/lastmile_qr_scan", "ios": "https://dc.lft.to/lastmile_qr_scan"}, "fusion_lon": 0.0, "bike_id": "0d2be2dbc1c19fe7e417ac71f4ec5b39", "fusion_lat": 0.0, "is_reserved": 0}, {"name": "45fbd1a3d5ecd1b50c6aebe929a24d07", "lon": -76.99809083333334, "lat": 38.910936666666665, "type": "electric_scooter", "is_disabled": 0, "rental_uris": {"android": "https://dc.lft.to/lastmile_qr_scan", "ios": "https://dc.lft.to/lastmile_qr_scan"}, "fusion_lon": 0.0, "bike_id": "45fbd1a3d5ecd1b50c6aebe929a24d07", "fusion_lat": 0.0, "is_reserved": 0}, {"name": "8a00bb1ead13e47103cee8465551fbf5", "lon": -76.93022383333333, "lat": 38.901634, "type": "electric_scooter", "is_disabled": 0, "rental_uris": {"android": "https://dc.lft.to/lastmile_qr_scan", "ios": "https://dc.lft.to/lastmile_qr_scan"}, "fusion_lon": 0.0, "bike_id": "8a00bb1ead13e47103cee8465551fbf5", "fusion_lat": 0.0, "is_reserved": 0}, {"name": "e15dac4318e44bdd3eb95cdc2de9d813", "lon": -77.01607566666667, "lat": 38.899599333333335, "type": "electric_scooter", "is_disabled": 0, "rental_uris": {"android": "https://dc.lft.to/lastmile_qr_scan", "ios": "https://dc.lft.to/lastmile_qr_scan"}, "fusion_lon": 0.0, "bike_id": "e15dac4318e44bdd3eb95cdc2de9d813", "fusion_lat": 0.0, "is_reserved": 0}, {"name": "032041c7fad56a410a6e79ebf4edc3c7", "lon": -76.991675, "lat": 38.9001085, "type": "electric_scooter", "is_disabled": 0, "rental_uris": {"android": "https://dc.lft.to/lastmile_qr_scan", "ios": "https://dc.lft.to/lastmile_qr_scan"}, "fusion_lon": 0.0, "bike_id": "032041c7fad56a410a6e79ebf4edc3c7", "fusion_lat": 0.0, "is_reserved": 0}, {"name": "2015b2f044b3b2f0bf9716c8556b47a3", "lon": -77.00372316666666, "lat": 38.89727, "type": "electric_scooter", "is_disabled": 0, "rental_uris": {"android": "https://dc.lft.to/lastmile_qr_scan", "ios": "https://dc.lft.to/lastmile_qr_scan"}, "fusion_lon": 0.0, "bike_id": "2015b2f044b3b2f0bf9716c8556b47a3", "fusion_lat": 0.0, "is_reserved": 0}, {"name": "fcfbf103ba38449eff15b538de789584", "lon": -77.0215505, "lat": 38.925969, "type": "electric_scooter", "is_disabled": 0, "rental_uris": {"android": "https://dc.lft.to/lastmile_qr_scan", "ios": "https://dc.lft.to/lastmile_qr_scan"}, "fusion_lon": 0.0, "bike_id": "fcfbf103ba38449eff15b538de789584", "fusion_lat": 0.0, "is_reserved": 0}, {"name": "7aa5ef0ce2333c6b064f994eb80a7815", "lon": -76.98701, "lat": 38.919049, "type": "electric_scooter", "is_disabled": 0, "rental_uris": {"android": "https://dc.lft.to/lastmile_qr_scan", "ios": "https://dc.lft.to/lastmile_qr_scan"}, "fusion_lon": 0.0, "bike_id": "7aa5ef0ce2333c6b064f994eb80a7815", "fusion_lat": 0.0, "is_reserved": 0}, {"name": "941f7ebbee6a01bbbb406b5723d3660c", "lon": -77.02652833333333, "lat": 38.984370166666665, "type": "electric_scooter", "is_disabled": 0, "rental_uris": {"android": "https://dc.lft.to/lastmile_qr_scan", "ios": "https://dc.lft.to/lastmile_qr_scan"}, "fusion_lon": 0.0, "bike_id": "941f7ebbee6a01bbbb406b5723d3660c", "fusion_lat": 0.0, "is_reserved": 0}, {"name": "8d13250a1b825f415a067a101dd472ab", "lon": -77.03961133333334, "lat": 38.8985575, "type": "electric_scooter", "is_disabled": 0, "rental_uris": {"android": "https://dc.lft.to/lastmile_qr_scan", "ios": "https://dc.lft.to/lastmile_qr_scan"}, "fusion_lon": 0.0, "bike_id": "8d13250a1b825f415a067a101dd472ab", "fusion_lat": 0.0, "is_reserved": 0}, {"name": "c8e117dec36794c06d985f1d3c205a18", "lon": -77.00207266666666, "lat": 38.9004085, "type": "electric_scooter", "is_disabled": 0, "rental_uris": {"android": "https://dc.lft.to/lastmile_qr_scan", "ios": "https://dc.lft.to/lastmile_qr_scan"}, "fusion_lon": 0.0, "bike_id": "c8e117dec36794c06d985f1d3c205a18", "fusion_lat": 0.0, "is_reserved": 0}, {"name": "73a3279a1631dc785f4672fe116af1e1", "lon": -76.99706533333334, "lat": 38.932390833333336, "type": "electric_scooter", "is_disabled": 0, "rental_uris": {"android": "https://dc.lft.to/lastmile_qr_scan", "ios": "https://dc.lft.to/lastmile_qr_scan"}, "fusion_lon": 0.0, "bike_id": "73a3279a1631dc785f4672fe116af1e1", "fusion_lat": 0.0, "is_reserved": 0}, {"name": "89672774cf9c7246423d73a454e1cfda", "lon": -77.02710766666667, "lat": 38.928762166666665, "type": "electric_scooter", "is_disabled": 0, "rental_uris": {"android": "https://dc.lft.to/lastmile_qr_scan", "ios": "https://dc.lft.to/lastmile_qr_scan"}, "fusion_lon": 0.0, "bike_id": "89672774cf9c7246423d73a454e1cfda", "fusion_lat": 0.0, "is_reserved": 0}, {"name": "bb4d7329daa44ae692e88743ae7d70fb", "lon": -76.97455633333334, "lat": 38.90260266666667, "type": "electric_scooter", "is_disabled": 0, "rental_uris": {"android": "https://dc.lft.to/lastmile_qr_scan", "ios": "https://dc.lft.to/lastmile_qr_scan"}, "fusion_lon": 0.0, "bike_id": "bb4d7329daa44ae692e88743ae7d70fb", "fusion_lat": 0.0, "is_reserved": 0}, {"name": "db914d0a955c9c60eb0d83561bf73578", "lon": -77.003332, "lat": 38.895029, "type": "electric_scooter", "is_disabled": 0, "rental_uris": {"android": "https://dc.lft.to/lastmile_qr_scan", "ios": "https://dc.lft.to/lastmile_qr_scan"}, "fusion_lon": 0.0, "bike_id": "db914d0a955c9c60eb0d83561bf73578", "fusion_lat": 0.0, "is_reserved": 0}, {"name": "5c2f5426fc785810f7c53bc2fa0f7dd5", "lon": -76.97333383333333, "lat": 38.90407533333333, "type": "electric_scooter", "is_disabled": 0, "rental_uris": {"android": "https://dc.lft.to/lastmile_qr_scan", "ios": "https://dc.lft.to/lastmile_qr_scan"}, "fusion_lon": 0.0, "bike_id": "5c2f5426fc785810f7c53bc2fa0f7dd5", "fusion_lat": 0.0, "is_reserved": 0}, {"name": "a8fba224f94e969858270a0e59d71dfa", "lon": -77.04678, "lat": 38.895080666666665, "type": "electric_scooter", "is_disabled": 0, "rental_uris": {"android": "https://dc.lft.to/lastmile_qr_scan", "ios": "https://dc.lft.to/lastmile_qr_scan"}, "fusion_lon": 0.0, "bike_id": "a8fba224f94e969858270a0e59d71dfa", "fusion_lat": 0.0, "is_reserved": 0}, {"name": "ba0893310a0c452136eeea837282ec5a", "lon": -77.04122433333333, "lat": 38.917062666666666, "type": "electric_scooter", "is_disabled": 0, "rental_uris": {"android": "https://dc.lft.to/lastmile_qr_scan", "ios": "https://dc.lft.to/lastmile_qr_scan"}, "fusion_lon": 0.0, "bike_id": "ba0893310a0c452136eeea837282ec5a", "fusion_lat": 0.0, "is_reserved": 0}, {"name": "68f47e3f2e50edf57a22989b35ad990a", "lon": -76.99945733333334, "lat": 38.901225333333336, "type": "electric_scooter", "is_disabled": 0, "rental_uris": {"android": "https://dc.lft.to/lastmile_qr_scan", "ios": "https://dc.lft.to/lastmile_qr_scan"}, "fusion_lon": 0.0, "bike_id": "68f47e3f2e50edf57a22989b35ad990a", "fusion_lat": 0.0, "is_reserved": 0}, {"name": "b2ac04e4af08366c6b2ee10c23af4ba6", "lon": -77.041876, "lat": 38.905894, "type": "electric_scooter", "is_disabled": 0, "rental_uris": {"android": "https://dc.lft.to/lastmile_qr_scan", "ios": "https://dc.lft.to/lastmile_qr_scan"}, "fusion_lon": 0.0, "bike_id": "b2ac04e4af08366c6b2ee10c23af4ba6", "fusion_lat": 0.0, "is_reserved": 0}, {"name": "7910c984df9d23dce172b183b5380f52", "lon": -77.031653, "lat": 38.8954215, "type": "electric_scooter", "is_disabled": 0, "rental_uris": {"android": "https://dc.lft.to/lastmile_qr_scan", "ios": "https://dc.lft.to/lastmile_qr_scan"}, "fusion_lon": 0.0, "bike_id": "7910c984df9d23dce172b183b5380f52", "fusion_lat": 0.0, "is_reserved": 0}, {"name": "0791218ec213b97e52f6e6dcd384da80", "lon": -77.02952716666667, "lat": 38.94301033333333, "type": "electric_scooter", "is_disabled": 0, "rental_uris": {"android": "https://dc.lft.to/lastmile_qr_scan", "ios": "https://dc.lft.to/lastmile_qr_scan"}, "fusion_lon": 0.0, "bike_id": "0791218ec213b97e52f6e6dcd384da80", "fusion_lat": 0.0, "is_reserved": 0}, {"name": "9fe96710cf2a256591810b75be87689f", "lon": -77.0599805, "lat": 38.902303333333336, "type": "electric_scooter", "is_disabled": 0, "rental_uris": {"android": "https://dc.lft.to/lastmile_qr_scan", "ios": "https://dc.lft.to/lastmile_qr_scan"}, "fusion_lon": 0.0, "bike_id": "9fe96710cf2a256591810b75be87689f", "fusion_lat": 0.0, "is_reserved": 0}, {"name": "821a0edddd8b249121037749d430c7a5", "lon": -76.99030216666667, "lat": 38.901510333333334, "type": "electric_scooter", "is_disabled": 0, "rental_uris": {"android": "https://dc.lft.to/lastmile_qr_scan", "ios": "https://dc.lft.to/lastmile_qr_scan"}, "fusion_lon": 0.0, "bike_id": "821a0edddd8b249121037749d430c7a5", "fusion_lat": 0.0, "is_reserved": 0}, {"name": "e0208d23d7f215c0b3ef856b5d39f316", "lon": -76.988821, "lat": 38.866554666666666, "type": "electric_scooter", "is_disabled": 0, "rental_uris": {"android": "https://dc.lft.to/lastmile_qr_scan", "ios": "https://dc.lft.to/lastmile_qr_scan"}, "fusion_lon": 0.0, "bike_id": "e0208d23d7f215c0b3ef856b5d39f316", "fusion_lat": 0.0, "is_reserved": 0}, {"name": "d97676291b33a05d80b81e650a9bd0dc", "lon": -77.22887366666667, "lat": 38.9095705, "type": "electric_bike", "is_disabled": 0, "rental_uris": {"android": "https://dc.lft.to/lastmile_qr_scan", "ios": "https://dc.lft.to/lastmile_qr_scan"}, "fusion_lon": 0.0, "bike_id": "d97676291b33a05d80b81e650a9bd0dc", "fusion_lat": 0.0, "is_reserved": 0}, {"name": "be95de4d952182de72bff2439d52721a", "lon": -77.00333283333333, "lat": 38.89350233333333, "type": "electric_scooter", "is_disabled": 0, "rental_uris": {"android": "https://dc.lft.to/lastmile_qr_scan", "ios": "https://dc.lft.to/lastmile_qr_scan"}, "fusion_lon": 0.0, "bike_id": "be95de4d952182de72bff2439d52721a", "fusion_lat": 0.0, "is_reserved": 0}, {"name": "3e5c3b0fa97baeeb01b474559ff765c6", "lon": -77.044019, "lat": 38.93421566666667, "type": "electric_scooter", "is_disabled": 0, "rental_uris": {"android": "https://dc.lft.to/lastmile_qr_scan", "ios": "https://dc.lft.to/lastmile_qr_scan"}, "fusion_lon": 0.0, "bike_id": "3e5c3b0fa97baeeb01b474559ff765c6", "fusion_lat": 0.0, "is_reserved": 0}, {"name": "da46bf8264598406f3b77a5b0a5014c3", "lon": -77.033254, "lat": 38.8982655, "type": "electric_scooter", "is_disabled": 0, "rental_uris": {"android": "https://dc.lft.to/lastmile_qr_scan", "ios": "https://dc.lft.to/lastmile_qr_scan"}, "fusion_lon": 0.0, "bike_id": "da46bf8264598406f3b77a5b0a5014c3", "fusion_lat": 0.0, "is_reserved": 0}, {"name": "d8f3dc75a66a3597ba884bc9cdd1ba44", "lon": -77.00195316666667, "lat": 38.908362333333336, "type": "electric_scooter", "is_disabled": 0, "rental_uris": {"android": "https://dc.lft.to/lastmile_qr_scan", "ios": "https://dc.lft.to/lastmile_qr_scan"}, "fusion_lon": 0.0, "bike_id": "d8f3dc75a66a3597ba884bc9cdd1ba44", "fusion_lat": 0.0, "is_reserved": 0}, {"name": "a10a8b6b54b42a1acc56003da17e0d3a", "lon": -77.03092283333334, "lat": 38.92377966666667, "type": "electric_scooter", "is_disabled": 0, "rental_uris": {"android": "https://dc.lft.to/lastmile_qr_scan", "ios": "https://dc.lft.to/lastmile_qr_scan"}, "fusion_lon": 0.0, "bike_id": "a10a8b6b54b42a1acc56003da17e0d3a", "fusion_lat": 0.0, "is_reserved": 0}, {"name": "7f2bf70160fbe677b0fb21d14bebaa38", "lon": -77.01765216666666, "lat": 38.87699666666666, "type": "electric_scooter", "is_disabled": 0, "rental_uris": {"android": "https://dc.lft.to/lastmile_qr_scan", "ios": "https://dc.lft.to/lastmile_qr_scan"}, "fusion_lon": 0.0, "bike_id": "7f2bf70160fbe677b0fb21d14bebaa38", "fusion_lat": 0.0, "is_reserved": 0}, {"name": "810296c656d9d900de7aa0deb5851c39", "lon": -77.00915916666666, "lat": 38.9211015, "type": "electric_scooter", "is_disabled": 0, "rental_uris": {"android": "https://dc.lft.to/lastmile_qr_scan", "ios": "https://dc.lft.to/lastmile_qr_scan"}, "fusion_lon": 0.0, "bike_id": "810296c656d9d900de7aa0deb5851c39", "fusion_lat": 0.0, "is_reserved": 0}, {"name": "ccd689db845e74308eb4f821d6d597ca", "lon": -77.01411933333333, "lat": 38.91399533333333, "type": "electric_scooter", "is_disabled": 0, "rental_uris": {"android": "https://dc.lft.to/lastmile_qr_scan", "ios": "https://dc.lft.to/lastmile_qr_scan"}, "fusion_lon": 0.0, "bike_id": "ccd689db845e74308eb4f821d6d597ca", "fusion_lat": 0.0, "is_reserved": 0}, {"name": "3f91660608dca0143c24b914a3f2ce3e", "lon": -76.99033566666667, "lat": 38.898485666666666, "type": "electric_scooter", "is_disabled": 0, "rental_uris": {"android": "https://dc.lft.to/lastmile_qr_scan", "ios": "https://dc.lft.to/lastmile_qr_scan"}, "fusion_lon": 0.0, "bike_id": "3f91660608dca0143c24b914a3f2ce3e", "fusion_lat": 0.0, "is_reserved": 0}, {"name": "6720f502489937a83e37fdf463258d91", "lon": -76.98365533333333, "lat": 38.91497366666667, "type": "electric_scooter", "is_disabled": 0, "rental_uris": {"android": "https://dc.lft.to/lastmile_qr_scan", "ios": "https://dc.lft.to/lastmile_qr_scan"}, "fusion_lon": 0.0, "bike_id": "6720f502489937a83e37fdf463258d91", "fusion_lat": 0.0, "is_reserved": 0}, {"name": "d1b8c74ff68d0dc9f41aa48430418cdf", "lon": -77.02153883333334, "lat": 38.92487466666667, "type": "electric_scooter", "is_disabled": 0, "rental_uris": {"android": "https://dc.lft.to/lastmile_qr_scan", "ios": "https://dc.lft.to/lastmile_qr_scan"}, "fusion_lon": 0.0, "bike_id": "d1b8c74ff68d0dc9f41aa48430418cdf", "fusion_lat": 0.0, "is_reserved": 0}, {"name": "a98be4d463897bf2770502f3def03487", "lon": -77.0691005, "lat": 38.908627833333334, "type": "electric_scooter", "is_disabled": 0, "rental_uris": {"android": "https://dc.lft.to/lastmile_qr_scan", "ios": "https://dc.lft.to/lastmile_qr_scan"}, "fusion_lon": 0.0, "bike_id": "a98be4d463897bf2770502f3def03487", "fusion_lat": 0.0, "is_reserved": 0}, {"name": "a5d6f736f258e5d69f2890bb9eb0303b", "lon": -77.0200135, "lat": 38.8924465, "type": "electric_scooter", "is_disabled": 0, "rental_uris": {"android": "https://dc.lft.to/lastmile_qr_scan", "ios": "https://dc.lft.to/lastmile_qr_scan"}, "fusion_lon": 0.0, "bike_id": "a5d6f736f258e5d69f2890bb9eb0303b", "fusion_lat": 0.0, "is_reserved": 0}, {"name": "14cb2c8fbbd3daafc2a5bab4dd9aa8c0", "lon": -77.04613783333333, "lat": 38.90662366666667, "type": "electric_scooter", "is_disabled": 0, "rental_uris": {"android": "https://dc.lft.to/lastmile_qr_scan", "ios": "https://dc.lft.to/lastmile_qr_scan"}, "fusion_lon": 0.0, "bike_id": "14cb2c8fbbd3daafc2a5bab4dd9aa8c0", "fusion_lat": 0.0, "is_reserved": 0}, {"name": "c325413da3c7b987b6bc96f70d7c0073", "lon": -77.01764216666666, "lat": 38.88297716666667, "type": "electric_scooter", "is_disabled": 0, "rental_uris": {"android": "https://dc.lft.to/lastmile_qr_scan", "ios": "https://dc.lft.to/lastmile_qr_scan"}, "fusion_lon": 0.0, "bike_id": "c325413da3c7b987b6bc96f70d7c0073", "fusion_lat": 0.0, "is_reserved": 0}, {"name": "0d84e1e7dbd61fc960567799c024313d", "lon": -76.95662616666667, "lat": 38.884892, "type": "electric_bike", "is_disabled": 0, "rental_uris": {"android": "https://dc.lft.to/lastmile_qr_scan", "ios": "https://dc.lft.to/lastmile_qr_scan"}, "fusion_lon": 0.0, "bike_id": "0d84e1e7dbd61fc960567799c024313d", "fusion_lat": 0.0, "is_reserved": 0}, {"name": "df57326b32c357cfe65414f04e19c6f0", "lon": -77.00190266666667, "lat": 38.96613283333333, "type": "electric_scooter", "is_disabled": 0, "rental_uris": {"android": "https://dc.lft.to/lastmile_qr_scan", "ios": "https://dc.lft.to/lastmile_qr_scan"}, "fusion_lon": 0.0, "bike_id": "df57326b32c357cfe65414f04e19c6f0", "fusion_lat": 0.0, "is_reserved": 0}, {"name": "8fe4cd69742789e9362eac4cb2313d10", "lon": -77.02206183333334, "lat": 38.91987966666667, "type": "electric_scooter", "is_disabled": 0, "rental_uris": {"android": "https://dc.lft.to/lastmile_qr_scan", "ios": "https://dc.lft.to/lastmile_qr_scan"}, "fusion_lon": 0.0, "bike_id": "8fe4cd69742789e9362eac4cb2313d10", "fusion_lat": 0.0, "is_reserved": 0}, {"name": "1a766074114522caf3af891ed0df85a2", "lon": -77.02194183333333, "lat": 38.92105433333333, "type": "electric_scooter", "is_disabled": 0, "rental_uris": {"android": "https://dc.lft.to/lastmile_qr_scan", "ios": "https://dc.lft.to/lastmile_qr_scan"}, "fusion_lon": 0.0, "bike_id": "1a766074114522caf3af891ed0df85a2", "fusion_lat": 0.0, "is_reserved": 0}, {"name": "efcb687a1dfa1679755e1d7dc694594b", "lon": -77.04130466666666, "lat": 38.9225895, "type": "electric_scooter", "is_disabled": 0, "rental_uris": {"android": "https://dc.lft.to/lastmile_qr_scan", "ios": "https://dc.lft.to/lastmile_qr_scan"}, "fusion_lon": 0.0, "bike_id": "efcb687a1dfa1679755e1d7dc694594b", "fusion_lat": 0.0, "is_reserved": 0}, {"name": "9e7d8f7d5e92246895dd699fd7870f56", "lon": -77.00585966666667, "lat": 38.90406316666667, "type": "electric_scooter", "is_disabled": 0, "rental_uris": {"android": "https://dc.lft.to/lastmile_qr_scan", "ios": "https://dc.lft.to/lastmile_qr_scan"}, "fusion_lon": 0.0, "bike_id": "9e7d8f7d5e92246895dd699fd7870f56", "fusion_lat": 0.0, "is_reserved": 0}, {"name": "9764fc1c6c3b89c95fae9311b0e1c2a1", "lon": -76.98695616666667, "lat": 38.86720066666667, "type": "electric_scooter", "is_disabled": 0, "rental_uris": {"android": "https://dc.lft.to/lastmile_qr_scan", "ios": "https://dc.lft.to/lastmile_qr_scan"}, "fusion_lon": 0.0, "bike_id": "9764fc1c6c3b89c95fae9311b0e1c2a1", "fusion_lat": 0.0, "is_reserved": 0}, {"name": "8daa13a30be31fb519439f0984e5c839", "lon": -77.03767516666667, "lat": 38.906797166666664, "type": "electric_scooter", "is_disabled": 0, "rental_uris": {"android": "https://dc.lft.to/lastmile_qr_scan", "ios": "https://dc.lft.to/lastmile_qr_scan"}, "fusion_lon": 0.0, "bike_id": "8daa13a30be31fb519439f0984e5c839", "fusion_lat": 0.0, "is_reserved": 0}, {"name": "d87f1611c5af86f30fc8adc0069c154a", "lon": -77.033474, "lat": 38.922338833333335, "type": "electric_scooter", "is_disabled": 0, "rental_uris": {"android": "https://dc.lft.to/lastmile_qr_scan", "ios": "https://dc.lft.to/lastmile_qr_scan"}, "fusion_lon": 0.0, "bike_id": "d87f1611c5af86f30fc8adc0069c154a", "fusion_lat": 0.0, "is_reserved": 0}, {"name": "651e2561f5fe48f4086bc078f155a874", "lon": -77.00712416666667, "lat": 38.884874333333336, "type": "electric_scooter", "is_disabled": 0, "rental_uris": {"android": "https://dc.lft.to/lastmile_qr_scan", "ios": "https://dc.lft.to/lastmile_qr_scan"}, "fusion_lon": 0.0, "bike_id": "651e2561f5fe48f4086bc078f155a874", "fusion_lat": 0.0, "is_reserved": 0}, {"name": "18ea60fed549e59a5f0676ba7b12c434", "lon": -77.00256733333333, "lat": 38.91198683333333, "type": "electric_scooter", "is_disabled": 0, "rental_uris": {"android": "https://dc.lft.to/lastmile_qr_scan", "ios": "https://dc.lft.to/lastmile_qr_scan"}, "fusion_lon": 0.0, "bike_id": "18ea60fed549e59a5f0676ba7b12c434", "fusion_lat": 0.0, "is_reserved": 0}, {"name": "6a6f513f9ce46207dcabfd5346301bdf", "lon": -77.01547816666667, "lat": 38.8916195, "type": "electric_scooter", "is_disabled": 0, "rental_uris": {"android": "https://dc.lft.to/lastmile_qr_scan", "ios": "https://dc.lft.to/lastmile_qr_scan"}, "fusion_lon": 0.0, "bike_id": "6a6f513f9ce46207dcabfd5346301bdf", "fusion_lat": 0.0, "is_reserved": 0}, {"name": "668ab7faeb41937b81e07d9f6c1ad21b", "lon": -77.033418, "lat": 38.916927, "type": "electric_scooter", "is_disabled": 0, "rental_uris": {"android": "https://dc.lft.to/lastmile_qr_scan", "ios": "https://dc.lft.to/lastmile_qr_scan"}, "fusion_lon": 0.0, "bike_id": "668ab7faeb41937b81e07d9f6c1ad21b", "fusion_lat": 0.0, "is_reserved": 0}, {"name": "677e870488c42edeb6a19e7fd34dbdb2", "lon": -77.02211933333334, "lat": 38.926095833333335, "type": "electric_scooter", "is_disabled": 0, "rental_uris": {"android": "https://dc.lft.to/lastmile_qr_scan", "ios": "https://dc.lft.to/lastmile_qr_scan"}, "fusion_lon": 0.0, "bike_id": "677e870488c42edeb6a19e7fd34dbdb2", "fusion_lat": 0.0, "is_reserved": 0}, {"name": "99a4f50dfb66f3bd3a67a04b757d7538", "lon": -77.00930566666666, "lat": 38.8974485, "type": "electric_scooter", "is_disabled": 0, "rental_uris": {"android": "https://dc.lft.to/lastmile_qr_scan", "ios": "https://dc.lft.to/lastmile_qr_scan"}, "fusion_lon": 0.0, "bike_id": "99a4f50dfb66f3bd3a67a04b757d7538", "fusion_lat": 0.0, "is_reserved": 0}, {"name": "87aa6379998c62e7ac71f87f01efc49e", "lon": -77.05911983333333, "lat": 38.90311333333333, "type": "electric_scooter", "is_disabled": 0, "rental_uris": {"android": "https://dc.lft.to/lastmile_qr_scan", "ios": "https://dc.lft.to/lastmile_qr_scan"}, "fusion_lon": 0.0, "bike_id": "87aa6379998c62e7ac71f87f01efc49e", "fusion_lat": 0.0, "is_reserved": 0}, {"name": "97ba2838e6e0ae27821db4312baf90f2", "lon": -77.0153435, "lat": 38.88626, "type": "electric_scooter", "is_disabled": 0, "rental_uris": {"android": "https://dc.lft.to/lastmile_qr_scan", "ios": "https://dc.lft.to/lastmile_qr_scan"}, "fusion_lon": 0.0, "bike_id": "97ba2838e6e0ae27821db4312baf90f2", "fusion_lat": 0.0, "is_reserved": 0}, {"name": "17401be26848412e5c765f119632ee48", "lon": -77.02093533333333, "lat": 38.92111366666666, "type": "electric_scooter", "is_disabled": 0, "rental_uris": {"android": "https://dc.lft.to/lastmile_qr_scan", "ios": "https://dc.lft.to/lastmile_qr_scan"}, "fusion_lon": 0.0, "bike_id": "17401be26848412e5c765f119632ee48", "fusion_lat": 0.0, "is_reserved": 0}, {"name": "50970c59ff47609ac006d4b75470bfc4", "lon": -77.0575475, "lat": 38.924160666666666, "type": "electric_scooter", "is_disabled": 0, "rental_uris": {"android": "https://dc.lft.to/lastmile_qr_scan", "ios": "https://dc.lft.to/lastmile_qr_scan"}, "fusion_lon": 0.0, "bike_id": "50970c59ff47609ac006d4b75470bfc4", "fusion_lat": 0.0, "is_reserved": 0}, {"name": "da55aa15afd6e71ab944445b690209b3", "lon": -77.05033283333333, "lat": 38.92363116666667, "type": "electric_scooter", "is_disabled": 0, "rental_uris": {"android": "https://dc.lft.to/lastmile_qr_scan", "ios": "https://dc.lft.to/lastmile_qr_scan"}, "fusion_lon": 0.0, "bike_id": "da55aa15afd6e71ab944445b690209b3", "fusion_lat": 0.0, "is_reserved": 0}, {"name": "b11a354e3efd7776825e96bd82a939ce", "lon": -77.03452816666666, "lat": 38.9056725, "type": "electric_scooter", "is_disabled": 0, "rental_uris": {"android": "https://dc.lft.to/lastmile_qr_scan", "ios": "https://dc.lft.to/lastmile_qr_scan"}, "fusion_lon": 0.0, "bike_id": "b11a354e3efd7776825e96bd82a939ce", "fusion_lat": 0.0, "is_reserved": 0}, {"name": "319643d234d9f979f8884bea3ef9761a", "lon": -77.03636833333333, "lat": 38.927360166666666, "type": "electric_scooter", "is_disabled": 0, "rental_uris": {"android": "https://dc.lft.to/lastmile_qr_scan", "ios": "https://dc.lft.to/lastmile_qr_scan"}, "fusion_lon": 0.0, "bike_id": "319643d234d9f979f8884bea3ef9761a", "fusion_lat": 0.0, "is_reserved": 0}, {"name": "a55446fa9ca3b9ed6059928e13de1be7", "lon": -76.99839133333333, "lat": 38.95368033333333, "type": "electric_scooter", "is_disabled": 0, "rental_uris": {"android": "https://dc.lft.to/lastmile_qr_scan", "ios": "https://dc.lft.to/lastmile_qr_scan"}, "fusion_lon": 0.0, "bike_id": "a55446fa9ca3b9ed6059928e13de1be7", "fusion_lat": 0.0, "is_reserved": 0}, {"name": "787731f13a8f82d0d02293fd7aedcf1a", "lon": -77.02196283333333, "lat": 38.878974166666666, "type": "electric_scooter", "is_disabled": 0, "rental_uris": {"android": "https://dc.lft.to/lastmile_qr_scan", "ios": "https://dc.lft.to/lastmile_qr_scan"}, "fusion_lon": 0.0, "bike_id": "787731f13a8f82d0d02293fd7aedcf1a", "fusion_lat": 0.0, "is_reserved": 0}, {"name": "2d4b3f9d757757b00ec970bb529a05a1", "lon": -77.02618116666666, "lat": 38.896527, "type": "electric_scooter", "is_disabled": 0, "rental_uris": {"android": "https://dc.lft.to/lastmile_qr_scan", "ios": "https://dc.lft.to/lastmile_qr_scan"}, "fusion_lon": 0.0, "bike_id": "2d4b3f9d757757b00ec970bb529a05a1", "fusion_lat": 0.0, "is_reserved": 0}, {"name": "e99eb20c785502b01d5be563c22c0bf7", "lon": -77.02710283333333, "lat": 38.906698666666664, "type": "electric_scooter", "is_disabled": 0, "rental_uris": {"android": "https://dc.lft.to/lastmile_qr_scan", "ios": "https://dc.lft.to/lastmile_qr_scan"}, "fusion_lon": 0.0, "bike_id": "e99eb20c785502b01d5be563c22c0bf7", "fusion_lat": 0.0, "is_reserved": 0}, {"name": "49e9f19232723f7505b13674fc5b5321", "lon": -77.0210545, "lat": 38.89970433333333, "type": "electric_scooter", "is_disabled": 0, "rental_uris": {"android": "https://dc.lft.to/lastmile_qr_scan", "ios": "https://dc.lft.to/lastmile_qr_scan"}, "fusion_lon": 0.0, "bike_id": "49e9f19232723f7505b13674fc5b5321", "fusion_lat": 0.0, "is_reserved": 0}, {"name": "4e93eac7cb6925500ac7fcdaa7d968ea", "lon": -77.016771, "lat": 38.90109733333333, "type": "electric_scooter", "is_disabled": 0, "rental_uris": {"android": "https://dc.lft.to/lastmile_qr_scan", "ios": "https://dc.lft.to/lastmile_qr_scan"}, "fusion_lon": 0.0, "bike_id": "4e93eac7cb6925500ac7fcdaa7d968ea", "fusion_lat": 0.0, "is_reserved": 0}, {"name": "d911c19e284eae90ecfb2a59664e38e0", "lon": -77.0111275, "lat": 38.962909333333336, "type": "electric_bike", "is_disabled": 0, "rental_uris": {"android": "https://dc.lft.to/lastmile_qr_scan", "ios": "https://dc.lft.to/lastmile_qr_scan"}, "fusion_lon": 0.0, "bike_id": "d911c19e284eae90ecfb2a59664e38e0", "fusion_lat": 0.0, "is_reserved": 0}, {"name": "f89d9d99572631870005af6c79fc947a", "lon": -77.03206216666666, "lat": 38.90986983333333, "type": "electric_scooter", "is_disabled": 0, "rental_uris": {"android": "https://dc.lft.to/lastmile_qr_scan", "ios": "https://dc.lft.to/lastmile_qr_scan"}, "fusion_lon": 0.0, "bike_id": "f89d9d99572631870005af6c79fc947a", "fusion_lat": 0.0, "is_reserved": 0}, {"name": "9cc15def330cb62c091308ff62f41969", "lon": -77.05520516666667, "lat": 38.92958433333333, "type": "electric_scooter", "is_disabled": 0, "rental_uris": {"android": "https://dc.lft.to/lastmile_qr_scan", "ios": "https://dc.lft.to/lastmile_qr_scan"}, "fusion_lon": 0.0, "bike_id": "9cc15def330cb62c091308ff62f41969", "fusion_lat": 0.0, "is_reserved": 0}, {"name": "1f4e817d0039f439a47cb4b0eff1b7f4", "lon": -77.03468983333333, "lat": 38.92640166666666, "type": "electric_scooter", "is_disabled": 0, "rental_uris": {"android": "https://dc.lft.to/lastmile_qr_scan", "ios": "https://dc.lft.to/lastmile_qr_scan"}, "fusion_lon": 0.0, "bike_id": "1f4e817d0039f439a47cb4b0eff1b7f4", "fusion_lat": 0.0, "is_reserved": 0}, {"name": "5a657a010779756484a1db2c230d75b8", "lon": -77.03324033333334, "lat": 38.91316616666667, "type": "electric_scooter", "is_disabled": 0, "rental_uris": {"android": "https://dc.lft.to/lastmile_qr_scan", "ios": "https://dc.lft.to/lastmile_qr_scan"}, "fusion_lon": 0.0, "bike_id": "5a657a010779756484a1db2c230d75b8", "fusion_lat": 0.0, "is_reserved": 0}, {"name": "a8f739d59fdbf511102b9f6054084330", "lon": -76.99002833333333, "lat": 38.8651165, "type": "electric_scooter", "is_disabled": 0, "rental_uris": {"android": "https://dc.lft.to/lastmile_qr_scan", "ios": "https://dc.lft.to/lastmile_qr_scan"}, "fusion_lon": 0.0, "bike_id": "a8f739d59fdbf511102b9f6054084330", "fusion_lat": 0.0, "is_reserved": 0}, {"name": "4fc7f7d320e9457d5d694238079e4002", "lon": -77.04417216666667, "lat": 38.91128166666667, "type": "electric_scooter", "is_disabled": 0, "rental_uris": {"android": "https://dc.lft.to/lastmile_qr_scan", "ios": "https://dc.lft.to/lastmile_qr_scan"}, "fusion_lon": 0.0, "bike_id": "4fc7f7d320e9457d5d694238079e4002", "fusion_lat": 0.0, "is_reserved": 0}, {"name": "025c9528d43d2fe1f88f3ec927bbda80", "lon": -77.02804783333333, "lat": 38.917763, "type": "electric_scooter", "is_disabled": 0, "rental_uris": {"android": "https://dc.lft.to/lastmile_qr_scan", "ios": "https://dc.lft.to/lastmile_qr_scan"}, "fusion_lon": 0.0, "bike_id": "025c9528d43d2fe1f88f3ec927bbda80", "fusion_lat": 0.0, "is_reserved": 0}, {"name": "e862c5bde77f95949ddc8bb1049e6a93", "lon": -77.036082, "lat": 38.9315355, "type": "electric_scooter", "is_disabled": 0, "rental_uris": {"android": "https://dc.lft.to/lastmile_qr_scan", "ios": "https://dc.lft.to/lastmile_qr_scan"}, "fusion_lon": 0.0, "bike_id": "e862c5bde77f95949ddc8bb1049e6a93", "fusion_lat": 0.0, "is_reserved": 0}, {"name": "30ccbb93329c88bf751dbc843df9f9f5", "lon": -76.98835283333334, "lat": 38.90004066666667, "type": "electric_scooter", "is_disabled": 0, "rental_uris": {"android": "https://dc.lft.to/lastmile_qr_scan", "ios": "https://dc.lft.to/lastmile_qr_scan"}, "fusion_lon": 0.0, "bike_id": "30ccbb93329c88bf751dbc843df9f9f5", "fusion_lat": 0.0, "is_reserved": 0}, {"name": "db95db4c62bbca021e1c6d0dec85ce3d", "lon": -77.02397133333334, "lat": 38.9004245, "type": "electric_scooter", "is_disabled": 0, "rental_uris": {"android": "https://dc.lft.to/lastmile_qr_scan", "ios": "https://dc.lft.to/lastmile_qr_scan"}, "fusion_lon": 0.0, "bike_id": "db95db4c62bbca021e1c6d0dec85ce3d", "fusion_lat": 0.0, "is_reserved": 0}, {"name": "7f3c93946a0ffc46ca4096f117221c7e", "lon": -77.03469116666666, "lat": 38.90562033333333, "type": "electric_scooter", "is_disabled": 0, "rental_uris": {"android": "https://dc.lft.to/lastmile_qr_scan", "ios": "https://dc.lft.to/lastmile_qr_scan"}, "fusion_lon": 0.0, "bike_id": "7f3c93946a0ffc46ca4096f117221c7e", "fusion_lat": 0.0, "is_reserved": 0}, {"name": "d54c7af907387d6a1cebebd7aa3f7681", "lon": -77.06413133333334, "lat": 38.90868566666666, "type": "electric_scooter", "is_disabled": 0, "rental_uris": {"android": "https://dc.lft.to/lastmile_qr_scan", "ios": "https://dc.lft.to/lastmile_qr_scan"}, "fusion_lon": 0.0, "bike_id": "d54c7af907387d6a1cebebd7aa3f7681", "fusion_lat": 0.0, "is_reserved": 0}, {"name": "1e11a48c47cd009112c7a163d865b41e", "lon": -77.05349, "lat": 38.923248666666666, "type": "electric_scooter", "is_disabled": 0, "rental_uris": {"android": "https://dc.lft.to/lastmile_qr_scan", "ios": "https://dc.lft.to/lastmile_qr_scan"}, "fusion_lon": 0.0, "bike_id": "1e11a48c47cd009112c7a163d865b41e", "fusion_lat": 0.0, "is_reserved": 0}, {"name": "5c9c486475d3dae6bcaeb64031825330", "lon": -76.99044916666666, "lat": 38.841292833333334, "type": "electric_bike", "is_disabled": 0, "rental_uris": {"android": "https://dc.lft.to/lastmile_qr_scan", "ios": "https://dc.lft.to/lastmile_qr_scan"}, "fusion_lon": 0.0, "bike_id": "5c9c486475d3dae6bcaeb64031825330", "fusion_lat": 0.0, "is_reserved": 0}, {"name": "e12d9fe6e96d4d637c4fd353ff06e09a", "lon": -77.03224583333333, "lat": 38.8962555, "type": "electric_scooter", "is_disabled": 0, "rental_uris": {"android": "https://dc.lft.to/lastmile_qr_scan", "ios": "https://dc.lft.to/lastmile_qr_scan"}, "fusion_lon": 0.0, "bike_id": "e12d9fe6e96d4d637c4fd353ff06e09a", "fusion_lat": 0.0, "is_reserved": 0}, {"name": "513bb10085f759fa155ab85fcf28dbe5", "lon": -77.00737316666667, "lat": 38.89829533333333, "type": "electric_scooter", "is_disabled": 0, "rental_uris": {"android": "https://dc.lft.to/lastmile_qr_scan", "ios": "https://dc.lft.to/lastmile_qr_scan"}, "fusion_lon": 0.0, "bike_id": "513bb10085f759fa155ab85fcf28dbe5", "fusion_lat": 0.0, "is_reserved": 0}, {"name": "f7bab98e5a15991f2b5e4069dae48267", "lon": -77.18740616666666, "lat": 38.8935085, "type": "electric_bike", "is_disabled": 0, "rental_uris": {"android": "https://dc.lft.to/lastmile_qr_scan", "ios": "https://dc.lft.to/lastmile_qr_scan"}, "fusion_lon": 0.0, "bike_id": "f7bab98e5a15991f2b5e4069dae48267", "fusion_lat": 0.0, "is_reserved": 0}, {"name": "078ace07e2c1f2226bbb3bdc41e31962", "lon": -77.02121183333334, "lat": 38.9310405, "type": "electric_scooter", "is_disabled": 0, "rental_uris": {"android": "https://dc.lft.to/lastmile_qr_scan", "ios": "https://dc.lft.to/lastmile_qr_scan"}, "fusion_lon": 0.0, "bike_id": "078ace07e2c1f2226bbb3bdc41e31962", "fusion_lat": 0.0, "is_reserved": 0}, {"name": "597b56b27619934e50717ef283af95cd", "lon": -77.00541283333334, "lat": 38.92787916666666, "type": "electric_scooter", "is_disabled": 0, "rental_uris": {"android": "https://dc.lft.to/lastmile_qr_scan", "ios": "https://dc.lft.to/lastmile_qr_scan"}, "fusion_lon": 0.0, "bike_id": "597b56b27619934e50717ef283af95cd", "fusion_lat": 0.0, "is_reserved": 0}, {"name": "8dcd945c3924456226c711df29bb90cf", "lon": -77.009353, "lat": 38.87600616666667, "type": "electric_scooter", "is_disabled": 0, "rental_uris": {"android": "https://dc.lft.to/lastmile_qr_scan", "ios": "https://dc.lft.to/lastmile_qr_scan"}, "fusion_lon": 0.0, "bike_id": "8dcd945c3924456226c711df29bb90cf", "fusion_lat": 0.0, "is_reserved": 0}, {"name": "9ff9e73d39b401b28a0460391270c956", "lon": -77.01373933333333, "lat": 38.9287725, "type": "electric_scooter", "is_disabled": 0, "rental_uris": {"android": "https://dc.lft.to/lastmile_qr_scan", "ios": "https://dc.lft.to/lastmile_qr_scan"}, "fusion_lon": 0.0, "bike_id": "9ff9e73d39b401b28a0460391270c956", "fusion_lat": 0.0, "is_reserved": 0}, {"name": "167d47b79b923ecc22f0021d7b1e5bec", "lon": -77.01677783333334, "lat": 38.9203855, "type": "electric_scooter", "is_disabled": 0, "rental_uris": {"android": "https://dc.lft.to/lastmile_qr_scan", "ios": "https://dc.lft.to/lastmile_qr_scan"}, "fusion_lon": 0.0, "bike_id": "167d47b79b923ecc22f0021d7b1e5bec", "fusion_lat": 0.0, "is_reserved": 0}, {"name": "873cff6699f84b2dd6f4f5ceb937391d", "lon": -76.9977745, "lat": 38.84434733333333, "type": "electric_scooter", "is_disabled": 0, "rental_uris": {"android": "https://dc.lft.to/lastmile_qr_scan", "ios": "https://dc.lft.to/lastmile_qr_scan"}, "fusion_lon": 0.0, "bike_id": "873cff6699f84b2dd6f4f5ceb937391d", "fusion_lat": 0.0, "is_reserved": 0}, {"name": "00772031f5a01ed991f8489ae7a7ba96", "lon": -77.04446983333334, "lat": 38.91812216666667, "type": "electric_scooter", "is_disabled": 0, "rental_uris": {"android": "https://dc.lft.to/lastmile_qr_scan", "ios": "https://dc.lft.to/lastmile_qr_scan"}, "fusion_lon": 0.0, "bike_id": "00772031f5a01ed991f8489ae7a7ba96", "fusion_lat": 0.0, "is_reserved": 0}, {"name": "7dfff3d32ffcbd3103581c2b422860c1", "lon": -77.03865166666667, "lat": 38.902800166666665, "type": "electric_scooter", "is_disabled": 0, "rental_uris": {"android": "https://dc.lft.to/lastmile_qr_scan", "ios": "https://dc.lft.to/lastmile_qr_scan"}, "fusion_lon": 0.0, "bike_id": "7dfff3d32ffcbd3103581c2b422860c1", "fusion_lat": 0.0, "is_reserved": 0}, {"name": "71482f5a9673e684f8cd396061ec793d", "lon": -77.039588, "lat": 38.93327383333333, "type": "electric_bike", "is_disabled": 0, "rental_uris": {"android": "https://dc.lft.to/lastmile_qr_scan", "ios": "https://dc.lft.to/lastmile_qr_scan"}, "fusion_lon": 0.0, "bike_id": "71482f5a9673e684f8cd396061ec793d", "fusion_lat": 0.0, "is_reserved": 0}, {"name": "f9056de372720c5c3667410b9430028f", "lon": -77.05712633333333, "lat": 38.9067965, "type": "electric_scooter", "is_disabled": 0, "rental_uris": {"android": "https://dc.lft.to/lastmile_qr_scan", "ios": "https://dc.lft.to/lastmile_qr_scan"}, "fusion_lon": 0.0, "bike_id": "f9056de372720c5c3667410b9430028f", "fusion_lat": 0.0, "is_reserved": 0}, {"name": "110c1ea40ff0952cc7bc5e813a27c1f3", "lon": -77.02391766666666, "lat": 38.91669316666667, "type": "electric_scooter", "is_disabled": 0, "rental_uris": {"android": "https://dc.lft.to/lastmile_qr_scan", "ios": "https://dc.lft.to/lastmile_qr_scan"}, "fusion_lon": 0.0, "bike_id": "110c1ea40ff0952cc7bc5e813a27c1f3", "fusion_lat": 0.0, "is_reserved": 0}, {"name": "dd2d244f4809c800565112cbc9de857a", "lon": -77.0268035, "lat": 38.9238325, "type": "electric_scooter", "is_disabled": 0, "rental_uris": {"android": "https://dc.lft.to/lastmile_qr_scan", "ios": "https://dc.lft.to/lastmile_qr_scan"}, "fusion_lon": 0.0, "bike_id": "dd2d244f4809c800565112cbc9de857a", "fusion_lat": 0.0, "is_reserved": 0}, {"name": "3ffecdb04bb4f9c53256588bd273a73e", "lon": -77.18739216666667, "lat": 38.893489333333335, "type": "electric_bike", "is_disabled": 0, "rental_uris": {"android": "https://dc.lft.to/lastmile_qr_scan", "ios": "https://dc.lft.to/lastmile_qr_scan"}, "fusion_lon": 0.0, "bike_id": "3ffecdb04bb4f9c53256588bd273a73e", "fusion_lat": 0.0, "is_reserved": 0}, {"name": "61c089e0d3d281843598c4f9b4a27590", "lon": -77.04308933333333, "lat": 38.92643833333333, "type": "electric_scooter", "is_disabled": 0, "rental_uris": {"android": "https://dc.lft.to/lastmile_qr_scan", "ios": "https://dc.lft.to/lastmile_qr_scan"}, "fusion_lon": 0.0, "bike_id": "61c089e0d3d281843598c4f9b4a27590", "fusion_lat": 0.0, "is_reserved": 0}, {"name": "4cab34c3bdb2f3cd5c4a21e25f124bfd", "lon": -77.02395416666667, "lat": 38.908856166666666, "type": "electric_scooter", "is_disabled": 0, "rental_uris": {"android": "https://dc.lft.to/lastmile_qr_scan", "ios": "https://dc.lft.to/lastmile_qr_scan"}, "fusion_lon": 0.0, "bike_id": "4cab34c3bdb2f3cd5c4a21e25f124bfd", "fusion_lat": 0.0, "is_reserved": 0}, {"name": "fdf45855494bbc45fbd3e37b76a5a827", "lon": -77.00198266666666, "lat": 38.90233716666667, "type": "electric_scooter", "is_disabled": 0, "rental_uris": {"android": "https://dc.lft.to/lastmile_qr_scan", "ios": "https://dc.lft.to/lastmile_qr_scan"}, "fusion_lon": 0.0, "bike_id": "fdf45855494bbc45fbd3e37b76a5a827", "fusion_lat": 0.0, "is_reserved": 0}, {"name": "9d770189eaacb4de651552be16e6d9eb", "lon": -77.055077, "lat": 38.92946716666667, "type": "electric_scooter", "is_disabled": 0, "rental_uris": {"android": "https://dc.lft.to/lastmile_qr_scan", "ios": "https://dc.lft.to/lastmile_qr_scan"}, "fusion_lon": 0.0, "bike_id": "9d770189eaacb4de651552be16e6d9eb", "fusion_lat": 0.0, "is_reserved": 0}, {"name": "78a7f88d2007acf42e9af62f640cbd69", "lon": -76.9518945, "lat": 39.08441216666667, "type": "electric_bike", "is_disabled": 0, "rental_uris": {"android": "https://dc.lft.to/lastmile_qr_scan", "ios": "https://dc.lft.to/lastmile_qr_scan"}, "fusion_lon": 0.0, "bike_id": "78a7f88d2007acf42e9af62f640cbd69", "fusion_lat": 0.0, "is_reserved": 0}, {"name": "61a27ff360e2a3ffbbbadd8e22235684", "lon": -77.00269333333334, "lat": 38.952387, "type": "electric_bike", "is_disabled": 0, "rental_uris": {"android": "https://dc.lft.to/lastmile_qr_scan", "ios": "https://dc.lft.to/lastmile_qr_scan"}, "fusion_lon": 0.0, "bike_id": "61a27ff360e2a3ffbbbadd8e22235684", "fusion_lat": 0.0, "is_reserved": 0}, {"name": "e6743aec92642d06e7f7def3c84daf79", "lon": -77.06300866666666, "lat": 38.94374883333333, "type": "electric_scooter", "is_disabled": 0, "rental_uris": {"android": "https://dc.lft.to/lastmile_qr_scan", "ios": "https://dc.lft.to/lastmile_qr_scan"}, "fusion_lon": 0.0, "bike_id": "e6743aec92642d06e7f7def3c84daf79", "fusion_lat": 0.0, "is_reserved": 0}, {"name": "0050992ec913ab2576e5e392532d8160", "lon": -77.02821933333334, "lat": 38.95613, "type": "electric_scooter", "is_disabled": 0, "rental_uris": {"android": "https://dc.lft.to/lastmile_qr_scan", "ios": "https://dc.lft.to/lastmile_qr_scan"}, "fusion_lon": 0.0, "bike_id": "0050992ec913ab2576e5e392532d8160", "fusion_lat": 0.0, "is_reserved": 0}, {"name": "3b57cfbb44b19cb3472249b069d6be17", "lon": -77.0468905, "lat": 38.89217816666667, "type": "electric_scooter", "is_disabled": 0, "rental_uris": {"android": "https://dc.lft.to/lastmile_qr_scan", "ios": "https://dc.lft.to/lastmile_qr_scan"}, "fusion_lon": 0.0, "bike_id": "3b57cfbb44b19cb3472249b069d6be17", "fusion_lat": 0.0, "is_reserved": 0}, {"name": "b9b06cc011ea06135cffd284f3490cd7", "lon": -77.04677716666667, "lat": 38.89555333333333, "type": "electric_scooter", "is_disabled": 0, "rental_uris": {"android": "https://dc.lft.to/lastmile_qr_scan", "ios": "https://dc.lft.to/lastmile_qr_scan"}, "fusion_lon": 0.0, "bike_id": "b9b06cc011ea06135cffd284f3490cd7", "fusion_lat": 0.0, "is_reserved": 0}, {"name": "6ab643451989cc93e7855f0c407a9d27", "lon": -77.00371683333333, "lat": 38.897278, "type": "electric_scooter", "is_disabled": 0, "rental_uris": {"android": "https://dc.lft.to/lastmile_qr_scan", "ios": "https://dc.lft.to/lastmile_qr_scan"}, "fusion_lon": 0.0, "bike_id": "6ab643451989cc93e7855f0c407a9d27", "fusion_lat": 0.0, "is_reserved": 0}, {"name": "8e7c4f9b641c0c4984efbb6b4f515d87", "lon": -76.99580683333333, "lat": 38.85174333333333, "type": "electric_scooter", "is_disabled": 0, "rental_uris": {"android": "https://dc.lft.to/lastmile_qr_scan", "ios": "https://dc.lft.to/lastmile_qr_scan"}, "fusion_lon": 0.0, "bike_id": "8e7c4f9b641c0c4984efbb6b4f515d87", "fusion_lat": 0.0, "is_reserved": 0}, {"name": "81bfd99a46d0f481080f34a67b6d0a75", "lon": -77.01763083333333, "lat": 38.8789465, "type": "electric_scooter", "is_disabled": 0, "rental_uris": {"android": "https://dc.lft.to/lastmile_qr_scan", "ios": "https://dc.lft.to/lastmile_qr_scan"}, "fusion_lon": 0.0, "bike_id": "81bfd99a46d0f481080f34a67b6d0a75", "fusion_lat": 0.0, "is_reserved": 0}, {"name": "16cb85d21f3fd7b15a1abec8376f7488", "lon": -77.036084, "lat": 38.93156033333333, "type": "electric_scooter", "is_disabled": 0, "rental_uris": {"android": "https://dc.lft.to/lastmile_qr_scan", "ios": "https://dc.lft.to/lastmile_qr_scan"}, "fusion_lon": 0.0, "bike_id": "16cb85d21f3fd7b15a1abec8376f7488", "fusion_lat": 0.0, "is_reserved": 0}, {"name": "f6746b70c5b065d5322c81243f2efa08", "lon": -77.00141783333333, "lat": 38.907658166666664, "type": "electric_scooter", "is_disabled": 0, "rental_uris": {"android": "https://dc.lft.to/lastmile_qr_scan", "ios": "https://dc.lft.to/lastmile_qr_scan"}, "fusion_lon": 0.0, "bike_id": "f6746b70c5b065d5322c81243f2efa08", "fusion_lat": 0.0, "is_reserved": 0}, {"name": "924f0832e130addce29cac7890155956", "lon": -76.98718283333334, "lat": 38.8662025, "type": "electric_scooter", "is_disabled": 0, "rental_uris": {"android": "https://dc.lft.to/lastmile_qr_scan", "ios": "https://dc.lft.to/lastmile_qr_scan"}, "fusion_lon": 0.0, "bike_id": "924f0832e130addce29cac7890155956", "fusion_lat": 0.0, "is_reserved": 0}, {"name": "0fcaec115c73c7a4327b3fbe0bd07353", "lon": -77.03462216666667, "lat": 38.90341433333333, "type": "electric_scooter", "is_disabled": 0, "rental_uris": {"android": "https://dc.lft.to/lastmile_qr_scan", "ios": "https://dc.lft.to/lastmile_qr_scan"}, "fusion_lon": 0.0, "bike_id": "0fcaec115c73c7a4327b3fbe0bd07353", "fusion_lat": 0.0, "is_reserved": 0}, {"name": "206d13ee3ee7219deee8ae7bedcb90c9", "lon": -77.01934783333333, "lat": 38.924024333333335, "type": "electric_scooter", "is_disabled": 0, "rental_uris": {"android": "https://dc.lft.to/lastmile_qr_scan", "ios": "https://dc.lft.to/lastmile_qr_scan"}, "fusion_lon": 0.0, "bike_id": "206d13ee3ee7219deee8ae7bedcb90c9", "fusion_lat": 0.0, "is_reserved": 0}, {"name": "85bb1a2ca4ac0bf6fb628f957715372a", "lon": -76.941459, "lat": 38.9017895, "type": "electric_scooter", "is_disabled": 0, "rental_uris": {"android": "https://dc.lft.to/lastmile_qr_scan", "ios": "https://dc.lft.to/lastmile_qr_scan"}, "fusion_lon": 0.0, "bike_id": "85bb1a2ca4ac0bf6fb628f957715372a", "fusion_lat": 0.0, "is_reserved": 0}, {"name": "ed09c85c0f6674ad772f24a6f25b3e9f", "lon": -77.0362545, "lat": 38.901278166666664, "type": "electric_scooter", "is_disabled": 0, "rental_uris": {"android": "https://dc.lft.to/lastmile_qr_scan", "ios": "https://dc.lft.to/lastmile_qr_scan"}, "fusion_lon": 0.0, "bike_id": "ed09c85c0f6674ad772f24a6f25b3e9f", "fusion_lat": 0.0, "is_reserved": 0}, {"name": "79816f267a976754b2675a660f65ef74", "lon": -76.98225233333334, "lat": 38.864717666666664, "type": "electric_scooter", "is_disabled": 0, "rental_uris": {"android": "https://dc.lft.to/lastmile_qr_scan", "ios": "https://dc.lft.to/lastmile_qr_scan"}, "fusion_lon": 0.0, "bike_id": "79816f267a976754b2675a660f65ef74", "fusion_lat": 0.0, "is_reserved": 0}, {"name": "04c63b41b307d8805b81a6bad2a60117", "lon": -77.02190266666666, "lat": 38.909725, "type": "electric_scooter", "is_disabled": 0, "rental_uris": {"android": "https://dc.lft.to/lastmile_qr_scan", "ios": "https://dc.lft.to/lastmile_qr_scan"}, "fusion_lon": 0.0, "bike_id": "04c63b41b307d8805b81a6bad2a60117", "fusion_lat": 0.0, "is_reserved": 0}, {"name": "240dfe064fca0cc270d43c4aaca0e741", "lon": -76.98678716666667, "lat": 38.893575, "type": "electric_scooter", "is_disabled": 0, "rental_uris": {"android": "https://dc.lft.to/lastmile_qr_scan", "ios": "https://dc.lft.to/lastmile_qr_scan"}, "fusion_lon": 0.0, "bike_id": "240dfe064fca0cc270d43c4aaca0e741", "fusion_lat": 0.0, "is_reserved": 0}, {"name": "dcf5b05c7bbfaee07dcab11a391060fa", "lon": -76.976374, "lat": 38.88687766666666, "type": "electric_bike", "is_disabled": 0, "rental_uris": {"android": "https://dc.lft.to/lastmile_qr_scan", "ios": "https://dc.lft.to/lastmile_qr_scan"}, "fusion_lon": 0.0, "bike_id": "dcf5b05c7bbfaee07dcab11a391060fa", "fusion_lat": 0.0, "is_reserved": 0}, {"name": "3699bf877fc7c2b8c6c8139eefbae685", "lon": -77.00742466666667, "lat": 38.89841716666667, "type": "electric_scooter", "is_disabled": 0, "rental_uris": {"android": "https://dc.lft.to/lastmile_qr_scan", "ios": "https://dc.lft.to/lastmile_qr_scan"}, "fusion_lon": 0.0, "bike_id": "3699bf877fc7c2b8c6c8139eefbae685", "fusion_lat": 0.0, "is_reserved": 0}, {"name": "1e8b0ae56ca7ff779ddd8af7f9dba81c", "lon": -77.08701316666667, "lat": 38.93519416666667, "type": "electric_scooter", "is_disabled": 0, "rental_uris": {"android": "https://dc.lft.to/lastmile_qr_scan", "ios": "https://dc.lft.to/lastmile_qr_scan"}, "fusion_lon": 0.0, "bike_id": "1e8b0ae56ca7ff779ddd8af7f9dba81c", "fusion_lat": 0.0, "is_reserved": 0}, {"name": "158208820f0d8ffb970b61710e22ce99", "lon": -76.98818533333333, "lat": 38.89076816666667, "type": "electric_scooter", "is_disabled": 0, "rental_uris": {"android": "https://dc.lft.to/lastmile_qr_scan", "ios": "https://dc.lft.to/lastmile_qr_scan"}, "fusion_lon": 0.0, "bike_id": "158208820f0d8ffb970b61710e22ce99", "fusion_lat": 0.0, "is_reserved": 0}, {"name": "999069433a23054c9599191c1972b81b", "lon": -77.00465966666667, "lat": 38.89157266666667, "type": "electric_bike", "is_disabled": 0, "rental_uris": {"android": "https://dc.lft.to/lastmile_qr_scan", "ios": "https://dc.lft.to/lastmile_qr_scan"}, "fusion_lon": 0.0, "bike_id": "999069433a23054c9599191c1972b81b", "fusion_lat": 0.0, "is_reserved": 0}, {"name": "dd36eb74aff8d124447663297f0d6c06", "lon": -77.00224133333333, "lat": 38.894824666666665, "type": "electric_scooter", "is_disabled": 0, "rental_uris": {"android": "https://dc.lft.to/lastmile_qr_scan", "ios": "https://dc.lft.to/lastmile_qr_scan"}, "fusion_lon": 0.0, "bike_id": "dd36eb74aff8d124447663297f0d6c06", "fusion_lat": 0.0, "is_reserved": 0}, {"name": "4eff1a51a0d05ee10415109b4f94d9a8", "lon": -76.98413066666667, "lat": 38.908146, "type": "electric_scooter", "is_disabled": 0, "rental_uris": {"android": "https://dc.lft.to/lastmile_qr_scan", "ios": "https://dc.lft.to/lastmile_qr_scan"}, "fusion_lon": 0.0, "bike_id": "4eff1a51a0d05ee10415109b4f94d9a8", "fusion_lat": 0.0, "is_reserved": 0}, {"name": "39e9cc1d714218dbd4a4520f8b7c3b00", "lon": -77.03780983333333, "lat": 38.926974, "type": "electric_scooter", "is_disabled": 0, "rental_uris": {"android": "https://dc.lft.to/lastmile_qr_scan", "ios": "https://dc.lft.to/lastmile_qr_scan"}, "fusion_lon": 0.0, "bike_id": "39e9cc1d714218dbd4a4520f8b7c3b00", "fusion_lat": 0.0, "is_reserved": 0}, {"name": "b8bfdb61b5e3e7f3b357cecd50e205cb", "lon": -77.025744, "lat": 38.920413, "type": "electric_scooter", "is_disabled": 0, "rental_uris": {"android": "https://dc.lft.to/lastmile_qr_scan", "ios": "https://dc.lft.to/lastmile_qr_scan"}, "fusion_lon": 0.0, "bike_id": "b8bfdb61b5e3e7f3b357cecd50e205cb", "fusion_lat": 0.0, "is_reserved": 0}, {"name": "bfabd8d547cbba005d2b81275ba93a2e", "lon": -76.99737083333333, "lat": 38.86149733333333, "type": "electric_scooter", "is_disabled": 0, "rental_uris": {"android": "https://dc.lft.to/lastmile_qr_scan", "ios": "https://dc.lft.to/lastmile_qr_scan"}, "fusion_lon": 0.0, "bike_id": "bfabd8d547cbba005d2b81275ba93a2e", "fusion_lat": 0.0, "is_reserved": 0}, {"name": "a24944486136e3944aaeffc5c506a77d", "lon": -77.0403235, "lat": 38.90412416666667, "type": "electric_scooter", "is_disabled": 0, "rental_uris": {"android": "https://dc.lft.to/lastmile_qr_scan", "ios": "https://dc.lft.to/lastmile_qr_scan"}, "fusion_lon": 0.0, "bike_id": "a24944486136e3944aaeffc5c506a77d", "fusion_lat": 0.0, "is_reserved": 0}, {"name": "966ddbc1df1961614fb7a9b19a9e132d", "lon": -77.02385183333334, "lat": 38.892238, "type": "electric_scooter", "is_disabled": 0, "rental_uris": {"android": "https://dc.lft.to/lastmile_qr_scan", "ios": "https://dc.lft.to/lastmile_qr_scan"}, "fusion_lon": 0.0, "bike_id": "966ddbc1df1961614fb7a9b19a9e132d", "fusion_lat": 0.0, "is_reserved": 0}, {"name": "e9fa156a9250de9029022edd09d6a896", "lon": -77.04354816666667, "lat": 38.9104495, "type": "electric_scooter", "is_disabled": 0, "rental_uris": {"android": "https://dc.lft.to/lastmile_qr_scan", "ios": "https://dc.lft.to/lastmile_qr_scan"}, "fusion_lon": 0.0, "bike_id": "e9fa156a9250de9029022edd09d6a896", "fusion_lat": 0.0, "is_reserved": 0}, {"name": "a2da3765bbe61e024f651a202fbb460b", "lon": -77.05403683333333, "lat": 38.901233166666664, "type": "electric_scooter", "is_disabled": 0, "rental_uris": {"android": "https://dc.lft.to/lastmile_qr_scan", "ios": "https://dc.lft.to/lastmile_qr_scan"}, "fusion_lon": 0.0, "bike_id": "a2da3765bbe61e024f651a202fbb460b", "fusion_lat": 0.0, "is_reserved": 0}, {"name": "f5a60528c1d4f18cbcb76eecf2b9b44b", "lon": -77.03165633333333, "lat": 38.918160666666665, "type": "electric_scooter", "is_disabled": 0, "rental_uris": {"android": "https://dc.lft.to/lastmile_qr_scan", "ios": "https://dc.lft.to/lastmile_qr_scan"}, "fusion_lon": 0.0, "bike_id": "f5a60528c1d4f18cbcb76eecf2b9b44b", "fusion_lat": 0.0, "is_reserved": 0}, {"name": "3afc52abd78c94af7a4309917b81edd3", "lon": -76.97424133333334, "lat": 38.904468666666666, "type": "electric_scooter", "is_disabled": 0, "rental_uris": {"android": "https://dc.lft.to/lastmile_qr_scan", "ios": "https://dc.lft.to/lastmile_qr_scan"}, "fusion_lon": 0.0, "bike_id": "3afc52abd78c94af7a4309917b81edd3", "fusion_lat": 0.0, "is_reserved": 0}, {"name": "4a1deb3b6c284f64983e23ff789692f1", "lon": -77.03103866666666, "lat": 38.93250833333333, "type": "electric_scooter", "is_disabled": 0, "rental_uris": {"android": "https://dc.lft.to/lastmile_qr_scan", "ios": "https://dc.lft.to/lastmile_qr_scan"}, "fusion_lon": 0.0, "bike_id": "4a1deb3b6c284f64983e23ff789692f1", "fusion_lat": 0.0, "is_reserved": 0}, {"name": "55e6faf205dda6065b9bf1279fb92b60", "lon": -77.05108166666666, "lat": 38.92490316666667, "type": "electric_scooter", "is_disabled": 0, "rental_uris": {"android": "https://dc.lft.to/lastmile_qr_scan", "ios": "https://dc.lft.to/lastmile_qr_scan"}, "fusion_lon": 0.0, "bike_id": "55e6faf205dda6065b9bf1279fb92b60", "fusion_lat": 0.0, "is_reserved": 0}, {"name": "e0244bd9359c3fb88b2a46b5ba0ef0c2", "lon": -77.0185535, "lat": 38.90138133333333, "type": "electric_scooter", "is_disabled": 0, "rental_uris": {"android": "https://dc.lft.to/lastmile_qr_scan", "ios": "https://dc.lft.to/lastmile_qr_scan"}, "fusion_lon": 0.0, "bike_id": "e0244bd9359c3fb88b2a46b5ba0ef0c2", "fusion_lat": 0.0, "is_reserved": 0}, {"name": "20f9be2a5d4a4c0ccf1e5e6453ad97c8", "lon": -76.998965, "lat": 38.9427155, "type": "electric_bike", "is_disabled": 0, "rental_uris": {"android": "https://dc.lft.to/lastmile_qr_scan", "ios": "https://dc.lft.to/lastmile_qr_scan"}, "fusion_lon": 0.0, "bike_id": "20f9be2a5d4a4c0ccf1e5e6453ad97c8", "fusion_lat": 0.0, "is_reserved": 0}, {"name": "cac1ebb5c9cd45bd78f69f9d202dd104", "lon": -76.9996125, "lat": 38.874129833333335, "type": "electric_scooter", "is_disabled": 0, "rental_uris": {"android": "https://dc.lft.to/lastmile_qr_scan", "ios": "https://dc.lft.to/lastmile_qr_scan"}, "fusion_lon": 0.0, "bike_id": "cac1ebb5c9cd45bd78f69f9d202dd104", "fusion_lat": 0.0, "is_reserved": 0}, {"name": "6bfa463ae5ec26fe8786737d4e09f550", "lon": -77.00133283333334, "lat": 38.878851833333336, "type": "electric_scooter", "is_disabled": 0, "rental_uris": {"android": "https://dc.lft.to/lastmile_qr_scan", "ios": "https://dc.lft.to/lastmile_qr_scan"}, "fusion_lon": 0.0, "bike_id": "6bfa463ae5ec26fe8786737d4e09f550", "fusion_lat": 0.0, "is_reserved": 0}, {"name": "04a5d8f13ff8f940b5ccd7e512bebf56", "lon": -77.02734066666666, "lat": 38.898689833333336, "type": "electric_scooter", "is_disabled": 0, "rental_uris": {"android": "https://dc.lft.to/lastmile_qr_scan", "ios": "https://dc.lft.to/lastmile_qr_scan"}, "fusion_lon": 0.0, "bike_id": "04a5d8f13ff8f940b5ccd7e512bebf56", "fusion_lat": 0.0, "is_reserved": 0}, {"name": "0d0fdf5be0395562933b1d34de715ac3", "lon": -77.01180616666667, "lat": 38.91570266666667, "type": "electric_scooter", "is_disabled": 0, "rental_uris": {"android": "https://dc.lft.to/lastmile_qr_scan", "ios": "https://dc.lft.to/lastmile_qr_scan"}, "fusion_lon": 0.0, "bike_id": "0d0fdf5be0395562933b1d34de715ac3", "fusion_lat": 0.0, "is_reserved": 0}, {"name": "f94780de2f67b995d00e998716d5bf18", "lon": -77.04487116666667, "lat": 38.897163166666665, "type": "electric_bike", "is_disabled": 0, "rental_uris": {"android": "https://dc.lft.to/lastmile_qr_scan", "ios": "https://dc.lft.to/lastmile_qr_scan"}, "fusion_lon": 0.0, "bike_id": "f94780de2f67b995d00e998716d5bf18", "fusion_lat": 0.0, "is_reserved": 0}, {"name": "df7297a370c7b059f8faa7b31b85c7c8", "lon": -76.98836666666666, "lat": 38.89254583333334, "type": "electric_scooter", "is_disabled": 0, "rental_uris": {"android": "https://dc.lft.to/lastmile_qr_scan", "ios": "https://dc.lft.to/lastmile_qr_scan"}, "fusion_lon": 0.0, "bike_id": "df7297a370c7b059f8faa7b31b85c7c8", "fusion_lat": 0.0, "is_reserved": 0}, {"name": "fe2f94cd52503c4ab677861c47361a42", "lon": -77.02886466666666, "lat": 38.91697533333333, "type": "electric_scooter", "is_disabled": 0, "rental_uris": {"android": "https://dc.lft.to/lastmile_qr_scan", "ios": "https://dc.lft.to/lastmile_qr_scan"}, "fusion_lon": 0.0, "bike_id": "fe2f94cd52503c4ab677861c47361a42", "fusion_lat": 0.0, "is_reserved": 0}, {"name": "3ea14c59a40857c3ab3fc35afb545f9b", "lon": -77.08590366666667, "lat": 38.90865133333333, "type": "electric_scooter", "is_disabled": 0, "rental_uris": {"android": "https://dc.lft.to/lastmile_qr_scan", "ios": "https://dc.lft.to/lastmile_qr_scan"}, "fusion_lon": 0.0, "bike_id": "3ea14c59a40857c3ab3fc35afb545f9b", "fusion_lat": 0.0, "is_reserved": 0}, {"name": "16fdc4e7e3cf757fbae042c210b8619b", "lon": -77.011926, "lat": 38.92759233333334, "type": "electric_scooter", "is_disabled": 0, "rental_uris": {"android": "https://dc.lft.to/lastmile_qr_scan", "ios": "https://dc.lft.to/lastmile_qr_scan"}, "fusion_lon": 0.0, "bike_id": "16fdc4e7e3cf757fbae042c210b8619b", "fusion_lat": 0.0, "is_reserved": 0}, {"name": "d5eb94332473421efcd3e4b92eb8a6ab", "lon": -77.050853, "lat": 38.8133055, "type": "electric_bike", "is_disabled": 0, "rental_uris": {"android": "https://dc.lft.to/lastmile_qr_scan", "ios": "https://dc.lft.to/lastmile_qr_scan"}, "fusion_lon": 0.0, "bike_id": "d5eb94332473421efcd3e4b92eb8a6ab", "fusion_lat": 0.0, "is_reserved": 0}, {"name": "8b0fbf28dfcf6d1c1a860e259661c964", "lon": -77.06094583333334, "lat": 38.90525516666666, "type": "electric_scooter", "is_disabled": 0, "rental_uris": {"android": "https://dc.lft.to/lastmile_qr_scan", "ios": "https://dc.lft.to/lastmile_qr_scan"}, "fusion_lon": 0.0, "bike_id": "8b0fbf28dfcf6d1c1a860e259661c964", "fusion_lat": 0.0, "is_reserved": 0}, {"name": "980534a1d30c32523cacb97323e75b7b", "lon": -77.02478066666667, "lat": 38.8829615, "type": "electric_scooter", "is_disabled": 0, "rental_uris": {"android": "https://dc.lft.to/lastmile_qr_scan", "ios": "https://dc.lft.to/lastmile_qr_scan"}, "fusion_lon": 0.0, "bike_id": "980534a1d30c32523cacb97323e75b7b", "fusion_lat": 0.0, "is_reserved": 0}, {"name": "e67bcb56a26c83e2b7939786073e92d5", "lon": -77.03435383333333, "lat": 38.902686833333334, "type": "electric_scooter", "is_disabled": 0, "rental_uris": {"android": "https://dc.lft.to/lastmile_qr_scan", "ios": "https://dc.lft.to/lastmile_qr_scan"}, "fusion_lon": 0.0, "bike_id": "e67bcb56a26c83e2b7939786073e92d5", "fusion_lat": 0.0, "is_reserved": 0}, {"name": "1467547d05f287450fe1d996e96d6f72", "lon": -77.01992666666666, "lat": 38.88360216666667, "type": "electric_scooter", "is_disabled": 0, "rental_uris": {"android": "https://dc.lft.to/lastmile_qr_scan", "ios": "https://dc.lft.to/lastmile_qr_scan"}, "fusion_lon": 0.0, "bike_id": "1467547d05f287450fe1d996e96d6f72", "fusion_lat": 0.0, "is_reserved": 0}, {"name": "da89802e2cf2a34935a5e16ab1ad54e2", "lon": -77.229267, "lat": 38.93188416666667, "type": "electric_bike", "is_disabled": 0, "rental_uris": {"android": "https://dc.lft.to/lastmile_qr_scan", "ios": "https://dc.lft.to/lastmile_qr_scan"}, "fusion_lon": 0.0, "bike_id": "da89802e2cf2a34935a5e16ab1ad54e2", "fusion_lat": 0.0, "is_reserved": 0}, {"name": "5669f936d454eb983450e6f21f4c363c", "lon": -77.01596366666666, "lat": 38.9271225, "type": "electric_scooter", "is_disabled": 0, "rental_uris": {"android": "https://dc.lft.to/lastmile_qr_scan", "ios": "https://dc.lft.to/lastmile_qr_scan"}, "fusion_lon": 0.0, "bike_id": "5669f936d454eb983450e6f21f4c363c", "fusion_lat": 0.0, "is_reserved": 0}, {"name": "9617ca2ababaa30d98da7485d2a4fca8", "lon": -76.99169233333333, "lat": 38.900138166666665, "type": "electric_scooter", "is_disabled": 0, "rental_uris": {"android": "https://dc.lft.to/lastmile_qr_scan", "ios": "https://dc.lft.to/lastmile_qr_scan"}, "fusion_lon": 0.0, "bike_id": "9617ca2ababaa30d98da7485d2a4fca8", "fusion_lat": 0.0, "is_reserved": 0}, {"name": "daf1b553481e42bff564f9df1ea5a71c", "lon": -77.025538, "lat": 38.923825, "type": "electric_scooter", "is_disabled": 0, "rental_uris": {"android": "https://dc.lft.to/lastmile_qr_scan", "ios": "https://dc.lft.to/lastmile_qr_scan"}, "fusion_lon": 0.0, "bike_id": "daf1b553481e42bff564f9df1ea5a71c", "fusion_lat": 0.0, "is_reserved": 0}, {"name": "1e5061ef7642370991dc492bd32bd571", "lon": -77.08207283333333, "lat": 38.933279166666665, "type": "electric_scooter", "is_disabled": 0, "rental_uris": {"android": "https://dc.lft.to/lastmile_qr_scan", "ios": "https://dc.lft.to/lastmile_qr_scan"}, "fusion_lon": 0.0, "bike_id": "1e5061ef7642370991dc492bd32bd571", "fusion_lat": 0.0, "is_reserved": 0}, {"name": "2a213a8d875eb2f6dfa3faff00838202", "lon": -77.0190065, "lat": 38.89555983333333, "type": "electric_bike", "is_disabled": 0, "rental_uris": {"android": "https://dc.lft.to/lastmile_qr_scan", "ios": "https://dc.lft.to/lastmile_qr_scan"}, "fusion_lon": 0.0, "bike_id": "2a213a8d875eb2f6dfa3faff00838202", "fusion_lat": 0.0, "is_reserved": 0}, {"name": "38831a86c2ba19cfdf7d2cc7c5ea51e5", "lon": -77.02974166666667, "lat": 38.905074, "type": "electric_scooter", "is_disabled": 0, "rental_uris": {"android": "https://dc.lft.to/lastmile_qr_scan", "ios": "https://dc.lft.to/lastmile_qr_scan"}, "fusion_lon": 0.0, "bike_id": "38831a86c2ba19cfdf7d2cc7c5ea51e5", "fusion_lat": 0.0, "is_reserved": 0}, {"name": "d2a11ad65d295b6cd762d0b59b6acc17", "lon": -77.02636166666667, "lat": 38.89437983333333, "type": "electric_scooter", "is_disabled": 0, "rental_uris": {"android": "https://dc.lft.to/lastmile_qr_scan", "ios": "https://dc.lft.to/lastmile_qr_scan"}, "fusion_lon": 0.0, "bike_id": "d2a11ad65d295b6cd762d0b59b6acc17", "fusion_lat": 0.0, "is_reserved": 0},