{"data": {"bikes": [{"lat": 38.89463833333333, "is_reserved": 0, "lon": -77.00343766666667, "fusion_lon": 0.0, "fusion_lat": 0.0, "is_disabled": 0, "type": "electric_scooter", "bike_id": "7133f512996d2e34da23627c823617ef", "rental_uris": {"android": "https://dc.lft.to/lastmile_qr_scan", "ios": "https://dc.lft.to/lastmile_qr_scan"}, "name": "7133f512996d2e34da23627c823617ef"}, {"lat": 38.9097035, "is_reserved": 0, "lon": -77.04234733333334, "fusion_lon": 0.0, "fusion_lat": 0.0, "is_disabled": 0, "type": "electric_scooter", "bike_id": "bacb57d4c8a9222aa267e92ae0c66ddd", "rental_uris": {"android": "https://dc.lft.to/lastmile_qr_scan", "ios": "https://dc.lft.to/lastmile_qr_scan"}, "name": "bacb57d4c8a9222aa267e92ae0c66ddd"}, {"lat": 38.907176166666666, "is_reserved": 0, "lon": -77.02984216666667, "fusion_lon": 0.0, "fusion_lat": 0.0, "is_disabled": 0, "type": "electric_scooter", "bike_id": "4cecceb6d1eb788c8e545fb69e49e6c4", "rental_uris": {"android": "https://dc.lft.to/lastmile_qr_scan", "ios": "https://dc.lft.to/lastmile_qr_scan"}, "name": "4cecceb6d1eb788c8e545fb69e49e6c4"}, {"lat": 38.90949616666666, "is_reserved": 0, "lon": -77.04157566666666, "fusion_lon": 0.0, "fusion_lat": 0.0, "is_disabled": 0, "type": "electric_bike", "bike_id": "432cc710d9f0e88526fd326dbca77cb6", "rental_uris": {"android": "https://dc.lft.to/lastmile_qr_scan", "ios": "https://dc.lft.to/lastmile_qr_scan"}, "name": "432cc710d9f0e88526fd326dbca77cb6"}, {"lat": 38.914171, "is_reserved": 0, "lon": -77.02276783333333, "fusion_lon": 0.0, "fusion_lat": 0.0, "is_disabled": 0, "type": "electric_scooter", "bike_id": "6d82b4918085b4a52c37a29937c619ab", "rental_uris": {"android": "https://dc.lft.to/lastmile_qr_scan", "ios": "https://dc.lft.to/lastmile_qr_scan"}, "name": "6d82b4918085b4a52c37a29937c619ab"}, {"lat": 38.9205025, "is_reserved": 0, "lon": -77.04191533333334, "fusion_lon": 0.0, "fusion_lat": 0.0, "is_disabled": 0, "type": "electric_scooter", "bike_id": "4ea0914b56bbae6b3b27171d1d869b00", "rental_uris": {"android": "https://dc.lft.to/lastmile_qr_scan", "ios": "https://dc.lft.to/lastmile_qr_scan"}, "name": "4ea0914b56bbae6b3b27171d1d869b00"}, {"lat": 38.925223833333334, "is_reserved": 0, "lon": -77.0512235, "fusion_lon": 0.0, "fusion_lat": 0.0, "is_disabled": 0, "type": "electric_scooter", "bike_id": "fb77d871f68a0f058a443961a32ebf1a", "rental_uris": {"android": "https://dc.lft.to/lastmile_qr_scan", "ios": "https://dc.lft.to/lastmile_qr_scan"}, "name": "fb77d871f68a0f058a443961a32ebf1a"}, {"lat": 38.91621283333333, "is_reserved": 0, "lon": -77.03174533333333, "fusion_lon": 0.0, "fusion_lat": 0.0, "is_disabled": 0, "type": "electric_scooter", "bike_id": "122b7774eec70499ac4ce5d4c5fe6c10", "rental_uris": {"android": "https://dc.lft.to/lastmile_qr_scan", "ios": "https://dc.lft.to/lastmile_qr_scan"}, "name": "122b7774eec70499ac4ce5d4c5fe6c10"}, {"lat": 38.92366283333333, "is_reserved": 0, "lon": -77.01964383333333, "fusion_lon": 0.0, "fusion_lat": 0.0, "is_disabled": 0, "type": "electric_scooter", "bike_id": "9ef36e51a30adc5176b47831f99415e0", "rental_uris": {"android": "https://dc.lft.to/lastmile_qr_scan", "ios": "https://dc.lft.to/lastmile_qr_scan"}, "name": "9ef36e51a30adc5176b47831f99415e0"}, {"lat": 38.8791175, "is_reserved": 0, "lon": -77.02151616666667, "fusion_lon": 0.0, "fusion_lat": 0.0, "is_disabled": 0, "type": "electric_scooter", "bike_id": "1b18f1a8eb4d9a5bbf9837f0ee1dd3df", "rental_uris": {"android": "https://dc.lft.to/lastmile_qr_scan", "ios": "https://dc.lft.to/lastmile_qr_scan"}, "name": "1b18f1a8eb4d9a5bbf9837f0ee1dd3df"}, {"lat": 38.90227816666667, "is_reserved": 0, "lon": -77.0545275, "fusion_lon": 0.0, "fusion_lat": 0.0, "is_disabled": 0, "type": "electric_scooter", "bike_id": "c36cf76afee1b3dac1ef7d97433bb43d", "rental_uris": {"android": "https://dc.lft.to/lastmile_qr_scan", "ios": "https://dc.lft.to/lastmile_qr_scan"}, "name": "c36cf76afee1b3dac1ef7d97433bb43d"}, {"lat": 38.894323, "is_reserved": 0, "lon": -77.02095233333333, "fusion_lon": 0.0, "fusion_lat": 0.0, "is_disabled": 0, "type": "electric_scooter", "bike_id": "457b23f559a9b5bfc456b4cba45781c1", "rental_uris": {"android": "https://dc.lft.to/lastmile_qr_scan", "ios": "https://dc.lft.to/lastmile_qr_scan"}, "name": "457b23f559a9b5bfc456b4cba45781c1"}, {"lat": 38.9215495, "is_reserved": 0, "lon": -77.0331695, "fusion_lon": 0.0, "fusion_lat": 0.0, "is_disabled": 0, "type": "electric_scooter", "bike_id": "39deb2c36852ea9f2326c0dc965db59f", "rental_uris": {"android": "https://dc.lft.to/lastmile_qr_scan", "ios": "https://dc.lft.to/lastmile_qr_scan"}, "name": "39deb2c36852ea9f2326c0dc965db59f"}, {"lat": 38.9087595, "is_reserved": 0, "lon": -76.99791516666667, "fusion_lon": 0.0, "fusion_lat": 0.0, "is_disabled": 0, "type": "electric_scooter", "bike_id": "c1e619cd14e41b711b2610faab446850", "rental_uris": {"android": "https://dc.lft.to/lastmile_qr_scan", "ios": "https://dc.lft.to/lastmile_qr_scan"}, "name": "c1e619cd14e41b711b2610faab446850"}, {"lat": 38.936961333333336, "is_reserved": 0, "lon": -77.05598183333333, "fusion_lon": 0.0, "fusion_lat": 0.0, "is_disabled": 0, "type": "electric_scooter", "bike_id": "0a470cf30c685716434025d5171d48c9", "rental_uris": {"android": "https://dc.lft.to/lastmile_qr_scan", "ios": "https://dc.lft.to/lastmile_qr_scan"}, "name": "0a470cf30c685716434025d5171d48c9"}, {"lat": 38.9043095, "is_reserved": 0, "lon": -76.982775, "fusion_lon": 0.0, "fusion_lat": 0.0, "is_disabled": 0, "type": "electric_scooter", "bike_id": "5ff0eec8e5334db6edb4ec86f3b10050", "rental_uris": {"android": "https://dc.lft.to/lastmile_qr_scan", "ios": "https://dc.lft.to/lastmile_qr_scan"}, "name": "5ff0eec8e5334db6edb4ec86f3b10050"}, {"lat": 38.915235, "is_reserved": 0, "lon": -77.05507683333333, "fusion_lon": 0.0, "fusion_lat": 0.0, "is_disabled": 0, "type": "electric_scooter", "bike_id": "a71a955ec0de03d3378c4850c1ab1996", "rental_uris": {"android": "https://dc.lft.to/lastmile_qr_scan", "ios": "https://dc.lft.to/lastmile_qr_scan"}, "name": "a71a955ec0de03d3378c4850c1ab1996"}, {"lat": 38.896126, "is_reserved": 0, "lon": -77.02785466666667, "fusion_lon": 0.0, "fusion_lat": 0.0, "is_disabled": 0, "type": "electric_scooter", "bike_id": "e2dcda61b8a8dfe307bf4483eafec3e1", "rental_uris": {"android": "https://dc.lft.to/lastmile_qr_scan", "ios": "https://dc.lft.to/lastmile_qr_scan"}, "name": "e2dcda61b8a8dfe307bf4483eafec3e1"}, {"lat": 38.936355166666665, "is_reserved": 0, "lon": -77.05880666666667, "fusion_lon": 0.0, "fusion_lat": 0.0, "is_disabled": 0, "type": "electric_scooter", "bike_id": "6bb595a64bf378da40d9db49959aa97b", "rental_uris": {"android": "https://dc.lft.to/lastmile_qr_scan", "ios": "https://dc.lft.to/lastmile_qr_scan"}, "name": "6bb595a64bf378da40d9db49959aa97b"}, {"lat": 38.865029666666665, "is_reserved": 0, "lon": -76.990084, "fusion_lon": 0.0, "fusion_lat": 0.0, "is_disabled": 0, "type": "electric_scooter", "bike_id": "147d034272702a04f78245970253e4d1", "rental_uris": {"android": "https://dc.lft.to/lastmile_qr_scan", "ios": "https://dc.lft.to/lastmile_qr_scan"}, "name": "147d034272702a04f78245970253e4d1"}, {"lat": 38.90371433333333, "is_reserved": 0, "lon": -77.05349283333334, "fusion_lon": 0.0, "fusion_lat": 0.0, "is_disabled": 0, "type": "electric_scooter", "bike_id": "154762f40f26c5687fcf6c8b0a365568", "rental_uris": {"android": "https://dc.lft.to/lastmile_qr_scan", "ios": "https://dc.lft.to/lastmile_qr_scan"}, "name": "154762f40f26c5687fcf6c8b0a365568"}, {"lat": 38.9233325, "is_reserved": 0, "lon": -77.01902116666666, "fusion_lon": 0.0, "fusion_lat": 0.0, "is_disabled": 0, "type": "electric_scooter", "bike_id": "1586e51493d4f77f52ba9e4188eec84c", "rental_uris": {"android": "https://dc.lft.to/lastmile_qr_scan", "ios": "https://dc.lft.to/lastmile_qr_scan"}, "name": "1586e51493d4f77f52ba9e4188eec84c"}, {"lat": 38.90096916666667, "is_reserved": 0, "lon": -76.98335833333333, "fusion_lon": 0.0, "fusion_lat": 0.0, "is_disabled": 0, "type": "electric_scooter", "bike_id": "6f001ab638e6c615274c28bf75f4b654", "rental_uris": {"android": "https://dc.lft.to/lastmile_qr_scan", "ios": "https://dc.lft.to/lastmile_qr_scan"}, "name": "6f001ab638e6c615274c28bf75f4b654"}, {"lat": 38.9023385, "is_reserved": 0, "lon": -77.04097683333333, "fusion_lon": 0.0, "fusion_lat": 0.0, "is_disabled": 0, "type": "electric_scooter", "bike_id": "6b02cb6cbe68a0ef2543f9f8ac2c5d33", "rental_uris": {"android": "https://dc.lft.to/lastmile_qr_scan", "ios": "https://dc.lft.to/lastmile_qr_scan"}, "name": "6b02cb6cbe68a0ef2543f9f8ac2c5d33"}, {"lat": 38.871553, "is_reserved": 0, "lon": -77.013221, "fusion_lon": 0.0, "fusion_lat": 0.0, "is_disabled": 0, "type": "electric_scooter", "bike_id": "66503846a6fc3679f45093fea1d4408e", "rental_uris": {"android": "https://dc.lft.to/lastmile_qr_scan", "ios": "https://dc.lft.to/lastmile_qr_scan"}, "name": "66503846a6fc3679f45093fea1d4408e"}, {"lat": 38.80895016666667, "is_reserved": 0, "lon": -77.086537, "fusion_lon": 0.0, "fusion_lat": 0.0, "is_disabled": 0, "type": "electric_bike", "bike_id": "f57f5e48987ac555ff72ed1e1392ef3a", "rental_uris": {"android": "https://dc.lft.to/lastmile_qr_scan", "ios": "https://dc.lft.to/lastmile_qr_scan"}, "name": "f57f5e48987ac555ff72ed1e1392ef3a"}, {"lat": 38.892428833333334, "is_reserved": 0, "lon": -76.95333266666667, "fusion_lon": 0.0, "fusion_lat": 0.0, "is_disabled": 0, "type": "electric_scooter", "bike_id": "4b6d560620cbbc14780e44987f7c4293", "rental_uris": {"android": "https://dc.lft.to/lastmile_qr_scan", "ios": "https://dc.lft.to/lastmile_qr_scan"}, "name": "4b6d560620cbbc14780e44987f7c4293"}, {"lat": 38.917167666666664, "is_reserved": 0, "lon": -77.026012, "fusion_lon": 0.0, "fusion_lat": 0.0, "is_disabled": 0, "type": "electric_scooter", "bike_id": "638744459444633a9bb65f4c0ba29cbc", "rental_uris": {"android": "https://dc.lft.to/lastmile_qr_scan", "ios": "https://dc.lft.to/lastmile_qr_scan"}, "name": "638744459444633a9bb65f4c0ba29cbc"}, {"lat": 38.893444, "is_reserved": 0, "lon": -76.991546, "fusion_lon": 0.0, "fusion_lat": 0.0, "is_disabled": 0, "type": "electric_bike", "bike_id": "845c8b9818930cd6cd3cce49469db39c", "rental_uris": {"android": "https://dc.lft.to/lastmile_qr_scan", "ios": "https://dc.lft.to/lastmile_qr_scan"}, "name": "845c8b9818930cd6cd3cce49469db39c"}, {"lat": 38.91017, "is_reserved": 0, "lon": -77.00915116666667, "fusion_lon": 0.0, "fusion_lat": 0.0, "is_disabled": 0, "type": "electric_scooter", "bike_id": "4596f4c4de647e2eaa8922807ec07d83", "rental_uris": {"android": "https://dc.lft.to/lastmile_qr_scan", "ios": "https://dc.lft.to/lastmile_qr_scan"}, "name": "4596f4c4de647e2eaa8922807ec07d83"}, {"lat": 38.922932833333334, "is_reserved": 0, "lon": -77.04142416666667, "fusion_lon": 0.0, "fusion_lat": 0.0, "is_disabled": 0, "type": "electric_scooter", "bike_id": "9ee5acad0dd313a6404cb99bf464030e", "rental_uris": {"android": "https://dc.lft.to/lastmile_qr_scan", "ios": "https://dc.lft.to/lastmile_qr_scan"}, "name": "9ee5acad0dd313a6404cb99bf464030e"}, {"lat": 38.9038135, "is_reserved": 0, "lon": -77.035828, "fusion_lon": 0.0, "fusion_lat": 0.0, "is_disabled": 0, "type": "electric_scooter", "bike_id": "db183995f6664eca4219a96558632ba0", "rental_uris": {"android": "https://dc.lft.to/lastmile_qr_scan", "ios": "https://dc.lft.to/lastmile_qr_scan"}, "name": "db183995f6664eca4219a96558632ba0"}, {"lat": 38.91066033333333, "is_reserved": 0, "lon": -77.01988916666667, "fusion_lon": 0.0, "fusion_lat": 0.0, "is_disabled": 0, "type": "electric_bike", "bike_id": "cbcbe448080900a9cd9b426858a23e3f", "rental_uris": {"android": "https://dc.lft.to/lastmile_qr_scan", "ios": "https://dc.lft.to/lastmile_qr_scan"}, "name": "cbcbe448080900a9cd9b426858a23e3f"}, {"lat": 38.881863333333335, "is_reserved": 0, "lon": -77.02089316666667, "fusion_lon": 0.0, "fusion_lat": 0.0, "is_disabled": 0, "type": "electric_scooter", "bike_id": "a9783c9cc2be339780cb578c727a5504", "rental_uris": {"android": "https://dc.lft.to/lastmile_qr_scan", "ios": "https://dc.lft.to/lastmile_qr_scan"}, "name": "a9783c9cc2be339780cb578c727a5504"}, {"lat": 38.90863383333333, "is_reserved": 0, "lon": -77.0036745, "fusion_lon": 0.0, "fusion_lat": 0.0, "is_disabled": 0, "type": "electric_scooter", "bike_id": "53939dc7fe85072a18a7a9a5abffd73b", "rental_uris": {"android": "https://dc.lft.to/lastmile_qr_scan", "ios": "https://dc.lft.to/lastmile_qr_scan"}, "name": "53939dc7fe85072a18a7a9a5abffd73b"}, {"lat": 38.900127499999996, "is_reserved": 0, "lon": -76.98597233333334, "fusion_lon": 0.0, "fusion_lat": 0.0, "is_disabled": 0, "type": "electric_scooter", "bike_id": "3fb6cba890c8519637fe18b01d77c97d", "rental_uris": {"android": "https://dc.lft.to/lastmile_qr_scan", "ios": "https://dc.lft.to/lastmile_qr_scan"}, "name": "3fb6cba890c8519637fe18b01d77c97d"}, {"lat": 38.87830183333333, "is_reserved": 0, "lon": -77.00197033333333, "fusion_lon": 0.0, "fusion_lat": 0.0, "is_disabled": 0, "type": "electric_scooter", "bike_id": "8275d65401099002ee6ab943d2cbba51", "rental_uris": {"android": "https://dc.lft.to/lastmile_qr_scan", "ios": "https://dc.lft.to/lastmile_qr_scan"}, "name": "8275d65401099002ee6ab943d2cbba51"}, {"lat": 38.90293883333333, "is_reserved": 0, "lon": -77.0383525, "fusion_lon": 0.0, "fusion_lat": 0.0, "is_disabled": 0, "type": "electric_scooter", "bike_id": "e4e903f1b02f796eee66e3ec170790ce", "rental_uris": {"android": "https://dc.lft.to/lastmile_qr_scan", "ios": "https://dc.lft.to/lastmile_qr_scan"}, "name": "e4e903f1b02f796eee66e3ec170790ce"}, {"lat": 38.90362416666667, "is_reserved": 0, "lon": -77.04520666666667, "fusion_lon": 0.0, "fusion_lat": 0.0, "is_disabled": 0, "type": "electric_scooter", "bike_id": "f9de75454494729cf27df34434d8eb98", "rental_uris": {"android": "https://dc.lft.to/lastmile_qr_scan", "ios": "https://dc.lft.to/lastmile_qr_scan"}, "name": "f9de75454494729cf27df34434d8eb98"}, {"lat": 38.898635, "is_reserved": 0, "lon": -76.9464005, "fusion_lon": 0.0, "fusion_lat": 0.0, "is_disabled": 0, "type": "electric_scooter", "bike_id": "b5a48d3e1ca085e51d7d9fc917d96d91", "rental_uris": {"android": "https://dc.lft.to/lastmile_qr_scan", "ios": "https://dc.lft.to/lastmile_qr_scan"}, "name": "b5a48d3e1ca085e51d7d9fc917d96d91"}, {"lat": 38.87628616666667, "is_reserved": 0, "lon": -76.96529483333333, "fusion_lon": 0.0, "fusion_lat": 0.0, "is_disabled": 0, "type": "electric_scooter", "bike_id": "fc14378d8dc853e0ec7471dfbec1e2ed", "rental_uris": {"android": "https://dc.lft.to/lastmile_qr_scan", "ios": "https://dc.lft.to/lastmile_qr_scan"}, "name": "fc14378d8dc853e0ec7471dfbec1e2ed"}, {"lat": 38.93519766666667, "is_reserved": 0, "lon": -77.03073533333334, "fusion_lon": 0.0, "fusion_lat": 0.0, "is_disabled": 0, "type": "electric_scooter", "bike_id": "dd9ebc60dc4344b61ba07b69de4e4627", "rental_uris": {"android": "https://dc.lft.to/lastmile_qr_scan", "ios": "https://dc.lft.to/lastmile_qr_scan"}, "name": "dd9ebc60dc4344b61ba07b69de4e4627"}, {"lat": 38.924557666666665, "is_reserved": 0, "lon": -77.02154283333333, "fusion_lon": 0.0, "fusion_lat": 0.0, "is_disabled": 0, "type": "electric_scooter", "bike_id": "035e41c8c0cfd5a34f7cd83a6f411120", "rental_uris": {"android": "https://dc.lft.to/lastmile_qr_scan", "ios": "https://dc.lft.to/lastmile_qr_scan"}, "name": "035e41c8c0cfd5a34f7cd83a6f411120"}, {"lat": 38.938287333333335, "is_reserved": 0, "lon": -76.94315683333333, "fusion_lon": 0.0, "fusion_lat": 0.0, "is_disabled": 0, "type": "electric_bike", "bike_id": "4f201132dc09ba83fd29f9576e111b77", "rental_uris": {"android": "https://dc.lft.to/lastmile_qr_scan", "ios": "https://dc.lft.to/lastmile_qr_scan"}, "name": "4f201132dc09ba83fd29f9576e111b77"}, {"lat": 38.90959016666667, "is_reserved": 0, "lon": -77.02217316666666, "fusion_lon": 0.0, "fusion_lat": 0.0, "is_disabled": 0, "type": "electric_scooter", "bike_id": "16e585a60e9e310a95bbd866061459bd", "rental_uris": {"android": "https://dc.lft.to/lastmile_qr_scan", "ios": "https://dc.lft.to/lastmile_qr_scan"}, "name": "16e585a60e9e310a95bbd866061459bd"}, {"lat": 38.92609366666667, "is_reserved": 0, "lon": -77.03960766666667, "fusion_lon": 0.0, "fusion_lat": 0.0, "is_disabled": 0, "type": "electric_scooter", "bike_id": "9ebe0e87d17d07483690cd5d8665ab31", "rental_uris": {"android": "https://dc.lft.to/lastmile_qr_scan", "ios": "https://dc.lft.to/lastmile_qr_scan"}, "name": "9ebe0e87d17d07483690cd5d8665ab31"}, {"lat": 38.899839, "is_reserved": 0, "lon": -77.05098116666667, "fusion_lon": 0.0, "fusion_lat": 0.0, "is_disabled": 0, "type": "electric_scooter", "bike_id": "cef4d695eef3b1d0d6067c0f05639a56", "rental_uris": {"android": "https://dc.lft.to/lastmile_qr_scan", "ios": "https://dc.lft.to/lastmile_qr_scan"}, "name": "cef4d695eef3b1d0d6067c0f05639a56"}, {"lat": 38.925730333333334, "is_reserved": 0, "lon": -77.03534983333333, "fusion_lon": 0.0, "fusion_lat": 0.0, "is_disabled": 0, "type": "electric_scooter", "bike_id": "c2045c6583e36957c638610bb3a108bf", "rental_uris": {"android": "https://dc.lft.to/lastmile_qr_scan", "ios": "https://dc.lft.to/lastmile_qr_scan"}, "name": "c2045c6583e36957c638610bb3a108bf"}, {"lat": 38.80973066666667, "is_reserved": 0, "lon": -77.08628283333333, "fusion_lon": 0.0, "fusion_lat": 0.0, "is_disabled": 0, "type": "electric_bike", "bike_id": "89ecab9aa02216a37e7e8b72adbfe245", "rental_uris": {"android": "https://dc.lft.to/lastmile_qr_scan", "ios": "https://dc.lft.to/lastmile_qr_scan"}, "name": "89ecab9aa02216a37e7e8b72adbfe245"}, {"lat": 38.892211, "is_reserved": 0, "lon": -77.02221833333333, "fusion_lon": 0.0, "fusion_lat": 0.0, "is_disabled": 0, "type": "electric_scooter", "bike_id": "43150a4b80559de241e067f6c6c231c0", "rental_uris": {"android": "https://dc.lft.to/lastmile_qr_scan", "ios": "https://dc.lft.to/lastmile_qr_scan"}, "name": "43150a4b80559de241e067f6c6c231c0"}, {"lat": 38.886554333333336, "is_reserved": 0, "lon": -77.02829616666666, "fusion_lon": 0.0, "fusion_lat": 0.0, "is_disabled": 0, "type": "electric_scooter", "bike_id": "167b9d42a5383840ebb1b7ffcfe46ac7", "rental_uris": {"android": "https://dc.lft.to/lastmile_qr_scan", "ios": "https://dc.lft.to/lastmile_qr_scan"}, "name": "167b9d42a5383840ebb1b7ffcfe46ac7"}, {"lat": 38.89875216666667, "is_reserved": 0, "lon": -77.0326165, "fusion_lon": 0.0, "fusion_lat": 0.0, "is_disabled": 0, "type": "electric_scooter", "bike_id": "1d4967c505f78333f461d7c4f1014c30", "rental_uris": {"android": "https://dc.lft.to/lastmile_qr_scan", "ios": "https://dc.lft.to/lastmile_qr_scan"}, "name": "1d4967c505f78333f461d7c4f1014c30"}, {"lat": 38.922349, "is_reserved": 0, "lon": -77.02328666666666, "fusion_lon": 0.0, "fusion_lat": 0.0, "is_disabled": 0, "type": "electric_scooter", "bike_id": "eb2cd6f063db61ac5850bdee85f7644d", "rental_uris": {"android": "https://dc.lft.to/lastmile_qr_scan", "ios": "https://dc.lft.to/lastmile_qr_scan"}, "name": "eb2cd6f063db61ac5850bdee85f7644d"}, {"lat": 38.916912833333335, "is_reserved": 0, "lon": -77.02596983333333, "fusion_lon": 0.0, "fusion_lat": 0.0, "is_disabled": 0, "type": "electric_scooter", "bike_id": "d13e5c3968341e96dd7f8c3d3852579f", "rental_uris": {"android": "https://dc.lft.to/lastmile_qr_scan", "ios": "https://dc.lft.to/lastmile_qr_scan"}, "name": "d13e5c3968341e96dd7f8c3d3852579f"}, {"lat": 38.91560533333333, "is_reserved": 0, "lon": -77.022783, "fusion_lon": 0.0, "fusion_lat": 0.0, "is_disabled": 0, "type": "electric_scooter", "bike_id": "11dca33a1d2eb20d8df3afd3f7464d87", "rental_uris": {"android": "https://dc.lft.to/lastmile_qr_scan", "ios": "https://dc.lft.to/lastmile_qr_scan"}, "name": "11dca33a1d2eb20d8df3afd3f7464d87"}, {"lat": 38.996723333333335, "is_reserved": 0, "lon": -77.03811083333333, "fusion_lon": 0.0, "fusion_lat": 0.0, "is_disabled": 0, "type": "electric_bike", "bike_id": "156fb79b4d54d023fbb03bb443700703", "rental_uris": {"android": "https://dc.lft.to/lastmile_qr_scan", "ios": "https://dc.lft.to/lastmile_qr_scan"}, "name": "156fb79b4d54d023fbb03bb443700703"}, {"lat": 38.92308716666667, "is_reserved": 0, "lon": -77.04209966666667, "fusion_lon": 0.0, "fusion_lat": 0.0, "is_disabled": 0, "type": "electric_scooter", "bike_id": "211a31ad28e0ca22cc582f032392d021", "rental_uris": {"android": "https://dc.lft.to/lastmile_qr_scan", "ios": "https://dc.lft.to/lastmile_qr_scan"}, "name": "211a31ad28e0ca22cc582f032392d021"}, {"lat": 38.902384, "is_reserved": 0, "lon": -77.03833183333333, "fusion_lon": 0.0, "fusion_lat": 0.0, "is_disabled": 0, "type": "electric_scooter", "bike_id": "ea14991f6239e097257407e0915f65e5", "rental_uris": {"android": "https://dc.lft.to/lastmile_qr_scan", "ios": "https://dc.lft.to/lastmile_qr_scan"}, "name": "ea14991f6239e097257407e0915f65e5"}, {"lat": 38.918392, "is_reserved": 0, "lon": -77.04835566666667, "fusion_lon": 0.0, "fusion_lat": 0.0, "is_disabled": 0, "type": "electric_scooter", "bike_id": "e7b413f3646fe0a5509666804b42c033", "rental_uris": {"android": "https://dc.lft.to/lastmile_qr_scan", "ios": "https://dc.lft.to/lastmile_qr_scan"}, "name": "e7b413f3646fe0a5509666804b42c033"}, {"lat": 38.922261666666664, "is_reserved": 0, "lon": -77.02825016666667, "fusion_lon": 0.0, "fusion_lat": 0.0, "is_disabled": 0, "type": "electric_scooter", "bike_id": "0f343a1cde488f9d156c85fd6e98eb05", "rental_uris": {"android": "https://dc.lft.to/lastmile_qr_scan", "ios": "https://dc.lft.to/lastmile_qr_scan"}, "name": "0f343a1cde488f9d156c85fd6e98eb05"}, {"lat": 38.93597316666666, "is_reserved": 0, "lon": -77.03653266666667, "fusion_lon": 0.0, "fusion_lat": 0.0, "is_disabled": 0, "type": "electric_scooter", "bike_id": "04b11cb0cb51fc5bb71f9d4d23826a6f", "rental_uris": {"android": "https://dc.lft.to/lastmile_qr_scan", "ios": "https://dc.lft.to/lastmile_qr_scan"}, "name": "04b11cb0cb51fc5bb71f9d4d23826a6f"}, {"lat": 38.924522333333336, "is_reserved": 0, "lon": -77.03301583333334, "fusion_lon": 0.0, "fusion_lat": 0.0, "is_disabled": 0, "type": "electric_scooter", "bike_id": "c34042257ff3b6f9729f84921c1b7174", "rental_uris": {"android": "https://dc.lft.to/lastmile_qr_scan", "ios": "https://dc.lft.to/lastmile_qr_scan"}, "name": "c34042257ff3b6f9729f84921c1b7174"}, {"lat": 38.902714333333336, "is_reserved": 0, "lon": -77.059179, "fusion_lon": 0.0, "fusion_lat": 0.0, "is_disabled": 0, "type": "electric_scooter", "bike_id": "b54c0db83d22dadd033bc23ef4979773", "rental_uris": {"android": "https://dc.lft.to/lastmile_qr_scan", "ios": "https://dc.lft.to/lastmile_qr_scan"}, "name": "b54c0db83d22dadd033bc23ef4979773"}, {"lat": 38.941933666666664, "is_reserved": 0, "lon": -77.03835166666667, "fusion_lon": 0.0, "fusion_lat": 0.0, "is_disabled": 0, "type": "electric_scooter", "bike_id": "4cd72c0034e7e4086b864b93123bd51f", "rental_uris": {"android": "https://dc.lft.to/lastmile_qr_scan", "ios": "https://dc.lft.to/lastmile_qr_scan"}, "name": "4cd72c0034e7e4086b864b93123bd51f"}, {"lat": 38.89356816666667, "is_reserved": 0, "lon": -77.02850766666667, "fusion_lon": 0.0, "fusion_lat": 0.0, "is_disabled": 0, "type": "electric_scooter", "bike_id": "5c8ff05c913f279dbcefeb3a6f849a30", "rental_uris": {"android": "https://dc.lft.to/lastmile_qr_scan", "ios": "https://dc.lft.to/lastmile_qr_scan"}, "name": "5c8ff05c913f279dbcefeb3a6f849a30"}, {"lat": 38.9056695, "is_reserved": 0, "lon": -77.06278933333333, "fusion_lon": 0.0, "fusion_lat": 0.0, "is_disabled": 0, "type": "electric_scooter", "bike_id": "4df5f31255b316b4f9e56baf34087dab", "rental_uris": {"android": "https://dc.lft.to/lastmile_qr_scan", "ios": "https://dc.lft.to/lastmile_qr_scan"}, "name": "4df5f31255b316b4f9e56baf34087dab"}, {"lat": 38.91709683333333, "is_reserved": 0, "lon": -77.03193633333333, "fusion_lon": 0.0, "fusion_lat": 0.0, "is_disabled": 0, "type": "electric_scooter", "bike_id": "de7fa1b35958237677c77bd828f500cb", "rental_uris": {"android": "https://dc.lft.to/lastmile_qr_scan", "ios": "https://dc.lft.to/lastmile_qr_scan"}, "name": "de7fa1b35958237677c77bd828f500cb"}, {"lat": 38.89217933333333, "is_reserved": 0, "lon": -77.0222325, "fusion_lon": 0.0, "fusion_lat": 0.0, "is_disabled": 0, "type": "electric_scooter", "bike_id": "36b4693ea9c302ff07a910d985ba5698", "rental_uris": {"android": "https://dc.lft.to/lastmile_qr_scan", "ios": "https://dc.lft.to/lastmile_qr_scan"}, "name": "36b4693ea9c302ff07a910d985ba5698"}, {"lat": 38.928288333333334, "is_reserved": 0, "lon": -77.0370855, "fusion_lon": 0.0, "fusion_lat": 0.0, "is_disabled": 0, "type": "electric_scooter", "bike_id": "44ebd5d9d275e2892b2f1a3c91fbb1ec", "rental_uris": {"android": "https://dc.lft.to/lastmile_qr_scan", "ios": "https://dc.lft.to/lastmile_qr_scan"}, "name": "44ebd5d9d275e2892b2f1a3c91fbb1ec"}, {"lat": 38.89040416666667, "is_reserved": 0, "lon": -77.029744, "fusion_lon": 0.0, "fusion_lat": 0.0, "is_disabled": 0, "type": "electric_scooter", "bike_id": "3e69080616755a590b2880720699f74d", "rental_uris": {"android": "https://dc.lft.to/lastmile_qr_scan", "ios": "https://dc.lft.to/lastmile_qr_scan"}, "name": "3e69080616755a590b2880720699f74d"}, {"lat": 38.90691783333333, "is_reserved": 0, "lon": -77.02400466666667, "fusion_lon": 0.0, "fusion_lat": 0.0, "is_disabled": 0, "type": "electric_scooter", "bike_id": "854c4590d5bfc83167cc6be18f30677d", "rental_uris": {"android": "https://dc.lft.to/lastmile_qr_scan", "ios": "https://dc.lft.to/lastmile_qr_scan"}, "name": "854c4590d5bfc83167cc6be18f30677d"}, {"lat": 38.8764505, "is_reserved": 0, "lon": -77.0055915, "fusion_lon": 0.0, "fusion_lat": 0.0, "is_disabled": 0, "type": "electric_scooter", "bike_id": "42e00a8aed8bb47e20a382b2d537b279", "rental_uris": {"android": "https://dc.lft.to/lastmile_qr_scan", "ios": "https://dc.lft.to/lastmile_qr_scan"}, "name": "42e00a8aed8bb47e20a382b2d537b279"}, {"lat": 38.91588216666667, "is_reserved": 0, "lon": -77.0145375, "fusion_lon": 0.0, "fusion_lat": 0.0, "is_disabled": 0, "type": "electric_scooter", "bike_id": "4196341a54be02d16657579edcacc0e5", "rental_uris": {"android": "https://dc.lft.to/lastmile_qr_scan", "ios": "https://dc.lft.to/lastmile_qr_scan"}, "name": "4196341a54be02d16657579edcacc0e5"}, {"lat": 38.92040983333333, "is_reserved": 0, "lon": -77.01690833333333, "fusion_lon": 0.0, "fusion_lat": 0.0, "is_disabled": 0, "type": "electric_scooter", "bike_id": "73893ba3fa7de7fdf88576cae3571280", "rental_uris": {"android": "https://dc.lft.to/lastmile_qr_scan", "ios": "https://dc.lft.to/lastmile_qr_scan"}, "name": "73893ba3fa7de7fdf88576cae3571280"}, {"lat": 38.921618, "is_reserved": 0, "lon": -77.03835716666667, "fusion_lon": 0.0, "fusion_lat": 0.0, "is_disabled": 0, "type": "electric_scooter", "bike_id": "7b7a0e479d08fdab1950749f146f9f11", "rental_uris": {"android": "https://dc.lft.to/lastmile_qr_scan", "ios": "https://dc.lft.to/lastmile_qr_scan"}, "name": "7b7a0e479d08fdab1950749f146f9f11"}, {"lat": 38.908036833333334, "is_reserved": 0, "lon": -77.03069716666667, "fusion_lon": 0.0, "fusion_lat": 0.0, "is_disabled": 0, "type": "electric_scooter", "bike_id": "1015160f7168a67404baf70623ef6288", "rental_uris": {"android": "https://dc.lft.to/lastmile_qr_scan", "ios": "https://dc.lft.to/lastmile_qr_scan"}, "name": "1015160f7168a67404baf70623ef6288"}, {"lat": 38.911444333333336, "is_reserved": 0, "lon": -77.03831816666667, "fusion_lon": 0.0, "fusion_lat": 0.0, "is_disabled": 0, "type": "electric_scooter", "bike_id": "8c4b98faf304661ac2cd1532b541e3b8", "rental_uris": {"android": "https://dc.lft.to/lastmile_qr_scan", "ios": "https://dc.lft.to/lastmile_qr_scan"}, "name": "8c4b98faf304661ac2cd1532b541e3b8"}, {"lat": 38.898978666666665, "is_reserved": 0, "lon": -77.02815566666666, "fusion_lon": 0.0, "fusion_lat": 0.0, "is_disabled": 0, "type": "electric_scooter", "bike_id": "b97b03793f381401aae5b4be888889a4", "rental_uris": {"android": "https://dc.lft.to/lastmile_qr_scan", "ios": "https://dc.lft.to/lastmile_qr_scan"}, "name": "b97b03793f381401aae5b4be888889a4"}, {"lat": 38.9094025, "is_reserved": 0, "lon": -77.04486666666666, "fusion_lon": 0.0, "fusion_lat": 0.0, "is_disabled": 0, "type": "electric_scooter", "bike_id": "74a6d96895f2a023c73cc1e767f0e710", "rental_uris": {"android": "https://dc.lft.to/lastmile_qr_scan", "ios": "https://dc.lft.to/lastmile_qr_scan"}, "name": "74a6d96895f2a023c73cc1e767f0e710"}, {"lat": 38.92891683333333, "is_reserved": 0, "lon": -77.0262495, "fusion_lon": 0.0, "fusion_lat": 0.0, "is_disabled": 0, "type": "electric_scooter", "bike_id": "53f2c04197eb170a9fc85206e36bf7ce", "rental_uris": {"android": "https://dc.lft.to/lastmile_qr_scan", "ios": "https://dc.lft.to/lastmile_qr_scan"}, "name": "53f2c04197eb170a9fc85206e36bf7ce"}, {"lat": 38.895080166666666, "is_reserved": 0, "lon": -77.04674233333333, "fusion_lon": 0.0, "fusion_lat": 0.0, "is_disabled": 0, "type": "electric_scooter", "bike_id": "a815aae859a7223b325cac3556398f42", "rental_uris": {"android": "https://dc.lft.to/lastmile_qr_scan", "ios": "https://dc.lft.to/lastmile_qr_scan"}, "name": "a815aae859a7223b325cac3556398f42"}, {"lat": 38.903843333333334, "is_reserved": 0, "lon": -77.04097216666666, "fusion_lon": 0.0, "fusion_lat": 0.0, "is_disabled": 0, "type": "electric_scooter", "bike_id": "5e1f067f785bf1eecb3645f5014808aa", "rental_uris": {"android": "https://dc.lft.to/lastmile_qr_scan", "ios": "https://dc.lft.to/lastmile_qr_scan"}, "name": "5e1f067f785bf1eecb3645f5014808aa"}, {"lat": 38.96911333333333, "is_reserved": 0, "lon": -76.99494916666667, "fusion_lon": 0.0, "fusion_lat": 0.0, "is_disabled": 0, "type": "electric_bike", "bike_id": "0b16cb9001721356c7030a9437118304", "rental_uris": {"android": "https://dc.lft.to/lastmile_qr_scan", "ios": "https://dc.lft.to/lastmile_qr_scan"}, "name": "0b16cb9001721356c7030a9437118304"}, {"lat": 38.9640095, "is_reserved": 0, "lon": -76.99988166666667, "fusion_lon": 0.0, "fusion_lat": 0.0, "is_disabled": 0, "type": "electric_bike", "bike_id": "43074238b7d17808c81beac21b1ee116", "rental_uris": {"android": "https://dc.lft.to/lastmile_qr_scan", "ios": "https://dc.lft.to/lastmile_qr_scan"}, "name": "43074238b7d17808c81beac21b1ee116"}, {"lat": 38.8955115, "is_reserved": 0, "lon": -77.04683783333333, "fusion_lon": 0.0, "fusion_lat": 0.0, "is_disabled": 0, "type": "electric_scooter", "bike_id": "19b956cba29b7f11d931326a66b142c9", "rental_uris": {"android": "https://dc.lft.to/lastmile_qr_scan", "ios": "https://dc.lft.to/lastmile_qr_scan"}, "name": "19b956cba29b7f11d931326a66b142c9"}, {"lat": 38.914053, "is_reserved": 0, "lon": -77.0200955, "fusion_lon": 0.0, "fusion_lat": 0.0, "is_disabled": 0, "type": "electric_scooter", "bike_id": "d200d9c2ecb015511b5e04fbd2266a01", "rental_uris": {"android": "https://dc.lft.to/lastmile_qr_scan", "ios": "https://dc.lft.to/lastmile_qr_scan"}, "name": "d200d9c2ecb015511b5e04fbd2266a01"}, {"lat": 38.91282916666667, "is_reserved": 0, "lon": -76.986877, "fusion_lon": 0.0, "fusion_lat": 0.0, "is_disabled": 0, "type": "electric_scooter", "bike_id": "2ef92c450987d509ddd0c9edc142db3b", "rental_uris": {"android": "https://dc.lft.to/lastmile_qr_scan", "ios": "https://dc.lft.to/lastmile_qr_scan"}, "name": "2ef92c450987d509ddd0c9edc142db3b"}, {"lat": 38.91625333333333, "is_reserved": 0, "lon": -77.03198933333333, "fusion_lon": 0.0, "fusion_lat": 0.0, "is_disabled": 0, "type": "electric_scooter", "bike_id": "3d1e5dcdad53ec00a1e116eac8296748", "rental_uris": {"android": "https://dc.lft.to/lastmile_qr_scan", "ios": "https://dc.lft.to/lastmile_qr_scan"}, "name": "3d1e5dcdad53ec00a1e116eac8296748"}, {"lat": 38.928473833333335, "is_reserved": 0, "lon": -77.055078, "fusion_lon": 0.0, "fusion_lat": 0.0, "is_disabled": 0, "type": "electric_scooter", "bike_id": "31a7ce7c120d9d5e3ba40eec5527cca4", "rental_uris": {"android": "https://dc.lft.to/lastmile_qr_scan", "ios": "https://dc.lft.to/lastmile_qr_scan"}, "name": "31a7ce7c120d9d5e3ba40eec5527cca4"}, {"lat": 38.89591933333333, "is_reserved": 0, "lon": -77.02359833333334, "fusion_lon": 0.0, "fusion_lat": 0.0, "is_disabled": 0, "type": "electric_scooter", "bike_id": "669a3efbabf0940cc216f3fc15acb2a0", "rental_uris": {"android": "https://dc.lft.to/lastmile_qr_scan", "ios": "https://dc.lft.to/lastmile_qr_scan"}, "name": "669a3efbabf0940cc216f3fc15acb2a0"}, {"lat": 38.867259, "is_reserved": 0, "lon": -76.98695266666667, "fusion_lon": 0.0, "fusion_lat": 0.0, "is_disabled": 0, "type": "electric_scooter", "bike_id": "e634b4b7700ce17f26b004ef2fcd645e", "rental_uris": {"android": "https://dc.lft.to/lastmile_qr_scan", "ios": "https://dc.lft.to/lastmile_qr_scan"}, "name": "e634b4b7700ce17f26b004ef2fcd645e"}, {"lat": 38.919025166666664, "is_reserved": 0, "lon": -77.041753, "fusion_lon": 0.0, "fusion_lat": 0.0, "is_disabled": 0, "type": "electric_scooter", "bike_id": "48a67c0e212f54229d13cd1884a88c53", "rental_uris": {"android": "https://dc.lft.to/lastmile_qr_scan", "ios": "https://dc.lft.to/lastmile_qr_scan"}, "name": "48a67c0e212f54229d13cd1884a88c53"}, {"lat": 38.9418555, "is_reserved": 0, "lon": -77.024872, "fusion_lon": 0.0, "fusion_lat": 0.0, "is_disabled": 0, "type": "electric_scooter", "bike_id": "1fbe3a3691e3e5784a54bf232d29d5d8", "rental_uris": {"android": "https://dc.lft.to/lastmile_qr_scan", "ios": "https://dc.lft.to/lastmile_qr_scan"}, "name": "1fbe3a3691e3e5784a54bf232d29d5d8"}, {"lat": 38.9073785, "is_reserved": 0, "lon": -77.01135383333333, "fusion_lon": 0.0, "fusion_lat": 0.0, "is_disabled": 0, "type": "electric_scooter", "bike_id": "88727cbefb4be8e61fa27cac492e0ede", "rental_uris": {"android": "https://dc.lft.to/lastmile_qr_scan", "ios": "https://dc.lft.to/lastmile_qr_scan"}, "name": "88727cbefb4be8e61fa27cac492e0ede"}, {"lat": 38.877207, "is_reserved": 0, "lon": -77.00363466666667, "fusion_lon": 0.0, "fusion_lat": 0.0, "is_disabled": 0, "type": "electric_scooter", "bike_id": "f7c1c0a532e3e7e71b262e824ed3ef01", "rental_uris": {"android": "https://dc.lft.to/lastmile_qr_scan", "ios": "https://dc.lft.to/lastmile_qr_scan"}, "name": "f7c1c0a532e3e7e71b262e824ed3ef01"}, {"lat": 38.90491383333333, "is_reserved": 0, "lon": -77.0383915, "fusion_lon": 0.0, "fusion_lat": 0.0, "is_disabled": 0, "type": "electric_scooter", "bike_id": "064b07ace662eff41ef243a6cd260132", "rental_uris": {"android": "https://dc.lft.to/lastmile_qr_scan", "ios": "https://dc.lft.to/lastmile_qr_scan"}, "name": "064b07ace662eff41ef243a6cd260132"}, {"lat": 38.895933166666666, "is_reserved": 0, "lon": -77.02376183333334, "fusion_lon": 0.0, "fusion_lat": 0.0, "is_disabled": 0, "type": "electric_scooter", "bike_id": "5c25587b05250266d13614e28f039c87", "rental_uris": {"android": "https://dc.lft.to/lastmile_qr_scan", "ios": "https://dc.lft.to/lastmile_qr_scan"}, "name": "5c25587b05250266d13614e28f039c87"}, {"lat": 38.930707, "is_reserved": 0, "lon": -77.02820033333333, "fusion_lon": 0.0, "fusion_lat": 0.0, "is_disabled": 0, "type": "electric_scooter", "bike_id": "dde113ff68fdce44e8c5460664da84ea", "rental_uris": {"android": "https://dc.lft.to/lastmile_qr_scan", "ios": "https://dc.lft.to/lastmile_qr_scan"}, "name": "dde113ff68fdce44e8c5460664da84ea"}, {"lat": 38.8975525, "is_reserved": 0, "lon": -77.02456116666667, "fusion_lon": 0.0, "fusion_lat": 0.0, "is_disabled": 0, "type": "electric_scooter", "bike_id": "a1b11949b91e5fc2d96607501e82e0e6", "rental_uris": {"android": "https://dc.lft.to/lastmile_qr_scan", "ios": "https://dc.lft.to/lastmile_qr_scan"}, "name": "a1b11949b91e5fc2d96607501e82e0e6"}, {"lat": 38.876630166666665, "is_reserved": 0, "lon": -77.00441866666667, "fusion_lon": 0.0, "fusion_lat": 0.0, "is_disabled": 0, "type": "electric_scooter", "bike_id": "df7ed77e2c6e13a4cc32914710b45855", "rental_uris": {"android": "https://dc.lft.to/lastmile_qr_scan", "ios": "https://dc.lft.to/lastmile_qr_scan"}, "name": "df7ed77e2c6e13a4cc32914710b45855"}, {"lat": 38.92328933333334, "is_reserved": 0, "lon": -77.04311633333333, "fusion_lon": 0.0, "fusion_lat": 0.0, "is_disabled": 0, "type": "electric_scooter", "bike_id": "366ca94976060eedc3b04a9ce1710f7d", "rental_uris": {"android": "https://dc.lft.to/lastmile_qr_scan", "ios": "https://dc.lft.to/lastmile_qr_scan"}, "name": "366ca94976060eedc3b04a9ce1710f7d"}, {"lat": 38.92460916666667, "is_reserved": 0, "lon": -77.02143433333333, "fusion_lon": 0.0, "fusion_lat": 0.0, "is_disabled": 0, "type": "electric_scooter", "bike_id": "1411fca1261cd73690f1f2e162991997", "rental_uris": {"android": "https://dc.lft.to/lastmile_qr_scan", "ios": "https://dc.lft.to/lastmile_qr_scan"}, "name": "1411fca1261cd73690f1f2e162991997"}, {"lat": 38.8996, "is_reserved": 0, "lon": -77.02682483333334, "fusion_lon": 0.0, "fusion_lat": 0.0, "is_disabled": 0, "type": "electric_scooter", "bike_id": "db46eb7a47fd0cb6c0e05340408b0e0c", "rental_uris": {"android": "https://dc.lft.to/lastmile_qr_scan", "ios": "https://dc.lft.to/lastmile_qr_scan"}, "name": "db46eb7a47fd0cb6c0e05340408b0e0c"}, {"lat": 38.92387766666667, "is_reserved": 0, "lon": -77.032408, "fusion_lon": 0.0, "fusion_lat": 0.0, "is_disabled": 0, "type": "electric_scooter", "bike_id": "8f8693d62f401e121cf6f63f16cb5ba9", "rental_uris": {"android": "https://dc.lft.to/lastmile_qr_scan", "ios": "https://dc.lft.to/lastmile_qr_scan"}, "name": "8f8693d62f401e121cf6f63f16cb5ba9"}, {"lat": 38.933921166666664, "is_reserved": 0, "lon": -77.05741733333333, "fusion_lon": 0.0, "fusion_lat": 0.0, "is_disabled": 0, "type": "electric_scooter", "bike_id": "16bff89904d2e89a867cdca96c4fde8f", "rental_uris": {"android": "https://dc.lft.to/lastmile_qr_scan", "ios": "https://dc.lft.to/lastmile_qr_scan"}, "name": "16bff89904d2e89a867cdca96c4fde8f"}, {"lat": 38.898963, "is_reserved": 0, "lon": -77.0397215, "fusion_lon": 0.0, "fusion_lat": 0.0, "is_disabled": 0, "type": "electric_scooter", "bike_id": "0365e5813140140eb4751983ec82810e", "rental_uris": {"android": "https://dc.lft.to/lastmile_qr_scan", "ios": "https://dc.lft.to/lastmile_qr_scan"}, "name": "0365e5813140140eb4751983ec82810e"}, {"lat": 38.9845995, "is_reserved": 0, "lon": -76.97051316666666, "fusion_lon": 0.0, "fusion_lat": 0.0, "is_disabled": 0, "type": "electric_bike", "bike_id": "aa8a65ef6594ca56368d44f3de897786", "rental_uris": {"android": "https://dc.lft.to/lastmile_qr_scan", "ios": "https://dc.lft.to/lastmile_qr_scan"}, "name": "aa8a65ef6594ca56368d44f3de897786"}, {"lat": 38.91006, "is_reserved": 0, "lon": -77.03658716666666, "fusion_lon": 0.0, "fusion_lat": 0.0, "is_disabled": 0, "type": "electric_scooter", "bike_id": "d5b2e450617c15db1130e45ff529e4dc", "rental_uris": {"android": "https://dc.lft.to/lastmile_qr_scan", "ios": "https://dc.lft.to/lastmile_qr_scan"}, "name": "d5b2e450617c15db1130e45ff529e4dc"}, {"lat": 38.902356166666664, "is_reserved": 0, "lon": -77.03806233333333, "fusion_lon": 0.0, "fusion_lat": 0.0, "is_disabled": 0, "type": "electric_scooter", "bike_id": "1dee2103a9604e3c654c4eb0157938c5", "rental_uris": {"android": "https://dc.lft.to/lastmile_qr_scan", "ios": "https://dc.lft.to/lastmile_qr_scan"}, "name": "1dee2103a9604e3c654c4eb0157938c5"}, {"lat": 38.931093, "is_reserved": 0, "lon": -77.03508233333334, "fusion_lon": 0.0, "fusion_lat": 0.0, "is_disabled": 0, "type": "electric_scooter", "bike_id": "43cf81c790f81e4d90ff37878b245bb2", "rental_uris": {"android": "https://dc.lft.to/lastmile_qr_scan", "ios": "https://dc.lft.to/lastmile_qr_scan"}, "name": "43cf81c790f81e4d90ff37878b245bb2"}, {"lat": 38.900485333333336, "is_reserved": 0, "lon": -76.998366, "fusion_lon": 0.0, "fusion_lat": 0.0, "is_disabled": 0, "type": "electric_scooter", "bike_id": "1ddd6d47481165bcda6e968fbbad6d24", "rental_uris": {"android": "https://dc.lft.to/lastmile_qr_scan", "ios": "https://dc.lft.to/lastmile_qr_scan"}, "name": "1ddd6d47481165bcda6e968fbbad6d24"}, {"lat": 38.901355833333334, "is_reserved": 0, "lon": -77.032488, "fusion_lon": 0.0, "fusion_lat": 0.0, "is_disabled": 0, "type": "electric_scooter", "bike_id": "6b675b5c71e54ac8b410f96cb79d81bc", "rental_uris": {"android": "https://dc.lft.to/lastmile_qr_scan", "ios": "https://dc.lft.to/lastmile_qr_scan"}, "name": "6b675b5c71e54ac8b410f96cb79d81bc"}, {"lat": 38.9240125, "is_reserved": 0, "lon": -77.03542416666667, "fusion_lon": 0.0, "fusion_lat": 0.0, "is_disabled": 0, "type": "electric_scooter", "bike_id": "9a9b8bf5d7dcae882f96c6a657241a1c", "rental_uris": {"android": "https://dc.lft.to/lastmile_qr_scan", "ios": "https://dc.lft.to/lastmile_qr_scan"}, "name": "9a9b8bf5d7dcae882f96c6a657241a1c"}, {"lat": 38.907492833333336, "is_reserved": 0, "lon": -77.07157516666666, "fusion_lon": 0.0, "fusion_lat": 0.0, "is_disabled": 0, "type": "electric_scooter", "bike_id": "87269da7c632907ef36975d9308b2504", "rental_uris": {"android": "https://dc.lft.to/lastmile_qr_scan", "ios": "https://dc.lft.to/lastmile_qr_scan"}, "name": "87269da7c632907ef36975d9308b2504"}, {"lat": 38.916017333333336, "is_reserved": 0, "lon": -77.085324, "fusion_lon": 0.0, "fusion_lat": 0.0, "is_disabled": 0, "type": "electric_scooter", "bike_id": "034540c5cca767c136a97269a18099e3", "rental_uris": {"android": "https://dc.lft.to/lastmile_qr_scan", "ios": "https://dc.lft.to/lastmile_qr_scan"}, "name": "034540c5cca767c136a97269a18099e3"}, {"lat": 38.88733783333333, "is_reserved": 0, "lon": -77.0150615, "fusion_lon": 0.0, "fusion_lat": 0.0, "is_disabled": 0, "type": "electric_scooter", "bike_id": "622dd04c98c2094749c9d0a9ba1ecd40", "rental_uris": {"android": "https://dc.lft.to/lastmile_qr_scan", "ios": "https://dc.lft.to/lastmile_qr_scan"}, "name": "622dd04c98c2094749c9d0a9ba1ecd40"}, {"lat": 38.952512666666664, "is_reserved": 0, "lon": -77.01962066666667, "fusion_lon": 0.0, "fusion_lat": 0.0, "is_disabled": 0, "type": "electric_scooter", "bike_id": "f618e480d10ae1de447a6552d9bb29a6", "rental_uris": {"android": "https://dc.lft.to/lastmile_qr_scan", "ios": "https://dc.lft.to/lastmile_qr_scan"}, "name": "f618e480d10ae1de447a6552d9bb29a6"}, {"lat": 38.911786, "is_reserved": 0, "lon": -77.04502816666667, "fusion_lon": 0.0, "fusion_lat": 0.0, "is_disabled": 0, "type": "electric_scooter", "bike_id": "38bb23038af04d12f7077b62fd5f523a", "rental_uris": {"android": "https://dc.lft.to/lastmile_qr_scan", "ios": "https://dc.lft.to/lastmile_qr_scan"}, "name": "38bb23038af04d12f7077b62fd5f523a"}, {"lat": 38.934728666666665, "is_reserved": 0, "lon": -77.02228033333333, "fusion_lon": 0.0, "fusion_lat": 0.0, "is_disabled": 0, "type": "electric_scooter", "bike_id": "3c75ccb7a622da7c5e0f53627c639460", "rental_uris": {"android": "https://dc.lft.to/lastmile_qr_scan", "ios": "https://dc.lft.to/lastmile_qr_scan"}, "name": "3c75ccb7a622da7c5e0f53627c639460"}, {"lat": 38.90083683333334, "is_reserved": 0, "lon": -77.04765116666667, "fusion_lon": 0.0, "fusion_lat": 0.0, "is_disabled": 0, "type": "electric_scooter", "bike_id": "4dfac2cdaaf1a2b20d22b8e10c3ba6a7", "rental_uris": {"android": "https://dc.lft.to/lastmile_qr_scan", "ios": "https://dc.lft.to/lastmile_qr_scan"}, "name": "4dfac2cdaaf1a2b20d22b8e10c3ba6a7"}, {"lat": 38.964406333333336, "is_reserved": 0, "lon": -77.03153866666666, "fusion_lon": 0.0, "fusion_lat": 0.0, "is_disabled": 0, "type": "electric_bike", "bike_id": "72380edeaa8602f6275644eb5a13102a", "rental_uris": {"android": "https://dc.lft.to/lastmile_qr_scan", "ios": "https://dc.lft.to/lastmile_qr_scan"}, "name": "72380edeaa8602f6275644eb5a13102a"}, {"lat": 38.914979333333335, "is_reserved": 0, "lon": -77.02188866666667, "fusion_lon": 0.0, "fusion_lat": 0.0, "is_disabled": 0, "type": "electric_scooter", "bike_id": "765427371934d91e0f1c230bcca7fc4e", "rental_uris": {"android": "https://dc.lft.to/lastmile_qr_scan", "ios": "https://dc.lft.to/lastmile_qr_scan"}, "name": "765427371934d91e0f1c230bcca7fc4e"}, {"lat": 38.906914666666665, "is_reserved": 0, "lon": -76.95253516666666, "fusion_lon": 0.0, "fusion_lat": 0.0, "is_disabled": 0, "type": "electric_bike", "bike_id": "84eb2b9983b504f1b76450beef3fa7c4", "rental_uris": {"android": "https://dc.lft.to/lastmile_qr_scan", "ios": "https://dc.lft.to/lastmile_qr_scan"}, "name": "84eb2b9983b504f1b76450beef3fa7c4"}, {"lat": 38.922503166666665, "is_reserved": 0, "lon": -77.03282633333333, "fusion_lon": 0.0, "fusion_lat": 0.0, "is_disabled": 0, "type": "electric_scooter", "bike_id": "f8cbc7187e981d763571eb954990e877", "rental_uris": {"android": "https://dc.lft.to/lastmile_qr_scan", "ios": "https://dc.lft.to/lastmile_qr_scan"}, "name": "f8cbc7187e981d763571eb954990e877"}, {"lat": 38.893337833333334, "is_reserved": 0, "lon": -77.04675083333333, "fusion_lon": 0.0, "fusion_lat": 0.0, "is_disabled": 0, "type": "electric_scooter", "bike_id": "e70af4c8390daae3cae0ca612248622a", "rental_uris": {"android": "https://dc.lft.to/lastmile_qr_scan", "ios": "https://dc.lft.to/lastmile_qr_scan"}, "name": "e70af4c8390daae3cae0ca612248622a"}, {"lat": 38.870603833333334, "is_reserved": 0, "lon": -76.97097483333333, "fusion_lon": 0.0, "fusion_lat": 0.0, "is_disabled": 0, "type": "electric_scooter", "bike_id": "8e22b94fb6e78a07665692dad30c0841", "rental_uris": {"android": "https://dc.lft.to/lastmile_qr_scan", "ios": "https://dc.lft.to/lastmile_qr_scan"}, "name": "8e22b94fb6e78a07665692dad30c0841"}, {"lat": 38.9210115, "is_reserved": 0, "lon": -77.0420375, "fusion_lon": 0.0, "fusion_lat": 0.0, "is_disabled": 0, "type": "electric_scooter", "bike_id": "8785e6a9c1641522e77672b739b6af50", "rental_uris": {"android": "https://dc.lft.to/lastmile_qr_scan", "ios": "https://dc.lft.to/lastmile_qr_scan"}, "name": "8785e6a9c1641522e77672b739b6af50"}, {"lat": 38.922214, "is_reserved": 0, "lon": -77.20135816666667, "fusion_lon": 0.0, "fusion_lat": 0.0, "is_disabled": 0, "type": "electric_bike", "bike_id": "f6bfeb4f555559902c27a6413a3179a3", "rental_uris": {"android": "https://dc.lft.to/lastmile_qr_scan", "ios": "https://dc.lft.to/lastmile_qr_scan"}, "name": "f6bfeb4f555559902c27a6413a3179a3"}, {"lat": 38.89864716666666, "is_reserved": 0, "lon": -76.94635983333333, "fusion_lon": 0.0, "fusion_lat": 0.0, "is_disabled": 0, "type": "electric_scooter", "bike_id": "d1145d252036539577c58f7af47a310e", "rental_uris": {"android": "https://dc.lft.to/lastmile_qr_scan", "ios": "https://dc.lft.to/lastmile_qr_scan"}, "name": "d1145d252036539577c58f7af47a310e"}, {"lat": 38.90200216666667, "is_reserved": 0, "lon": -77.0337125, "fusion_lon": 0.0, "fusion_lat": 0.0, "is_disabled": 0, "type": "electric_scooter", "bike_id": "e3d8d7586bf7d9832ffef4fa59361fc7", "rental_uris": {"android": "https://dc.lft.to/lastmile_qr_scan", "ios": "https://dc.lft.to/lastmile_qr_scan"}, "name": "e3d8d7586bf7d9832ffef4fa59361fc7"}, {"lat": 38.9748985, "is_reserved": 0, "lon": -77.01691466666666, "fusion_lon": 0.0, "fusion_lat": 0.0, "is_disabled": 0, "type": "electric_scooter", "bike_id": "3cea3d8254bb5705e1d92ac195cebcea", "rental_uris": {"android": "https://dc.lft.to/lastmile_qr_scan", "ios": "https://dc.lft.to/lastmile_qr_scan"}, "name": "3cea3d8254bb5705e1d92ac195cebcea"}, {"lat": 38.893724, "is_reserved": 0, "lon": -77.0284145, "fusion_lon": 0.0, "fusion_lat": 0.0, "is_disabled": 0, "type": "electric_scooter", "bike_id": "291db8cfbd0281bda62488de0759f61c", "rental_uris": {"android": "https://dc.lft.to/lastmile_qr_scan", "ios": "https://dc.lft.to/lastmile_qr_scan"}, "name": "291db8cfbd0281bda62488de0759f61c"}, {"lat": 38.912470666666664, "is_reserved": 0, "lon": -77.02428366666666, "fusion_lon": 0.0, "fusion_lat": 0.0, "is_disabled": 0, "type": "electric_scooter", "bike_id": "4bad2af3abf08063cf1076979c12ba38", "rental_uris": {"android": "https://dc.lft.to/lastmile_qr_scan", "ios": "https://dc.lft.to/lastmile_qr_scan"}, "name": "4bad2af3abf08063cf1076979c12ba38"}, {"lat": 38.871783666666666, "is_reserved": 0, "lon": -77.00607716666667, "fusion_lon": 0.0, "fusion_lat": 0.0, "is_disabled": 0, "type": "electric_scooter", "bike_id": "4d372d4e97084b21c202da1aae224263", "rental_uris": {"android": "https://dc.lft.to/lastmile_qr_scan", "ios": "https://dc.lft.to/lastmile_qr_scan"}, "name": "4d372d4e97084b21c202da1aae224263"}, {"lat": 38.892227, "is_reserved": 0, "lon": -77.04368066666666, "fusion_lon": 0.0, "fusion_lat": 0.0, "is_disabled": 0, "type": "electric_scooter", "bike_id": "3f9aea0bd2f1d3723ca1a9fc6b355fab", "rental_uris": {"android": "https://dc.lft.to/lastmile_qr_scan", "ios": "https://dc.lft.to/lastmile_qr_scan"}, "name": "3f9aea0bd2f1d3723ca1a9fc6b355fab"}, {"lat": 38.88611366666667, "is_reserved": 0, "lon": -76.9558095, "fusion_lon": 0.0, "fusion_lat": 0.0, "is_disabled": 0, "type": "electric_scooter", "bike_id": "863f7cb1950a776ca650c3cc34c8851f", "rental_uris": {"android": "https://dc.lft.to/lastmile_qr_scan", "ios": "https://dc.lft.to/lastmile_qr_scan"}, "name": "863f7cb1950a776ca650c3cc34c8851f"}, {"lat": 38.903908666666666, "is_reserved": 0, "lon": -77.04345616666667, "fusion_lon": 0.0, "fusion_lat": 0.0, "is_disabled": 0, "type": "electric_scooter", "bike_id": "c156f9f133b067edbad2f8744eb17593", "rental_uris": {"android": "https://dc.lft.to/lastmile_qr_scan", "ios": "https://dc.lft.to/lastmile_qr_scan"}, "name": "c156f9f133b067edbad2f8744eb17593"}, {"lat": 38.9226605, "is_reserved": 0, "lon": -77.03889416666667, "fusion_lon": 0.0, "fusion_lat": 0.0, "is_disabled": 0, "type": "electric_scooter", "bike_id": "4d735276824199be7b5203488723ab6b", "rental_uris": {"android": "https://dc.lft.to/lastmile_qr_scan", "ios": "https://dc.lft.to/lastmile_qr_scan"}, "name": "4d735276824199be7b5203488723ab6b"}, {"lat": 38.927357666666666, "is_reserved": 0, "lon": -76.99558, "fusion_lon": 0.0, "fusion_lat": 0.0, "is_disabled": 0, "type": "electric_scooter", "bike_id": "cc400f57efb4c420e3e592e1bb8533f0", "rental_uris": {"android": "https://dc.lft.to/lastmile_qr_scan", "ios": "https://dc.lft.to/lastmile_qr_scan"}, "name": "cc400f57efb4c420e3e592e1bb8533f0"}, {"lat": 38.8924105, "is_reserved": 0, "lon": -77.05029666666667, "fusion_lon": 0.0, "fusion_lat": 0.0, "is_disabled": 0, "type": "electric_scooter", "bike_id": "bc713f29806aacc75fb0370143eb9061", "rental_uris": {"android": "https://dc.lft.to/lastmile_qr_scan", "ios": "https://dc.lft.to/lastmile_qr_scan"}, "name": "bc713f29806aacc75fb0370143eb9061"}, {"lat": 38.927027, "is_reserved": 0, "lon": -77.03635733333333, "fusion_lon": 0.0, "fusion_lat": 0.0, "is_disabled": 0, "type": "electric_scooter", "bike_id": "872db7f5c26f5aca4c5e45521ae8a2b2", "rental_uris": {"android": "https://dc.lft.to/lastmile_qr_scan", "ios": "https://dc.lft.to/lastmile_qr_scan"}, "name": "872db7f5c26f5aca4c5e45521ae8a2b2"}, {"lat": 38.91907766666667, "is_reserved": 0, "lon": -77.026157, "fusion_lon": 0.0, "fusion_lat": 0.0, "is_disabled": 0, "type": "electric_scooter", "bike_id": "55d802ec959e9d2d46d1ed84af0cc3d1", "rental_uris": {"android": "https://dc.lft.to/lastmile_qr_scan", "ios": "https://dc.lft.to/lastmile_qr_scan"}, "name": "55d802ec959e9d2d46d1ed84af0cc3d1"}, {"lat": 38.901067833333336, "is_reserved": 0, "lon": -77.070597, "fusion_lon": 0.0, "fusion_lat": 0.0, "is_disabled": 0, "type": "electric_scooter", "bike_id": "a229543879b495b4318ecc3ec4942a77", "rental_uris": {"android": "https://dc.lft.to/lastmile_qr_scan", "ios": "https://dc.lft.to/lastmile_qr_scan"}, "name": "a229543879b495b4318ecc3ec4942a77"}, {"lat": 38.90674833333333, "is_reserved": 0, "lon": -76.9866565, "fusion_lon": 0.0, "fusion_lat": 0.0, "is_disabled": 0, "type": "electric_scooter", "bike_id": "ce135efe746270a15f825d0ff771fe53", "rental_uris": {"android": "https://dc.lft.to/lastmile_qr_scan", "ios": "https://dc.lft.to/lastmile_qr_scan"}, "name": "ce135efe746270a15f825d0ff771fe53"}, {"lat": 38.89538916666667, "is_reserved": 0, "lon": -77.0200705, "fusion_lon": 0.0, "fusion_lat": 0.0, "is_disabled": 0, "type": "electric_scooter", "bike_id": "c2d04832a136c521466ec0ee115cda04", "rental_uris": {"android": "https://dc.lft.to/lastmile_qr_scan", "ios": "https://dc.lft.to/lastmile_qr_scan"}, "name": "c2d04832a136c521466ec0ee115cda04"}, {"lat": 38.89514166666667, "is_reserved": 0, "lon": -77.04483433333333, "fusion_lon": 0.0, "fusion_lat": 0.0, "is_disabled": 0, "type": "electric_scooter", "bike_id": "415410d685eab37c6e92d69e89fcc2c8", "rental_uris": {"android": "https://dc.lft.to/lastmile_qr_scan", "ios": "https://dc.lft.to/lastmile_qr_scan"}, "name": "415410d685eab37c6e92d69e89fcc2c8"}, {"lat": 38.90137883333333, "is_reserved": 0, "lon": -76.997984, "fusion_lon": 0.0, "fusion_lat": 0.0, "is_disabled": 0, "type": "electric_scooter", "bike_id": "f4b70013c536f5c82f9f43b75833bedb", "rental_uris": {"android": "https://dc.lft.to/lastmile_qr_scan", "ios": "https://dc.lft.to/lastmile_qr_scan"}, "name": "f4b70013c536f5c82f9f43b75833bedb"}, {"lat": 38.918374666666665, "is_reserved": 0, "lon": -77.0417075, "fusion_lon": 0.0, "fusion_lat": 0.0, "is_disabled": 0, "type": "electric_scooter", "bike_id": "3a72eae3e78f59c679596478a8977851", "rental_uris": {"android": "https://dc.lft.to/lastmile_qr_scan", "ios": "https://dc.lft.to/lastmile_qr_scan"}, "name": "3a72eae3e78f59c679596478a8977851"}, {"lat": 38.94994833333333, "is_reserved": 0, "lon": -77.02188216666667, "fusion_lon": 0.0, "fusion_lat": 0.0, "is_disabled": 0, "type": "electric_scooter", "bike_id": "38858e3748942b9323e3b41a2413003d", "rental_uris": {"android": "https://dc.lft.to/lastmile_qr_scan", "ios": "https://dc.lft.to/lastmile_qr_scan"}, "name": "38858e3748942b9323e3b41a2413003d"}, {"lat": 38.838894333333336, "is_reserved": 0, "lon": -77.00064633333334, "fusion_lon": 0.0, "fusion_lat": 0.0, "is_disabled": 0, "type": "electric_scooter", "bike_id": "8d72a6e7cbda0b0e3409b94b2647fd2e", "rental_uris": {"android": "https://dc.lft.to/lastmile_qr_scan", "ios": "https://dc.lft.to/lastmile_qr_scan"}, "name": "8d72a6e7cbda0b0e3409b94b2647fd2e"}, {"lat": 38.906867166666665, "is_reserved": 0, "lon": -77.02379383333333, "fusion_lon": 0.0, "fusion_lat": 0.0, "is_disabled": 0, "type": "electric_scooter", "bike_id": "d1de2f5d83712debd4803c87d174cf38", "rental_uris": {"android": "https://dc.lft.to/lastmile_qr_scan", "ios": "https://dc.lft.to/lastmile_qr_scan"}, "name": "d1de2f5d83712debd4803c87d174cf38"}, {"lat": 38.90016983333334, "is_reserved": 0, "lon": -76.9877145, "fusion_lon": 0.0, "fusion_lat": 0.0, "is_disabled": 0, "type": "electric_scooter", "bike_id": "b48f1ec7fb368d6ae55c274c1b440861", "rental_uris": {"android": "https://dc.lft.to/lastmile_qr_scan", "ios": "https://dc.lft.to/lastmile_qr_scan"}, "name": "b48f1ec7fb368d6ae55c274c1b440861"}, {"lat": 38.898748833333336, "is_reserved": 0, "lon": -77.0466355, "fusion_lon": 0.0, "fusion_lat": 0.0, "is_disabled": 0, "type": "electric_scooter", "bike_id": "9fe114f3e7ce2c554c0b19b2ce8fc153", "rental_uris": {"android": "https://dc.lft.to/lastmile_qr_scan", "ios": "https://dc.lft.to/lastmile_qr_scan"}, "name": "9fe114f3e7ce2c554c0b19b2ce8fc153"}, {"lat": 38.89822516666667, "is_reserved": 0, "lon": -77.0333455, "fusion_lon": 0.0, "fusion_lat": 0.0, "is_disabled": 0, "type": "electric_scooter", "bike_id": "6966b3100f6ed5f5ac802ec5870c4deb", "rental_uris": {"android": "https://dc.lft.to/lastmile_qr_scan", "ios": "https://dc.lft.to/lastmile_qr_scan"}, "name": "6966b3100f6ed5f5ac802ec5870c4deb"}, {"lat": 38.90770833333333, "is_reserved": 0, "lon": -77.002255, "fusion_lon": 0.0, "fusion_lat": 0.0, "is_disabled": 0, "type": "electric_scooter", "bike_id": "233f88b3492c5dad03513babc3e3a3e7", "rental_uris": {"android": "https://dc.lft.to/lastmile_qr_scan", "ios": "https://dc.lft.to/lastmile_qr_scan"}, "name": "233f88b3492c5dad03513babc3e3a3e7"}, {"lat": 38.8754335, "is_reserved": 0, "lon": -77.0053355, "fusion_lon": 0.0, "fusion_lat": 0.0, "is_disabled": 0, "type": "electric_scooter", "bike_id": "711bb9930f6a7eacfaea6f2021e78cec", "rental_uris": {"android": "https://dc.lft.to/lastmile_qr_scan", "ios": "https://dc.lft.to/lastmile_qr_scan"}, "name": "711bb9930f6a7eacfaea6f2021e78cec"}, {"lat": 38.93592, "is_reserved": 0, "lon": -77.05886433333333, "fusion_lon": 0.0, "fusion_lat": 0.0, "is_disabled": 0, "type": "electric_scooter", "bike_id": "8e6cfbdfe7621d6aa13ce2be36525f9e", "rental_uris": {"android": "https://dc.lft.to/lastmile_qr_scan", "ios": "https://dc.lft.to/lastmile_qr_scan"}, "name": "8e6cfbdfe7621d6aa13ce2be36525f9e"}, {"lat": 38.935757833333334, "is_reserved": 0, "lon": -77.0326315, "fusion_lon": 0.0, "fusion_lat": 0.0, "is_disabled": 0, "type": "electric_scooter", "bike_id": "73a134e0d8b24f5d8b87a25af63573b9", "rental_uris": {"android": "https://dc.lft.to/lastmile_qr_scan", "ios": "https://dc.lft.to/lastmile_qr_scan"}, "name": "73a134e0d8b24f5d8b87a25af63573b9"}, {"lat": 38.919044, "is_reserved": 0, "lon": -77.0416975, "fusion_lon": 0.0, "fusion_lat": 0.0, "is_disabled": 0, "type": "electric_scooter", "bike_id": "db52805df88efbe404497648e3c36eed", "rental_uris": {"android": "https://dc.lft.to/lastmile_qr_scan", "ios": "https://dc.lft.to/lastmile_qr_scan"}, "name": "db52805df88efbe404497648e3c36eed"}, {"lat": 38.90244533333333, "is_reserved": 0, "lon": -76.937618, "fusion_lon": 0.0, "fusion_lat": 0.0, "is_disabled": 0, "type": "electric_scooter", "bike_id": "36555754880ea97b82f7cb72b5fe59dc", "rental_uris": {"android": "https://dc.lft.to/lastmile_qr_scan", "ios": "https://dc.lft.to/lastmile_qr_scan"}, "name": "36555754880ea97b82f7cb72b5fe59dc"}, {"lat": 38.941244, "is_reserved": 0, "lon": -77.01912016666667, "fusion_lon": 0.0, "fusion_lat": 0.0, "is_disabled": 0, "type": "electric_scooter", "bike_id": "e213c1067b1b6b6b4ae9ac3f03eef969", "rental_uris": {"android": "https://dc.lft.to/lastmile_qr_scan", "ios": "https://dc.lft.to/lastmile_qr_scan"}, "name": "e213c1067b1b6b6b4ae9ac3f03eef969"}, {"lat": 38.99528316666667, "is_reserved": 0, "lon": -77.06944666666666, "fusion_lon": 0.0, "fusion_lat": 0.0, "is_disabled": 0, "type": "electric_bike", "bike_id": "9ab1fb4f7177a21f7835d6c01fb50127", "rental_uris": {"android": "https://dc.lft.to/lastmile_qr_scan", "ios": "https://dc.lft.to/lastmile_qr_scan"}, "name": "9ab1fb4f7177a21f7835d6c01fb50127"}, {"lat": 38.93699083333333, "is_reserved": 0, "lon": -77.05591166666666, "fusion_lon": 0.0, "fusion_lat": 0.0, "is_disabled": 0, "type": "electric_bike", "bike_id": "8d29c488ceab6953750092fd80718fbc", "rental_uris": {"android": "https://dc.lft.to/lastmile_qr_scan", "ios": "https://dc.lft.to/lastmile_qr_scan"}, "name": "8d29c488ceab6953750092fd80718fbc"}, {"lat": 38.848522, "is_reserved": 0, "lon": -77.0038225, "fusion_lon": 0.0, "fusion_lat": 0.0, "is_disabled": 0, "type": "electric_scooter", "bike_id": "2ab968b9b799962c13f0b23a5e4d7145", "rental_uris": {"android": "https://dc.lft.to/lastmile_qr_scan", "ios": "https://dc.lft.to/lastmile_qr_scan"}, "name": "2ab968b9b799962c13f0b23a5e4d7145"}, {"lat": 38.862553166666665, "is_reserved": 0, "lon": -76.98351183333334, "fusion_lon": 0.0, "fusion_lat": 0.0, "is_disabled": 0, "type": "electric_bike", "bike_id": "b81e6f5af7c2f86f52752b9b9d63c8a2", "rental_uris": {"android": "https://dc.lft.to/lastmile_qr_scan", "ios": "https://dc.lft.to/lastmile_qr_scan"}, "name": "b81e6f5af7c2f86f52752b9b9d63c8a2"}, {"lat": 38.90645, "is_reserved": 0, "lon": -77.02534733333333, "fusion_lon": 0.0, "fusion_lat": 0.0, "is_disabled": 0, "type": "electric_scooter", "bike_id": "8d679c0931eea1299c2e33a5cbf8cfd8", "rental_uris": {"android": "https://dc.lft.to/lastmile_qr_scan", "ios": "https://dc.lft.to/lastmile_qr_scan"}, "name": "8d679c0931eea1299c2e33a5cbf8cfd8"}, {"lat": 38.902966, "is_reserved": 0, "lon": -77.038284, "fusion_lon": 0.0, "fusion_lat": 0.0, "is_disabled": 0, "type": "electric_scooter", "bike_id": "0f34f14bcfc552d5804a62f252f270a0", "rental_uris": {"android": "https://dc.lft.to/lastmile_qr_scan", "ios": "https://dc.lft.to/lastmile_qr_scan"}, "name": "0f34f14bcfc552d5804a62f252f270a0"}, {"lat": 38.89683466666666, "is_reserved": 0, "lon": -77.03261183333333, "fusion_lon": 0.0, "fusion_lat": 0.0, "is_disabled": 0, "type": "electric_scooter", "bike_id": "4c83024282ea300176ed8dca61e6195c", "rental_uris": {"android": "https://dc.lft.to/lastmile_qr_scan", "ios": "https://dc.lft.to/lastmile_qr_scan"}, "name": "4c83024282ea300176ed8dca61e6195c"}, {"lat": 38.923219333333336, "is_reserved": 0, "lon": -77.03405666666667, "fusion_lon": 0.0, "fusion_lat": 0.0, "is_disabled": 0, "type": "electric_scooter", "bike_id": "ec32ed94732953583077cd789ef2064a", "rental_uris": {"android": "https://dc.lft.to/lastmile_qr_scan", "ios": "https://dc.lft.to/lastmile_qr_scan"}, "name": "ec32ed94732953583077cd789ef2064a"}, {"lat": 38.9404945, "is_reserved": 0, "lon": -76.90418516666666, "fusion_lon": 0.0, "fusion_lat": 0.0, "is_disabled": 0, "type": "electric_bike", "bike_id": "7af8dc1d2802e04af7249bc9f635e3f5", "rental_uris": {"android": "https://dc.lft.to/lastmile_qr_scan", "ios": "https://dc.lft.to/lastmile_qr_scan"}, "name": "7af8dc1d2802e04af7249bc9f635e3f5"}, {"lat": 38.831606, "is_reserved": 0, "lon": -77.00809516666666, "fusion_lon": 0.0, "fusion_lat": 0.0, "is_disabled": 0, "type": "electric_scooter", "bike_id": "b26d4ef0aff9da9bf46781c55c7a90a8", "rental_uris": {"android": "https://dc.lft.to/lastmile_qr_scan", "ios": "https://dc.lft.to/lastmile_qr_scan"}, "name": "b26d4ef0aff9da9bf46781c55c7a90a8"}, {"lat": 38.923618, "is_reserved": 0, "lon": -77.05117183333333, "fusion_lon": 0.0, "fusion_lat": 0.0, "is_disabled": 0, "type": "electric_scooter", "bike_id": "c809ff5eea1576b9b222a515cf1a13d5", "rental_uris": {"android": "https://dc.lft.to/lastmile_qr_scan", "ios": "https://dc.lft.to/lastmile_qr_scan"}, "name": "c809ff5eea1576b9b222a515cf1a13d5"}, {"lat": 38.91264616666667, "is_reserved": 0, "lon": -77.03144333333333, "fusion_lon": 0.0, "fusion_lat": 0.0, "is_disabled": 0, "type": "electric_scooter", "bike_id": "810baae5245e14947fa081c94600e6c4", "rental_uris": {"android": "https://dc.lft.to/lastmile_qr_scan", "ios": "https://dc.lft.to/lastmile_qr_scan"}, "name": "810baae5245e14947fa081c94600e6c4"}, {"lat": 38.894734166666666, "is_reserved": 0, "lon": -77.04526283333334, "fusion_lon": 0.0, "fusion_lat": 0.0, "is_disabled": 0, "type": "electric_scooter", "bike_id": "43a993620f3c2accdff897476560f401", "rental_uris": {"android": "https://dc.lft.to/lastmile_qr_scan", "ios": "https://dc.lft.to/lastmile_qr_scan"}, "name": "43a993620f3c2accdff897476560f401"}, {"lat": 38.917057, "is_reserved": 0, "lon": -77.02886333333333, "fusion_lon": 0.0, "fusion_lat": 0.0, "is_disabled": 0, "type": "electric_scooter", "bike_id": "31aa58954e2f1c117d01c5e5e4240d5d", "rental_uris": {"android": "https://dc.lft.to/lastmile_qr_scan", "ios": "https://dc.lft.to/lastmile_qr_scan"}, "name": "31aa58954e2f1c117d01c5e5e4240d5d"}, {"lat": 38.91617683333333, "is_reserved": 0, "lon": -77.03199333333333, "fusion_lon": 0.0, "fusion_lat": 0.0, "is_disabled": 0, "type": "electric_scooter", "bike_id": "cb1dd7fd8599300d24969a1581f8e01a", "rental_uris": {"android": "https://dc.lft.to/lastmile_qr_scan", "ios": "https://dc.lft.to/lastmile_qr_scan"}, "name": "cb1dd7fd8599300d24969a1581f8e01a"}, {"lat": 38.9008725, "is_reserved": 0, "lon": -77.02819383333333, "fusion_lon": 0.0, "fusion_lat": 0.0, "is_disabled": 0, "type": "electric_scooter", "bike_id": "44caf1fd59f1aee77464d7a6cc0d26c4", "rental_uris": {"android": "https://dc.lft.to/lastmile_qr_scan", "ios": "https://dc.lft.to/lastmile_qr_scan"}, "name": "44caf1fd59f1aee77464d7a6cc0d26c4"}, {"lat": 38.8624635, "is_reserved": 0, "lon": -76.99502666666666, "fusion_lon": 0.0, "fusion_lat": 0.0, "is_disabled": 0, "type": "electric_scooter", "bike_id": "2626d9d366b7072e7a4f788aa37786c7", "rental_uris": {"android": "https://dc.lft.to/lastmile_qr_scan", "ios": "https://dc.lft.to/lastmile_qr_scan"}, "name": "2626d9d366b7072e7a4f788aa37786c7"}, {"lat": 38.8853285, "is_reserved": 0, "lon": -76.998254, "fusion_lon": 0.0, "fusion_lat": 0.0, "is_disabled": 0, "type": "electric_scooter", "bike_id": "789334f186142edae57ebf0aecb0bf59", "rental_uris": {"android": "https://dc.lft.to/lastmile_qr_scan", "ios": "https://dc.lft.to/lastmile_qr_scan"}, "name": "789334f186142edae57ebf0aecb0bf59"}, {"lat": 38.900132666666664, "is_reserved": 0, "lon": -76.986786, "fusion_lon": 0.0, "fusion_lat": 0.0, "is_disabled": 0, "type": "electric_bike", "bike_id": "e52b6b675f17dd7e2b72bf15f3f202c4", "rental_uris": {"android": "https://dc.lft.to/lastmile_qr_scan", "ios": "https://dc.lft.to/lastmile_qr_scan"}, "name": "e52b6b675f17dd7e2b72bf15f3f202c4"}, {"lat": 38.884253666666666, "is_reserved": 0, "lon": -77.025, "fusion_lon": 0.0, "fusion_lat": 0.0, "is_disabled": 0, "type": "electric_scooter", "bike_id": "efa2108744c117d33cf57c4b346144a2", "rental_uris": {"android": "https://dc.lft.to/lastmile_qr_scan", "ios": "https://dc.lft.to/lastmile_qr_scan"}, "name": "efa2108744c117d33cf57c4b346144a2"}, {"lat": 38.90266883333334, "is_reserved": 0, "lon": -77.03840366666667, "fusion_lon": 0.0, "fusion_lat": 0.0, "is_disabled": 0, "type": "electric_scooter", "bike_id": "74172c92cc42596e6b5c18bc8913c187", "rental_uris": {"android": "https://dc.lft.to/lastmile_qr_scan", "ios": "https://dc.lft.to/lastmile_qr_scan"}, "name": "74172c92cc42596e6b5c18bc8913c187"}, {"lat": 38.9283995, "is_reserved": 0, "lon": -77.0551185, "fusion_lon": 0.0, "fusion_lat": 0.0, "is_disabled": 0, "type": "electric_scooter", "bike_id": "ea76a82fe257e52dcb055ab5bfb9872d", "rental_uris": {"android": "https://dc.lft.to/lastmile_qr_scan", "ios": "https://dc.lft.to/lastmile_qr_scan"}, "name": "ea76a82fe257e52dcb055ab5bfb9872d"}, {"lat": 38.95788116666667, "is_reserved": 0, "lon": -77.03217, "fusion_lon": 0.0, "fusion_lat": 0.0, "is_disabled": 0, "type": "electric_scooter", "bike_id": "9a3589883085eedf59314545bb809932", "rental_uris": {"android": "https://dc.lft.to/lastmile_qr_scan", "ios": "https://dc.lft.to/lastmile_qr_scan"}, "name": "9a3589883085eedf59314545bb809932"}, {"lat": 38.89725333333333, "is_reserved": 0, "lon": -77.02466533333333, "fusion_lon": 0.0, "fusion_lat": 0.0, "is_disabled": 0, "type": "electric_scooter", "bike_id": "1b5b829e1c74a87630cb8e12c814ab65", "rental_uris": {"android": "https://dc.lft.to/lastmile_qr_scan", "ios": "https://dc.lft.to/lastmile_qr_scan"}, "name": "1b5b829e1c74a87630cb8e12c814ab65"}, {"lat": 38.8986525, "is_reserved": 0, "lon": -76.94632766666666, "fusion_lon": 0.0, "fusion_lat": 0.0, "is_disabled": 0, "type": "electric_scooter", "bike_id": "bc5af99e3a7ef826e76d70dd51336ba0", "rental_uris": {"android": "https://dc.lft.to/lastmile_qr_scan", "ios": "https://dc.lft.to/lastmile_qr_scan"}, "name": "bc5af99e3a7ef826e76d70dd51336ba0"}, {"lat": 38.87386566666667, "is_reserved": 0, "lon": -77.000695, "fusion_lon": 0.0, "fusion_lat": 0.0, "is_disabled": 0, "type": "electric_scooter", "bike_id": "a30227f0c0def6c883f2fa2a27500fc9", "rental_uris": {"android": "https://dc.lft.to/lastmile_qr_scan", "ios": "https://dc.lft.to/lastmile_qr_scan"}, "name": "a30227f0c0def6c883f2fa2a27500fc9"}, {"lat": 38.9174595, "is_reserved": 0, "lon": -77.01711966666667, "fusion_lon": 0.0, "fusion_lat": 0.0, "is_disabled": 0, "type": "electric_scooter", "bike_id": "5a1f8381cf0ba6876f57e1bd5e0a6b88", "rental_uris": {"android": "https://dc.lft.to/lastmile_qr_scan", "ios": "https://dc.lft.to/lastmile_qr_scan"}, "name": "5a1f8381cf0ba6876f57e1bd5e0a6b88"}, {"lat": 38.97383966666666, "is_reserved": 0, "lon": -77.06473033333333, "fusion_lon": 0.0, "fusion_lat": 0.0, "is_disabled": 0, "type": "electric_bike", "bike_id": "cc5429c0ddac7bda8c383c4d638fa4b1", "rental_uris": {"android": "https://dc.lft.to/lastmile_qr_scan", "ios": "https://dc.lft.to/lastmile_qr_scan"}, "name": "cc5429c0ddac7bda8c383c4d638fa4b1"}, {"lat": 38.89911983333333, "is_reserved": 0, "lon": -77.01620666666666, "fusion_lon": 0.0, "fusion_lat": 0.0, "is_disabled": 0, "type": "electric_scooter", "bike_id": "f1913a876c5cef87d2fb2414afaa2c0a", "rental_uris": {"android": "https://dc.lft.to/lastmile_qr_scan", "ios": "https://dc.lft.to/lastmile_qr_scan"}, "name": "f1913a876c5cef87d2fb2414afaa2c0a"}, {"lat": 38.9003115, "is_reserved": 0, "lon": -77.016689, "fusion_lon": 0.0, "fusion_lat": 0.0, "is_disabled": 0, "type": "electric_scooter", "bike_id": "1575f483f915374238aec38c8f56538d", "rental_uris": {"android": "https://dc.lft.to/lastmile_qr_scan", "ios": "https://dc.lft.to/lastmile_qr_scan"}, "name": "1575f483f915374238aec38c8f56538d"}, {"lat": 38.877092166666664, "is_reserved": 0, "lon": -77.0178185, "fusion_lon": 0.0, "fusion_lat": 0.0, "is_disabled": 0, "type": "electric_scooter", "bike_id": "354eed10edd4670e69fa629979f897a7", "rental_uris": {"android": "https://dc.lft.to/lastmile_qr_scan", "ios": "https://dc.lft.to/lastmile_qr_scan"}, "name": "354eed10edd4670e69fa629979f897a7"}, {"lat": 38.94622483333333, "is_reserved": 0, "lon": -77.02534033333333, "fusion_lon": 0.0, "fusion_lat": 0.0, "is_disabled": 0, "type": "electric_scooter", "bike_id": "c0e2ff5de959b677ba8f204397c817d8", "rental_uris": {"android": "https://dc.lft.to/lastmile_qr_scan", "ios": "https://dc.lft.to/lastmile_qr_scan"}, "name": "c0e2ff5de959b677ba8f204397c817d8"}, {"lat": 38.95097766666667, "is_reserved": 0, "lon": -77.0971245, "fusion_lon": 0.0, "fusion_lat": 0.0, "is_disabled": 0, "type": "electric_scooter", "bike_id": "9d2cebf8f4b640ad8f8f500b70296be2", "rental_uris": {"android": "https://dc.lft.to/lastmile_qr_scan", "ios": "https://dc.lft.to/lastmile_qr_scan"}, "name": "9d2cebf8f4b640ad8f8f500b70296be2"}, {"lat": 38.900322333333335, "is_reserved": 0, "lon": -77.01225033333333, "fusion_lon": 0.0, "fusion_lat": 0.0, "is_disabled": 0, "type": "electric_scooter", "bike_id": "c390bd2fe14241994484911fb1167d11", "rental_uris": {"android": "https://dc.lft.to/lastmile_qr_scan", "ios": "https://dc.lft.to/lastmile_qr_scan"}, "name": "c390bd2fe14241994484911fb1167d11"}, {"lat": 38.874038666666664, "is_reserved": 0, "lon": -77.00026183333334, "fusion_lon": 0.0, "fusion_lat": 0.0, "is_disabled": 0, "type": "electric_scooter", "bike_id": "e9d37addc6294ae71132c895a9314fe6", "rental_uris": {"android": "https://dc.lft.to/lastmile_qr_scan", "ios": "https://dc.lft.to/lastmile_qr_scan"}, "name": "e9d37addc6294ae71132c895a9314fe6"}, {"lat": 38.90656966666667, "is_reserved": 0, "lon": -77.038038, "fusion_lon": 0.0, "fusion_lat": 0.0, "is_disabled": 0, "type": "electric_scooter", "bike_id": "d5e55d7a162dea1a4457d23d849355c2", "rental_uris": {"android": "https://dc.lft.to/lastmile_qr_scan", "ios": "https://dc.lft.to/lastmile_qr_scan"}, "name": "d5e55d7a162dea1a4457d23d849355c2"}, {"lat": 38.85969933333333, "is_reserved": 0, "lon": -76.99159216666666, "fusion_lon": 0.0, "fusion_lat": 0.0, "is_disabled": 0, "type": "electric_scooter", "bike_id": "beafa80ff11c3ef109bbdb76eb3353fa", "rental_uris": {"android": "https://dc.lft.to/lastmile_qr_scan", "ios": "https://dc.lft.to/lastmile_qr_scan"}, "name": "beafa80ff11c3ef109bbdb76eb3353fa"}, {"lat": 38.94182566666667, "is_reserved": 0, "lon": -77.02486766666667, "fusion_lon": 0.0, "fusion_lat": 0.0, "is_disabled": 0, "type": "electric_scooter", "bike_id": "b6cdf891bbb904a2a0cb46d158521722", "rental_uris": {"android": "https://dc.lft.to/lastmile_qr_scan", "ios": "https://dc.lft.to/lastmile_qr_scan"}, "name": "b6cdf891bbb904a2a0cb46d158521722"}, {"lat": 38.98505166666666, "is_reserved": 0, "lon": -76.98202966666666, "fusion_lon": 0.0, "fusion_lat": 0.0, "is_disabled": 0, "type": "electric_bike", "bike_id": "7d67e244b8efe2e5f132da0d0eb6bc61", "rental_uris": {"android": "https://dc.lft.to/lastmile_qr_scan", "ios": "https://dc.lft.to/lastmile_qr_scan"}, "name": "7d67e244b8efe2e5f132da0d0eb6bc61"}, {"lat": 38.902931, "is_reserved": 0, "lon": -77.0334415, "fusion_lon": 0.0, "fusion_lat": 0.0, "is_disabled": 0, "type": "electric_scooter", "bike_id": "a5ec94759e885e1f0e8f6ef008e0f630", "rental_uris": {"android": "https://dc.lft.to/lastmile_qr_scan", "ios": "https://dc.lft.to/lastmile_qr_scan"}, "name": "a5ec94759e885e1f0e8f6ef008e0f630"}, {"lat": 38.956482666666666, "is_reserved": 0, "lon": -77.0196205, "fusion_lon": 0.0, "fusion_lat": 0.0, "is_disabled": 0, "type": "electric_scooter", "bike_id": "27fbac86c548decc95d03ace79d17b3a", "rental_uris": {"android": "https://dc.lft.to/lastmile_qr_scan", "ios": "https://dc.lft.to/lastmile_qr_scan"}, "name": "27fbac86c548decc95d03ace79d17b3a"}, {"lat": 38.86027633333333, "is_reserved": 0, "lon": -76.96705966666667, "fusion_lon": 0.0, "fusion_lat": 0.0, "is_disabled": 0, "type": "electric_scooter", "bike_id": "051fb5151bedad788d74c5d55991d866", "rental_uris": {"android": "https://dc.lft.to/lastmile_qr_scan", "ios": "https://dc.lft.to/lastmile_qr_scan"}, "name": "051fb5151bedad788d74c5d55991d866"}, {"lat": 38.900274833333334, "is_reserved": 0, "lon": -77.05084283333333, "fusion_lon": 0.0, "fusion_lat": 0.0, "is_disabled": 0, "type": "electric_scooter", "bike_id": "e6c9382826c99cdb0fe5ec2869de6c97", "rental_uris": {"android": "https://dc.lft.to/lastmile_qr_scan", "ios": "https://dc.lft.to/lastmile_qr_scan"}, "name": "e6c9382826c99cdb0fe5ec2869de6c97"}, {"lat": 38.864306666666664, "is_reserved": 0, "lon": -76.98002866666667, "fusion_lon": 0.0, "fusion_lat": 0.0, "is_disabled": 0, "type": "electric_scooter", "bike_id": "66c305fcabc9c6c714fce6a4d517ed7f", "rental_uris": {"android": "https://dc.lft.to/lastmile_qr_scan", "ios": "https://dc.lft.to/lastmile_qr_scan"}, "name": "66c305fcabc9c6c714fce6a4d517ed7f"}, {"lat": 38.91928933333333, "is_reserved": 0, "lon": -77.02514383333333, "fusion_lon": 0.0, "fusion_lat": 0.0, "is_disabled": 0, "type": "electric_scooter", "bike_id": "7b7452066b86631c9f315af4591e04a6", "rental_uris": {"android": "https://dc.lft.to/lastmile_qr_scan", "ios": "https://dc.lft.to/lastmile_qr_scan"}, "name": "7b7452066b86631c9f315af4591e04a6"}, {"lat": 38.9236785, "is_reserved": 0, "lon": -77.00041666666667, "fusion_lon": 0.0, "fusion_lat": 0.0, "is_disabled": 0, "type": "electric_scooter", "bike_id": "05c0d7a489e7df85bb27debdc22eabca", "rental_uris": {"android": "https://dc.lft.to/lastmile_qr_scan", "ios": "https://dc.lft.to/lastmile_qr_scan"}, "name": "05c0d7a489e7df85bb27debdc22eabca"}, {"lat": 38.900728, "is_reserved": 0, "lon": -77.01221916666667, "fusion_lon": 0.0, "fusion_lat": 0.0, "is_disabled": 0, "type": "electric_scooter", "bike_id": "0c075b5d1d4f1b5e90b6aa4d51df6c3c", "rental_uris": {"android": "https://dc.lft.to/lastmile_qr_scan", "ios": "https://dc.lft.to/lastmile_qr_scan"}, "name": "0c075b5d1d4f1b5e90b6aa4d51df6c3c"}, {"lat": 38.900111333333335, "is_reserved": 0, "lon": -77.0066365, "fusion_lon": 0.0, "fusion_lat": 0.0, "is_disabled": 0, "type": "electric_scooter", "bike_id": "2c61a4a904acf47e1ca16941b3fbba85", "rental_uris": {"android": "https://dc.lft.to/lastmile_qr_scan", "ios": "https://dc.lft.to/lastmile_qr_scan"}, "name": "2c61a4a904acf47e1ca16941b3fbba85"}, {"lat": 38.906516, "is_reserved": 0, "lon": -77.04202616666667, "fusion_lon": 0.0, "fusion_lat": 0.0, "is_disabled": 0, "type": "electric_scooter", "bike_id": "c662cbf9689bd39b21c80ea6f7bd7e5f", "rental_uris": {"android": "https://dc.lft.to/lastmile_qr_scan", "ios": "https://dc.lft.to/lastmile_qr_scan"}, "name": "c662cbf9689bd39b21c80ea6f7bd7e5f"}, {"lat": 38.87480683333333, "is_reserved": 0, "lon": -77.00008133333333, "fusion_lon": 0.0, "fusion_lat": 0.0, "is_disabled": 0, "type": "electric_scooter", "bike_id": "3600928ddbca74bb5e18ef07e1e39ed8", "rental_uris": {"android": "https://dc.lft.to/lastmile_qr_scan", "ios": "https://dc.lft.to/lastmile_qr_scan"}, "name": "3600928ddbca74bb5e18ef07e1e39ed8"}, {"lat": 38.912650666666664, "is_reserved": 0, "lon": -77.03146366666667, "fusion_lon": 0.0, "fusion_lat": 0.0, "is_disabled": 0, "type": "electric_scooter", "bike_id": "85d42da85025df13eb6362025c1ea837", "rental_uris": {"android": "https://dc.lft.to/lastmile_qr_scan", "ios": "https://dc.lft.to/lastmile_qr_scan"}, "name": "85d42da85025df13eb6362025c1ea837"}, {"lat": 38.89264933333333, "is_reserved": 0, "lon": -77.00129366666667, "fusion_lon": 0.0, "fusion_lat": 0.0, "is_disabled": 0, "type": "electric_scooter", "bike_id": "9589b122e3ef1cdf5d094647eae1a717", "rental_uris": {"android": "https://dc.lft.to/lastmile_qr_scan", "ios": "https://dc.lft.to/lastmile_qr_scan"}, "name": "9589b122e3ef1cdf5d094647eae1a717"}, {"lat": 38.9141055, "is_reserved": 0, "lon": -77.01480016666666, "fusion_lon": 0.0, "fusion_lat": 0.0, "is_disabled": 0, "type": "electric_scooter", "bike_id": "5697e8cfa10d890d309b1c1fb10107df", "rental_uris": {"android": "https://dc.lft.to/lastmile_qr_scan", "ios": "https://dc.lft.to/lastmile_qr_scan"}, "name": "5697e8cfa10d890d309b1c1fb10107df"}, {"lat": 38.91712833333333, "is_reserved": 0, "lon": -77.0230535, "fusion_lon": 0.0, "fusion_lat": 0.0, "is_disabled": 0, "type": "electric_scooter", "bike_id": "b91672a08d194ed9c111b14112d7dc1f", "rental_uris": {"android": "https://dc.lft.to/lastmile_qr_scan", "ios": "https://dc.lft.to/lastmile_qr_scan"}, "name": "b91672a08d194ed9c111b14112d7dc1f"}, {"lat": 38.901730666666666, "is_reserved": 0, "lon": -77.01615983333333, "fusion_lon": 0.0, "fusion_lat": 0.0, "is_disabled": 0, "type": "electric_scooter", "bike_id": "83d2f4fb2ad816fbe807a916f2c531ae", "rental_uris": {"android": "https://dc.lft.to/lastmile_qr_scan", "ios": "https://dc.lft.to/lastmile_qr_scan"}, "name": "83d2f4fb2ad816fbe807a916f2c531ae"}, {"lat": 38.90217116666667, "is_reserved": 0, "lon": -77.04576983333334, "fusion_lon": 0.0, "fusion_lat": 0.0, "is_disabled": 0, "type": "electric_scooter", "bike_id": "8181f1f921511764f6e6e80615e0b954", "rental_uris": {"android": "https://dc.lft.to/lastmile_qr_scan", "ios": "https://dc.lft.to/lastmile_qr_scan"}, "name": "8181f1f921511764f6e6e80615e0b954"}, {"lat": 38.925056166666664, "is_reserved": 0, "lon": -77.02274783333333, "fusion_lon": 0.0, "fusion_lat": 0.0, "is_disabled": 0, "type": "electric_scooter", "bike_id": "f8ec8eed177775fe780ebcf690194f7f", "rental_uris": {"android": "https://dc.lft.to/lastmile_qr_scan", "ios": "https://dc.lft.to/lastmile_qr_scan"}, "name": "f8ec8eed177775fe780ebcf690194f7f"}, {"lat": 38.90263516666667, "is_reserved": 0, "lon": -77.03844983333333, "fusion_lon": 0.0, "fusion_lat": 0.0, "is_disabled": 0, "type": "electric_scooter", "bike_id": "3cbcb6b39ad45d06f6c83f24c1115d9d", "rental_uris": {"android": "https://dc.lft.to/lastmile_qr_scan", "ios": "https://dc.lft.to/lastmile_qr_scan"}, "name": "3cbcb6b39ad45d06f6c83f24c1115d9d"}, {"lat": 38.91974166666667, "is_reserved": 0, "lon": -77.02184216666667, "fusion_lon": 0.0, "fusion_lat": 0.0, "is_disabled": 0, "type": "electric_scooter", "bike_id": "faf898cd44de6dff5bcf6b8903fe579a", "rental_uris": {"android": "https://dc.lft.to/lastmile_qr_scan", "ios": "https://dc.lft.to/lastmile_qr_scan"}, "name": "faf898cd44de6dff5bcf6b8903fe579a"}, {"lat": 38.891926, "is_reserved": 0, "lon": -77.02239666666667, "fusion_lon": 0.0, "fusion_lat": 0.0, "is_disabled": 0, "type": "electric_scooter", "bike_id": "e41502c75903a27ecc24c4ee50e80696", "rental_uris": {"android": "https://dc.lft.to/lastmile_qr_scan", "ios": "https://dc.lft.to/lastmile_qr_scan"}, "name": "e41502c75903a27ecc24c4ee50e80696"}, {"lat": 38.9059675, "is_reserved": 0, "lon": -77.0699, "fusion_lon": 0.0, "fusion_lat": 0.0, "is_disabled": 0, "type": "electric_scooter", "bike_id": "2137e448a7880289efe364b2b2efe25f", "rental_uris": {"android": "https://dc.lft.to/lastmile_qr_scan", "ios": "https://dc.lft.to/lastmile_qr_scan"}, "name": "2137e448a7880289efe364b2b2efe25f"}, {"lat": 38.914701666666666, "is_reserved": 0, "lon": -76.981122, "fusion_lon": 0.0, "fusion_lat": 0.0, "is_disabled": 0, "type": "electric_scooter", "bike_id": "4689d125d91c50f8644fc769106d54a3", "rental_uris": {"android": "https://dc.lft.to/lastmile_qr_scan", "ios": "https://dc.lft.to/lastmile_qr_scan"}, "name": "4689d125d91c50f8644fc769106d54a3"}, {"lat": 38.89838816666666, "is_reserved": 0, "lon": -77.0219905, "fusion_lon": 0.0, "fusion_lat": 0.0, "is_disabled": 0, "type": "electric_scooter", "bike_id": "1ff7aea3e64ac18c5449b4fc043158b6", "rental_uris": {"android": "https://dc.lft.to/lastmile_qr_scan", "ios": "https://dc.lft.to/lastmile_qr_scan"}, "name": "1ff7aea3e64ac18c5449b4fc043158b6"}, {"lat": 38.881074166666664, "is_reserved": 0, "lon": -77.02647116666667, "fusion_lon": 0.0, "fusion_lat": 0.0, "is_disabled": 0, "type": "electric_scooter", "bike_id": "ffbfb6c7435e116deaad13dd1d3723f9", "rental_uris": {"android": "https://dc.lft.to/lastmile_qr_scan", "ios": "https://dc.lft.to/lastmile_qr_scan"}, "name": "ffbfb6c7435e116deaad13dd1d3723f9"}, {"lat": 38.908396, "is_reserved": 0, "lon": -77.03557433333333, "fusion_lon": 0.0, "fusion_lat": 0.0, "is_disabled": 0, "type": "electric_scooter", "bike_id": "be5fd0967dc235b7c3114b206a4161dc", "rental_uris": {"android": "https://dc.lft.to/lastmile_qr_scan", "ios": "https://dc.lft.to/lastmile_qr_scan"}, "name": "be5fd0967dc235b7c3114b206a4161dc"}, {"lat": 38.919185, "is_reserved": 0, "lon": -77.0342915, "fusion_lon": 0.0, "fusion_lat": 0.0, "is_disabled": 0, "type": "electric_scooter", "bike_id": "17943b2a1ec4369f64476930cb5a5eb9", "rental_uris": {"android": "https://dc.lft.to/lastmile_qr_scan", "ios": "https://dc.lft.to/lastmile_qr_scan"}, "name": "17943b2a1ec4369f64476930cb5a5eb9"}, {"lat": 38.9100965, "is_reserved": 0, "lon": -76.99396033333333, "fusion_lon": 0.0, "fusion_lat": 0.0, "is_disabled": 0, "type": "electric_scooter", "bike_id": "18dbea24a3f0a48c7f69736b4e1fc265", "rental_uris": {"android": "https://dc.lft.to/lastmile_qr_scan", "ios": "https://dc.lft.to/lastmile_qr_scan"}, "name": "18dbea24a3f0a48c7f69736b4e1fc265"}, {"lat": 38.908786, "is_reserved": 0, "lon": -77.00158566666667, "fusion_lon": 0.0, "fusion_lat": 0.0, "is_disabled": 0, "type": "electric_scooter", "bike_id": "e088fb975be30e81a82bd17c67bb7df1", "rental_uris": {"android": "https://dc.lft.to/lastmile_qr_scan", "ios": "https://dc.lft.to/lastmile_qr_scan"}, "name": "e088fb975be30e81a82bd17c67bb7df1"}, {"lat": 38.93156466666667, "is_reserved": 0, "lon": -77.03497116666666, "fusion_lon": 0.0, "fusion_lat": 0.0, "is_disabled": 0, "type": "electric_scooter", "bike_id": "33e45ab566f53663d6f777e0ad1c05cc", "rental_uris": {"android": "https://dc.lft.to/lastmile_qr_scan", "ios": "https://dc.lft.to/lastmile_qr_scan"}, "name": "33e45ab566f53663d6f777e0ad1c05cc"}, {"lat": 38.919130333333335, "is_reserved": 0, "lon": -77.01347766666666, "fusion_lon": 0.0, "fusion_lat": 0.0, "is_disabled": 0, "type": "electric_scooter", "bike_id": "02ec400ffe377a43fa459d587cfa000e", "rental_uris": {"android": "https://dc.lft.to/lastmile_qr_scan", "ios": "https://dc.lft.to/lastmile_qr_scan"}, "name": "02ec400ffe377a43fa459d587cfa000e"}, {"lat": 38.910030666666664, "is_reserved": 0, "lon": -77.0399995, "fusion_lon": 0.0, "fusion_lat": 0.0, "is_disabled": 0, "type": "electric_scooter", "bike_id": "9130d0a2e8aad9171170415077e95d93", "rental_uris": {"android": "https://dc.lft.to/lastmile_qr_scan", "ios": "https://dc.lft.to/lastmile_qr_scan"}, "name": "9130d0a2e8aad9171170415077e95d93"}, {"lat": 38.89648483333333, "is_reserved": 0, "lon": -77.02626583333333, "fusion_lon": 0.0, "fusion_lat": 0.0, "is_disabled": 0, "type": "electric_scooter", "bike_id": "cd5272bb43d700a7677179812a7b7d6f", "rental_uris": {"android": "https://dc.lft.to/lastmile_qr_scan", "ios": "https://dc.lft.to/lastmile_qr_scan"}, "name": "cd5272bb43d700a7677179812a7b7d6f"}, {"lat": 38.898306833333336, "is_reserved": 0, "lon": -77.0333335, "fusion_lon": 0.0, "fusion_lat": 0.0, "is_disabled": 0, "type": "electric_scooter", "bike_id": "9566e0d53d82ca890f7bf89bd8c70256", "rental_uris": {"android": "https://dc.lft.to/lastmile_qr_scan", "ios": "https://dc.lft.to/lastmile_qr_scan"}, "name": "9566e0d53d82ca890f7bf89bd8c70256"}, {"lat": 38.99193783333333, "is_reserved": 0, "lon": -76.944332, "fusion_lon": 0.0, "fusion_lat": 0.0, "is_disabled": 0, "type": "electric_bike", "bike_id": "1387e11331bd2d275dc23281893f510c", "rental_uris": {"android": "https://dc.lft.to/lastmile_qr_scan", "ios": "https://dc.lft.to/lastmile_qr_scan"}, "name": "1387e11331bd2d275dc23281893f510c"}, {"lat": 38.85785166666667, "is_reserved": 0, "lon": -77.12016933333334, "fusion_lon": 0.0, "fusion_lat": 0.0, "is_disabled": 0, "type": "electric_bike", "bike_id": "8eec1e40455b64fbffef7d17494f00cc", "rental_uris": {"android": "https://dc.lft.to/lastmile_qr_scan", "ios": "https://dc.lft.to/lastmile_qr_scan"}, "name": "8eec1e40455b64fbffef7d17494f00cc"}, {"lat": 38.899733499999996, "is_reserved": 0, "lon": -77.0223735, "fusion_lon": 0.0, "fusion_lat": 0.0, "is_disabled": 0, "type": "electric_scooter", "bike_id": "af07ffbfe3eb67b2d5366c88cf38da4e", "rental_uris": {"android": "https://dc.lft.to/lastmile_qr_scan", "ios": "https://dc.lft.to/lastmile_qr_scan"}, "name": "af07ffbfe3eb67b2d5366c88cf38da4e"}, {"lat": 38.9057, "is_reserved": 0, "lon": -77.04662016666667, "fusion_lon": 0.0, "fusion_lat": 0.0, "is_disabled": 0, "type": "electric_scooter", "bike_id": "19d68af97a64a2d152da74cff0b87e98", "rental_uris": {"android": "https://dc.lft.to/lastmile_qr_scan", "ios": "https://dc.lft.to/lastmile_qr_scan"}, "name": "19d68af97a64a2d152da74cff0b87e98"}, {"lat": 38.924496, "is_reserved": 0, "lon": -77.03404916666666, "fusion_lon": 0.0, "fusion_lat": 0.0, "is_disabled": 0, "type": "electric_scooter", "bike_id": "9e4e47c0c392a90d27b396c23cbf2843", "rental_uris": {"android": "https://dc.lft.to/lastmile_qr_scan", "ios": "https://dc.lft.to/lastmile_qr_scan"}, "name": "9e4e47c0c392a90d27b396c23cbf2843"}, {"lat": 38.92171533333333, "is_reserved": 0, "lon": -77.02104466666667, "fusion_lon": 0.0, "fusion_lat": 0.0, "is_disabled": 0, "type": "electric_scooter", "bike_id": "14115a153e1f94f5221774aaa37b0765", "rental_uris": {"android": "https://dc.lft.to/lastmile_qr_scan", "ios": "https://dc.lft.to/lastmile_qr_scan"}, "name": "14115a153e1f94f5221774aaa37b0765"}, {"lat": 38.9010445, "is_reserved": 0, "lon": -77.03174666666666, "fusion_lon": 0.0, "fusion_lat": 0.0, "is_disabled": 0, "type": "electric_scooter", "bike_id": "d2250c1b2571d7cdf90824f2e8d16015", "rental_uris": {"android": "https://dc.lft.to/lastmile_qr_scan", "ios": "https://dc.lft.to/lastmile_qr_scan"}, "name": "d2250c1b2571d7cdf90824f2e8d16015"}, {"lat": 38.914065, "is_reserved": 0, "lon": -77.0200855, "fusion_lon": 0.0, "fusion_lat": 0.0, "is_disabled": 0, "type": "electric_scooter", "bike_id": "7c76852eade3bbaf1676cba8ba6afc19", "rental_uris": {"android": "https://dc.lft.to/lastmile_qr_scan", "ios": "https://dc.lft.to/lastmile_qr_scan"}, "name": "7c76852eade3bbaf1676cba8ba6afc19"}, {"lat": 38.902749166666666, "is_reserved": 0, "lon": -77.04002233333334, "fusion_lon": 0.0, "fusion_lat": 0.0, "is_disabled": 0, "type": "electric_scooter", "bike_id": "a9b1b263bff3d50ff732b4d51e3ef41a", "rental_uris": {"android": "https://dc.lft.to/lastmile_qr_scan", "ios": "https://dc.lft.to/lastmile_qr_scan"}, "name": "a9b1b263bff3d50ff732b4d51e3ef41a"}, {"lat": 38.921070666666665, "is_reserved": 0, "lon": -77.02203783333333, "fusion_lon": 0.0, "fusion_lat": 0.0, "is_disabled": 0, "type": "electric_scooter", "bike_id": "caec4cdb5e54a1fecd6a6794c64f55c4", "rental_uris": {"android": "https://dc.lft.to/lastmile_qr_scan", "ios": "https://dc.lft.to/lastmile_qr_scan"}, "name": "caec4cdb5e54a1fecd6a6794c64f55c4"}, {"lat": 38.92164316666667, "is_reserved": 0, "lon": -77.03524433333334, "fusion_lon": 0.0, "fusion_lat": 0.0, "is_disabled": 0, "type": "electric_scooter", "bike_id": "6d13e479144b74060bcb22dff2b3814f", "rental_uris": {"android": "https://dc.lft.to/lastmile_qr_scan", "ios": "https://dc.lft.to/lastmile_qr_scan"}, "name": "6d13e479144b74060bcb22dff2b3814f"}, {"lat": 38.90059, "is_reserved": 0, "lon": -77.0453955, "fusion_lon": 0.0, "fusion_lat": 0.0, "is_disabled": 0, "type": "electric_scooter", "bike_id": "740b568e06deea3299d304414440612e", "rental_uris": {"android": "https://dc.lft.to/lastmile_qr_scan", "ios": "https://dc.lft.to/lastmile_qr_scan"}, "name": "740b568e06deea3299d304414440612e"}, {"lat": 38.855302, "is_reserved": 0, "lon": -77.11409766666667, "fusion_lon": 0.0, "fusion_lat": 0.0, "is_disabled": 0, "type": "electric_bike", "bike_id": "defd55c5a4422aa5aaea02fbf4a65c2d", "rental_uris": {"android": "https://dc.lft.to/lastmile_qr_scan", "ios": "https://dc.lft.to/lastmile_qr_scan"}, "name": "defd55c5a4422aa5aaea02fbf4a65c2d"}, {"lat": 38.907975, "is_reserved": 0, "lon": -77.03651066666667, "fusion_lon": 0.0, "fusion_lat": 0.0, "is_disabled": 0, "type": "electric_scooter", "bike_id": "fc1060c167e74386436abe15d4f0b5bb", "rental_uris": {"android": "https://dc.lft.to/lastmile_qr_scan", "ios": "https://dc.lft.to/lastmile_qr_scan"}, "name": "fc1060c167e74386436abe15d4f0b5bb"}, {"lat": 38.84148166666667, "is_reserved": 0, "lon": -77.1146545, "fusion_lon": 0.0, "fusion_lat": 0.0, "is_disabled": 0, "type": "electric_bike", "bike_id": "c11afb1aad96dada7d6e0cefad78cce3", "rental_uris": {"android": "https://dc.lft.to/lastmile_qr_scan", "ios": "https://dc.lft.to/lastmile_qr_scan"}, "name": "c11afb1aad96dada7d6e0cefad78cce3"}, {"lat": 38.901385, "is_reserved": 0, "lon": -77.03359916666666, "fusion_lon": 0.0, "fusion_lat": 0.0, "is_disabled": 0, "type": "electric_scooter", "bike_id": "3fd4c7de8395f1f4e8d8456013dac2e2", "rental_uris": {"android": "https://dc.lft.to/lastmile_qr_scan", "ios": "https://dc.lft.to/lastmile_qr_scan"}, "name": "3fd4c7de8395f1f4e8d8456013dac2e2"}, {"lat": 38.90265266666667, "is_reserved": 0, "lon": -77.038426, "fusion_lon": 0.0, "fusion_lat": 0.0, "is_disabled": 0, "type": "electric_scooter", "bike_id": "19d47803428dcbefa5251f9c6382e8d5", "rental_uris": {"android": "https://dc.lft.to/lastmile_qr_scan", "ios": "https://dc.lft.to/lastmile_qr_scan"}, "name": "19d47803428dcbefa5251f9c6382e8d5"}, {"lat": 38.876734, "is_reserved": 0, "lon": -77.019819, "fusion_lon": 0.0, "fusion_lat": 0.0, "is_disabled": 0, "type": "electric_scooter", "bike_id": "b6cc0b4497fbd3050f7c0c3ab9b3b8c3", "rental_uris": {"android": "https://dc.lft.to/lastmile_qr_scan", "ios": "https://dc.lft.to/lastmile_qr_scan"}, "name": "b6cc0b4497fbd3050f7c0c3ab9b3b8c3"}, {"lat": 38.873085, "is_reserved": 0, "lon": -77.0109445, "fusion_lon": 0.0, "fusion_lat": 0.0, "is_disabled": 0, "type": "electric_bike", "bike_id": "9226a8386048d5262e3ba2d04cabf1f5", "rental_uris": {"android": "https://dc.lft.to/lastmile_qr_scan", "ios": "https://dc.lft.to/lastmile_qr_scan"}, "name": "9226a8386048d5262e3ba2d04cabf1f5"}, {"lat": 38.91748233333333, "is_reserved": 0, "lon": -77.03639983333333, "fusion_lon": 0.0, "fusion_lat": 0.0, "is_disabled": 0, "type": "electric_scooter", "bike_id": "cd6dad813a779b2dcaff8ea46807a08b", "rental_uris": {"android": "https://dc.lft.to/lastmile_qr_scan", "ios": "https://dc.lft.to/lastmile_qr_scan"}, "name": "cd6dad813a779b2dcaff8ea46807a08b"}, {"lat": 38.894942666666665, "is_reserved": 0, "lon": -77.00254683333333, "fusion_lon": 0.0, "fusion_lat": 0.0, "is_disabled": 0, "type": "electric_scooter", "bike_id": "2afdc85f728c228f47e46f4e5dbf506a", "rental_uris": {"android": "https://dc.lft.to/lastmile_qr_scan", "ios": "https://dc.lft.to/lastmile_qr_scan"}, "name": "2afdc85f728c228f47e46f4e5dbf506a"}, {"lat": 38.9649925, "is_reserved": 0, "lon": -77.00200566666666, "fusion_lon": 0.0, "fusion_lat": 0.0, "is_disabled": 0, "type": "electric_scooter", "bike_id": "a3ee8825072e85c3a76c58df84f5affc", "rental_uris": {"android": "https://dc.lft.to/lastmile_qr_scan", "ios": "https://dc.lft.to/lastmile_qr_scan"}, "name": "a3ee8825072e85c3a76c58df84f5affc"}, {"lat": 38.9061, "is_reserved": 0, "lon": -77.040414, "fusion_lon": 0.0, "fusion_lat": 0.0, "is_disabled": 0, "type": "electric_scooter", "bike_id": "593e2a6e2a3e981f47f8ad4b20d2d768", "rental_uris": {"android": "https://dc.lft.to/lastmile_qr_scan", "ios": "https://dc.lft.to/lastmile_qr_scan"}, "name": "593e2a6e2a3e981f47f8ad4b20d2d768"}, {"lat": 38.91758566666667, "is_reserved": 0, "lon": -77.0476535, "fusion_lon": 0.0, "fusion_lat": 0.0, "is_disabled": 0, "type": "electric_scooter", "bike_id": "c184c3437ed864f9233a9e3aa2d14895", "rental_uris": {"android": "https://dc.lft.to/lastmile_qr_scan", "ios": "https://dc.lft.to/lastmile_qr_scan"}, "name": "c184c3437ed864f9233a9e3aa2d14895"}, {"lat": 38.9282045, "is_reserved": 0, "lon": -77.01397083333333, "fusion_lon": 0.0, "fusion_lat": 0.0, "is_disabled": 0, "type": "electric_scooter", "bike_id": "fa9ae557163f2774505b6e2dab73f877", "rental_uris": {"android": "https://dc.lft.to/lastmile_qr_scan", "ios": "https://dc.lft.to/lastmile_qr_scan"}, "name": "fa9ae557163f2774505b6e2dab73f877"}, {"lat": 38.8603255, "is_reserved": 0, "lon": -76.96707766666667, "fusion_lon": 0.0, "fusion_lat": 0.0, "is_disabled": 0, "type": "electric_scooter", "bike_id": "f8e9ee96c2cba6a0a471723c83440f56", "rental_uris": {"android": "https://dc.lft.to/lastmile_qr_scan", "ios": "https://dc.lft.to/lastmile_qr_scan"}, "name": "f8e9ee96c2cba6a0a471723c83440f56"}, {"lat": 38.84646016666667, "is_reserved": 0, "lon": -77.00529583333334, "fusion_lon": 0.0, "fusion_lat": 0.0, "is_disabled": 0, "type": "electric_scooter", "bike_id": "b208793b5e15596758a1c654d43f063a", "rental_uris": {"android": "https://dc.lft.to/lastmile_qr_scan", "ios": "https://dc.lft.to/lastmile_qr_scan"}, "name": "b208793b5e15596758a1c654d43f063a"}, {"lat": 38.9187775, "is_reserved": 0, "lon": -77.0417625, "fusion_lon": 0.0, "fusion_lat": 0.0, "is_disabled": 0, "type": "electric_scooter", "bike_id": "e782d0d991262947b833ea8c0fa545d2", "rental_uris": {"android": "https://dc.lft.to/lastmile_qr_scan", "ios": "https://dc.lft.to/lastmile_qr_scan"}, "name": "e782d0d991262947b833ea8c0fa545d2"}, {"lat": 38.925367333333334, "is_reserved": 0, "lon": -77.05066633333334, "fusion_lon": 0.0, "fusion_lat": 0.0, "is_disabled": 0, "type": "electric_scooter", "bike_id": "1965f1559bc34036341ced9ffd1fe709", "rental_uris": {"android": "https://dc.lft.to/lastmile_qr_scan", "ios": "https://dc.lft.to/lastmile_qr_scan"}, "name": "1965f1559bc34036341ced9ffd1fe709"}, {"lat": 38.915509166666666, "is_reserved": 0, "lon": -77.02132116666667, "fusion_lon": 0.0, "fusion_lat": 0.0, "is_disabled": 0, "type": "electric_scooter", "bike_id": "3cfe4c040bcb116894e6a8a44301c25d", "rental_uris": {"android": "https://dc.lft.to/lastmile_qr_scan", "ios": "https://dc.lft.to/lastmile_qr_scan"}, "name": "3cfe4c040bcb116894e6a8a44301c25d"}, {"lat": 38.902602333333334, "is_reserved": 0, "lon": -77.03825416666666, "fusion_lon": 0.0, "fusion_lat": 0.0, "is_disabled": 0, "type": "electric_scooter", "bike_id": "71607ceb916a24a614092e313c844826", "rental_uris": {"android": "https://dc.lft.to/lastmile_qr_scan", "ios": "https://dc.lft.to/lastmile_qr_scan"}, "name": "71607ceb916a24a614092e313c844826"}, {"lat": 38.90576866666667, "is_reserved": 0, "lon": -77.04334866666666, "fusion_lon": 0.0, "fusion_lat": 0.0, "is_disabled": 0, "type": "electric_scooter", "bike_id": "97378246be33f469737275d6b3ee50bc", "rental_uris": {"android": "https://dc.lft.to/lastmile_qr_scan", "ios": "https://dc.lft.to/lastmile_qr_scan"}, "name": "97378246be33f469737275d6b3ee50bc"}, {"lat": 38.90367166666667, "is_reserved": 0, "lon": -76.98601733333334, "fusion_lon": 0.0, "fusion_lat": 0.0, "is_disabled": 0, "type": "electric_scooter", "bike_id": "6e9841c78fde05779ccdf280daf97728", "rental_uris": {"android": "https://dc.lft.to/lastmile_qr_scan", "ios": "https://dc.lft.to/lastmile_qr_scan"}, "name": "6e9841c78fde05779ccdf280daf97728"}, {"lat": 38.866822, "is_reserved": 0, "lon": -76.98570266666667, "fusion_lon": 0.0, "fusion_lat": 0.0, "is_disabled": 0, "type": "electric_scooter", "bike_id": "a7d7c29533bd36f2776d78bbfcbd4c10", "rental_uris": {"android": "https://dc.lft.to/lastmile_qr_scan", "ios": "https://dc.lft.to/lastmile_qr_scan"}, "name": "a7d7c29533bd36f2776d78bbfcbd4c10"}, {"lat": 38.8535325, "is_reserved": 0, "lon": -77.13467066666666, "fusion_lon": 0.0, "fusion_lat": 0.0, "is_disabled": 0, "type": "electric_bike", "bike_id": "28fea64471297752ae6c845994e4ba48", "rental_uris": {"android": "https://dc.lft.to/lastmile_qr_scan", "ios": "https://dc.lft.to/lastmile_qr_scan"}, "name": "28fea64471297752ae6c845994e4ba48"}, {"lat": 38.98968566666667, "is_reserved": 0, "lon": -77.02384866666667, "fusion_lon": 0.0, "fusion_lat": 0.0, "is_disabled": 0, "type": "electric_bike", "bike_id": "5fb7c2f51d04bbcf34b289310cc42838", "rental_uris": {"android": "https://dc.lft.to/lastmile_qr_scan", "ios": "https://dc.lft.to/lastmile_qr_scan"}, "name": "5fb7c2f51d04bbcf34b289310cc42838"}, {"lat": 38.89741716666666, "is_reserved": 0, "lon": -76.979785, "fusion_lon": 0.0, "fusion_lat": 0.0, "is_disabled": 0, "type": "electric_scooter", "bike_id": "e7b04dbf852286fc2772182e4646c311", "rental_uris": {"android": "https://dc.lft.to/lastmile_qr_scan", "ios": "https://dc.lft.to/lastmile_qr_scan"}, "name": "e7b04dbf852286fc2772182e4646c311"}, {"lat": 38.918583166666664, "is_reserved": 0, "lon": -77.04169916666666, "fusion_lon": 0.0, "fusion_lat": 0.0, "is_disabled": 0, "type": "electric_scooter", "bike_id": "b88ad6532f5f1c1540b60a7a4371eaaa", "rental_uris": {"android": "https://dc.lft.to/lastmile_qr_scan", "ios": "https://dc.lft.to/lastmile_qr_scan"}, "name": "b88ad6532f5f1c1540b60a7a4371eaaa"}, {"lat": 38.93478833333333, "is_reserved": 0, "lon": -77.07266333333334, "fusion_lon": 0.0, "fusion_lat": 0.0, "is_disabled": 0, "type": "electric_scooter", "bike_id": "34fdc1cdd4104d0af0378e56bf32df86", "rental_uris": {"android": "https://dc.lft.to/lastmile_qr_scan", "ios": "https://dc.lft.to/lastmile_qr_scan"}, "name": "34fdc1cdd4104d0af0378e56bf32df86"}, {"lat": 38.92121616666667, "is_reserved": 0, "lon": -77.01802716666667, "fusion_lon": 0.0, "fusion_lat": 0.0, "is_disabled": 0, "type": "electric_scooter", "bike_id": "e659d88a5e05dbaf9568aacb833ab87a", "rental_uris": {"android": "https://dc.lft.to/lastmile_qr_scan", "ios": "https://dc.lft.to/lastmile_qr_scan"}, "name": "e659d88a5e05dbaf9568aacb833ab87a"}, {"lat": 38.905074, "is_reserved": 0, "lon": -77.04176566666666, "fusion_lon": 0.0, "fusion_lat": 0.0, "is_disabled": 0, "type": "electric_scooter", "bike_id": "c0ac2c91c388b40c0ec0382708b1c870", "rental_uris": {"android": "https://dc.lft.to/lastmile_qr_scan", "ios": "https://dc.lft.to/lastmile_qr_scan"}, "name": "c0ac2c91c388b40c0ec0382708b1c870"}, {"lat": 38.901388, "is_reserved": 0, "lon": -77.0467565, "fusion_lon": 0.0, "fusion_lat": 0.0, "is_disabled": 0, "type": "electric_scooter", "bike_id": "9ae3b15bf2e447609b332d39caa0673a", "rental_uris": {"android": "https://dc.lft.to/lastmile_qr_scan", "ios": "https://dc.lft.to/lastmile_qr_scan"}, "name": "9ae3b15bf2e447609b332d39caa0673a"}, {"lat": 38.930853166666665, "is_reserved": 0, "lon": -77.02480833333334, "fusion_lon": 0.0, "fusion_lat": 0.0, "is_disabled": 0, "type": "electric_scooter", "bike_id": "0ba2ba8f952be56fe0717ef30fab7440", "rental_uris": {"android": "https://dc.lft.to/lastmile_qr_scan", "ios": "https://dc.lft.to/lastmile_qr_scan"}, "name": "0ba2ba8f952be56fe0717ef30fab7440"}, {"lat": 38.9104775, "is_reserved": 0, "lon": -77.03090766666666, "fusion_lon": 0.0, "fusion_lat": 0.0, "is_disabled": 0, "type": "electric_scooter", "bike_id": "9ff12f104b200a8d9648663e80645000", "rental_uris": {"android": "https://dc.lft.to/lastmile_qr_scan", "ios": "https://dc.lft.to/lastmile_qr_scan"}, "name": "9ff12f104b200a8d9648663e80645000"}, {"lat": 38.91105266666667, "is_reserved": 0, "lon": -77.04329583333333, "fusion_lon": 0.0, "fusion_lat": 0.0, "is_disabled": 0, "type": "electric_scooter", "bike_id": "9fba78bec2d526c3da7fa563f6f0369b", "rental_uris": {"android": "https://dc.lft.to/lastmile_qr_scan", "ios": "https://dc.lft.to/lastmile_qr_scan"}, "name": "9fba78bec2d526c3da7fa563f6f0369b"}, {"lat": 38.911625, "is_reserved": 0, "lon": -77.07756283333333, "fusion_lon": 0.0, "fusion_lat": 0.0, "is_disabled": 0, "type": "electric_scooter", "bike_id": "d10c3cbc3ef92105c36680c0d06b9332", "rental_uris": {"android": "https://dc.lft.to/lastmile_qr_scan", "ios": "https://dc.lft.to/lastmile_qr_scan"}, "name": "d10c3cbc3ef92105c36680c0d06b9332"}, {"lat": 38.940178833333334, "is_reserved": 0, "lon": -76.97610666666667, "fusion_lon": 0.0, "fusion_lat": 0.0, "is_disabled": 0, "type": "electric_scooter", "bike_id": "1df942ff4f8714aba7ff0de9b8359ce7", "rental_uris": {"android": "https://dc.lft.to/lastmile_qr_scan", "ios": "https://dc.lft.to/lastmile_qr_scan"}, "name": "1df942ff4f8714aba7ff0de9b8359ce7"}, {"lat": 38.89476483333333, "is_reserved": 0, "lon": -76.9485955, "fusion_lon": 0.0, "fusion_lat": 0.0, "is_disabled": 0, "type": "electric_scooter", "bike_id": "e395e30f409068ee3f648b6b2825a80a", "rental_uris": {"android": "https://dc.lft.to/lastmile_qr_scan", "ios": "https://dc.lft.to/lastmile_qr_scan"}, "name": "e395e30f409068ee3f648b6b2825a80a"},