{"data": {"bikes": [{"is_reserved": 0, "is_disabled": 0, "fusion_lon": 0.0, "lat": 38.92798833333333, "name": "80c5ddec3c6c297178b01aae401ec819", "bike_id": "80c5ddec3c6c297178b01aae401ec819", "lon": -77.01549183333333, "fusion_lat": 0.0, "rental_uris": {"android": "https://dc.lft.to/lastmile_qr_scan", "ios": "https://dc.lft.to/lastmile_qr_scan"}, "type": "electric_scooter"}, {"is_reserved": 0, "is_disabled": 0, "fusion_lon": 0.0, "lat": 38.92155916666667, "name": "dcc876dae8198c388f9e18cb1f9d97ce", "bike_id": "dcc876dae8198c388f9e18cb1f9d97ce", "lon": -77.03372866666666, "fusion_lat": 0.0, "rental_uris": {"android": "https://dc.lft.to/lastmile_qr_scan", "ios": "https://dc.lft.to/lastmile_qr_scan"}, "type": "electric_scooter"}, {"is_reserved": 0, "is_disabled": 0, "fusion_lon": 0.0, "lat": 38.9154865, "name": "390f404ea3ab7aa2ece216899a4e1fd6", "bike_id": "390f404ea3ab7aa2ece216899a4e1fd6", "lon": -77.0123155, "fusion_lat": 0.0, "rental_uris": {"android": "https://dc.lft.to/lastmile_qr_scan", "ios": "https://dc.lft.to/lastmile_qr_scan"}, "type": "electric_scooter"}, {"is_reserved": 0, "is_disabled": 0, "fusion_lon": 0.0, "lat": 38.7846225, "name": "182b3c0910a58b7c455f734153e32415", "bike_id": "182b3c0910a58b7c455f734153e32415", "lon": -77.054401, "fusion_lat": 0.0, "rental_uris": {"android": "https://dc.lft.to/lastmile_qr_scan", "ios": "https://dc.lft.to/lastmile_qr_scan"}, "type": "electric_bike"}, {"is_reserved": 0, "is_disabled": 0, "fusion_lon": 0.0, "lat": 38.893214, "name": "2f50097d52c87db67c248d0d7e484773", "bike_id": "2f50097d52c87db67c248d0d7e484773", "lon": -77.02222533333334, "fusion_lat": 0.0, "rental_uris": {"android": "https://dc.lft.to/lastmile_qr_scan", "ios": "https://dc.lft.to/lastmile_qr_scan"}, "type": "electric_scooter"}, {"is_reserved": 0, "is_disabled": 0, "fusion_lon": 0.0, "lat": 38.9022435, "name": "4ea563208c7d27d43144d7c3d6cfc0e3", "bike_id": "4ea563208c7d27d43144d7c3d6cfc0e3", "lon": -77.0460075, "fusion_lat": 0.0, "rental_uris": {"android": "https://dc.lft.to/lastmile_qr_scan", "ios": "https://dc.lft.to/lastmile_qr_scan"}, "type": "electric_scooter"}, {"is_reserved": 0, "is_disabled": 0, "fusion_lon": 0.0, "lat": 38.92140716666667, "name": "071333328da786920e632a1b4a86d400", "bike_id": "071333328da786920e632a1b4a86d400", "lon": -77.01830783333334, "fusion_lat": 0.0, "rental_uris": {"android": "https://dc.lft.to/lastmile_qr_scan", "ios": "https://dc.lft.to/lastmile_qr_scan"}, "type": "electric_scooter"}, {"is_reserved": 0, "is_disabled": 0, "fusion_lon": 0.0, "lat": 38.90947883333333, "name": "d89d0468a23d30c308ed76e5823712ff", "bike_id": "d89d0468a23d30c308ed76e5823712ff", "lon": -77.01529333333333, "fusion_lat": 0.0, "rental_uris": {"android": "https://dc.lft.to/lastmile_qr_scan", "ios": "https://dc.lft.to/lastmile_qr_scan"}, "type": "electric_scooter"}, {"is_reserved": 0, "is_disabled": 0, "fusion_lon": 0.0, "lat": 38.962232666666665, "name": "be38bec9575c0d3038e8fd1c74a313cf", "bike_id": "be38bec9575c0d3038e8fd1c74a313cf", "lon": -77.013594, "fusion_lat": 0.0, "rental_uris": {"android": "https://dc.lft.to/lastmile_qr_scan", "ios": "https://dc.lft.to/lastmile_qr_scan"}, "type": "electric_scooter"}, {"is_reserved": 0, "is_disabled": 0, "fusion_lon": 0.0, "lat": 38.89727416666667, "name": "eaf56a708c70f3898f591dd7c0355ab6", "bike_id": "eaf56a708c70f3898f591dd7c0355ab6", "lon": -77.05524566666666, "fusion_lat": 0.0, "rental_uris": {"android": "https://dc.lft.to/lastmile_qr_scan", "ios": "https://dc.lft.to/lastmile_qr_scan"}, "type": "electric_scooter"}, {"is_reserved": 0, "is_disabled": 0, "fusion_lon": 0.0, "lat": 38.934800833333334, "name": "a98b4732c7b744166c87a15d03415e0e", "bike_id": "a98b4732c7b744166c87a15d03415e0e", "lon": -77.04465883333333, "fusion_lat": 0.0, "rental_uris": {"android": "https://dc.lft.to/lastmile_qr_scan", "ios": "https://dc.lft.to/lastmile_qr_scan"}, "type": "electric_scooter"}, {"is_reserved": 0, "is_disabled": 0, "fusion_lon": 0.0, "lat": 38.907621166666665, "name": "f1685d3b0c45eb42bc1448b7abea645f", "bike_id": "f1685d3b0c45eb42bc1448b7abea645f", "lon": -77.045293, "fusion_lat": 0.0, "rental_uris": {"android": "https://dc.lft.to/lastmile_qr_scan", "ios": "https://dc.lft.to/lastmile_qr_scan"}, "type": "electric_scooter"}, {"is_reserved": 0, "is_disabled": 0, "fusion_lon": 0.0, "lat": 38.9219975, "name": "fba3f36308f8e5774fbf40e922575811", "bike_id": "fba3f36308f8e5774fbf40e922575811", "lon": -76.98370216666666, "fusion_lat": 0.0, "rental_uris": {"android": "https://dc.lft.to/lastmile_qr_scan", "ios": "https://dc.lft.to/lastmile_qr_scan"}, "type": "electric_scooter"}, {"is_reserved": 0, "is_disabled": 0, "fusion_lon": 0.0, "lat": 38.9288, "name": "b1a70cf65db65c2c346c5a2fffcb8c3e", "bike_id": "b1a70cf65db65c2c346c5a2fffcb8c3e", "lon": -77.01375866666666, "fusion_lat": 0.0, "rental_uris": {"android": "https://dc.lft.to/lastmile_qr_scan", "ios": "https://dc.lft.to/lastmile_qr_scan"}, "type": "electric_scooter"}, {"is_reserved": 0, "is_disabled": 0, "fusion_lon": 0.0, "lat": 38.875463, "name": "1cbaee196ef6ffcee6d18644f2c37347", "bike_id": "1cbaee196ef6ffcee6d18644f2c37347", "lon": -77.0058205, "fusion_lat": 0.0, "rental_uris": {"android": "https://dc.lft.to/lastmile_qr_scan", "ios": "https://dc.lft.to/lastmile_qr_scan"}, "type": "electric_scooter"}, {"is_reserved": 0, "is_disabled": 0, "fusion_lon": 0.0, "lat": 38.92474416666667, "name": "5337fde538f9c519d0681a5968d9aaea", "bike_id": "5337fde538f9c519d0681a5968d9aaea", "lon": -77.02224233333334, "fusion_lat": 0.0, "rental_uris": {"android": "https://dc.lft.to/lastmile_qr_scan", "ios": "https://dc.lft.to/lastmile_qr_scan"}, "type": "electric_scooter"}, {"is_reserved": 0, "is_disabled": 0, "fusion_lon": 0.0, "lat": 38.92072916666667, "name": "31d19be1023ea231d712636157472c38", "bike_id": "31d19be1023ea231d712636157472c38", "lon": -77.04552033333333, "fusion_lat": 0.0, "rental_uris": {"android": "https://dc.lft.to/lastmile_qr_scan", "ios": "https://dc.lft.to/lastmile_qr_scan"}, "type": "electric_scooter"}, {"is_reserved": 0, "is_disabled": 0, "fusion_lon": 0.0, "lat": 39.08433383333333, "name": "45db5533abdf57b605d4e85a5403bbe8", "bike_id": "45db5533abdf57b605d4e85a5403bbe8", "lon": -76.9514875, "fusion_lat": 0.0, "rental_uris": {"android": "https://dc.lft.to/lastmile_qr_scan", "ios": "https://dc.lft.to/lastmile_qr_scan"}, "type": "electric_bike"}, {"is_reserved": 0, "is_disabled": 0, "fusion_lon": 0.0, "lat": 38.91947916666667, "name": "710696e9d00e4b4792222b2d57c0eaa1", "bike_id": "710696e9d00e4b4792222b2d57c0eaa1", "lon": -77.02185233333333, "fusion_lat": 0.0, "rental_uris": {"android": "https://dc.lft.to/lastmile_qr_scan", "ios": "https://dc.lft.to/lastmile_qr_scan"}, "type": "electric_scooter"}, {"is_reserved": 0, "is_disabled": 0, "fusion_lon": 0.0, "lat": 38.92053683333334, "name": "bd248c0bba5128feb9f1e97a406dfc13", "bike_id": "bd248c0bba5128feb9f1e97a406dfc13", "lon": -77.0242405, "fusion_lat": 0.0, "rental_uris": {"android": "https://dc.lft.to/lastmile_qr_scan", "ios": "https://dc.lft.to/lastmile_qr_scan"}, "type": "electric_scooter"}, {"is_reserved": 0, "is_disabled": 0, "fusion_lon": 0.0, "lat": 38.91067683333333, "name": "d03ef14098d0b8b130ff754cc12128bb", "bike_id": "d03ef14098d0b8b130ff754cc12128bb", "lon": -77.05386666666666, "fusion_lat": 0.0, "rental_uris": {"android": "https://dc.lft.to/lastmile_qr_scan", "ios": "https://dc.lft.to/lastmile_qr_scan"}, "type": "electric_scooter"}, {"is_reserved": 0, "is_disabled": 0, "fusion_lon": 0.0, "lat": 38.9454215, "name": "01ec198c98e3ad913795f106f33cd68f", "bike_id": "01ec198c98e3ad913795f106f33cd68f", "lon": -77.34461983333334, "fusion_lat": 0.0, "rental_uris": {"android": "https://dc.lft.to/lastmile_qr_scan", "ios": "https://dc.lft.to/lastmile_qr_scan"}, "type": "electric_bike"}, {"is_reserved": 0, "is_disabled": 0, "fusion_lon": 0.0, "lat": 38.9076435, "name": "d92312a88509b2eb9e8e770df9883d19", "bike_id": "d92312a88509b2eb9e8e770df9883d19", "lon": -77.03577283333334, "fusion_lat": 0.0, "rental_uris": {"android": "https://dc.lft.to/lastmile_qr_scan", "ios": "https://dc.lft.to/lastmile_qr_scan"}, "type": "electric_scooter"}, {"is_reserved": 0, "is_disabled": 0, "fusion_lon": 0.0, "lat": 38.882367, "name": "074d6b3907c7b56bee5d0a00185f4d5d", "bike_id": "074d6b3907c7b56bee5d0a00185f4d5d", "lon": -76.99480333333334, "fusion_lat": 0.0, "rental_uris": {"android": "https://dc.lft.to/lastmile_qr_scan", "ios": "https://dc.lft.to/lastmile_qr_scan"}, "type": "electric_scooter"}, {"is_reserved": 0, "is_disabled": 0, "fusion_lon": 0.0, "lat": 38.92131366666667, "name": "33c9dbf70583aedf6d66ab3daf8bfc9b", "bike_id": "33c9dbf70583aedf6d66ab3daf8bfc9b", "lon": -77.01171616666667, "fusion_lat": 0.0, "rental_uris": {"android": "https://dc.lft.to/lastmile_qr_scan", "ios": "https://dc.lft.to/lastmile_qr_scan"}, "type": "electric_scooter"}, {"is_reserved": 0, "is_disabled": 0, "fusion_lon": 0.0, "lat": 38.88397466666667, "name": "ea0bb782d104ddf4953dd650fd5dcc19", "bike_id": "ea0bb782d104ddf4953dd650fd5dcc19", "lon": -76.9303965, "fusion_lat": 0.0, "rental_uris": {"android": "https://dc.lft.to/lastmile_qr_scan", "ios": "https://dc.lft.to/lastmile_qr_scan"}, "type": "electric_scooter"}, {"is_reserved": 0, "is_disabled": 0, "fusion_lon": 0.0, "lat": 38.91858533333333, "name": "35f31184ef4330d2b20682b707113937", "bike_id": "35f31184ef4330d2b20682b707113937", "lon": -77.02527516666666, "fusion_lat": 0.0, "rental_uris": {"android": "https://dc.lft.to/lastmile_qr_scan", "ios": "https://dc.lft.to/lastmile_qr_scan"}, "type": "electric_scooter"}, {"is_reserved": 0, "is_disabled": 0, "fusion_lon": 0.0, "lat": 38.92600983333333, "name": "445d99849263b70d7fe3dd47962de4d4", "bike_id": "445d99849263b70d7fe3dd47962de4d4", "lon": -77.0215915, "fusion_lat": 0.0, "rental_uris": {"android": "https://dc.lft.to/lastmile_qr_scan", "ios": "https://dc.lft.to/lastmile_qr_scan"}, "type": "electric_scooter"}, {"is_reserved": 0, "is_disabled": 0, "fusion_lon": 0.0, "lat": 38.898445833333334, "name": "d2d01b656357370f5e73d7716c9c3b42", "bike_id": "d2d01b656357370f5e73d7716c9c3b42", "lon": -77.04369466666667, "fusion_lat": 0.0, "rental_uris": {"android": "https://dc.lft.to/lastmile_qr_scan", "ios": "https://dc.lft.to/lastmile_qr_scan"}, "type": "electric_scooter"}, {"is_reserved": 0, "is_disabled": 0, "fusion_lon": 0.0, "lat": 38.92502316666667, "name": "a0747bd006ec65e6f97753ee1bfe03b4", "bike_id": "a0747bd006ec65e6f97753ee1bfe03b4", "lon": -77.02355733333333, "fusion_lat": 0.0, "rental_uris": {"android": "https://dc.lft.to/lastmile_qr_scan", "ios": "https://dc.lft.to/lastmile_qr_scan"}, "type": "electric_scooter"}, {"is_reserved": 0, "is_disabled": 0, "fusion_lon": 0.0, "lat": 38.922352833333335, "name": "c92ab9c193208e86fe6b7f07e0233b74", "bike_id": "c92ab9c193208e86fe6b7f07e0233b74", "lon": -77.02977633333333, "fusion_lat": 0.0, "rental_uris": {"android": "https://dc.lft.to/lastmile_qr_scan", "ios": "https://dc.lft.to/lastmile_qr_scan"}, "type": "electric_scooter"}, {"is_reserved": 0, "is_disabled": 0, "fusion_lon": 0.0, "lat": 38.8866215, "name": "891abfac3fdc43dd711ec3d5b9c611f0", "bike_id": "891abfac3fdc43dd711ec3d5b9c611f0", "lon": -76.93674066666667, "fusion_lat": 0.0, "rental_uris": {"android": "https://dc.lft.to/lastmile_qr_scan", "ios": "https://dc.lft.to/lastmile_qr_scan"}, "type": "electric_scooter"}, {"is_reserved": 0, "is_disabled": 0, "fusion_lon": 0.0, "lat": 38.91922016666667, "name": "df65116776d463a56c583884fabb172c", "bike_id": "df65116776d463a56c583884fabb172c", "lon": -77.00995183333333, "fusion_lat": 0.0, "rental_uris": {"android": "https://dc.lft.to/lastmile_qr_scan", "ios": "https://dc.lft.to/lastmile_qr_scan"}, "type": "electric_scooter"}, {"is_reserved": 0, "is_disabled": 0, "fusion_lon": 0.0, "lat": 38.916287, "name": "79220b21c256ad14b2fe0e23ceda85ed", "bike_id": "79220b21c256ad14b2fe0e23ceda85ed", "lon": -77.0506675, "fusion_lat": 0.0, "rental_uris": {"android": "https://dc.lft.to/lastmile_qr_scan", "ios": "https://dc.lft.to/lastmile_qr_scan"}, "type": "electric_scooter"}, {"is_reserved": 0, "is_disabled": 0, "fusion_lon": 0.0, "lat": 38.91988116666667, "name": "d8afca5cbe77a3cfa93a4620f15404f9", "bike_id": "d8afca5cbe77a3cfa93a4620f15404f9", "lon": -77.02382466666667, "fusion_lat": 0.0, "rental_uris": {"android": "https://dc.lft.to/lastmile_qr_scan", "ios": "https://dc.lft.to/lastmile_qr_scan"}, "type": "electric_scooter"}, {"is_reserved": 0, "is_disabled": 0, "fusion_lon": 0.0, "lat": 38.93527783333333, "name": "cbda63c6681af0f1b719c1f2feaa65a1", "bike_id": "cbda63c6681af0f1b719c1f2feaa65a1", "lon": -77.03495016666666, "fusion_lat": 0.0, "rental_uris": {"android": "https://dc.lft.to/lastmile_qr_scan", "ios": "https://dc.lft.to/lastmile_qr_scan"}, "type": "electric_scooter"}, {"is_reserved": 0, "is_disabled": 0, "fusion_lon": 0.0, "lat": 38.89689516666667, "name": "25d402e5d49e2baea2a8cd3d75a95313", "bike_id": "25d402e5d49e2baea2a8cd3d75a95313", "lon": -77.00590883333334, "fusion_lat": 0.0, "rental_uris": {"android": "https://dc.lft.to/lastmile_qr_scan", "ios": "https://dc.lft.to/lastmile_qr_scan"}, "type": "electric_scooter"}, {"is_reserved": 0, "is_disabled": 0, "fusion_lon": 0.0, "lat": 38.876786833333334, "name": "e22467caa18f7caff6f0378d146ee165", "bike_id": "e22467caa18f7caff6f0378d146ee165", "lon": -77.00363416666667, "fusion_lat": 0.0, "rental_uris": {"android": "https://dc.lft.to/lastmile_qr_scan", "ios": "https://dc.lft.to/lastmile_qr_scan"}, "type": "electric_scooter"}, {"is_reserved": 0, "is_disabled": 0, "fusion_lon": 0.0, "lat": 38.92776516666667, "name": "ea9b06c9a4f83793461ac1482178885b", "bike_id": "ea9b06c9a4f83793461ac1482178885b", "lon": -77.037075, "fusion_lat": 0.0, "rental_uris": {"android": "https://dc.lft.to/lastmile_qr_scan", "ios": "https://dc.lft.to/lastmile_qr_scan"}, "type": "electric_scooter"}, {"is_reserved": 0, "is_disabled": 0, "fusion_lon": 0.0, "lat": 38.9429115, "name": "8a0d85f407656ef0e9a6f57762f8d4e8", "bike_id": "8a0d85f407656ef0e9a6f57762f8d4e8", "lon": -77.02637533333333, "fusion_lat": 0.0, "rental_uris": {"android": "https://dc.lft.to/lastmile_qr_scan", "ios": "https://dc.lft.to/lastmile_qr_scan"}, "type": "electric_scooter"}, {"is_reserved": 0, "is_disabled": 0, "fusion_lon": 0.0, "lat": 38.91405433333333, "name": "52d88ec4bfae6597a3886f9bffc6d795", "bike_id": "52d88ec4bfae6597a3886f9bffc6d795", "lon": -77.048876, "fusion_lat": 0.0, "rental_uris": {"android": "https://dc.lft.to/lastmile_qr_scan", "ios": "https://dc.lft.to/lastmile_qr_scan"}, "type": "electric_scooter"}, {"is_reserved": 0, "is_disabled": 0, "fusion_lon": 0.0, "lat": 38.9311945, "name": "f1ba7a40674d6f0a0e5bb7d43436b00d", "bike_id": "f1ba7a40674d6f0a0e5bb7d43436b00d", "lon": -77.0207125, "fusion_lat": 0.0, "rental_uris": {"android": "https://dc.lft.to/lastmile_qr_scan", "ios": "https://dc.lft.to/lastmile_qr_scan"}, "type": "electric_scooter"}, {"is_reserved": 0, "is_disabled": 0, "fusion_lon": 0.0, "lat": 38.915709166666666, "name": "f3149d6667914cd438172027d721404e", "bike_id": "f3149d6667914cd438172027d721404e", "lon": -77.020071, "fusion_lat": 0.0, "rental_uris": {"android": "https://dc.lft.to/lastmile_qr_scan", "ios": "https://dc.lft.to/lastmile_qr_scan"}, "type": "electric_scooter"}, {"is_reserved": 0, "is_disabled": 0, "fusion_lon": 0.0, "lat": 38.92006966666667, "name": "f71ebc4941190a233e25ba3192ef5bf5", "bike_id": "f71ebc4941190a233e25ba3192ef5bf5", "lon": -76.9850195, "fusion_lat": 0.0, "rental_uris": {"android": "https://dc.lft.to/lastmile_qr_scan", "ios": "https://dc.lft.to/lastmile_qr_scan"}, "type": "electric_scooter"}, {"is_reserved": 0, "is_disabled": 0, "fusion_lon": 0.0, "lat": 38.924173333333336, "name": "d9fae9627f6cfff8d272089c86214fa8", "bike_id": "d9fae9627f6cfff8d272089c86214fa8", "lon": -77.02130233333334, "fusion_lat": 0.0, "rental_uris": {"android": "https://dc.lft.to/lastmile_qr_scan", "ios": "https://dc.lft.to/lastmile_qr_scan"}, "type": "electric_scooter"}, {"is_reserved": 0, "is_disabled": 0, "fusion_lon": 0.0, "lat": 38.81912333333333, "name": "88c0145c84ce60ab38e358154509d36e", "bike_id": "88c0145c84ce60ab38e358154509d36e", "lon": -77.12663816666667, "fusion_lat": 0.0, "rental_uris": {"android": "https://dc.lft.to/lastmile_qr_scan", "ios": "https://dc.lft.to/lastmile_qr_scan"}, "type": "electric_bike"}, {"is_reserved": 0, "is_disabled": 0, "fusion_lon": 0.0, "lat": 38.900219, "name": "a9ef488d4dfb8ec8d4adfa634d1fe797", "bike_id": "a9ef488d4dfb8ec8d4adfa634d1fe797", "lon": -77.01242916666666, "fusion_lat": 0.0, "rental_uris": {"android": "https://dc.lft.to/lastmile_qr_scan", "ios": "https://dc.lft.to/lastmile_qr_scan"}, "type": "electric_scooter"}, {"is_reserved": 0, "is_disabled": 0, "fusion_lon": 0.0, "lat": 38.92472, "name": "30d83198b9919f4c7da6ae715421dd46", "bike_id": "30d83198b9919f4c7da6ae715421dd46", "lon": -77.028904, "fusion_lat": 0.0, "rental_uris": {"android": "https://dc.lft.to/lastmile_qr_scan", "ios": "https://dc.lft.to/lastmile_qr_scan"}, "type": "electric_scooter"}, {"is_reserved": 0, "is_disabled": 0, "fusion_lon": 0.0, "lat": 38.9067885, "name": "d03873bde2061a8d14eb602112b4a543", "bike_id": "d03873bde2061a8d14eb602112b4a543", "lon": -77.03676916666667, "fusion_lat": 0.0, "rental_uris": {"android": "https://dc.lft.to/lastmile_qr_scan", "ios": "https://dc.lft.to/lastmile_qr_scan"}, "type": "electric_scooter"}, {"is_reserved": 0, "is_disabled": 0, "fusion_lon": 0.0, "lat": 38.89829783333333, "name": "01c7a78e91f4d5c241759113ca01d177", "bike_id": "01c7a78e91f4d5c241759113ca01d177", "lon": -77.02939083333334, "fusion_lat": 0.0, "rental_uris": {"android": "https://dc.lft.to/lastmile_qr_scan", "ios": "https://dc.lft.to/lastmile_qr_scan"}, "type": "electric_scooter"}, {"is_reserved": 0, "is_disabled": 0, "fusion_lon": 0.0, "lat": 38.9054955, "name": "10fbd549913bd61cc7e1e4f7b948fd78", "bike_id": "10fbd549913bd61cc7e1e4f7b948fd78", "lon": -77.00612883333334, "fusion_lat": 0.0, "rental_uris": {"android": "https://dc.lft.to/lastmile_qr_scan", "ios": "https://dc.lft.to/lastmile_qr_scan"}, "type": "electric_scooter"}, {"is_reserved": 0, "is_disabled": 0, "fusion_lon": 0.0, "lat": 38.917079, "name": "513de5db33b77d41fdee8b56220a999b", "bike_id": "513de5db33b77d41fdee8b56220a999b", "lon": -77.032185, "fusion_lat": 0.0, "rental_uris": {"android": "https://dc.lft.to/lastmile_qr_scan", "ios": "https://dc.lft.to/lastmile_qr_scan"}, "type": "electric_scooter"}, {"is_reserved": 0, "is_disabled": 0, "fusion_lon": 0.0, "lat": 38.92472683333333, "name": "688b93e4105c2ba49d2df3289cebe9fb", "bike_id": "688b93e4105c2ba49d2df3289cebe9fb", "lon": -77.038271, "fusion_lat": 0.0, "rental_uris": {"android": "https://dc.lft.to/lastmile_qr_scan", "ios": "https://dc.lft.to/lastmile_qr_scan"}, "type": "electric_scooter"}, {"is_reserved": 0, "is_disabled": 0, "fusion_lon": 0.0, "lat": 38.91983166666667, "name": "6b7f0d3f1f9946406b15b9ca367906a5", "bike_id": "6b7f0d3f1f9946406b15b9ca367906a5", "lon": -77.0216675, "fusion_lat": 0.0, "rental_uris": {"android": "https://dc.lft.to/lastmile_qr_scan", "ios": "https://dc.lft.to/lastmile_qr_scan"}, "type": "electric_scooter"}, {"is_reserved": 0, "is_disabled": 0, "fusion_lon": 0.0, "lat": 38.901773166666665, "name": "cd9007cd4332e44a4153864e8b3bc58a", "bike_id": "cd9007cd4332e44a4153864e8b3bc58a", "lon": -76.930051, "fusion_lat": 0.0, "rental_uris": {"android": "https://dc.lft.to/lastmile_qr_scan", "ios": "https://dc.lft.to/lastmile_qr_scan"}, "type": "electric_scooter"}, {"is_reserved": 0, "is_disabled": 0, "fusion_lon": 0.0, "lat": 38.91986083333333, "name": "a31baac4b7fe30df92425f25f9a9546a", "bike_id": "a31baac4b7fe30df92425f25f9a9546a", "lon": -77.02165683333334, "fusion_lat": 0.0, "rental_uris": {"android": "https://dc.lft.to/lastmile_qr_scan", "ios": "https://dc.lft.to/lastmile_qr_scan"}, "type": "electric_scooter"}, {"is_reserved": 0, "is_disabled": 0, "fusion_lon": 0.0, "lat": 38.915549666666664, "name": "0d8e427e8c2212cb5bfa84c373a14c88", "bike_id": "0d8e427e8c2212cb5bfa84c373a14c88", "lon": -77.03677116666667, "fusion_lat": 0.0, "rental_uris": {"android": "https://dc.lft.to/lastmile_qr_scan", "ios": "https://dc.lft.to/lastmile_qr_scan"}, "type": "electric_scooter"}, {"is_reserved": 0, "is_disabled": 0, "fusion_lon": 0.0, "lat": 38.949769333333336, "name": "3e44fb97ad71e0211b9b5dcab0530bab", "bike_id": "3e44fb97ad71e0211b9b5dcab0530bab", "lon": -77.024336, "fusion_lat": 0.0, "rental_uris": {"android": "https://dc.lft.to/lastmile_qr_scan", "ios": "https://dc.lft.to/lastmile_qr_scan"}, "type": "electric_scooter"}, {"is_reserved": 0, "is_disabled": 0, "fusion_lon": 0.0, "lat": 38.9026455, "name": "8a5c0d810b3909612f49355fcc488819", "bike_id": "8a5c0d810b3909612f49355fcc488819", "lon": -77.06008433333334, "fusion_lat": 0.0, "rental_uris": {"android": "https://dc.lft.to/lastmile_qr_scan", "ios": "https://dc.lft.to/lastmile_qr_scan"}, "type": "electric_scooter"}, {"is_reserved": 0, "is_disabled": 0, "fusion_lon": 0.0, "lat": 38.93448333333333, "name": "df4abb26f652be4441c67cc4bd7f4afc", "bike_id": "df4abb26f652be4441c67cc4bd7f4afc", "lon": -77.08965983333333, "fusion_lat": 0.0, "rental_uris": {"android": "https://dc.lft.to/lastmile_qr_scan", "ios": "https://dc.lft.to/lastmile_qr_scan"}, "type": "electric_scooter"}, {"is_reserved": 0, "is_disabled": 0, "fusion_lon": 0.0, "lat": 38.9732005, "name": "dde767a134f9beaca7f7a61cbce0ae64", "bike_id": "dde767a134f9beaca7f7a61cbce0ae64", "lon": -77.02687666666667, "fusion_lat": 0.0, "rental_uris": {"android": "https://dc.lft.to/lastmile_qr_scan", "ios": "https://dc.lft.to/lastmile_qr_scan"}, "type": "electric_scooter"}, {"is_reserved": 0, "is_disabled": 0, "fusion_lon": 0.0, "lat": 38.92407633333333, "name": "e9afdf2c2d39fc6fa202a190781523fa", "bike_id": "e9afdf2c2d39fc6fa202a190781523fa", "lon": -77.02699183333333, "fusion_lat": 0.0, "rental_uris": {"android": "https://dc.lft.to/lastmile_qr_scan", "ios": "https://dc.lft.to/lastmile_qr_scan"}, "type": "electric_scooter"}, {"is_reserved": 0, "is_disabled": 0, "fusion_lon": 0.0, "lat": 38.9268625, "name": "6b21539d7214b6ef4612ff78740d5f61", "bike_id": "6b21539d7214b6ef4612ff78740d5f61", "lon": -77.01508383333334, "fusion_lat": 0.0, "rental_uris": {"android": "https://dc.lft.to/lastmile_qr_scan", "ios": "https://dc.lft.to/lastmile_qr_scan"}, "type": "electric_scooter"}, {"is_reserved": 0, "is_disabled": 0, "fusion_lon": 0.0, "lat": 38.87967833333333, "name": "1a80704dfd8258b998d8f9b70823661e", "bike_id": "1a80704dfd8258b998d8f9b70823661e", "lon": -77.02431716666666, "fusion_lat": 0.0, "rental_uris": {"android": "https://dc.lft.to/lastmile_qr_scan", "ios": "https://dc.lft.to/lastmile_qr_scan"}, "type": "electric_scooter"}, {"is_reserved": 0, "is_disabled": 0, "fusion_lon": 0.0, "lat": 38.92239433333334, "name": "b52ad8268ca870c363163221ff55e7bc", "bike_id": "b52ad8268ca870c363163221ff55e7bc", "lon": -77.04268233333333, "fusion_lat": 0.0, "rental_uris": {"android": "https://dc.lft.to/lastmile_qr_scan", "ios": "https://dc.lft.to/lastmile_qr_scan"}, "type": "electric_scooter"}, {"is_reserved": 0, "is_disabled": 0, "fusion_lon": 0.0, "lat": 38.921261, "name": "0da9481716c44363e7bd08ba65f39604", "bike_id": "0da9481716c44363e7bd08ba65f39604", "lon": -77.02067783333334, "fusion_lat": 0.0, "rental_uris": {"android": "https://dc.lft.to/lastmile_qr_scan", "ios": "https://dc.lft.to/lastmile_qr_scan"}, "type": "electric_scooter"}, {"is_reserved": 0, "is_disabled": 0, "fusion_lon": 0.0, "lat": 38.924685833333335, "name": "4c8d7e51a7559191dffc609e60dcc3ae", "bike_id": "4c8d7e51a7559191dffc609e60dcc3ae", "lon": -77.04199516666667, "fusion_lat": 0.0, "rental_uris": {"android": "https://dc.lft.to/lastmile_qr_scan", "ios": "https://dc.lft.to/lastmile_qr_scan"}, "type": "electric_scooter"}, {"is_reserved": 0, "is_disabled": 0, "fusion_lon": 0.0, "lat": 38.90586416666667, "name": "6949b1e98fe77e5ec013ff39cb023c6a", "bike_id": "6949b1e98fe77e5ec013ff39cb023c6a", "lon": -77.03429133333333, "fusion_lat": 0.0, "rental_uris": {"android": "https://dc.lft.to/lastmile_qr_scan", "ios": "https://dc.lft.to/lastmile_qr_scan"}, "type": "electric_scooter"}, {"is_reserved": 0, "is_disabled": 0, "fusion_lon": 0.0, "lat": 38.92451066666667, "name": "bc4acadbffa0cf52eadb586e14414585", "bike_id": "bc4acadbffa0cf52eadb586e14414585", "lon": -77.0213405, "fusion_lat": 0.0, "rental_uris": {"android": "https://dc.lft.to/lastmile_qr_scan", "ios": "https://dc.lft.to/lastmile_qr_scan"}, "type": "electric_scooter"}, {"is_reserved": 0, "is_disabled": 0, "fusion_lon": 0.0, "lat": 38.920241, "name": "2e2bd5c90dfd0271cb516fad14b6d6a0", "bike_id": "2e2bd5c90dfd0271cb516fad14b6d6a0", "lon": -77.01811833333333, "fusion_lat": 0.0, "rental_uris": {"android": "https://dc.lft.to/lastmile_qr_scan", "ios": "https://dc.lft.to/lastmile_qr_scan"}, "type": "electric_scooter"}, {"is_reserved": 0, "is_disabled": 0, "fusion_lon": 0.0, "lat": 38.910643, "name": "6fd32f9431c23d1718aa96335cc9c9de", "bike_id": "6fd32f9431c23d1718aa96335cc9c9de", "lon": -77.04242333333333, "fusion_lat": 0.0, "rental_uris": {"android": "https://dc.lft.to/lastmile_qr_scan", "ios": "https://dc.lft.to/lastmile_qr_scan"}, "type": "electric_scooter"}, {"is_reserved": 0, "is_disabled": 0, "fusion_lon": 0.0, "lat": 38.936501166666666, "name": "669f707445edc668ab39154e93bcadd3", "bike_id": "669f707445edc668ab39154e93bcadd3", "lon": -77.02447833333333, "fusion_lat": 0.0, "rental_uris": {"android": "https://dc.lft.to/lastmile_qr_scan", "ios": "https://dc.lft.to/lastmile_qr_scan"}, "type": "electric_scooter"}, {"is_reserved": 0, "is_disabled": 0, "fusion_lon": 0.0, "lat": 38.89967083333333, "name": "1581ea95ca995b277c9b22415055757b", "bike_id": "1581ea95ca995b277c9b22415055757b", "lon": -77.0556575, "fusion_lat": 0.0, "rental_uris": {"android": "https://dc.lft.to/lastmile_qr_scan", "ios": "https://dc.lft.to/lastmile_qr_scan"}, "type": "electric_scooter"}, {"is_reserved": 0, "is_disabled": 0, "fusion_lon": 0.0, "lat": 38.91328216666667, "name": "884a701716204eb9d1aa66e9d5a85455", "bike_id": "884a701716204eb9d1aa66e9d5a85455", "lon": -77.031859, "fusion_lat": 0.0, "rental_uris": {"android": "https://dc.lft.to/lastmile_qr_scan", "ios": "https://dc.lft.to/lastmile_qr_scan"}, "type": "electric_scooter"}, {"is_reserved": 0, "is_disabled": 0, "fusion_lon": 0.0, "lat": 38.89946916666667, "name": "63e1e37c3477a9708ee39a58df2a1d90", "bike_id": "63e1e37c3477a9708ee39a58df2a1d90", "lon": -77.04509116666667, "fusion_lat": 0.0, "rental_uris": {"android": "https://dc.lft.to/lastmile_qr_scan", "ios": "https://dc.lft.to/lastmile_qr_scan"}, "type": "electric_scooter"}, {"is_reserved": 0, "is_disabled": 0, "fusion_lon": 0.0, "lat": 38.927565666666666, "name": "44c3f8224550e0e826337759d67b4cfe", "bike_id": "44c3f8224550e0e826337759d67b4cfe", "lon": -77.02784733333333, "fusion_lat": 0.0, "rental_uris": {"android": "https://dc.lft.to/lastmile_qr_scan", "ios": "https://dc.lft.to/lastmile_qr_scan"}, "type": "electric_scooter"}, {"is_reserved": 0, "is_disabled": 0, "fusion_lon": 0.0, "lat": 38.95061666666667, "name": "cfccf3e06d42012858018d9d296b637c", "bike_id": "cfccf3e06d42012858018d9d296b637c", "lon": -77.06633666666667, "fusion_lat": 0.0, "rental_uris": {"android": "https://dc.lft.to/lastmile_qr_scan", "ios": "https://dc.lft.to/lastmile_qr_scan"}, "type": "electric_bike"}, {"is_reserved": 0, "is_disabled": 0, "fusion_lon": 0.0, "lat": 38.923586666666665, "name": "30894ce381af505117df61314ae8ddcf", "bike_id": "30894ce381af505117df61314ae8ddcf", "lon": -77.01914, "fusion_lat": 0.0, "rental_uris": {"android": "https://dc.lft.to/lastmile_qr_scan", "ios": "https://dc.lft.to/lastmile_qr_scan"}, "type": "electric_scooter"}, {"is_reserved": 0, "is_disabled": 0, "fusion_lon": 0.0, "lat": 38.926131, "name": "2e9c7da5f7f46cfb52a664b552cfff70", "bike_id": "2e9c7da5f7f46cfb52a664b552cfff70", "lon": -77.02160083333334, "fusion_lat": 0.0, "rental_uris": {"android": "https://dc.lft.to/lastmile_qr_scan", "ios": "https://dc.lft.to/lastmile_qr_scan"}, "type": "electric_scooter"}, {"is_reserved": 0, "is_disabled": 0, "fusion_lon": 0.0, "lat": 38.90024833333333, "name": "26e04466043693d79dee0c59cb94c7c8", "bike_id": "26e04466043693d79dee0c59cb94c7c8", "lon": -77.01186283333334, "fusion_lat": 0.0, "rental_uris": {"android": "https://dc.lft.to/lastmile_qr_scan", "ios": "https://dc.lft.to/lastmile_qr_scan"}, "type": "electric_scooter"}, {"is_reserved": 0, "is_disabled": 0, "fusion_lon": 0.0, "lat": 38.9362415, "name": "1797db9f76e213562483c70723129a64", "bike_id": "1797db9f76e213562483c70723129a64", "lon": -77.0643375, "fusion_lat": 0.0, "rental_uris": {"android": "https://dc.lft.to/lastmile_qr_scan", "ios": "https://dc.lft.to/lastmile_qr_scan"}, "type": "electric_scooter"}, {"is_reserved": 0, "is_disabled": 0, "fusion_lon": 0.0, "lat": 38.916131, "name": "90067fcecee97f3a689a45ebac4d7b8a", "bike_id": "90067fcecee97f3a689a45ebac4d7b8a", "lon": -77.046448, "fusion_lat": 0.0, "rental_uris": {"android": "https://dc.lft.to/lastmile_qr_scan", "ios": "https://dc.lft.to/lastmile_qr_scan"}, "type": "electric_scooter"}, {"is_reserved": 0, "is_disabled": 0, "fusion_lon": 0.0, "lat": 38.926371333333336, "name": "f92735582c314d77594824e2578967a7", "bike_id": "f92735582c314d77594824e2578967a7", "lon": -77.01337216666667, "fusion_lat": 0.0, "rental_uris": {"android": "https://dc.lft.to/lastmile_qr_scan", "ios": "https://dc.lft.to/lastmile_qr_scan"}, "type": "electric_scooter"}, {"is_reserved": 0, "is_disabled": 0, "fusion_lon": 0.0, "lat": 38.90782433333333, "name": "cf9fe2b25939e9fe6fc26bc634b5042e", "bike_id": "cf9fe2b25939e9fe6fc26bc634b5042e", "lon": -76.9971215, "fusion_lat": 0.0, "rental_uris": {"android": "https://dc.lft.to/lastmile_qr_scan", "ios": "https://dc.lft.to/lastmile_qr_scan"}, "type": "electric_scooter"}, {"is_reserved": 0, "is_disabled": 0, "fusion_lon": 0.0, "lat": 38.91405366666667, "name": "fe76cfb0d44cc1c89b9819888c2b67f2", "bike_id": "fe76cfb0d44cc1c89b9819888c2b67f2", "lon": -77.01825616666666, "fusion_lat": 0.0, "rental_uris": {"android": "https://dc.lft.to/lastmile_qr_scan", "ios": "https://dc.lft.to/lastmile_qr_scan"}, "type": "electric_scooter"}, {"is_reserved": 0, "is_disabled": 0, "fusion_lon": 0.0, "lat": 38.90194, "name": "e2c9f93ce5470e52f1a91d5242616257", "bike_id": "e2c9f93ce5470e52f1a91d5242616257", "lon": -77.0523425, "fusion_lat": 0.0, "rental_uris": {"android": "https://dc.lft.to/lastmile_qr_scan", "ios": "https://dc.lft.to/lastmile_qr_scan"}, "type": "electric_scooter"}, {"is_reserved": 0, "is_disabled": 0, "fusion_lon": 0.0, "lat": 38.902531333333336, "name": "f83fdccf202dc8c17961cea94c755b33", "bike_id": "f83fdccf202dc8c17961cea94c755b33", "lon": -76.984766, "fusion_lat": 0.0, "rental_uris": {"android": "https://dc.lft.to/lastmile_qr_scan", "ios": "https://dc.lft.to/lastmile_qr_scan"}, "type": "electric_scooter"}, {"is_reserved": 0, "is_disabled": 0, "fusion_lon": 0.0, "lat": 38.880251666666666, "name": "259b171e6a62f2962458fb69fe05bdc7", "bike_id": "259b171e6a62f2962458fb69fe05bdc7", "lon": -77.02321716666667, "fusion_lat": 0.0, "rental_uris": {"android": "https://dc.lft.to/lastmile_qr_scan", "ios": "https://dc.lft.to/lastmile_qr_scan"}, "type": "electric_scooter"}, {"is_reserved": 0, "is_disabled": 0, "fusion_lon": 0.0, "lat": 38.934573, "name": "bd191cf3df752dbfa12cdce95db3eaa1", "bike_id": "bd191cf3df752dbfa12cdce95db3eaa1", "lon": -76.96446666666667, "fusion_lat": 0.0, "rental_uris": {"android": "https://dc.lft.to/lastmile_qr_scan", "ios": "https://dc.lft.to/lastmile_qr_scan"}, "type": "electric_scooter"}, {"is_reserved": 0, "is_disabled": 0, "fusion_lon": 0.0, "lat": 38.920760666666666, "name": "257c4ce9f4a1ecd31a05153668ca4bbf", "bike_id": "257c4ce9f4a1ecd31a05153668ca4bbf", "lon": -77.074747, "fusion_lat": 0.0, "rental_uris": {"android": "https://dc.lft.to/lastmile_qr_scan", "ios": "https://dc.lft.to/lastmile_qr_scan"}, "type": "electric_bike"}, {"is_reserved": 0, "is_disabled": 0, "fusion_lon": 0.0, "lat": 38.91951616666667, "name": "34fc046ed950180b2663798fcd76d7ac", "bike_id": "34fc046ed950180b2663798fcd76d7ac", "lon": -77.0142635, "fusion_lat": 0.0, "rental_uris": {"android": "https://dc.lft.to/lastmile_qr_scan", "ios": "https://dc.lft.to/lastmile_qr_scan"}, "type": "electric_scooter"}, {"is_reserved": 0, "is_disabled": 0, "fusion_lon": 0.0, "lat": 38.903948, "name": "d299dc6d65d682470a3a720e2a0b31ea", "bike_id": "d299dc6d65d682470a3a720e2a0b31ea", "lon": -76.9736505, "fusion_lat": 0.0, "rental_uris": {"android": "https://dc.lft.to/lastmile_qr_scan", "ios": "https://dc.lft.to/lastmile_qr_scan"}, "type": "electric_scooter"}, {"is_reserved": 0, "is_disabled": 0, "fusion_lon": 0.0, "lat": 38.878632, "name": "81bbbcec07106e2c6a5efa806c3becb1", "bike_id": "81bbbcec07106e2c6a5efa806c3becb1", "lon": -76.99661266666666, "fusion_lat": 0.0, "rental_uris": {"android": "https://dc.lft.to/lastmile_qr_scan", "ios": "https://dc.lft.to/lastmile_qr_scan"}, "type": "electric_scooter"}, {"is_reserved": 0, "is_disabled": 0, "fusion_lon": 0.0, "lat": 38.917635, "name": "a4eb6085850805efcc2b4ddb64fe1152", "bike_id": "a4eb6085850805efcc2b4ddb64fe1152", "lon": -77.015053, "fusion_lat": 0.0, "rental_uris": {"android": "https://dc.lft.to/lastmile_qr_scan", "ios": "https://dc.lft.to/lastmile_qr_scan"}, "type": "electric_scooter"}, {"is_reserved": 0, "is_disabled": 0, "fusion_lon": 0.0, "lat": 38.8458785, "name": "9e715758ea5b0c48bc4491f0eec10621", "bike_id": "9e715758ea5b0c48bc4491f0eec10621", "lon": -76.96980283333333, "fusion_lat": 0.0, "rental_uris": {"android": "https://dc.lft.to/lastmile_qr_scan", "ios": "https://dc.lft.to/lastmile_qr_scan"}, "type": "electric_bike"}, {"is_reserved": 0, "is_disabled": 0, "fusion_lon": 0.0, "lat": 38.91637, "name": "3cd5104591a5f973f8602d51b879e6b7", "bike_id": "3cd5104591a5f973f8602d51b879e6b7", "lon": -76.98276616666666, "fusion_lat": 0.0, "rental_uris": {"android": "https://dc.lft.to/lastmile_qr_scan", "ios": "https://dc.lft.to/lastmile_qr_scan"}, "type": "electric_scooter"}, {"is_reserved": 0, "is_disabled": 0, "fusion_lon": 0.0, "lat": 38.894458666666665, "name": "f7c2a391b46e08fea1fde063295769d4", "bike_id": "f7c2a391b46e08fea1fde063295769d4", "lon": -77.02670633333334, "fusion_lat": 0.0, "rental_uris": {"android": "https://dc.lft.to/lastmile_qr_scan", "ios": "https://dc.lft.to/lastmile_qr_scan"}, "type": "electric_scooter"}, {"is_reserved": 0, "is_disabled": 0, "fusion_lon": 0.0, "lat": 38.924769, "name": "0891f7e9c0a3243dc0cd6a5cdeef20d8", "bike_id": "0891f7e9c0a3243dc0cd6a5cdeef20d8", "lon": -77.034816, "fusion_lat": 0.0, "rental_uris": {"android": "https://dc.lft.to/lastmile_qr_scan", "ios": "https://dc.lft.to/lastmile_qr_scan"}, "type": "electric_scooter"}, {"is_reserved": 0, "is_disabled": 0, "fusion_lon": 0.0, "lat": 38.854486666666666, "name": "3207485d98c0b7aa37200b41af041043", "bike_id": "3207485d98c0b7aa37200b41af041043", "lon": -76.98609383333333, "fusion_lat": 0.0, "rental_uris": {"android": "https://dc.lft.to/lastmile_qr_scan", "ios": "https://dc.lft.to/lastmile_qr_scan"}, "type": "electric_bike"}, {"is_reserved": 0, "is_disabled": 0, "fusion_lon": 0.0, "lat": 38.92400633333333, "name": "8cfd6979c5192cda1d6522419a8b69be", "bike_id": "8cfd6979c5192cda1d6522419a8b69be", "lon": -77.026932, "fusion_lat": 0.0, "rental_uris": {"android": "https://dc.lft.to/lastmile_qr_scan", "ios": "https://dc.lft.to/lastmile_qr_scan"}, "type": "electric_scooter"}, {"is_reserved": 0, "is_disabled": 0, "fusion_lon": 0.0, "lat": 38.9239245, "name": "f901f76fe86ceb3cb23d93700a14e8e6", "bike_id": "f901f76fe86ceb3cb23d93700a14e8e6", "lon": -77.02591516666666, "fusion_lat": 0.0, "rental_uris": {"android": "https://dc.lft.to/lastmile_qr_scan", "ios": "https://dc.lft.to/lastmile_qr_scan"}, "type": "electric_scooter"}, {"is_reserved": 0, "is_disabled": 0, "fusion_lon": 0.0, "lat": 38.90957233333334, "name": "68889d0c514e58145cf3ad2b8b9bc18f", "bike_id": "68889d0c514e58145cf3ad2b8b9bc18f", "lon": -77.02586183333334, "fusion_lat": 0.0, "rental_uris": {"android": "https://dc.lft.to/lastmile_qr_scan", "ios": "https://dc.lft.to/lastmile_qr_scan"}, "type": "electric_scooter"}, {"is_reserved": 0, "is_disabled": 0, "fusion_lon": 0.0, "lat": 38.9033475, "name": "bb18e24d7da4ca45b99b9c915048be0e", "bike_id": "bb18e24d7da4ca45b99b9c915048be0e", "lon": -76.97529483333334, "fusion_lat": 0.0, "rental_uris": {"android": "https://dc.lft.to/lastmile_qr_scan", "ios": "https://dc.lft.to/lastmile_qr_scan"}, "type": "electric_bike"}, {"is_reserved": 0, "is_disabled": 0, "fusion_lon": 0.0, "lat": 38.91050666666667, "name": "f6734eb228792341925cc62338ebe3f1", "bike_id": "f6734eb228792341925cc62338ebe3f1", "lon": -77.0409705, "fusion_lat": 0.0, "rental_uris": {"android": "https://dc.lft.to/lastmile_qr_scan", "ios": "https://dc.lft.to/lastmile_qr_scan"}, "type": "electric_scooter"}, {"is_reserved": 0, "is_disabled": 0, "fusion_lon": 0.0, "lat": 38.900618, "name": "63f19761f26c5454004f2ef6518dfe64", "bike_id": "63f19761f26c5454004f2ef6518dfe64", "lon": -76.98702466666667, "fusion_lat": 0.0, "rental_uris": {"android": "https://dc.lft.to/lastmile_qr_scan", "ios": "https://dc.lft.to/lastmile_qr_scan"}, "type": "electric_scooter"}, {"is_reserved": 0, "is_disabled": 0, "fusion_lon": 0.0, "lat": 38.876883666666664, "name": "3f46ebdc0c9d3c8de62a616b6d149902", "bike_id": "3f46ebdc0c9d3c8de62a616b6d149902", "lon": -77.0175575, "fusion_lat": 0.0, "rental_uris": {"android": "https://dc.lft.to/lastmile_qr_scan", "ios": "https://dc.lft.to/lastmile_qr_scan"}, "type": "electric_scooter"}, {"is_reserved": 0, "is_disabled": 0, "fusion_lon": 0.0, "lat": 38.905909333333334, "name": "fbd49e1722858e7acecd436a70c780ee", "bike_id": "fbd49e1722858e7acecd436a70c780ee", "lon": -77.03428133333334, "fusion_lat": 0.0, "rental_uris": {"android": "https://dc.lft.to/lastmile_qr_scan", "ios": "https://dc.lft.to/lastmile_qr_scan"}, "type": "electric_scooter"}, {"is_reserved": 0, "is_disabled": 0, "fusion_lon": 0.0, "lat": 38.918016333333334, "name": "1b547c1b872227f8856586b6f736e3b0", "bike_id": "1b547c1b872227f8856586b6f736e3b0", "lon": -77.0343915, "fusion_lat": 0.0, "rental_uris": {"android": "https://dc.lft.to/lastmile_qr_scan", "ios": "https://dc.lft.to/lastmile_qr_scan"}, "type": "electric_scooter"}, {"is_reserved": 0, "is_disabled": 0, "fusion_lon": 0.0, "lat": 38.920724166666666, "name": "ad56db8c2cadb1916b219d055d85dcfe", "bike_id": "ad56db8c2cadb1916b219d055d85dcfe", "lon": -77.07459066666667, "fusion_lat": 0.0, "rental_uris": {"android": "https://dc.lft.to/lastmile_qr_scan", "ios": "https://dc.lft.to/lastmile_qr_scan"}, "type": "electric_scooter"}, {"is_reserved": 0, "is_disabled": 0, "fusion_lon": 0.0, "lat": 38.804009666666666, "name": "47c925fd40ad4352ea1ce093b649c7e4", "bike_id": "47c925fd40ad4352ea1ce093b649c7e4", "lon": -77.11331983333334, "fusion_lat": 0.0, "rental_uris": {"android": "https://dc.lft.to/lastmile_qr_scan", "ios": "https://dc.lft.to/lastmile_qr_scan"}, "type": "electric_bike"}, {"is_reserved": 0, "is_disabled": 0, "fusion_lon": 0.0, "lat": 38.904357, "name": "5167a4d720c275e6fa9044b066a31d13", "bike_id": "5167a4d720c275e6fa9044b066a31d13", "lon": -77.053279, "fusion_lat": 0.0, "rental_uris": {"android": "https://dc.lft.to/lastmile_qr_scan", "ios": "https://dc.lft.to/lastmile_qr_scan"}, "type": "electric_scooter"}, {"is_reserved": 0, "is_disabled": 0, "fusion_lon": 0.0, "lat": 38.94991383333333, "name": "39cf8907aabda41f0a521a4b13854751", "bike_id": "39cf8907aabda41f0a521a4b13854751", "lon": -77.066686, "fusion_lat": 0.0, "rental_uris": {"android": "https://dc.lft.to/lastmile_qr_scan", "ios": "https://dc.lft.to/lastmile_qr_scan"}, "type": "electric_scooter"}, {"is_reserved": 0, "is_disabled": 0, "fusion_lon": 0.0, "lat": 38.9244125, "name": "467780e436c0d597a7ec8f0a35115771", "bike_id": "467780e436c0d597a7ec8f0a35115771", "lon": -77.02019516666667, "fusion_lat": 0.0, "rental_uris": {"android": "https://dc.lft.to/lastmile_qr_scan", "ios": "https://dc.lft.to/lastmile_qr_scan"}, "type": "electric_scooter"}, {"is_reserved": 0, "is_disabled": 0, "fusion_lon": 0.0, "lat": 38.892198666666665, "name": "1ba8769c75a40f89e513a1ec69c34d08", "bike_id": "1ba8769c75a40f89e513a1ec69c34d08", "lon": -77.03132866666667, "fusion_lat": 0.0, "rental_uris": {"android": "https://dc.lft.to/lastmile_qr_scan", "ios": "https://dc.lft.to/lastmile_qr_scan"}, "type": "electric_scooter"}, {"is_reserved": 0, "is_disabled": 0, "fusion_lon": 0.0, "lat": 38.923517333333336, "name": "3abcab0c9fdc59f4ac48ecac08cb4fa0", "bike_id": "3abcab0c9fdc59f4ac48ecac08cb4fa0", "lon": -77.0434905, "fusion_lat": 0.0, "rental_uris": {"android": "https://dc.lft.to/lastmile_qr_scan", "ios": "https://dc.lft.to/lastmile_qr_scan"}, "type": "electric_scooter"}, {"is_reserved": 0, "is_disabled": 0, "fusion_lon": 0.0, "lat": 38.900363166666665, "name": "69fd1382e755d03bfcce0d865ab455f2", "bike_id": "69fd1382e755d03bfcce0d865ab455f2", "lon": -76.98817716666667, "fusion_lat": 0.0, "rental_uris": {"android": "https://dc.lft.to/lastmile_qr_scan", "ios": "https://dc.lft.to/lastmile_qr_scan"}, "type": "electric_scooter"}, {"is_reserved": 0, "is_disabled": 0, "fusion_lon": 0.0, "lat": 38.93859166666667, "name": "0dc14fe5d6ed2b768e9801733c8bd942", "bike_id": "0dc14fe5d6ed2b768e9801733c8bd942", "lon": -77.024828, "fusion_lat": 0.0, "rental_uris": {"android": "https://dc.lft.to/lastmile_qr_scan", "ios": "https://dc.lft.to/lastmile_qr_scan"}, "type": "electric_scooter"}, {"is_reserved": 0, "is_disabled": 0, "fusion_lon": 0.0, "lat": 38.8812185, "name": "13bbd8737a76903a84f65d7cc2689a7d", "bike_id": "13bbd8737a76903a84f65d7cc2689a7d", "lon": -77.00453266666666, "fusion_lat": 0.0, "rental_uris": {"android": "https://dc.lft.to/lastmile_qr_scan", "ios": "https://dc.lft.to/lastmile_qr_scan"}, "type": "electric_scooter"}, {"is_reserved": 0, "is_disabled": 0, "fusion_lon": 0.0, "lat": 38.905381166666665, "name": "296d51f55eee6034d400eaf138037121", "bike_id": "296d51f55eee6034d400eaf138037121", "lon": -77.03986183333333, "fusion_lat": 0.0, "rental_uris": {"android": "https://dc.lft.to/lastmile_qr_scan", "ios": "https://dc.lft.to/lastmile_qr_scan"}, "type": "electric_scooter"}, {"is_reserved": 0, "is_disabled": 0, "fusion_lon": 0.0, "lat": 38.93600083333333, "name": "984b97f44acb519bf12fac299b4b27ae", "bike_id": "984b97f44acb519bf12fac299b4b27ae", "lon": -77.03782683333333, "fusion_lat": 0.0, "rental_uris": {"android": "https://dc.lft.to/lastmile_qr_scan", "ios": "https://dc.lft.to/lastmile_qr_scan"}, "type": "electric_scooter"}, {"is_reserved": 0, "is_disabled": 0, "fusion_lon": 0.0, "lat": 38.924023, "name": "4ea5b220fcb170ba19ae631f29a53e93", "bike_id": "4ea5b220fcb170ba19ae631f29a53e93", "lon": -77.021119, "fusion_lat": 0.0, "rental_uris": {"android": "https://dc.lft.to/lastmile_qr_scan", "ios": "https://dc.lft.to/lastmile_qr_scan"}, "type": "electric_scooter"}, {"is_reserved": 0, "is_disabled": 0, "fusion_lon": 0.0, "lat": 38.915927833333335, "name": "c229e5d461788ada75054729f83a78d2", "bike_id": "c229e5d461788ada75054729f83a78d2", "lon": -77.03661633333333, "fusion_lat": 0.0, "rental_uris": {"android": "https://dc.lft.to/lastmile_qr_scan", "ios": "https://dc.lft.to/lastmile_qr_scan"}, "type": "electric_scooter"}, {"is_reserved": 0, "is_disabled": 0, "fusion_lon": 0.0, "lat": 38.8947615, "name": "6dc763d8fb2bf2143cc489ad328e74ba", "bike_id": "6dc763d8fb2bf2143cc489ad328e74ba", "lon": -77.021213, "fusion_lat": 0.0, "rental_uris": {"android": "https://dc.lft.to/lastmile_qr_scan", "ios": "https://dc.lft.to/lastmile_qr_scan"}, "type": "electric_scooter"}, {"is_reserved": 0, "is_disabled": 0, "fusion_lon": 0.0, "lat": 38.94092066666666, "name": "a559155ed101b14ede92bbc578ff3207", "bike_id": "a559155ed101b14ede92bbc578ff3207", "lon": -77.02980683333334, "fusion_lat": 0.0, "rental_uris": {"android": "https://dc.lft.to/lastmile_qr_scan", "ios": "https://dc.lft.to/lastmile_qr_scan"}, "type": "electric_scooter"}, {"is_reserved": 0, "is_disabled": 0, "fusion_lon": 0.0, "lat": 38.90641766666667, "name": "8f88bd7cb2b679598c275bb7134dc5c4", "bike_id": "8f88bd7cb2b679598c275bb7134dc5c4", "lon": -77.01690216666667, "fusion_lat": 0.0, "rental_uris": {"android": "https://dc.lft.to/lastmile_qr_scan", "ios": "https://dc.lft.to/lastmile_qr_scan"}, "type": "electric_scooter"}, {"is_reserved": 0, "is_disabled": 0, "fusion_lon": 0.0, "lat": 38.92116866666667, "name": "8d9084ad23960ba6099fe35dce2b725d", "bike_id": "8d9084ad23960ba6099fe35dce2b725d", "lon": -77.02072433333333, "fusion_lat": 0.0, "rental_uris": {"android": "https://dc.lft.to/lastmile_qr_scan", "ios": "https://dc.lft.to/lastmile_qr_scan"}, "type": "electric_scooter"}, {"is_reserved": 0, "is_disabled": 0, "fusion_lon": 0.0, "lat": 38.90280766666667, "name": "ad13570957fa8c080fd2dd3c14ffa8c8", "bike_id": "ad13570957fa8c080fd2dd3c14ffa8c8", "lon": -77.064387, "fusion_lat": 0.0, "rental_uris": {"android": "https://dc.lft.to/lastmile_qr_scan", "ios": "https://dc.lft.to/lastmile_qr_scan"}, "type": "electric_scooter"}, {"is_reserved": 0, "is_disabled": 0, "fusion_lon": 0.0, "lat": 38.9734665, "name": "45f2a7ed001c5045e131c6f560133849", "bike_id": "45f2a7ed001c5045e131c6f560133849", "lon": -76.99593483333334, "fusion_lat": 0.0, "rental_uris": {"android": "https://dc.lft.to/lastmile_qr_scan", "ios": "https://dc.lft.to/lastmile_qr_scan"}, "type": "electric_bike"}, {"is_reserved": 0, "is_disabled": 0, "fusion_lon": 0.0, "lat": 38.905005333333335, "name": "1eea362259b5819df6eca609018434da", "bike_id": "1eea362259b5819df6eca609018434da", "lon": -77.05458783333333, "fusion_lat": 0.0, "rental_uris": {"android": "https://dc.lft.to/lastmile_qr_scan", "ios": "https://dc.lft.to/lastmile_qr_scan"}, "type": "electric_scooter"}, {"is_reserved": 0, "is_disabled": 0, "fusion_lon": 0.0, "lat": 39.04236866666667, "name": "cdb8deb9396161f9d898319fe9c42f6c", "bike_id": "cdb8deb9396161f9d898319fe9c42f6c", "lon": -76.99739483333333, "fusion_lat": 0.0, "rental_uris": {"android": "https://dc.lft.to/lastmile_qr_scan", "ios": "https://dc.lft.to/lastmile_qr_scan"}, "type": "electric_bike"}, {"is_reserved": 0, "is_disabled": 0, "fusion_lon": 0.0, "lat": 38.9205455, "name": "3285862265f03499405a764f99304bc5", "bike_id": "3285862265f03499405a764f99304bc5", "lon": -76.98432766666667, "fusion_lat": 0.0, "rental_uris": {"android": "https://dc.lft.to/lastmile_qr_scan", "ios": "https://dc.lft.to/lastmile_qr_scan"}, "type": "electric_scooter"}, {"is_reserved": 0, "is_disabled": 0, "fusion_lon": 0.0, "lat": 38.85876716666667, "name": "2fae1263459585568d389088de76018d", "bike_id": "2fae1263459585568d389088de76018d", "lon": -76.98942283333334, "fusion_lat": 0.0, "rental_uris": {"android": "https://dc.lft.to/lastmile_qr_scan", "ios": "https://dc.lft.to/lastmile_qr_scan"}, "type": "electric_scooter"}, {"is_reserved": 0, "is_disabled": 0, "fusion_lon": 0.0, "lat": 38.9352765, "name": "0ea986f4c11ebdca16594742debf8821", "bike_id": "0ea986f4c11ebdca16594742debf8821", "lon": -77.0234995, "fusion_lat": 0.0, "rental_uris": {"android": "https://dc.lft.to/lastmile_qr_scan", "ios": "https://dc.lft.to/lastmile_qr_scan"}, "type": "electric_scooter"}, {"is_reserved": 0, "is_disabled": 0, "fusion_lon": 0.0, "lat": 38.9240895, "name": "2345dd6a5db8487360b91df173b9a2d6", "bike_id": "2345dd6a5db8487360b91df173b9a2d6", "lon": -77.02034733333333, "fusion_lat": 0.0, "rental_uris": {"android": "https://dc.lft.to/lastmile_qr_scan", "ios": "https://dc.lft.to/lastmile_qr_scan"}, "type": "electric_scooter"}, {"is_reserved": 0, "is_disabled": 0, "fusion_lon": 0.0, "lat": 38.91947716666667, "name": "22d2ca1e60506bed2acfa2646b571804", "bike_id": "22d2ca1e60506bed2acfa2646b571804", "lon": -77.01793133333334, "fusion_lat": 0.0, "rental_uris": {"android": "https://dc.lft.to/lastmile_qr_scan", "ios": "https://dc.lft.to/lastmile_qr_scan"}, "type": "electric_scooter"}, {"is_reserved": 0, "is_disabled": 0, "fusion_lon": 0.0, "lat": 38.9134765, "name": "375d6e9db5962254a6a08c87f737cda8", "bike_id": "375d6e9db5962254a6a08c87f737cda8", "lon": -77.02049433333333, "fusion_lat": 0.0, "rental_uris": {"android": "https://dc.lft.to/lastmile_qr_scan", "ios": "https://dc.lft.to/lastmile_qr_scan"}, "type": "electric_scooter"}, {"is_reserved": 0, "is_disabled": 0, "fusion_lon": 0.0, "lat": 38.91327116666667, "name": "29e8a7085602e984efa99d273878d2f2", "bike_id": "29e8a7085602e984efa99d273878d2f2", "lon": -77.045439, "fusion_lat": 0.0, "rental_uris": {"android": "https://dc.lft.to/lastmile_qr_scan", "ios": "https://dc.lft.to/lastmile_qr_scan"}, "type": "electric_scooter"}, {"is_reserved": 0, "is_disabled": 0, "fusion_lon": 0.0, "lat": 38.929680833333336, "name": "6f01844b82d4c4a04e685cf6f51276fa", "bike_id": "6f01844b82d4c4a04e685cf6f51276fa", "lon": -77.04110866666667, "fusion_lat": 0.0, "rental_uris": {"android": "https://dc.lft.to/lastmile_qr_scan", "ios": "https://dc.lft.to/lastmile_qr_scan"}, "type": "electric_scooter"}, {"is_reserved": 0, "is_disabled": 0, "fusion_lon": 0.0, "lat": 38.923692833333334, "name": "4bd926298f096d1dbe5a313be12dd7cb", "bike_id": "4bd926298f096d1dbe5a313be12dd7cb", "lon": -77.02980166666667, "fusion_lat": 0.0, "rental_uris": {"android": "https://dc.lft.to/lastmile_qr_scan", "ios": "https://dc.lft.to/lastmile_qr_scan"}, "type": "electric_scooter"}, {"is_reserved": 0, "is_disabled": 0, "fusion_lon": 0.0, "lat": 38.90702233333333, "name": "5f74292d02c3d7b5f4d8b1fc825b625c", "bike_id": "5f74292d02c3d7b5f4d8b1fc825b625c", "lon": -77.000834, "fusion_lat": 0.0, "rental_uris": {"android": "https://dc.lft.to/lastmile_qr_scan", "ios": "https://dc.lft.to/lastmile_qr_scan"}, "type": "electric_bike"}, {"is_reserved": 0, "is_disabled": 0, "fusion_lon": 0.0, "lat": 39.003779333333334, "name": "9015085412580d78a30156aa2c5896bd", "bike_id": "9015085412580d78a30156aa2c5896bd", "lon": -77.012944, "fusion_lat": 0.0, "rental_uris": {"android": "https://dc.lft.to/lastmile_qr_scan", "ios": "https://dc.lft.to/lastmile_qr_scan"}, "type": "electric_bike"}, {"is_reserved": 0, "is_disabled": 0, "fusion_lon": 0.0, "lat": 38.90262083333333, "name": "7c2db31b71ae95c754a3a769d92bbac8", "bike_id": "7c2db31b71ae95c754a3a769d92bbac8", "lon": -77.01754333333334, "fusion_lat": 0.0, "rental_uris": {"android": "https://dc.lft.to/lastmile_qr_scan", "ios": "https://dc.lft.to/lastmile_qr_scan"}, "type": "electric_scooter"}, {"is_reserved": 0, "is_disabled": 0, "fusion_lon": 0.0, "lat": 38.93384833333333, "name": "db6c1df8789f2f4fb7741cbc15e8b4db", "bike_id": "db6c1df8789f2f4fb7741cbc15e8b4db", "lon": -77.026416, "fusion_lat": 0.0, "rental_uris": {"android": "https://dc.lft.to/lastmile_qr_scan", "ios": "https://dc.lft.to/lastmile_qr_scan"}, "type": "electric_scooter"}, {"is_reserved": 0, "is_disabled": 0, "fusion_lon": 0.0, "lat": 38.91685116666667, "name": "ec52a9dc9537a7c9f2215b81a128763f", "bike_id": "ec52a9dc9537a7c9f2215b81a128763f", "lon": -77.0376845, "fusion_lat": 0.0, "rental_uris": {"android": "https://dc.lft.to/lastmile_qr_scan", "ios": "https://dc.lft.to/lastmile_qr_scan"}, "type": "electric_scooter"}, {"is_reserved": 0, "is_disabled": 0, "fusion_lon": 0.0, "lat": 38.90336716666667, "name": "4369621118a978d1dca2f8605b64b4c4", "bike_id": "4369621118a978d1dca2f8605b64b4c4", "lon": -76.975775, "fusion_lat": 0.0, "rental_uris": {"android": "https://dc.lft.to/lastmile_qr_scan", "ios": "https://dc.lft.to/lastmile_qr_scan"}, "type": "electric_scooter"}, {"is_reserved": 0, "is_disabled": 0, "fusion_lon": 0.0, "lat": 38.921472, "name": "e1d9472dc03872f7686439703a44afc1", "bike_id": "e1d9472dc03872f7686439703a44afc1", "lon": -77.03506716666666, "fusion_lat": 0.0, "rental_uris": {"android": "https://dc.lft.to/lastmile_qr_scan", "ios": "https://dc.lft.to/lastmile_qr_scan"}, "type": "electric_scooter"}, {"is_reserved": 0, "is_disabled": 0, "fusion_lon": 0.0, "lat": 38.837430499999996, "name": "eb84de4ade8bb6de5fc610b09387637c", "bike_id": "eb84de4ade8bb6de5fc610b09387637c", "lon": -76.99862616666667, "fusion_lat": 0.0, "rental_uris": {"android": "https://dc.lft.to/lastmile_qr_scan", "ios": "https://dc.lft.to/lastmile_qr_scan"}, "type": "electric_scooter"}, {"is_reserved": 0, "is_disabled": 0, "fusion_lon": 0.0, "lat": 38.89224816666667, "name": "bf1b77bbc71954131f689c215d27dec2", "bike_id": "bf1b77bbc71954131f689c215d27dec2", "lon": -77.02634783333333, "fusion_lat": 0.0, "rental_uris": {"android": "https://dc.lft.to/lastmile_qr_scan", "ios": "https://dc.lft.to/lastmile_qr_scan"}, "type": "electric_scooter"}, {"is_reserved": 0, "is_disabled": 0, "fusion_lon": 0.0, "lat": 38.89490816666667, "name": "cf85eb9ea7d7d79d5d605ff34eb05453", "bike_id": "cf85eb9ea7d7d79d5d605ff34eb05453", "lon": -76.94893666666667, "fusion_lat": 0.0, "rental_uris": {"android": "https://dc.lft.to/lastmile_qr_scan", "ios": "https://dc.lft.to/lastmile_qr_scan"}, "type": "electric_scooter"}, {"is_reserved": 0, "is_disabled": 0, "fusion_lon": 0.0, "lat": 38.879427166666666, "name": "508d80ca6a72c438140375a05b43a9d2", "bike_id": "508d80ca6a72c438140375a05b43a9d2", "lon": -76.98382416666666, "fusion_lat": 0.0, "rental_uris": {"android": "https://dc.lft.to/lastmile_qr_scan", "ios": "https://dc.lft.to/lastmile_qr_scan"}, "type": "electric_scooter"}, {"is_reserved": 0, "is_disabled": 0, "fusion_lon": 0.0, "lat": 38.883719, "name": "3d49c88dade1b6a16ce924872a5b42f1", "bike_id": "3d49c88dade1b6a16ce924872a5b42f1", "lon": -76.99520966666667, "fusion_lat": 0.0, "rental_uris": {"android": "https://dc.lft.to/lastmile_qr_scan", "ios": "https://dc.lft.to/lastmile_qr_scan"}, "type": "electric_scooter"}, {"is_reserved": 0, "is_disabled": 0, "fusion_lon": 0.0, "lat": 38.915554166666666, "name": "28b4cdde9506924e67e44f624c9e74a4", "bike_id": "28b4cdde9506924e67e44f624c9e74a4", "lon": -77.051031, "fusion_lat": 0.0, "rental_uris": {"android": "https://dc.lft.to/lastmile_qr_scan", "ios": "https://dc.lft.to/lastmile_qr_scan"}, "type": "electric_scooter"}, {"is_reserved": 0, "is_disabled": 0, "fusion_lon": 0.0, "lat": 38.8973515, "name": "0c44275022f468f5c899483d8acfabc7", "bike_id": "0c44275022f468f5c899483d8acfabc7", "lon": -77.02972383333334, "fusion_lat": 0.0, "rental_uris": {"android": "https://dc.lft.to/lastmile_qr_scan", "ios": "https://dc.lft.to/lastmile_qr_scan"}, "type": "electric_scooter"}, {"is_reserved": 0, "is_disabled": 0, "fusion_lon": 0.0, "lat": 38.88966716666667, "name": "2e6870fdc14ba7803eb1c56d6299e225", "bike_id": "2e6870fdc14ba7803eb1c56d6299e225", "lon": -76.9803725, "fusion_lat": 0.0, "rental_uris": {"android": "https://dc.lft.to/lastmile_qr_scan", "ios": "https://dc.lft.to/lastmile_qr_scan"}, "type": "electric_scooter"}, {"is_reserved": 0, "is_disabled": 0, "fusion_lon": 0.0, "lat": 38.9102325, "name": "010e5739bece2a0413076065fbaa7c07", "bike_id": "010e5739bece2a0413076065fbaa7c07", "lon": -77.03250966666667, "fusion_lat": 0.0, "rental_uris": {"android": "https://dc.lft.to/lastmile_qr_scan", "ios": "https://dc.lft.to/lastmile_qr_scan"}, "type": "electric_scooter"}, {"is_reserved": 0, "is_disabled": 0, "fusion_lon": 0.0, "lat": 38.941527666666666, "name": "74d030a8843dc21af6c1728c2abc4e80", "bike_id": "74d030a8843dc21af6c1728c2abc4e80", "lon": -77.002002, "fusion_lat": 0.0, "rental_uris": {"android": "https://dc.lft.to/lastmile_qr_scan", "ios": "https://dc.lft.to/lastmile_qr_scan"}, "type": "electric_bike"}, {"is_reserved": 0, "is_disabled": 0, "fusion_lon": 0.0, "lat": 38.895247499999996, "name": "c8c8a4e04557251eeaaae3435dfe100f", "bike_id": "c8c8a4e04557251eeaaae3435dfe100f", "lon": -77.04483583333334, "fusion_lat": 0.0, "rental_uris": {"android": "https://dc.lft.to/lastmile_qr_scan", "ios": "https://dc.lft.to/lastmile_qr_scan"}, "type": "electric_scooter"}, {"is_reserved": 0, "is_disabled": 0, "fusion_lon": 0.0, "lat": 38.90682283333334, "name": "87a51c38c785b553db6fff938cf8cfea", "bike_id": "87a51c38c785b553db6fff938cf8cfea", "lon": -77.05021366666666, "fusion_lat": 0.0, "rental_uris": {"android": "https://dc.lft.to/lastmile_qr_scan", "ios": "https://dc.lft.to/lastmile_qr_scan"}, "type": "electric_scooter"}, {"is_reserved": 0, "is_disabled": 0, "fusion_lon": 0.0, "lat": 38.913267833333336, "name": "20cd4a71ef2a207b18eabcf900dbd2d0", "bike_id": "20cd4a71ef2a207b18eabcf900dbd2d0", "lon": -77.0453345, "fusion_lat": 0.0, "rental_uris": {"android": "https://dc.lft.to/lastmile_qr_scan", "ios": "https://dc.lft.to/lastmile_qr_scan"}, "type": "electric_scooter"}, {"is_reserved": 0, "is_disabled": 0, "fusion_lon": 0.0, "lat": 38.846728666666664, "name": "118fdb79eaf9c59a1b29403a5329d7c4", "bike_id": "118fdb79eaf9c59a1b29403a5329d7c4", "lon": -77.13919716666666, "fusion_lat": 0.0, "rental_uris": {"android": "https://dc.lft.to/lastmile_qr_scan", "ios": "https://dc.lft.to/lastmile_qr_scan"}, "type": "electric_bike"}, {"is_reserved": 0, "is_disabled": 0, "fusion_lon": 0.0, "lat": 38.92458383333334, "name": "e77672a0757910e64c1fa57c46ae911b", "bike_id": "e77672a0757910e64c1fa57c46ae911b", "lon": -77.052299, "fusion_lat": 0.0, "rental_uris": {"android": "https://dc.lft.to/lastmile_qr_scan", "ios": "https://dc.lft.to/lastmile_qr_scan"}, "type": "electric_scooter"}, {"is_reserved": 0, "is_disabled": 0, "fusion_lon": 0.0, "lat": 38.90568416666667, "name": "3fc6f387d9d9de937b0c897a3ac777a0", "bike_id": "3fc6f387d9d9de937b0c897a3ac777a0", "lon": -77.0570185, "fusion_lat": 0.0, "rental_uris": {"android": "https://dc.lft.to/lastmile_qr_scan", "ios": "https://dc.lft.to/lastmile_qr_scan"}, "type": "electric_scooter"}, {"is_reserved": 0, "is_disabled": 0, "fusion_lon": 0.0, "lat": 38.90238266666667, "name": "dc647a4be2d9ffca03bd5c17e360518f", "bike_id": "dc647a4be2d9ffca03bd5c17e360518f", "lon": -77.05912083333334, "fusion_lat": 0.0, "rental_uris": {"android": "https://dc.lft.to/lastmile_qr_scan", "ios": "https://dc.lft.to/lastmile_qr_scan"}, "type": "electric_scooter"}, {"is_reserved": 0, "is_disabled": 0, "fusion_lon": 0.0, "lat": 38.90982016666667, "name": "1ca12d014e684a16eba6c364f113f223", "bike_id": "1ca12d014e684a16eba6c364f113f223", "lon": -77.03186016666666, "fusion_lat": 0.0, "rental_uris": {"android": "https://dc.lft.to/lastmile_qr_scan", "ios": "https://dc.lft.to/lastmile_qr_scan"}, "type": "electric_scooter"}, {"is_reserved": 0, "is_disabled": 0, "fusion_lon": 0.0, "lat": 38.91301983333334, "name": "d59aeb25d142f4d69d6ca2ae6aa09eda", "bike_id": "d59aeb25d142f4d69d6ca2ae6aa09eda", "lon": -77.04354316666667, "fusion_lat": 0.0, "rental_uris": {"android": "https://dc.lft.to/lastmile_qr_scan", "ios": "https://dc.lft.to/lastmile_qr_scan"}, "type": "electric_scooter"}, {"is_reserved": 0, "is_disabled": 0, "fusion_lon": 0.0, "lat": 38.908532666666666, "name": "de56f22a6eec0657b60a47204e115702", "bike_id": "de56f22a6eec0657b60a47204e115702", "lon": -77.0240475, "fusion_lat": 0.0, "rental_uris": {"android": "https://dc.lft.to/lastmile_qr_scan", "ios": "https://dc.lft.to/lastmile_qr_scan"}, "type": "electric_scooter"}, {"is_reserved": 0, "is_disabled": 0, "fusion_lon": 0.0, "lat": 38.917038833333336, "name": "3e8832d09b3358bbc63f9d9b7d32f66c", "bike_id": "3e8832d09b3358bbc63f9d9b7d32f66c", "lon": -77.038636, "fusion_lat": 0.0, "rental_uris": {"android": "https://dc.lft.to/lastmile_qr_scan", "ios": "https://dc.lft.to/lastmile_qr_scan"}, "type": "electric_scooter"}, {"is_reserved": 0, "is_disabled": 0, "fusion_lon": 0.0, "lat": 38.87448883333333, "name": "111ce8993c3e4ae83d9e8c019ed2926c", "bike_id": "111ce8993c3e4ae83d9e8c019ed2926c", "lon": -77.00064966666666, "fusion_lat": 0.0, "rental_uris": {"android": "https://dc.lft.to/lastmile_qr_scan", "ios": "https://dc.lft.to/lastmile_qr_scan"}, "type": "electric_scooter"}, {"is_reserved": 0, "is_disabled": 0, "fusion_lon": 0.0, "lat": 38.9325065, "name": "b56c80ea3f48755e7d7ce5a33d98eed1", "bike_id": "b56c80ea3f48755e7d7ce5a33d98eed1", "lon": -77.03865983333333, "fusion_lat": 0.0, "rental_uris": {"android": "https://dc.lft.to/lastmile_qr_scan", "ios": "https://dc.lft.to/lastmile_qr_scan"}, "type": "electric_scooter"}, {"is_reserved": 0, "is_disabled": 0, "fusion_lon": 0.0, "lat": 38.91737766666667, "name": "b1c4d7237941d9633d1e4d25cc334e70", "bike_id": "b1c4d7237941d9633d1e4d25cc334e70", "lon": -77.02308283333333, "fusion_lat": 0.0, "rental_uris": {"android": "https://dc.lft.to/lastmile_qr_scan", "ios": "https://dc.lft.to/lastmile_qr_scan"}, "type": "electric_scooter"}, {"is_reserved": 0, "is_disabled": 0, "fusion_lon": 0.0, "lat": 38.89672783333333, "name": "05b191a638fbb0ed879538d21ff4ccea", "bike_id": "05b191a638fbb0ed879538d21ff4ccea", "lon": -76.981627, "fusion_lat": 0.0, "rental_uris": {"android": "https://dc.lft.to/lastmile_qr_scan", "ios": "https://dc.lft.to/lastmile_qr_scan"}, "type": "electric_bike"}, {"is_reserved": 0, "is_disabled": 0, "fusion_lon": 0.0, "lat": 38.91405316666667, "name": "478d5ccdd9637482f4652dbfec53284d", "bike_id": "478d5ccdd9637482f4652dbfec53284d", "lon": -77.01815966666666, "fusion_lat": 0.0, "rental_uris": {"android": "https://dc.lft.to/lastmile_qr_scan", "ios": "https://dc.lft.to/lastmile_qr_scan"}, "type": "electric_scooter"}, {"is_reserved": 0, "is_disabled": 0, "fusion_lon": 0.0, "lat": 38.921142833333334, "name": "f4cbb3d70d43e6080e0677d49041a382", "bike_id": "f4cbb3d70d43e6080e0677d49041a382", "lon": -76.9888135, "fusion_lat": 0.0, "rental_uris": {"android": "https://dc.lft.to/lastmile_qr_scan", "ios": "https://dc.lft.to/lastmile_qr_scan"}, "type": "electric_bike"}, {"is_reserved": 0, "is_disabled": 0, "fusion_lon": 0.0, "lat": 38.8802575, "name": "7eb9f6ebe6bc7e49948cc0d7b66f29b7", "bike_id": "7eb9f6ebe6bc7e49948cc0d7b66f29b7", "lon": -77.00573066666666, "fusion_lat": 0.0, "rental_uris": {"android": "https://dc.lft.to/lastmile_qr_scan", "ios": "https://dc.lft.to/lastmile_qr_scan"}, "type": "electric_scooter"}, {"is_reserved": 0, "is_disabled": 0, "fusion_lon": 0.0, "lat": 38.9328395, "name": "36ca1d3733de7ef3d6c7de804a8e27e6", "bike_id": "36ca1d3733de7ef3d6c7de804a8e27e6", "lon": -77.02541366666667, "fusion_lat": 0.0, "rental_uris": {"android": "https://dc.lft.to/lastmile_qr_scan", "ios": "https://dc.lft.to/lastmile_qr_scan"}, "type": "electric_scooter"}, {"is_reserved": 0, "is_disabled": 0, "fusion_lon": 0.0, "lat": 38.929265, "name": "0225b86a59c0ee65509ca745e354d5b9", "bike_id": "0225b86a59c0ee65509ca745e354d5b9", "lon": -77.00678283333333, "fusion_lat": 0.0, "rental_uris": {"android": "https://dc.lft.to/lastmile_qr_scan", "ios": "https://dc.lft.to/lastmile_qr_scan"}, "type": "electric_scooter"}, {"is_reserved": 0, "is_disabled": 0, "fusion_lon": 0.0, "lat": 38.957772166666665, "name": "1ae1f5c3daf0d1291c89b51d5537cc6b", "bike_id": "1ae1f5c3daf0d1291c89b51d5537cc6b", "lon": -77.0283465, "fusion_lat": 0.0, "rental_uris": {"android": "https://dc.lft.to/lastmile_qr_scan", "ios": "https://dc.lft.to/lastmile_qr_scan"}, "type": "electric_scooter"}, {"is_reserved": 0, "is_disabled": 0, "fusion_lon": 0.0, "lat": 38.8840285, "name": "16cf2120fcbe338839702cbcbcfdb23e", "bike_id": "16cf2120fcbe338839702cbcbcfdb23e", "lon": -76.98588483333333, "fusion_lat": 0.0, "rental_uris": {"android": "https://dc.lft.to/lastmile_qr_scan", "ios": "https://dc.lft.to/lastmile_qr_scan"}, "type": "electric_scooter"}, {"is_reserved": 0, "is_disabled": 0, "fusion_lon": 0.0, "lat": 38.92575933333333, "name": "d8e7676ad6b4e880af078f506db6ad84", "bike_id": "d8e7676ad6b4e880af078f506db6ad84", "lon": -77.03796333333334, "fusion_lat": 0.0, "rental_uris": {"android": "https://dc.lft.to/lastmile_qr_scan", "ios": "https://dc.lft.to/lastmile_qr_scan"}, "type": "electric_scooter"}, {"is_reserved": 0, "is_disabled": 0, "fusion_lon": 0.0, "lat": 38.922498, "name": "e2dc612f6097847f4e8a1df61ad40ea3", "bike_id": "e2dc612f6097847f4e8a1df61ad40ea3", "lon": -77.030834, "fusion_lat": 0.0, "rental_uris": {"android": "https://dc.lft.to/lastmile_qr_scan", "ios": "https://dc.lft.to/lastmile_qr_scan"}, "type": "electric_scooter"}, {"is_reserved": 0, "is_disabled": 0, "fusion_lon": 0.0, "lat": 38.90409283333334, "name": "414622145b36945b42fc92f36fed9366", "bike_id": "414622145b36945b42fc92f36fed9366", "lon": -77.02581683333334, "fusion_lat": 0.0, "rental_uris": {"android": "https://dc.lft.to/lastmile_qr_scan", "ios": "https://dc.lft.to/lastmile_qr_scan"}, "type": "electric_scooter"}, {"is_reserved": 0, "is_disabled": 0, "fusion_lon": 0.0, "lat": 38.8975885, "name": "99267e02d44e78b4f9cb8bb5a21148fe", "bike_id": "99267e02d44e78b4f9cb8bb5a21148fe", "lon": -77.02703933333333, "fusion_lat": 0.0, "rental_uris": {"android": "https://dc.lft.to/lastmile_qr_scan", "ios": "https://dc.lft.to/lastmile_qr_scan"}, "type": "electric_scooter"}, {"is_reserved": 0, "is_disabled": 0, "fusion_lon": 0.0, "lat": 38.926708, "name": "ba7a930d85b36ab1f5f4e0649d981f6d", "bike_id": "ba7a930d85b36ab1f5f4e0649d981f6d", "lon": -77.027639, "fusion_lat": 0.0, "rental_uris": {"android": "https://dc.lft.to/lastmile_qr_scan", "ios": "https://dc.lft.to/lastmile_qr_scan"}, "type": "electric_scooter"}, {"is_reserved": 0, "is_disabled": 0, "fusion_lon": 0.0, "lat": 38.908561, "name": "bca120f428318a605b83a5fe5b8fa9e5", "bike_id": "bca120f428318a605b83a5fe5b8fa9e5", "lon": -76.9967235, "fusion_lat": 0.0, "rental_uris": {"android": "https://dc.lft.to/lastmile_qr_scan", "ios": "https://dc.lft.to/lastmile_qr_scan"}, "type": "electric_scooter"}, {"is_reserved": 0, "is_disabled": 0, "fusion_lon": 0.0, "lat": 38.892216833333336, "name": "8f425b84b88db5046da63d757feba80d", "bike_id": "8f425b84b88db5046da63d757feba80d", "lon": -77.04506683333334, "fusion_lat": 0.0, "rental_uris": {"android": "https://dc.lft.to/lastmile_qr_scan", "ios": "https://dc.lft.to/lastmile_qr_scan"}, "type": "electric_scooter"}, {"is_reserved": 0, "is_disabled": 0, "fusion_lon": 0.0, "lat": 38.93464183333333, "name": "659ff83e7d3bcea70bbd5242361f6768", "bike_id": "659ff83e7d3bcea70bbd5242361f6768", "lon": -77.0581075, "fusion_lat": 0.0, "rental_uris": {"android": "https://dc.lft.to/lastmile_qr_scan", "ios": "https://dc.lft.to/lastmile_qr_scan"}, "type": "electric_scooter"}, {"is_reserved": 0, "is_disabled": 0, "fusion_lon": 0.0, "lat": 38.905248, "name": "d362eae0e295b00324fee57b39782c00", "bike_id": "d362eae0e295b00324fee57b39782c00", "lon": -77.02964616666667, "fusion_lat": 0.0, "rental_uris": {"android": "https://dc.lft.to/lastmile_qr_scan", "ios": "https://dc.lft.to/lastmile_qr_scan"}, "type": "electric_scooter"}, {"is_reserved": 0, "is_disabled": 0, "fusion_lon": 0.0, "lat": 38.948515666666665, "name": "7266ed80a4fd46bd04c2e3ebe806e69c", "bike_id": "7266ed80a4fd46bd04c2e3ebe806e69c", "lon": -77.06546016666667, "fusion_lat": 0.0, "rental_uris": {"android": "https://dc.lft.to/lastmile_qr_scan", "ios": "https://dc.lft.to/lastmile_qr_scan"}, "type": "electric_scooter"}, {"is_reserved": 0, "is_disabled": 0, "fusion_lon": 0.0, "lat": 38.901143833333336, "name": "021eefd6b41197a47446c74c57c5fbd6", "bike_id": "021eefd6b41197a47446c74c57c5fbd6", "lon": -77.04878766666667, "fusion_lat": 0.0, "rental_uris": {"android": "https://dc.lft.to/lastmile_qr_scan", "ios": "https://dc.lft.to/lastmile_qr_scan"}, "type": "electric_scooter"}, {"is_reserved": 0, "is_disabled": 0, "fusion_lon": 0.0, "lat": 38.95679466666667, "name": "4d936e919a9aa0a82cf88c5510153a5b", "bike_id": "4d936e919a9aa0a82cf88c5510153a5b", "lon": -77.0223905, "fusion_lat": 0.0, "rental_uris": {"android": "https://dc.lft.to/lastmile_qr_scan", "ios": "https://dc.lft.to/lastmile_qr_scan"}, "type": "electric_scooter"}, {"is_reserved": 0, "is_disabled": 0, "fusion_lon": 0.0, "lat": 38.8847575, "name": "ade6d5a4c1dfacb6ecab4e41f43008c0", "bike_id": "ade6d5a4c1dfacb6ecab4e41f43008c0", "lon": -77.019823, "fusion_lat": 0.0, "rental_uris": {"android": "https://dc.lft.to/lastmile_qr_scan", "ios": "https://dc.lft.to/lastmile_qr_scan"}, "type": "electric_scooter"}, {"is_reserved": 0, "is_disabled": 0, "fusion_lon": 0.0, "lat": 38.894811833333335, "name": "65d2af56d5bc7359fac41f4d8f9a1a69", "bike_id": "65d2af56d5bc7359fac41f4d8f9a1a69", "lon": -76.99519266666667, "fusion_lat": 0.0, "rental_uris": {"android": "https://dc.lft.to/lastmile_qr_scan", "ios": "https://dc.lft.to/lastmile_qr_scan"}, "type": "electric_scooter"}, {"is_reserved": 0, "is_disabled": 0, "fusion_lon": 0.0, "lat": 38.8844065, "name": "0d66da784778a68e49a3e846560fbdfe", "bike_id": "0d66da784778a68e49a3e846560fbdfe", "lon": -76.95767433333333, "fusion_lat": 0.0, "rental_uris": {"android": "https://dc.lft.to/lastmile_qr_scan", "ios": "https://dc.lft.to/lastmile_qr_scan"}, "type": "electric_scooter"}, {"is_reserved": 0, "is_disabled": 0, "fusion_lon": 0.0, "lat": 38.915566, "name": "0af5066802a9495ab02904a7bbea23a2", "bike_id": "0af5066802a9495ab02904a7bbea23a2", "lon": -77.02050716666666, "fusion_lat": 0.0, "rental_uris": {"android": "https://dc.lft.to/lastmile_qr_scan", "ios": "https://dc.lft.to/lastmile_qr_scan"}, "type": "electric_scooter"}, {"is_reserved": 0, "is_disabled": 0, "fusion_lon": 0.0, "lat": 38.91216166666667, "name": "522f4e5aadb6738d92de0cefe5095621", "bike_id": "522f4e5aadb6738d92de0cefe5095621", "lon": -77.07596166666667, "fusion_lat": 0.0, "rental_uris": {"android": "https://dc.lft.to/lastmile_qr_scan", "ios": "https://dc.lft.to/lastmile_qr_scan"}, "type": "electric_scooter"}, {"is_reserved": 0, "is_disabled": 0, "fusion_lon": 0.0, "lat": 38.87477366666667, "name": "9e3f01471905086cef0c67cbce885bc4", "bike_id": "9e3f01471905086cef0c67cbce885bc4", "lon": -76.965308, "fusion_lat": 0.0, "rental_uris": {"android": "https://dc.lft.to/lastmile_qr_scan", "ios": "https://dc.lft.to/lastmile_qr_scan"}, "type": "electric_bike"}, {"is_reserved": 0, "is_disabled": 0, "fusion_lon": 0.0, "lat": 38.895596166666664, "name": "8a6710722a3df7be1b58d0c412617d01", "bike_id": "8a6710722a3df7be1b58d0c412617d01", "lon": -76.94901483333334, "fusion_lat": 0.0, "rental_uris": {"android": "https://dc.lft.to/lastmile_qr_scan", "ios": "https://dc.lft.to/lastmile_qr_scan"}, "type": "electric_scooter"}, {"is_reserved": 0, "is_disabled": 0, "fusion_lon": 0.0, "lat": 38.87572266666667, "name": "8bc61adeda748990eb74c305c07ac8f0", "bike_id": "8bc61adeda748990eb74c305c07ac8f0", "lon": -77.005752, "fusion_lat": 0.0, "rental_uris": {"android": "https://dc.lft.to/lastmile_qr_scan", "ios": "https://dc.lft.to/lastmile_qr_scan"}, "type": "electric_scooter"}, {"is_reserved": 0, "is_disabled": 0, "fusion_lon": 0.0, "lat": 38.876799166666665, "name": "92b22a4edfbefaaf9f076ab8babc7366", "bike_id": "92b22a4edfbefaaf9f076ab8babc7366", "lon": -77.00072483333334, "fusion_lat": 0.0, "rental_uris": {"android": "https://dc.lft.to/lastmile_qr_scan", "ios": "https://dc.lft.to/lastmile_qr_scan"}, "type": "electric_scooter"}, {"is_reserved": 0, "is_disabled": 0, "fusion_lon": 0.0, "lat": 38.85937916666666, "name": "113e4aaef8150dff0fdcf8bbb4e1d4c3", "bike_id": "113e4aaef8150dff0fdcf8bbb4e1d4c3", "lon": -76.9845, "fusion_lat": 0.0, "rental_uris": {"android": "https://dc.lft.to/lastmile_qr_scan", "ios": "https://dc.lft.to/lastmile_qr_scan"}, "type": "electric_scooter"}, {"is_reserved": 0, "is_disabled": 0, "fusion_lon": 0.0, "lat": 38.908228, "name": "265bec013cce6cfa52705748061a8320", "bike_id": "265bec013cce6cfa52705748061a8320", "lon": -77.06379416666667, "fusion_lat": 0.0, "rental_uris": {"android": "https://dc.lft.to/lastmile_qr_scan", "ios": "https://dc.lft.to/lastmile_qr_scan"}, "type": "electric_scooter"}, {"is_reserved": 0, "is_disabled": 0, "fusion_lon": 0.0, "lat": 38.899270333333334, "name": "57d7ea330e7fa15f6ce99e6ef781d798", "bike_id": "57d7ea330e7fa15f6ce99e6ef781d798", "lon": -77.02472883333333, "fusion_lat": 0.0, "rental_uris": {"android": "https://dc.lft.to/lastmile_qr_scan", "ios": "https://dc.lft.to/lastmile_qr_scan"}, "type": "electric_scooter"}, {"is_reserved": 0, "is_disabled": 0, "fusion_lon": 0.0, "lat": 38.9232935, "name": "9ec81433ed3d3b2a6c1e7968375c0af2", "bike_id": "9ec81433ed3d3b2a6c1e7968375c0af2", "lon": -77.056765, "fusion_lat": 0.0, "rental_uris": {"android": "https://dc.lft.to/lastmile_qr_scan", "ios": "https://dc.lft.to/lastmile_qr_scan"}, "type": "electric_scooter"}, {"is_reserved": 0, "is_disabled": 0, "fusion_lon": 0.0, "lat": 38.920812, "name": "bd88ba578ba2725844339dc8a70128c1", "bike_id": "bd88ba578ba2725844339dc8a70128c1", "lon": -77.023078, "fusion_lat": 0.0, "rental_uris": {"android": "https://dc.lft.to/lastmile_qr_scan", "ios": "https://dc.lft.to/lastmile_qr_scan"}, "type": "electric_scooter"}, {"is_reserved": 0, "is_disabled": 0, "fusion_lon": 0.0, "lat": 38.92761683333333, "name": "8bbc2ba42b667359ac89ca88b6383b71", "bike_id": "8bbc2ba42b667359ac89ca88b6383b71", "lon": -77.02783166666667, "fusion_lat": 0.0, "rental_uris": {"android": "https://dc.lft.to/lastmile_qr_scan", "ios": "https://dc.lft.to/lastmile_qr_scan"}, "type": "electric_scooter"}, {"is_reserved": 0, "is_disabled": 0, "fusion_lon": 0.0, "lat": 38.86867866666667, "name": "1ec96b884df6d6d8e489ff4bba45a6c0", "bike_id": "1ec96b884df6d6d8e489ff4bba45a6c0", "lon": -76.986666, "fusion_lat": 0.0, "rental_uris": {"android": "https://dc.lft.to/lastmile_qr_scan", "ios": "https://dc.lft.to/lastmile_qr_scan"}, "type": "electric_scooter"}, {"is_reserved": 0, "is_disabled": 0, "fusion_lon": 0.0, "lat": 38.921384333333336, "name": "0ffd130ee855aaefdba638517229cb8c", "bike_id": "0ffd130ee855aaefdba638517229cb8c", "lon": -77.0122255, "fusion_lat": 0.0, "rental_uris": {"android": "https://dc.lft.to/lastmile_qr_scan", "ios": "https://dc.lft.to/lastmile_qr_scan"}, "type": "electric_scooter"}, {"is_reserved": 0, "is_disabled": 0, "fusion_lon": 0.0, "lat": 38.919161333333335, "name": "1e156a8c1b57f1a7f4db129335f32295", "bike_id": "1e156a8c1b57f1a7f4db129335f32295", "lon": -77.0339005, "fusion_lat": 0.0, "rental_uris": {"android": "https://dc.lft.to/lastmile_qr_scan", "ios": "https://dc.lft.to/lastmile_qr_scan"}, "type": "electric_scooter"}, {"is_reserved": 0, "is_disabled": 0, "fusion_lon": 0.0, "lat": 38.934499333333335, "name": "12fc1ca8a8bed6eefef69f9c37ef5b3f", "bike_id": "12fc1ca8a8bed6eefef69f9c37ef5b3f", "lon": -77.02362, "fusion_lat": 0.0, "rental_uris": {"android": "https://dc.lft.to/lastmile_qr_scan", "ios": "https://dc.lft.to/lastmile_qr_scan"}, "type": "electric_scooter"}, {"is_reserved": 0, "is_disabled": 0, "fusion_lon": 0.0, "lat": 38.911147666666665, "name": "5390fe0aa1b1165c401dc4f21b60ea4d", "bike_id": "5390fe0aa1b1165c401dc4f21b60ea4d", "lon": -77.038329, "fusion_lat": 0.0, "rental_uris": {"android": "https://dc.lft.to/lastmile_qr_scan", "ios": "https://dc.lft.to/lastmile_qr_scan"}, "type": "electric_scooter"}, {"is_reserved": 0, "is_disabled": 0, "fusion_lon": 0.0, "lat": 38.89727666666667, "name": "f2031babb8f82ce66b32164a15b5a3f6", "bike_id": "f2031babb8f82ce66b32164a15b5a3f6", "lon": -77.0552605, "fusion_lat": 0.0, "rental_uris": {"android": "https://dc.lft.to/lastmile_qr_scan", "ios": "https://dc.lft.to/lastmile_qr_scan"}, "type": "electric_scooter"}, {"is_reserved": 0, "is_disabled": 0, "fusion_lon": 0.0, "lat": 38.87708133333334, "name": "1f70d4ff8c8e6dccb3a47aff018afa3f", "bike_id": "1f70d4ff8c8e6dccb3a47aff018afa3f", "lon": -77.017645, "fusion_lat": 0.0, "rental_uris": {"android": "https://dc.lft.to/lastmile_qr_scan", "ios": "https://dc.lft.to/lastmile_qr_scan"}, "type": "electric_scooter"}, {"is_reserved": 0, "is_disabled": 0, "fusion_lon": 0.0, "lat": 38.9015135, "name": "7a589963730041ee6d49be683c220b07", "bike_id": "7a589963730041ee6d49be683c220b07", "lon": -77.03135616666667, "fusion_lat": 0.0, "rental_uris": {"android": "https://dc.lft.to/lastmile_qr_scan", "ios": "https://dc.lft.to/lastmile_qr_scan"}, "type": "electric_scooter"}, {"is_reserved": 0, "is_disabled": 0, "fusion_lon": 0.0, "lat": 38.906454833333335, "name": "e2219b39da93180b25e085eb5cffd862", "bike_id": "e2219b39da93180b25e085eb5cffd862", "lon": -77.01763183333334, "fusion_lat": 0.0, "rental_uris": {"android": "https://dc.lft.to/lastmile_qr_scan", "ios": "https://dc.lft.to/lastmile_qr_scan"}, "type": "electric_scooter"}, {"is_reserved": 0, "is_disabled": 0, "fusion_lon": 0.0, "lat": 38.915730833333335, "name": "adb9d412085971d29cd0683836a6680b", "bike_id": "adb9d412085971d29cd0683836a6680b", "lon": -77.03640483333334, "fusion_lat": 0.0, "rental_uris": {"android": "https://dc.lft.to/lastmile_qr_scan", "ios": "https://dc.lft.to/lastmile_qr_scan"}, "type": "electric_scooter"}, {"is_reserved": 0, "is_disabled": 0, "fusion_lon": 0.0, "lat": 38.854435333333335, "name": "b840e8b10d59ad7d6190e99f81081717", "bike_id": "b840e8b10d59ad7d6190e99f81081717", "lon": -77.0831855, "fusion_lat": 0.0, "rental_uris": {"android": "https://dc.lft.to/lastmile_qr_scan", "ios": "https://dc.lft.to/lastmile_qr_scan"}, "type": "electric_bike"}, {"is_reserved": 0, "is_disabled": 0, "fusion_lon": 0.0, "lat": 38.928637, "name": "22d45b9751856b025cacdaac58a9353b", "bike_id": "22d45b9751856b025cacdaac58a9353b", "lon": -77.05433866666667, "fusion_lat": 0.0, "rental_uris": {"android": "https://dc.lft.to/lastmile_qr_scan", "ios": "https://dc.lft.to/lastmile_qr_scan"}, "type": "electric_scooter"}, {"is_reserved": 0, "is_disabled": 0, "fusion_lon": 0.0, "lat": 38.89553166666666, "name": "ba636fb8dfcc4c75b3ef060567d31289", "bike_id": "ba636fb8dfcc4c75b3ef060567d31289", "lon": -77.009087, "fusion_lat": 0.0, "rental_uris": {"android": "https://dc.lft.to/lastmile_qr_scan", "ios": "https://dc.lft.to/lastmile_qr_scan"}, "type": "electric_scooter"}, {"is_reserved": 0, "is_disabled": 0, "fusion_lon": 0.0, "lat": 38.904386, "name": "2bfc32e1fc684b3e9d404282cb1d1073", "bike_id": "2bfc32e1fc684b3e9d404282cb1d1073", "lon": -77.036312, "fusion_lat": 0.0, "rental_uris": {"android": "https://dc.lft.to/lastmile_qr_scan", "ios": "https://dc.lft.to/lastmile_qr_scan"}, "type": "electric_scooter"}, {"is_reserved": 0, "is_disabled": 0, "fusion_lon": 0.0, "lat": 38.90398033333334, "name": "70ebcd602c1d57a9db6b0d388dc702d9", "bike_id": "70ebcd602c1d57a9db6b0d388dc702d9", "lon": -77.004344, "fusion_lat": 0.0, "rental_uris": {"android": "https://dc.lft.to/lastmile_qr_scan", "ios": "https://dc.lft.to/lastmile_qr_scan"}, "type": "electric_scooter"}, {"is_reserved": 0, "is_disabled": 0, "fusion_lon": 0.0, "lat": 38.932439333333335, "name": "4f39aa95ec727b75d00050ee7207c773", "bike_id": "4f39aa95ec727b75d00050ee7207c773", "lon": -77.03284066666667, "fusion_lat": 0.0, "rental_uris": {"android": "https://dc.lft.to/lastmile_qr_scan", "ios": "https://dc.lft.to/lastmile_qr_scan"}, "type": "electric_scooter"}, {"is_reserved": 0, "is_disabled": 0, "fusion_lon": 0.0, "lat": 38.9210065, "name": "a335cbade76b45ea51bed4a8ce3477b3", "bike_id": "a335cbade76b45ea51bed4a8ce3477b3", "lon": -77.017788, "fusion_lat": 0.0, "rental_uris": {"android": "https://dc.lft.to/lastmile_qr_scan", "ios": "https://dc.lft.to/lastmile_qr_scan"}, "type": "electric_scooter"}, {"is_reserved": 0, "is_disabled": 0, "fusion_lon": 0.0, "lat": 38.90715316666667, "name": "74fbce1ba87b4b9253a2e4b1d9f1bc7e", "bike_id": "74fbce1ba87b4b9253a2e4b1d9f1bc7e", "lon": -77.0297275, "fusion_lat": 0.0, "rental_uris": {"android": "https://dc.lft.to/lastmile_qr_scan", "ios": "https://dc.lft.to/lastmile_qr_scan"}, "type": "electric_scooter"}, {"is_reserved": 0, "is_disabled": 0, "fusion_lon": 0.0, "lat": 38.9016375, "name": "59806c329e152c3d8db66fc6fa0902a4", "bike_id": "59806c329e152c3d8db66fc6fa0902a4", "lon": -76.98077583333334, "fusion_lat": 0.0, "rental_uris": {"android": "https://dc.lft.to/lastmile_qr_scan", "ios": "https://dc.lft.to/lastmile_qr_scan"}, "type": "electric_scooter"}, {"is_reserved": 0, "is_disabled": 0, "fusion_lon": 0.0, "lat": 38.917070833333334, "name": "285f06d1299113e52eb51cf35950196a", "bike_id": "285f06d1299113e52eb51cf35950196a", "lon": -77.005141, "fusion_lat": 0.0, "rental_uris": {"android": "https://dc.lft.to/lastmile_qr_scan", "ios": "https://dc.lft.to/lastmile_qr_scan"}, "type": "electric_scooter"}, {"is_reserved": 0, "is_disabled": 0, "fusion_lon": 0.0, "lat": 38.8947445, "name": "331d368af995c1806316e2d60055d8b6", "bike_id": "331d368af995c1806316e2d60055d8b6", "lon": -76.99436616666667, "fusion_lat": 0.0, "rental_uris": {"android": "https://dc.lft.to/lastmile_qr_scan", "ios": "https://dc.lft.to/lastmile_qr_scan"}, "type": "electric_scooter"}, {"is_reserved": 0, "is_disabled": 0, "fusion_lon": 0.0, "lat": 38.91711983333333, "name": "5510f6f36296422899ea277291c96494", "bike_id": "5510f6f36296422899ea277291c96494", "lon": -77.03206283333333, "fusion_lat": 0.0, "rental_uris": {"android": "https://dc.lft.to/lastmile_qr_scan", "ios": "https://dc.lft.to/lastmile_qr_scan"}, "type": "electric_scooter"}, {"is_reserved": 0, "is_disabled": 0, "fusion_lon": 0.0, "lat": 38.92758, "name": "cd6a9ce59715f0f26d1fc831d9fc4153", "bike_id": "cd6a9ce59715f0f26d1fc831d9fc4153", "lon": -77.03207666666667, "fusion_lat": 0.0, "rental_uris": {"android": "https://dc.lft.to/lastmile_qr_scan", "ios": "https://dc.lft.to/lastmile_qr_scan"}, "type": "electric_scooter"}, {"is_reserved": 0, "is_disabled": 0, "fusion_lon": 0.0, "lat": 38.99893083333333, "name": "dbb9edfc09c2b2f141005d5dcd2bf1b6", "bike_id": "dbb9edfc09c2b2f141005d5dcd2bf1b6", "lon": -76.90859116666667, "fusion_lat": 0.0, "rental_uris": {"android": "https://dc.lft.to/lastmile_qr_scan", "ios": "https://dc.lft.to/lastmile_qr_scan"}, "type": "electric_bike"}, {"is_reserved": 0, "is_disabled": 0, "fusion_lon": 0.0, "lat": 38.927850166666666, "name": "a6c00bf4b27fed515b0aa09746131b63", "bike_id": "a6c00bf4b27fed515b0aa09746131b63", "lon": -76.99620350000001, "fusion_lat": 0.0, "rental_uris": {"android": "https://dc.lft.to/lastmile_qr_scan", "ios": "https://dc.lft.to/lastmile_qr_scan"}, "type": "electric_scooter"}, {"is_reserved": 0, "is_disabled": 0, "fusion_lon": 0.0, "lat": 38.87041716666667, "name": "9b77e000f2dccd0a6f014ee4311e41a5", "bike_id": "9b77e000f2dccd0a6f014ee4311e41a5", "lon": -77.229057, "fusion_lat": 0.0, "rental_uris": {"android": "https://dc.lft.to/lastmile_qr_scan", "ios": "https://dc.lft.to/lastmile_qr_scan"}, "type": "electric_bike"}, {"is_reserved": 0, "is_disabled": 0, "fusion_lon": 0.0, "lat": 38.900312166666666, "name": "735c17b3ca9e592fa6d1ccbf11ffac68", "bike_id": "735c17b3ca9e592fa6d1ccbf11ffac68", "lon": -77.00199966666666, "fusion_lat": 0.0, "rental_uris": {"android": "https://dc.lft.to/lastmile_qr_scan", "ios": "https://dc.lft.to/lastmile_qr_scan"}, "type": "electric_scooter"}, {"is_reserved": 0, "is_disabled": 0, "fusion_lon": 0.0, "lat": 38.87614816666667, "name": "4a8a04e2ca9ace1b310a71d4143d0efd", "bike_id": "4a8a04e2ca9ace1b310a71d4143d0efd", "lon": -77.0008095, "fusion_lat": 0.0, "rental_uris": {"android": "https://dc.lft.to/lastmile_qr_scan", "ios": "https://dc.lft.to/lastmile_qr_scan"}, "type": "electric_scooter"}, {"is_reserved": 0, "is_disabled": 0, "fusion_lon": 0.0, "lat": 38.89224033333333, "name": "5aecc38956b24bb39d1a04fd2e1ce554", "bike_id": "5aecc38956b24bb39d1a04fd2e1ce554", "lon": -77.0479945, "fusion_lat": 0.0, "rental_uris": {"android": "https://dc.lft.to/lastmile_qr_scan", "ios": "https://dc.lft.to/lastmile_qr_scan"}, "type": "electric_scooter"}, {"is_reserved": 0, "is_disabled": 0, "fusion_lon": 0.0, "lat": 38.908339, "name": "f5bb1b0c3458bdf1a16b37657d473628", "bike_id": "f5bb1b0c3458bdf1a16b37657d473628", "lon": -77.00207966666666, "fusion_lat": 0.0, "rental_uris": {"android": "https://dc.lft.to/lastmile_qr_scan", "ios": "https://dc.lft.to/lastmile_qr_scan"}, "type": "electric_scooter"}, {"is_reserved": 0, "is_disabled": 0, "fusion_lon": 0.0, "lat": 38.909681, "name": "e1265b53f511a10f2b9120616c55d542", "bike_id": "e1265b53f511a10f2b9120616c55d542", "lon": -77.04517766666666, "fusion_lat": 0.0, "rental_uris": {"android": "https://dc.lft.to/lastmile_qr_scan", "ios": "https://dc.lft.to/lastmile_qr_scan"}, "type": "electric_scooter"}, {"is_reserved": 0, "is_disabled": 0, "fusion_lon": 0.0, "lat": 38.900236166666666, "name": "b3bcf8d4e7752491c3c23ee3e789c073", "bike_id": "b3bcf8d4e7752491c3c23ee3e789c073", "lon": -77.04654466666666, "fusion_lat": 0.0, "rental_uris": {"android": "https://dc.lft.to/lastmile_qr_scan", "ios": "https://dc.lft.to/lastmile_qr_scan"}, "type": "electric_scooter"}, {"is_reserved": 0, "is_disabled": 0, "fusion_lon": 0.0, "lat": 38.91404566666667, "name": "a6ae4da73231a0ecf8b09186aa8218b0", "bike_id": "a6ae4da73231a0ecf8b09186aa8218b0", "lon": -77.03263633333333, "fusion_lat": 0.0, "rental_uris": {"android": "https://dc.lft.to/lastmile_qr_scan", "ios": "https://dc.lft.to/lastmile_qr_scan"}, "type": "electric_scooter"}, {"is_reserved": 0, "is_disabled": 0, "fusion_lon": 0.0, "lat": 38.924411, "name": "1dd8974a94ea4c996987ff81531f8d44", "bike_id": "1dd8974a94ea4c996987ff81531f8d44", "lon": -77.03406566666666, "fusion_lat": 0.0, "rental_uris": {"android": "https://dc.lft.to/lastmile_qr_scan", "ios": "https://dc.lft.to/lastmile_qr_scan"}, "type": "electric_scooter"}, {"is_reserved": 0, "is_disabled": 0, "fusion_lon": 0.0, "lat": 38.924514, "name": "bb4db98bef45c7d319ce15d84b283314", "bike_id": "bb4db98bef45c7d319ce15d84b283314", "lon": -77.04018533333333, "fusion_lat": 0.0, "rental_uris": {"android": "https://dc.lft.to/lastmile_qr_scan", "ios": "https://dc.lft.to/lastmile_qr_scan"}, "type": "electric_scooter"}, {"is_reserved": 0, "is_disabled": 0, "fusion_lon": 0.0, "lat": 38.8956485, "name": "8e08a308495e7c0c6321879790aeb803", "bike_id": "8e08a308495e7c0c6321879790aeb803", "lon": -76.99406383333333, "fusion_lat": 0.0, "rental_uris": {"android": "https://dc.lft.to/lastmile_qr_scan", "ios": "https://dc.lft.to/lastmile_qr_scan"}, "type": "electric_scooter"}, {"is_reserved": 0, "is_disabled": 0, "fusion_lon": 0.0, "lat": 38.927152666666665, "name": "cd55c3067841b52abf6e066f2cda6017", "bike_id": "cd55c3067841b52abf6e066f2cda6017", "lon": -77.021027, "fusion_lat": 0.0, "rental_uris": {"android": "https://dc.lft.to/lastmile_qr_scan", "ios": "https://dc.lft.to/lastmile_qr_scan"}, "type": "electric_scooter"}, {"is_reserved": 0, "is_disabled": 0, "fusion_lon": 0.0, "lat": 38.905540333333335, "name": "1db525cce35f2f39201f0b011c322fe4", "bike_id": "1db525cce35f2f39201f0b011c322fe4", "lon": -77.00574566666667, "fusion_lat": 0.0, "rental_uris": {"android": "https://dc.lft.to/lastmile_qr_scan", "ios": "https://dc.lft.to/lastmile_qr_scan"}, "type": "electric_scooter"}, {"is_reserved": 0, "is_disabled": 0, "fusion_lon": 0.0, "lat": 38.88331516666667, "name": "750fd2e44e735743c7293b1bfc71d468", "bike_id": "750fd2e44e735743c7293b1bfc71d468", "lon": -77.01373316666667, "fusion_lat": 0.0, "rental_uris": {"android": "https://dc.lft.to/lastmile_qr_scan", "ios": "https://dc.lft.to/lastmile_qr_scan"}, "type": "electric_scooter"}, {"is_reserved": 0, "is_disabled": 0, "fusion_lon": 0.0, "lat": 38.9200125, "name": "5d63cb82eaed8b408cd6af0144430f23", "bike_id": "5d63cb82eaed8b408cd6af0144430f23", "lon": -77.02333266666666, "fusion_lat": 0.0, "rental_uris": {"android": "https://dc.lft.to/lastmile_qr_scan", "ios": "https://dc.lft.to/lastmile_qr_scan"}, "type": "electric_scooter"}, {"is_reserved": 0, "is_disabled": 0, "fusion_lon": 0.0, "lat": 38.87086933333333, "name": "1fa728f14dad249978fd64c77f140b34", "bike_id": "1fa728f14dad249978fd64c77f140b34", "lon": -77.1104725, "fusion_lat": 0.0, "rental_uris": {"android": "https://dc.lft.to/lastmile_qr_scan", "ios": "https://dc.lft.to/lastmile_qr_scan"}, "type": "electric_bike"}, {"is_reserved": 0, "is_disabled": 0, "fusion_lon": 0.0, "lat": 38.924032833333335, "name": "4aa9da4edfbb7e0512922133db90b45e", "bike_id": "4aa9da4edfbb7e0512922133db90b45e", "lon": -77.01946083333333, "fusion_lat": 0.0, "rental_uris": {"android": "https://dc.lft.to/lastmile_qr_scan", "ios": "https://dc.lft.to/lastmile_qr_scan"}, "type": "electric_scooter"}, {"is_reserved": 0, "is_disabled": 0, "fusion_lon": 0.0, "lat": 38.9198225, "name": "7b03df1ecadac07b5fcf5b185004a870", "bike_id": "7b03df1ecadac07b5fcf5b185004a870", "lon": -77.0219895, "fusion_lat": 0.0, "rental_uris": {"android": "https://dc.lft.to/lastmile_qr_scan", "ios": "https://dc.lft.to/lastmile_qr_scan"}, "type": "electric_scooter"}, {"is_reserved": 0, "is_disabled": 0, "fusion_lon": 0.0, "lat": 38.91185133333333, "name": "7bcaf5b588f2b95e9b08796292d82272", "bike_id": "7bcaf5b588f2b95e9b08796292d82272", "lon": -77.01079083333333, "fusion_lat": 0.0, "rental_uris": {"android": "https://dc.lft.to/lastmile_qr_scan", "ios": "https://dc.lft.to/lastmile_qr_scan"}, "type": "electric_scooter"}, {"is_reserved": 0, "is_disabled": 0, "fusion_lon": 0.0, "lat": 38.91686516666667, "name": "d9c43f36b985bf4946cd479bcbc765ab", "bike_id": "d9c43f36b985bf4946cd479bcbc765ab", "lon": -77.029483, "fusion_lat": 0.0, "rental_uris": {"android": "https://dc.lft.to/lastmile_qr_scan", "ios": "https://dc.lft.to/lastmile_qr_scan"}, "type": "electric_scooter"}, {"is_reserved": 0, "is_disabled": 0, "fusion_lon": 0.0, "lat": 38.9012075, "name": "cbbc2f63f067b9d460696921d727cbb0", "bike_id": "cbbc2f63f067b9d460696921d727cbb0", "lon": -77.03181283333333, "fusion_lat": 0.0, "rental_uris": {"android": "https://dc.lft.to/lastmile_qr_scan", "ios": "https://dc.lft.to/lastmile_qr_scan"}, "type": "electric_scooter"}, {"is_reserved": 0, "is_disabled": 0, "fusion_lon": 0.0, "lat": 38.919386833333334, "name": "5b653384eba483d73efd37e3287e7236", "bike_id": "5b653384eba483d73efd37e3287e7236", "lon": -77.04563283333333, "fusion_lat": 0.0, "rental_uris": {"android": "https://dc.lft.to/lastmile_qr_scan", "ios": "https://dc.lft.to/lastmile_qr_scan"}, "type": "electric_scooter"}, {"is_reserved": 0, "is_disabled": 0, "fusion_lon": 0.0, "lat": 38.9272525, "name": "87168bd56fb4705831088c9124dd6cec", "bike_id": "87168bd56fb4705831088c9124dd6cec", "lon": -77.02276766666667, "fusion_lat": 0.0, "rental_uris": {"android": "https://dc.lft.to/lastmile_qr_scan", "ios": "https://dc.lft.to/lastmile_qr_scan"}, "type": "electric_scooter"}, {"is_reserved": 0, "is_disabled": 0, "fusion_lon": 0.0, "lat": 38.927539333333335, "name": "2dfd7d7d4e51e4fced0c153a2c35539e", "bike_id": "2dfd7d7d4e51e4fced0c153a2c35539e", "lon": -77.0211225, "fusion_lat": 0.0, "rental_uris": {"android": "https://dc.lft.to/lastmile_qr_scan", "ios": "https://dc.lft.to/lastmile_qr_scan"}, "type": "electric_scooter"}, {"is_reserved": 0, "is_disabled": 0, "fusion_lon": 0.0, "lat": 38.9095365, "name": "18879f2fd2aa56f033f7e27c27733bde", "bike_id": "18879f2fd2aa56f033f7e27c27733bde", "lon": -77.02384616666667, "fusion_lat": 0.0, "rental_uris": {"android": "https://dc.lft.to/lastmile_qr_scan", "ios": "https://dc.lft.to/lastmile_qr_scan"}, "type": "electric_scooter"}, {"is_reserved": 0, "is_disabled": 0, "fusion_lon": 0.0, "lat": 38.89503716666667, "name": "cfc389fb864b2dea4ac636d24be8f8eb", "bike_id": "cfc389fb864b2dea4ac636d24be8f8eb", "lon": -77.04642883333334, "fusion_lat": 0.0, "rental_uris": {"android": "https://dc.lft.to/lastmile_qr_scan", "ios": "https://dc.lft.to/lastmile_qr_scan"}, "type": "electric_scooter"}, {"is_reserved": 0, "is_disabled": 0, "fusion_lon": 0.0, "lat": 38.92312416666667, "name": "2b45027783dcc647b2dc489be53a7622", "bike_id": "2b45027783dcc647b2dc489be53a7622", "lon": -77.0271195, "fusion_lat": 0.0, "rental_uris": {"android": "https://dc.lft.to/lastmile_qr_scan", "ios": "https://dc.lft.to/lastmile_qr_scan"}, "type": "electric_scooter"}, {"is_reserved": 0, "is_disabled": 0, "fusion_lon": 0.0, "lat": 38.9180915, "name": "628574f2ea308fde85c772331354b009", "bike_id": "628574f2ea308fde85c772331354b009", "lon": -77.01421316666666, "fusion_lat": 0.0, "rental_uris": {"android": "https://dc.lft.to/lastmile_qr_scan", "ios": "https://dc.lft.to/lastmile_qr_scan"}, "type": "electric_scooter"}, {"is_reserved": 0, "is_disabled": 0, "fusion_lon": 0.0, "lat": 38.957546666666666, "name": "d8e8d24135756a1f5ff6c52c8f455d21", "bike_id": "d8e8d24135756a1f5ff6c52c8f455d21", "lon": -77.00914733333333, "fusion_lat": 0.0, "rental_uris": {"android": "https://dc.lft.to/lastmile_qr_scan", "ios": "https://dc.lft.to/lastmile_qr_scan"}, "type": "electric_scooter"}, {"is_reserved": 0, "is_disabled": 0, "fusion_lon": 0.0, "lat": 38.930812, "name": "d6dd9f036bba4cfd56e7f123d1630d5f", "bike_id": "d6dd9f036bba4cfd56e7f123d1630d5f", "lon": -77.02341333333334, "fusion_lat": 0.0, "rental_uris": {"android": "https://dc.lft.to/lastmile_qr_scan", "ios": "https://dc.lft.to/lastmile_qr_scan"}, "type": "electric_scooter"}, {"is_reserved": 0, "is_disabled": 0, "fusion_lon": 0.0, "lat": 38.90344316666667, "name": "ad3a4c3792503f95447323f298302e73", "bike_id": "ad3a4c3792503f95447323f298302e73", "lon": -76.98273983333333, "fusion_lat": 0.0, "rental_uris": {"android": "https://dc.lft.to/lastmile_qr_scan", "ios": "https://dc.lft.to/lastmile_qr_scan"}, "type": "electric_scooter"}, {"is_reserved": 0, "is_disabled": 0, "fusion_lon": 0.0, "lat": 38.90516, "name": "d3b676c172053ee1206c4963411f96e5", "bike_id": "d3b676c172053ee1206c4963411f96e5", "lon": -77.06447133333333, "fusion_lat": 0.0, "rental_uris": {"android": "https://dc.lft.to/lastmile_qr_scan", "ios": "https://dc.lft.to/lastmile_qr_scan"}, "type": "electric_scooter"}, {"is_reserved": 0, "is_disabled": 0, "fusion_lon": 0.0, "lat": 38.92759816666667, "name": "8304806cd447e15e5e3bc52a49d82f9c", "bike_id": "8304806cd447e15e5e3bc52a49d82f9c", "lon": -77.032058, "fusion_lat": 0.0, "rental_uris": {"android": "https://dc.lft.to/lastmile_qr_scan", "ios": "https://dc.lft.to/lastmile_qr_scan"}, "type": "electric_scooter"}, {"is_reserved": 0, "is_disabled": 0, "fusion_lon": 0.0, "lat": 38.91107933333333, "name": "1f1699d63c9e0abeab17b792f60eb22f", "bike_id": "1f1699d63c9e0abeab17b792f60eb22f", "lon": -77.04517816666667, "fusion_lat": 0.0, "rental_uris": {"android": "https://dc.lft.to/lastmile_qr_scan", "ios": "https://dc.lft.to/lastmile_qr_scan"}, "type": "electric_scooter"}, {"is_reserved": 0, "is_disabled": 0, "fusion_lon": 0.0, "lat": 38.89972066666667, "name": "c0594deb97beca2fd1eccb72dfa2e5ce", "bike_id": "c0594deb97beca2fd1eccb72dfa2e5ce", "lon": -77.03354883333333, "fusion_lat": 0.0, "rental_uris": {"android": "https://dc.lft.to/lastmile_qr_scan", "ios": "https://dc.lft.to/lastmile_qr_scan"}, "type": "electric_scooter"}, {"is_reserved": 0, "is_disabled": 0, "fusion_lon": 0.0, "lat": 38.93823833333333, "name": "e7dc1f3b31ae5f155d53586cffcbf78c", "bike_id": "e7dc1f3b31ae5f155d53586cffcbf78c", "lon": -77.059885, "fusion_lat": 0.0, "rental_uris": {"android": "https://dc.lft.to/lastmile_qr_scan", "ios": "https://dc.lft.to/lastmile_qr_scan"}, "type": "electric_scooter"}, {"is_reserved": 0, "is_disabled": 0, "fusion_lon": 0.0, "lat": 38.878864666666665, "name": "36055c98f0e75ed06c25ceabbfbf849e", "bike_id": "36055c98f0e75ed06c25ceabbfbf849e", "lon": -77.00588583333334, "fusion_lat": 0.0, "rental_uris": {"android": "https://dc.lft.to/lastmile_qr_scan", "ios": "https://dc.lft.to/lastmile_qr_scan"}, "type": "electric_scooter"}, {"is_reserved": 0, "is_disabled": 0, "fusion_lon": 0.0, "lat": 38.892187, "name": "e3db0f73581ab1b044045199ef6c7637", "bike_id": "e3db0f73581ab1b044045199ef6c7637", "lon": -77.04363016666667, "fusion_lat": 0.0, "rental_uris": {"android": "https://dc.lft.to/lastmile_qr_scan", "ios": "https://dc.lft.to/lastmile_qr_scan"}, "type": "electric_scooter"}, {"is_reserved": 0, "is_disabled": 0, "fusion_lon": 0.0, "lat": 38.91635083333333, "name": "cf131358dd5c3debdceb77a4e81f3896", "bike_id": "cf131358dd5c3debdceb77a4e81f3896", "lon": -77.04812166666666, "fusion_lat": 0.0, "rental_uris": {"android": "https://dc.lft.to/lastmile_qr_scan", "ios": "https://dc.lft.to/lastmile_qr_scan"}, "type": "electric_scooter"}, {"is_reserved": 0, "is_disabled": 0, "fusion_lon": 0.0, "lat": 38.92065233333334, "name": "ab6b8a925dff60bde7c9a852b5bb2e1d", "bike_id": "ab6b8a925dff60bde7c9a852b5bb2e1d", "lon": -77.04191816666666, "fusion_lat": 0.0, "rental_uris": {"android": "https://dc.lft.to/lastmile_qr_scan", "ios": "https://dc.lft.to/lastmile_qr_scan"}, "type": "electric_scooter"}, {"is_reserved": 0, "is_disabled": 0, "fusion_lon": 0.0, "lat": 38.900514, "name": "ccddbecfc7b60391411c8056f5be4c99", "bike_id": "ccddbecfc7b60391411c8056f5be4c99", "lon": -77.04343216666666, "fusion_lat": 0.0, "rental_uris": {"android": "https://dc.lft.to/lastmile_qr_scan", "ios": "https://dc.lft.to/lastmile_qr_scan"}, "type": "electric_scooter"}, {"is_reserved": 0, "is_disabled": 0, "fusion_lon": 0.0, "lat": 38.9038135, "name": "bbaee3472dc4bc11a2e6ca313eba35a0", "bike_id": "bbaee3472dc4bc11a2e6ca313eba35a0", "lon": -77.06857483333333, "fusion_lat": 0.0, "rental_uris": {"android": "https://dc.lft.to/lastmile_qr_scan", "ios": "https://dc.lft.to/lastmile_qr_scan"}, "type": "electric_scooter"}, {"is_reserved": 0, "is_disabled": 0, "fusion_lon": 0.0, "lat": 38.89878433333333, "name": "53ae186059e57dae72a8baa31c81cab5", "bike_id": "53ae186059e57dae72a8baa31c81cab5", "lon": -76.93185866666667, "fusion_lat": 0.0, "rental_uris": {"android": "https://dc.lft.to/lastmile_qr_scan", "ios": "https://dc.lft.to/lastmile_qr_scan"}, "type": "electric_bike"}, {"is_reserved": 0, "is_disabled": 0, "fusion_lon": 0.0, "lat": 38.87942366666667, "name": "d6af3f303d1617d668801c4f3beaaa42", "bike_id": "d6af3f303d1617d668801c4f3beaaa42", "lon": -77.0036775, "fusion_lat": 0.0, "rental_uris": {"android": "https://dc.lft.to/lastmile_qr_scan", "ios": "https://dc.lft.to/lastmile_qr_scan"}, "type": "electric_scooter"}, {"is_reserved": 0, "is_disabled": 0, "fusion_lon": 0.0, "lat": 38.9244655, "name": "bafe18b3be6f74828b357b363b8cade8", "bike_id": "bafe18b3be6f74828b357b363b8cade8", "lon": -76.968381, "fusion_lat": 0.0, "rental_uris": {"android": "https://dc.lft.to/lastmile_qr_scan", "ios": "https://dc.lft.to/lastmile_qr_scan"}, "type": "electric_bike"}, {"is_reserved": 0, "is_disabled": 0, "fusion_lon": 0.0, "lat": 38.902369, "name": "583fe3afc9f4ffa75990bc0db317fc64", "bike_id": "583fe3afc9f4ffa75990bc0db317fc64", "lon": -77.00202183333333, "fusion_lat": 0.0, "rental_uris": {"android": "https://dc.lft.to/lastmile_qr_scan", "ios": "https://dc.lft.to/lastmile_qr_scan"}, "type": "electric_scooter"}, {"is_reserved": 0, "is_disabled": 0, "fusion_lon": 0.0, "lat": 38.942008333333334, "name": "b2ace8d5abba063252e65939a258e4c8", "bike_id": "b2ace8d5abba063252e65939a258e4c8", "lon": -77.01837783333333, "fusion_lat": 0.0, "rental_uris": {"android": "https://dc.lft.to/lastmile_qr_scan", "ios": "https://dc.lft.to/lastmile_qr_scan"}, "type": "electric_scooter"}, {"is_reserved": 0, "is_disabled": 0, "fusion_lon": 0.0, "lat": 38.899107666666666, "name": "760812f088bad2431ede20ec0a1de43e", "bike_id": "760812f088bad2431ede20ec0a1de43e", "lon": -76.9338165, "fusion_lat": 0.0, "rental_uris": {"android": "https://dc.lft.to/lastmile_qr_scan", "ios": "https://dc.lft.to/lastmile_qr_scan"}, "type": "electric_scooter"}, {"is_reserved": 0, "is_disabled": 0, "fusion_lon": 0.0, "lat": 38.938609, "name": "32fc0ccdfaf0f64f4e3ea60c6387a598", "bike_id": "32fc0ccdfaf0f64f4e3ea60c6387a598", "lon": -77.02524333333334, "fusion_lat": 0.0, "rental_uris": {"android": "https://dc.lft.to/lastmile_qr_scan", "ios": "https://dc.lft.to/lastmile_qr_scan"}, "type": "electric_scooter"}, {"is_reserved": 0, "is_disabled": 0, "fusion_lon": 0.0, "lat": 38.884138666666665, "name": "282f444e0327e61cd21065691d016da0", "bike_id": "282f444e0327e61cd21065691d016da0", "lon": -77.02559966666666, "fusion_lat": 0.0, "rental_uris": {"android": "https://dc.lft.to/lastmile_qr_scan", "ios": "https://dc.lft.to/lastmile_qr_scan"}, "type": "electric_scooter"}, {"is_reserved": 0, "is_disabled": 0, "fusion_lon": 0.0, "lat": 38.890075, "name": "aeca4351b042235f51361205bd63c8d9", "bike_id": "aeca4351b042235f51361205bd63c8d9", "lon": -76.93739866666667, "fusion_lat": 0.0, "rental_uris": {"android": "https://dc.lft.to/lastmile_qr_scan", "ios": "https://dc.lft.to/lastmile_qr_scan"}, "type": "electric_scooter"}, {"is_reserved": 0, "is_disabled": 0, "fusion_lon": 0.0, "lat": 38.92191483333333, "name": "e0281e8af0135c5ebdb2cf2bb8043bc1", "bike_id": "e0281e8af0135c5ebdb2cf2bb8043bc1", "lon": -77.040193, "fusion_lat": 0.0, "rental_uris": {"android": "https://dc.lft.to/lastmile_qr_scan", "ios": "https://dc.lft.to/lastmile_qr_scan"}, "type": "electric_scooter"},