{"data": {"bikes": [{"bike_id": "02b6a1fc566fb901e5c33512e74ea183", "type": "electric_scooter", "is_disabled": 0, "lat": 38.93602683333334, "rental_uris": {"ios": "https://dc.lft.to/lastmile_qr_scan", "android": "https://dc.lft.to/lastmile_qr_scan"}, "is_reserved": 0, "fusion_lon": 0.0, "fusion_lat": 0.0, "lon": -77.03811783333333, "name": "02b6a1fc566fb901e5c33512e74ea183"}, {"bike_id": "cbf86f2529421c565b291c8175704278", "type": "electric_scooter", "is_disabled": 0, "lat": 38.91142083333333, "rental_uris": {"ios": "https://dc.lft.to/lastmile_qr_scan", "android": "https://dc.lft.to/lastmile_qr_scan"}, "is_reserved": 0, "fusion_lon": 0.0, "fusion_lat": 0.0, "lon": -76.99012833333333, "name": "cbf86f2529421c565b291c8175704278"}, {"bike_id": "b5071017d582fe7110548d3921529903", "type": "electric_scooter", "is_disabled": 0, "lat": 38.92435016666667, "rental_uris": {"ios": "https://dc.lft.to/lastmile_qr_scan", "android": "https://dc.lft.to/lastmile_qr_scan"}, "is_reserved": 0, "fusion_lon": 0.0, "fusion_lat": 0.0, "lon": -77.04245783333333, "name": "b5071017d582fe7110548d3921529903"}, {"bike_id": "002c0a6c2d4473a1919fed22c4bf9d8d", "type": "electric_scooter", "is_disabled": 0, "lat": 38.933649333333335, "rental_uris": {"ios": "https://dc.lft.to/lastmile_qr_scan", "android": "https://dc.lft.to/lastmile_qr_scan"}, "is_reserved": 0, "fusion_lon": 0.0, "fusion_lat": 0.0, "lon": -77.06213333333334, "name": "002c0a6c2d4473a1919fed22c4bf9d8d"}, {"bike_id": "9af74fecd120c656944b1bdf57574b35", "type": "electric_scooter", "is_disabled": 0, "lat": 38.90266183333333, "rental_uris": {"ios": "https://dc.lft.to/lastmile_qr_scan", "android": "https://dc.lft.to/lastmile_qr_scan"}, "is_reserved": 0, "fusion_lon": 0.0, "fusion_lat": 0.0, "lon": -77.02643316666666, "name": "9af74fecd120c656944b1bdf57574b35"}, {"bike_id": "35a7bbd18807f3e5108d4ff222187f72", "type": "electric_scooter", "is_disabled": 0, "lat": 38.938646166666665, "rental_uris": {"ios": "https://dc.lft.to/lastmile_qr_scan", "android": "https://dc.lft.to/lastmile_qr_scan"}, "is_reserved": 0, "fusion_lon": 0.0, "fusion_lat": 0.0, "lon": -77.02705266666666, "name": "35a7bbd18807f3e5108d4ff222187f72"}, {"bike_id": "9346214f932d6a3aba7e4de8b074ab97", "type": "electric_scooter", "is_disabled": 0, "lat": 38.953162166666665, "rental_uris": {"ios": "https://dc.lft.to/lastmile_qr_scan", "android": "https://dc.lft.to/lastmile_qr_scan"}, "is_reserved": 0, "fusion_lon": 0.0, "fusion_lat": 0.0, "lon": -77.06979183333333, "name": "9346214f932d6a3aba7e4de8b074ab97"}, {"bike_id": "d3af1e4d234df456a5d87ac75c8d26d7", "type": "electric_bike", "is_disabled": 0, "lat": 38.87295866666667, "rental_uris": {"ios": "https://dc.lft.to/lastmile_qr_scan", "android": "https://dc.lft.to/lastmile_qr_scan"}, "is_reserved": 0, "fusion_lon": 0.0, "fusion_lat": 0.0, "lon": -77.1392435, "name": "d3af1e4d234df456a5d87ac75c8d26d7"}, {"bike_id": "866c08e33d66cb0b7bf49c0cf58c9346", "type": "electric_scooter", "is_disabled": 0, "lat": 38.896117, "rental_uris": {"ios": "https://dc.lft.to/lastmile_qr_scan", "android": "https://dc.lft.to/lastmile_qr_scan"}, "is_reserved": 0, "fusion_lon": 0.0, "fusion_lat": 0.0, "lon": -77.04485766666667, "name": "866c08e33d66cb0b7bf49c0cf58c9346"}, {"bike_id": "2463374209e0b2e174455eb32b169840", "type": "electric_scooter", "is_disabled": 0, "lat": 38.923230833333335, "rental_uris": {"ios": "https://dc.lft.to/lastmile_qr_scan", "android": "https://dc.lft.to/lastmile_qr_scan"}, "is_reserved": 0, "fusion_lon": 0.0, "fusion_lat": 0.0, "lon": -77.035786, "name": "2463374209e0b2e174455eb32b169840"}, {"bike_id": "34d6deb27c141c434864f06a47e88c66", "type": "electric_scooter", "is_disabled": 0, "lat": 38.897509166666666, "rental_uris": {"ios": "https://dc.lft.to/lastmile_qr_scan", "android": "https://dc.lft.to/lastmile_qr_scan"}, "is_reserved": 0, "fusion_lon": 0.0, "fusion_lat": 0.0, "lon": -76.97974683333334, "name": "34d6deb27c141c434864f06a47e88c66"}, {"bike_id": "a97eec4396494f51c4d95d32ac76b246", "type": "electric_scooter", "is_disabled": 0, "lat": 38.900746, "rental_uris": {"ios": "https://dc.lft.to/lastmile_qr_scan", "android": "https://dc.lft.to/lastmile_qr_scan"}, "is_reserved": 0, "fusion_lon": 0.0, "fusion_lat": 0.0, "lon": -77.01686633333334, "name": "a97eec4396494f51c4d95d32ac76b246"}, {"bike_id": "0ffd938b238b0f3d738748c45cf291a3", "type": "electric_scooter", "is_disabled": 0, "lat": 38.9118385, "rental_uris": {"ios": "https://dc.lft.to/lastmile_qr_scan", "android": "https://dc.lft.to/lastmile_qr_scan"}, "is_reserved": 0, "fusion_lon": 0.0, "fusion_lat": 0.0, "lon": -77.01117733333334, "name": "0ffd938b238b0f3d738748c45cf291a3"}, {"bike_id": "c864bc0a25cccf8be35cc073b0cefa3c", "type": "electric_bike", "is_disabled": 0, "lat": 38.8535985, "rental_uris": {"ios": "https://dc.lft.to/lastmile_qr_scan", "android": "https://dc.lft.to/lastmile_qr_scan"}, "is_reserved": 0, "fusion_lon": 0.0, "fusion_lat": 0.0, "lon": -77.13464233333333, "name": "c864bc0a25cccf8be35cc073b0cefa3c"}, {"bike_id": "93f186f434dd54bf713b917922da792a", "type": "electric_scooter", "is_disabled": 0, "lat": 38.92748783333333, "rental_uris": {"ios": "https://dc.lft.to/lastmile_qr_scan", "android": "https://dc.lft.to/lastmile_qr_scan"}, "is_reserved": 0, "fusion_lon": 0.0, "fusion_lat": 0.0, "lon": -77.02535216666666, "name": "93f186f434dd54bf713b917922da792a"}, {"bike_id": "9c8c764ab11c65c23d28fe025018bcc6", "type": "electric_scooter", "is_disabled": 0, "lat": 38.9386895, "rental_uris": {"ios": "https://dc.lft.to/lastmile_qr_scan", "android": "https://dc.lft.to/lastmile_qr_scan"}, "is_reserved": 0, "fusion_lon": 0.0, "fusion_lat": 0.0, "lon": -77.02650783333333, "name": "9c8c764ab11c65c23d28fe025018bcc6"}, {"bike_id": "e5c1e5acecc6b1d059e1ddee77dc3c40", "type": "electric_scooter", "is_disabled": 0, "lat": 38.90816183333333, "rental_uris": {"ios": "https://dc.lft.to/lastmile_qr_scan", "android": "https://dc.lft.to/lastmile_qr_scan"}, "is_reserved": 0, "fusion_lon": 0.0, "fusion_lat": 0.0, "lon": -77.034421, "name": "e5c1e5acecc6b1d059e1ddee77dc3c40"}, {"bike_id": "2536d0bfe3ff203b8f9251d887c272e7", "type": "electric_scooter", "is_disabled": 0, "lat": 38.915835666666666, "rental_uris": {"ios": "https://dc.lft.to/lastmile_qr_scan", "android": "https://dc.lft.to/lastmile_qr_scan"}, "is_reserved": 0, "fusion_lon": 0.0, "fusion_lat": 0.0, "lon": -77.01144416666666, "name": "2536d0bfe3ff203b8f9251d887c272e7"}, {"bike_id": "89aad47115396bcd1c49e34ba529fdd5", "type": "electric_scooter", "is_disabled": 0, "lat": 38.9413365, "rental_uris": {"ios": "https://dc.lft.to/lastmile_qr_scan", "android": "https://dc.lft.to/lastmile_qr_scan"}, "is_reserved": 0, "fusion_lon": 0.0, "fusion_lat": 0.0, "lon": -77.01541616666667, "name": "89aad47115396bcd1c49e34ba529fdd5"}, {"bike_id": "e580af84268bcbfd5ecaa3d5624e5d99", "type": "electric_scooter", "is_disabled": 0, "lat": 38.91410466666667, "rental_uris": {"ios": "https://dc.lft.to/lastmile_qr_scan", "android": "https://dc.lft.to/lastmile_qr_scan"}, "is_reserved": 0, "fusion_lon": 0.0, "fusion_lat": 0.0, "lon": -77.03029366666667, "name": "e580af84268bcbfd5ecaa3d5624e5d99"}, {"bike_id": "1e0293b1e03f0ae69204561bb644eebd", "type": "electric_scooter", "is_disabled": 0, "lat": 38.897437, "rental_uris": {"ios": "https://dc.lft.to/lastmile_qr_scan", "android": "https://dc.lft.to/lastmile_qr_scan"}, "is_reserved": 0, "fusion_lon": 0.0, "fusion_lat": 0.0, "lon": -77.0034985, "name": "1e0293b1e03f0ae69204561bb644eebd"}, {"bike_id": "2a50e932219852278b0bcbcb8f405d8a", "type": "electric_scooter", "is_disabled": 0, "lat": 38.94291916666667, "rental_uris": {"ios": "https://dc.lft.to/lastmile_qr_scan", "android": "https://dc.lft.to/lastmile_qr_scan"}, "is_reserved": 0, "fusion_lon": 0.0, "fusion_lat": 0.0, "lon": -77.0217055, "name": "2a50e932219852278b0bcbcb8f405d8a"}, {"bike_id": "b7fc86835fcf430b5f3fedb463a69473", "type": "electric_scooter", "is_disabled": 0, "lat": 38.900960166666664, "rental_uris": {"ios": "https://dc.lft.to/lastmile_qr_scan", "android": "https://dc.lft.to/lastmile_qr_scan"}, "is_reserved": 0, "fusion_lon": 0.0, "fusion_lat": 0.0, "lon": -77.01773816666666, "name": "b7fc86835fcf430b5f3fedb463a69473"}, {"bike_id": "37ee3616db655413db643b6532a864d1", "type": "electric_scooter", "is_disabled": 0, "lat": 38.89589566666667, "rental_uris": {"ios": "https://dc.lft.to/lastmile_qr_scan", "android": "https://dc.lft.to/lastmile_qr_scan"}, "is_reserved": 0, "fusion_lon": 0.0, "fusion_lat": 0.0, "lon": -77.00502066666667, "name": "37ee3616db655413db643b6532a864d1"}, {"bike_id": "5fd0c7aa8990fd2f5c38fa45cbf50274", "type": "electric_scooter", "is_disabled": 0, "lat": 38.909688, "rental_uris": {"ios": "https://dc.lft.to/lastmile_qr_scan", "android": "https://dc.lft.to/lastmile_qr_scan"}, "is_reserved": 0, "fusion_lon": 0.0, "fusion_lat": 0.0, "lon": -77.02740766666666, "name": "5fd0c7aa8990fd2f5c38fa45cbf50274"}, {"bike_id": "c3c97a4d191c3f0d6bfea88bcd61de24", "type": "electric_scooter", "is_disabled": 0, "lat": 38.925232333333334, "rental_uris": {"ios": "https://dc.lft.to/lastmile_qr_scan", "android": "https://dc.lft.to/lastmile_qr_scan"}, "is_reserved": 0, "fusion_lon": 0.0, "fusion_lat": 0.0, "lon": -77.05135483333333, "name": "c3c97a4d191c3f0d6bfea88bcd61de24"}, {"bike_id": "b0e477ba8805b6bd23f34b32ee5d81d2", "type": "electric_scooter", "is_disabled": 0, "lat": 38.920042333333335, "rental_uris": {"ios": "https://dc.lft.to/lastmile_qr_scan", "android": "https://dc.lft.to/lastmile_qr_scan"}, "is_reserved": 0, "fusion_lon": 0.0, "fusion_lat": 0.0, "lon": -77.04174533333334, "name": "b0e477ba8805b6bd23f34b32ee5d81d2"}, {"bike_id": "a2adb6b43357141c89e48b98b8ebef22", "type": "electric_scooter", "is_disabled": 0, "lat": 38.91401483333333, "rental_uris": {"ios": "https://dc.lft.to/lastmile_qr_scan", "android": "https://dc.lft.to/lastmile_qr_scan"}, "is_reserved": 0, "fusion_lon": 0.0, "fusion_lat": 0.0, "lon": -77.0318355, "name": "a2adb6b43357141c89e48b98b8ebef22"}, {"bike_id": "5699c0404d8d7a6633b4fd0a995bc2f1", "type": "electric_scooter", "is_disabled": 0, "lat": 38.902404, "rental_uris": {"ios": "https://dc.lft.to/lastmile_qr_scan", "android": "https://dc.lft.to/lastmile_qr_scan"}, "is_reserved": 0, "fusion_lon": 0.0, "fusion_lat": 0.0, "lon": -77.04139, "name": "5699c0404d8d7a6633b4fd0a995bc2f1"}, {"bike_id": "cd7b4db50ba84282ab65e78cb88b99a5", "type": "electric_scooter", "is_disabled": 0, "lat": 38.9098115, "rental_uris": {"ios": "https://dc.lft.to/lastmile_qr_scan", "android": "https://dc.lft.to/lastmile_qr_scan"}, "is_reserved": 0, "fusion_lon": 0.0, "fusion_lat": 0.0, "lon": -77.03234783333333, "name": "cd7b4db50ba84282ab65e78cb88b99a5"}, {"bike_id": "550fe4000394e195e768b81dc20f9de5", "type": "electric_bike", "is_disabled": 0, "lat": 38.993079333333334, "rental_uris": {"ios": "https://dc.lft.to/lastmile_qr_scan", "android": "https://dc.lft.to/lastmile_qr_scan"}, "is_reserved": 0, "fusion_lon": 0.0, "fusion_lat": 0.0, "lon": -77.02506883333334, "name": "550fe4000394e195e768b81dc20f9de5"}, {"bike_id": "73607722aef1626ca0bbea56f60d9b74", "type": "electric_scooter", "is_disabled": 0, "lat": 38.864400833333335, "rental_uris": {"ios": "https://dc.lft.to/lastmile_qr_scan", "android": "https://dc.lft.to/lastmile_qr_scan"}, "is_reserved": 0, "fusion_lon": 0.0, "fusion_lat": 0.0, "lon": -76.98001116666667, "name": "73607722aef1626ca0bbea56f60d9b74"}, {"bike_id": "b25f467ae5e00626161f8307f3a1e49c", "type": "electric_scooter", "is_disabled": 0, "lat": 38.9173185, "rental_uris": {"ios": "https://dc.lft.to/lastmile_qr_scan", "android": "https://dc.lft.to/lastmile_qr_scan"}, "is_reserved": 0, "fusion_lon": 0.0, "fusion_lat": 0.0, "lon": -77.02603516666667, "name": "b25f467ae5e00626161f8307f3a1e49c"}, {"bike_id": "4a49007a2531f9fa2fdd3d31b502390a", "type": "electric_scooter", "is_disabled": 0, "lat": 38.892563833333334, "rental_uris": {"ios": "https://dc.lft.to/lastmile_qr_scan", "android": "https://dc.lft.to/lastmile_qr_scan"}, "is_reserved": 0, "fusion_lon": 0.0, "fusion_lat": 0.0, "lon": -76.92568416666667, "name": "4a49007a2531f9fa2fdd3d31b502390a"}, {"bike_id": "51d60ae230713ba572a6a5c251805668", "type": "electric_scooter", "is_disabled": 0, "lat": 38.956612666666665, "rental_uris": {"ios": "https://dc.lft.to/lastmile_qr_scan", "android": "https://dc.lft.to/lastmile_qr_scan"}, "is_reserved": 0, "fusion_lon": 0.0, "fusion_lat": 0.0, "lon": -77.02399716666666, "name": "51d60ae230713ba572a6a5c251805668"}, {"bike_id": "5fd90c11a0d063cba27a3a027744c92f", "type": "electric_scooter", "is_disabled": 0, "lat": 38.880415166666666, "rental_uris": {"ios": "https://dc.lft.to/lastmile_qr_scan", "android": "https://dc.lft.to/lastmile_qr_scan"}, "is_reserved": 0, "fusion_lon": 0.0, "fusion_lat": 0.0, "lon": -77.00519233333333, "name": "5fd90c11a0d063cba27a3a027744c92f"}, {"bike_id": "69bfa73e4646d5453c07116d012d228b", "type": "electric_scooter", "is_disabled": 0, "lat": 38.9035245, "rental_uris": {"ios": "https://dc.lft.to/lastmile_qr_scan", "android": "https://dc.lft.to/lastmile_qr_scan"}, "is_reserved": 0, "fusion_lon": 0.0, "fusion_lat": 0.0, "lon": -76.99218966666666, "name": "69bfa73e4646d5453c07116d012d228b"}, {"bike_id": "a2b10e612fe250a242d2088d1a0d5e5e", "type": "electric_scooter", "is_disabled": 0, "lat": 38.91137466666667, "rental_uris": {"ios": "https://dc.lft.to/lastmile_qr_scan", "android": "https://dc.lft.to/lastmile_qr_scan"}, "is_reserved": 0, "fusion_lon": 0.0, "fusion_lat": 0.0, "lon": -77.04485933333333, "name": "a2b10e612fe250a242d2088d1a0d5e5e"}, {"bike_id": "3ccf19d6a930ae916b37ea44f0738c01", "type": "electric_scooter", "is_disabled": 0, "lat": 38.9127165, "rental_uris": {"ios": "https://dc.lft.to/lastmile_qr_scan", "android": "https://dc.lft.to/lastmile_qr_scan"}, "is_reserved": 0, "fusion_lon": 0.0, "fusion_lat": 0.0, "lon": -77.02206566666666, "name": "3ccf19d6a930ae916b37ea44f0738c01"}, {"bike_id": "095640e1916e594d0cd739da73baa273", "type": "electric_scooter", "is_disabled": 0, "lat": 38.93325133333333, "rental_uris": {"ios": "https://dc.lft.to/lastmile_qr_scan", "android": "https://dc.lft.to/lastmile_qr_scan"}, "is_reserved": 0, "fusion_lon": 0.0, "fusion_lat": 0.0, "lon": -77.02752233333334, "name": "095640e1916e594d0cd739da73baa273"}, {"bike_id": "436528f3a6ef60a44c9fcd2b7f31985c", "type": "electric_bike", "is_disabled": 0, "lat": 39.0509765, "rental_uris": {"ios": "https://dc.lft.to/lastmile_qr_scan", "android": "https://dc.lft.to/lastmile_qr_scan"}, "is_reserved": 0, "fusion_lon": 0.0, "fusion_lat": 0.0, "lon": -77.11737183333334, "name": "436528f3a6ef60a44c9fcd2b7f31985c"}, {"bike_id": "e6e888eaf09c876902178b67e4545326", "type": "electric_bike", "is_disabled": 0, "lat": 38.954486333333335, "rental_uris": {"ios": "https://dc.lft.to/lastmile_qr_scan", "android": "https://dc.lft.to/lastmile_qr_scan"}, "is_reserved": 0, "fusion_lon": 0.0, "fusion_lat": 0.0, "lon": -77.03647933333333, "name": "e6e888eaf09c876902178b67e4545326"}, {"bike_id": "0b56c79956ef444d526f2711eeb5bedf", "type": "electric_scooter", "is_disabled": 0, "lat": 38.895067, "rental_uris": {"ios": "https://dc.lft.to/lastmile_qr_scan", "android": "https://dc.lft.to/lastmile_qr_scan"}, "is_reserved": 0, "fusion_lon": 0.0, "fusion_lat": 0.0, "lon": -77.043307, "name": "0b56c79956ef444d526f2711eeb5bedf"}, {"bike_id": "40c211643f8d047c8606f3e9497e25a8", "type": "electric_scooter", "is_disabled": 0, "lat": 38.9223205, "rental_uris": {"ios": "https://dc.lft.to/lastmile_qr_scan", "android": "https://dc.lft.to/lastmile_qr_scan"}, "is_reserved": 0, "fusion_lon": 0.0, "fusion_lat": 0.0, "lon": -76.97529433333334, "name": "40c211643f8d047c8606f3e9497e25a8"}, {"bike_id": "a5934cb85398b943893c05431b4f6427", "type": "electric_scooter", "is_disabled": 0, "lat": 38.9140435, "rental_uris": {"ios": "https://dc.lft.to/lastmile_qr_scan", "android": "https://dc.lft.to/lastmile_qr_scan"}, "is_reserved": 0, "fusion_lon": 0.0, "fusion_lat": 0.0, "lon": -77.03222866666667, "name": "a5934cb85398b943893c05431b4f6427"}, {"bike_id": "f8ee5af0ebf069dd723a368589b5b7d2", "type": "electric_scooter", "is_disabled": 0, "lat": 38.9008665, "rental_uris": {"ios": "https://dc.lft.to/lastmile_qr_scan", "android": "https://dc.lft.to/lastmile_qr_scan"}, "is_reserved": 0, "fusion_lon": 0.0, "fusion_lat": 0.0, "lon": -76.98342733333334, "name": "f8ee5af0ebf069dd723a368589b5b7d2"}, {"bike_id": "4823f205dca88ebf8e7ee8d1adf46c01", "type": "electric_scooter", "is_disabled": 0, "lat": 38.873863666666665, "rental_uris": {"ios": "https://dc.lft.to/lastmile_qr_scan", "android": "https://dc.lft.to/lastmile_qr_scan"}, "is_reserved": 0, "fusion_lon": 0.0, "fusion_lat": 0.0, "lon": -77.04335833333333, "name": "4823f205dca88ebf8e7ee8d1adf46c01"}, {"bike_id": "9a7331b86947c192f4e1a788ba5673d3", "type": "electric_scooter", "is_disabled": 0, "lat": 38.92244483333333, "rental_uris": {"ios": "https://dc.lft.to/lastmile_qr_scan", "android": "https://dc.lft.to/lastmile_qr_scan"}, "is_reserved": 0, "fusion_lon": 0.0, "fusion_lat": 0.0, "lon": -77.04252583333333, "name": "9a7331b86947c192f4e1a788ba5673d3"}, {"bike_id": "14547e174faf92be7f9eae36448de403", "type": "electric_scooter", "is_disabled": 0, "lat": 38.87817533333333, "rental_uris": {"ios": "https://dc.lft.to/lastmile_qr_scan", "android": "https://dc.lft.to/lastmile_qr_scan"}, "is_reserved": 0, "fusion_lon": 0.0, "fusion_lat": 0.0, "lon": -77.02232166666667, "name": "14547e174faf92be7f9eae36448de403"}, {"bike_id": "66dbff3ad243672a5222b7084c305511", "type": "electric_scooter", "is_disabled": 0, "lat": 38.935238, "rental_uris": {"ios": "https://dc.lft.to/lastmile_qr_scan", "android": "https://dc.lft.to/lastmile_qr_scan"}, "is_reserved": 0, "fusion_lon": 0.0, "fusion_lat": 0.0, "lon": -77.03353, "name": "66dbff3ad243672a5222b7084c305511"}, {"bike_id": "7cdcfa1b9b67c4c27a916a1d4e9a7993", "type": "electric_scooter", "is_disabled": 0, "lat": 38.8934095, "rental_uris": {"ios": "https://dc.lft.to/lastmile_qr_scan", "android": "https://dc.lft.to/lastmile_qr_scan"}, "is_reserved": 0, "fusion_lon": 0.0, "fusion_lat": 0.0, "lon": -76.9505785, "name": "7cdcfa1b9b67c4c27a916a1d4e9a7993"}, {"bike_id": "35a8ae9d0d6d9fdf2ccaa3baa3a480a9", "type": "electric_scooter", "is_disabled": 0, "lat": 38.9367525, "rental_uris": {"ios": "https://dc.lft.to/lastmile_qr_scan", "android": "https://dc.lft.to/lastmile_qr_scan"}, "is_reserved": 0, "fusion_lon": 0.0, "fusion_lat": 0.0, "lon": -77.02457933333334, "name": "35a8ae9d0d6d9fdf2ccaa3baa3a480a9"}, {"bike_id": "cea5142c55747b6ec7767dca07ed3e00", "type": "electric_scooter", "is_disabled": 0, "lat": 38.9167235, "rental_uris": {"ios": "https://dc.lft.to/lastmile_qr_scan", "android": "https://dc.lft.to/lastmile_qr_scan"}, "is_reserved": 0, "fusion_lon": 0.0, "fusion_lat": 0.0, "lon": -77.04680683333333, "name": "cea5142c55747b6ec7767dca07ed3e00"}, {"bike_id": "ae04c4951aca6480b75034815ea181a5", "type": "electric_scooter", "is_disabled": 0, "lat": 38.90972566666667, "rental_uris": {"ios": "https://dc.lft.to/lastmile_qr_scan", "android": "https://dc.lft.to/lastmile_qr_scan"}, "is_reserved": 0, "fusion_lon": 0.0, "fusion_lat": 0.0, "lon": -77.0343605, "name": "ae04c4951aca6480b75034815ea181a5"}, {"bike_id": "1b4183ffb02ebea502546420c3d62a3e", "type": "electric_scooter", "is_disabled": 0, "lat": 38.8921985, "rental_uris": {"ios": "https://dc.lft.to/lastmile_qr_scan", "android": "https://dc.lft.to/lastmile_qr_scan"}, "is_reserved": 0, "fusion_lon": 0.0, "fusion_lat": 0.0, "lon": -77.045139, "name": "1b4183ffb02ebea502546420c3d62a3e"}, {"bike_id": "7217a8def1e005f8ed67c15fca4f9dae", "type": "electric_scooter", "is_disabled": 0, "lat": 38.902702833333336, "rental_uris": {"ios": "https://dc.lft.to/lastmile_qr_scan", "android": "https://dc.lft.to/lastmile_qr_scan"}, "is_reserved": 0, "fusion_lon": 0.0, "fusion_lat": 0.0, "lon": -77.0337495, "name": "7217a8def1e005f8ed67c15fca4f9dae"}, {"bike_id": "66aca0491af7e5cce450aa6e0a423c85", "type": "electric_scooter", "is_disabled": 0, "lat": 38.900347833333335, "rental_uris": {"ios": "https://dc.lft.to/lastmile_qr_scan", "android": "https://dc.lft.to/lastmile_qr_scan"}, "is_reserved": 0, "fusion_lon": 0.0, "fusion_lat": 0.0, "lon": -76.98839216666667, "name": "66aca0491af7e5cce450aa6e0a423c85"}, {"bike_id": "ab55710e8dc8584ccdd0c59688581eb2", "type": "electric_scooter", "is_disabled": 0, "lat": 38.90979083333333, "rental_uris": {"ios": "https://dc.lft.to/lastmile_qr_scan", "android": "https://dc.lft.to/lastmile_qr_scan"}, "is_reserved": 0, "fusion_lon": 0.0, "fusion_lat": 0.0, "lon": -77.03236316666667, "name": "ab55710e8dc8584ccdd0c59688581eb2"}, {"bike_id": "42be499c273b343795f673c22e840341", "type": "electric_scooter", "is_disabled": 0, "lat": 38.923851166666665, "rental_uris": {"ios": "https://dc.lft.to/lastmile_qr_scan", "android": "https://dc.lft.to/lastmile_qr_scan"}, "is_reserved": 0, "fusion_lon": 0.0, "fusion_lat": 0.0, "lon": -77.050612, "name": "42be499c273b343795f673c22e840341"}, {"bike_id": "184f2f83b72912f452d2a5143a158a48", "type": "electric_bike", "is_disabled": 0, "lat": 38.962955666666666, "rental_uris": {"ios": "https://dc.lft.to/lastmile_qr_scan", "android": "https://dc.lft.to/lastmile_qr_scan"}, "is_reserved": 0, "fusion_lon": 0.0, "fusion_lat": 0.0, "lon": -77.011246, "name": "184f2f83b72912f452d2a5143a158a48"}, {"bike_id": "80e2188087a3fa635f3aefed083135b3", "type": "electric_bike", "is_disabled": 0, "lat": 38.96311933333333, "rental_uris": {"ios": "https://dc.lft.to/lastmile_qr_scan", "android": "https://dc.lft.to/lastmile_qr_scan"}, "is_reserved": 0, "fusion_lon": 0.0, "fusion_lat": 0.0, "lon": -76.9735935, "name": "80e2188087a3fa635f3aefed083135b3"}, {"bike_id": "d019a14340acdea1cf5eda9c80a33139", "type": "electric_scooter", "is_disabled": 0, "lat": 38.8711445, "rental_uris": {"ios": "https://dc.lft.to/lastmile_qr_scan", "android": "https://dc.lft.to/lastmile_qr_scan"}, "is_reserved": 0, "fusion_lon": 0.0, "fusion_lat": 0.0, "lon": -77.007574, "name": "d019a14340acdea1cf5eda9c80a33139"}, {"bike_id": "735db359a2b5fe815bfbb1b7fe02cd71", "type": "electric_scooter", "is_disabled": 0, "lat": 38.88656, "rental_uris": {"ios": "https://dc.lft.to/lastmile_qr_scan", "android": "https://dc.lft.to/lastmile_qr_scan"}, "is_reserved": 0, "fusion_lon": 0.0, "fusion_lat": 0.0, "lon": -77.02830583333333, "name": "735db359a2b5fe815bfbb1b7fe02cd71"}, {"bike_id": "db003eb2d08b29d3cd3ba95e93fb1212", "type": "electric_bike", "is_disabled": 0, "lat": 38.95250566666667, "rental_uris": {"ios": "https://dc.lft.to/lastmile_qr_scan", "android": "https://dc.lft.to/lastmile_qr_scan"}, "is_reserved": 0, "fusion_lon": 0.0, "fusion_lat": 0.0, "lon": -76.97679333333333, "name": "db003eb2d08b29d3cd3ba95e93fb1212"}, {"bike_id": "e63d2b71fd6ed278e8e9bdfa5689a71b", "type": "electric_scooter", "is_disabled": 0, "lat": 38.90808616666666, "rental_uris": {"ios": "https://dc.lft.to/lastmile_qr_scan", "android": "https://dc.lft.to/lastmile_qr_scan"}, "is_reserved": 0, "fusion_lon": 0.0, "fusion_lat": 0.0, "lon": -77.084123, "name": "e63d2b71fd6ed278e8e9bdfa5689a71b"}, {"bike_id": "69ab0f25f1143905025004742aa46d2e", "type": "electric_scooter", "is_disabled": 0, "lat": 38.87420266666667, "rental_uris": {"ios": "https://dc.lft.to/lastmile_qr_scan", "android": "https://dc.lft.to/lastmile_qr_scan"}, "is_reserved": 0, "fusion_lon": 0.0, "fusion_lat": 0.0, "lon": -76.96912966666666, "name": "69ab0f25f1143905025004742aa46d2e"}, {"bike_id": "dd4890b40193bc36ec40f5b0a46c4c18", "type": "electric_scooter", "is_disabled": 0, "lat": 38.90142216666667, "rental_uris": {"ios": "https://dc.lft.to/lastmile_qr_scan", "android": "https://dc.lft.to/lastmile_qr_scan"}, "is_reserved": 0, "fusion_lon": 0.0, "fusion_lat": 0.0, "lon": -77.02312283333333, "name": "dd4890b40193bc36ec40f5b0a46c4c18"}, {"bike_id": "bb748c56e0ee1d8a4c019dd1a3301270", "type": "electric_bike", "is_disabled": 0, "lat": 38.87297233333334, "rental_uris": {"ios": "https://dc.lft.to/lastmile_qr_scan", "android": "https://dc.lft.to/lastmile_qr_scan"}, "is_reserved": 0, "fusion_lon": 0.0, "fusion_lat": 0.0, "lon": -77.13931633333333, "name": "bb748c56e0ee1d8a4c019dd1a3301270"}, {"bike_id": "c2d0477ddbba400459e37d809ecd9143", "type": "electric_scooter", "is_disabled": 0, "lat": 38.923458833333335, "rental_uris": {"ios": "https://dc.lft.to/lastmile_qr_scan", "android": "https://dc.lft.to/lastmile_qr_scan"}, "is_reserved": 0, "fusion_lon": 0.0, "fusion_lat": 0.0, "lon": -77.0511505, "name": "c2d0477ddbba400459e37d809ecd9143"}, {"bike_id": "8a3c70e1ae086150c93fdc03ccc091ab", "type": "electric_scooter", "is_disabled": 0, "lat": 38.88478716666667, "rental_uris": {"ios": "https://dc.lft.to/lastmile_qr_scan", "android": "https://dc.lft.to/lastmile_qr_scan"}, "is_reserved": 0, "fusion_lon": 0.0, "fusion_lat": 0.0, "lon": -76.98211566666667, "name": "8a3c70e1ae086150c93fdc03ccc091ab"}, {"bike_id": "3d83d18b8e7e980faae6ed60e0fb5741", "type": "electric_scooter", "is_disabled": 0, "lat": 38.920665166666666, "rental_uris": {"ios": "https://dc.lft.to/lastmile_qr_scan", "android": "https://dc.lft.to/lastmile_qr_scan"}, "is_reserved": 0, "fusion_lon": 0.0, "fusion_lat": 0.0, "lon": -77.027101, "name": "3d83d18b8e7e980faae6ed60e0fb5741"}, {"bike_id": "964d09ef69a43bfe101d3964eb736b05", "type": "electric_scooter", "is_disabled": 0, "lat": 38.918372, "rental_uris": {"ios": "https://dc.lft.to/lastmile_qr_scan", "android": "https://dc.lft.to/lastmile_qr_scan"}, "is_reserved": 0, "fusion_lon": 0.0, "fusion_lat": 0.0, "lon": -76.965548, "name": "964d09ef69a43bfe101d3964eb736b05"}, {"bike_id": "2d49d49717e5c1343680d830833412f3", "type": "electric_scooter", "is_disabled": 0, "lat": 38.9203515, "rental_uris": {"ios": "https://dc.lft.to/lastmile_qr_scan", "android": "https://dc.lft.to/lastmile_qr_scan"}, "is_reserved": 0, "fusion_lon": 0.0, "fusion_lat": 0.0, "lon": -77.0130765, "name": "2d49d49717e5c1343680d830833412f3"}, {"bike_id": "8673e484b89e31def96457d0cc7b500c", "type": "electric_scooter", "is_disabled": 0, "lat": 38.933269, "rental_uris": {"ios": "https://dc.lft.to/lastmile_qr_scan", "android": "https://dc.lft.to/lastmile_qr_scan"}, "is_reserved": 0, "fusion_lon": 0.0, "fusion_lat": 0.0, "lon": -77.02396816666666, "name": "8673e484b89e31def96457d0cc7b500c"}, {"bike_id": "5f4dfc1f37fa60b7b0b40bc1b0bc95fe", "type": "electric_scooter", "is_disabled": 0, "lat": 38.9207205, "rental_uris": {"ios": "https://dc.lft.to/lastmile_qr_scan", "android": "https://dc.lft.to/lastmile_qr_scan"}, "is_reserved": 0, "fusion_lon": 0.0, "fusion_lat": 0.0, "lon": -77.02834566666667, "name": "5f4dfc1f37fa60b7b0b40bc1b0bc95fe"}, {"bike_id": "dec16254879b8e8dd928eb2586c62389", "type": "electric_scooter", "is_disabled": 0, "lat": 38.905826, "rental_uris": {"ios": "https://dc.lft.to/lastmile_qr_scan", "android": "https://dc.lft.to/lastmile_qr_scan"}, "is_reserved": 0, "fusion_lon": 0.0, "fusion_lat": 0.0, "lon": -76.98433816666666, "name": "dec16254879b8e8dd928eb2586c62389"}, {"bike_id": "557019b6be38b507c55760669e501ff6", "type": "electric_scooter", "is_disabled": 0, "lat": 38.916362666666664, "rental_uris": {"ios": "https://dc.lft.to/lastmile_qr_scan", "android": "https://dc.lft.to/lastmile_qr_scan"}, "is_reserved": 0, "fusion_lon": 0.0, "fusion_lat": 0.0, "lon": -77.04003583333333, "name": "557019b6be38b507c55760669e501ff6"}, {"bike_id": "7d84adf6a1902b3fa3777dd8a70eba0e", "type": "electric_scooter", "is_disabled": 0, "lat": 38.901239333333336, "rental_uris": {"ios": "https://dc.lft.to/lastmile_qr_scan", "android": "https://dc.lft.to/lastmile_qr_scan"}, "is_reserved": 0, "fusion_lon": 0.0, "fusion_lat": 0.0, "lon": -77.05019983333334, "name": "7d84adf6a1902b3fa3777dd8a70eba0e"}, {"bike_id": "88c6e931663ae5a74f3e6ad2f8f57966", "type": "electric_scooter", "is_disabled": 0, "lat": 38.907893, "rental_uris": {"ios": "https://dc.lft.to/lastmile_qr_scan", "android": "https://dc.lft.to/lastmile_qr_scan"}, "is_reserved": 0, "fusion_lon": 0.0, "fusion_lat": 0.0, "lon": -77.06371066666667, "name": "88c6e931663ae5a74f3e6ad2f8f57966"}, {"bike_id": "6726cb82274a38fe842f68cbd0df09ed", "type": "electric_scooter", "is_disabled": 0, "lat": 38.91706966666667, "rental_uris": {"ios": "https://dc.lft.to/lastmile_qr_scan", "android": "https://dc.lft.to/lastmile_qr_scan"}, "is_reserved": 0, "fusion_lon": 0.0, "fusion_lat": 0.0, "lon": -77.02872816666667, "name": "6726cb82274a38fe842f68cbd0df09ed"}, {"bike_id": "79ffc24be296d520d6d7bd8c79929641", "type": "electric_scooter", "is_disabled": 0, "lat": 38.939187, "rental_uris": {"ios": "https://dc.lft.to/lastmile_qr_scan", "android": "https://dc.lft.to/lastmile_qr_scan"}, "is_reserved": 0, "fusion_lon": 0.0, "fusion_lat": 0.0, "lon": -77.06050683333333, "name": "79ffc24be296d520d6d7bd8c79929641"}, {"bike_id": "08a68ff69030aea54290851dae34cf22", "type": "electric_scooter", "is_disabled": 0, "lat": 38.892351166666664, "rental_uris": {"ios": "https://dc.lft.to/lastmile_qr_scan", "android": "https://dc.lft.to/lastmile_qr_scan"}, "is_reserved": 0, "fusion_lon": 0.0, "fusion_lat": 0.0, "lon": -77.04676266666667, "name": "08a68ff69030aea54290851dae34cf22"}, {"bike_id": "7f41417829a626e341b7ac690853d89a", "type": "electric_scooter", "is_disabled": 0, "lat": 38.8853855, "rental_uris": {"ios": "https://dc.lft.to/lastmile_qr_scan", "android": "https://dc.lft.to/lastmile_qr_scan"}, "is_reserved": 0, "fusion_lon": 0.0, "fusion_lat": 0.0, "lon": -76.998266, "name": "7f41417829a626e341b7ac690853d89a"}, {"bike_id": "a376f0980e4e7ca2fe89338c7bdfc30e", "type": "electric_scooter", "is_disabled": 0, "lat": 38.87225566666667, "rental_uris": {"ios": "https://dc.lft.to/lastmile_qr_scan", "android": "https://dc.lft.to/lastmile_qr_scan"}, "is_reserved": 0, "fusion_lon": 0.0, "fusion_lat": 0.0, "lon": -77.0176225, "name": "a376f0980e4e7ca2fe89338c7bdfc30e"}, {"bike_id": "a82c1eb47f71108ef8f654791b5fff5d", "type": "electric_bike", "is_disabled": 0, "lat": 39.01372416666667, "rental_uris": {"ios": "https://dc.lft.to/lastmile_qr_scan", "android": "https://dc.lft.to/lastmile_qr_scan"}, "is_reserved": 0, "fusion_lon": 0.0, "fusion_lat": 0.0, "lon": -76.9213505, "name": "a82c1eb47f71108ef8f654791b5fff5d"}, {"bike_id": "96658857569089400e158d88e27f0b4b", "type": "electric_scooter", "is_disabled": 0, "lat": 38.92334683333333, "rental_uris": {"ios": "https://dc.lft.to/lastmile_qr_scan", "android": "https://dc.lft.to/lastmile_qr_scan"}, "is_reserved": 0, "fusion_lon": 0.0, "fusion_lat": 0.0, "lon": -77.02299233333333, "name": "96658857569089400e158d88e27f0b4b"}, {"bike_id": "68046e6e7e4b45b1e8e7c3bc6571681a", "type": "electric_scooter", "is_disabled": 0, "lat": 38.90742866666667, "rental_uris": {"ios": "https://dc.lft.to/lastmile_qr_scan", "android": "https://dc.lft.to/lastmile_qr_scan"}, "is_reserved": 0, "fusion_lon": 0.0, "fusion_lat": 0.0, "lon": -77.03480083333334, "name": "68046e6e7e4b45b1e8e7c3bc6571681a"}, {"bike_id": "b5f87f2d39497b9b90eaf4d28fdeb78b", "type": "electric_scooter", "is_disabled": 0, "lat": 38.92326933333333, "rental_uris": {"ios": "https://dc.lft.to/lastmile_qr_scan", "android": "https://dc.lft.to/lastmile_qr_scan"}, "is_reserved": 0, "fusion_lon": 0.0, "fusion_lat": 0.0, "lon": -77.04617283333333, "name": "b5f87f2d39497b9b90eaf4d28fdeb78b"}, {"bike_id": "4bfba802f7052fee8381b790cf5855c2", "type": "electric_scooter", "is_disabled": 0, "lat": 38.88014583333333, "rental_uris": {"ios": "https://dc.lft.to/lastmile_qr_scan", "android": "https://dc.lft.to/lastmile_qr_scan"}, "is_reserved": 0, "fusion_lon": 0.0, "fusion_lat": 0.0, "lon": -77.005562, "name": "4bfba802f7052fee8381b790cf5855c2"}, {"bike_id": "6e78b7087f57f8fd03227b969b7d97bd", "type": "electric_scooter", "is_disabled": 0, "lat": 38.938931333333336, "rental_uris": {"ios": "https://dc.lft.to/lastmile_qr_scan", "android": "https://dc.lft.to/lastmile_qr_scan"}, "is_reserved": 0, "fusion_lon": 0.0, "fusion_lat": 0.0, "lon": -77.028234, "name": "6e78b7087f57f8fd03227b969b7d97bd"}, {"bike_id": "e4ed804b68da64ba5f548ddc1cdb9eff", "type": "electric_scooter", "is_disabled": 0, "lat": 38.915659833333336, "rental_uris": {"ios": "https://dc.lft.to/lastmile_qr_scan", "android": "https://dc.lft.to/lastmile_qr_scan"}, "is_reserved": 0, "fusion_lon": 0.0, "fusion_lat": 0.0, "lon": -77.02018483333333, "name": "e4ed804b68da64ba5f548ddc1cdb9eff"}, {"bike_id": "75b68e034aa6f522c46c909565db33e1", "type": "electric_scooter", "is_disabled": 0, "lat": 38.90978833333333, "rental_uris": {"ios": "https://dc.lft.to/lastmile_qr_scan", "android": "https://dc.lft.to/lastmile_qr_scan"}, "is_reserved": 0, "fusion_lon": 0.0, "fusion_lat": 0.0, "lon": -77.0333705, "name": "75b68e034aa6f522c46c909565db33e1"}, {"bike_id": "4e547d4c31d0a61c81e676d982b44b3d", "type": "electric_scooter", "is_disabled": 0, "lat": 38.931487, "rental_uris": {"ios": "https://dc.lft.to/lastmile_qr_scan", "android": "https://dc.lft.to/lastmile_qr_scan"}, "is_reserved": 0, "fusion_lon": 0.0, "fusion_lat": 0.0, "lon": -77.03357566666666, "name": "4e547d4c31d0a61c81e676d982b44b3d"}, {"bike_id": "1911f0a5f53c15b0418a142b4bc7bc0d", "type": "electric_scooter", "is_disabled": 0, "lat": 38.902352, "rental_uris": {"ios": "https://dc.lft.to/lastmile_qr_scan", "android": "https://dc.lft.to/lastmile_qr_scan"}, "is_reserved": 0, "fusion_lon": 0.0, "fusion_lat": 0.0, "lon": -77.001923, "name": "1911f0a5f53c15b0418a142b4bc7bc0d"}, {"bike_id": "3f3f85fe39c0074ccf8dd9090ff7223f", "type": "electric_scooter", "is_disabled": 0, "lat": 38.9012125, "rental_uris": {"ios": "https://dc.lft.to/lastmile_qr_scan", "android": "https://dc.lft.to/lastmile_qr_scan"}, "is_reserved": 0, "fusion_lon": 0.0, "fusion_lat": 0.0, "lon": -77.04988233333333, "name": "3f3f85fe39c0074ccf8dd9090ff7223f"}, {"bike_id": "4b8cd5f99da6b89ec5b5c80b88425143", "type": "electric_bike", "is_disabled": 0, "lat": 38.961294, "rental_uris": {"ios": "https://dc.lft.to/lastmile_qr_scan", "android": "https://dc.lft.to/lastmile_qr_scan"}, "is_reserved": 0, "fusion_lon": 0.0, "fusion_lat": 0.0, "lon": -77.0333285, "name": "4b8cd5f99da6b89ec5b5c80b88425143"}, {"bike_id": "bc54e15a84ea60446daf158f3c65da16", "type": "electric_scooter", "is_disabled": 0, "lat": 38.91718, "rental_uris": {"ios": "https://dc.lft.to/lastmile_qr_scan", "android": "https://dc.lft.to/lastmile_qr_scan"}, "is_reserved": 0, "fusion_lon": 0.0, "fusion_lat": 0.0, "lon": -77.036632, "name": "bc54e15a84ea60446daf158f3c65da16"}, {"bike_id": "6167bd763cd5fc90cc386810bba90378", "type": "electric_scooter", "is_disabled": 0, "lat": 38.9485535, "rental_uris": {"ios": "https://dc.lft.to/lastmile_qr_scan", "android": "https://dc.lft.to/lastmile_qr_scan"}, "is_reserved": 0, "fusion_lon": 0.0, "fusion_lat": 0.0, "lon": -77.08020866666666, "name": "6167bd763cd5fc90cc386810bba90378"}, {"bike_id": "41a104f60eadbb52d75314bab4618290", "type": "electric_scooter", "is_disabled": 0, "lat": 38.922595333333334, "rental_uris": {"ios": "https://dc.lft.to/lastmile_qr_scan", "android": "https://dc.lft.to/lastmile_qr_scan"}, "is_reserved": 0, "fusion_lon": 0.0, "fusion_lat": 0.0, "lon": -77.04217866666667, "name": "41a104f60eadbb52d75314bab4618290"}, {"bike_id": "9c98ba6e75e14972c2432f9b70f2d2c2", "type": "electric_scooter", "is_disabled": 0, "lat": 38.93467283333333, "rental_uris": {"ios": "https://dc.lft.to/lastmile_qr_scan", "android": "https://dc.lft.to/lastmile_qr_scan"}, "is_reserved": 0, "fusion_lon": 0.0, "fusion_lat": 0.0, "lon": -77.02793066666666, "name": "9c98ba6e75e14972c2432f9b70f2d2c2"}, {"bike_id": "51c2726359fcce3d3176bb2cc3b768b3", "type": "electric_scooter", "is_disabled": 0, "lat": 38.904676, "rental_uris": {"ios": "https://dc.lft.to/lastmile_qr_scan", "android": "https://dc.lft.to/lastmile_qr_scan"}, "is_reserved": 0, "fusion_lon": 0.0, "fusion_lat": 0.0, "lon": -76.97611933333333, "name": "51c2726359fcce3d3176bb2cc3b768b3"}, {"bike_id": "cc27c2b05f0d71beab0b18aa5cad1153", "type": "electric_scooter", "is_disabled": 0, "lat": 38.8957865, "rental_uris": {"ios": "https://dc.lft.to/lastmile_qr_scan", "android": "https://dc.lft.to/lastmile_qr_scan"}, "is_reserved": 0, "fusion_lon": 0.0, "fusion_lat": 0.0, "lon": -77.01073966666667, "name": "cc27c2b05f0d71beab0b18aa5cad1153"}, {"bike_id": "20ee4c9009087674d4b868f4ed98fbd1", "type": "electric_scooter", "is_disabled": 0, "lat": 38.908522833333336, "rental_uris": {"ios": "https://dc.lft.to/lastmile_qr_scan", "android": "https://dc.lft.to/lastmile_qr_scan"}, "is_reserved": 0, "fusion_lon": 0.0, "fusion_lat": 0.0, "lon": -77.05489966666667, "name": "20ee4c9009087674d4b868f4ed98fbd1"}, {"bike_id": "a4ca8fb9edebddc261b5198bb49bbffc", "type": "electric_scooter", "is_disabled": 0, "lat": 38.9067965, "rental_uris": {"ios": "https://dc.lft.to/lastmile_qr_scan", "android": "https://dc.lft.to/lastmile_qr_scan"}, "is_reserved": 0, "fusion_lon": 0.0, "fusion_lat": 0.0, "lon": -76.97997016666666, "name": "a4ca8fb9edebddc261b5198bb49bbffc"}, {"bike_id": "4ed0cf58034116e865b6657268246187", "type": "electric_bike", "is_disabled": 0, "lat": 38.88245466666667, "rental_uris": {"ios": "https://dc.lft.to/lastmile_qr_scan", "android": "https://dc.lft.to/lastmile_qr_scan"}, "is_reserved": 0, "fusion_lon": 0.0, "fusion_lat": 0.0, "lon": -76.962588, "name": "4ed0cf58034116e865b6657268246187"}, {"bike_id": "d47d76cddb386d7030b39944ddf49406", "type": "electric_scooter", "is_disabled": 0, "lat": 38.92154133333333, "rental_uris": {"ios": "https://dc.lft.to/lastmile_qr_scan", "android": "https://dc.lft.to/lastmile_qr_scan"}, "is_reserved": 0, "fusion_lon": 0.0, "fusion_lat": 0.0, "lon": -77.03516583333334, "name": "d47d76cddb386d7030b39944ddf49406"}, {"bike_id": "4752f9f83dab43a710163bc1fc62c256", "type": "electric_scooter", "is_disabled": 0, "lat": 38.91834866666667, "rental_uris": {"ios": "https://dc.lft.to/lastmile_qr_scan", "android": "https://dc.lft.to/lastmile_qr_scan"}, "is_reserved": 0, "fusion_lon": 0.0, "fusion_lat": 0.0, "lon": -77.02601066666666, "name": "4752f9f83dab43a710163bc1fc62c256"}, {"bike_id": "ebdf5829365d0ee05e763661ca2421b4", "type": "electric_bike", "is_disabled": 0, "lat": 38.932282666666666, "rental_uris": {"ios": "https://dc.lft.to/lastmile_qr_scan", "android": "https://dc.lft.to/lastmile_qr_scan"}, "is_reserved": 0, "fusion_lon": 0.0, "fusion_lat": 0.0, "lon": -77.18123116666666, "name": "ebdf5829365d0ee05e763661ca2421b4"}, {"bike_id": "aaa0651568a58f961bfc48e3278e7955", "type": "electric_scooter", "is_disabled": 0, "lat": 38.92953166666667, "rental_uris": {"ios": "https://dc.lft.to/lastmile_qr_scan", "android": "https://dc.lft.to/lastmile_qr_scan"}, "is_reserved": 0, "fusion_lon": 0.0, "fusion_lat": 0.0, "lon": -77.04399183333334, "name": "aaa0651568a58f961bfc48e3278e7955"}, {"bike_id": "3748a3edcd979abf3a5d625f1f0370ff", "type": "electric_scooter", "is_disabled": 0, "lat": 38.928815166666666, "rental_uris": {"ios": "https://dc.lft.to/lastmile_qr_scan", "android": "https://dc.lft.to/lastmile_qr_scan"}, "is_reserved": 0, "fusion_lon": 0.0, "fusion_lat": 0.0, "lon": -77.03288683333334, "name": "3748a3edcd979abf3a5d625f1f0370ff"}, {"bike_id": "780d8f031b7e5b8ec76384e78db16b7e", "type": "electric_scooter", "is_disabled": 0, "lat": 38.9284155, "rental_uris": {"ios": "https://dc.lft.to/lastmile_qr_scan", "android": "https://dc.lft.to/lastmile_qr_scan"}, "is_reserved": 0, "fusion_lon": 0.0, "fusion_lat": 0.0, "lon": -77.03271466666666, "name": "780d8f031b7e5b8ec76384e78db16b7e"}, {"bike_id": "9ee1987b547e8a4bed73d54cd923b165", "type": "electric_scooter", "is_disabled": 0, "lat": 38.902731, "rental_uris": {"ios": "https://dc.lft.to/lastmile_qr_scan", "android": "https://dc.lft.to/lastmile_qr_scan"}, "is_reserved": 0, "fusion_lon": 0.0, "fusion_lat": 0.0, "lon": -77.0175665, "name": "9ee1987b547e8a4bed73d54cd923b165"}, {"bike_id": "bad6e4b95ba1045bd8131631e34d2e9e", "type": "electric_scooter", "is_disabled": 0, "lat": 38.90270266666667, "rental_uris": {"ios": "https://dc.lft.to/lastmile_qr_scan", "android": "https://dc.lft.to/lastmile_qr_scan"}, "is_reserved": 0, "fusion_lon": 0.0, "fusion_lat": 0.0, "lon": -77.0265215, "name": "bad6e4b95ba1045bd8131631e34d2e9e"}, {"bike_id": "03eb03cfbc7332af0b077cc6f4058927", "type": "electric_scooter", "is_disabled": 0, "lat": 38.91029183333333, "rental_uris": {"ios": "https://dc.lft.to/lastmile_qr_scan", "android": "https://dc.lft.to/lastmile_qr_scan"}, "is_reserved": 0, "fusion_lon": 0.0, "fusion_lat": 0.0, "lon": -77.0281655, "name": "03eb03cfbc7332af0b077cc6f4058927"}, {"bike_id": "a298e06c0302a85d1f54a3ac71e4a854", "type": "electric_scooter", "is_disabled": 0, "lat": 38.92265233333333, "rental_uris": {"ios": "https://dc.lft.to/lastmile_qr_scan", "android": "https://dc.lft.to/lastmile_qr_scan"}, "is_reserved": 0, "fusion_lon": 0.0, "fusion_lat": 0.0, "lon": -77.03402216666667, "name": "a298e06c0302a85d1f54a3ac71e4a854"}, {"bike_id": "6017423ddd06bd3becfe1f91a2d5d914", "type": "electric_scooter", "is_disabled": 0, "lat": 38.90901016666667, "rental_uris": {"ios": "https://dc.lft.to/lastmile_qr_scan", "android": "https://dc.lft.to/lastmile_qr_scan"}, "is_reserved": 0, "fusion_lon": 0.0, "fusion_lat": 0.0, "lon": -77.04208183333333, "name": "6017423ddd06bd3becfe1f91a2d5d914"}, {"bike_id": "0649f028c2963a2916e120c7624e7f6c", "type": "electric_scooter", "is_disabled": 0, "lat": 38.904778666666665, "rental_uris": {"ios": "https://dc.lft.to/lastmile_qr_scan", "android": "https://dc.lft.to/lastmile_qr_scan"}, "is_reserved": 0, "fusion_lon": 0.0, "fusion_lat": 0.0, "lon": -77.04877166666667, "name": "0649f028c2963a2916e120c7624e7f6c"}, {"bike_id": "8c498c372466e7517907903c281d6281", "type": "electric_scooter", "is_disabled": 0, "lat": 38.88656683333333, "rental_uris": {"ios": "https://dc.lft.to/lastmile_qr_scan", "android": "https://dc.lft.to/lastmile_qr_scan"}, "is_reserved": 0, "fusion_lon": 0.0, "fusion_lat": 0.0, "lon": -77.02829866666667, "name": "8c498c372466e7517907903c281d6281"}, {"bike_id": "6fb8fe432ec37407b5814b3dd5229bc2", "type": "electric_scooter", "is_disabled": 0, "lat": 38.921483, "rental_uris": {"ios": "https://dc.lft.to/lastmile_qr_scan", "android": "https://dc.lft.to/lastmile_qr_scan"}, "is_reserved": 0, "fusion_lon": 0.0, "fusion_lat": 0.0, "lon": -77.03876283333334, "name": "6fb8fe432ec37407b5814b3dd5229bc2"}, {"bike_id": "0a64531717463793fbd8991aa814d6d8", "type": "electric_scooter", "is_disabled": 0, "lat": 38.89223666666667, "rental_uris": {"ios": "https://dc.lft.to/lastmile_qr_scan", "android": "https://dc.lft.to/lastmile_qr_scan"}, "is_reserved": 0, "fusion_lon": 0.0, "fusion_lat": 0.0, "lon": -77.0451375, "name": "0a64531717463793fbd8991aa814d6d8"}, {"bike_id": "de3db7dd182ec4f0068091f3636bf671", "type": "electric_scooter", "is_disabled": 0, "lat": 38.8922075, "rental_uris": {"ios": "https://dc.lft.to/lastmile_qr_scan", "android": "https://dc.lft.to/lastmile_qr_scan"}, "is_reserved": 0, "fusion_lon": 0.0, "fusion_lat": 0.0, "lon": -77.03979183333334, "name": "de3db7dd182ec4f0068091f3636bf671"}, {"bike_id": "56872b6abb432d89d8ab374f8a325c85", "type": "electric_scooter", "is_disabled": 0, "lat": 38.98699083333333, "rental_uris": {"ios": "https://dc.lft.to/lastmile_qr_scan", "android": "https://dc.lft.to/lastmile_qr_scan"}, "is_reserved": 0, "fusion_lon": 0.0, "fusion_lat": 0.0, "lon": -77.02979366666666, "name": "56872b6abb432d89d8ab374f8a325c85"}, {"bike_id": "e6572299f86920b22e1b574bac7e6984", "type": "electric_scooter", "is_disabled": 0, "lat": 38.918446, "rental_uris": {"ios": "https://dc.lft.to/lastmile_qr_scan", "android": "https://dc.lft.to/lastmile_qr_scan"}, "is_reserved": 0, "fusion_lon": 0.0, "fusion_lat": 0.0, "lon": -76.96555016666667, "name": "e6572299f86920b22e1b574bac7e6984"}, {"bike_id": "c4ff6259855717b216d4260dca60d168", "type": "electric_scooter", "is_disabled": 0, "lat": 38.917806166666665, "rental_uris": {"ios": "https://dc.lft.to/lastmile_qr_scan", "android": "https://dc.lft.to/lastmile_qr_scan"}, "is_reserved": 0, "fusion_lon": 0.0, "fusion_lat": 0.0, "lon": -77.02373, "name": "c4ff6259855717b216d4260dca60d168"}, {"bike_id": "c17847509aaf723afb82bf0d4e9acef3", "type": "electric_scooter", "is_disabled": 0, "lat": 38.9368405, "rental_uris": {"ios": "https://dc.lft.to/lastmile_qr_scan", "android": "https://dc.lft.to/lastmile_qr_scan"}, "is_reserved": 0, "fusion_lon": 0.0, "fusion_lat": 0.0, "lon": -77.06619433333333, "name": "c17847509aaf723afb82bf0d4e9acef3"}, {"bike_id": "f75d20e4c7995bb2685bb13f3c1e8b22", "type": "electric_scooter", "is_disabled": 0, "lat": 38.922993166666664, "rental_uris": {"ios": "https://dc.lft.to/lastmile_qr_scan", "android": "https://dc.lft.to/lastmile_qr_scan"}, "is_reserved": 0, "fusion_lon": 0.0, "fusion_lat": 0.0, "lon": -77.07314, "name": "f75d20e4c7995bb2685bb13f3c1e8b22"}, {"bike_id": "d0702e11ac3f6f19617e1857bd8ce4c6", "type": "electric_scooter", "is_disabled": 0, "lat": 38.9221335, "rental_uris": {"ios": "https://dc.lft.to/lastmile_qr_scan", "android": "https://dc.lft.to/lastmile_qr_scan"}, "is_reserved": 0, "fusion_lon": 0.0, "fusion_lat": 0.0, "lon": -77.04240566666667, "name": "d0702e11ac3f6f19617e1857bd8ce4c6"}, {"bike_id": "3fa421ea2a32f6b874edcaa004359b1e", "type": "electric_scooter", "is_disabled": 0, "lat": 38.9056115, "rental_uris": {"ios": "https://dc.lft.to/lastmile_qr_scan", "android": "https://dc.lft.to/lastmile_qr_scan"}, "is_reserved": 0, "fusion_lon": 0.0, "fusion_lat": 0.0, "lon": -77.043587, "name": "3fa421ea2a32f6b874edcaa004359b1e"}, {"bike_id": "f29f75c74c7ab64bfdb92fe63aa139fe", "type": "electric_scooter", "is_disabled": 0, "lat": 38.908907666666664, "rental_uris": {"ios": "https://dc.lft.to/lastmile_qr_scan", "android": "https://dc.lft.to/lastmile_qr_scan"}, "is_reserved": 0, "fusion_lon": 0.0, "fusion_lat": 0.0, "lon": -77.04493416666666, "name": "f29f75c74c7ab64bfdb92fe63aa139fe"}, {"bike_id": "347cad63d0dc6b3dcd1673ce7be8bd66", "type": "electric_scooter", "is_disabled": 0, "lat": 38.88712616666667, "rental_uris": {"ios": "https://dc.lft.to/lastmile_qr_scan", "android": "https://dc.lft.to/lastmile_qr_scan"}, "is_reserved": 0, "fusion_lon": 0.0, "fusion_lat": 0.0, "lon": -77.02203183333333, "name": "347cad63d0dc6b3dcd1673ce7be8bd66"}, {"bike_id": "dd816ab23e7d9e5ebea0361921d87917", "type": "electric_scooter", "is_disabled": 0, "lat": 38.88467133333333, "rental_uris": {"ios": "https://dc.lft.to/lastmile_qr_scan", "android": "https://dc.lft.to/lastmile_qr_scan"}, "is_reserved": 0, "fusion_lon": 0.0, "fusion_lat": 0.0, "lon": -77.02582433333333, "name": "dd816ab23e7d9e5ebea0361921d87917"}, {"bike_id": "5a77494f9ab5b7eb3c1914d9bdde693d", "type": "electric_scooter", "is_disabled": 0, "lat": 38.91095283333333, "rental_uris": {"ios": "https://dc.lft.to/lastmile_qr_scan", "android": "https://dc.lft.to/lastmile_qr_scan"}, "is_reserved": 0, "fusion_lon": 0.0, "fusion_lat": 0.0, "lon": -77.02181866666666, "name": "5a77494f9ab5b7eb3c1914d9bdde693d"}, {"bike_id": "bd78d6f86cdec0fb8fcf1b44160058d2", "type": "electric_scooter", "is_disabled": 0, "lat": 38.8922405, "rental_uris": {"ios": "https://dc.lft.to/lastmile_qr_scan", "android": "https://dc.lft.to/lastmile_qr_scan"}, "is_reserved": 0, "fusion_lon": 0.0, "fusion_lat": 0.0, "lon": -77.02914766666666, "name": "bd78d6f86cdec0fb8fcf1b44160058d2"}, {"bike_id": "70699b02c47562019f348007c9c1a03e", "type": "electric_scooter", "is_disabled": 0, "lat": 38.892959166666664, "rental_uris": {"ios": "https://dc.lft.to/lastmile_qr_scan", "android": "https://dc.lft.to/lastmile_qr_scan"}, "is_reserved": 0, "fusion_lon": 0.0, "fusion_lat": 0.0, "lon": -77.04877483333334, "name": "70699b02c47562019f348007c9c1a03e"}, {"bike_id": "ed43b1119bce3166596c6afd8ea56a54", "type": "electric_scooter", "is_disabled": 0, "lat": 38.91557066666667, "rental_uris": {"ios": "https://dc.lft.to/lastmile_qr_scan", "android": "https://dc.lft.to/lastmile_qr_scan"}, "is_reserved": 0, "fusion_lon": 0.0, "fusion_lat": 0.0, "lon": -77.031779, "name": "ed43b1119bce3166596c6afd8ea56a54"}, {"bike_id": "7ca12c8a8e5d6fb867dcf63dfbcc0938", "type": "electric_scooter", "is_disabled": 0, "lat": 38.86735766666666, "rental_uris": {"ios": "https://dc.lft.to/lastmile_qr_scan", "android": "https://dc.lft.to/lastmile_qr_scan"}, "is_reserved": 0, "fusion_lon": 0.0, "fusion_lat": 0.0, "lon": -76.978614, "name": "7ca12c8a8e5d6fb867dcf63dfbcc0938"}, {"bike_id": "108140ce0970a3b1e7d7be67fbe13925", "type": "electric_scooter", "is_disabled": 0, "lat": 38.923077666666664, "rental_uris": {"ios": "https://dc.lft.to/lastmile_qr_scan", "android": "https://dc.lft.to/lastmile_qr_scan"}, "is_reserved": 0, "fusion_lon": 0.0, "fusion_lat": 0.0, "lon": -77.0380405, "name": "108140ce0970a3b1e7d7be67fbe13925"}, {"bike_id": "b85926c5ba3348192f90fb883ec214dc", "type": "electric_scooter", "is_disabled": 0, "lat": 38.926044833333336, "rental_uris": {"ios": "https://dc.lft.to/lastmile_qr_scan", "android": "https://dc.lft.to/lastmile_qr_scan"}, "is_reserved": 0, "fusion_lon": 0.0, "fusion_lat": 0.0, "lon": -77.02388866666666, "name": "b85926c5ba3348192f90fb883ec214dc"}, {"bike_id": "30ad35c0fb0a93c697f384ac2f77d3e8", "type": "electric_scooter", "is_disabled": 0, "lat": 38.909424666666666, "rental_uris": {"ios": "https://dc.lft.to/lastmile_qr_scan", "android": "https://dc.lft.to/lastmile_qr_scan"}, "is_reserved": 0, "fusion_lon": 0.0, "fusion_lat": 0.0, "lon": -77.05562083333334, "name": "30ad35c0fb0a93c697f384ac2f77d3e8"}, {"bike_id": "0dd2fd02405e848ead6967b834d22234", "type": "electric_scooter", "is_disabled": 0, "lat": 38.90094033333333, "rental_uris": {"ios": "https://dc.lft.to/lastmile_qr_scan", "android": "https://dc.lft.to/lastmile_qr_scan"}, "is_reserved": 0, "fusion_lon": 0.0, "fusion_lat": 0.0, "lon": -77.02518783333333, "name": "0dd2fd02405e848ead6967b834d22234"}, {"bike_id": "6f6982866630493449dd5c1941b479d9", "type": "electric_scooter", "is_disabled": 0, "lat": 38.914205833333334, "rental_uris": {"ios": "https://dc.lft.to/lastmile_qr_scan", "android": "https://dc.lft.to/lastmile_qr_scan"}, "is_reserved": 0, "fusion_lon": 0.0, "fusion_lat": 0.0, "lon": -77.0210085, "name": "6f6982866630493449dd5c1941b479d9"}, {"bike_id": "cfffcd095071dc2535d8ff89a648ecd4", "type": "electric_scooter", "is_disabled": 0, "lat": 38.83519666666667, "rental_uris": {"ios": "https://dc.lft.to/lastmile_qr_scan", "android": "https://dc.lft.to/lastmile_qr_scan"}, "is_reserved": 0, "fusion_lon": 0.0, "fusion_lat": 0.0, "lon": -77.051292, "name": "cfffcd095071dc2535d8ff89a648ecd4"}, {"bike_id": "ae63e915319b890e398c1611787b4098", "type": "electric_scooter", "is_disabled": 0, "lat": 38.914182833333335, "rental_uris": {"ios": "https://dc.lft.to/lastmile_qr_scan", "android": "https://dc.lft.to/lastmile_qr_scan"}, "is_reserved": 0, "fusion_lon": 0.0, "fusion_lat": 0.0, "lon": -77.02214633333334, "name": "ae63e915319b890e398c1611787b4098"}, {"bike_id": "d7e876f56aeb4d368153244d9b3f1a37", "type": "electric_scooter", "is_disabled": 0, "lat": 38.92768, "rental_uris": {"ios": "https://dc.lft.to/lastmile_qr_scan", "android": "https://dc.lft.to/lastmile_qr_scan"}, "is_reserved": 0, "fusion_lon": 0.0, "fusion_lat": 0.0, "lon": -76.96099983333333, "name": "d7e876f56aeb4d368153244d9b3f1a37"}, {"bike_id": "0f637c7ed9ab3c8c6eb56fd63eb5440a", "type": "electric_scooter", "is_disabled": 0, "lat": 38.9662665, "rental_uris": {"ios": "https://dc.lft.to/lastmile_qr_scan", "android": "https://dc.lft.to/lastmile_qr_scan"}, "is_reserved": 0, "fusion_lon": 0.0, "fusion_lat": 0.0, "lon": -77.01997133333333, "name": "0f637c7ed9ab3c8c6eb56fd63eb5440a"}, {"bike_id": "23cfd2ed492ddef9194fcf9d53e38dd6", "type": "electric_scooter", "is_disabled": 0, "lat": 38.89200316666667, "rental_uris": {"ios": "https://dc.lft.to/lastmile_qr_scan", "android": "https://dc.lft.to/lastmile_qr_scan"}, "is_reserved": 0, "fusion_lon": 0.0, "fusion_lat": 0.0, "lon": -77.02482233333333, "name": "23cfd2ed492ddef9194fcf9d53e38dd6"}, {"bike_id": "2b72a11087c164d8c33cecb977cea9e8", "type": "electric_scooter", "is_disabled": 0, "lat": 38.9170815, "rental_uris": {"ios": "https://dc.lft.to/lastmile_qr_scan", "android": "https://dc.lft.to/lastmile_qr_scan"}, "is_reserved": 0, "fusion_lon": 0.0, "fusion_lat": 0.0, "lon": -77.028916, "name": "2b72a11087c164d8c33cecb977cea9e8"}, {"bike_id": "e837cbd8dae4f3bae47c48a3a570fa1b", "type": "electric_scooter", "is_disabled": 0, "lat": 38.93326866666666, "rental_uris": {"ios": "https://dc.lft.to/lastmile_qr_scan", "android": "https://dc.lft.to/lastmile_qr_scan"}, "is_reserved": 0, "fusion_lon": 0.0, "fusion_lat": 0.0, "lon": -77.02395616666666, "name": "e837cbd8dae4f3bae47c48a3a570fa1b"}, {"bike_id": "4311c325b6357909126930024de7b86e", "type": "electric_scooter", "is_disabled": 0, "lat": 38.92484183333333, "rental_uris": {"ios": "https://dc.lft.to/lastmile_qr_scan", "android": "https://dc.lft.to/lastmile_qr_scan"}, "is_reserved": 0, "fusion_lon": 0.0, "fusion_lat": 0.0, "lon": -77.02960533333334, "name": "4311c325b6357909126930024de7b86e"}, {"bike_id": "468698bcc57690f2d62b1abdf9a11ec2", "type": "electric_scooter", "is_disabled": 0, "lat": 38.89964716666667, "rental_uris": {"ios": "https://dc.lft.to/lastmile_qr_scan", "android": "https://dc.lft.to/lastmile_qr_scan"}, "is_reserved": 0, "fusion_lon": 0.0, "fusion_lat": 0.0, "lon": -76.983051, "name": "468698bcc57690f2d62b1abdf9a11ec2"}, {"bike_id": "2cd3463da7aa93660951abf97e140e2a", "type": "electric_scooter", "is_disabled": 0, "lat": 38.91704466666667, "rental_uris": {"ios": "https://dc.lft.to/lastmile_qr_scan", "android": "https://dc.lft.to/lastmile_qr_scan"}, "is_reserved": 0, "fusion_lon": 0.0, "fusion_lat": 0.0, "lon": -77.03169333333334, "name": "2cd3463da7aa93660951abf97e140e2a"}, {"bike_id": "4b7b8d88231d088710b33c5ed449dfcd", "type": "electric_scooter", "is_disabled": 0, "lat": 38.94618533333333, "rental_uris": {"ios": "https://dc.lft.to/lastmile_qr_scan", "android": "https://dc.lft.to/lastmile_qr_scan"}, "is_reserved": 0, "fusion_lon": 0.0, "fusion_lat": 0.0, "lon": -77.02265066666666, "name": "4b7b8d88231d088710b33c5ed449dfcd"}, {"bike_id": "ebaf8d4542b02eacd02cecb6a87b3f61", "type": "electric_scooter", "is_disabled": 0, "lat": 38.9056185, "rental_uris": {"ios": "https://dc.lft.to/lastmile_qr_scan", "android": "https://dc.lft.to/lastmile_qr_scan"}, "is_reserved": 0, "fusion_lon": 0.0, "fusion_lat": 0.0, "lon": -77.00588666666667, "name": "ebaf8d4542b02eacd02cecb6a87b3f61"}, {"bike_id": "f7e92bc7cf0491a3485ba63edaf1047b", "type": "electric_scooter", "is_disabled": 0, "lat": 38.9078595, "rental_uris": {"ios": "https://dc.lft.to/lastmile_qr_scan", "android": "https://dc.lft.to/lastmile_qr_scan"}, "is_reserved": 0, "fusion_lon": 0.0, "fusion_lat": 0.0, "lon": -76.99423366666667, "name": "f7e92bc7cf0491a3485ba63edaf1047b"}, {"bike_id": "4a54151bbbdf4c7cb604abc11fefefb7", "type": "electric_scooter", "is_disabled": 0, "lat": 38.939829333333336, "rental_uris": {"ios": "https://dc.lft.to/lastmile_qr_scan", "android": "https://dc.lft.to/lastmile_qr_scan"}, "is_reserved": 0, "fusion_lon": 0.0, "fusion_lat": 0.0, "lon": -77.02874716666666, "name": "4a54151bbbdf4c7cb604abc11fefefb7"}, {"bike_id": "c2b64703c4404d69acb22d1e1fcdc00c", "type": "electric_scooter", "is_disabled": 0, "lat": 38.92330616666667, "rental_uris": {"ios": "https://dc.lft.to/lastmile_qr_scan", "android": "https://dc.lft.to/lastmile_qr_scan"}, "is_reserved": 0, "fusion_lon": 0.0, "fusion_lat": 0.0, "lon": -77.000536, "name": "c2b64703c4404d69acb22d1e1fcdc00c"}, {"bike_id": "377e1c791f148059e2d0c2167496778b", "type": "electric_scooter", "is_disabled": 0, "lat": 38.866288, "rental_uris": {"ios": "https://dc.lft.to/lastmile_qr_scan", "android": "https://dc.lft.to/lastmile_qr_scan"}, "is_reserved": 0, "fusion_lon": 0.0, "fusion_lat": 0.0, "lon": -76.9871755, "name": "377e1c791f148059e2d0c2167496778b"}, {"bike_id": "b712f45200d08599b2d887ce3484529c", "type": "electric_scooter", "is_disabled": 0, "lat": 38.91414916666667, "rental_uris": {"ios": "https://dc.lft.to/lastmile_qr_scan", "android": "https://dc.lft.to/lastmile_qr_scan"}, "is_reserved": 0, "fusion_lon": 0.0, "fusion_lat": 0.0, "lon": -77.03964533333334, "name": "b712f45200d08599b2d887ce3484529c"}, {"bike_id": "e9ee7e4ce0b01e3b03d16129225bbc9d", "type": "electric_scooter", "is_disabled": 0, "lat": 38.8948885, "rental_uris": {"ios": "https://dc.lft.to/lastmile_qr_scan", "android": "https://dc.lft.to/lastmile_qr_scan"}, "is_reserved": 0, "fusion_lon": 0.0, "fusion_lat": 0.0, "lon": -76.98780833333333, "name": "e9ee7e4ce0b01e3b03d16129225bbc9d"}, {"bike_id": "baec6cb003a642474a45e64723ab41b3", "type": "electric_scooter", "is_disabled": 0, "lat": 38.89293583333333, "rental_uris": {"ios": "https://dc.lft.to/lastmile_qr_scan", "android": "https://dc.lft.to/lastmile_qr_scan"}, "is_reserved": 0, "fusion_lon": 0.0, "fusion_lat": 0.0, "lon": -77.02026216666667, "name": "baec6cb003a642474a45e64723ab41b3"}, {"bike_id": "59761451958e69da76cf83679bc866b4", "type": "electric_bike", "is_disabled": 0, "lat": 38.9436775, "rental_uris": {"ios": "https://dc.lft.to/lastmile_qr_scan", "android": "https://dc.lft.to/lastmile_qr_scan"}, "is_reserved": 0, "fusion_lon": 0.0, "fusion_lat": 0.0, "lon": -77.003506, "name": "59761451958e69da76cf83679bc866b4"}, {"bike_id": "e19df8a8ec933233e8bcdba485fea572", "type": "electric_scooter", "is_disabled": 0, "lat": 38.870716333333334, "rental_uris": {"ios": "https://dc.lft.to/lastmile_qr_scan", "android": "https://dc.lft.to/lastmile_qr_scan"}, "is_reserved": 0, "fusion_lon": 0.0, "fusion_lat": 0.0, "lon": -76.98125983333334, "name": "e19df8a8ec933233e8bcdba485fea572"}, {"bike_id": "51e83b923d80b114f059f6b59df5bcea", "type": "electric_scooter", "is_disabled": 0, "lat": 38.8924345, "rental_uris": {"ios": "https://dc.lft.to/lastmile_qr_scan", "android": "https://dc.lft.to/lastmile_qr_scan"}, "is_reserved": 0, "fusion_lon": 0.0, "fusion_lat": 0.0, "lon": -77.02612383333333, "name": "51e83b923d80b114f059f6b59df5bcea"}, {"bike_id": "445412d7df43b2ced3eb5d74abf5753d", "type": "electric_bike", "is_disabled": 0, "lat": 38.807586666666666, "rental_uris": {"ios": "https://dc.lft.to/lastmile_qr_scan", "android": "https://dc.lft.to/lastmile_qr_scan"}, "is_reserved": 0, "fusion_lon": 0.0, "fusion_lat": 0.0, "lon": -77.0945555, "name": "445412d7df43b2ced3eb5d74abf5753d"}, {"bike_id": "e13b43b4d666f9ae4144a8f9198ad4c2", "type": "electric_scooter", "is_disabled": 0, "lat": 38.88713, "rental_uris": {"ios": "https://dc.lft.to/lastmile_qr_scan", "android": "https://dc.lft.to/lastmile_qr_scan"}, "is_reserved": 0, "fusion_lon": 0.0, "fusion_lat": 0.0, "lon": -77.02204383333333, "name": "e13b43b4d666f9ae4144a8f9198ad4c2"}, {"bike_id": "840784c51342299c23a78c167b66fc0e", "type": "electric_scooter", "is_disabled": 0, "lat": 38.85812766666667, "rental_uris": {"ios": "https://dc.lft.to/lastmile_qr_scan", "android": "https://dc.lft.to/lastmile_qr_scan"}, "is_reserved": 0, "fusion_lon": 0.0, "fusion_lat": 0.0, "lon": -76.9892385, "name": "840784c51342299c23a78c167b66fc0e"}, {"bike_id": "f22d1f4d163ca652fe9595de42200bdc", "type": "electric_bike", "is_disabled": 0, "lat": 38.864774833333335, "rental_uris": {"ios": "https://dc.lft.to/lastmile_qr_scan", "android": "https://dc.lft.to/lastmile_qr_scan"}, "is_reserved": 0, "fusion_lon": 0.0, "fusion_lat": 0.0, "lon": -76.97745083333334, "name": "f22d1f4d163ca652fe9595de42200bdc"}, {"bike_id": "3f5255623ac75e20f0278029fd8d4f50", "type": "electric_bike", "is_disabled": 0, "lat": 38.942629333333336, "rental_uris": {"ios": "https://dc.lft.to/lastmile_qr_scan", "android": "https://dc.lft.to/lastmile_qr_scan"}, "is_reserved": 0, "fusion_lon": 0.0, "fusion_lat": 0.0, "lon": -76.99069033333333, "name": "3f5255623ac75e20f0278029fd8d4f50"}, {"bike_id": "7226ccb317a315a8959cbec97fe6ecab", "type": "electric_scooter", "is_disabled": 0, "lat": 38.91706033333333, "rental_uris": {"ios": "https://dc.lft.to/lastmile_qr_scan", "android": "https://dc.lft.to/lastmile_qr_scan"}, "is_reserved": 0, "fusion_lon": 0.0, "fusion_lat": 0.0, "lon": -77.04081516666666, "name": "7226ccb317a315a8959cbec97fe6ecab"}, {"bike_id": "5e1b0e2076e5b66dcd852dad6052e44e", "type": "electric_scooter", "is_disabled": 0, "lat": 38.925589, "rental_uris": {"ios": "https://dc.lft.to/lastmile_qr_scan", "android": "https://dc.lft.to/lastmile_qr_scan"}, "is_reserved": 0, "fusion_lon": 0.0, "fusion_lat": 0.0, "lon": -77.033636, "name": "5e1b0e2076e5b66dcd852dad6052e44e"}, {"bike_id": "c5f589870654510a4c955891555c8534", "type": "electric_scooter", "is_disabled": 0, "lat": 38.8988495, "rental_uris": {"ios": "https://dc.lft.to/lastmile_qr_scan", "android": "https://dc.lft.to/lastmile_qr_scan"}, "is_reserved": 0, "fusion_lon": 0.0, "fusion_lat": 0.0, "lon": -76.93175216666667, "name": "c5f589870654510a4c955891555c8534"}, {"bike_id": "cb64ea2264d5801f5ee37d6cb6717cb0", "type": "electric_scooter", "is_disabled": 0, "lat": 38.928633, "rental_uris": {"ios": "https://dc.lft.to/lastmile_qr_scan", "android": "https://dc.lft.to/lastmile_qr_scan"}, "is_reserved": 0, "fusion_lon": 0.0, "fusion_lat": 0.0, "lon": -77.03711166666666, "name": "cb64ea2264d5801f5ee37d6cb6717cb0"}, {"bike_id": "ae89cdb8c0dbde5baa459f8dad7b95fb", "type": "electric_scooter", "is_disabled": 0, "lat": 38.95114133333333, "rental_uris": {"ios": "https://dc.lft.to/lastmile_qr_scan", "android": "https://dc.lft.to/lastmile_qr_scan"}, "is_reserved": 0, "fusion_lon": 0.0, "fusion_lat": 0.0, "lon": -77.01435583333334, "name": "ae89cdb8c0dbde5baa459f8dad7b95fb"}, {"bike_id": "b9c0e46c50227470c1dc5a1c4a0f245a", "type": "electric_scooter", "is_disabled": 0, "lat": 38.895011833333335, "rental_uris": {"ios": "https://dc.lft.to/lastmile_qr_scan", "android": "https://dc.lft.to/lastmile_qr_scan"}, "is_reserved": 0, "fusion_lon": 0.0, "fusion_lat": 0.0, "lon": -76.93475816666667, "name": "b9c0e46c50227470c1dc5a1c4a0f245a"}, {"bike_id": "86631fb8cce1320b1e9b9636e8ecf730", "type": "electric_scooter", "is_disabled": 0, "lat": 38.94927366666667, "rental_uris": {"ios": "https://dc.lft.to/lastmile_qr_scan", "android": "https://dc.lft.to/lastmile_qr_scan"}, "is_reserved": 0, "fusion_lon": 0.0, "fusion_lat": 0.0, "lon": -77.06538266666666, "name": "86631fb8cce1320b1e9b9636e8ecf730"}, {"bike_id": "87334d3255f949c16211f5552010f4fa", "type": "electric_bike", "is_disabled": 0, "lat": 38.848396, "rental_uris": {"ios": "https://dc.lft.to/lastmile_qr_scan", "android": "https://dc.lft.to/lastmile_qr_scan"}, "is_reserved": 0, "fusion_lon": 0.0, "fusion_lat": 0.0, "lon": -77.07918033333333, "name": "87334d3255f949c16211f5552010f4fa"}, {"bike_id": "c83a55a74821a256ad137300df06f8b9", "type": "electric_scooter", "is_disabled": 0, "lat": 38.866943666666664, "rental_uris": {"ios": "https://dc.lft.to/lastmile_qr_scan", "android": "https://dc.lft.to/lastmile_qr_scan"}, "is_reserved": 0, "fusion_lon": 0.0, "fusion_lat": 0.0, "lon": -76.98565933333333, "name": "c83a55a74821a256ad137300df06f8b9"}, {"bike_id": "1cdd32c2a383750f46499c69d16d907c", "type": "electric_scooter", "is_disabled": 0, "lat": 38.90417216666667, "rental_uris": {"ios": "https://dc.lft.to/lastmile_qr_scan", "android": "https://dc.lft.to/lastmile_qr_scan"}, "is_reserved": 0, "fusion_lon": 0.0, "fusion_lat": 0.0, "lon": -77.04866333333334, "name": "1cdd32c2a383750f46499c69d16d907c"}, {"bike_id": "bd36afe9e9a5565279dab49ab03954fd", "type": "electric_scooter", "is_disabled": 0, "lat": 38.90198783333334, "rental_uris": {"ios": "https://dc.lft.to/lastmile_qr_scan", "android": "https://dc.lft.to/lastmile_qr_scan"}, "is_reserved": 0, "fusion_lon": 0.0, "fusion_lat": 0.0, "lon": -77.02310433333334, "name": "bd36afe9e9a5565279dab49ab03954fd"}, {"bike_id": "7b7d93755968e81eb51ccd2bba75675e", "type": "electric_bike", "is_disabled": 0, "lat": 39.057910666666665, "rental_uris": {"ios": "https://dc.lft.to/lastmile_qr_scan", "android": "https://dc.lft.to/lastmile_qr_scan"}, "is_reserved": 0, "fusion_lon": 0.0, "fusion_lat": 0.0, "lon": -77.15024383333333, "name": "7b7d93755968e81eb51ccd2bba75675e"}, {"bike_id": "7989b5be1ade2609e7a85c2b8b02b459", "type": "electric_scooter", "is_disabled": 0, "lat": 38.918170833333335, "rental_uris": {"ios": "https://dc.lft.to/lastmile_qr_scan", "android": "https://dc.lft.to/lastmile_qr_scan"}, "is_reserved": 0, "fusion_lon": 0.0, "fusion_lat": 0.0, "lon": -77.02480583333333, "name": "7989b5be1ade2609e7a85c2b8b02b459"}, {"bike_id": "b10823a7b606fd5dc407bd4122d33f4d", "type": "electric_scooter", "is_disabled": 0, "lat": 38.91629283333333, "rental_uris": {"ios": "https://dc.lft.to/lastmile_qr_scan", "android": "https://dc.lft.to/lastmile_qr_scan"}, "is_reserved": 0, "fusion_lon": 0.0, "fusion_lat": 0.0, "lon": -77.0240115, "name": "b10823a7b606fd5dc407bd4122d33f4d"}, {"bike_id": "5e542a7f255d752049dea1efc0013395", "type": "electric_scooter", "is_disabled": 0, "lat": 38.892445, "rental_uris": {"ios": "https://dc.lft.to/lastmile_qr_scan", "android": "https://dc.lft.to/lastmile_qr_scan"}, "is_reserved": 0, "fusion_lon": 0.0, "fusion_lat": 0.0, "lon": -77.03352, "name": "5e542a7f255d752049dea1efc0013395"}, {"bike_id": "c49ffb613060ff08b508e927dcb069e5", "type": "electric_scooter", "is_disabled": 0, "lat": 38.907849666666664, "rental_uris": {"ios": "https://dc.lft.to/lastmile_qr_scan", "android": "https://dc.lft.to/lastmile_qr_scan"}, "is_reserved": 0, "fusion_lon": 0.0, "fusion_lat": 0.0, "lon": -77.01865966666666, "name": "c49ffb613060ff08b508e927dcb069e5"}, {"bike_id": "15766ff9990e543d56c508af331158d7", "type": "electric_scooter", "is_disabled": 0, "lat": 38.857014666666664, "rental_uris": {"ios": "https://dc.lft.to/lastmile_qr_scan", "android": "https://dc.lft.to/lastmile_qr_scan"}, "is_reserved": 0, "fusion_lon": 0.0, "fusion_lat": 0.0, "lon": -76.98962016666667, "name": "15766ff9990e543d56c508af331158d7"}, {"bike_id": "448fd88d76ba3786d8852d140e714659", "type": "electric_scooter", "is_disabled": 0, "lat": 38.8712235, "rental_uris": {"ios": "https://dc.lft.to/lastmile_qr_scan", "android": "https://dc.lft.to/lastmile_qr_scan"}, "is_reserved": 0, "fusion_lon": 0.0, "fusion_lat": 0.0, "lon": -76.98244533333333, "name": "448fd88d76ba3786d8852d140e714659"}, {"bike_id": "ea5cdd8566f2b12b6f9b7e22870f1938", "type": "electric_scooter", "is_disabled": 0, "lat": 38.905233, "rental_uris": {"ios": "https://dc.lft.to/lastmile_qr_scan", "android": "https://dc.lft.to/lastmile_qr_scan"}, "is_reserved": 0, "fusion_lon": 0.0, "fusion_lat": 0.0, "lon": -77.05009233333334, "name": "ea5cdd8566f2b12b6f9b7e22870f1938"}, {"bike_id": "cdfe4c21fa9d04d53459cb3645dd353a", "type": "electric_bike", "is_disabled": 0, "lat": 38.8198805, "rental_uris": {"ios": "https://dc.lft.to/lastmile_qr_scan", "android": "https://dc.lft.to/lastmile_qr_scan"}, "is_reserved": 0, "fusion_lon": 0.0, "fusion_lat": 0.0, "lon": -76.9981765, "name": "cdfe4c21fa9d04d53459cb3645dd353a"}, {"bike_id": "33cc7b7e25d4139a7a94f36ba1c5eff9", "type": "electric_scooter", "is_disabled": 0, "lat": 38.852071333333335, "rental_uris": {"ios": "https://dc.lft.to/lastmile_qr_scan", "android": "https://dc.lft.to/lastmile_qr_scan"}, "is_reserved": 0, "fusion_lon": 0.0, "fusion_lat": 0.0, "lon": -76.98557983333333, "name": "33cc7b7e25d4139a7a94f36ba1c5eff9"}, {"bike_id": "c3f68a20dd8bb72b1e23a6e9bb8512e0", "type": "electric_scooter", "is_disabled": 0, "lat": 38.900583833333336, "rental_uris": {"ios": "https://dc.lft.to/lastmile_qr_scan", "android": "https://dc.lft.to/lastmile_qr_scan"}, "is_reserved": 0, "fusion_lon": 0.0, "fusion_lat": 0.0, "lon": -76.9347405, "name": "c3f68a20dd8bb72b1e23a6e9bb8512e0"}, {"bike_id": "0fb39fa3c24a74e0763fc22fc909b363", "type": "electric_scooter", "is_disabled": 0, "lat": 38.91122, "rental_uris": {"ios": "https://dc.lft.to/lastmile_qr_scan", "android": "https://dc.lft.to/lastmile_qr_scan"}, "is_reserved": 0, "fusion_lon": 0.0, "fusion_lat": 0.0, "lon": -77.02242666666666, "name": "0fb39fa3c24a74e0763fc22fc909b363"}, {"bike_id": "9bd8495c37ba8c5b8b342e5aa50244e1", "type": "electric_scooter", "is_disabled": 0, "lat": 38.89222783333334, "rental_uris": {"ios": "https://dc.lft.to/lastmile_qr_scan", "android": "https://dc.lft.to/lastmile_qr_scan"}, "is_reserved": 0, "fusion_lon": 0.0, "fusion_lat": 0.0, "lon": -77.027805, "name": "9bd8495c37ba8c5b8b342e5aa50244e1"}, {"bike_id": "c276e33af543481156ae063da6e31a65", "type": "electric_scooter", "is_disabled": 0, "lat": 38.9196615, "rental_uris": {"ios": "https://dc.lft.to/lastmile_qr_scan", "android": "https://dc.lft.to/lastmile_qr_scan"}, "is_reserved": 0, "fusion_lon": 0.0, "fusion_lat": 0.0, "lon": -77.01440983333333, "name": "c276e33af543481156ae063da6e31a65"}, {"bike_id": "0eda34b77914aab388993a380b5389d0", "type": "electric_scooter", "is_disabled": 0, "lat": 38.89845033333334, "rental_uris": {"ios": "https://dc.lft.to/lastmile_qr_scan", "android": "https://dc.lft.to/lastmile_qr_scan"}, "is_reserved": 0, "fusion_lon": 0.0, "fusion_lat": 0.0, "lon": -76.94635433333333, "name": "0eda34b77914aab388993a380b5389d0"}, {"bike_id": "59629935e5e2b69949d2355c80fa3969", "type": "electric_bike", "is_disabled": 0, "lat": 38.90870266666667, "rental_uris": {"ios": "https://dc.lft.to/lastmile_qr_scan", "android": "https://dc.lft.to/lastmile_qr_scan"}, "is_reserved": 0, "fusion_lon": 0.0, "fusion_lat": 0.0, "lon": -77.07645683333334, "name": "59629935e5e2b69949d2355c80fa3969"}, {"bike_id": "12818eb7b8210e786799e83efbb9e565", "type": "electric_scooter", "is_disabled": 0, "lat": 38.917199, "rental_uris": {"ios": "https://dc.lft.to/lastmile_qr_scan", "android": "https://dc.lft.to/lastmile_qr_scan"}, "is_reserved": 0, "fusion_lon": 0.0, "fusion_lat": 0.0, "lon": -77.028834, "name": "12818eb7b8210e786799e83efbb9e565"}, {"bike_id": "d47bd51f68ce20fe5b93370156ce1a65", "type": "electric_scooter", "is_disabled": 0, "lat": 38.920525166666664, "rental_uris": {"ios": "https://dc.lft.to/lastmile_qr_scan", "android": "https://dc.lft.to/lastmile_qr_scan"}, "is_reserved": 0, "fusion_lon": 0.0, "fusion_lat": 0.0, "lon": -77.0236515, "name": "d47bd51f68ce20fe5b93370156ce1a65"}, {"bike_id": "8231fb9a90c51949a08663cb6f74b09d", "type": "electric_scooter", "is_disabled": 0, "lat": 38.894792, "rental_uris": {"ios": "https://dc.lft.to/lastmile_qr_scan", "android": "https://dc.lft.to/lastmile_qr_scan"}, "is_reserved": 0, "fusion_lon": 0.0, "fusion_lat": 0.0, "lon": -76.99486216666666, "name": "8231fb9a90c51949a08663cb6f74b09d"}, {"bike_id": "5f1ec57b36546d3e34eae82ec01434ad", "type": "electric_scooter", "is_disabled": 0, "lat": 38.915956, "rental_uris": {"ios": "https://dc.lft.to/lastmile_qr_scan", "android": "https://dc.lft.to/lastmile_qr_scan"}, "is_reserved": 0, "fusion_lon": 0.0, "fusion_lat": 0.0, "lon": -77.001942, "name": "5f1ec57b36546d3e34eae82ec01434ad"}, {"bike_id": "8475e20bb873b27749b73692a0bc69d3", "type": "electric_bike", "is_disabled": 0, "lat": 39.01481916666667, "rental_uris": {"ios": "https://dc.lft.to/lastmile_qr_scan", "android": "https://dc.lft.to/lastmile_qr_scan"}, "is_reserved": 0, "fusion_lon": 0.0, "fusion_lat": 0.0, "lon": -77.054926, "name": "8475e20bb873b27749b73692a0bc69d3"}, {"bike_id": "0166b6c18373ed6bcd474b58d4ec14c6", "type": "electric_scooter", "is_disabled": 0, "lat": 38.892203333333335, "rental_uris": {"ios": "https://dc.lft.to/lastmile_qr_scan", "android": "https://dc.lft.to/lastmile_qr_scan"}, "is_reserved": 0, "fusion_lon": 0.0, "fusion_lat": 0.0, "lon": -77.0419475, "name": "0166b6c18373ed6bcd474b58d4ec14c6"}, {"bike_id": "47f10d7bda2624947315a589068eaab1", "type": "electric_scooter", "is_disabled": 0, "lat": 38.9164005, "rental_uris": {"ios": "https://dc.lft.to/lastmile_qr_scan", "android": "https://dc.lft.to/lastmile_qr_scan"}, "is_reserved": 0, "fusion_lon": 0.0, "fusion_lat": 0.0, "lon": -77.00047433333333, "name": "47f10d7bda2624947315a589068eaab1"}, {"bike_id": "ee029d31344a5e812c4014af9a4ac11b", "type": "electric_scooter", "is_disabled": 0, "lat": 38.908294, "rental_uris": {"ios": "https://dc.lft.to/lastmile_qr_scan", "android": "https://dc.lft.to/lastmile_qr_scan"}, "is_reserved": 0, "fusion_lon": 0.0, "fusion_lat": 0.0, "lon": -77.02697383333333, "name": "ee029d31344a5e812c4014af9a4ac11b"}, {"bike_id": "830e90d84aab5ccc5e78c936399d8de2", "type": "electric_scooter", "is_disabled": 0, "lat": 38.9186555, "rental_uris": {"ios": "https://dc.lft.to/lastmile_qr_scan", "android": "https://dc.lft.to/lastmile_qr_scan"}, "is_reserved": 0, "fusion_lon": 0.0, "fusion_lat": 0.0, "lon": -77.03659083333334, "name": "830e90d84aab5ccc5e78c936399d8de2"}, {"bike_id": "d6112d13950c16df934c6a081e3c4249", "type": "electric_scooter", "is_disabled": 0, "lat": 38.862105, "rental_uris": {"ios": "https://dc.lft.to/lastmile_qr_scan", "android": "https://dc.lft.to/lastmile_qr_scan"}, "is_reserved": 0, "fusion_lon": 0.0, "fusion_lat": 0.0, "lon": -76.994672, "name": "d6112d13950c16df934c6a081e3c4249"}, {"bike_id": "75171f6bb933c6bc1c86bff9bd15ae3e", "type": "electric_scooter", "is_disabled": 0, "lat": 38.9114235, "rental_uris": {"ios": "https://dc.lft.to/lastmile_qr_scan", "android": "https://dc.lft.to/lastmile_qr_scan"}, "is_reserved": 0, "fusion_lon": 0.0, "fusion_lat": 0.0, "lon": -77.02818183333333, "name": "75171f6bb933c6bc1c86bff9bd15ae3e"}, {"bike_id": "8198f22532b2b39a4475b54b22aedbf0", "type": "electric_scooter", "is_disabled": 0, "lat": 38.91898416666667, "rental_uris": {"ios": "https://dc.lft.to/lastmile_qr_scan", "android": "https://dc.lft.to/lastmile_qr_scan"}, "is_reserved": 0, "fusion_lon": 0.0, "fusion_lat": 0.0, "lon": -77.0318875, "name": "8198f22532b2b39a4475b54b22aedbf0"}, {"bike_id": "d9921fe8c2e7f66643568149011e2616", "type": "electric_scooter", "is_disabled": 0, "lat": 38.90580333333333, "rental_uris": {"ios": "https://dc.lft.to/lastmile_qr_scan", "android": "https://dc.lft.to/lastmile_qr_scan"}, "is_reserved": 0, "fusion_lon": 0.0, "fusion_lat": 0.0, "lon": -77.04204466666667, "name": "d9921fe8c2e7f66643568149011e2616"}, {"bike_id": "c0cda9381dc2d33366b051bdbca320e4", "type": "electric_scooter", "is_disabled": 0, "lat": 38.909811, "rental_uris": {"ios": "https://dc.lft.to/lastmile_qr_scan", "android": "https://dc.lft.to/lastmile_qr_scan"}, "is_reserved": 0, "fusion_lon": 0.0, "fusion_lat": 0.0, "lon": -77.03232916666667, "name": "c0cda9381dc2d33366b051bdbca320e4"}, {"bike_id": "f8aec65c31c4952779d147dbe521631a", "type": "electric_scooter", "is_disabled": 0, "lat": 38.913162666666665, "rental_uris": {"ios": "https://dc.lft.to/lastmile_qr_scan", "android": "https://dc.lft.to/lastmile_qr_scan"}, "is_reserved": 0, "fusion_lon": 0.0, "fusion_lat": 0.0, "lon": -76.98654383333333, "name": "f8aec65c31c4952779d147dbe521631a"}, {"bike_id": "d6517db6bd8de8d35491f0c7b8e95f36", "type": "electric_scooter", "is_disabled": 0, "lat": 38.90418116666667, "rental_uris": {"ios": "https://dc.lft.to/lastmile_qr_scan", "android": "https://dc.lft.to/lastmile_qr_scan"}, "is_reserved": 0, "fusion_lon": 0.0, "fusion_lat": 0.0, "lon": -76.99071266666667, "name": "d6517db6bd8de8d35491f0c7b8e95f36"}, {"bike_id": "c1a864105c1b3566b0b1376785661588", "type": "electric_scooter", "is_disabled": 0, "lat": 38.891929833333336, "rental_uris": {"ios": "https://dc.lft.to/lastmile_qr_scan", "android": "https://dc.lft.to/lastmile_qr_scan"}, "is_reserved": 0, "fusion_lon": 0.0, "fusion_lat": 0.0, "lon": -76.99938566666667, "name": "c1a864105c1b3566b0b1376785661588"}, {"bike_id": "0dc10404d7191c2cca866df607e69f3b", "type": "electric_scooter", "is_disabled": 0, "lat": 38.89797016666667, "rental_uris": {"ios": "https://dc.lft.to/lastmile_qr_scan", "android": "https://dc.lft.to/lastmile_qr_scan"}, "is_reserved": 0, "fusion_lon": 0.0, "fusion_lat": 0.0, "lon": -77.02480033333333, "name": "0dc10404d7191c2cca866df607e69f3b"}, {"bike_id": "9efd72ead65cb3f55403c5bc73969f66", "type": "electric_scooter", "is_disabled": 0, "lat": 38.89036383333333, "rental_uris": {"ios": "https://dc.lft.to/lastmile_qr_scan", "android": "https://dc.lft.to/lastmile_qr_scan"}, "is_reserved": 0, "fusion_lon": 0.0, "fusion_lat": 0.0, "lon": -76.937545, "name": "9efd72ead65cb3f55403c5bc73969f66"}, {"bike_id": "b99f0636c27e52f9b86c5b224ec0d3b1", "type": "electric_scooter", "is_disabled": 0, "lat": 38.921082, "rental_uris": {"ios": "https://dc.lft.to/lastmile_qr_scan", "android": "https://dc.lft.to/lastmile_qr_scan"}, "is_reserved": 0, "fusion_lon": 0.0, "fusion_lat": 0.0, "lon": -77.03642716666667, "name": "b99f0636c27e52f9b86c5b224ec0d3b1"}, {"bike_id": "612a43c892813d92d147330ed831340a", "type": "electric_scooter", "is_disabled": 0, "lat": 38.92056633333333, "rental_uris": {"ios": "https://dc.lft.to/lastmile_qr_scan", "android": "https://dc.lft.to/lastmile_qr_scan"}, "is_reserved": 0, "fusion_lon": 0.0, "fusion_lat": 0.0, "lon": -77.0236275, "name": "612a43c892813d92d147330ed831340a"}, {"bike_id": "2527b4eab5212e1f0771bcb5b2a32433", "type": "electric_scooter", "is_disabled": 0, "lat": 38.904005, "rental_uris": {"ios": "https://dc.lft.to/lastmile_qr_scan", "android": "https://dc.lft.to/lastmile_qr_scan"}, "is_reserved": 0, "fusion_lon": 0.0, "fusion_lat": 0.0, "lon": -77.06771983333333, "name": "2527b4eab5212e1f0771bcb5b2a32433"}, {"bike_id": "a5927488c2bda8143376bc7d877cd69e", "type": "electric_scooter", "is_disabled": 0, "lat": 38.9565365, "rental_uris": {"ios": "https://dc.lft.to/lastmile_qr_scan", "android": "https://dc.lft.to/lastmile_qr_scan"}, "is_reserved": 0, "fusion_lon": 0.0, "fusion_lat": 0.0, "lon": -77.01968533333333, "name": "a5927488c2bda8143376bc7d877cd69e"}, {"bike_id": "dc7102b885f5039ebf3feff4836ab71b", "type": "electric_scooter", "is_disabled": 0, "lat": 38.908951333333334, "rental_uris": {"ios": "https://dc.lft.to/lastmile_qr_scan", "android": "https://dc.lft.to/lastmile_qr_scan"}, "is_reserved": 0, "fusion_lon": 0.0, "fusion_lat": 0.0, "lon": -77.04339033333333, "name": "dc7102b885f5039ebf3feff4836ab71b"}, {"bike_id": "5dd8dda5748c7626460f7be92bd31687", "type": "electric_scooter", "is_disabled": 0, "lat": 38.91845216666667, "rental_uris": {"ios": "https://dc.lft.to/lastmile_qr_scan", "android": "https://dc.lft.to/lastmile_qr_scan"}, "is_reserved": 0, "fusion_lon": 0.0, "fusion_lat": 0.0, "lon": -77.02517733333333, "name": "5dd8dda5748c7626460f7be92bd31687"}, {"bike_id": "8b1cd24319321672c662f08897c9e8e9", "type": "electric_scooter", "is_disabled": 0, "lat": 38.86698466666667, "rental_uris": {"ios": "https://dc.lft.to/lastmile_qr_scan", "android": "https://dc.lft.to/lastmile_qr_scan"}, "is_reserved": 0, "fusion_lon": 0.0, "fusion_lat": 0.0, "lon": -76.98714083333333, "name": "8b1cd24319321672c662f08897c9e8e9"}, {"bike_id": "312ee2e6441da66780dc82629eca65c3", "type": "electric_scooter", "is_disabled": 0, "lat": 38.905258, "rental_uris": {"ios": "https://dc.lft.to/lastmile_qr_scan", "android": "https://dc.lft.to/lastmile_qr_scan"}, "is_reserved": 0, "fusion_lon": 0.0, "fusion_lat": 0.0, "lon": -76.98623133333334, "name": "312ee2e6441da66780dc82629eca65c3"}, {"bike_id": "ff2ae75254984f87cfb5af7afbfbd0d0", "type": "electric_scooter", "is_disabled": 0, "lat": 38.86212, "rental_uris": {"ios": "https://dc.lft.to/lastmile_qr_scan", "android": "https://dc.lft.to/lastmile_qr_scan"}, "is_reserved": 0, "fusion_lon": 0.0, "fusion_lat": 0.0, "lon": -76.99472333333334, "name": "ff2ae75254984f87cfb5af7afbfbd0d0"}, {"bike_id": "1a6d3b96a21aaeddddbff5eb03e1eadd", "type": "electric_scooter", "is_disabled": 0, "lat": 38.921626333333336, "rental_uris": {"ios": "https://dc.lft.to/lastmile_qr_scan", "android": "https://dc.lft.to/lastmile_qr_scan"}, "is_reserved": 0, "fusion_lon": 0.0, "fusion_lat": 0.0, "lon": -77.0385395, "name": "1a6d3b96a21aaeddddbff5eb03e1eadd"}, {"bike_id": "bae0065c209012935a560e25bad620a6", "type": "electric_scooter", "is_disabled": 0, "lat": 38.857614, "rental_uris": {"ios": "https://dc.lft.to/lastmile_qr_scan", "android": "https://dc.lft.to/lastmile_qr_scan"}, "is_reserved": 0, "fusion_lon": 0.0, "fusion_lat": 0.0, "lon": -76.992998, "name": "bae0065c209012935a560e25bad620a6"}, {"bike_id": "8a8ad422c7afd9fc931b063877d605ff", "type": "electric_scooter", "is_disabled": 0, "lat": 38.91694483333333, "rental_uris": {"ios": "https://dc.lft.to/lastmile_qr_scan", "android": "https://dc.lft.to/lastmile_qr_scan"}, "is_reserved": 0, "fusion_lon": 0.0, "fusion_lat": 0.0, "lon": -77.0259865, "name": "8a8ad422c7afd9fc931b063877d605ff"}, {"bike_id": "2f309a93aac74f3d3dc972c4a14d76a2", "type": "electric_bike", "is_disabled": 0, "lat": 38.906222166666666, "rental_uris": {"ios": "https://dc.lft.to/lastmile_qr_scan", "android": "https://dc.lft.to/lastmile_qr_scan"}, "is_reserved": 0, "fusion_lon": 0.0, "fusion_lat": 0.0, "lon": -76.98599833333333, "name": "2f309a93aac74f3d3dc972c4a14d76a2"}, {"bike_id": "e01a3c16e2bc6443c2bcee9fef5b6f99", "type": "electric_scooter", "is_disabled": 0, "lat": 38.947162666666664, "rental_uris": {"ios": "https://dc.lft.to/lastmile_qr_scan", "android": "https://dc.lft.to/lastmile_qr_scan"}, "is_reserved": 0, "fusion_lon": 0.0, "fusion_lat": 0.0, "lon": -77.02780533333333, "name": "e01a3c16e2bc6443c2bcee9fef5b6f99"}, {"bike_id": "f62e1211860d9bb2d20da07cc785d3f0", "type": "electric_scooter", "is_disabled": 0, "lat": 38.93817966666667, "rental_uris": {"ios": "https://dc.lft.to/lastmile_qr_scan", "android": "https://dc.lft.to/lastmile_qr_scan"}, "is_reserved": 0, "fusion_lon": 0.0, "fusion_lat": 0.0, "lon": -77.02712583333333, "name": "f62e1211860d9bb2d20da07cc785d3f0"}, {"bike_id": "00c90e4f5396e2fc99cc94e7ec1c6e70", "type": "electric_scooter", "is_disabled": 0, "lat": 38.894807666666665, "rental_uris": {"ios": "https://dc.lft.to/lastmile_qr_scan", "android": "https://dc.lft.to/lastmile_qr_scan"}, "is_reserved": 0, "fusion_lon": 0.0, "fusion_lat": 0.0, "lon": -76.99514983333333, "name": "00c90e4f5396e2fc99cc94e7ec1c6e70"}, {"bike_id": "3405e14aaaa7e30b2761d5233c570150", "type": "electric_scooter", "is_disabled": 0, "lat": 38.9235515, "rental_uris": {"ios": "https://dc.lft.to/lastmile_qr_scan", "android": "https://dc.lft.to/lastmile_qr_scan"}, "is_reserved": 0, "fusion_lon": 0.0, "fusion_lat": 0.0, "lon": -77.0354535, "name": "3405e14aaaa7e30b2761d5233c570150"}, {"bike_id": "3db411e9d0af8b6981c55988607a4c74", "type": "electric_bike", "is_disabled": 0, "lat": 38.86334216666667, "rental_uris": {"ios": "https://dc.lft.to/lastmile_qr_scan", "android": "https://dc.lft.to/lastmile_qr_scan"}, "is_reserved": 0, "fusion_lon": 0.0, "fusion_lat": 0.0, "lon": -76.98722916666667, "name": "3db411e9d0af8b6981c55988607a4c74"}, {"bike_id": "7cd0b586346afa14285409aef5ac1046", "type": "electric_bike", "is_disabled": 0, "lat": 38.953552333333334, "rental_uris": {"ios": "https://dc.lft.to/lastmile_qr_scan", "android": "https://dc.lft.to/lastmile_qr_scan"}, "is_reserved": 0, "fusion_lon": 0.0, "fusion_lat": 0.0, "lon": -77.03649683333333, "name": "7cd0b586346afa14285409aef5ac1046"}, {"bike_id": "294b3c64aebd177bef1d3b75fbf8b3a3", "type": "electric_scooter", "is_disabled": 0, "lat": 38.913737, "rental_uris": {"ios": "https://dc.lft.to/lastmile_qr_scan", "android": "https://dc.lft.to/lastmile_qr_scan"}, "is_reserved": 0, "fusion_lon": 0.0, "fusion_lat": 0.0, "lon": -77.04605133333334, "name": "294b3c64aebd177bef1d3b75fbf8b3a3"}, {"bike_id": "6d8f8746cc6ef8bf3a2c219b193a98df", "type": "electric_bike", "is_disabled": 0, "lat": 38.829493166666666, "rental_uris": {"ios": "https://dc.lft.to/lastmile_qr_scan", "android": "https://dc.lft.to/lastmile_qr_scan"}, "is_reserved": 0, "fusion_lon": 0.0, "fusion_lat": 0.0, "lon": -77.12353316666666, "name": "6d8f8746cc6ef8bf3a2c219b193a98df"}, {"bike_id": "3ea7baa00e506d3abb8356106ddfdbf1", "type": "electric_scooter", "is_disabled": 0, "lat": 38.93377816666667, "rental_uris": {"ios": "https://dc.lft.to/lastmile_qr_scan", "android": "https://dc.lft.to/lastmile_qr_scan"}, "is_reserved": 0, "fusion_lon": 0.0, "fusion_lat": 0.0, "lon": -77.057316, "name": "3ea7baa00e506d3abb8356106ddfdbf1"}, {"bike_id": "90905a2e7b6219600feaf313b2d535d6", "type": "electric_scooter", "is_disabled": 0, "lat": 38.91060983333333, "rental_uris": {"ios": "https://dc.lft.to/lastmile_qr_scan", "android": "https://dc.lft.to/lastmile_qr_scan"}, "is_reserved": 0, "fusion_lon": 0.0, "fusion_lat": 0.0, "lon": -77.02192333333333, "name": "90905a2e7b6219600feaf313b2d535d6"}, {"bike_id": "91aacf88a4ca6cd773a47389e33c0914", "type": "electric_scooter", "is_disabled": 0, "lat": 38.92364116666667, "rental_uris": {"ios": "https://dc.lft.to/lastmile_qr_scan", "android": "https://dc.lft.to/lastmile_qr_scan"}, "is_reserved": 0, "fusion_lon": 0.0, "fusion_lat": 0.0, "lon": -77.0512845, "name": "91aacf88a4ca6cd773a47389e33c0914"}, {"bike_id": "e922406a759c5fc18b384be03850712f", "type": "electric_scooter", "is_disabled": 0, "lat": 38.91608733333333, "rental_uris": {"ios": "https://dc.lft.to/lastmile_qr_scan", "android": "https://dc.lft.to/lastmile_qr_scan"}, "is_reserved": 0, "fusion_lon": 0.0, "fusion_lat": 0.0, "lon": -77.023957, "name": "e922406a759c5fc18b384be03850712f"}, {"bike_id": "8015676eaeccbdff050d7ac9944d96b3", "type": "electric_bike", "is_disabled": 0, "lat": 38.92070233333333, "rental_uris": {"ios": "https://dc.lft.to/lastmile_qr_scan", "android": "https://dc.lft.to/lastmile_qr_scan"}, "is_reserved": 0, "fusion_lon": 0.0, "fusion_lat": 0.0, "lon": -76.89072633333333, "name": "8015676eaeccbdff050d7ac9944d96b3"}, {"bike_id": "8e8b5f6c088adf2ef183c2e16556f548", "type": "electric_scooter", "is_disabled": 0, "lat": 38.89846033333333, "rental_uris": {"ios": "https://dc.lft.to/lastmile_qr_scan", "android": "https://dc.lft.to/lastmile_qr_scan"}, "is_reserved": 0, "fusion_lon": 0.0, "fusion_lat": 0.0, "lon": -76.9463475, "name": "8e8b5f6c088adf2ef183c2e16556f548"}, {"bike_id": "05923099bffd825573790dbfcde54acb", "type": "electric_scooter", "is_disabled": 0, "lat": 38.9005795, "rental_uris": {"ios": "https://dc.lft.to/lastmile_qr_scan", "android": "https://dc.lft.to/lastmile_qr_scan"}, "is_reserved": 0, "fusion_lon": 0.0, "fusion_lat": 0.0, "lon": -77.03648883333334, "name": "05923099bffd825573790dbfcde54acb"}, {"bike_id": "d0fefea7ab077dd7226febbc7d066ae1", "type": "electric_scooter", "is_disabled": 0, "lat": 38.935137166666664, "rental_uris": {"ios": "https://dc.lft.to/lastmile_qr_scan", "android": "https://dc.lft.to/lastmile_qr_scan"}, "is_reserved": 0, "fusion_lon": 0.0, "fusion_lat": 0.0, "lon": -77.034481, "name": "d0fefea7ab077dd7226febbc7d066ae1"}, {"bike_id": "40bb6e43807637fe6439c74f293ee1d0", "type": "electric_bike", "is_disabled": 0, "lat": 38.84272033333333, "rental_uris": {"ios": "https://dc.lft.to/lastmile_qr_scan", "android": "https://dc.lft.to/lastmile_qr_scan"}, "is_reserved": 0, "fusion_lon": 0.0, "fusion_lat": 0.0, "lon": -76.98842166666667, "name": "40bb6e43807637fe6439c74f293ee1d0"}, {"bike_id": "1f0cb543a08d608a49e1b3016f5e8bbd", "type": "electric_scooter", "is_disabled": 0, "lat": 38.91412483333333, "rental_uris": {"ios": "https://dc.lft.to/lastmile_qr_scan", "android": "https://dc.lft.to/lastmile_qr_scan"}, "is_reserved": 0, "fusion_lon": 0.0, "fusion_lat": 0.0, "lon": -77.021188, "name": "1f0cb543a08d608a49e1b3016f5e8bbd"}, {"bike_id": "87f1540d929d8341f47efb5786f88dfb", "type": "electric_scooter", "is_disabled": 0, "lat": 38.871783, "rental_uris": {"ios": "https://dc.lft.to/lastmile_qr_scan", "android": "https://dc.lft.to/lastmile_qr_scan"}, "is_reserved": 0, "fusion_lon": 0.0, "fusion_lat": 0.0, "lon": -77.00613283333334, "name": "87f1540d929d8341f47efb5786f88dfb"}, {"bike_id": "05b628c5ce8604a8ec759acca966c39d", "type": "electric_scooter", "is_disabled": 0, "lat": 38.843098, "rental_uris": {"ios": "https://dc.lft.to/lastmile_qr_scan", "android": "https://dc.lft.to/lastmile_qr_scan"}, "is_reserved": 0, "fusion_lon": 0.0, "fusion_lat": 0.0, "lon": -76.999158, "name": "05b628c5ce8604a8ec759acca966c39d"}, {"bike_id": "5b20f72d271120c613ff20b3dd31ab35", "type": "electric_scooter", "is_disabled": 0, "lat": 38.914066, "rental_uris": {"ios": "https://dc.lft.to/lastmile_qr_scan", "android": "https://dc.lft.to/lastmile_qr_scan"}, "is_reserved": 0, "fusion_lon": 0.0, "fusion_lat": 0.0, "lon": -77.03595483333334, "name": "5b20f72d271120c613ff20b3dd31ab35"}, {"bike_id": "6768b98b9eeab18127d6044a9769c4c8", "type": "electric_bike", "is_disabled": 0, "lat": 38.87931666666667, "rental_uris": {"ios": "https://dc.lft.to/lastmile_qr_scan", "android": "https://dc.lft.to/lastmile_qr_scan"}, "is_reserved": 0, "fusion_lon": 0.0, "fusion_lat": 0.0, "lon": -77.00669716666667, "name": "6768b98b9eeab18127d6044a9769c4c8"}, {"bike_id": "aa3afc00229bc9d060a1510cb6cf9b18", "type": "electric_scooter", "is_disabled": 0, "lat": 38.9128325, "rental_uris": {"ios": "https://dc.lft.to/lastmile_qr_scan", "android": "https://dc.lft.to/lastmile_qr_scan"}, "is_reserved": 0, "fusion_lon": 0.0, "fusion_lat": 0.0, "lon": -77.061141, "name": "aa3afc00229bc9d060a1510cb6cf9b18"}, {"bike_id": "9124c006c2ed88305a1ce85c5a7fc5f9", "type": "electric_scooter", "is_disabled": 0, "lat": 38.91307783333333, "rental_uris": {"ios": "https://dc.lft.to/lastmile_qr_scan", "android": "https://dc.lft.to/lastmile_qr_scan"}, "is_reserved": 0, "fusion_lon": 0.0, "fusion_lat": 0.0, "lon": -77.04487166666667, "name": "9124c006c2ed88305a1ce85c5a7fc5f9"}, {"bike_id": "eb82a46835cc73092057bb4a75412fb1", "type": "electric_scooter", "is_disabled": 0, "lat": 38.90563566666667, "rental_uris": {"ios": "https://dc.lft.to/lastmile_qr_scan", "android": "https://dc.lft.to/lastmile_qr_scan"}, "is_reserved": 0, "fusion_lon": 0.0, "fusion_lat": 0.0, "lon": -77.06531133333333, "name": "eb82a46835cc73092057bb4a75412fb1"}, {"bike_id": "8a86dd96a334e29ec73e05068f62a8b5", "type": "electric_scooter", "is_disabled": 0, "lat": 38.920941, "rental_uris": {"ios": "https://dc.lft.to/lastmile_qr_scan", "android": "https://dc.lft.to/lastmile_qr_scan"}, "is_reserved": 0, "fusion_lon": 0.0, "fusion_lat": 0.0, "lon": -77.03173233333334, "name": "8a86dd96a334e29ec73e05068f62a8b5"}, {"bike_id": "ee9631c7e344af83e46b747295b4f1c3", "type": "electric_scooter", "is_disabled": 0, "lat": 38.91272633333333, "rental_uris": {"ios": "https://dc.lft.to/lastmile_qr_scan", "android": "https://dc.lft.to/lastmile_qr_scan"}, "is_reserved": 0, "fusion_lon": 0.0, "fusion_lat": 0.0, "lon": -77.01222833333334, "name": "ee9631c7e344af83e46b747295b4f1c3"}, {"bike_id": "8338709d12d758b9c94b8345bf89cae7", "type": "electric_scooter", "is_disabled": 0, "lat": 38.906184333333336, "rental_uris": {"ios": "https://dc.lft.to/lastmile_qr_scan", "android": "https://dc.lft.to/lastmile_qr_scan"}, "is_reserved": 0, "fusion_lon": 0.0, "fusion_lat": 0.0, "lon": -77.041283, "name": "8338709d12d758b9c94b8345bf89cae7"}, {"bike_id": "618e1c9e03d9c37333bac889f194680a", "type": "electric_scooter", "is_disabled": 0, "lat": 38.90522583333333, "rental_uris": {"ios": "https://dc.lft.to/lastmile_qr_scan", "android": "https://dc.lft.to/lastmile_qr_scan"}, "is_reserved": 0, "fusion_lon": 0.0, "fusion_lat": 0.0, "lon": -77.0676955, "name": "618e1c9e03d9c37333bac889f194680a"}, {"bike_id": "97787551b55a04788592aa0b6436babb", "type": "electric_scooter", "is_disabled": 0, "lat": 38.917066166666665, "rental_uris": {"ios": "https://dc.lft.to/lastmile_qr_scan", "android": "https://dc.lft.to/lastmile_qr_scan"}, "is_reserved": 0, "fusion_lon": 0.0, "fusion_lat": 0.0, "lon": -77.03395316666666, "name": "97787551b55a04788592aa0b6436babb"}, {"bike_id": "07d591bb378bac269455a090ba535d49", "type": "electric_scooter", "is_disabled": 0, "lat": 38.9163825, "rental_uris": {"ios": "https://dc.lft.to/lastmile_qr_scan", "android": "https://dc.lft.to/lastmile_qr_scan"}, "is_reserved": 0, "fusion_lon": 0.0, "fusion_lat": 0.0, "lon": -77.02554683333334, "name": "07d591bb378bac269455a090ba535d49"}, {"bike_id": "f16ba6922ce43e43bcceb0f206b864be", "type": "electric_scooter", "is_disabled": 0, "lat": 38.897363166666665, "rental_uris": {"ios": "https://dc.lft.to/lastmile_qr_scan", "android": "https://dc.lft.to/lastmile_qr_scan"}, "is_reserved": 0, "fusion_lon": 0.0, "fusion_lat": 0.0, "lon": -76.94719916666666, "name": "f16ba6922ce43e43bcceb0f206b864be"}, {"bike_id": "eff29f41cbf5318275c61c1aa8e44a06", "type": "electric_scooter", "is_disabled": 0, "lat": 38.95218166666667, "rental_uris": {"ios": "https://dc.lft.to/lastmile_qr_scan", "android": "https://dc.lft.to/lastmile_qr_scan"}, "is_reserved": 0, "fusion_lon": 0.0, "fusion_lat": 0.0, "lon": -77.07073716666666, "name": "eff29f41cbf5318275c61c1aa8e44a06"}, {"bike_id": "2c8f35afb17e8546d8862309e0d0d168", "type": "electric_scooter", "is_disabled": 0, "lat": 38.897786333333336, "rental_uris": {"ios": "https://dc.lft.to/lastmile_qr_scan", "android": "https://dc.lft.to/lastmile_qr_scan"}, "is_reserved": 0, "fusion_lon": 0.0, "fusion_lat": 0.0, "lon": -77.02184233333334, "name": "2c8f35afb17e8546d8862309e0d0d168"}, {"bike_id": "a08a3dcbade65e9934406e2b4a9a83aa", "type": "electric_scooter", "is_disabled": 0, "lat": 38.96443, "rental_uris": {"ios": "https://dc.lft.to/lastmile_qr_scan", "android": "https://dc.lft.to/lastmile_qr_scan"}, "is_reserved": 0, "fusion_lon": 0.0, "fusion_lat": 0.0, "lon": -77.02068366666667, "name": "a08a3dcbade65e9934406e2b4a9a83aa"}, {"bike_id": "91bc83524cb3dcb0278083555a386164", "type": "electric_scooter", "is_disabled": 0, "lat": 38.8818195, "rental_uris": {"ios": "https://dc.lft.to/lastmile_qr_scan", "android": "https://dc.lft.to/lastmile_qr_scan"}, "is_reserved": 0, "fusion_lon": 0.0, "fusion_lat": 0.0, "lon": -77.03738933333334, "name": "91bc83524cb3dcb0278083555a386164"}, {"bike_id": "9ecee4edefca2760cafaba43d2799d47", "type": "electric_scooter", "is_disabled": 0, "lat": 38.91414266666666, "rental_uris": {"ios": "https://dc.lft.to/lastmile_qr_scan", "android": "https://dc.lft.to/lastmile_qr_scan"}, "is_reserved": 0, "fusion_lon": 0.0, "fusion_lat": 0.0, "lon": -77.02430666666666, "name": "9ecee4edefca2760cafaba43d2799d47"}, {"bike_id": "22f519e88c3b1663f1e9e02c646599d7", "type": "electric_scooter", "is_disabled": 0, "lat": 38.91683533333333, "rental_uris": {"ios": "https://dc.lft.to/lastmile_qr_scan", "android": "https://dc.lft.to/lastmile_qr_scan"}, "is_reserved": 0, "fusion_lon": 0.0, "fusion_lat": 0.0, "lon": -77.02896033333333, "name": "22f519e88c3b1663f1e9e02c646599d7"}, {"bike_id": "46f57a2191e5721ebc8330df67d44aec", "type": "electric_scooter", "is_disabled": 0, "lat": 38.917449, "rental_uris": {"ios": "https://dc.lft.to/lastmile_qr_scan", "android": "https://dc.lft.to/lastmile_qr_scan"}, "is_reserved": 0, "fusion_lon": 0.0, "fusion_lat": 0.0, "lon": -77.0318795, "name": "46f57a2191e5721ebc8330df67d44aec"}, {"bike_id": "9532019066677ddecdea0a4af255e11a", "type": "electric_scooter", "is_disabled": 0, "lat": 38.9046705, "rental_uris": {"ios": "https://dc.lft.to/lastmile_qr_scan", "android": "https://dc.lft.to/lastmile_qr_scan"}, "is_reserved": 0, "fusion_lon": 0.0, "fusion_lat": 0.0, "lon": -77.02614966666667, "name": "9532019066677ddecdea0a4af255e11a"}, {"bike_id": "adf1c015697813746cf491741b595492", "type": "electric_scooter", "is_disabled": 0, "lat": 38.909658666666665, "rental_uris": {"ios": "https://dc.lft.to/lastmile_qr_scan", "android": "https://dc.lft.to/lastmile_qr_scan"}, "is_reserved": 0, "fusion_lon": 0.0, "fusion_lat": 0.0, "lon": -77.03626633333333, "name": "adf1c015697813746cf491741b595492"}, {"bike_id": "6619546437fb81fc901f8cb740ba63a9", "type": "electric_scooter", "is_disabled": 0, "lat": 38.8947375, "rental_uris": {"ios": "https://dc.lft.to/lastmile_qr_scan", "android": "https://dc.lft.to/lastmile_qr_scan"}, "is_reserved": 0, "fusion_lon": 0.0, "fusion_lat": 0.0, "lon": -77.01113983333333, "name": "6619546437fb81fc901f8cb740ba63a9"}, {"bike_id": "ff840cb443386a0b1abfffb0b9274863", "type": "electric_scooter", "is_disabled": 0, "lat": 38.9118385, "rental_uris": {"ios": "https://dc.lft.to/lastmile_qr_scan", "android": "https://dc.lft.to/lastmile_qr_scan"}, "is_reserved": 0, "fusion_lon": 0.0, "fusion_lat": 0.0, "lon": -77.01135216666667, "name": "ff840cb443386a0b1abfffb0b9274863"}, {"bike_id": "e36d13e9a6ef53942250768ab0f70f38", "type": "electric_scooter", "is_disabled": 0, "lat": 38.907064, "rental_uris": {"ios": "https://dc.lft.to/lastmile_qr_scan", "android": "https://dc.lft.to/lastmile_qr_scan"}, "is_reserved": 0, "fusion_lon": 0.0, "fusion_lat": 0.0, "lon": -77.02372616666666, "name": "e36d13e9a6ef53942250768ab0f70f38"}, {"bike_id": "87eac0bf555f4af2c776bdeeacf1c9ec", "type": "electric_scooter", "is_disabled": 0, "lat": 38.94072216666667, "rental_uris": {"ios": "https://dc.lft.to/lastmile_qr_scan", "android": "https://dc.lft.to/lastmile_qr_scan"}, "is_reserved": 0, "fusion_lon": 0.0, "fusion_lat": 0.0, "lon": -77.061065, "name": "87eac0bf555f4af2c776bdeeacf1c9ec"}, {"bike_id": "15c1637793807695337f28a5722bf6c1", "type": "electric_scooter", "is_disabled": 0, "lat": 38.91682483333334, "rental_uris": {"ios": "https://dc.lft.to/lastmile_qr_scan", "android": "https://dc.lft.to/lastmile_qr_scan"}, "is_reserved": 0, "fusion_lon": 0.0, "fusion_lat": 0.0, "lon": -77.024056, "name": "15c1637793807695337f28a5722bf6c1"}, {"bike_id": "86828f13694c0c912e8c530adbc744e9", "type": "electric_scooter", "is_disabled": 0, "lat": 38.9339255, "rental_uris": {"ios": "https://dc.lft.to/lastmile_qr_scan", "android": "https://dc.lft.to/lastmile_qr_scan"}, "is_reserved": 0, "fusion_lon": 0.0, "fusion_lat": 0.0, "lon": -77.02225383333334, "name": "86828f13694c0c912e8c530adbc744e9"}, {"bike_id": "ace737022a9c258518a972a3393613ea", "type": "electric_scooter", "is_disabled": 0, "lat": 38.90944283333333, "rental_uris": {"ios": "https://dc.lft.to/lastmile_qr_scan", "android": "https://dc.lft.to/lastmile_qr_scan"}, "is_reserved": 0, "fusion_lon": 0.0, "fusion_lat": 0.0, "lon": -77.046702, "name": "ace737022a9c258518a972a3393613ea"}, {"bike_id": "d2d0180a9bffd5346c116df2883a8f3b", "type": "electric_scooter", "is_disabled": 0, "lat": 38.90861316666667, "rental_uris": {"ios": "https://dc.lft.to/lastmile_qr_scan", "android": "https://dc.lft.to/lastmile_qr_scan"}, "is_reserved": 0, "fusion_lon": 0.0, "fusion_lat": 0.0, "lon": -77.0267665, "name": "d2d0180a9bffd5346c116df2883a8f3b"}, {"bike_id": "897d8fac65801a729b589af2f3ba8a60", "type": "electric_scooter", "is_disabled": 0, "lat": 38.912508333333335, "rental_uris": {"ios": "https://dc.lft.to/lastmile_qr_scan", "android": "https://dc.lft.to/lastmile_qr_scan"}, "is_reserved": 0, "fusion_lon": 0.0, "fusion_lat": 0.0, "lon": -77.02227083333334, "name": "897d8fac65801a729b589af2f3ba8a60"}, {"bike_id": "1c4f3199796896eb446b2c0f1ea2b1e2", "type": "electric_scooter", "is_disabled": 0, "lat": 38.942945, "rental_uris": {"ios": "https://dc.lft.to/lastmile_qr_scan", "android": "https://dc.lft.to/lastmile_qr_scan"}, "is_reserved": 0, "fusion_lon": 0.0, "fusion_lat": 0.0, "lon": -77.0217175, "name": "1c4f3199796896eb446b2c0f1ea2b1e2"}, {"bike_id": "e3762213af87c7c666c80f90a2a572db", "type": "electric_scooter", "is_disabled": 0, "lat": 38.93085216666667, "rental_uris": {"ios": "https://dc.lft.to/lastmile_qr_scan", "android": "https://dc.lft.to/lastmile_qr_scan"}, "is_reserved": 0, "fusion_lon": 0.0, "fusion_lat": 0.0, "lon": -77.03659516666667, "name": "e3762213af87c7c666c80f90a2a572db"}, {"bike_id": "d7b4afbdb3a3c5eafdea619369e7e342", "type": "electric_scooter", "is_disabled": 0, "lat": 38.90468966666667, "rental_uris": {"ios": "https://dc.lft.to/lastmile_qr_scan", "android": "https://dc.lft.to/lastmile_qr_scan"}, "is_reserved": 0, "fusion_lon": 0.0, "fusion_lat": 0.0, "lon": -77.02708616666666, "name": "d7b4afbdb3a3c5eafdea619369e7e342"}, {"bike_id": "1862b4afa640f4f5be76f02fbfc9966e", "type": "electric_scooter", "is_disabled": 0, "lat": 38.909606833333335, "rental_uris": {"ios": "https://dc.lft.to/lastmile_qr_scan", "android": "https://dc.lft.to/lastmile_qr_scan"}, "is_reserved": 0, "fusion_lon": 0.0, "fusion_lat": 0.0, "lon": -77.0346735, "name": "1862b4afa640f4f5be76f02fbfc9966e"}, {"bike_id": "50cbc2a0660c912af93c2a734278c662", "type": "electric_scooter", "is_disabled": 0, "lat": 38.92188783333334, "rental_uris": {"ios": "https://dc.lft.to/lastmile_qr_scan", "android": "https://dc.lft.to/lastmile_qr_scan"}, "is_reserved": 0, "fusion_lon": 0.0, "fusion_lat": 0.0, "lon": -77.019756, "name": "50cbc2a0660c912af93c2a734278c662"},