{"data": {"bikes": [{"rental_uris": {"android": "https://dc.lft.to/lastmile_qr_scan", "ios": "https://dc.lft.to/lastmile_qr_scan"}, "name": "02f0c604868e465dac9edca218f070a4", "fusion_lat": 0.0, "lon": -77.002839, "is_disabled": 0, "is_reserved": 0, "fusion_lon": 0.0, "lat": 38.9089395, "type": "electric_scooter", "bike_id": "02f0c604868e465dac9edca218f070a4"}, {"rental_uris": {"android": "https://dc.lft.to/lastmile_qr_scan", "ios": "https://dc.lft.to/lastmile_qr_scan"}, "name": "b3351bb84213429feffd5ed5df2d137b", "fusion_lat": 0.0, "lon": -77.026464, "is_disabled": 0, "is_reserved": 0, "fusion_lon": 0.0, "lat": 38.8810815, "type": "electric_scooter", "bike_id": "b3351bb84213429feffd5ed5df2d137b"}, {"rental_uris": {"android": "https://dc.lft.to/lastmile_qr_scan", "ios": "https://dc.lft.to/lastmile_qr_scan"}, "name": "65055e0a2a408be476574592e6475df5", "fusion_lat": 0.0, "lon": -77.0579165, "is_disabled": 0, "is_reserved": 0, "fusion_lon": 0.0, "lat": 38.934760833333335, "type": "electric_scooter", "bike_id": "65055e0a2a408be476574592e6475df5"}, {"rental_uris": {"android": "https://dc.lft.to/lastmile_qr_scan", "ios": "https://dc.lft.to/lastmile_qr_scan"}, "name": "371b30d4e42368b64519cde44c8c3445", "fusion_lat": 0.0, "lon": -77.05028416666667, "is_disabled": 0, "is_reserved": 0, "fusion_lon": 0.0, "lat": 38.900884833333336, "type": "electric_scooter", "bike_id": "371b30d4e42368b64519cde44c8c3445"}, {"rental_uris": {"android": "https://dc.lft.to/lastmile_qr_scan", "ios": "https://dc.lft.to/lastmile_qr_scan"}, "name": "95cd4d8ff25bcf0204facb9137e5e6fb", "fusion_lat": 0.0, "lon": -77.0455475, "is_disabled": 0, "is_reserved": 0, "fusion_lon": 0.0, "lat": 38.90754316666667, "type": "electric_scooter", "bike_id": "95cd4d8ff25bcf0204facb9137e5e6fb"}, {"rental_uris": {"android": "https://dc.lft.to/lastmile_qr_scan", "ios": "https://dc.lft.to/lastmile_qr_scan"}, "name": "9c0e77dbd858dbf55290dafc329e4a16", "fusion_lat": 0.0, "lon": -77.02299366666666, "is_disabled": 0, "is_reserved": 0, "fusion_lon": 0.0, "lat": 38.901715, "type": "electric_scooter", "bike_id": "9c0e77dbd858dbf55290dafc329e4a16"}, {"rental_uris": {"android": "https://dc.lft.to/lastmile_qr_scan", "ios": "https://dc.lft.to/lastmile_qr_scan"}, "name": "efb2f5a0b368ae3917976d1090afb497", "fusion_lat": 0.0, "lon": -77.04676633333334, "is_disabled": 0, "is_reserved": 0, "fusion_lon": 0.0, "lat": 38.9039145, "type": "electric_scooter", "bike_id": "efb2f5a0b368ae3917976d1090afb497"}, {"rental_uris": {"android": "https://dc.lft.to/lastmile_qr_scan", "ios": "https://dc.lft.to/lastmile_qr_scan"}, "name": "06ad29a4eb873da671743d7e01ea1678", "fusion_lat": 0.0, "lon": -77.03182933333333, "is_disabled": 0, "is_reserved": 0, "fusion_lon": 0.0, "lat": 38.91577683333333, "type": "electric_scooter", "bike_id": "06ad29a4eb873da671743d7e01ea1678"}, {"rental_uris": {"android": "https://dc.lft.to/lastmile_qr_scan", "ios": "https://dc.lft.to/lastmile_qr_scan"}, "name": "da640184185453c49560df170f518f68", "fusion_lat": 0.0, "lon": -77.02601516666667, "is_disabled": 0, "is_reserved": 0, "fusion_lon": 0.0, "lat": 38.91425, "type": "electric_scooter", "bike_id": "da640184185453c49560df170f518f68"}, {"rental_uris": {"android": "https://dc.lft.to/lastmile_qr_scan", "ios": "https://dc.lft.to/lastmile_qr_scan"}, "name": "ac0fceb20fca1ff84eaf83420ff746ee", "fusion_lat": 0.0, "lon": -76.994461, "is_disabled": 0, "is_reserved": 0, "fusion_lon": 0.0, "lat": 38.9050675, "type": "electric_scooter", "bike_id": "ac0fceb20fca1ff84eaf83420ff746ee"}, {"rental_uris": {"android": "https://dc.lft.to/lastmile_qr_scan", "ios": "https://dc.lft.to/lastmile_qr_scan"}, "name": "a39abd672564ef903bd02ab4c9732622", "fusion_lat": 0.0, "lon": -76.95516, "is_disabled": 0, "is_reserved": 0, "fusion_lon": 0.0, "lat": 38.890556833333335, "type": "electric_scooter", "bike_id": "a39abd672564ef903bd02ab4c9732622"}, {"rental_uris": {"android": "https://dc.lft.to/lastmile_qr_scan", "ios": "https://dc.lft.to/lastmile_qr_scan"}, "name": "3e041a673301f8db10ef41c6a18ab3d8", "fusion_lat": 0.0, "lon": -77.04140383333333, "is_disabled": 0, "is_reserved": 0, "fusion_lon": 0.0, "lat": 38.916839, "type": "electric_scooter", "bike_id": "3e041a673301f8db10ef41c6a18ab3d8"}, {"rental_uris": {"android": "https://dc.lft.to/lastmile_qr_scan", "ios": "https://dc.lft.to/lastmile_qr_scan"}, "name": "3d24a4daec08417d8b4ea6eaf4717ac5", "fusion_lat": 0.0, "lon": -76.9463935, "is_disabled": 0, "is_reserved": 0, "fusion_lon": 0.0, "lat": 38.898452, "type": "electric_scooter", "bike_id": "3d24a4daec08417d8b4ea6eaf4717ac5"}, {"rental_uris": {"android": "https://dc.lft.to/lastmile_qr_scan", "ios": "https://dc.lft.to/lastmile_qr_scan"}, "name": "0415c7228c4bd576f4631a8e24ff046f", "fusion_lat": 0.0, "lon": -77.029547, "is_disabled": 0, "is_reserved": 0, "fusion_lon": 0.0, "lat": 38.922379166666666, "type": "electric_scooter", "bike_id": "0415c7228c4bd576f4631a8e24ff046f"}, {"rental_uris": {"android": "https://dc.lft.to/lastmile_qr_scan", "ios": "https://dc.lft.to/lastmile_qr_scan"}, "name": "aa57f3f054f6e3e3729772bc8c230811", "fusion_lat": 0.0, "lon": -76.92777033333333, "is_disabled": 0, "is_reserved": 0, "fusion_lon": 0.0, "lat": 38.90273783333333, "type": "electric_scooter", "bike_id": "aa57f3f054f6e3e3729772bc8c230811"}, {"rental_uris": {"android": "https://dc.lft.to/lastmile_qr_scan", "ios": "https://dc.lft.to/lastmile_qr_scan"}, "name": "7d2c720712353104e27906b6318327df", "fusion_lat": 0.0, "lon": -77.024911, "is_disabled": 0, "is_reserved": 0, "fusion_lon": 0.0, "lat": 38.941871166666665, "type": "electric_scooter", "bike_id": "7d2c720712353104e27906b6318327df"}, {"rental_uris": {"android": "https://dc.lft.to/lastmile_qr_scan", "ios": "https://dc.lft.to/lastmile_qr_scan"}, "name": "ff03423d4c9cfa8956493466524821e4", "fusion_lat": 0.0, "lon": -77.0476795, "is_disabled": 0, "is_reserved": 0, "fusion_lon": 0.0, "lat": 38.901360833333335, "type": "electric_scooter", "bike_id": "ff03423d4c9cfa8956493466524821e4"}, {"rental_uris": {"android": "https://dc.lft.to/lastmile_qr_scan", "ios": "https://dc.lft.to/lastmile_qr_scan"}, "name": "44f451f397824a0d9457c17d796efe6a", "fusion_lat": 0.0, "lon": -77.01952, "is_disabled": 0, "is_reserved": 0, "fusion_lon": 0.0, "lat": 38.92248466666667, "type": "electric_scooter", "bike_id": "44f451f397824a0d9457c17d796efe6a"}, {"rental_uris": {"android": "https://dc.lft.to/lastmile_qr_scan", "ios": "https://dc.lft.to/lastmile_qr_scan"}, "name": "21b04cb73792c23ea9eb219037720ba3", "fusion_lat": 0.0, "lon": -77.027034, "is_disabled": 0, "is_reserved": 0, "fusion_lon": 0.0, "lat": 38.9066555, "type": "electric_scooter", "bike_id": "21b04cb73792c23ea9eb219037720ba3"}, {"rental_uris": {"android": "https://dc.lft.to/lastmile_qr_scan", "ios": "https://dc.lft.to/lastmile_qr_scan"}, "name": "8a91c8d3a5002658ba79250ea79925c4", "fusion_lat": 0.0, "lon": -76.99809883333333, "is_disabled": 0, "is_reserved": 0, "fusion_lon": 0.0, "lat": 38.876683, "type": "electric_scooter", "bike_id": "8a91c8d3a5002658ba79250ea79925c4"}, {"rental_uris": {"android": "https://dc.lft.to/lastmile_qr_scan", "ios": "https://dc.lft.to/lastmile_qr_scan"}, "name": "98e95b35807ff0415412854ab5867b00", "fusion_lat": 0.0, "lon": -76.92917333333334, "is_disabled": 0, "is_reserved": 0, "fusion_lon": 0.0, "lat": 38.98030983333334, "type": "electric_bike", "bike_id": "98e95b35807ff0415412854ab5867b00"}, {"rental_uris": {"android": "https://dc.lft.to/lastmile_qr_scan", "ios": "https://dc.lft.to/lastmile_qr_scan"}, "name": "d60bd6e0fb26e84705743c9d4dc2c976", "fusion_lat": 0.0, "lon": -77.01319833333334, "is_disabled": 0, "is_reserved": 0, "fusion_lon": 0.0, "lat": 38.8923525, "type": "electric_scooter", "bike_id": "d60bd6e0fb26e84705743c9d4dc2c976"}, {"rental_uris": {"android": "https://dc.lft.to/lastmile_qr_scan", "ios": "https://dc.lft.to/lastmile_qr_scan"}, "name": "fd7b207157ec8d3cd0c2a22b87eebf0b", "fusion_lat": 0.0, "lon": -77.019963, "is_disabled": 0, "is_reserved": 0, "fusion_lon": 0.0, "lat": 38.96638016666667, "type": "electric_scooter", "bike_id": "fd7b207157ec8d3cd0c2a22b87eebf0b"}, {"rental_uris": {"android": "https://dc.lft.to/lastmile_qr_scan", "ios": "https://dc.lft.to/lastmile_qr_scan"}, "name": "fc644338234fe446f4ccb05ccbb334dc", "fusion_lat": 0.0, "lon": -77.012057, "is_disabled": 0, "is_reserved": 0, "fusion_lon": 0.0, "lat": 38.925859333333335, "type": "electric_scooter", "bike_id": "fc644338234fe446f4ccb05ccbb334dc"}, {"rental_uris": {"android": "https://dc.lft.to/lastmile_qr_scan", "ios": "https://dc.lft.to/lastmile_qr_scan"}, "name": "69668441ee3119ee958bf380a23b285d", "fusion_lat": 0.0, "lon": -77.04647783333333, "is_disabled": 0, "is_reserved": 0, "fusion_lon": 0.0, "lat": 38.89998933333333, "type": "electric_scooter", "bike_id": "69668441ee3119ee958bf380a23b285d"}, {"rental_uris": {"android": "https://dc.lft.to/lastmile_qr_scan", "ios": "https://dc.lft.to/lastmile_qr_scan"}, "name": "772899a1b39ea89e4481c370b838dd0d", "fusion_lat": 0.0, "lon": -76.9936455, "is_disabled": 0, "is_reserved": 0, "fusion_lon": 0.0, "lat": 38.92842616666667, "type": "electric_scooter", "bike_id": "772899a1b39ea89e4481c370b838dd0d"}, {"rental_uris": {"android": "https://dc.lft.to/lastmile_qr_scan", "ios": "https://dc.lft.to/lastmile_qr_scan"}, "name": "88efc3c27bf9d3419b20378da4da9325", "fusion_lat": 0.0, "lon": -76.990041, "is_disabled": 0, "is_reserved": 0, "fusion_lon": 0.0, "lat": 38.86507866666667, "type": "electric_scooter", "bike_id": "88efc3c27bf9d3419b20378da4da9325"}, {"rental_uris": {"android": "https://dc.lft.to/lastmile_qr_scan", "ios": "https://dc.lft.to/lastmile_qr_scan"}, "name": "5a0a84143c818b79e1949a04338ca887", "fusion_lat": 0.0, "lon": -77.02305166666666, "is_disabled": 0, "is_reserved": 0, "fusion_lon": 0.0, "lat": 38.9171945, "type": "electric_scooter", "bike_id": "5a0a84143c818b79e1949a04338ca887"}, {"rental_uris": {"android": "https://dc.lft.to/lastmile_qr_scan", "ios": "https://dc.lft.to/lastmile_qr_scan"}, "name": "d28e51782fc56f57fcc4ab38bfcc4dd7", "fusion_lat": 0.0, "lon": -76.99079416666666, "is_disabled": 0, "is_reserved": 0, "fusion_lon": 0.0, "lat": 38.86048366666667, "type": "electric_scooter", "bike_id": "d28e51782fc56f57fcc4ab38bfcc4dd7"}, {"rental_uris": {"android": "https://dc.lft.to/lastmile_qr_scan", "ios": "https://dc.lft.to/lastmile_qr_scan"}, "name": "fcf18cdb58898845c3b39fde0d071369", "fusion_lat": 0.0, "lon": -76.99941183333334, "is_disabled": 0, "is_reserved": 0, "fusion_lon": 0.0, "lat": 38.843181333333334, "type": "electric_scooter", "bike_id": "fcf18cdb58898845c3b39fde0d071369"}, {"rental_uris": {"android": "https://dc.lft.to/lastmile_qr_scan", "ios": "https://dc.lft.to/lastmile_qr_scan"}, "name": "a4db6765ead881f01b859cb894da8c1a", "fusion_lat": 0.0, "lon": -77.00243583333334, "is_disabled": 0, "is_reserved": 0, "fusion_lon": 0.0, "lat": 38.88028383333334, "type": "electric_scooter", "bike_id": "a4db6765ead881f01b859cb894da8c1a"}, {"rental_uris": {"android": "https://dc.lft.to/lastmile_qr_scan", "ios": "https://dc.lft.to/lastmile_qr_scan"}, "name": "11932bbcbf333cddd8dfd5d918770193", "fusion_lat": 0.0, "lon": -77.020218, "is_disabled": 0, "is_reserved": 0, "fusion_lon": 0.0, "lat": 38.924304166666666, "type": "electric_scooter", "bike_id": "11932bbcbf333cddd8dfd5d918770193"}, {"rental_uris": {"android": "https://dc.lft.to/lastmile_qr_scan", "ios": "https://dc.lft.to/lastmile_qr_scan"}, "name": "ceb9abb876674160a4a33dced8a71791", "fusion_lat": 0.0, "lon": -77.06130333333333, "is_disabled": 0, "is_reserved": 0, "fusion_lon": 0.0, "lat": 38.9436535, "type": "electric_scooter", "bike_id": "ceb9abb876674160a4a33dced8a71791"}, {"rental_uris": {"android": "https://dc.lft.to/lastmile_qr_scan", "ios": "https://dc.lft.to/lastmile_qr_scan"}, "name": "af9ba08f0b2b3e21de99dc13b0e9f390", "fusion_lat": 0.0, "lon": -77.02684766666667, "is_disabled": 0, "is_reserved": 0, "fusion_lon": 0.0, "lat": 38.90971416666667, "type": "electric_scooter", "bike_id": "af9ba08f0b2b3e21de99dc13b0e9f390"}, {"rental_uris": {"android": "https://dc.lft.to/lastmile_qr_scan", "ios": "https://dc.lft.to/lastmile_qr_scan"}, "name": "29bfd112a82ceae1eef9874663793204", "fusion_lat": 0.0, "lon": -77.03853933333333, "is_disabled": 0, "is_reserved": 0, "fusion_lon": 0.0, "lat": 38.90300116666667, "type": "electric_scooter", "bike_id": "29bfd112a82ceae1eef9874663793204"}, {"rental_uris": {"android": "https://dc.lft.to/lastmile_qr_scan", "ios": "https://dc.lft.to/lastmile_qr_scan"}, "name": "a0270be1ef6a39bc4d0ef2868c1209d4", "fusion_lat": 0.0, "lon": -77.01085783333333, "is_disabled": 0, "is_reserved": 0, "fusion_lon": 0.0, "lat": 38.894928, "type": "electric_scooter", "bike_id": "a0270be1ef6a39bc4d0ef2868c1209d4"}, {"rental_uris": {"android": "https://dc.lft.to/lastmile_qr_scan", "ios": "https://dc.lft.to/lastmile_qr_scan"}, "name": "dffe26bbc5c3f35cd68c294845aa1301", "fusion_lat": 0.0, "lon": -77.008235, "is_disabled": 0, "is_reserved": 0, "fusion_lon": 0.0, "lat": 38.915609833333335, "type": "electric_scooter", "bike_id": "dffe26bbc5c3f35cd68c294845aa1301"}, {"rental_uris": {"android": "https://dc.lft.to/lastmile_qr_scan", "ios": "https://dc.lft.to/lastmile_qr_scan"}, "name": "4ef8cb935b1d1a0c81b18b4117df2eaf", "fusion_lat": 0.0, "lon": -76.99029533333334, "is_disabled": 0, "is_reserved": 0, "fusion_lon": 0.0, "lat": 38.864077, "type": "electric_scooter", "bike_id": "4ef8cb935b1d1a0c81b18b4117df2eaf"}, {"rental_uris": {"android": "https://dc.lft.to/lastmile_qr_scan", "ios": "https://dc.lft.to/lastmile_qr_scan"}, "name": "1f1561bd3f3b9658dc22c1dccc35bad5", "fusion_lat": 0.0, "lon": -77.04507583333333, "is_disabled": 0, "is_reserved": 0, "fusion_lon": 0.0, "lat": 38.90908916666667, "type": "electric_scooter", "bike_id": "1f1561bd3f3b9658dc22c1dccc35bad5"}, {"rental_uris": {"android": "https://dc.lft.to/lastmile_qr_scan", "ios": "https://dc.lft.to/lastmile_qr_scan"}, "name": "dde10641af44bb8293d8c109987e495c", "fusion_lat": 0.0, "lon": -77.0318395, "is_disabled": 0, "is_reserved": 0, "fusion_lon": 0.0, "lat": 38.91170483333333, "type": "electric_scooter", "bike_id": "dde10641af44bb8293d8c109987e495c"}, {"rental_uris": {"android": "https://dc.lft.to/lastmile_qr_scan", "ios": "https://dc.lft.to/lastmile_qr_scan"}, "name": "5c13bc2b986dbade7ac11a8f140dcd15", "fusion_lat": 0.0, "lon": -77.04176083333333, "is_disabled": 0, "is_reserved": 0, "fusion_lon": 0.0, "lat": 38.91357466666667, "type": "electric_scooter", "bike_id": "5c13bc2b986dbade7ac11a8f140dcd15"}, {"rental_uris": {"android": "https://dc.lft.to/lastmile_qr_scan", "ios": "https://dc.lft.to/lastmile_qr_scan"}, "name": "c40fa968576f70259033d27d26d491bb", "fusion_lat": 0.0, "lon": -77.030546, "is_disabled": 0, "is_reserved": 0, "fusion_lon": 0.0, "lat": 38.88409866666667, "type": "electric_scooter", "bike_id": "c40fa968576f70259033d27d26d491bb"}, {"rental_uris": {"android": "https://dc.lft.to/lastmile_qr_scan", "ios": "https://dc.lft.to/lastmile_qr_scan"}, "name": "85909a9f6b9ba8ccb3b83d23a523535b", "fusion_lat": 0.0, "lon": -77.003388, "is_disabled": 0, "is_reserved": 0, "fusion_lon": 0.0, "lat": 38.895074, "type": "electric_scooter", "bike_id": "85909a9f6b9ba8ccb3b83d23a523535b"}, {"rental_uris": {"android": "https://dc.lft.to/lastmile_qr_scan", "ios": "https://dc.lft.to/lastmile_qr_scan"}, "name": "6a1663a3168bce6d8d9466f73e24868f", "fusion_lat": 0.0, "lon": -77.03394683333333, "is_disabled": 0, "is_reserved": 0, "fusion_lon": 0.0, "lat": 38.92441016666667, "type": "electric_scooter", "bike_id": "6a1663a3168bce6d8d9466f73e24868f"}, {"rental_uris": {"android": "https://dc.lft.to/lastmile_qr_scan", "ios": "https://dc.lft.to/lastmile_qr_scan"}, "name": "8a6be842d607e381238f9dad946d70b7", "fusion_lat": 0.0, "lon": -77.02432916666666, "is_disabled": 0, "is_reserved": 0, "fusion_lon": 0.0, "lat": 38.9057425, "type": "electric_scooter", "bike_id": "8a6be842d607e381238f9dad946d70b7"}, {"rental_uris": {"android": "https://dc.lft.to/lastmile_qr_scan", "ios": "https://dc.lft.to/lastmile_qr_scan"}, "name": "90e3a47e747547c5a4cf0d74ceecc7ba", "fusion_lat": 0.0, "lon": -77.04444466666666, "is_disabled": 0, "is_reserved": 0, "fusion_lon": 0.0, "lat": 38.911193833333336, "type": "electric_scooter", "bike_id": "90e3a47e747547c5a4cf0d74ceecc7ba"}, {"rental_uris": {"android": "https://dc.lft.to/lastmile_qr_scan", "ios": "https://dc.lft.to/lastmile_qr_scan"}, "name": "95af5a3e93497f052bd18131f04020ea", "fusion_lat": 0.0, "lon": -76.98668533333333, "is_disabled": 0, "is_reserved": 0, "fusion_lon": 0.0, "lat": 38.855586, "type": "electric_scooter", "bike_id": "95af5a3e93497f052bd18131f04020ea"}, {"rental_uris": {"android": "https://dc.lft.to/lastmile_qr_scan", "ios": "https://dc.lft.to/lastmile_qr_scan"}, "name": "ea218d8bcf50b796d86af1acf3139f54", "fusion_lat": 0.0, "lon": -77.03479283333333, "is_disabled": 0, "is_reserved": 0, "fusion_lon": 0.0, "lat": 38.902659666666665, "type": "electric_scooter", "bike_id": "ea218d8bcf50b796d86af1acf3139f54"}, {"rental_uris": {"android": "https://dc.lft.to/lastmile_qr_scan", "ios": "https://dc.lft.to/lastmile_qr_scan"}, "name": "64690eff7aa64083ca3d44fb9c6454d9", "fusion_lat": 0.0, "lon": -77.06163566666666, "is_disabled": 0, "is_reserved": 0, "fusion_lon": 0.0, "lat": 38.9422875, "type": "electric_scooter", "bike_id": "64690eff7aa64083ca3d44fb9c6454d9"}, {"rental_uris": {"android": "https://dc.lft.to/lastmile_qr_scan", "ios": "https://dc.lft.to/lastmile_qr_scan"}, "name": "7413d6237b68da8a3969f7b6300f33d7", "fusion_lat": 0.0, "lon": -77.01525183333334, "is_disabled": 0, "is_reserved": 0, "fusion_lon": 0.0, "lat": 38.88485266666667, "type": "electric_scooter", "bike_id": "7413d6237b68da8a3969f7b6300f33d7"}, {"rental_uris": {"android": "https://dc.lft.to/lastmile_qr_scan", "ios": "https://dc.lft.to/lastmile_qr_scan"}, "name": "a305364938ffb3feb8132a9705a75e7e", "fusion_lat": 0.0, "lon": -77.02767366666667, "is_disabled": 0, "is_reserved": 0, "fusion_lon": 0.0, "lat": 38.929820666666664, "type": "electric_scooter", "bike_id": "a305364938ffb3feb8132a9705a75e7e"}, {"rental_uris": {"android": "https://dc.lft.to/lastmile_qr_scan", "ios": "https://dc.lft.to/lastmile_qr_scan"}, "name": "58356c89cf6435aedafcd3ca5d233000", "fusion_lat": 0.0, "lon": -77.02405716666667, "is_disabled": 0, "is_reserved": 0, "fusion_lon": 0.0, "lat": 38.8922775, "type": "electric_scooter", "bike_id": "58356c89cf6435aedafcd3ca5d233000"}, {"rental_uris": {"android": "https://dc.lft.to/lastmile_qr_scan", "ios": "https://dc.lft.to/lastmile_qr_scan"}, "name": "9c4ff834f47535f7d92a3d31b525fdc8", "fusion_lat": 0.0, "lon": -76.98772783333334, "is_disabled": 0, "is_reserved": 0, "fusion_lon": 0.0, "lat": 38.91204183333333, "type": "electric_scooter", "bike_id": "9c4ff834f47535f7d92a3d31b525fdc8"}, {"rental_uris": {"android": "https://dc.lft.to/lastmile_qr_scan", "ios": "https://dc.lft.to/lastmile_qr_scan"}, "name": "b88f67d350f35b4d20e5cd6b9f2c5a9b", "fusion_lat": 0.0, "lon": -77.00746916666667, "is_disabled": 0, "is_reserved": 0, "fusion_lon": 0.0, "lat": 38.900540666666664, "type": "electric_scooter", "bike_id": "b88f67d350f35b4d20e5cd6b9f2c5a9b"}, {"rental_uris": {"android": "https://dc.lft.to/lastmile_qr_scan", "ios": "https://dc.lft.to/lastmile_qr_scan"}, "name": "f1938823913a3bd3e02060bccdbf7e16", "fusion_lat": 0.0, "lon": -77.0159065, "is_disabled": 0, "is_reserved": 0, "fusion_lon": 0.0, "lat": 38.89729633333334, "type": "electric_scooter", "bike_id": "f1938823913a3bd3e02060bccdbf7e16"}, {"rental_uris": {"android": "https://dc.lft.to/lastmile_qr_scan", "ios": "https://dc.lft.to/lastmile_qr_scan"}, "name": "af1ad37bb97c3ee836aa640fdb4d3b39", "fusion_lat": 0.0, "lon": -76.94118816666666, "is_disabled": 0, "is_reserved": 0, "fusion_lon": 0.0, "lat": 38.907969333333334, "type": "electric_scooter", "bike_id": "af1ad37bb97c3ee836aa640fdb4d3b39"}, {"rental_uris": {"android": "https://dc.lft.to/lastmile_qr_scan", "ios": "https://dc.lft.to/lastmile_qr_scan"}, "name": "6d0145148085e9c0239da78978b594d7", "fusion_lat": 0.0, "lon": -77.00481583333334, "is_disabled": 0, "is_reserved": 0, "fusion_lon": 0.0, "lat": 38.925969333333335, "type": "electric_scooter", "bike_id": "6d0145148085e9c0239da78978b594d7"}, {"rental_uris": {"android": "https://dc.lft.to/lastmile_qr_scan", "ios": "https://dc.lft.to/lastmile_qr_scan"}, "name": "481fa02c739d84833521d35a58991d50", "fusion_lat": 0.0, "lon": -76.93158733333334, "is_disabled": 0, "is_reserved": 0, "fusion_lon": 0.0, "lat": 38.898792666666665, "type": "electric_scooter", "bike_id": "481fa02c739d84833521d35a58991d50"}, {"rental_uris": {"android": "https://dc.lft.to/lastmile_qr_scan", "ios": "https://dc.lft.to/lastmile_qr_scan"}, "name": "3a96cecbf20b37e0be178a373d7065d2", "fusion_lat": 0.0, "lon": -77.0419585, "is_disabled": 0, "is_reserved": 0, "fusion_lon": 0.0, "lat": 38.899797166666666, "type": "electric_scooter", "bike_id": "3a96cecbf20b37e0be178a373d7065d2"}, {"rental_uris": {"android": "https://dc.lft.to/lastmile_qr_scan", "ios": "https://dc.lft.to/lastmile_qr_scan"}, "name": "dff7d9e21581ffdbb81dd85f65200bfd", "fusion_lat": 0.0, "lon": -77.03348233333334, "is_disabled": 0, "is_reserved": 0, "fusion_lon": 0.0, "lat": 38.89238566666667, "type": "electric_scooter", "bike_id": "dff7d9e21581ffdbb81dd85f65200bfd"}, {"rental_uris": {"android": "https://dc.lft.to/lastmile_qr_scan", "ios": "https://dc.lft.to/lastmile_qr_scan"}, "name": "6afe86471b6d1abe4eef01419459d126", "fusion_lat": 0.0, "lon": -77.041808, "is_disabled": 0, "is_reserved": 0, "fusion_lon": 0.0, "lat": 38.91415516666667, "type": "electric_scooter", "bike_id": "6afe86471b6d1abe4eef01419459d126"}, {"rental_uris": {"android": "https://dc.lft.to/lastmile_qr_scan", "ios": "https://dc.lft.to/lastmile_qr_scan"}, "name": "bba0a83d569e98fd66b7718ddf3a27cf", "fusion_lat": 0.0, "lon": -77.02959783333333, "is_disabled": 0, "is_reserved": 0, "fusion_lon": 0.0, "lat": 38.902513, "type": "electric_scooter", "bike_id": "bba0a83d569e98fd66b7718ddf3a27cf"}, {"rental_uris": {"android": "https://dc.lft.to/lastmile_qr_scan", "ios": "https://dc.lft.to/lastmile_qr_scan"}, "name": "d45094c6e618d76f772de96eb4ba1e02", "fusion_lat": 0.0, "lon": -77.0138795, "is_disabled": 0, "is_reserved": 0, "fusion_lon": 0.0, "lat": 38.928649, "type": "electric_scooter", "bike_id": "d45094c6e618d76f772de96eb4ba1e02"}, {"rental_uris": {"android": "https://dc.lft.to/lastmile_qr_scan", "ios": "https://dc.lft.to/lastmile_qr_scan"}, "name": "3e136de187544fbac50ef2e08d016f03", "fusion_lat": 0.0, "lon": -76.98334033333333, "is_disabled": 0, "is_reserved": 0, "fusion_lon": 0.0, "lat": 38.907522666666665, "type": "electric_scooter", "bike_id": "3e136de187544fbac50ef2e08d016f03"}, {"rental_uris": {"android": "https://dc.lft.to/lastmile_qr_scan", "ios": "https://dc.lft.to/lastmile_qr_scan"}, "name": "7d82a9ac8820aaabb294f469c74ae78c", "fusion_lat": 0.0, "lon": -77.00921283333334, "is_disabled": 0, "is_reserved": 0, "fusion_lon": 0.0, "lat": 38.91284116666667, "type": "electric_scooter", "bike_id": "7d82a9ac8820aaabb294f469c74ae78c"}, {"rental_uris": {"android": "https://dc.lft.to/lastmile_qr_scan", "ios": "https://dc.lft.to/lastmile_qr_scan"}, "name": "58f473d4679e2e7a89f1ac862ce3e5c9", "fusion_lat": 0.0, "lon": -77.03204516666666, "is_disabled": 0, "is_reserved": 0, "fusion_lon": 0.0, "lat": 38.93051633333333, "type": "electric_scooter", "bike_id": "58f473d4679e2e7a89f1ac862ce3e5c9"}, {"rental_uris": {"android": "https://dc.lft.to/lastmile_qr_scan", "ios": "https://dc.lft.to/lastmile_qr_scan"}, "name": "13bc677ce67fc0129caf2dc4ed85e631", "fusion_lat": 0.0, "lon": -76.9834755, "is_disabled": 0, "is_reserved": 0, "fusion_lon": 0.0, "lat": 38.8955585, "type": "electric_bike", "bike_id": "13bc677ce67fc0129caf2dc4ed85e631"}, {"rental_uris": {"android": "https://dc.lft.to/lastmile_qr_scan", "ios": "https://dc.lft.to/lastmile_qr_scan"}, "name": "141f9a36110fd3bd539e431495278253", "fusion_lat": 0.0, "lon": -77.038405, "is_disabled": 0, "is_reserved": 0, "fusion_lon": 0.0, "lat": 38.91730416666667, "type": "electric_scooter", "bike_id": "141f9a36110fd3bd539e431495278253"}, {"rental_uris": {"android": "https://dc.lft.to/lastmile_qr_scan", "ios": "https://dc.lft.to/lastmile_qr_scan"}, "name": "68fd8c1dcb55c970cdc7000006de1c66", "fusion_lat": 0.0, "lon": -77.01989366666666, "is_disabled": 0, "is_reserved": 0, "fusion_lon": 0.0, "lat": 38.900626, "type": "electric_scooter", "bike_id": "68fd8c1dcb55c970cdc7000006de1c66"}, {"rental_uris": {"android": "https://dc.lft.to/lastmile_qr_scan", "ios": "https://dc.lft.to/lastmile_qr_scan"}, "name": "f12d41eef7d708f4916208fe2b97846c", "fusion_lat": 0.0, "lon": -77.010455, "is_disabled": 0, "is_reserved": 0, "fusion_lon": 0.0, "lat": 38.906704500000004, "type": "electric_scooter", "bike_id": "f12d41eef7d708f4916208fe2b97846c"}, {"rental_uris": {"android": "https://dc.lft.to/lastmile_qr_scan", "ios": "https://dc.lft.to/lastmile_qr_scan"}, "name": "7f2faec7edbe0e152083db45774225b1", "fusion_lat": 0.0, "lon": -77.0384095, "is_disabled": 0, "is_reserved": 0, "fusion_lon": 0.0, "lat": 38.9173145, "type": "electric_scooter", "bike_id": "7f2faec7edbe0e152083db45774225b1"}, {"rental_uris": {"android": "https://dc.lft.to/lastmile_qr_scan", "ios": "https://dc.lft.to/lastmile_qr_scan"}, "name": "69c61d76997887b2bb6b3b15cd6e58ff", "fusion_lat": 0.0, "lon": -77.052208, "is_disabled": 0, "is_reserved": 0, "fusion_lon": 0.0, "lat": 38.89824333333333, "type": "electric_scooter", "bike_id": "69c61d76997887b2bb6b3b15cd6e58ff"}, {"rental_uris": {"android": "https://dc.lft.to/lastmile_qr_scan", "ios": "https://dc.lft.to/lastmile_qr_scan"}, "name": "9a0db685e7419da80f281eb0522a40a8", "fusion_lat": 0.0, "lon": -77.02782366666666, "is_disabled": 0, "is_reserved": 0, "fusion_lon": 0.0, "lat": 38.892198, "type": "electric_scooter", "bike_id": "9a0db685e7419da80f281eb0522a40a8"}, {"rental_uris": {"android": "https://dc.lft.to/lastmile_qr_scan", "ios": "https://dc.lft.to/lastmile_qr_scan"}, "name": "ecdf79097871c3f4c90a14129f9a4b90", "fusion_lat": 0.0, "lon": -77.06380683333333, "is_disabled": 0, "is_reserved": 0, "fusion_lon": 0.0, "lat": 39.017342166666666, "type": "electric_bike", "bike_id": "ecdf79097871c3f4c90a14129f9a4b90"}, {"rental_uris": {"android": "https://dc.lft.to/lastmile_qr_scan", "ios": "https://dc.lft.to/lastmile_qr_scan"}, "name": "793ee644cc15e7f07c97e43cd9c35f75", "fusion_lat": 0.0, "lon": -77.03466733333333, "is_disabled": 0, "is_reserved": 0, "fusion_lon": 0.0, "lat": 38.91428533333333, "type": "electric_scooter", "bike_id": "793ee644cc15e7f07c97e43cd9c35f75"}, {"rental_uris": {"android": "https://dc.lft.to/lastmile_qr_scan", "ios": "https://dc.lft.to/lastmile_qr_scan"}, "name": "faa1c04c81439ba83bc32f13a14fd562", "fusion_lat": 0.0, "lon": -77.0344605, "is_disabled": 0, "is_reserved": 0, "fusion_lon": 0.0, "lat": 38.917905833333336, "type": "electric_scooter", "bike_id": "faa1c04c81439ba83bc32f13a14fd562"}, {"rental_uris": {"android": "https://dc.lft.to/lastmile_qr_scan", "ios": "https://dc.lft.to/lastmile_qr_scan"}, "name": "ab401d486d50543303da10a3c6df011b", "fusion_lat": 0.0, "lon": -77.18740983333333, "is_disabled": 0, "is_reserved": 0, "fusion_lon": 0.0, "lat": 38.893494833333335, "type": "electric_bike", "bike_id": "ab401d486d50543303da10a3c6df011b"}, {"rental_uris": {"android": "https://dc.lft.to/lastmile_qr_scan", "ios": "https://dc.lft.to/lastmile_qr_scan"}, "name": "dc0903c92d4bae2617f9202a3c251825", "fusion_lat": 0.0, "lon": -77.02983166666667, "is_disabled": 0, "is_reserved": 0, "fusion_lon": 0.0, "lat": 38.93700666666667, "type": "electric_bike", "bike_id": "dc0903c92d4bae2617f9202a3c251825"}, {"rental_uris": {"android": "https://dc.lft.to/lastmile_qr_scan", "ios": "https://dc.lft.to/lastmile_qr_scan"}, "name": "ebf259a4689429d5d65f350737d17dac", "fusion_lat": 0.0, "lon": -76.98885466666667, "is_disabled": 0, "is_reserved": 0, "fusion_lon": 0.0, "lat": 38.866746, "type": "electric_scooter", "bike_id": "ebf259a4689429d5d65f350737d17dac"}, {"rental_uris": {"android": "https://dc.lft.to/lastmile_qr_scan", "ios": "https://dc.lft.to/lastmile_qr_scan"}, "name": "b32e3b84272ebd6143df667fe2237b5a", "fusion_lat": 0.0, "lon": -76.94994016666666, "is_disabled": 0, "is_reserved": 0, "fusion_lon": 0.0, "lat": 38.893914, "type": "electric_scooter", "bike_id": "b32e3b84272ebd6143df667fe2237b5a"}, {"rental_uris": {"android": "https://dc.lft.to/lastmile_qr_scan", "ios": "https://dc.lft.to/lastmile_qr_scan"}, "name": "a6d4f36f5a25510286a51464a00ae3d2", "fusion_lat": 0.0, "lon": -77.06397233333334, "is_disabled": 0, "is_reserved": 0, "fusion_lon": 0.0, "lat": 38.944196, "type": "electric_scooter", "bike_id": "a6d4f36f5a25510286a51464a00ae3d2"}, {"rental_uris": {"android": "https://dc.lft.to/lastmile_qr_scan", "ios": "https://dc.lft.to/lastmile_qr_scan"}, "name": "e47f479142e1e9b9eddb92eac2816187", "fusion_lat": 0.0, "lon": -77.0115675, "is_disabled": 0, "is_reserved": 0, "fusion_lon": 0.0, "lat": 38.89594116666667, "type": "electric_scooter", "bike_id": "e47f479142e1e9b9eddb92eac2816187"}, {"rental_uris": {"android": "https://dc.lft.to/lastmile_qr_scan", "ios": "https://dc.lft.to/lastmile_qr_scan"}, "name": "f1bd4f8636bfdfb1d7e418a0e2f3e856", "fusion_lat": 0.0, "lon": -76.9608805, "is_disabled": 0, "is_reserved": 0, "fusion_lon": 0.0, "lat": 38.918644666666665, "type": "electric_bike", "bike_id": "f1bd4f8636bfdfb1d7e418a0e2f3e856"}, {"rental_uris": {"android": "https://dc.lft.to/lastmile_qr_scan", "ios": "https://dc.lft.to/lastmile_qr_scan"}, "name": "0471aec0a569b7cff1072e57ad9d9829", "fusion_lat": 0.0, "lon": -77.03347516666666, "is_disabled": 0, "is_reserved": 0, "fusion_lon": 0.0, "lat": 38.90252566666667, "type": "electric_scooter", "bike_id": "0471aec0a569b7cff1072e57ad9d9829"}, {"rental_uris": {"android": "https://dc.lft.to/lastmile_qr_scan", "ios": "https://dc.lft.to/lastmile_qr_scan"}, "name": "c2e0d9255b3c969f0d39ecd15b84fd75", "fusion_lat": 0.0, "lon": -77.0320875, "is_disabled": 0, "is_reserved": 0, "fusion_lon": 0.0, "lat": 38.91349916666667, "type": "electric_scooter", "bike_id": "c2e0d9255b3c969f0d39ecd15b84fd75"}, {"rental_uris": {"android": "https://dc.lft.to/lastmile_qr_scan", "ios": "https://dc.lft.to/lastmile_qr_scan"}, "name": "ea0bf88a0ade8de326d5ffa3162bc393", "fusion_lat": 0.0, "lon": -77.01896316666667, "is_disabled": 0, "is_reserved": 0, "fusion_lon": 0.0, "lat": 38.90270433333333, "type": "electric_scooter", "bike_id": "ea0bf88a0ade8de326d5ffa3162bc393"}, {"rental_uris": {"android": "https://dc.lft.to/lastmile_qr_scan", "ios": "https://dc.lft.to/lastmile_qr_scan"}, "name": "7f99854064bb4e8a0d2c1d55a7641fd5", "fusion_lat": 0.0, "lon": -76.9887855, "is_disabled": 0, "is_reserved": 0, "fusion_lon": 0.0, "lat": 38.9063535, "type": "electric_scooter", "bike_id": "7f99854064bb4e8a0d2c1d55a7641fd5"}, {"rental_uris": {"android": "https://dc.lft.to/lastmile_qr_scan", "ios": "https://dc.lft.to/lastmile_qr_scan"}, "name": "02027241719d68869c12882d0a437821", "fusion_lat": 0.0, "lon": -77.046564, "is_disabled": 0, "is_reserved": 0, "fusion_lon": 0.0, "lat": 38.89341483333333, "type": "electric_scooter", "bike_id": "02027241719d68869c12882d0a437821"}, {"rental_uris": {"android": "https://dc.lft.to/lastmile_qr_scan", "ios": "https://dc.lft.to/lastmile_qr_scan"}, "name": "74037d79719af9fc6691235c8679af49", "fusion_lat": 0.0, "lon": -77.04372433333333, "is_disabled": 0, "is_reserved": 0, "fusion_lon": 0.0, "lat": 38.925742, "type": "electric_scooter", "bike_id": "74037d79719af9fc6691235c8679af49"}, {"rental_uris": {"android": "https://dc.lft.to/lastmile_qr_scan", "ios": "https://dc.lft.to/lastmile_qr_scan"}, "name": "77581df383dd88c81dd93bdaae8e19c9", "fusion_lat": 0.0, "lon": -77.080568, "is_disabled": 0, "is_reserved": 0, "fusion_lon": 0.0, "lat": 38.84835916666667, "type": "electric_bike", "bike_id": "77581df383dd88c81dd93bdaae8e19c9"}, {"rental_uris": {"android": "https://dc.lft.to/lastmile_qr_scan", "ios": "https://dc.lft.to/lastmile_qr_scan"}, "name": "179170d591d85f57ec748e9d926897c0", "fusion_lat": 0.0, "lon": -77.04692483333334, "is_disabled": 0, "is_reserved": 0, "fusion_lon": 0.0, "lat": 38.9210525, "type": "electric_scooter", "bike_id": "179170d591d85f57ec748e9d926897c0"}, {"rental_uris": {"android": "https://dc.lft.to/lastmile_qr_scan", "ios": "https://dc.lft.to/lastmile_qr_scan"}, "name": "310825eb29487bcf16a2f74f40cbe460", "fusion_lat": 0.0, "lon": -77.02673583333333, "is_disabled": 0, "is_reserved": 0, "fusion_lon": 0.0, "lat": 38.9107345, "type": "electric_scooter", "bike_id": "310825eb29487bcf16a2f74f40cbe460"}, {"rental_uris": {"android": "https://dc.lft.to/lastmile_qr_scan", "ios": "https://dc.lft.to/lastmile_qr_scan"}, "name": "1d696e374829c5c97201a931d08e254f", "fusion_lat": 0.0, "lon": -76.9667165, "is_disabled": 0, "is_reserved": 0, "fusion_lon": 0.0, "lat": 38.958644166666666, "type": "electric_bike", "bike_id": "1d696e374829c5c97201a931d08e254f"}, {"rental_uris": {"android": "https://dc.lft.to/lastmile_qr_scan", "ios": "https://dc.lft.to/lastmile_qr_scan"}, "name": "023a68f263273f636826b61cc1c45d2f", "fusion_lat": 0.0, "lon": -77.04666766666666, "is_disabled": 0, "is_reserved": 0, "fusion_lon": 0.0, "lat": 38.899029, "type": "electric_scooter", "bike_id": "023a68f263273f636826b61cc1c45d2f"}, {"rental_uris": {"android": "https://dc.lft.to/lastmile_qr_scan", "ios": "https://dc.lft.to/lastmile_qr_scan"}, "name": "5c8443e9ebb34d3dea8d30b90f807318", "fusion_lat": 0.0, "lon": -76.99458916666667, "is_disabled": 0, "is_reserved": 0, "fusion_lon": 0.0, "lat": 38.85156583333333, "type": "electric_scooter", "bike_id": "5c8443e9ebb34d3dea8d30b90f807318"}, {"rental_uris": {"android": "https://dc.lft.to/lastmile_qr_scan", "ios": "https://dc.lft.to/lastmile_qr_scan"}, "name": "013ae482d4bd7c9be96166a40af4c0ae", "fusion_lat": 0.0, "lon": -77.02680233333334, "is_disabled": 0, "is_reserved": 0, "fusion_lon": 0.0, "lat": 38.898454666666666, "type": "electric_scooter", "bike_id": "013ae482d4bd7c9be96166a40af4c0ae"}, {"rental_uris": {"android": "https://dc.lft.to/lastmile_qr_scan", "ios": "https://dc.lft.to/lastmile_qr_scan"}, "name": "2b8f164a90fb5d33e2bd259197efc127", "fusion_lat": 0.0, "lon": -77.01165933333333, "is_disabled": 0, "is_reserved": 0, "fusion_lon": 0.0, "lat": 38.8720055, "type": "electric_scooter", "bike_id": "2b8f164a90fb5d33e2bd259197efc127"}, {"rental_uris": {"android": "https://dc.lft.to/lastmile_qr_scan", "ios": "https://dc.lft.to/lastmile_qr_scan"}, "name": "419320cd2c84d4b6aaef02b39558e1a7", "fusion_lat": 0.0, "lon": -77.04630633333333, "is_disabled": 0, "is_reserved": 0, "fusion_lon": 0.0, "lat": 38.90538866666667, "type": "electric_scooter", "bike_id": "419320cd2c84d4b6aaef02b39558e1a7"}, {"rental_uris": {"android": "https://dc.lft.to/lastmile_qr_scan", "ios": "https://dc.lft.to/lastmile_qr_scan"}, "name": "ccca268170a8d1f89372718ac6163cd3", "fusion_lat": 0.0, "lon": -76.93746633333333, "is_disabled": 0, "is_reserved": 0, "fusion_lon": 0.0, "lat": 38.890118666666666, "type": "electric_scooter", "bike_id": "ccca268170a8d1f89372718ac6163cd3"}, {"rental_uris": {"android": "https://dc.lft.to/lastmile_qr_scan", "ios": "https://dc.lft.to/lastmile_qr_scan"}, "name": "47d411a9f7b949f5e20e952b111626ab", "fusion_lat": 0.0, "lon": -77.016242, "is_disabled": 0, "is_reserved": 0, "fusion_lon": 0.0, "lat": 38.906098666666665, "type": "electric_scooter", "bike_id": "47d411a9f7b949f5e20e952b111626ab"}, {"rental_uris": {"android": "https://dc.lft.to/lastmile_qr_scan", "ios": "https://dc.lft.to/lastmile_qr_scan"}, "name": "2780765125f80df09dac26a896f0fd8e", "fusion_lat": 0.0, "lon": -77.0138895, "is_disabled": 0, "is_reserved": 0, "fusion_lon": 0.0, "lat": 38.928408, "type": "electric_scooter", "bike_id": "2780765125f80df09dac26a896f0fd8e"}, {"rental_uris": {"android": "https://dc.lft.to/lastmile_qr_scan", "ios": "https://dc.lft.to/lastmile_qr_scan"}, "name": "93bc44019d1d7911cb3947dd45b5f84e", "fusion_lat": 0.0, "lon": -76.95108033333334, "is_disabled": 0, "is_reserved": 0, "fusion_lon": 0.0, "lat": 38.887904166666665, "type": "electric_scooter", "bike_id": "93bc44019d1d7911cb3947dd45b5f84e"}, {"rental_uris": {"android": "https://dc.lft.to/lastmile_qr_scan", "ios": "https://dc.lft.to/lastmile_qr_scan"}, "name": "b89baf7ad9b34767ed696199d21d86b1", "fusion_lat": 0.0, "lon": -76.983194, "is_disabled": 0, "is_reserved": 0, "fusion_lon": 0.0, "lat": 38.888153833333334, "type": "electric_scooter", "bike_id": "b89baf7ad9b34767ed696199d21d86b1"}, {"rental_uris": {"android": "https://dc.lft.to/lastmile_qr_scan", "ios": "https://dc.lft.to/lastmile_qr_scan"}, "name": "39d62bc5408e43b0f7afee6f45e9cb75", "fusion_lat": 0.0, "lon": -76.98163216666667, "is_disabled": 0, "is_reserved": 0, "fusion_lon": 0.0, "lat": 38.95967616666667, "type": "electric_bike", "bike_id": "39d62bc5408e43b0f7afee6f45e9cb75"}, {"rental_uris": {"android": "https://dc.lft.to/lastmile_qr_scan", "ios": "https://dc.lft.to/lastmile_qr_scan"}, "name": "1e550baa366082355d0b552be7b04a99", "fusion_lat": 0.0, "lon": -77.03833233333333, "is_disabled": 0, "is_reserved": 0, "fusion_lon": 0.0, "lat": 38.911434, "type": "electric_scooter", "bike_id": "1e550baa366082355d0b552be7b04a99"}, {"rental_uris": {"android": "https://dc.lft.to/lastmile_qr_scan", "ios": "https://dc.lft.to/lastmile_qr_scan"}, "name": "d5efef971d889ec3ef451a1766637fa9", "fusion_lat": 0.0, "lon": -77.029075, "is_disabled": 0, "is_reserved": 0, "fusion_lon": 0.0, "lat": 38.901409666666666, "type": "electric_scooter", "bike_id": "d5efef971d889ec3ef451a1766637fa9"}, {"rental_uris": {"android": "https://dc.lft.to/lastmile_qr_scan", "ios": "https://dc.lft.to/lastmile_qr_scan"}, "name": "d3b456fd3e48f94e77fda00610f3ba24", "fusion_lat": 0.0, "lon": -77.05193416666667, "is_disabled": 0, "is_reserved": 0, "fusion_lon": 0.0, "lat": 38.925526, "type": "electric_scooter", "bike_id": "d3b456fd3e48f94e77fda00610f3ba24"}, {"rental_uris": {"android": "https://dc.lft.to/lastmile_qr_scan", "ios": "https://dc.lft.to/lastmile_qr_scan"}, "name": "82faeab8a54b7b2703836e216f6691e2", "fusion_lat": 0.0, "lon": -77.02789683333333, "is_disabled": 0, "is_reserved": 0, "fusion_lon": 0.0, "lat": 38.96136, "type": "electric_scooter", "bike_id": "82faeab8a54b7b2703836e216f6691e2"}, {"rental_uris": {"android": "https://dc.lft.to/lastmile_qr_scan", "ios": "https://dc.lft.to/lastmile_qr_scan"}, "name": "2cc7e56e73314c281eaa4ebdbe1280ca", "fusion_lat": 0.0, "lon": -77.01202333333333, "is_disabled": 0, "is_reserved": 0, "fusion_lon": 0.0, "lat": 38.9691755, "type": "electric_scooter", "bike_id": "2cc7e56e73314c281eaa4ebdbe1280ca"}, {"rental_uris": {"android": "https://dc.lft.to/lastmile_qr_scan", "ios": "https://dc.lft.to/lastmile_qr_scan"}, "name": "60e05f78aabb0eff002543f45ff4dfc7", "fusion_lat": 0.0, "lon": -77.06762766666667, "is_disabled": 0, "is_reserved": 0, "fusion_lon": 0.0, "lat": 38.94980016666667, "type": "electric_scooter", "bike_id": "60e05f78aabb0eff002543f45ff4dfc7"}, {"rental_uris": {"android": "https://dc.lft.to/lastmile_qr_scan", "ios": "https://dc.lft.to/lastmile_qr_scan"}, "name": "c796f635c0549824555802f986d151a5", "fusion_lat": 0.0, "lon": -76.96057483333334, "is_disabled": 0, "is_reserved": 0, "fusion_lon": 0.0, "lat": 38.88408166666667, "type": "electric_bike", "bike_id": "c796f635c0549824555802f986d151a5"}, {"rental_uris": {"android": "https://dc.lft.to/lastmile_qr_scan", "ios": "https://dc.lft.to/lastmile_qr_scan"}, "name": "f89b4ec375190dab4c77a706fcf4d0e3", "fusion_lat": 0.0, "lon": -77.0320695, "is_disabled": 0, "is_reserved": 0, "fusion_lon": 0.0, "lat": 38.939711, "type": "electric_scooter", "bike_id": "f89b4ec375190dab4c77a706fcf4d0e3"}, {"rental_uris": {"android": "https://dc.lft.to/lastmile_qr_scan", "ios": "https://dc.lft.to/lastmile_qr_scan"}, "name": "36128cd91bbedc0097218d9eab2af240", "fusion_lat": 0.0, "lon": -76.97217516666667, "is_disabled": 0, "is_reserved": 0, "fusion_lon": 0.0, "lat": 38.8448225, "type": "electric_bike", "bike_id": "36128cd91bbedc0097218d9eab2af240"}, {"rental_uris": {"android": "https://dc.lft.to/lastmile_qr_scan", "ios": "https://dc.lft.to/lastmile_qr_scan"}, "name": "64a02cd00542b71dc525f759d848bd8a", "fusion_lat": 0.0, "lon": -77.03850116666666, "is_disabled": 0, "is_reserved": 0, "fusion_lon": 0.0, "lat": 38.92164483333333, "type": "electric_scooter", "bike_id": "64a02cd00542b71dc525f759d848bd8a"}, {"rental_uris": {"android": "https://dc.lft.to/lastmile_qr_scan", "ios": "https://dc.lft.to/lastmile_qr_scan"}, "name": "c20faae313cb3cd263cd0a7e63f452a1", "fusion_lat": 0.0, "lon": -77.0329595, "is_disabled": 0, "is_reserved": 0, "fusion_lon": 0.0, "lat": 38.912654333333336, "type": "electric_scooter", "bike_id": "c20faae313cb3cd263cd0a7e63f452a1"}, {"rental_uris": {"android": "https://dc.lft.to/lastmile_qr_scan", "ios": "https://dc.lft.to/lastmile_qr_scan"}, "name": "a8ca6c9874633af9400f15cbbdb14801", "fusion_lat": 0.0, "lon": -77.02155116666667, "is_disabled": 0, "is_reserved": 0, "fusion_lon": 0.0, "lat": 38.926054666666666, "type": "electric_scooter", "bike_id": "a8ca6c9874633af9400f15cbbdb14801"}, {"rental_uris": {"android": "https://dc.lft.to/lastmile_qr_scan", "ios": "https://dc.lft.to/lastmile_qr_scan"}, "name": "3183f5711524dcd9f91cbe1b335d4ad6", "fusion_lat": 0.0, "lon": -77.03037916666666, "is_disabled": 0, "is_reserved": 0, "fusion_lon": 0.0, "lat": 38.93981466666666, "type": "electric_scooter", "bike_id": "3183f5711524dcd9f91cbe1b335d4ad6"}, {"rental_uris": {"android": "https://dc.lft.to/lastmile_qr_scan", "ios": "https://dc.lft.to/lastmile_qr_scan"}, "name": "448dd19526fcca2217f8d704ac9d4850", "fusion_lat": 0.0, "lon": -77.01832566666667, "is_disabled": 0, "is_reserved": 0, "fusion_lon": 0.0, "lat": 38.919585833333336, "type": "electric_scooter", "bike_id": "448dd19526fcca2217f8d704ac9d4850"}, {"rental_uris": {"android": "https://dc.lft.to/lastmile_qr_scan", "ios": "https://dc.lft.to/lastmile_qr_scan"}, "name": "41e732facb4195470ee38d760dca7268", "fusion_lat": 0.0, "lon": -77.026067, "is_disabled": 0, "is_reserved": 0, "fusion_lon": 0.0, "lat": 38.900434, "type": "electric_scooter", "bike_id": "41e732facb4195470ee38d760dca7268"}, {"rental_uris": {"android": "https://dc.lft.to/lastmile_qr_scan", "ios": "https://dc.lft.to/lastmile_qr_scan"}, "name": "ca84a44c091dcea7bbfb1472f47f55ff", "fusion_lat": 0.0, "lon": -76.97908816666667, "is_disabled": 0, "is_reserved": 0, "fusion_lon": 0.0, "lat": 38.89433783333333, "type": "electric_scooter", "bike_id": "ca84a44c091dcea7bbfb1472f47f55ff"}, {"rental_uris": {"android": "https://dc.lft.to/lastmile_qr_scan", "ios": "https://dc.lft.to/lastmile_qr_scan"}, "name": "c2c8099f5ca7d8ac554ae66613e56424", "fusion_lat": 0.0, "lon": -77.00609916666667, "is_disabled": 0, "is_reserved": 0, "fusion_lon": 0.0, "lat": 38.871803, "type": "electric_scooter", "bike_id": "c2c8099f5ca7d8ac554ae66613e56424"}, {"rental_uris": {"android": "https://dc.lft.to/lastmile_qr_scan", "ios": "https://dc.lft.to/lastmile_qr_scan"}, "name": "7ee496e94974cb6c34bcb0d21c12eec3", "fusion_lat": 0.0, "lon": -77.00541016666666, "is_disabled": 0, "is_reserved": 0, "fusion_lon": 0.0, "lat": 38.87940666666667, "type": "electric_scooter", "bike_id": "7ee496e94974cb6c34bcb0d21c12eec3"}, {"rental_uris": {"android": "https://dc.lft.to/lastmile_qr_scan", "ios": "https://dc.lft.to/lastmile_qr_scan"}, "name": "6c14960fd53eaf93e1b545edf39a3533", "fusion_lat": 0.0, "lon": -77.10683616666667, "is_disabled": 0, "is_reserved": 0, "fusion_lon": 0.0, "lat": 38.935800666666665, "type": "electric_bike", "bike_id": "6c14960fd53eaf93e1b545edf39a3533"}, {"rental_uris": {"android": "https://dc.lft.to/lastmile_qr_scan", "ios": "https://dc.lft.to/lastmile_qr_scan"}, "name": "ccc7ac393da8f6ff2feab6440ee88458", "fusion_lat": 0.0, "lon": -77.03836083333333, "is_disabled": 0, "is_reserved": 0, "fusion_lon": 0.0, "lat": 38.90381333333333, "type": "electric_scooter", "bike_id": "ccc7ac393da8f6ff2feab6440ee88458"}, {"rental_uris": {"android": "https://dc.lft.to/lastmile_qr_scan", "ios": "https://dc.lft.to/lastmile_qr_scan"}, "name": "5a9c3f06234012a6c12710e809f7c1a6", "fusion_lat": 0.0, "lon": -77.03987866666667, "is_disabled": 0, "is_reserved": 0, "fusion_lon": 0.0, "lat": 38.8922295, "type": "electric_scooter", "bike_id": "5a9c3f06234012a6c12710e809f7c1a6"}, {"rental_uris": {"android": "https://dc.lft.to/lastmile_qr_scan", "ios": "https://dc.lft.to/lastmile_qr_scan"}, "name": "f98aba13e5b3723d49d3068d8e58d36b", "fusion_lat": 0.0, "lon": -77.0360825, "is_disabled": 0, "is_reserved": 0, "fusion_lon": 0.0, "lat": 38.92330716666667, "type": "electric_scooter", "bike_id": "f98aba13e5b3723d49d3068d8e58d36b"}, {"rental_uris": {"android": "https://dc.lft.to/lastmile_qr_scan", "ios": "https://dc.lft.to/lastmile_qr_scan"}, "name": "ce7934bab75ca5616b84a2c69f2283be", "fusion_lat": 0.0, "lon": -77.00968966666667, "is_disabled": 0, "is_reserved": 0, "fusion_lon": 0.0, "lat": 38.90783616666667, "type": "electric_scooter", "bike_id": "ce7934bab75ca5616b84a2c69f2283be"}, {"rental_uris": {"android": "https://dc.lft.to/lastmile_qr_scan", "ios": "https://dc.lft.to/lastmile_qr_scan"}, "name": "6a0a4921b578ca25282ee0a09a7d30c4", "fusion_lat": 0.0, "lon": -76.99920466666667, "is_disabled": 0, "is_reserved": 0, "fusion_lon": 0.0, "lat": 38.90740066666667, "type": "electric_scooter", "bike_id": "6a0a4921b578ca25282ee0a09a7d30c4"}, {"rental_uris": {"android": "https://dc.lft.to/lastmile_qr_scan", "ios": "https://dc.lft.to/lastmile_qr_scan"}, "name": "939b3a363bb10280523acbb33ed61ebb", "fusion_lat": 0.0, "lon": -76.99755216666667, "is_disabled": 0, "is_reserved": 0, "fusion_lon": 0.0, "lat": 38.900405666666664, "type": "electric_scooter", "bike_id": "939b3a363bb10280523acbb33ed61ebb"}, {"rental_uris": {"android": "https://dc.lft.to/lastmile_qr_scan", "ios": "https://dc.lft.to/lastmile_qr_scan"}, "name": "cbc5c28ab058f2bf6669a3ed76fbcf93", "fusion_lat": 0.0, "lon": -77.02222316666666, "is_disabled": 0, "is_reserved": 0, "fusion_lon": 0.0, "lat": 38.89220533333334, "type": "electric_scooter", "bike_id": "cbc5c28ab058f2bf6669a3ed76fbcf93"}, {"rental_uris": {"android": "https://dc.lft.to/lastmile_qr_scan", "ios": "https://dc.lft.to/lastmile_qr_scan"}, "name": "361747d740206bcfa03295168729a111", "fusion_lat": 0.0, "lon": -77.0310305, "is_disabled": 0, "is_reserved": 0, "fusion_lon": 0.0, "lat": 38.925752, "type": "electric_scooter", "bike_id": "361747d740206bcfa03295168729a111"}, {"rental_uris": {"android": "https://dc.lft.to/lastmile_qr_scan", "ios": "https://dc.lft.to/lastmile_qr_scan"}, "name": "3745839c3c18e166b74422e3b465ffb6", "fusion_lat": 0.0, "lon": -77.014005, "is_disabled": 0, "is_reserved": 0, "fusion_lon": 0.0, "lat": 38.880293, "type": "electric_scooter", "bike_id": "3745839c3c18e166b74422e3b465ffb6"}, {"rental_uris": {"android": "https://dc.lft.to/lastmile_qr_scan", "ios": "https://dc.lft.to/lastmile_qr_scan"}, "name": "c802042bd76dc2c6ef89f4aec479e8d7", "fusion_lat": 0.0, "lon": -77.010214, "is_disabled": 0, "is_reserved": 0, "fusion_lon": 0.0, "lat": 38.90626366666667, "type": "electric_scooter", "bike_id": "c802042bd76dc2c6ef89f4aec479e8d7"}, {"rental_uris": {"android": "https://dc.lft.to/lastmile_qr_scan", "ios": "https://dc.lft.to/lastmile_qr_scan"}, "name": "34456b64fc3a9b132e53a62b9b95acf8", "fusion_lat": 0.0, "lon": -77.04424816666666, "is_disabled": 0, "is_reserved": 0, "fusion_lon": 0.0, "lat": 38.90793216666667, "type": "electric_bike", "bike_id": "34456b64fc3a9b132e53a62b9b95acf8"}, {"rental_uris": {"android": "https://dc.lft.to/lastmile_qr_scan", "ios": "https://dc.lft.to/lastmile_qr_scan"}, "name": "1283f64426338c6bdf76c9160cb027d8", "fusion_lat": 0.0, "lon": -77.02305016666666, "is_disabled": 0, "is_reserved": 0, "fusion_lon": 0.0, "lat": 38.9160735, "type": "electric_scooter", "bike_id": "1283f64426338c6bdf76c9160cb027d8"}, {"rental_uris": {"android": "https://dc.lft.to/lastmile_qr_scan", "ios": "https://dc.lft.to/lastmile_qr_scan"}, "name": "aa3497ccead51bf65ff5f59edfb77465", "fusion_lat": 0.0, "lon": -77.04355783333334, "is_disabled": 0, "is_reserved": 0, "fusion_lon": 0.0, "lat": 38.89846333333333, "type": "electric_scooter", "bike_id": "aa3497ccead51bf65ff5f59edfb77465"}, {"rental_uris": {"android": "https://dc.lft.to/lastmile_qr_scan", "ios": "https://dc.lft.to/lastmile_qr_scan"}, "name": "785df605c40d689848c1221f1c787d46", "fusion_lat": 0.0, "lon": -76.98727233333334, "is_disabled": 0, "is_reserved": 0, "fusion_lon": 0.0, "lat": 38.867146, "type": "electric_scooter", "bike_id": "785df605c40d689848c1221f1c787d46"}, {"rental_uris": {"android": "https://dc.lft.to/lastmile_qr_scan", "ios": "https://dc.lft.to/lastmile_qr_scan"}, "name": "7b54f2590ad2b24b6f69d00106188dcd", "fusion_lat": 0.0, "lon": -77.0249555, "is_disabled": 0, "is_reserved": 0, "fusion_lon": 0.0, "lat": 38.9206625, "type": "electric_scooter", "bike_id": "7b54f2590ad2b24b6f69d00106188dcd"}, {"rental_uris": {"android": "https://dc.lft.to/lastmile_qr_scan", "ios": "https://dc.lft.to/lastmile_qr_scan"}, "name": "e832ac4d83914160fdb9933a5727e4c0", "fusion_lat": 0.0, "lon": -76.95206266666666, "is_disabled": 0, "is_reserved": 0, "fusion_lon": 0.0, "lat": 38.936697, "type": "electric_bike", "bike_id": "e832ac4d83914160fdb9933a5727e4c0"}, {"rental_uris": {"android": "https://dc.lft.to/lastmile_qr_scan", "ios": "https://dc.lft.to/lastmile_qr_scan"}, "name": "5167a8c01404abc025732b26f73d3618", "fusion_lat": 0.0, "lon": -77.04670583333333, "is_disabled": 0, "is_reserved": 0, "fusion_lon": 0.0, "lat": 38.903310166666664, "type": "electric_scooter", "bike_id": "5167a8c01404abc025732b26f73d3618"}, {"rental_uris": {"android": "https://dc.lft.to/lastmile_qr_scan", "ios": "https://dc.lft.to/lastmile_qr_scan"}, "name": "e845520132a7eb5267b56075b6729dfb", "fusion_lat": 0.0, "lon": -77.03891966666667, "is_disabled": 0, "is_reserved": 0, "fusion_lon": 0.0, "lat": 38.906451, "type": "electric_scooter", "bike_id": "e845520132a7eb5267b56075b6729dfb"}, {"rental_uris": {"android": "https://dc.lft.to/lastmile_qr_scan", "ios": "https://dc.lft.to/lastmile_qr_scan"}, "name": "fdb526accb2e67299ef04b8928d8a411", "fusion_lat": 0.0, "lon": -77.0234505, "is_disabled": 0, "is_reserved": 0, "fusion_lon": 0.0, "lat": 38.92260683333333, "type": "electric_scooter", "bike_id": "fdb526accb2e67299ef04b8928d8a411"}, {"rental_uris": {"android": "https://dc.lft.to/lastmile_qr_scan", "ios": "https://dc.lft.to/lastmile_qr_scan"}, "name": "55394f84dfe4f32a2f567a81f61f0056", "fusion_lat": 0.0, "lon": -77.0056535, "is_disabled": 0, "is_reserved": 0, "fusion_lon": 0.0, "lat": 38.901876666666666, "type": "electric_scooter", "bike_id": "55394f84dfe4f32a2f567a81f61f0056"}, {"rental_uris": {"android": "https://dc.lft.to/lastmile_qr_scan", "ios": "https://dc.lft.to/lastmile_qr_scan"}, "name": "7122521bb5096a4e7ee2fec361361fa1", "fusion_lat": 0.0, "lon": -77.0272955, "is_disabled": 0, "is_reserved": 0, "fusion_lon": 0.0, "lat": 38.939855, "type": "electric_scooter", "bike_id": "7122521bb5096a4e7ee2fec361361fa1"}, {"rental_uris": {"android": "https://dc.lft.to/lastmile_qr_scan", "ios": "https://dc.lft.to/lastmile_qr_scan"}, "name": "3f1b330430861d0502e62ab0398b62f9", "fusion_lat": 0.0, "lon": -77.036881, "is_disabled": 0, "is_reserved": 0, "fusion_lon": 0.0, "lat": 38.916797833333334, "type": "electric_scooter", "bike_id": "3f1b330430861d0502e62ab0398b62f9"}, {"rental_uris": {"android": "https://dc.lft.to/lastmile_qr_scan", "ios": "https://dc.lft.to/lastmile_qr_scan"}, "name": "998a1e1000437ffe10c8041dd7b990c4", "fusion_lat": 0.0, "lon": -77.03447333333334, "is_disabled": 0, "is_reserved": 0, "fusion_lon": 0.0, "lat": 38.906397, "type": "electric_scooter", "bike_id": "998a1e1000437ffe10c8041dd7b990c4"}, {"rental_uris": {"android": "https://dc.lft.to/lastmile_qr_scan", "ios": "https://dc.lft.to/lastmile_qr_scan"}, "name": "596029b2f39c28aa07510529c4322e5c", "fusion_lat": 0.0, "lon": -77.00308966666667, "is_disabled": 0, "is_reserved": 0, "fusion_lon": 0.0, "lat": 38.892276333333335, "type": "electric_scooter", "bike_id": "596029b2f39c28aa07510529c4322e5c"}, {"rental_uris": {"android": "https://dc.lft.to/lastmile_qr_scan", "ios": "https://dc.lft.to/lastmile_qr_scan"}, "name": "4dd1a5ef591dbb12040ac4aa72b49748", "fusion_lat": 0.0, "lon": -77.00130933333334, "is_disabled": 0, "is_reserved": 0, "fusion_lon": 0.0, "lat": 38.89483716666667, "type": "electric_scooter", "bike_id": "4dd1a5ef591dbb12040ac4aa72b49748"}, {"rental_uris": {"android": "https://dc.lft.to/lastmile_qr_scan", "ios": "https://dc.lft.to/lastmile_qr_scan"}, "name": "a7ca2738ada3947123fab233c0f353a0", "fusion_lat": 0.0, "lon": -76.90084066666667, "is_disabled": 0, "is_reserved": 0, "fusion_lon": 0.0, "lat": 38.8875865, "type": "electric_bike", "bike_id": "a7ca2738ada3947123fab233c0f353a0"}, {"rental_uris": {"android": "https://dc.lft.to/lastmile_qr_scan", "ios": "https://dc.lft.to/lastmile_qr_scan"}, "name": "9ea6be0ebe52b2788db5aa41975b6176", "fusion_lat": 0.0, "lon": -77.03821533333333, "is_disabled": 0, "is_reserved": 0, "fusion_lon": 0.0, "lat": 38.906772, "type": "electric_scooter", "bike_id": "9ea6be0ebe52b2788db5aa41975b6176"}, {"rental_uris": {"android": "https://dc.lft.to/lastmile_qr_scan", "ios": "https://dc.lft.to/lastmile_qr_scan"}, "name": "373b62b0a6ffd753b12ac7ff99e79404", "fusion_lat": 0.0, "lon": -77.12813333333334, "is_disabled": 0, "is_reserved": 0, "fusion_lon": 0.0, "lat": 38.865229166666666, "type": "electric_bike", "bike_id": "373b62b0a6ffd753b12ac7ff99e79404"}, {"rental_uris": {"android": "https://dc.lft.to/lastmile_qr_scan", "ios": "https://dc.lft.to/lastmile_qr_scan"}, "name": "16d9d6c2424fda9f7329be905e9e26e2", "fusion_lat": 0.0, "lon": -77.0422335, "is_disabled": 0, "is_reserved": 0, "fusion_lon": 0.0, "lat": 38.92162833333333, "type": "electric_scooter", "bike_id": "16d9d6c2424fda9f7329be905e9e26e2"}, {"rental_uris": {"android": "https://dc.lft.to/lastmile_qr_scan", "ios": "https://dc.lft.to/lastmile_qr_scan"}, "name": "e435b7f297c515b91b7dfa06e857d8a2", "fusion_lat": 0.0, "lon": -77.032827, "is_disabled": 0, "is_reserved": 0, "fusion_lon": 0.0, "lat": 38.94659216666667, "type": "electric_scooter", "bike_id": "e435b7f297c515b91b7dfa06e857d8a2"}, {"rental_uris": {"android": "https://dc.lft.to/lastmile_qr_scan", "ios": "https://dc.lft.to/lastmile_qr_scan"}, "name": "948eb832da9e47c4efc5819815b13b83", "fusion_lat": 0.0, "lon": -77.07294616666667, "is_disabled": 0, "is_reserved": 0, "fusion_lon": 0.0, "lat": 38.924655666666666, "type": "electric_bike", "bike_id": "948eb832da9e47c4efc5819815b13b83"}, {"rental_uris": {"android": "https://dc.lft.to/lastmile_qr_scan", "ios": "https://dc.lft.to/lastmile_qr_scan"}, "name": "f154a7a3877b2a08f233b8346ef5fea3", "fusion_lat": 0.0, "lon": -76.95456633333333, "is_disabled": 0, "is_reserved": 0, "fusion_lon": 0.0, "lat": 38.8880755, "type": "electric_scooter", "bike_id": "f154a7a3877b2a08f233b8346ef5fea3"}, {"rental_uris": {"android": "https://dc.lft.to/lastmile_qr_scan", "ios": "https://dc.lft.to/lastmile_qr_scan"}, "name": "2420b7894fa130530a69e13c6f868624", "fusion_lat": 0.0, "lon": -76.9655925, "is_disabled": 0, "is_reserved": 0, "fusion_lon": 0.0, "lat": 38.91842966666667, "type": "electric_scooter", "bike_id": "2420b7894fa130530a69e13c6f868624"}, {"rental_uris": {"android": "https://dc.lft.to/lastmile_qr_scan", "ios": "https://dc.lft.to/lastmile_qr_scan"}, "name": "9f01949db7145272e37f0dd6df7dada5", "fusion_lat": 0.0, "lon": -76.98704333333333, "is_disabled": 0, "is_reserved": 0, "fusion_lon": 0.0, "lat": 38.86533216666667, "type": "electric_scooter", "bike_id": "9f01949db7145272e37f0dd6df7dada5"}, {"rental_uris": {"android": "https://dc.lft.to/lastmile_qr_scan", "ios": "https://dc.lft.to/lastmile_qr_scan"}, "name": "fe7cd11c317df9ccd21e2ed8e223affc", "fusion_lat": 0.0, "lon": -77.02277133333334, "is_disabled": 0, "is_reserved": 0, "fusion_lon": 0.0, "lat": 38.901487333333336, "type": "electric_scooter", "bike_id": "fe7cd11c317df9ccd21e2ed8e223affc"}, {"rental_uris": {"android": "https://dc.lft.to/lastmile_qr_scan", "ios": "https://dc.lft.to/lastmile_qr_scan"}, "name": "29136ea5b95a8649f34c84cd73227d4b", "fusion_lat": 0.0, "lon": -77.01681133333334, "is_disabled": 0, "is_reserved": 0, "fusion_lon": 0.0, "lat": 38.900733333333335, "type": "electric_scooter", "bike_id": "29136ea5b95a8649f34c84cd73227d4b"}, {"rental_uris": {"android": "https://dc.lft.to/lastmile_qr_scan", "ios": "https://dc.lft.to/lastmile_qr_scan"}, "name": "4bd0ba06d41577040ccb757dd4e9311f", "fusion_lat": 0.0, "lon": -77.1298095, "is_disabled": 0, "is_reserved": 0, "fusion_lon": 0.0, "lat": 38.7999485, "type": "electric_bike", "bike_id": "4bd0ba06d41577040ccb757dd4e9311f"}, {"rental_uris": {"android": "https://dc.lft.to/lastmile_qr_scan", "ios": "https://dc.lft.to/lastmile_qr_scan"}, "name": "12bddb1342af63b98c3a1c7fdf8cd890", "fusion_lat": 0.0, "lon": -77.06393883333334, "is_disabled": 0, "is_reserved": 0, "fusion_lon": 0.0, "lat": 38.929086166666664, "type": "electric_scooter", "bike_id": "12bddb1342af63b98c3a1c7fdf8cd890"}, {"rental_uris": {"android": "https://dc.lft.to/lastmile_qr_scan", "ios": "https://dc.lft.to/lastmile_qr_scan"}, "name": "7613d7da4b36be075447d9cef31fe63e", "fusion_lat": 0.0, "lon": -77.07049666666667, "is_disabled": 0, "is_reserved": 0, "fusion_lon": 0.0, "lat": 38.8245135, "type": "electric_bike", "bike_id": "7613d7da4b36be075447d9cef31fe63e"}, {"rental_uris": {"android": "https://dc.lft.to/lastmile_qr_scan", "ios": "https://dc.lft.to/lastmile_qr_scan"}, "name": "9faf7bdcd7310a3630414154cece1c66", "fusion_lat": 0.0, "lon": -77.03650733333333, "is_disabled": 0, "is_reserved": 0, "fusion_lon": 0.0, "lat": 38.95021783333333, "type": "electric_bike", "bike_id": "9faf7bdcd7310a3630414154cece1c66"}, {"rental_uris": {"android": "https://dc.lft.to/lastmile_qr_scan", "ios": "https://dc.lft.to/lastmile_qr_scan"}, "name": "4766be782375cc81a3d20597a3e92d0f", "fusion_lat": 0.0, "lon": -76.99449, "is_disabled": 0, "is_reserved": 0, "fusion_lon": 0.0, "lat": 38.905070333333335, "type": "electric_scooter", "bike_id": "4766be782375cc81a3d20597a3e92d0f"}, {"rental_uris": {"android": "https://dc.lft.to/lastmile_qr_scan", "ios": "https://dc.lft.to/lastmile_qr_scan"}, "name": "bc7f5159a33a0008a2dbdc6217b8509f", "fusion_lat": 0.0, "lon": -77.02381316666667, "is_disabled": 0, "is_reserved": 0, "fusion_lon": 0.0, "lat": 38.892322166666666, "type": "electric_scooter", "bike_id": "bc7f5159a33a0008a2dbdc6217b8509f"}, {"rental_uris": {"android": "https://dc.lft.to/lastmile_qr_scan", "ios": "https://dc.lft.to/lastmile_qr_scan"}, "name": "7c36564faa48006b5040f0da52e7c85c", "fusion_lat": 0.0, "lon": -77.02796383333333, "is_disabled": 0, "is_reserved": 0, "fusion_lon": 0.0, "lat": 38.92675933333334, "type": "electric_scooter", "bike_id": "7c36564faa48006b5040f0da52e7c85c"}, {"rental_uris": {"android": "https://dc.lft.to/lastmile_qr_scan", "ios": "https://dc.lft.to/lastmile_qr_scan"}, "name": "c79f8c699f6935cfbb3d2b8fbc39b4d9", "fusion_lat": 0.0, "lon": -77.0419465, "is_disabled": 0, "is_reserved": 0, "fusion_lon": 0.0, "lat": 38.92302216666667, "type": "electric_scooter", "bike_id": "c79f8c699f6935cfbb3d2b8fbc39b4d9"}, {"rental_uris": {"android": "https://dc.lft.to/lastmile_qr_scan", "ios": "https://dc.lft.to/lastmile_qr_scan"}, "name": "28c42c596abdf7a3557acdca86689cf9", "fusion_lat": 0.0, "lon": -77.03075366666667, "is_disabled": 0, "is_reserved": 0, "fusion_lon": 0.0, "lat": 38.90254133333333, "type": "electric_scooter", "bike_id": "28c42c596abdf7a3557acdca86689cf9"}, {"rental_uris": {"android": "https://dc.lft.to/lastmile_qr_scan", "ios": "https://dc.lft.to/lastmile_qr_scan"}, "name": "c094689e6400386431e108abae100d30", "fusion_lat": 0.0, "lon": -77.02722116666666, "is_disabled": 0, "is_reserved": 0, "fusion_lon": 0.0, "lat": 38.919606333333334, "type": "electric_scooter", "bike_id": "c094689e6400386431e108abae100d30"}, {"rental_uris": {"android": "https://dc.lft.to/lastmile_qr_scan", "ios": "https://dc.lft.to/lastmile_qr_scan"}, "name": "25a314f7a177ff0e5c6d384aebabab52", "fusion_lat": 0.0, "lon": -77.017766, "is_disabled": 0, "is_reserved": 0, "fusion_lon": 0.0, "lat": 38.921046, "type": "electric_scooter", "bike_id": "25a314f7a177ff0e5c6d384aebabab52"}, {"rental_uris": {"android": "https://dc.lft.to/lastmile_qr_scan", "ios": "https://dc.lft.to/lastmile_qr_scan"}, "name": "c45467ffdc463e93785bd8e586b572e4", "fusion_lat": 0.0, "lon": -76.98928916666667, "is_disabled": 0, "is_reserved": 0, "fusion_lon": 0.0, "lat": 38.88208616666667, "type": "electric_scooter", "bike_id": "c45467ffdc463e93785bd8e586b572e4"}, {"rental_uris": {"android": "https://dc.lft.to/lastmile_qr_scan", "ios": "https://dc.lft.to/lastmile_qr_scan"}, "name": "2afaed8b849970092b568d853d66aeec", "fusion_lat": 0.0, "lon": -77.01062283333333, "is_disabled": 0, "is_reserved": 0, "fusion_lon": 0.0, "lat": 38.872471166666664, "type": "electric_scooter", "bike_id": "2afaed8b849970092b568d853d66aeec"}, {"rental_uris": {"android": "https://dc.lft.to/lastmile_qr_scan", "ios": "https://dc.lft.to/lastmile_qr_scan"}, "name": "4bc11d30262c0b647cc46a8d5524e416", "fusion_lat": 0.0, "lon": -77.0448575, "is_disabled": 0, "is_reserved": 0, "fusion_lon": 0.0, "lat": 38.9054215, "type": "electric_scooter", "bike_id": "4bc11d30262c0b647cc46a8d5524e416"}, {"rental_uris": {"android": "https://dc.lft.to/lastmile_qr_scan", "ios": "https://dc.lft.to/lastmile_qr_scan"}, "name": "7903c52e208d8fab7fb486d26b96dc11", "fusion_lat": 0.0, "lon": -77.02480816666667, "is_disabled": 0, "is_reserved": 0, "fusion_lon": 0.0, "lat": 38.93881783333333, "type": "electric_scooter", "bike_id": "7903c52e208d8fab7fb486d26b96dc11"}, {"rental_uris": {"android": "https://dc.lft.to/lastmile_qr_scan", "ios": "https://dc.lft.to/lastmile_qr_scan"}, "name": "41c207865e030c1c8f43582d1e6f1d02", "fusion_lat": 0.0, "lon": -77.049785, "is_disabled": 0, "is_reserved": 0, "fusion_lon": 0.0, "lat": 38.89607, "type": "electric_scooter", "bike_id": "41c207865e030c1c8f43582d1e6f1d02"}, {"rental_uris": {"android": "https://dc.lft.to/lastmile_qr_scan", "ios": "https://dc.lft.to/lastmile_qr_scan"}, "name": "35792acb4e5c1d5309cad47b117ab433", "fusion_lat": 0.0, "lon": -77.01594616666667, "is_disabled": 0, "is_reserved": 0, "fusion_lon": 0.0, "lat": 38.9284445, "type": "electric_scooter", "bike_id": "35792acb4e5c1d5309cad47b117ab433"}, {"rental_uris": {"android": "https://dc.lft.to/lastmile_qr_scan", "ios": "https://dc.lft.to/lastmile_qr_scan"}, "name": "58034a1da491480b3e8a94088e709ef3", "fusion_lat": 0.0, "lon": -77.02026516666666, "is_disabled": 0, "is_reserved": 0, "fusion_lon": 0.0, "lat": 38.913054833333334, "type": "electric_scooter", "bike_id": "58034a1da491480b3e8a94088e709ef3"}, {"rental_uris": {"android": "https://dc.lft.to/lastmile_qr_scan", "ios": "https://dc.lft.to/lastmile_qr_scan"}, "name": "94f9a94ee2cd19d277c1697617ba88ae", "fusion_lat": 0.0, "lon": -77.0293455, "is_disabled": 0, "is_reserved": 0, "fusion_lon": 0.0, "lat": 38.89547, "type": "electric_scooter", "bike_id": "94f9a94ee2cd19d277c1697617ba88ae"}, {"rental_uris": {"android": "https://dc.lft.to/lastmile_qr_scan", "ios": "https://dc.lft.to/lastmile_qr_scan"}, "name": "8a684f1a4739d4b6758c6a923aede990", "fusion_lat": 0.0, "lon": -77.0221755, "is_disabled": 0, "is_reserved": 0, "fusion_lon": 0.0, "lat": 38.92105466666667, "type": "electric_scooter", "bike_id": "8a684f1a4739d4b6758c6a923aede990"}, {"rental_uris": {"android": "https://dc.lft.to/lastmile_qr_scan", "ios": "https://dc.lft.to/lastmile_qr_scan"}, "name": "8a7e9771e4c46717c373a98daa1771a4", "fusion_lat": 0.0, "lon": -77.041825, "is_disabled": 0, "is_reserved": 0, "fusion_lon": 0.0, "lat": 38.91267333333333, "type": "electric_scooter", "bike_id": "8a7e9771e4c46717c373a98daa1771a4"}, {"rental_uris": {"android": "https://dc.lft.to/lastmile_qr_scan", "ios": "https://dc.lft.to/lastmile_qr_scan"}, "name": "a52400d0670fd9dd2e9bbe11f08fd841", "fusion_lat": 0.0, "lon": -77.0092165, "is_disabled": 0, "is_reserved": 0, "fusion_lon": 0.0, "lat": 38.876369833333335, "type": "electric_scooter", "bike_id": "a52400d0670fd9dd2e9bbe11f08fd841"}, {"rental_uris": {"android": "https://dc.lft.to/lastmile_qr_scan", "ios": "https://dc.lft.to/lastmile_qr_scan"}, "name": "4a8bbae14e86a0cacd36b689eb27e2f7", "fusion_lat": 0.0, "lon": -77.046763, "is_disabled": 0, "is_reserved": 0, "fusion_lon": 0.0, "lat": 38.915752, "type": "electric_scooter", "bike_id": "4a8bbae14e86a0cacd36b689eb27e2f7"}, {"rental_uris": {"android": "https://dc.lft.to/lastmile_qr_scan", "ios": "https://dc.lft.to/lastmile_qr_scan"}, "name": "0b7d767186577fde9f303fc74dc9140f", "fusion_lat": 0.0, "lon": -76.98337666666667, "is_disabled": 0, "is_reserved": 0, "fusion_lon": 0.0, "lat": 38.8954635, "type": "electric_scooter", "bike_id": "0b7d767186577fde9f303fc74dc9140f"}, {"rental_uris": {"android": "https://dc.lft.to/lastmile_qr_scan", "ios": "https://dc.lft.to/lastmile_qr_scan"}, "name": "a558c5537ecb28c430f7f148f7059cad", "fusion_lat": 0.0, "lon": -77.079937, "is_disabled": 0, "is_reserved": 0, "fusion_lon": 0.0, "lat": 38.9481055, "type": "electric_scooter", "bike_id": "a558c5537ecb28c430f7f148f7059cad"}, {"rental_uris": {"android": "https://dc.lft.to/lastmile_qr_scan", "ios": "https://dc.lft.to/lastmile_qr_scan"}, "name": "81c22626a995574bcd3a58e263f90b7f", "fusion_lat": 0.0, "lon": -76.96697933333333, "is_disabled": 0, "is_reserved": 0, "fusion_lon": 0.0, "lat": 38.86856616666667, "type": "electric_bike", "bike_id": "81c22626a995574bcd3a58e263f90b7f"}, {"rental_uris": {"android": "https://dc.lft.to/lastmile_qr_scan", "ios": "https://dc.lft.to/lastmile_qr_scan"}, "name": "b9ff67962987d4c7617cf15dd66fb620", "fusion_lat": 0.0, "lon": -77.04985533333333, "is_disabled": 0, "is_reserved": 0, "fusion_lon": 0.0, "lat": 38.992490333333336, "type": "electric_bike", "bike_id": "b9ff67962987d4c7617cf15dd66fb620"}, {"rental_uris": {"android": "https://dc.lft.to/lastmile_qr_scan", "ios": "https://dc.lft.to/lastmile_qr_scan"}, "name": "d374ee6474997e6e59bead45863b5fe2", "fusion_lat": 0.0, "lon": -77.19535633333334, "is_disabled": 0, "is_reserved": 0, "fusion_lon": 0.0, "lat": 39.115336166666665, "type": "electric_bike", "bike_id": "d374ee6474997e6e59bead45863b5fe2"}, {"rental_uris": {"android": "https://dc.lft.to/lastmile_qr_scan", "ios": "https://dc.lft.to/lastmile_qr_scan"}, "name": "4056cb4c3b614b9f3f80b1365bf1dd96", "fusion_lat": 0.0, "lon": -76.98350633333334, "is_disabled": 0, "is_reserved": 0, "fusion_lon": 0.0, "lat": 38.9147135, "type": "electric_scooter", "bike_id": "4056cb4c3b614b9f3f80b1365bf1dd96"}, {"rental_uris": {"android": "https://dc.lft.to/lastmile_qr_scan", "ios": "https://dc.lft.to/lastmile_qr_scan"}, "name": "73c3074f776e5be89affe370065ea213", "fusion_lat": 0.0, "lon": -77.03159733333334, "is_disabled": 0, "is_reserved": 0, "fusion_lon": 0.0, "lat": 38.89448816666667, "type": "electric_bike", "bike_id": "73c3074f776e5be89affe370065ea213"}, {"rental_uris": {"android": "https://dc.lft.to/lastmile_qr_scan", "ios": "https://dc.lft.to/lastmile_qr_scan"}, "name": "1448e8908cfa2a5e68bdc691496b55ef", "fusion_lat": 0.0, "lon": -77.05200883333333, "is_disabled": 0, "is_reserved": 0, "fusion_lon": 0.0, "lat": 38.924658666666666, "type": "electric_scooter", "bike_id": "1448e8908cfa2a5e68bdc691496b55ef"}, {"rental_uris": {"android": "https://dc.lft.to/lastmile_qr_scan", "ios": "https://dc.lft.to/lastmile_qr_scan"}, "name": "d8cd50444a384d7b2b363766dee2896d", "fusion_lat": 0.0, "lon": -77.03092283333334, "is_disabled": 0, "is_reserved": 0, "fusion_lon": 0.0, "lat": 38.907290333333336, "type": "electric_scooter", "bike_id": "d8cd50444a384d7b2b363766dee2896d"}, {"rental_uris": {"android": "https://dc.lft.to/lastmile_qr_scan", "ios": "https://dc.lft.to/lastmile_qr_scan"}, "name": "47ef2ef3a7d0833f2ebbb1c45ad2bd94", "fusion_lat": 0.0, "lon": -77.02065466666667, "is_disabled": 0, "is_reserved": 0, "fusion_lon": 0.0, "lat": 38.903486, "type": "electric_scooter", "bike_id": "47ef2ef3a7d0833f2ebbb1c45ad2bd94"}, {"rental_uris": {"android": "https://dc.lft.to/lastmile_qr_scan", "ios": "https://dc.lft.to/lastmile_qr_scan"}, "name": "7e0a5a407bb232c9049d27ec71759b19", "fusion_lat": 0.0, "lon": -77.04881833333333, "is_disabled": 0, "is_reserved": 0, "fusion_lon": 0.0, "lat": 38.896657, "type": "electric_scooter", "bike_id": "7e0a5a407bb232c9049d27ec71759b19"}, {"rental_uris": {"android": "https://dc.lft.to/lastmile_qr_scan", "ios": "https://dc.lft.to/lastmile_qr_scan"}, "name": "f19c39f134eba494c506350560a8d376", "fusion_lat": 0.0, "lon": -76.965619, "is_disabled": 0, "is_reserved": 0, "fusion_lon": 0.0, "lat": 38.95090666666667, "type": "electric_bike", "bike_id": "f19c39f134eba494c506350560a8d376"}, {"rental_uris": {"android": "https://dc.lft.to/lastmile_qr_scan", "ios": "https://dc.lft.to/lastmile_qr_scan"}, "name": "bf58b52b764c25c15c347655eda5b590", "fusion_lat": 0.0, "lon": -77.03800933333333, "is_disabled": 0, "is_reserved": 0, "fusion_lon": 0.0, "lat": 38.9254995, "type": "electric_scooter", "bike_id": "bf58b52b764c25c15c347655eda5b590"}, {"rental_uris": {"android": "https://dc.lft.to/lastmile_qr_scan", "ios": "https://dc.lft.to/lastmile_qr_scan"}, "name": "f63d2dfc4e768813af6b1d6e8877f25a", "fusion_lat": 0.0, "lon": -77.04098733333333, "is_disabled": 0, "is_reserved": 0, "fusion_lon": 0.0, "lat": 38.907887333333335, "type": "electric_scooter", "bike_id": "f63d2dfc4e768813af6b1d6e8877f25a"}, {"rental_uris": {"android": "https://dc.lft.to/lastmile_qr_scan", "ios": "https://dc.lft.to/lastmile_qr_scan"}, "name": "fa88fb778fccebf311aa2f3dfc6cb2ae", "fusion_lat": 0.0, "lon": -77.04894583333333, "is_disabled": 0, "is_reserved": 0, "fusion_lon": 0.0, "lat": 38.89230666666667, "type": "electric_scooter", "bike_id": "fa88fb778fccebf311aa2f3dfc6cb2ae"}, {"rental_uris": {"android": "https://dc.lft.to/lastmile_qr_scan", "ios": "https://dc.lft.to/lastmile_qr_scan"}, "name": "83d980f54613cee1dbc70eb3025122e9", "fusion_lat": 0.0, "lon": -77.04870266666667, "is_disabled": 0, "is_reserved": 0, "fusion_lon": 0.0, "lat": 38.90221783333333, "type": "electric_scooter", "bike_id": "83d980f54613cee1dbc70eb3025122e9"}, {"rental_uris": {"android": "https://dc.lft.to/lastmile_qr_scan", "ios": "https://dc.lft.to/lastmile_qr_scan"}, "name": "2668e12c8d8ebacbe0d44c8e097a6039", "fusion_lat": 0.0, "lon": -76.96841866666666, "is_disabled": 0, "is_reserved": 0, "fusion_lon": 0.0, "lat": 38.92445016666667, "type": "electric_bike", "bike_id": "2668e12c8d8ebacbe0d44c8e097a6039"}, {"rental_uris": {"android": "https://dc.lft.to/lastmile_qr_scan", "ios": "https://dc.lft.to/lastmile_qr_scan"}, "name": "7311b3ed0b2bcbc2ffdc0883f240f2f4", "fusion_lat": 0.0, "lon": -77.036354, "is_disabled": 0, "is_reserved": 0, "fusion_lon": 0.0, "lat": 38.931684, "type": "electric_scooter", "bike_id": "7311b3ed0b2bcbc2ffdc0883f240f2f4"}, {"rental_uris": {"android": "https://dc.lft.to/lastmile_qr_scan", "ios": "https://dc.lft.to/lastmile_qr_scan"}, "name": "1ccc3a23144ff9273092b5b09c94c502", "fusion_lat": 0.0, "lon": -76.96560066666666, "is_disabled": 0, "is_reserved": 0, "fusion_lon": 0.0, "lat": 38.918484, "type": "electric_scooter", "bike_id": "1ccc3a23144ff9273092b5b09c94c502"}, {"rental_uris": {"android": "https://dc.lft.to/lastmile_qr_scan", "ios": "https://dc.lft.to/lastmile_qr_scan"}, "name": "d5c94d836c9c372b1be09a65f8783564", "fusion_lat": 0.0, "lon": -76.98324833333334, "is_disabled": 0, "is_reserved": 0, "fusion_lon": 0.0, "lat": 38.86169, "type": "electric_scooter", "bike_id": "d5c94d836c9c372b1be09a65f8783564"}, {"rental_uris": {"android": "https://dc.lft.to/lastmile_qr_scan", "ios": "https://dc.lft.to/lastmile_qr_scan"}, "name": "db0422d9c537dbbe14b931fe4047e68d", "fusion_lat": 0.0, "lon": -76.965044, "is_disabled": 0, "is_reserved": 0, "fusion_lon": 0.0, "lat": 38.876491, "type": "electric_scooter", "bike_id": "db0422d9c537dbbe14b931fe4047e68d"}, {"rental_uris": {"android": "https://dc.lft.to/lastmile_qr_scan", "ios": "https://dc.lft.to/lastmile_qr_scan"}, "name": "ca2023cc3648c6c106e92e5379692336", "fusion_lat": 0.0, "lon": -77.15268766666667, "is_disabled": 0, "is_reserved": 0, "fusion_lon": 0.0, "lat": 39.10566433333333, "type": "electric_bike", "bike_id": "ca2023cc3648c6c106e92e5379692336"}, {"rental_uris": {"android": "https://dc.lft.to/lastmile_qr_scan", "ios": "https://dc.lft.to/lastmile_qr_scan"}, "name": "6931a1734df253e147dcd937f5b2e249", "fusion_lat": 0.0, "lon": -77.05202733333333, "is_disabled": 0, "is_reserved": 0, "fusion_lon": 0.0, "lat": 38.92425516666667, "type": "electric_scooter", "bike_id": "6931a1734df253e147dcd937f5b2e249"}, {"rental_uris": {"android": "https://dc.lft.to/lastmile_qr_scan", "ios": "https://dc.lft.to/lastmile_qr_scan"}, "name": "fd39251b0eb2ad77d25d5784fcdbd83b", "fusion_lat": 0.0, "lon": -77.0061545, "is_disabled": 0, "is_reserved": 0, "fusion_lon": 0.0, "lat": 38.8754765, "type": "electric_scooter", "bike_id": "fd39251b0eb2ad77d25d5784fcdbd83b"}, {"rental_uris": {"android": "https://dc.lft.to/lastmile_qr_scan", "ios": "https://dc.lft.to/lastmile_qr_scan"}, "name": "55b66dc2aef79c5734ea7539bf0de69d", "fusion_lat": 0.0, "lon": -77.0331955, "is_disabled": 0, "is_reserved": 0, "fusion_lon": 0.0, "lat": 38.9601585, "type": "electric_scooter", "bike_id": "55b66dc2aef79c5734ea7539bf0de69d"}, {"rental_uris": {"android": "https://dc.lft.to/lastmile_qr_scan", "ios": "https://dc.lft.to/lastmile_qr_scan"}, "name": "2f68a7a0a5c0ae90360f0260d3bc66dc", "fusion_lat": 0.0, "lon": -77.01519416666666, "is_disabled": 0, "is_reserved": 0, "fusion_lon": 0.0, "lat": 38.88486616666667, "type": "electric_scooter", "bike_id": "2f68a7a0a5c0ae90360f0260d3bc66dc"}, {"rental_uris": {"android": "https://dc.lft.to/lastmile_qr_scan", "ios": "https://dc.lft.to/lastmile_qr_scan"}, "name": "03ea371573ba9afb214aba6d517141c3", "fusion_lat": 0.0, "lon": -77.04183083333334, "is_disabled": 0, "is_reserved": 0, "fusion_lon": 0.0, "lat": 38.912617166666664, "type": "electric_scooter", "bike_id": "03ea371573ba9afb214aba6d517141c3"}, {"rental_uris": {"android": "https://dc.lft.to/lastmile_qr_scan", "ios": "https://dc.lft.to/lastmile_qr_scan"}, "name": "1fd54957190dc546f7d8994c56330cf2", "fusion_lat": 0.0, "lon": -77.04717666666667, "is_disabled": 0, "is_reserved": 0, "fusion_lon": 0.0, "lat": 38.8996075, "type": "electric_scooter", "bike_id": "1fd54957190dc546f7d8994c56330cf2"}, {"rental_uris": {"android": "https://dc.lft.to/lastmile_qr_scan", "ios": "https://dc.lft.to/lastmile_qr_scan"}, "name": "82a6a506cd2c790322d7279b95f1a20a", "fusion_lat": 0.0, "lon": -76.990023, "is_disabled": 0, "is_reserved": 0, "fusion_lon": 0.0, "lat": 38.860948666666665, "type": "electric_scooter", "bike_id": "82a6a506cd2c790322d7279b95f1a20a"}, {"rental_uris": {"android": "https://dc.lft.to/lastmile_qr_scan", "ios": "https://dc.lft.to/lastmile_qr_scan"}, "name": "7fb5663cd8f9bc29d1d25e27d9634f6f", "fusion_lat": 0.0, "lon": -77.01147383333333, "is_disabled": 0, "is_reserved": 0, "fusion_lon": 0.0, "lat": 38.895971833333334, "type": "electric_scooter", "bike_id": "7fb5663cd8f9bc29d1d25e27d9634f6f"}, {"rental_uris": {"android": "https://dc.lft.to/lastmile_qr_scan", "ios": "https://dc.lft.to/lastmile_qr_scan"}, "name": "7f219df978f227864d4f010138cfd944", "fusion_lat": 0.0, "lon": -77.0628525, "is_disabled": 0, "is_reserved": 0, "fusion_lon": 0.0, "lat": 38.90454166666667, "type": "electric_scooter", "bike_id": "7f219df978f227864d4f010138cfd944"}, {"rental_uris": {"android": "https://dc.lft.to/lastmile_qr_scan", "ios": "https://dc.lft.to/lastmile_qr_scan"}, "name": "542a57bfa67b6c0ef23bd05fe1d75f97", "fusion_lat": 0.0, "lon": -77.02491133333334, "is_disabled": 0, "is_reserved": 0, "fusion_lon": 0.0, "lat": 38.97371166666667, "type": "electric_bike", "bike_id": "542a57bfa67b6c0ef23bd05fe1d75f97"}, {"rental_uris": {"android": "https://dc.lft.to/lastmile_qr_scan", "ios": "https://dc.lft.to/lastmile_qr_scan"}, "name": "7e8752b48737be3a5044472499274807", "fusion_lat": 0.0, "lon": -76.95753500000001, "is_disabled": 0, "is_reserved": 0, "fusion_lon": 0.0, "lat": 38.884305166666664, "type": "electric_scooter", "bike_id": "7e8752b48737be3a5044472499274807"}, {"rental_uris": {"android": "https://dc.lft.to/lastmile_qr_scan", "ios": "https://dc.lft.to/lastmile_qr_scan"}, "name": "cd54bfe10f2597a7ea32db72b4c1797e", "fusion_lat": 0.0, "lon": -76.9655575, "is_disabled": 0, "is_reserved": 0, "fusion_lon": 0.0, "lat": 38.91857983333333, "type": "electric_scooter", "bike_id": "cd54bfe10f2597a7ea32db72b4c1797e"}, {"rental_uris": {"android": "https://dc.lft.to/lastmile_qr_scan", "ios": "https://dc.lft.to/lastmile_qr_scan"}, "name": "57e64d1efe825543cc4a36e518bbbb58", "fusion_lat": 0.0, "lon": -76.967135, "is_disabled": 0, "is_reserved": 0, "fusion_lon": 0.0, "lat": 38.86950366666667, "type": "electric_scooter", "bike_id": "57e64d1efe825543cc4a36e518bbbb58"}, {"rental_uris": {"android": "https://dc.lft.to/lastmile_qr_scan", "ios": "https://dc.lft.to/lastmile_qr_scan"}, "name": "cb7de44e1682f6aa1d57aeac1c54dd70", "fusion_lat": 0.0, "lon": -76.99632116666666, "is_disabled": 0, "is_reserved": 0, "fusion_lon": 0.0, "lat": 38.846217, "type": "electric_scooter", "bike_id": "cb7de44e1682f6aa1d57aeac1c54dd70"}, {"rental_uris": {"android": "https://dc.lft.to/lastmile_qr_scan", "ios": "https://dc.lft.to/lastmile_qr_scan"}, "name": "3ee6d259bd4caf7887a6e46b749df448", "fusion_lat": 0.0, "lon": -77.024912, "is_disabled": 0, "is_reserved": 0, "fusion_lon": 0.0, "lat": 38.94182583333333, "type": "electric_scooter", "bike_id": "3ee6d259bd4caf7887a6e46b749df448"}, {"rental_uris": {"android": "https://dc.lft.to/lastmile_qr_scan", "ios": "https://dc.lft.to/lastmile_qr_scan"}, "name": "645d0f7586b446d64b79a1954efb3f25", "fusion_lat": 0.0, "lon": -77.071234, "is_disabled": 0, "is_reserved": 0, "fusion_lon": 0.0, "lat": 38.919735833333334, "type": "electric_scooter", "bike_id": "645d0f7586b446d64b79a1954efb3f25"}, {"rental_uris": {"android": "https://dc.lft.to/lastmile_qr_scan", "ios": "https://dc.lft.to/lastmile_qr_scan"}, "name": "c8402ccd1f2d480faa15f53265f0dcb9", "fusion_lat": 0.0, "lon": -77.0269735, "is_disabled": 0, "is_reserved": 0, "fusion_lon": 0.0, "lat": 38.908480833333336, "type": "electric_scooter", "bike_id": "c8402ccd1f2d480faa15f53265f0dcb9"}, {"rental_uris": {"android": "https://dc.lft.to/lastmile_qr_scan", "ios": "https://dc.lft.to/lastmile_qr_scan"}, "name": "20b67af89d3db51c63c66458ea806d00", "fusion_lat": 0.0, "lon": -77.02571716666667, "is_disabled": 0, "is_reserved": 0, "fusion_lon": 0.0, "lat": 38.894979, "type": "electric_scooter", "bike_id": "20b67af89d3db51c63c66458ea806d00"}, {"rental_uris": {"android": "https://dc.lft.to/lastmile_qr_scan", "ios": "https://dc.lft.to/lastmile_qr_scan"}, "name": "7a5586d52b194172afc941ac4f92e0d0", "fusion_lat": 0.0, "lon": -77.12264833333333, "is_disabled": 0, "is_reserved": 0, "fusion_lon": 0.0, "lat": 38.897353833333334, "type": "electric_bike", "bike_id": "7a5586d52b194172afc941ac4f92e0d0"}, {"rental_uris": {"android": "https://dc.lft.to/lastmile_qr_scan", "ios": "https://dc.lft.to/lastmile_qr_scan"}, "name": "9342e87bc076febc735b34567d67ed9f", "fusion_lat": 0.0, "lon": -77.2339305, "is_disabled": 0, "is_reserved": 0, "fusion_lon": 0.0, "lat": 38.92497383333333, "type": "electric_bike", "bike_id": "9342e87bc076febc735b34567d67ed9f"}, {"rental_uris": {"android": "https://dc.lft.to/lastmile_qr_scan", "ios": "https://dc.lft.to/lastmile_qr_scan"}, "name": "3532204a50e4a150ccfe26eeb0d09f29", "fusion_lat": 0.0, "lon": -76.91655916666667, "is_disabled": 0, "is_reserved": 0, "fusion_lon": 0.0, "lat": 38.8686, "type": "electric_bike", "bike_id": "3532204a50e4a150ccfe26eeb0d09f29"}, {"rental_uris": {"android": "https://dc.lft.to/lastmile_qr_scan", "ios": "https://dc.lft.to/lastmile_qr_scan"}, "name": "056bb0afd52d890224b27837753bdf2e", "fusion_lat": 0.0, "lon": -76.94254566666666, "is_disabled": 0, "is_reserved": 0, "fusion_lon": 0.0, "lat": 38.89684666666667, "type": "electric_scooter", "bike_id": "056bb0afd52d890224b27837753bdf2e"}, {"rental_uris": {"android": "https://dc.lft.to/lastmile_qr_scan", "ios": "https://dc.lft.to/lastmile_qr_scan"}, "name": "032c6d14c15989ce6f0df62fd10f0b6f", "fusion_lat": 0.0, "lon": -77.043859, "is_disabled": 0, "is_reserved": 0, "fusion_lon": 0.0, "lat": 38.906407, "type": "electric_scooter", "bike_id": "032c6d14c15989ce6f0df62fd10f0b6f"}, {"rental_uris": {"android": "https://dc.lft.to/lastmile_qr_scan", "ios": "https://dc.lft.to/lastmile_qr_scan"}, "name": "c726ad619667574eb2f8d75735cb5695", "fusion_lat": 0.0, "lon": -77.07344833333333, "is_disabled": 0, "is_reserved": 0, "fusion_lon": 0.0, "lat": 38.91095983333334, "type": "electric_scooter", "bike_id": "c726ad619667574eb2f8d75735cb5695"}, {"rental_uris": {"android": "https://dc.lft.to/lastmile_qr_scan", "ios": "https://dc.lft.to/lastmile_qr_scan"}, "name": "8c53bd705c868e8c42c5162ec0bb4a48", "fusion_lat": 0.0, "lon": -77.04030583333333, "is_disabled": 0, "is_reserved": 0, "fusion_lon": 0.0, "lat": 38.91291483333333, "type": "electric_scooter", "bike_id": "8c53bd705c868e8c42c5162ec0bb4a48"}, {"rental_uris": {"android": "https://dc.lft.to/lastmile_qr_scan", "ios": "https://dc.lft.to/lastmile_qr_scan"}, "name": "09e4e275d5b8e3c6fe4279a24c653cf0", "fusion_lat": 0.0, "lon": -77.03215016666667, "is_disabled": 0, "is_reserved": 0, "fusion_lon": 0.0, "lat": 38.902724166666665, "type": "electric_scooter", "bike_id": "09e4e275d5b8e3c6fe4279a24c653cf0"}, {"rental_uris": {"android": "https://dc.lft.to/lastmile_qr_scan", "ios": "https://dc.lft.to/lastmile_qr_scan"}, "name": "5d44efae2c32353fdbee5523d780b724", "fusion_lat": 0.0, "lon": -77.03850533333333, "is_disabled": 0, "is_reserved": 0, "fusion_lon": 0.0, "lat": 38.912084666666665, "type": "electric_scooter", "bike_id": "5d44efae2c32353fdbee5523d780b724"}, {"rental_uris": {"android": "https://dc.lft.to/lastmile_qr_scan", "ios": "https://dc.lft.to/lastmile_qr_scan"}, "name": "8054946a72aac1f0fde2a444d35d49ca", "fusion_lat": 0.0, "lon": -77.02574433333334, "is_disabled": 0, "is_reserved": 0, "fusion_lon": 0.0, "lat": 38.92507633333334, "type": "electric_scooter", "bike_id": "8054946a72aac1f0fde2a444d35d49ca"}, {"rental_uris": {"android": "https://dc.lft.to/lastmile_qr_scan", "ios": "https://dc.lft.to/lastmile_qr_scan"}, "name": "2a14cf54c16c97f6b27d23ea8ad6261f", "fusion_lat": 0.0, "lon": -76.9221315, "is_disabled": 0, "is_reserved": 0, "fusion_lon": 0.0, "lat": 38.89938583333333, "type": "electric_scooter", "bike_id": "2a14cf54c16c97f6b27d23ea8ad6261f"}, {"rental_uris": {"android": "https://dc.lft.to/lastmile_qr_scan", "ios": "https://dc.lft.to/lastmile_qr_scan"}, "name": "6bab2a0bafdaedb069a0ed3a8bcb5b04", "fusion_lat": 0.0, "lon": -77.003337, "is_disabled": 0, "is_reserved": 0, "fusion_lon": 0.0, "lat": 38.893549666666665, "type": "electric_scooter", "bike_id": "6bab2a0bafdaedb069a0ed3a8bcb5b04"}, {"rental_uris": {"android": "https://dc.lft.to/lastmile_qr_scan", "ios": "https://dc.lft.to/lastmile_qr_scan"}, "name": "6dcff5be141b8af85f2d0ce18e3ff43e", "fusion_lat": 0.0, "lon": -77.02272583333334, "is_disabled": 0, "is_reserved": 0, "fusion_lon": 0.0, "lat": 38.88740766666667, "type": "electric_scooter", "bike_id": "6dcff5be141b8af85f2d0ce18e3ff43e"}, {"rental_uris": {"android": "https://dc.lft.to/lastmile_qr_scan", "ios": "https://dc.lft.to/lastmile_qr_scan"}, "name": "ad3f089e5d4bc477b84d25fd4033ecf0", "fusion_lat": 0.0, "lon": -77.0127625, "is_disabled": 0, "is_reserved": 0, "fusion_lon": 0.0, "lat": 38.87791283333333, "type": "electric_bike", "bike_id": "ad3f089e5d4bc477b84d25fd4033ecf0"}, {"rental_uris": {"android": "https://dc.lft.to/lastmile_qr_scan", "ios": "https://dc.lft.to/lastmile_qr_scan"}, "name": "4ada6648db01e53709622e1ca2674fc0", "fusion_lat": 0.0, "lon": -77.0157805, "is_disabled": 0, "is_reserved": 0, "fusion_lon": 0.0, "lat": 38.8766475, "type": "electric_scooter", "bike_id": "4ada6648db01e53709622e1ca2674fc0"}, {"rental_uris": {"android": "https://dc.lft.to/lastmile_qr_scan", "ios": "https://dc.lft.to/lastmile_qr_scan"}, "name": "d6ab8d4a6145b2e6235f8bb3f868f654", "fusion_lat": 0.0, "lon": -77.02594833333333, "is_disabled": 0, "is_reserved": 0, "fusion_lon": 0.0, "lat": 38.97591833333333, "type": "electric_scooter", "bike_id": "d6ab8d4a6145b2e6235f8bb3f868f654"}, {"rental_uris": {"android": "https://dc.lft.to/lastmile_qr_scan", "ios": "https://dc.lft.to/lastmile_qr_scan"}, "name": "97298a3ba9d88ef5ba922d3988e40e25", "fusion_lat": 0.0, "lon": -77.04123633333333, "is_disabled": 0, "is_reserved": 0, "fusion_lon": 0.0, "lat": 38.906296, "type": "electric_scooter", "bike_id": "97298a3ba9d88ef5ba922d3988e40e25"}, {"rental_uris": {"android": "https://dc.lft.to/lastmile_qr_scan", "ios": "https://dc.lft.to/lastmile_qr_scan"}, "name": "7e235764929ba92cd42eefcf0877c306", "fusion_lat": 0.0, "lon": -77.02493566666666, "is_disabled": 0, "is_reserved": 0, "fusion_lon": 0.0, "lat": 38.92745516666667, "type": "electric_scooter", "bike_id": "7e235764929ba92cd42eefcf0877c306"}, {"rental_uris": {"android": "https://dc.lft.to/lastmile_qr_scan", "ios": "https://dc.lft.to/lastmile_qr_scan"}, "name": "c26cb0c0fb7d58a7ab65a6282d7379d0", "fusion_lat": 0.0, "lon": -77.0252345, "is_disabled": 0, "is_reserved": 0, "fusion_lon": 0.0, "lat": 38.920910666666664, "type": "electric_scooter", "bike_id": "c26cb0c0fb7d58a7ab65a6282d7379d0"}, {"rental_uris": {"android": "https://dc.lft.to/lastmile_qr_scan", "ios": "https://dc.lft.to/lastmile_qr_scan"}, "name": "b1bd65bef2c58545353a493dcfc02353", "fusion_lat": 0.0, "lon": -77.04653766666667, "is_disabled": 0, "is_reserved": 0, "fusion_lon": 0.0, "lat": 38.905085166666666, "type": "electric_scooter", "bike_id": "b1bd65bef2c58545353a493dcfc02353"}, {"rental_uris": {"android": "https://dc.lft.to/lastmile_qr_scan", "ios": "https://dc.lft.to/lastmile_qr_scan"}, "name": "2e827f341f2857e321bd9432ab92d518", "fusion_lat": 0.0, "lon": -77.03103483333334, "is_disabled": 0, "is_reserved": 0, "fusion_lon": 0.0, "lat": 38.919067, "type": "electric_scooter", "bike_id": "2e827f341f2857e321bd9432ab92d518"}, {"rental_uris": {"android": "https://dc.lft.to/lastmile_qr_scan", "ios": "https://dc.lft.to/lastmile_qr_scan"}, "name": "73311c008f4fda9558feaa6d66d4fee3", "fusion_lat": 0.0, "lon": -76.96174733333334, "is_disabled": 0, "is_reserved": 0, "fusion_lon": 0.0, "lat": 38.918599, "type": "electric_bike", "bike_id": "73311c008f4fda9558feaa6d66d4fee3"}, {"rental_uris": {"android": "https://dc.lft.to/lastmile_qr_scan", "ios": "https://dc.lft.to/lastmile_qr_scan"}, "name": "1dd2371ebae9e554a860e6a1c2d7c724", "fusion_lat": 0.0, "lon": -77.01742716666666, "is_disabled": 0, "is_reserved": 0, "fusion_lon": 0.0, "lat": 38.88621916666666, "type": "electric_scooter", "bike_id": "1dd2371ebae9e554a860e6a1c2d7c724"}, {"rental_uris": {"android": "https://dc.lft.to/lastmile_qr_scan", "ios": "https://dc.lft.to/lastmile_qr_scan"}, "name": "31bdc50c239e2b311d9f9b4066c44c75", "fusion_lat": 0.0, "lon": -77.01742166666666, "is_disabled": 0, "is_reserved": 0, "fusion_lon": 0.0, "lat": 38.872753, "type": "electric_scooter", "bike_id": "31bdc50c239e2b311d9f9b4066c44c75"}, {"rental_uris": {"android": "https://dc.lft.to/lastmile_qr_scan", "ios": "https://dc.lft.to/lastmile_qr_scan"}, "name": "92d7bb4edc7b1d3785e8b9e816c48d43", "fusion_lat": 0.0, "lon": -77.03254216666667, "is_disabled": 0, "is_reserved": 0, "fusion_lon": 0.0, "lat": 38.929054666666666, "type": "electric_scooter", "bike_id": "92d7bb4edc7b1d3785e8b9e816c48d43"}, {"rental_uris": {"android": "https://dc.lft.to/lastmile_qr_scan", "ios": "https://dc.lft.to/lastmile_qr_scan"}, "name": "d244ffba30cf550b45fa7cf761b1e22d", "fusion_lat": 0.0, "lon": -77.033515, "is_disabled": 0, "is_reserved": 0, "fusion_lon": 0.0, "lat": 38.9244265, "type": "electric_scooter", "bike_id": "d244ffba30cf550b45fa7cf761b1e22d"}, {"rental_uris": {"android": "https://dc.lft.to/lastmile_qr_scan", "ios": "https://dc.lft.to/lastmile_qr_scan"}, "name": "a27effd09b9d27bb9f32598de0949c58", "fusion_lat": 0.0, "lon": -77.03581283333334, "is_disabled": 0, "is_reserved": 0, "fusion_lon": 0.0, "lat": 38.91693516666667, "type": "electric_bike", "bike_id": "a27effd09b9d27bb9f32598de0949c58"}, {"rental_uris": {"android": "https://dc.lft.to/lastmile_qr_scan", "ios": "https://dc.lft.to/lastmile_qr_scan"}, "name": "e9a19bec42c72afaee923d004ac6dbec", "fusion_lat": 0.0, "lon": -77.03899616666666, "is_disabled": 0, "is_reserved": 0, "fusion_lon": 0.0, "lat": 38.922372, "type": "electric_scooter", "bike_id": "e9a19bec42c72afaee923d004ac6dbec"}, {"rental_uris": {"android": "https://dc.lft.to/lastmile_qr_scan", "ios": "https://dc.lft.to/lastmile_qr_scan"}, "name": "239b915b696379bab3a80975c75a3f3b", "fusion_lat": 0.0, "lon": -77.08170016666666, "is_disabled": 0, "is_reserved": 0, "fusion_lon": 0.0, "lat": 38.888777833333336, "type": "electric_bike", "bike_id": "239b915b696379bab3a80975c75a3f3b"}, {"rental_uris": {"android": "https://dc.lft.to/lastmile_qr_scan", "ios": "https://dc.lft.to/lastmile_qr_scan"}, "name": "ab8e78ddc662b08e1f1717b89f9a8d68", "fusion_lat": 0.0, "lon": -77.045514, "is_disabled": 0, "is_reserved": 0, "fusion_lon": 0.0, "lat": 38.907497166666666, "type": "electric_scooter", "bike_id": "ab8e78ddc662b08e1f1717b89f9a8d68"}, {"rental_uris": {"android": "https://dc.lft.to/lastmile_qr_scan", "ios": "https://dc.lft.to/lastmile_qr_scan"}, "name": "4345c60e91aa0c47f591bc2da62f63dd", "fusion_lat": 0.0, "lon": -77.0462175, "is_disabled": 0, "is_reserved": 0, "fusion_lon": 0.0, "lat": 38.91061366666667, "type": "electric_scooter", "bike_id": "4345c60e91aa0c47f591bc2da62f63dd"}, {"rental_uris": {"android": "https://dc.lft.to/lastmile_qr_scan", "ios": "https://dc.lft.to/lastmile_qr_scan"}, "name": "a84dab955db5e2ba1f4526640dc4d3a1", "fusion_lat": 0.0, "lon": -77.03235983333333, "is_disabled": 0, "is_reserved": 0, "fusion_lon": 0.0, "lat": 38.938838, "type": "electric_scooter", "bike_id": "a84dab955db5e2ba1f4526640dc4d3a1"}, {"rental_uris": {"android": "https://dc.lft.to/lastmile_qr_scan", "ios": "https://dc.lft.to/lastmile_qr_scan"}, "name": "de1d85ed09180deb74d966ab0ba6c925", "fusion_lat": 0.0, "lon": -77.03760533333333, "is_disabled": 0, "is_reserved": 0, "fusion_lon": 0.0, "lat": 38.9247735, "type": "electric_scooter", "bike_id": "de1d85ed09180deb74d966ab0ba6c925"}, {"rental_uris": {"android": "https://dc.lft.to/lastmile_qr_scan", "ios": "https://dc.lft.to/lastmile_qr_scan"}, "name": "6d36994f29a6504b8c5f93b2ccb36286", "fusion_lat": 0.0, "lon": -77.036535, "is_disabled": 0, "is_reserved": 0, "fusion_lon": 0.0, "lat": 38.91279933333333, "type": "electric_scooter", "bike_id": "6d36994f29a6504b8c5f93b2ccb36286"}, {"rental_uris": {"android": "https://dc.lft.to/lastmile_qr_scan", "ios": "https://dc.lft.to/lastmile_qr_scan"}, "name": "35a12980d20ae023aba69c6e92996f1e", "fusion_lat": 0.0, "lon": -77.028018, "is_disabled": 0, "is_reserved": 0, "fusion_lon": 0.0, "lat": 38.906227, "type": "electric_scooter", "bike_id": "35a12980d20ae023aba69c6e92996f1e"}, {"rental_uris": {"android": "https://dc.lft.to/lastmile_qr_scan", "ios": "https://dc.lft.to/lastmile_qr_scan"}, "name": "4d7b410f368b5d572e007cbc8fe6ee33", "fusion_lat": 0.0, "lon": -77.0341815, "is_disabled": 0, "is_reserved": 0, "fusion_lon": 0.0, "lat": 38.92941866666666, "type": "electric_scooter", "bike_id": "4d7b410f368b5d572e007cbc8fe6ee33"}, {"rental_uris": {"android": "https://dc.lft.to/lastmile_qr_scan", "ios": "https://dc.lft.to/lastmile_qr_scan"}, "name": "9e41c823c401419e03d9fcf9b966147a", "fusion_lat": 0.0, "lon": -77.03673166666667, "is_disabled": 0, "is_reserved": 0, "fusion_lon": 0.0, "lat": 38.902705166666664, "type": "electric_scooter", "bike_id": "9e41c823c401419e03d9fcf9b966147a"}, {"rental_uris": {"android": "https://dc.lft.to/lastmile_qr_scan", "ios": "https://dc.lft.to/lastmile_qr_scan"}, "name": "0b38343b097676123d1d988787298f26", "fusion_lat": 0.0, "lon": -77.03067383333334, "is_disabled": 0, "is_reserved": 0, "fusion_lon": 0.0, "lat": 38.8804505, "type": "electric_scooter", "bike_id": "0b38343b097676123d1d988787298f26"}, {"rental_uris": {"android": "https://dc.lft.to/lastmile_qr_scan", "ios": "https://dc.lft.to/lastmile_qr_scan"}, "name": "6fe9d8106ffbfa47dff6903300e3fadb", "fusion_lat": 0.0, "lon": -76.99761433333333, "is_disabled": 0, "is_reserved": 0, "fusion_lon": 0.0, "lat": 39.00596216666667, "type": "electric_bike", "bike_id": "6fe9d8106ffbfa47dff6903300e3fadb"}, {"rental_uris": {"android": "https://dc.lft.to/lastmile_qr_scan", "ios": "https://dc.lft.to/lastmile_qr_scan"}, "name": "949d5471d0e1b6dd63f5ce5cb700ad81", "fusion_lat": 0.0, "lon": -77.0293555, "is_disabled": 0, "is_reserved": 0, "fusion_lon": 0.0, "lat": 38.904117666666664, "type": "electric_scooter", "bike_id": "949d5471d0e1b6dd63f5ce5cb700ad81"}, {"rental_uris": {"android": "https://dc.lft.to/lastmile_qr_scan", "ios": "https://dc.lft.to/lastmile_qr_scan"}, "name": "9b65e402ee6baf85f30898d363149ddc", "fusion_lat": 0.0, "lon": -77.0387945, "is_disabled": 0, "is_reserved": 0, "fusion_lon": 0.0, "lat": 38.91979283333333, "type": "electric_scooter", "bike_id": "9b65e402ee6baf85f30898d363149ddc"}, {"rental_uris": {"android": "https://dc.lft.to/lastmile_qr_scan", "ios": "https://dc.lft.to/lastmile_qr_scan"}, "name": "9cb8ef326a52ece2f6def660093db387", "fusion_lat": 0.0, "lon": -77.02651333333333, "is_disabled": 0, "is_reserved": 0, "fusion_lon": 0.0, "lat": 38.98814566666667, "type": "electric_bike", "bike_id": "9cb8ef326a52ece2f6def660093db387"}, {"rental_uris": {"android": "https://dc.lft.to/lastmile_qr_scan", "ios": "https://dc.lft.to/lastmile_qr_scan"}, "name": "f1fbe77c63cb3e9354fbf2477bddb91b", "fusion_lat": 0.0, "lon": -77.02780166666666, "is_disabled": 0, "is_reserved": 0, "fusion_lon": 0.0, "lat": 38.88159133333333, "type": "electric_scooter", "bike_id": "f1fbe77c63cb3e9354fbf2477bddb91b"}, {"rental_uris": {"android": "https://dc.lft.to/lastmile_qr_scan", "ios": "https://dc.lft.to/lastmile_qr_scan"}, "name": "9f422b5e4f02a652d826d92fa50d67f2", "fusion_lat": 0.0, "lon": -77.03862716666667, "is_disabled": 0, "is_reserved": 0, "fusion_lon": 0.0, "lat": 38.902527666666664, "type": "electric_scooter", "bike_id": "9f422b5e4f02a652d826d92fa50d67f2"}, {"rental_uris": {"android": "https://dc.lft.to/lastmile_qr_scan", "ios": "https://dc.lft.to/lastmile_qr_scan"}, "name": "b69aeb34c7d5857754ef82af36e79054", "fusion_lat": 0.0, "lon": -77.04665083333333, "is_disabled": 0, "is_reserved": 0, "fusion_lon": 0.0, "lat": 38.90327166666667, "type": "electric_scooter", "bike_id": "b69aeb34c7d5857754ef82af36e79054"}, {"rental_uris": {"android": "https://dc.lft.to/lastmile_qr_scan", "ios": "https://dc.lft.to/lastmile_qr_scan"}, "name": "5b9b2527a40a295c007a743c60ac2712", "fusion_lat": 0.0, "lon": -76.9295505, "is_disabled": 0, "is_reserved": 0, "fusion_lon": 0.0, "lat": 38.898799333333336, "type": "electric_scooter", "bike_id": "5b9b2527a40a295c007a743c60ac2712"}, {"rental_uris": {"android": "https://dc.lft.to/lastmile_qr_scan", "ios": "https://dc.lft.to/lastmile_qr_scan"}, "name": "0618640bf55d552e0c1d9911212ad150", "fusion_lat": 0.0, "lon": -77.13176, "is_disabled": 0, "is_reserved": 0, "fusion_lon": 0.0, "lat": 38.869056666666665, "type": "electric_bike", "bike_id": "0618640bf55d552e0c1d9911212ad150"}, {"rental_uris": {"android": "https://dc.lft.to/lastmile_qr_scan", "ios": "https://dc.lft.to/lastmile_qr_scan"}, "name": "bc86b39e565b18752dd9a98f17681778", "fusion_lat": 0.0, "lon": -77.01206566666667, "is_disabled": 0, "is_reserved": 0, "fusion_lon": 0.0, "lat": 38.87155716666667, "type": "electric_scooter", "bike_id": "bc86b39e565b18752dd9a98f17681778"}, {"rental_uris": {"android": "https://dc.lft.to/lastmile_qr_scan", "ios": "https://dc.lft.to/lastmile_qr_scan"}, "name": "23e8104b5184660ed97bdb46d83d8abb", "fusion_lat": 0.0, "lon": -77.01208533333333, "is_disabled": 0, "is_reserved": 0, "fusion_lon": 0.0, "lat": 38.89332566666667, "type": "electric_scooter", "bike_id": "23e8104b5184660ed97bdb46d83d8abb"}, {"rental_uris": {"android": "https://dc.lft.to/lastmile_qr_scan", "ios": "https://dc.lft.to/lastmile_qr_scan"}, "name": "450945037a9ea203c298827f3ff10a92", "fusion_lat": 0.0, "lon": -77.02377833333334, "is_disabled": 0, "is_reserved": 0, "fusion_lon": 0.0, "lat": 38.90737583333333, "type": "electric_scooter", "bike_id": "450945037a9ea203c298827f3ff10a92"}, {"rental_uris": {"android": "https://dc.lft.to/lastmile_qr_scan", "ios": "https://dc.lft.to/lastmile_qr_scan"}, "name": "5e20f4cd9a5fb724d1030777c69536ca", "fusion_lat": 0.0, "lon": -76.99149133333333, "is_disabled": 0, "is_reserved": 0, "fusion_lon": 0.0, "lat": 38.87907916666666, "type": "electric_scooter", "bike_id": "5e20f4cd9a5fb724d1030777c69536ca"}, {"rental_uris": {"android": "https://dc.lft.to/lastmile_qr_scan", "ios": "https://dc.lft.to/lastmile_qr_scan"}, "name": "b5adfd23e4143b3441c16ba518df8298", "fusion_lat": 0.0, "lon": -77.34411416666667, "is_disabled": 0, "is_reserved": 0, "fusion_lon": 0.0, "lat": 38.94593483333333, "type": "electric_bike", "bike_id": "b5adfd23e4143b3441c16ba518df8298"}, {"rental_uris": {"android": "https://dc.lft.to/lastmile_qr_scan", "ios": "https://dc.lft.to/lastmile_qr_scan"}, "name": "40ee2fb6e19dc54b6707fedf3439d8be", "fusion_lat": 0.0, "lon": -77.02850466666666, "is_disabled": 0, "is_reserved": 0, "fusion_lon": 0.0, "lat": 38.92383133333333, "type": "electric_scooter", "bike_id": "40ee2fb6e19dc54b6707fedf3439d8be"}, {"rental_uris": {"android": "https://dc.lft.to/lastmile_qr_scan", "ios": "https://dc.lft.to/lastmile_qr_scan"}, "name": "a3351d9da9cd96257b80a82b6059092b", "fusion_lat": 0.0, "lon": -76.94853933333333, "is_disabled": 0, "is_reserved": 0, "fusion_lon": 0.0, "lat": 38.88301383333334, "type": "electric_scooter", "bike_id": "a3351d9da9cd96257b80a82b6059092b"}, {"rental_uris": {"android": "https://dc.lft.to/lastmile_qr_scan", "ios": "https://dc.lft.to/lastmile_qr_scan"}, "name": "51e2dbe181c4c7b41cf5e26b94976f48", "fusion_lat": 0.0, "lon": -76.98887166666667, "is_disabled": 0, "is_reserved": 0, "fusion_lon": 0.0, "lat": 38.86672816666667, "type": "electric_scooter", "bike_id": "51e2dbe181c4c7b41cf5e26b94976f48"}, {"rental_uris": {"android": "https://dc.lft.to/lastmile_qr_scan", "ios": "https://dc.lft.to/lastmile_qr_scan"}, "name": "a695057b14171e97b9d0738573bb69ce", "fusion_lat": 0.0, "lon": -77.0022055, "is_disabled": 0, "is_reserved": 0, "fusion_lon": 0.0, "lat": 38.8876705, "type": "electric_scooter", "bike_id": "a695057b14171e97b9d0738573bb69ce"}, {"rental_uris": {"android": "https://dc.lft.to/lastmile_qr_scan", "ios": "https://dc.lft.to/lastmile_qr_scan"}, "name": "29537592fc54c83f67ef1a424e1f715b", "fusion_lat": 0.0, "lon": -76.96554466666667, "is_disabled": 0, "is_reserved": 0, "fusion_lon": 0.0, "lat": 38.918474833333335, "type": "electric_scooter", "bike_id": "29537592fc54c83f67ef1a424e1f715b"}, {"rental_uris": {"android": "https://dc.lft.to/lastmile_qr_scan", "ios": "https://dc.lft.to/lastmile_qr_scan"}, "name": "3bd54937035c1e4c477c370d901ce48b", "fusion_lat": 0.0, "lon": -76.99031216666667, "is_disabled": 0, "is_reserved": 0, "fusion_lon": 0.0, "lat": 38.860718, "type": "electric_scooter", "bike_id": "3bd54937035c1e4c477c370d901ce48b"}, {"rental_uris": {"android": "https://dc.lft.to/lastmile_qr_scan", "ios": "https://dc.lft.to/lastmile_qr_scan"}, "name": "d0dae6fd946bc8f21bfc4af1bf8db904", "fusion_lat": 0.0, "lon": -77.014393, "is_disabled": 0, "is_reserved": 0, "fusion_lon": 0.0, "lat": 38.877793833333335, "type": "electric_scooter", "bike_id": "d0dae6fd946bc8f21bfc4af1bf8db904"}, {"rental_uris": {"android": "https://dc.lft.to/lastmile_qr_scan", "ios": "https://dc.lft.to/lastmile_qr_scan"}, "name": "c2cd86568e4fe40b5d64fbd9e824efc6", "fusion_lat": 0.0, "lon": -77.14327, "is_disabled": 0, "is_reserved": 0, "fusion_lon": 0.0, "lat": 39.0545905, "type": "electric_bike", "bike_id": "c2cd86568e4fe40b5d64fbd9e824efc6"}, {"rental_uris": {"android": "https://dc.lft.to/lastmile_qr_scan", "ios": "https://dc.lft.to/lastmile_qr_scan"},