{"data": {"bikes": [{"is_disabled": 0, "type": "electric_scooter", "is_reserved": 0, "lat": 38.890362, "rental_uris": {"ios": "https://dc.lft.to/lastmile_qr_scan", "android": "https://dc.lft.to/lastmile_qr_scan"}, "fusion_lon": 0.0, "fusion_lat": 0.0, "bike_id": "04654b573d9e15df5c7fd8fa06dbde19", "name": "04654b573d9e15df5c7fd8fa06dbde19", "lon": -76.95142733333333}, {"is_disabled": 0, "type": "electric_scooter", "is_reserved": 0, "lat": 38.9248795, "rental_uris": {"ios": "https://dc.lft.to/lastmile_qr_scan", "android": "https://dc.lft.to/lastmile_qr_scan"}, "fusion_lon": 0.0, "fusion_lat": 0.0, "bike_id": "295a20d34992d0ced359caa63a8f6a4a", "name": "295a20d34992d0ced359caa63a8f6a4a", "lon": -77.0227345}, {"is_disabled": 0, "type": "electric_scooter", "is_reserved": 0, "lat": 38.902769, "rental_uris": {"ios": "https://dc.lft.to/lastmile_qr_scan", "android": "https://dc.lft.to/lastmile_qr_scan"}, "fusion_lon": 0.0, "fusion_lat": 0.0, "bike_id": "cf414f1e99a7a0ce5b062ccec5990c22", "name": "cf414f1e99a7a0ce5b062ccec5990c22", "lon": -77.03857866666667}, {"is_disabled": 0, "type": "electric_bike", "is_reserved": 0, "lat": 38.998363833333336, "rental_uris": {"ios": "https://dc.lft.to/lastmile_qr_scan", "android": "https://dc.lft.to/lastmile_qr_scan"}, "fusion_lon": 0.0, "fusion_lat": 0.0, "bike_id": "52a152e042e7a99810c75f20749815e4", "name": "52a152e042e7a99810c75f20749815e4", "lon": -76.88369133333333}, {"is_disabled": 0, "type": "electric_scooter", "is_reserved": 0, "lat": 38.922868333333334, "rental_uris": {"ios": "https://dc.lft.to/lastmile_qr_scan", "android": "https://dc.lft.to/lastmile_qr_scan"}, "fusion_lon": 0.0, "fusion_lat": 0.0, "bike_id": "56952c74b621df666207d7ef2753fab2", "name": "56952c74b621df666207d7ef2753fab2", "lon": -77.03653116666666}, {"is_disabled": 0, "type": "electric_scooter", "is_reserved": 0, "lat": 38.908939333333336, "rental_uris": {"ios": "https://dc.lft.to/lastmile_qr_scan", "android": "https://dc.lft.to/lastmile_qr_scan"}, "fusion_lon": 0.0, "fusion_lat": 0.0, "bike_id": "168799dfa790152602da21cbafc8db06", "name": "168799dfa790152602da21cbafc8db06", "lon": -77.04316883333334}, {"is_disabled": 0, "type": "electric_scooter", "is_reserved": 0, "lat": 38.895609666666665, "rental_uris": {"ios": "https://dc.lft.to/lastmile_qr_scan", "android": "https://dc.lft.to/lastmile_qr_scan"}, "fusion_lon": 0.0, "fusion_lat": 0.0, "bike_id": "f89827323c16143ce926deadd33eaffe", "name": "f89827323c16143ce926deadd33eaffe", "lon": -77.0298265}, {"is_disabled": 0, "type": "electric_scooter", "is_reserved": 0, "lat": 38.9199475, "rental_uris": {"ios": "https://dc.lft.to/lastmile_qr_scan", "android": "https://dc.lft.to/lastmile_qr_scan"}, "fusion_lon": 0.0, "fusion_lat": 0.0, "bike_id": "fa93e8af18d5fe0d25e8fcd389680798", "name": "fa93e8af18d5fe0d25e8fcd389680798", "lon": -77.04175766666667}, {"is_disabled": 0, "type": "electric_bike", "is_reserved": 0, "lat": 38.9491625, "rental_uris": {"ios": "https://dc.lft.to/lastmile_qr_scan", "android": "https://dc.lft.to/lastmile_qr_scan"}, "fusion_lon": 0.0, "fusion_lat": 0.0, "bike_id": "44d77b4f387d8060bbca16304e7c7002", "name": "44d77b4f387d8060bbca16304e7c7002", "lon": -76.9770665}, {"is_disabled": 0, "type": "electric_bike", "is_reserved": 0, "lat": 38.939619, "rental_uris": {"ios": "https://dc.lft.to/lastmile_qr_scan", "android": "https://dc.lft.to/lastmile_qr_scan"}, "fusion_lon": 0.0, "fusion_lat": 0.0, "bike_id": "b2ecc3c73323936754e1f9f9e83e69b0", "name": "b2ecc3c73323936754e1f9f9e83e69b0", "lon": -77.36091783333333}, {"is_disabled": 0, "type": "electric_scooter", "is_reserved": 0, "lat": 38.900134666666666, "rental_uris": {"ios": "https://dc.lft.to/lastmile_qr_scan", "android": "https://dc.lft.to/lastmile_qr_scan"}, "fusion_lon": 0.0, "fusion_lat": 0.0, "bike_id": "6262a99fb263a1b1d4b6f4567b61f28f", "name": "6262a99fb263a1b1d4b6f4567b61f28f", "lon": -77.032759}, {"is_disabled": 0, "type": "electric_scooter", "is_reserved": 0, "lat": 38.90590016666667, "rental_uris": {"ios": "https://dc.lft.to/lastmile_qr_scan", "android": "https://dc.lft.to/lastmile_qr_scan"}, "fusion_lon": 0.0, "fusion_lat": 0.0, "bike_id": "ddc289db8d5d26e4259439a60ba5b507", "name": "ddc289db8d5d26e4259439a60ba5b507", "lon": -77.07008366666666}, {"is_disabled": 0, "type": "electric_scooter", "is_reserved": 0, "lat": 38.91191233333333, "rental_uris": {"ios": "https://dc.lft.to/lastmile_qr_scan", "android": "https://dc.lft.to/lastmile_qr_scan"}, "fusion_lon": 0.0, "fusion_lat": 0.0, "bike_id": "26c706e08834228afc49d298f1ab37b1", "name": "26c706e08834228afc49d298f1ab37b1", "lon": -77.03973466666666}, {"is_disabled": 0, "type": "electric_bike", "is_reserved": 0, "lat": 38.962258, "rental_uris": {"ios": "https://dc.lft.to/lastmile_qr_scan", "android": "https://dc.lft.to/lastmile_qr_scan"}, "fusion_lon": 0.0, "fusion_lat": 0.0, "bike_id": "fc081e402520c30339ca35106304b4b7", "name": "fc081e402520c30339ca35106304b4b7", "lon": -77.02628383333334}, {"is_disabled": 0, "type": "electric_scooter", "is_reserved": 0, "lat": 38.984504666666666, "rental_uris": {"ios": "https://dc.lft.to/lastmile_qr_scan", "android": "https://dc.lft.to/lastmile_qr_scan"}, "fusion_lon": 0.0, "fusion_lat": 0.0, "bike_id": "1e634284ca3a6f5aa830fad71e43b966", "name": "1e634284ca3a6f5aa830fad71e43b966", "lon": -77.02644283333333}, {"is_disabled": 0, "type": "electric_scooter", "is_reserved": 0, "lat": 38.87478483333334, "rental_uris": {"ios": "https://dc.lft.to/lastmile_qr_scan", "android": "https://dc.lft.to/lastmile_qr_scan"}, "fusion_lon": 0.0, "fusion_lat": 0.0, "bike_id": "a24b4e82371e00a295322fbecc63cbc0", "name": "a24b4e82371e00a295322fbecc63cbc0", "lon": -77.00476733333333}, {"is_disabled": 0, "type": "electric_scooter", "is_reserved": 0, "lat": 38.876275166666666, "rental_uris": {"ios": "https://dc.lft.to/lastmile_qr_scan", "android": "https://dc.lft.to/lastmile_qr_scan"}, "fusion_lon": 0.0, "fusion_lat": 0.0, "bike_id": "8ab05bacdfe81ac644c41a5339129c18", "name": "8ab05bacdfe81ac644c41a5339129c18", "lon": -76.96528566666667}, {"is_disabled": 0, "type": "electric_scooter", "is_reserved": 0, "lat": 38.916971, "rental_uris": {"ios": "https://dc.lft.to/lastmile_qr_scan", "android": "https://dc.lft.to/lastmile_qr_scan"}, "fusion_lon": 0.0, "fusion_lat": 0.0, "bike_id": "1f61164a17807ac7d6e0f2b0780a6d84", "name": "1f61164a17807ac7d6e0f2b0780a6d84", "lon": -77.028134}, {"is_disabled": 0, "type": "electric_scooter", "is_reserved": 0, "lat": 38.9199115, "rental_uris": {"ios": "https://dc.lft.to/lastmile_qr_scan", "android": "https://dc.lft.to/lastmile_qr_scan"}, "fusion_lon": 0.0, "fusion_lat": 0.0, "bike_id": "16aa3ac7397563356c44fd5e8bb52ddd", "name": "16aa3ac7397563356c44fd5e8bb52ddd", "lon": -77.0319375}, {"is_disabled": 0, "type": "electric_scooter", "is_reserved": 0, "lat": 38.892201666666665, "rental_uris": {"ios": "https://dc.lft.to/lastmile_qr_scan", "android": "https://dc.lft.to/lastmile_qr_scan"}, "fusion_lon": 0.0, "fusion_lat": 0.0, "bike_id": "e8de76f76438aa11342b087fd39bd7ce", "name": "e8de76f76438aa11342b087fd39bd7ce", "lon": -77.04331716666667}, {"is_disabled": 0, "type": "electric_scooter", "is_reserved": 0, "lat": 38.91773883333333, "rental_uris": {"ios": "https://dc.lft.to/lastmile_qr_scan", "android": "https://dc.lft.to/lastmile_qr_scan"}, "fusion_lon": 0.0, "fusion_lat": 0.0, "bike_id": "c21ec5967574a3baf87f691cb5b887ff", "name": "c21ec5967574a3baf87f691cb5b887ff", "lon": -77.04097833333333}, {"is_disabled": 0, "type": "electric_scooter", "is_reserved": 0, "lat": 38.92714316666667, "rental_uris": {"ios": "https://dc.lft.to/lastmile_qr_scan", "android": "https://dc.lft.to/lastmile_qr_scan"}, "fusion_lon": 0.0, "fusion_lat": 0.0, "bike_id": "b668d73ecd0493eb252a01dacd69dfae", "name": "b668d73ecd0493eb252a01dacd69dfae", "lon": -77.02707066666666}, {"is_disabled": 0, "type": "electric_scooter", "is_reserved": 0, "lat": 38.901511166666666, "rental_uris": {"ios": "https://dc.lft.to/lastmile_qr_scan", "android": "https://dc.lft.to/lastmile_qr_scan"}, "fusion_lon": 0.0, "fusion_lat": 0.0, "bike_id": "8e78e037eb0fa83b763ea60d5e117f63", "name": "8e78e037eb0fa83b763ea60d5e117f63", "lon": -77.04172533333333}, {"is_disabled": 0, "type": "electric_scooter", "is_reserved": 0, "lat": 38.904042833333335, "rental_uris": {"ios": "https://dc.lft.to/lastmile_qr_scan", "android": "https://dc.lft.to/lastmile_qr_scan"}, "fusion_lon": 0.0, "fusion_lat": 0.0, "bike_id": "aff0cf8ee76c2a9b3ebc8687b6dea243", "name": "aff0cf8ee76c2a9b3ebc8687b6dea243", "lon": -77.0400595}, {"is_disabled": 0, "type": "electric_scooter", "is_reserved": 0, "lat": 38.928817333333335, "rental_uris": {"ios": "https://dc.lft.to/lastmile_qr_scan", "android": "https://dc.lft.to/lastmile_qr_scan"}, "fusion_lon": 0.0, "fusion_lat": 0.0, "bike_id": "afedc4b39ea4dc99c0326815e46779a2", "name": "afedc4b39ea4dc99c0326815e46779a2", "lon": -77.03328566666667}, {"is_disabled": 0, "type": "electric_scooter", "is_reserved": 0, "lat": 38.88130916666667, "rental_uris": {"ios": "https://dc.lft.to/lastmile_qr_scan", "android": "https://dc.lft.to/lastmile_qr_scan"}, "fusion_lon": 0.0, "fusion_lat": 0.0, "bike_id": "7bbfc9ef6fd6a6c8e53a7a980700ec7c", "name": "7bbfc9ef6fd6a6c8e53a7a980700ec7c", "lon": -77.0267675}, {"is_disabled": 0, "type": "electric_scooter", "is_reserved": 0, "lat": 38.917738166666666, "rental_uris": {"ios": "https://dc.lft.to/lastmile_qr_scan", "android": "https://dc.lft.to/lastmile_qr_scan"}, "fusion_lon": 0.0, "fusion_lat": 0.0, "bike_id": "d910b9b27403f323ecaf510cada5d01b", "name": "d910b9b27403f323ecaf510cada5d01b", "lon": -77.02307283333333}, {"is_disabled": 0, "type": "electric_scooter", "is_reserved": 0, "lat": 38.9104065, "rental_uris": {"ios": "https://dc.lft.to/lastmile_qr_scan", "android": "https://dc.lft.to/lastmile_qr_scan"}, "fusion_lon": 0.0, "fusion_lat": 0.0, "bike_id": "6957f44b7ab3bdfe808de1e204ac3b72", "name": "6957f44b7ab3bdfe808de1e204ac3b72", "lon": -77.02809633333334}, {"is_disabled": 0, "type": "electric_bike", "is_reserved": 0, "lat": 38.85417916666667, "rental_uris": {"ios": "https://dc.lft.to/lastmile_qr_scan", "android": "https://dc.lft.to/lastmile_qr_scan"}, "fusion_lon": 0.0, "fusion_lat": 0.0, "bike_id": "7016a30f30eb8f30cbdb6d05943a8a4d", "name": "7016a30f30eb8f30cbdb6d05943a8a4d", "lon": -76.90964466666667}, {"is_disabled": 0, "type": "electric_scooter", "is_reserved": 0, "lat": 38.90968783333334, "rental_uris": {"ios": "https://dc.lft.to/lastmile_qr_scan", "android": "https://dc.lft.to/lastmile_qr_scan"}, "fusion_lon": 0.0, "fusion_lat": 0.0, "bike_id": "05866c0bc3c5067af340346355af46b7", "name": "05866c0bc3c5067af340346355af46b7", "lon": -77.022513}, {"is_disabled": 0, "type": "electric_scooter", "is_reserved": 0, "lat": 38.923291666666664, "rental_uris": {"ios": "https://dc.lft.to/lastmile_qr_scan", "android": "https://dc.lft.to/lastmile_qr_scan"}, "fusion_lon": 0.0, "fusion_lat": 0.0, "bike_id": "c4e1290aa2c8dbda70c2ed77b5d10672", "name": "c4e1290aa2c8dbda70c2ed77b5d10672", "lon": -77.029659}, {"is_disabled": 0, "type": "electric_scooter", "is_reserved": 0, "lat": 38.938256833333334, "rental_uris": {"ios": "https://dc.lft.to/lastmile_qr_scan", "android": "https://dc.lft.to/lastmile_qr_scan"}, "fusion_lon": 0.0, "fusion_lat": 0.0, "bike_id": "22effb707b398f2cdbf5e4ebe3f7a29e", "name": "22effb707b398f2cdbf5e4ebe3f7a29e", "lon": -76.986109}, {"is_disabled": 0, "type": "electric_scooter", "is_reserved": 0, "lat": 38.89854966666667, "rental_uris": {"ios": "https://dc.lft.to/lastmile_qr_scan", "android": "https://dc.lft.to/lastmile_qr_scan"}, "fusion_lon": 0.0, "fusion_lat": 0.0, "bike_id": "072caeea9b230d1baf7cb35f0e5f5ae1", "name": "072caeea9b230d1baf7cb35f0e5f5ae1", "lon": -76.97661533333333}, {"is_disabled": 0, "type": "electric_scooter", "is_reserved": 0, "lat": 38.91651483333333, "rental_uris": {"ios": "https://dc.lft.to/lastmile_qr_scan", "android": "https://dc.lft.to/lastmile_qr_scan"}, "fusion_lon": 0.0, "fusion_lat": 0.0, "bike_id": "c1354201199356f67ebb0103466d4f2f", "name": "c1354201199356f67ebb0103466d4f2f", "lon": -77.041812}, {"is_disabled": 0, "type": "electric_scooter", "is_reserved": 0, "lat": 38.927102166666664, "rental_uris": {"ios": "https://dc.lft.to/lastmile_qr_scan", "android": "https://dc.lft.to/lastmile_qr_scan"}, "fusion_lon": 0.0, "fusion_lat": 0.0, "bike_id": "1867efe263f6333267d7960ce17abda4", "name": "1867efe263f6333267d7960ce17abda4", "lon": -77.0209815}, {"is_disabled": 0, "type": "electric_scooter", "is_reserved": 0, "lat": 38.949520666666665, "rental_uris": {"ios": "https://dc.lft.to/lastmile_qr_scan", "android": "https://dc.lft.to/lastmile_qr_scan"}, "fusion_lon": 0.0, "fusion_lat": 0.0, "bike_id": "10a5bcf7999f19fcd45de419fa5882eb", "name": "10a5bcf7999f19fcd45de419fa5882eb", "lon": -77.0272635}, {"is_disabled": 0, "type": "electric_scooter", "is_reserved": 0, "lat": 38.897327, "rental_uris": {"ios": "https://dc.lft.to/lastmile_qr_scan", "android": "https://dc.lft.to/lastmile_qr_scan"}, "fusion_lon": 0.0, "fusion_lat": 0.0, "bike_id": "e5362dae2418cebb3dfd2673c5570d2e", "name": "e5362dae2418cebb3dfd2673c5570d2e", "lon": -76.99386016666666}, {"is_disabled": 0, "type": "electric_scooter", "is_reserved": 0, "lat": 38.92164316666667, "rental_uris": {"ios": "https://dc.lft.to/lastmile_qr_scan", "android": "https://dc.lft.to/lastmile_qr_scan"}, "fusion_lon": 0.0, "fusion_lat": 0.0, "bike_id": "9b5baafbf30ef89ada656c902b6990f2", "name": "9b5baafbf30ef89ada656c902b6990f2", "lon": -77.04241533333334}, {"is_disabled": 0, "type": "electric_scooter", "is_reserved": 0, "lat": 38.90565383333333, "rental_uris": {"ios": "https://dc.lft.to/lastmile_qr_scan", "android": "https://dc.lft.to/lastmile_qr_scan"}, "fusion_lon": 0.0, "fusion_lat": 0.0, "bike_id": "8dc392cc7877d21ca66772a0de80dc5a", "name": "8dc392cc7877d21ca66772a0de80dc5a", "lon": -77.03071016666667}, {"is_disabled": 0, "type": "electric_scooter", "is_reserved": 0, "lat": 38.901415, "rental_uris": {"ios": "https://dc.lft.to/lastmile_qr_scan", "android": "https://dc.lft.to/lastmile_qr_scan"}, "fusion_lon": 0.0, "fusion_lat": 0.0, "bike_id": "0f3457e31ba6e132e6c49636414741ae", "name": "0f3457e31ba6e132e6c49636414741ae", "lon": -77.06073066666667}, {"is_disabled": 0, "type": "electric_scooter", "is_reserved": 0, "lat": 38.842953, "rental_uris": {"ios": "https://dc.lft.to/lastmile_qr_scan", "android": "https://dc.lft.to/lastmile_qr_scan"}, "fusion_lon": 0.0, "fusion_lat": 0.0, "bike_id": "2e84a9136a8e31c1a42e3ca3a00799ef", "name": "2e84a9136a8e31c1a42e3ca3a00799ef", "lon": -76.99949366666667}, {"is_disabled": 0, "type": "electric_scooter", "is_reserved": 0, "lat": 38.895088333333334, "rental_uris": {"ios": "https://dc.lft.to/lastmile_qr_scan", "android": "https://dc.lft.to/lastmile_qr_scan"}, "fusion_lon": 0.0, "fusion_lat": 0.0, "bike_id": "5989d364384c40c6d677eeb9c5b130a3", "name": "5989d364384c40c6d677eeb9c5b130a3", "lon": -77.016145}, {"is_disabled": 0, "type": "electric_scooter", "is_reserved": 0, "lat": 38.886246166666666, "rental_uris": {"ios": "https://dc.lft.to/lastmile_qr_scan", "android": "https://dc.lft.to/lastmile_qr_scan"}, "fusion_lon": 0.0, "fusion_lat": 0.0, "bike_id": "2e75a867962ab95bca1783ac562fdca7", "name": "2e75a867962ab95bca1783ac562fdca7", "lon": -77.03355666666667}, {"is_disabled": 0, "type": "electric_scooter", "is_reserved": 0, "lat": 38.917566666666666, "rental_uris": {"ios": "https://dc.lft.to/lastmile_qr_scan", "android": "https://dc.lft.to/lastmile_qr_scan"}, "fusion_lon": 0.0, "fusion_lat": 0.0, "bike_id": "e3072b94123581675f68b67a70511ba0", "name": "e3072b94123581675f68b67a70511ba0", "lon": -77.03080216666666}, {"is_disabled": 0, "type": "electric_scooter", "is_reserved": 0, "lat": 38.898389, "rental_uris": {"ios": "https://dc.lft.to/lastmile_qr_scan", "android": "https://dc.lft.to/lastmile_qr_scan"}, "fusion_lon": 0.0, "fusion_lat": 0.0, "bike_id": "f85c4a42a42136e012fffee2bccb4321", "name": "f85c4a42a42136e012fffee2bccb4321", "lon": -77.02920666666667}, {"is_disabled": 0, "type": "electric_scooter", "is_reserved": 0, "lat": 38.89910833333333, "rental_uris": {"ios": "https://dc.lft.to/lastmile_qr_scan", "android": "https://dc.lft.to/lastmile_qr_scan"}, "fusion_lon": 0.0, "fusion_lat": 0.0, "bike_id": "b6da11a435fcae3a37cada3768b007b6", "name": "b6da11a435fcae3a37cada3768b007b6", "lon": -77.01347433333333}, {"is_disabled": 0, "type": "electric_scooter", "is_reserved": 0, "lat": 38.9198235, "rental_uris": {"ios": "https://dc.lft.to/lastmile_qr_scan", "android": "https://dc.lft.to/lastmile_qr_scan"}, "fusion_lon": 0.0, "fusion_lat": 0.0, "bike_id": "25c7de130e70e48c7e350e6f32531209", "name": "25c7de130e70e48c7e350e6f32531209", "lon": -77.02394116666666}, {"is_disabled": 0, "type": "electric_scooter", "is_reserved": 0, "lat": 38.91114966666667, "rental_uris": {"ios": "https://dc.lft.to/lastmile_qr_scan", "android": "https://dc.lft.to/lastmile_qr_scan"}, "fusion_lon": 0.0, "fusion_lat": 0.0, "bike_id": "747e2576a7d79e0bac9d8d82ca62cec7", "name": "747e2576a7d79e0bac9d8d82ca62cec7", "lon": -77.0435995}, {"is_disabled": 0, "type": "electric_scooter", "is_reserved": 0, "lat": 38.89256783333333, "rental_uris": {"ios": "https://dc.lft.to/lastmile_qr_scan", "android": "https://dc.lft.to/lastmile_qr_scan"}, "fusion_lon": 0.0, "fusion_lat": 0.0, "bike_id": "afdeed4a21f7cd2c9879ef20891ba19a", "name": "afdeed4a21f7cd2c9879ef20891ba19a", "lon": -77.0240605}, {"is_disabled": 0, "type": "electric_scooter", "is_reserved": 0, "lat": 38.935520333333336, "rental_uris": {"ios": "https://dc.lft.to/lastmile_qr_scan", "android": "https://dc.lft.to/lastmile_qr_scan"}, "fusion_lon": 0.0, "fusion_lat": 0.0, "bike_id": "0575713a1d3d9911e4fc64bcfc80ba86", "name": "0575713a1d3d9911e4fc64bcfc80ba86", "lon": -77.081715}, {"is_disabled": 0, "type": "electric_scooter", "is_reserved": 0, "lat": 38.900183, "rental_uris": {"ios": "https://dc.lft.to/lastmile_qr_scan", "android": "https://dc.lft.to/lastmile_qr_scan"}, "fusion_lon": 0.0, "fusion_lat": 0.0, "bike_id": "c2a4930b6fe0b2f08d838d0cc2d9f698", "name": "c2a4930b6fe0b2f08d838d0cc2d9f698", "lon": -77.03164666666666}, {"is_disabled": 0, "type": "electric_scooter", "is_reserved": 0, "lat": 38.887462166666666, "rental_uris": {"ios": "https://dc.lft.to/lastmile_qr_scan", "android": "https://dc.lft.to/lastmile_qr_scan"}, "fusion_lon": 0.0, "fusion_lat": 0.0, "bike_id": "d191d1471b95e679ba9dd17ff33fd5eb", "name": "d191d1471b95e679ba9dd17ff33fd5eb", "lon": -77.015364}, {"is_disabled": 0, "type": "electric_scooter", "is_reserved": 0, "lat": 38.91765683333333, "rental_uris": {"ios": "https://dc.lft.to/lastmile_qr_scan", "android": "https://dc.lft.to/lastmile_qr_scan"}, "fusion_lon": 0.0, "fusion_lat": 0.0, "bike_id": "1256897b94f513ca3f9bae39e7c2f95e", "name": "1256897b94f513ca3f9bae39e7c2f95e", "lon": -77.0457145}, {"is_disabled": 0, "type": "electric_scooter", "is_reserved": 0, "lat": 38.911176166666664, "rental_uris": {"ios": "https://dc.lft.to/lastmile_qr_scan", "android": "https://dc.lft.to/lastmile_qr_scan"}, "fusion_lon": 0.0, "fusion_lat": 0.0, "bike_id": "dc8a00b0da8660d5e1f6150dd25695fa", "name": "dc8a00b0da8660d5e1f6150dd25695fa", "lon": -77.01784383333333}, {"is_disabled": 0, "type": "electric_scooter", "is_reserved": 0, "lat": 38.891886, "rental_uris": {"ios": "https://dc.lft.to/lastmile_qr_scan", "android": "https://dc.lft.to/lastmile_qr_scan"}, "fusion_lon": 0.0, "fusion_lat": 0.0, "bike_id": "1e64175deb3c5b1fe617a3df0663f53c", "name": "1e64175deb3c5b1fe617a3df0663f53c", "lon": -77.00335383333334}, {"is_disabled": 0, "type": "electric_scooter", "is_reserved": 0, "lat": 38.90826783333333, "rental_uris": {"ios": "https://dc.lft.to/lastmile_qr_scan", "android": "https://dc.lft.to/lastmile_qr_scan"}, "fusion_lon": 0.0, "fusion_lat": 0.0, "bike_id": "4ec99dcc0606f254aca56232ded3afb9", "name": "4ec99dcc0606f254aca56232ded3afb9", "lon": -77.0385945}, {"is_disabled": 0, "type": "electric_scooter", "is_reserved": 0, "lat": 38.90948233333334, "rental_uris": {"ios": "https://dc.lft.to/lastmile_qr_scan", "android": "https://dc.lft.to/lastmile_qr_scan"}, "fusion_lon": 0.0, "fusion_lat": 0.0, "bike_id": "9f97c637ab3b34268dad43c00d4a2723", "name": "9f97c637ab3b34268dad43c00d4a2723", "lon": -77.03444816666666}, {"is_disabled": 0, "type": "electric_scooter", "is_reserved": 0, "lat": 38.9026865, "rental_uris": {"ios": "https://dc.lft.to/lastmile_qr_scan", "android": "https://dc.lft.to/lastmile_qr_scan"}, "fusion_lon": 0.0, "fusion_lat": 0.0, "bike_id": "0b7bc1b7619eace31c25ae3f54bda367", "name": "0b7bc1b7619eace31c25ae3f54bda367", "lon": -77.0405735}, {"is_disabled": 0, "type": "electric_scooter", "is_reserved": 0, "lat": 38.9178275, "rental_uris": {"ios": "https://dc.lft.to/lastmile_qr_scan", "android": "https://dc.lft.to/lastmile_qr_scan"}, "fusion_lon": 0.0, "fusion_lat": 0.0, "bike_id": "10101f8948c99b05c118ff7c8540f444", "name": "10101f8948c99b05c118ff7c8540f444", "lon": -77.04075916666666}, {"is_disabled": 0, "type": "electric_scooter", "is_reserved": 0, "lat": 38.890393333333336, "rental_uris": {"ios": "https://dc.lft.to/lastmile_qr_scan", "android": "https://dc.lft.to/lastmile_qr_scan"}, "fusion_lon": 0.0, "fusion_lat": 0.0, "bike_id": "793269d1dd374cf68843285fc459c766", "name": "793269d1dd374cf68843285fc459c766", "lon": -76.93756966666666}, {"is_disabled": 0, "type": "electric_scooter", "is_reserved": 0, "lat": 38.88640616666667, "rental_uris": {"ios": "https://dc.lft.to/lastmile_qr_scan", "android": "https://dc.lft.to/lastmile_qr_scan"}, "fusion_lon": 0.0, "fusion_lat": 0.0, "bike_id": "ae15d1227ba0f22f8a6320eea91d84de", "name": "ae15d1227ba0f22f8a6320eea91d84de", "lon": -76.9926755}, {"is_disabled": 0, "type": "electric_scooter", "is_reserved": 0, "lat": 38.86649116666667, "rental_uris": {"ios": "https://dc.lft.to/lastmile_qr_scan", "android": "https://dc.lft.to/lastmile_qr_scan"}, "fusion_lon": 0.0, "fusion_lat": 0.0, "bike_id": "208d5b23ddfcd919cf55670a6ef06f63", "name": "208d5b23ddfcd919cf55670a6ef06f63", "lon": -76.9888625}, {"is_disabled": 0, "type": "electric_scooter", "is_reserved": 0, "lat": 38.92665616666667, "rental_uris": {"ios": "https://dc.lft.to/lastmile_qr_scan", "android": "https://dc.lft.to/lastmile_qr_scan"}, "fusion_lon": 0.0, "fusion_lat": 0.0, "bike_id": "0572ce9a8134c7caf0915bfada41976d", "name": "0572ce9a8134c7caf0915bfada41976d", "lon": -77.0431515}, {"is_disabled": 0, "type": "electric_bike", "is_reserved": 0, "lat": 38.8011075, "rental_uris": {"ios": "https://dc.lft.to/lastmile_qr_scan", "android": "https://dc.lft.to/lastmile_qr_scan"}, "fusion_lon": 0.0, "fusion_lat": 0.0, "bike_id": "cd167ce621399edcc5c59116f302dc1e", "name": "cd167ce621399edcc5c59116f302dc1e", "lon": -77.06876416666667}, {"is_disabled": 0, "type": "electric_scooter", "is_reserved": 0, "lat": 38.89942466666667, "rental_uris": {"ios": "https://dc.lft.to/lastmile_qr_scan", "android": "https://dc.lft.to/lastmile_qr_scan"}, "fusion_lon": 0.0, "fusion_lat": 0.0, "bike_id": "e8c8703c93fb06c42bbf2ca9738a87a0", "name": "e8c8703c93fb06c42bbf2ca9738a87a0", "lon": -77.02961533333334}, {"is_disabled": 0, "type": "electric_scooter", "is_reserved": 0, "lat": 38.9015825, "rental_uris": {"ios": "https://dc.lft.to/lastmile_qr_scan", "android": "https://dc.lft.to/lastmile_qr_scan"}, "fusion_lon": 0.0, "fusion_lat": 0.0, "bike_id": "c9b0c0982b364eaaa33c02b55786ba77", "name": "c9b0c0982b364eaaa33c02b55786ba77", "lon": -77.01589316666667}, {"is_disabled": 0, "type": "electric_scooter", "is_reserved": 0, "lat": 38.862554, "rental_uris": {"ios": "https://dc.lft.to/lastmile_qr_scan", "android": "https://dc.lft.to/lastmile_qr_scan"}, "fusion_lon": 0.0, "fusion_lat": 0.0, "bike_id": "5acdafb1f80d3dc1fb4f8e814d52b80a", "name": "5acdafb1f80d3dc1fb4f8e814d52b80a", "lon": -76.99518866666666}, {"is_disabled": 0, "type": "electric_scooter", "is_reserved": 0, "lat": 38.8649965, "rental_uris": {"ios": "https://dc.lft.to/lastmile_qr_scan", "android": "https://dc.lft.to/lastmile_qr_scan"}, "fusion_lon": 0.0, "fusion_lat": 0.0, "bike_id": "d88e59469a14e816e0bdf461b2ff8213", "name": "d88e59469a14e816e0bdf461b2ff8213", "lon": -76.9899365}, {"is_disabled": 0, "type": "electric_scooter", "is_reserved": 0, "lat": 38.91551, "rental_uris": {"ios": "https://dc.lft.to/lastmile_qr_scan", "android": "https://dc.lft.to/lastmile_qr_scan"}, "fusion_lon": 0.0, "fusion_lat": 0.0, "bike_id": "df9c9a72343dfaa67d0882c8f9ce659a", "name": "df9c9a72343dfaa67d0882c8f9ce659a", "lon": -77.03468216666667}, {"is_disabled": 0, "type": "electric_bike", "is_reserved": 0, "lat": 38.85545183333333, "rental_uris": {"ios": "https://dc.lft.to/lastmile_qr_scan", "android": "https://dc.lft.to/lastmile_qr_scan"}, "fusion_lon": 0.0, "fusion_lat": 0.0, "bike_id": "2cf217c2354a7013e5425f2d3114350a", "name": "2cf217c2354a7013e5425f2d3114350a", "lon": -77.10717733333334}, {"is_disabled": 0, "type": "electric_scooter", "is_reserved": 0, "lat": 38.92029016666667, "rental_uris": {"ios": "https://dc.lft.to/lastmile_qr_scan", "android": "https://dc.lft.to/lastmile_qr_scan"}, "fusion_lon": 0.0, "fusion_lat": 0.0, "bike_id": "c18acafe1864e5e6f4ed2f04e12dd718", "name": "c18acafe1864e5e6f4ed2f04e12dd718", "lon": -77.00091016666667}, {"is_disabled": 0, "type": "electric_scooter", "is_reserved": 0, "lat": 38.87605683333334, "rental_uris": {"ios": "https://dc.lft.to/lastmile_qr_scan", "android": "https://dc.lft.to/lastmile_qr_scan"}, "fusion_lon": 0.0, "fusion_lat": 0.0, "bike_id": "c116e28ea7e6fd2908dfc0ff355fe04d", "name": "c116e28ea7e6fd2908dfc0ff355fe04d", "lon": -77.0093405}, {"is_disabled": 0, "type": "electric_scooter", "is_reserved": 0, "lat": 38.896158666666665, "rental_uris": {"ios": "https://dc.lft.to/lastmile_qr_scan", "android": "https://dc.lft.to/lastmile_qr_scan"}, "fusion_lon": 0.0, "fusion_lat": 0.0, "bike_id": "7831d37f2483d170b9379d7888b0e335", "name": "7831d37f2483d170b9379d7888b0e335", "lon": -77.03030466666667}, {"is_disabled": 0, "type": "electric_scooter", "is_reserved": 0, "lat": 38.93113966666667, "rental_uris": {"ios": "https://dc.lft.to/lastmile_qr_scan", "android": "https://dc.lft.to/lastmile_qr_scan"}, "fusion_lon": 0.0, "fusion_lat": 0.0, "bike_id": "0efe2fd2ea7030fa7162cc8ab50459cf", "name": "0efe2fd2ea7030fa7162cc8ab50459cf", "lon": -77.02098716666667}, {"is_disabled": 0, "type": "electric_scooter", "is_reserved": 0, "lat": 38.892195666666666, "rental_uris": {"ios": "https://dc.lft.to/lastmile_qr_scan", "android": "https://dc.lft.to/lastmile_qr_scan"}, "fusion_lon": 0.0, "fusion_lat": 0.0, "bike_id": "5448482e93363a36dfd9d9352307ce35", "name": "5448482e93363a36dfd9d9352307ce35", "lon": -77.015429}, {"is_disabled": 0, "type": "electric_scooter", "is_reserved": 0, "lat": 38.93241783333333, "rental_uris": {"ios": "https://dc.lft.to/lastmile_qr_scan", "android": "https://dc.lft.to/lastmile_qr_scan"}, "fusion_lon": 0.0, "fusion_lat": 0.0, "bike_id": "e73fb1377cbf3e3ddc74f01f49fb1177", "name": "e73fb1377cbf3e3ddc74f01f49fb1177", "lon": -77.038584}, {"is_disabled": 0, "type": "electric_scooter", "is_reserved": 0, "lat": 38.91599733333334, "rental_uris": {"ios": "https://dc.lft.to/lastmile_qr_scan", "android": "https://dc.lft.to/lastmile_qr_scan"}, "fusion_lon": 0.0, "fusion_lat": 0.0, "bike_id": "e6666de19dd09ed4446b3407d84dd668", "name": "e6666de19dd09ed4446b3407d84dd668", "lon": -77.023065}, {"is_disabled": 0, "type": "electric_scooter", "is_reserved": 0, "lat": 38.87489333333333, "rental_uris": {"ios": "https://dc.lft.to/lastmile_qr_scan", "android": "https://dc.lft.to/lastmile_qr_scan"}, "fusion_lon": 0.0, "fusion_lat": 0.0, "bike_id": "0ec4a762f6f4fd3cc3e08f4ddaa95404", "name": "0ec4a762f6f4fd3cc3e08f4ddaa95404", "lon": -77.00238383333334}, {"is_disabled": 0, "type": "electric_scooter", "is_reserved": 0, "lat": 38.898793, "rental_uris": {"ios": "https://dc.lft.to/lastmile_qr_scan", "android": "https://dc.lft.to/lastmile_qr_scan"}, "fusion_lon": 0.0, "fusion_lat": 0.0, "bike_id": "250baf77289a764854ccb8e5c2ce160e", "name": "250baf77289a764854ccb8e5c2ce160e", "lon": -77.04049783333333}, {"is_disabled": 0, "type": "electric_scooter", "is_reserved": 0, "lat": 38.898648333333334, "rental_uris": {"ios": "https://dc.lft.to/lastmile_qr_scan", "android": "https://dc.lft.to/lastmile_qr_scan"}, "fusion_lon": 0.0, "fusion_lat": 0.0, "bike_id": "f1b8384290c1f1d4f7a4cc62e95f8207", "name": "f1b8384290c1f1d4f7a4cc62e95f8207", "lon": -77.039585}, {"is_disabled": 0, "type": "electric_scooter", "is_reserved": 0, "lat": 38.89999866666667, "rental_uris": {"ios": "https://dc.lft.to/lastmile_qr_scan", "android": "https://dc.lft.to/lastmile_qr_scan"}, "fusion_lon": 0.0, "fusion_lat": 0.0, "bike_id": "a7bdfbb8d73ebdb7a0664d5c2f7f5c0d", "name": "a7bdfbb8d73ebdb7a0664d5c2f7f5c0d", "lon": -76.99817983333334}, {"is_disabled": 0, "type": "electric_scooter", "is_reserved": 0, "lat": 38.84429333333333, "rental_uris": {"ios": "https://dc.lft.to/lastmile_qr_scan", "android": "https://dc.lft.to/lastmile_qr_scan"}, "fusion_lon": 0.0, "fusion_lat": 0.0, "bike_id": "8b1be80a98bbc45c63a4e78fd591342e", "name": "8b1be80a98bbc45c63a4e78fd591342e", "lon": -76.99814833333333}, {"is_disabled": 0, "type": "electric_bike", "is_reserved": 0, "lat": 38.922792666666666, "rental_uris": {"ios": "https://dc.lft.to/lastmile_qr_scan", "android": "https://dc.lft.to/lastmile_qr_scan"}, "fusion_lon": 0.0, "fusion_lat": 0.0, "bike_id": "4b4e1e48736ce26cbc002e20095fb6d2", "name": "4b4e1e48736ce26cbc002e20095fb6d2", "lon": -77.01992333333334}, {"is_disabled": 0, "type": "electric_scooter", "is_reserved": 0, "lat": 38.912696833333335, "rental_uris": {"ios": "https://dc.lft.to/lastmile_qr_scan", "android": "https://dc.lft.to/lastmile_qr_scan"}, "fusion_lon": 0.0, "fusion_lat": 0.0, "bike_id": "41d7b458725c5e55da8c4e6ac8896be0", "name": "41d7b458725c5e55da8c4e6ac8896be0", "lon": -77.03873766666666}, {"is_disabled": 0, "type": "electric_bike", "is_reserved": 0, "lat": 38.8813815, "rental_uris": {"ios": "https://dc.lft.to/lastmile_qr_scan", "android": "https://dc.lft.to/lastmile_qr_scan"}, "fusion_lon": 0.0, "fusion_lat": 0.0, "bike_id": "a6b85236d8e67fe5e12620b5398320c5", "name": "a6b85236d8e67fe5e12620b5398320c5", "lon": -77.027043}, {"is_disabled": 0, "type": "electric_scooter", "is_reserved": 0, "lat": 38.858126, "rental_uris": {"ios": "https://dc.lft.to/lastmile_qr_scan", "android": "https://dc.lft.to/lastmile_qr_scan"}, "fusion_lon": 0.0, "fusion_lat": 0.0, "bike_id": "e7b2ddd2bdac295f0e2227433d221ddc", "name": "e7b2ddd2bdac295f0e2227433d221ddc", "lon": -76.98925016666666}, {"is_disabled": 0, "type": "electric_scooter", "is_reserved": 0, "lat": 38.902386666666665, "rental_uris": {"ios": "https://dc.lft.to/lastmile_qr_scan", "android": "https://dc.lft.to/lastmile_qr_scan"}, "fusion_lon": 0.0, "fusion_lat": 0.0, "bike_id": "683fa756298bc15489df3ae9362b11d1", "name": "683fa756298bc15489df3ae9362b11d1", "lon": -77.00194866666666}, {"is_disabled": 0, "type": "electric_scooter", "is_reserved": 0, "lat": 38.85810766666667, "rental_uris": {"ios": "https://dc.lft.to/lastmile_qr_scan", "android": "https://dc.lft.to/lastmile_qr_scan"}, "fusion_lon": 0.0, "fusion_lat": 0.0, "bike_id": "1d0bc5368a08d71fb67e1ab6ae75efb9", "name": "1d0bc5368a08d71fb67e1ab6ae75efb9", "lon": -76.98654083333334}, {"is_disabled": 0, "type": "electric_scooter", "is_reserved": 0, "lat": 38.9270165, "rental_uris": {"ios": "https://dc.lft.to/lastmile_qr_scan", "android": "https://dc.lft.to/lastmile_qr_scan"}, "fusion_lon": 0.0, "fusion_lat": 0.0, "bike_id": "0327251dfa9125a0a3f7ae19c8929e64", "name": "0327251dfa9125a0a3f7ae19c8929e64", "lon": -77.05228983333333}, {"is_disabled": 0, "type": "electric_scooter", "is_reserved": 0, "lat": 38.9140685, "rental_uris": {"ios": "https://dc.lft.to/lastmile_qr_scan", "android": "https://dc.lft.to/lastmile_qr_scan"}, "fusion_lon": 0.0, "fusion_lat": 0.0, "bike_id": "2925269bf92afc493a701c4422b37e8d", "name": "2925269bf92afc493a701c4422b37e8d", "lon": -77.0289945}, {"is_disabled": 0, "type": "electric_bike", "is_reserved": 0, "lat": 38.895951, "rental_uris": {"ios": "https://dc.lft.to/lastmile_qr_scan", "android": "https://dc.lft.to/lastmile_qr_scan"}, "fusion_lon": 0.0, "fusion_lat": 0.0, "bike_id": "511985a4cf313c0965db7fcf4069d01c", "name": "511985a4cf313c0965db7fcf4069d01c", "lon": -76.90707316666666}, {"is_disabled": 0, "type": "electric_scooter", "is_reserved": 0, "lat": 38.93606666666667, "rental_uris": {"ios": "https://dc.lft.to/lastmile_qr_scan", "android": "https://dc.lft.to/lastmile_qr_scan"}, "fusion_lon": 0.0, "fusion_lat": 0.0, "bike_id": "7ea2b7d63dd4b7f700ea15f9b87f615e", "name": "7ea2b7d63dd4b7f700ea15f9b87f615e", "lon": -77.05860616666666}, {"is_disabled": 0, "type": "electric_bike", "is_reserved": 0, "lat": 38.96204766666666, "rental_uris": {"ios": "https://dc.lft.to/lastmile_qr_scan", "android": "https://dc.lft.to/lastmile_qr_scan"}, "fusion_lon": 0.0, "fusion_lat": 0.0, "bike_id": "498bfd70870a59d144360a5a4153a30b", "name": "498bfd70870a59d144360a5a4153a30b", "lon": -77.035143}, {"is_disabled": 0, "type": "electric_scooter", "is_reserved": 0, "lat": 38.923436, "rental_uris": {"ios": "https://dc.lft.to/lastmile_qr_scan", "android": "https://dc.lft.to/lastmile_qr_scan"}, "fusion_lon": 0.0, "fusion_lat": 0.0, "bike_id": "50127899fb913d012e8bdb5e9eb97e42", "name": "50127899fb913d012e8bdb5e9eb97e42", "lon": -77.0508855}, {"is_disabled": 0, "type": "electric_scooter", "is_reserved": 0, "lat": 38.918169, "rental_uris": {"ios": "https://dc.lft.to/lastmile_qr_scan", "android": "https://dc.lft.to/lastmile_qr_scan"}, "fusion_lon": 0.0, "fusion_lat": 0.0, "bike_id": "2f9746954292565dba6336bbcc172056", "name": "2f9746954292565dba6336bbcc172056", "lon": -77.0386465}, {"is_disabled": 0, "type": "electric_scooter", "is_reserved": 0, "lat": 38.910549833333334, "rental_uris": {"ios": "https://dc.lft.to/lastmile_qr_scan", "android": "https://dc.lft.to/lastmile_qr_scan"}, "fusion_lon": 0.0, "fusion_lat": 0.0, "bike_id": "70a9a3f990675b87f2f269e63e8f085a", "name": "70a9a3f990675b87f2f269e63e8f085a", "lon": -77.021798}, {"is_disabled": 0, "type": "electric_scooter", "is_reserved": 0, "lat": 38.900720666666665, "rental_uris": {"ios": "https://dc.lft.to/lastmile_qr_scan", "android": "https://dc.lft.to/lastmile_qr_scan"}, "fusion_lon": 0.0, "fusion_lat": 0.0, "bike_id": "703eb9709a974cbbc08334902d223d64", "name": "703eb9709a974cbbc08334902d223d64", "lon": -77.0347785}, {"is_disabled": 0, "type": "electric_scooter", "is_reserved": 0, "lat": 38.911907, "rental_uris": {"ios": "https://dc.lft.to/lastmile_qr_scan", "android": "https://dc.lft.to/lastmile_qr_scan"}, "fusion_lon": 0.0, "fusion_lat": 0.0, "bike_id": "c15ad189588d43e2bc90e0f6c9e2c8b8", "name": "c15ad189588d43e2bc90e0f6c9e2c8b8", "lon": -77.00718416666666}, {"is_disabled": 0, "type": "electric_scooter", "is_reserved": 0, "lat": 38.900524833333336, "rental_uris": {"ios": "https://dc.lft.to/lastmile_qr_scan", "android": "https://dc.lft.to/lastmile_qr_scan"}, "fusion_lon": 0.0, "fusion_lat": 0.0, "bike_id": "691ca46af9ea5814c4bdabc28481a84e", "name": "691ca46af9ea5814c4bdabc28481a84e", "lon": -77.02613566666666}, {"is_disabled": 0, "type": "electric_scooter", "is_reserved": 0, "lat": 38.92367816666667, "rental_uris": {"ios": "https://dc.lft.to/lastmile_qr_scan", "android": "https://dc.lft.to/lastmile_qr_scan"}, "fusion_lon": 0.0, "fusion_lat": 0.0, "bike_id": "313fd0beca0ee0a052860f6853346867", "name": "313fd0beca0ee0a052860f6853346867", "lon": -77.0181625}, {"is_disabled": 0, "type": "electric_scooter", "is_reserved": 0, "lat": 38.914945, "rental_uris": {"ios": "https://dc.lft.to/lastmile_qr_scan", "android": "https://dc.lft.to/lastmile_qr_scan"}, "fusion_lon": 0.0, "fusion_lat": 0.0, "bike_id": "55bc8a6c2e7fd44037b28bf8393ed319", "name": "55bc8a6c2e7fd44037b28bf8393ed319", "lon": -77.01857416666667}, {"is_disabled": 0, "type": "electric_scooter", "is_reserved": 0, "lat": 38.8874085, "rental_uris": {"ios": "https://dc.lft.to/lastmile_qr_scan", "android": "https://dc.lft.to/lastmile_qr_scan"}, "fusion_lon": 0.0, "fusion_lat": 0.0, "bike_id": "d26acfc0c1d7e56f4a6e6282476faa57", "name": "d26acfc0c1d7e56f4a6e6282476faa57", "lon": -77.01532433333334}, {"is_disabled": 0, "type": "electric_bike", "is_reserved": 0, "lat": 38.995938833333334, "rental_uris": {"ios": "https://dc.lft.to/lastmile_qr_scan", "android": "https://dc.lft.to/lastmile_qr_scan"}, "fusion_lon": 0.0, "fusion_lat": 0.0, "bike_id": "ad79ebac050a321b74f78e105c2176a6", "name": "ad79ebac050a321b74f78e105c2176a6", "lon": -77.00771}, {"is_disabled": 0, "type": "electric_scooter", "is_reserved": 0, "lat": 38.90012933333333, "rental_uris": {"ios": "https://dc.lft.to/lastmile_qr_scan", "android": "https://dc.lft.to/lastmile_qr_scan"}, "fusion_lon": 0.0, "fusion_lat": 0.0, "bike_id": "4b63f6258bc9795b047ba5ac61382a9e", "name": "4b63f6258bc9795b047ba5ac61382a9e", "lon": -77.00681966666667}, {"is_disabled": 0, "type": "electric_scooter", "is_reserved": 0, "lat": 38.898276333333335, "rental_uris": {"ios": "https://dc.lft.to/lastmile_qr_scan", "android": "https://dc.lft.to/lastmile_qr_scan"}, "fusion_lon": 0.0, "fusion_lat": 0.0, "bike_id": "8b8a57ce3f028a708bbb6c9117570621", "name": "8b8a57ce3f028a708bbb6c9117570621", "lon": -77.02947133333333}, {"is_disabled": 0, "type": "electric_scooter", "is_reserved": 0, "lat": 38.93410433333333, "rental_uris": {"ios": "https://dc.lft.to/lastmile_qr_scan", "android": "https://dc.lft.to/lastmile_qr_scan"}, "fusion_lon": 0.0, "fusion_lat": 0.0, "bike_id": "617aeac327d9bfd5b5fe57ed0fc0d198", "name": "617aeac327d9bfd5b5fe57ed0fc0d198", "lon": -77.04550933333333}, {"is_disabled": 0, "type": "electric_scooter", "is_reserved": 0, "lat": 38.91743066666667, "rental_uris": {"ios": "https://dc.lft.to/lastmile_qr_scan", "android": "https://dc.lft.to/lastmile_qr_scan"}, "fusion_lon": 0.0, "fusion_lat": 0.0, "bike_id": "740b52dbcc7520383c8e8b56ed2c0987", "name": "740b52dbcc7520383c8e8b56ed2c0987", "lon": -77.023843}, {"is_disabled": 0, "type": "electric_scooter", "is_reserved": 0, "lat": 38.91408633333333, "rental_uris": {"ios": "https://dc.lft.to/lastmile_qr_scan", "android": "https://dc.lft.to/lastmile_qr_scan"}, "fusion_lon": 0.0, "fusion_lat": 0.0, "bike_id": "376b534d5479b4ce0f77e2d98c86e2ae", "name": "376b534d5479b4ce0f77e2d98c86e2ae", "lon": -77.04575616666666}, {"is_disabled": 0, "type": "electric_scooter", "is_reserved": 0, "lat": 38.91986083333333, "rental_uris": {"ios": "https://dc.lft.to/lastmile_qr_scan", "android": "https://dc.lft.to/lastmile_qr_scan"}, "fusion_lon": 0.0, "fusion_lat": 0.0, "bike_id": "64518d56a16533ca411133dbeda8ec9f", "name": "64518d56a16533ca411133dbeda8ec9f", "lon": -77.02182766666667}, {"is_disabled": 0, "type": "electric_scooter", "is_reserved": 0, "lat": 38.916852666666664, "rental_uris": {"ios": "https://dc.lft.to/lastmile_qr_scan", "android": "https://dc.lft.to/lastmile_qr_scan"}, "fusion_lon": 0.0, "fusion_lat": 0.0, "bike_id": "81004a21463451f05318044853b1dcd0", "name": "81004a21463451f05318044853b1dcd0", "lon": -77.03771133333333}, {"is_disabled": 0, "type": "electric_scooter", "is_reserved": 0, "lat": 38.9057685, "rental_uris": {"ios": "https://dc.lft.to/lastmile_qr_scan", "android": "https://dc.lft.to/lastmile_qr_scan"}, "fusion_lon": 0.0, "fusion_lat": 0.0, "bike_id": "760164a9930f83170f256cd5f830f367", "name": "760164a9930f83170f256cd5f830f367", "lon": -77.0418405}, {"is_disabled": 0, "type": "electric_scooter", "is_reserved": 0, "lat": 38.923274, "rental_uris": {"ios": "https://dc.lft.to/lastmile_qr_scan", "android": "https://dc.lft.to/lastmile_qr_scan"}, "fusion_lon": 0.0, "fusion_lat": 0.0, "bike_id": "0394198bd515bb24e78f8c9c0013ad4a", "name": "0394198bd515bb24e78f8c9c0013ad4a", "lon": -77.02975383333333}, {"is_disabled": 0, "type": "electric_scooter", "is_reserved": 0, "lat": 38.900608166666665, "rental_uris": {"ios": "https://dc.lft.to/lastmile_qr_scan", "android": "https://dc.lft.to/lastmile_qr_scan"}, "fusion_lon": 0.0, "fusion_lat": 0.0, "bike_id": "c01621f8b1d8834322d2c5bb6b732225", "name": "c01621f8b1d8834322d2c5bb6b732225", "lon": -77.04838783333334}, {"is_disabled": 0, "type": "electric_scooter", "is_reserved": 0, "lat": 38.91816433333334, "rental_uris": {"ios": "https://dc.lft.to/lastmile_qr_scan", "android": "https://dc.lft.to/lastmile_qr_scan"}, "fusion_lon": 0.0, "fusion_lat": 0.0, "bike_id": "a52cee6f2e1d2be784faf35aa5703f07", "name": "a52cee6f2e1d2be784faf35aa5703f07", "lon": -77.02713533333333}, {"is_disabled": 0, "type": "electric_scooter", "is_reserved": 0, "lat": 38.92649016666667, "rental_uris": {"ios": "https://dc.lft.to/lastmile_qr_scan", "android": "https://dc.lft.to/lastmile_qr_scan"}, "fusion_lon": 0.0, "fusion_lat": 0.0, "bike_id": "b3e4b09c447d2a350a40d6ce8bef90f0", "name": "b3e4b09c447d2a350a40d6ce8bef90f0", "lon": -77.0370235}, {"is_disabled": 0, "type": "electric_scooter", "is_reserved": 0, "lat": 38.93604716666667, "rental_uris": {"ios": "https://dc.lft.to/lastmile_qr_scan", "android": "https://dc.lft.to/lastmile_qr_scan"}, "fusion_lon": 0.0, "fusion_lat": 0.0, "bike_id": "5e07bbca36170b3db0e57600a7f2f323", "name": "5e07bbca36170b3db0e57600a7f2f323", "lon": -77.058594}, {"is_disabled": 0, "type": "electric_scooter", "is_reserved": 0, "lat": 38.923698, "rental_uris": {"ios": "https://dc.lft.to/lastmile_qr_scan", "android": "https://dc.lft.to/lastmile_qr_scan"}, "fusion_lon": 0.0, "fusion_lat": 0.0, "bike_id": "a69c805c2c5c293c502cb8649918671e", "name": "a69c805c2c5c293c502cb8649918671e", "lon": -77.02962116666667}, {"is_disabled": 0, "type": "electric_scooter", "is_reserved": 0, "lat": 38.9338675, "rental_uris": {"ios": "https://dc.lft.to/lastmile_qr_scan", "android": "https://dc.lft.to/lastmile_qr_scan"}, "fusion_lon": 0.0, "fusion_lat": 0.0, "bike_id": "3614332ee8830cd9fb38cc2b1db1f51b", "name": "3614332ee8830cd9fb38cc2b1db1f51b", "lon": -77.05766066666666}, {"is_disabled": 0, "type": "electric_scooter", "is_reserved": 0, "lat": 38.906291833333334, "rental_uris": {"ios": "https://dc.lft.to/lastmile_qr_scan", "android": "https://dc.lft.to/lastmile_qr_scan"}, "fusion_lon": 0.0, "fusion_lat": 0.0, "bike_id": "cc72db82b4529470feb53fd4383e7a5b", "name": "cc72db82b4529470feb53fd4383e7a5b", "lon": -77.05010516666667}, {"is_disabled": 0, "type": "electric_scooter", "is_reserved": 0, "lat": 38.9196155, "rental_uris": {"ios": "https://dc.lft.to/lastmile_qr_scan", "android": "https://dc.lft.to/lastmile_qr_scan"}, "fusion_lon": 0.0, "fusion_lat": 0.0, "bike_id": "216de36852f34f9e18459ba6926d94aa", "name": "216de36852f34f9e18459ba6926d94aa", "lon": -77.02366883333333}, {"is_disabled": 0, "type": "electric_scooter", "is_reserved": 0, "lat": 38.91185266666667, "rental_uris": {"ios": "https://dc.lft.to/lastmile_qr_scan", "android": "https://dc.lft.to/lastmile_qr_scan"}, "fusion_lon": 0.0, "fusion_lat": 0.0, "bike_id": "4017936386b8effe53b247817262db15", "name": "4017936386b8effe53b247817262db15", "lon": -77.03248616666667}, {"is_disabled": 0, "type": "electric_scooter", "is_reserved": 0, "lat": 38.8866335, "rental_uris": {"ios": "https://dc.lft.to/lastmile_qr_scan", "android": "https://dc.lft.to/lastmile_qr_scan"}, "fusion_lon": 0.0, "fusion_lat": 0.0, "bike_id": "410e1ba6ec59be45cab6ea1db839635f", "name": "410e1ba6ec59be45cab6ea1db839635f", "lon": -77.0338705}, {"is_disabled": 0, "type": "electric_scooter", "is_reserved": 0, "lat": 38.9036745, "rental_uris": {"ios": "https://dc.lft.to/lastmile_qr_scan", "android": "https://dc.lft.to/lastmile_qr_scan"}, "fusion_lon": 0.0, "fusion_lat": 0.0, "bike_id": "05075a00ef75dfb0f4c0540ae558cc83", "name": "05075a00ef75dfb0f4c0540ae558cc83", "lon": -77.0444775}, {"is_disabled": 0, "type": "electric_scooter", "is_reserved": 0, "lat": 38.93885733333333, "rental_uris": {"ios": "https://dc.lft.to/lastmile_qr_scan", "android": "https://dc.lft.to/lastmile_qr_scan"}, "fusion_lon": 0.0, "fusion_lat": 0.0, "bike_id": "68dd7489f67c4d4677b669ffb525dfdb", "name": "68dd7489f67c4d4677b669ffb525dfdb", "lon": -77.0246165}, {"is_disabled": 0, "type": "electric_scooter", "is_reserved": 0, "lat": 38.911856666666665, "rental_uris": {"ios": "https://dc.lft.to/lastmile_qr_scan", "android": "https://dc.lft.to/lastmile_qr_scan"}, "fusion_lon": 0.0, "fusion_lat": 0.0, "bike_id": "02fd5dba595728c7616e524b6bc660de", "name": "02fd5dba595728c7616e524b6bc660de", "lon": -77.00555683333333}, {"is_disabled": 0, "type": "electric_bike", "is_reserved": 0, "lat": 38.893524166666666, "rental_uris": {"ios": "https://dc.lft.to/lastmile_qr_scan", "android": "https://dc.lft.to/lastmile_qr_scan"}, "fusion_lon": 0.0, "fusion_lat": 0.0, "bike_id": "e40b9a6e56b9ec8536166da961860a58", "name": "e40b9a6e56b9ec8536166da961860a58", "lon": -77.1874295}, {"is_disabled": 0, "type": "electric_scooter", "is_reserved": 0, "lat": 38.91126366666667, "rental_uris": {"ios": "https://dc.lft.to/lastmile_qr_scan", "android": "https://dc.lft.to/lastmile_qr_scan"}, "fusion_lon": 0.0, "fusion_lat": 0.0, "bike_id": "1ffa5787444c2b91a0ef697d3fe96c0f", "name": "1ffa5787444c2b91a0ef697d3fe96c0f", "lon": -77.04228633333334}, {"is_disabled": 0, "type": "electric_bike", "is_reserved": 0, "lat": 38.9396755, "rental_uris": {"ios": "https://dc.lft.to/lastmile_qr_scan", "android": "https://dc.lft.to/lastmile_qr_scan"}, "fusion_lon": 0.0, "fusion_lat": 0.0, "bike_id": "dc801aee4bab510b2304f78b8355372d", "name": "dc801aee4bab510b2304f78b8355372d", "lon": -77.0278825}, {"is_disabled": 0, "type": "electric_scooter", "is_reserved": 0, "lat": 38.908383, "rental_uris": {"ios": "https://dc.lft.to/lastmile_qr_scan", "android": "https://dc.lft.to/lastmile_qr_scan"}, "fusion_lon": 0.0, "fusion_lat": 0.0, "bike_id": "4af1bd0d4a7965bbd2b397b8a9b3600e", "name": "4af1bd0d4a7965bbd2b397b8a9b3600e", "lon": -77.02192233333334}, {"is_disabled": 0, "type": "electric_scooter", "is_reserved": 0, "lat": 38.89220616666667, "rental_uris": {"ios": "https://dc.lft.to/lastmile_qr_scan", "android": "https://dc.lft.to/lastmile_qr_scan"}, "fusion_lon": 0.0, "fusion_lat": 0.0, "bike_id": "83d4a80d46c47a48182c61b2291f5ef9", "name": "83d4a80d46c47a48182c61b2291f5ef9", "lon": -77.04370633333333}, {"is_disabled": 0, "type": "electric_bike", "is_reserved": 0, "lat": 39.01565766666667, "rental_uris": {"ios": "https://dc.lft.to/lastmile_qr_scan", "android": "https://dc.lft.to/lastmile_qr_scan"}, "fusion_lon": 0.0, "fusion_lat": 0.0, "bike_id": "c0943183f32f16886e1f883f42116b0d", "name": "c0943183f32f16886e1f883f42116b0d", "lon": -77.0441565}, {"is_disabled": 0, "type": "electric_bike", "is_reserved": 0, "lat": 38.94927166666667, "rental_uris": {"ios": "https://dc.lft.to/lastmile_qr_scan", "android": "https://dc.lft.to/lastmile_qr_scan"}, "fusion_lon": 0.0, "fusion_lat": 0.0, "bike_id": "ad55695c2f25556c3fe06d5ae10d0966", "name": "ad55695c2f25556c3fe06d5ae10d0966", "lon": -77.00797966666667}, {"is_disabled": 0, "type": "electric_scooter", "is_reserved": 0, "lat": 38.87717166666667, "rental_uris": {"ios": "https://dc.lft.to/lastmile_qr_scan", "android": "https://dc.lft.to/lastmile_qr_scan"}, "fusion_lon": 0.0, "fusion_lat": 0.0, "bike_id": "9ed34f84ce76d82836253ee7624ca7a7", "name": "9ed34f84ce76d82836253ee7624ca7a7", "lon": -77.01753116666667}, {"is_disabled": 0, "type": "electric_scooter", "is_reserved": 0, "lat": 38.900423, "rental_uris": {"ios": "https://dc.lft.to/lastmile_qr_scan", "android": "https://dc.lft.to/lastmile_qr_scan"}, "fusion_lon": 0.0, "fusion_lat": 0.0, "bike_id": "8ed6c2062aa86f1c4ef344714074a1fb", "name": "8ed6c2062aa86f1c4ef344714074a1fb", "lon": -76.99370433333333}, {"is_disabled": 0, "type": "electric_scooter", "is_reserved": 0, "lat": 38.9155645, "rental_uris": {"ios": "https://dc.lft.to/lastmile_qr_scan", "android": "https://dc.lft.to/lastmile_qr_scan"}, "fusion_lon": 0.0, "fusion_lat": 0.0, "bike_id": "a46df8b2ff70815b2060e023dd444041", "name": "a46df8b2ff70815b2060e023dd444041", "lon": -77.03124216666667}, {"is_disabled": 0, "type": "electric_scooter", "is_reserved": 0, "lat": 38.913416166666664, "rental_uris": {"ios": "https://dc.lft.to/lastmile_qr_scan", "android": "https://dc.lft.to/lastmile_qr_scan"}, "fusion_lon": 0.0, "fusion_lat": 0.0, "bike_id": "fdd1f1be599c35d72fe455dd2cd2afa9", "name": "fdd1f1be599c35d72fe455dd2cd2afa9", "lon": -77.04277333333333}, {"is_disabled": 0, "type": "electric_scooter", "is_reserved": 0, "lat": 38.874767166666665, "rental_uris": {"ios": "https://dc.lft.to/lastmile_qr_scan", "android": "https://dc.lft.to/lastmile_qr_scan"}, "fusion_lon": 0.0, "fusion_lat": 0.0, "bike_id": "ffd3833ed4e76a31fb6908b4d170b3c3", "name": "ffd3833ed4e76a31fb6908b4d170b3c3", "lon": -77.004925}, {"is_disabled": 0, "type": "electric_scooter", "is_reserved": 0, "lat": 38.91034583333333, "rental_uris": {"ios": "https://dc.lft.to/lastmile_qr_scan", "android": "https://dc.lft.to/lastmile_qr_scan"}, "fusion_lon": 0.0, "fusion_lat": 0.0, "bike_id": "cff5efdb80e4beedaf0c5063500e7664", "name": "cff5efdb80e4beedaf0c5063500e7664", "lon": -77.022874}, {"is_disabled": 0, "type": "electric_bike", "is_reserved": 0, "lat": 38.805784833333334, "rental_uris": {"ios": "https://dc.lft.to/lastmile_qr_scan", "android": "https://dc.lft.to/lastmile_qr_scan"}, "fusion_lon": 0.0, "fusion_lat": 0.0, "bike_id": "f39ffe6399b8bfef756a408178216d3f", "name": "f39ffe6399b8bfef756a408178216d3f", "lon": -77.06862366666667}, {"is_disabled": 0, "type": "electric_scooter", "is_reserved": 0, "lat": 38.924723, "rental_uris": {"ios": "https://dc.lft.to/lastmile_qr_scan", "android": "https://dc.lft.to/lastmile_qr_scan"}, "fusion_lon": 0.0, "fusion_lat": 0.0, "bike_id": "e95aeb7f5ec5fb6e61f6facd9c85d2ae", "name": "e95aeb7f5ec5fb6e61f6facd9c85d2ae", "lon": -77.0389955}, {"is_disabled": 0, "type": "electric_scooter", "is_reserved": 0, "lat": 38.88964766666667, "rental_uris": {"ios": "https://dc.lft.to/lastmile_qr_scan", "android": "https://dc.lft.to/lastmile_qr_scan"}, "fusion_lon": 0.0, "fusion_lat": 0.0, "bike_id": "5d78ef483a70e874f0a7b396ecf77fb4", "name": "5d78ef483a70e874f0a7b396ecf77fb4", "lon": -76.9273695}, {"is_disabled": 0, "type": "electric_scooter", "is_reserved": 0, "lat": 38.8987385, "rental_uris": {"ios": "https://dc.lft.to/lastmile_qr_scan", "android": "https://dc.lft.to/lastmile_qr_scan"}, "fusion_lon": 0.0, "fusion_lat": 0.0, "bike_id": "020e4da43c6fb1c3f637fc9342ab7390", "name": "020e4da43c6fb1c3f637fc9342ab7390", "lon": -76.9316105}, {"is_disabled": 0, "type": "electric_scooter", "is_reserved": 0, "lat": 38.93865683333333, "rental_uris": {"ios": "https://dc.lft.to/lastmile_qr_scan", "android": "https://dc.lft.to/lastmile_qr_scan"}, "fusion_lon": 0.0, "fusion_lat": 0.0, "bike_id": "3ead9f79cd37b49c31aebc2e696bbba8", "name": "3ead9f79cd37b49c31aebc2e696bbba8", "lon": -77.02490416666667}, {"is_disabled": 0, "type": "electric_scooter", "is_reserved": 0, "lat": 38.92890533333333, "rental_uris": {"ios": "https://dc.lft.to/lastmile_qr_scan", "android": "https://dc.lft.to/lastmile_qr_scan"}, "fusion_lon": 0.0, "fusion_lat": 0.0, "bike_id": "0b097298150fa15c2abea20b111029d5", "name": "0b097298150fa15c2abea20b111029d5", "lon": -77.023337}, {"is_disabled": 0, "type": "electric_scooter", "is_reserved": 0, "lat": 38.906835666666666, "rental_uris": {"ios": "https://dc.lft.to/lastmile_qr_scan", "android": "https://dc.lft.to/lastmile_qr_scan"}, "fusion_lon": 0.0, "fusion_lat": 0.0, "bike_id": "c899b4ad5c054d463de0eca84b8c3374", "name": "c899b4ad5c054d463de0eca84b8c3374", "lon": -77.00885666666667}, {"is_disabled": 0, "type": "electric_scooter", "is_reserved": 0, "lat": 38.8666275, "rental_uris": {"ios": "https://dc.lft.to/lastmile_qr_scan", "android": "https://dc.lft.to/lastmile_qr_scan"}, "fusion_lon": 0.0, "fusion_lat": 0.0, "bike_id": "82edf20f851b07764d12fbf9f3fe2a74", "name": "82edf20f851b07764d12fbf9f3fe2a74", "lon": -76.98511766666667}, {"is_disabled": 0, "type": "electric_scooter", "is_reserved": 0, "lat": 38.89754816666667, "rental_uris": {"ios": "https://dc.lft.to/lastmile_qr_scan", "android": "https://dc.lft.to/lastmile_qr_scan"}, "fusion_lon": 0.0, "fusion_lat": 0.0, "bike_id": "c8b930637281dfd687dde75a6db81b9b", "name": "c8b930637281dfd687dde75a6db81b9b", "lon": -77.02974066666667}, {"is_disabled": 0, "type": "electric_bike", "is_reserved": 0, "lat": 38.92210383333333, "rental_uris": {"ios": "https://dc.lft.to/lastmile_qr_scan", "android": "https://dc.lft.to/lastmile_qr_scan"}, "fusion_lon": 0.0, "fusion_lat": 0.0, "bike_id": "bb83e6ebcb0ef132a693cfa9e80b186c", "name": "bb83e6ebcb0ef132a693cfa9e80b186c", "lon": -76.98797}, {"is_disabled": 0, "type": "electric_scooter", "is_reserved": 0, "lat": 38.922583, "rental_uris": {"ios": "https://dc.lft.to/lastmile_qr_scan", "android": "https://dc.lft.to/lastmile_qr_scan"}, "fusion_lon": 0.0, "fusion_lat": 0.0, "bike_id": "847a733d55f28ac4f7c362855fe01ee9", "name": "847a733d55f28ac4f7c362855fe01ee9", "lon": -77.019506}, {"is_disabled": 0, "type": "electric_scooter", "is_reserved": 0, "lat": 38.9027635, "rental_uris": {"ios": "https://dc.lft.to/lastmile_qr_scan", "android": "https://dc.lft.to/lastmile_qr_scan"}, "fusion_lon": 0.0, "fusion_lat": 0.0, "bike_id": "6e72def7df5ffcfef50f8983bfebc162", "name": "6e72def7df5ffcfef50f8983bfebc162", "lon": -77.0321545}, {"is_disabled": 0, "type": "electric_scooter", "is_reserved": 0, "lat": 38.9046595, "rental_uris": {"ios": "https://dc.lft.to/lastmile_qr_scan", "android": "https://dc.lft.to/lastmile_qr_scan"}, "fusion_lon": 0.0, "fusion_lat": 0.0, "bike_id": "5af0883c0be2555813ebdb51550e1e5e", "name": "5af0883c0be2555813ebdb51550e1e5e", "lon": -77.04171533333333}, {"is_disabled": 0, "type": "electric_scooter", "is_reserved": 0, "lat": 38.92357483333333, "rental_uris": {"ios": "https://dc.lft.to/lastmile_qr_scan", "android": "https://dc.lft.to/lastmile_qr_scan"}, "fusion_lon": 0.0, "fusion_lat": 0.0, "bike_id": "74a5a61f2b81fedf5acdfa7ebbe563ed", "name": "74a5a61f2b81fedf5acdfa7ebbe563ed", "lon": -77.0523655}, {"is_disabled": 0, "type": "electric_scooter", "is_reserved": 0, "lat": 38.954001, "rental_uris": {"ios": "https://dc.lft.to/lastmile_qr_scan", "android": "https://dc.lft.to/lastmile_qr_scan"}, "fusion_lon": 0.0, "fusion_lat": 0.0, "bike_id": "a299807a46fc152b8d5bf2d530c36407", "name": "a299807a46fc152b8d5bf2d530c36407", "lon": -77.0279615}, {"is_disabled": 0, "type": "electric_scooter", "is_reserved": 0, "lat": 38.9234715, "rental_uris": {"ios": "https://dc.lft.to/lastmile_qr_scan", "android": "https://dc.lft.to/lastmile_qr_scan"}, "fusion_lon": 0.0, "fusion_lat": 0.0, "bike_id": "f18413a9bec1887fc7affa7d746bcdb0", "name": "f18413a9bec1887fc7affa7d746bcdb0", "lon": -77.0512405}, {"is_disabled": 0, "type": "electric_scooter", "is_reserved": 0, "lat": 38.90378416666667, "rental_uris": {"ios": "https://dc.lft.to/lastmile_qr_scan", "android": "https://dc.lft.to/lastmile_qr_scan"}, "fusion_lon": 0.0, "fusion_lat": 0.0, "bike_id": "f414120135240ebb2ebe0c2f488b1b93", "name": "f414120135240ebb2ebe0c2f488b1b93", "lon": -77.053107}, {"is_disabled": 0, "type": "electric_bike", "is_reserved": 0, "lat": 38.99949566666667, "rental_uris": {"ios": "https://dc.lft.to/lastmile_qr_scan", "android": "https://dc.lft.to/lastmile_qr_scan"}, "fusion_lon": 0.0, "fusion_lat": 0.0, "bike_id": "f2674abd914804118652cfec9e028470", "name": "f2674abd914804118652cfec9e028470", "lon": -77.03170466666667}, {"is_disabled": 0, "type": "electric_scooter", "is_reserved": 0, "lat": 38.92349166666666, "rental_uris": {"ios": "https://dc.lft.to/lastmile_qr_scan", "android": "https://dc.lft.to/lastmile_qr_scan"}, "fusion_lon": 0.0, "fusion_lat": 0.0, "bike_id": "21fa7456fc4a7d2bf37abbbce7b51771", "name": "21fa7456fc4a7d2bf37abbbce7b51771", "lon": -77.0415305}, {"is_disabled": 0, "type": "electric_scooter", "is_reserved": 0, "lat": 38.9183835, "rental_uris": {"ios": "https://dc.lft.to/lastmile_qr_scan", "android": "https://dc.lft.to/lastmile_qr_scan"}, "fusion_lon": 0.0, "fusion_lat": 0.0, "bike_id": "8a985e07c5bbef88be35ef40ab55156e", "name": "8a985e07c5bbef88be35ef40ab55156e", "lon": -77.04180933333333}, {"is_disabled": 0, "type": "electric_scooter", "is_reserved": 0, "lat": 38.90234483333333, "rental_uris": {"ios": "https://dc.lft.to/lastmile_qr_scan", "android": "https://dc.lft.to/lastmile_qr_scan"}, "fusion_lon": 0.0, "fusion_lat": 0.0, "bike_id": "906fb367e50c833e4c657dc7cfbd8a8a", "name": "906fb367e50c833e4c657dc7cfbd8a8a", "lon": -77.00351566666667}, {"is_disabled": 0, "type": "electric_scooter", "is_reserved": 0, "lat": 38.91928733333334, "rental_uris": {"ios": "https://dc.lft.to/lastmile_qr_scan", "android": "https://dc.lft.to/lastmile_qr_scan"}, "fusion_lon": 0.0, "fusion_lat": 0.0, "bike_id": "61af18bc9429e66bc9990663b9828421", "name": "61af18bc9429e66bc9990663b9828421", "lon": -77.03180266666666}, {"is_disabled": 0, "type": "electric_scooter", "is_reserved": 0, "lat": 38.88593016666667, "rental_uris": {"ios": "https://dc.lft.to/lastmile_qr_scan", "android": "https://dc.lft.to/lastmile_qr_scan"}, "fusion_lon": 0.0, "fusion_lat": 0.0, "bike_id": "c2e3ef250e67d57f3d48278389d9d236", "name": "c2e3ef250e67d57f3d48278389d9d236", "lon": -76.983701}, {"is_disabled": 0, "type": "electric_scooter", "is_reserved": 0, "lat": 38.91835366666667, "rental_uris": {"ios": "https://dc.lft.to/lastmile_qr_scan", "android": "https://dc.lft.to/lastmile_qr_scan"}, "fusion_lon": 0.0, "fusion_lat": 0.0, "bike_id": "aa56bcf26b0ee3d8ce6c9779d653baaa", "name": "aa56bcf26b0ee3d8ce6c9779d653baaa", "lon": -77.04157116666667}, {"is_disabled": 0, "type": "electric_scooter", "is_reserved": 0, "lat": 38.91115633333333, "rental_uris": {"ios": "https://dc.lft.to/lastmile_qr_scan", "android": "https://dc.lft.to/lastmile_qr_scan"}, "fusion_lon": 0.0, "fusion_lat": 0.0, "bike_id": "eb1ff1d8ee0d5b6a71bbdf6e264d2d68", "name": "eb1ff1d8ee0d5b6a71bbdf6e264d2d68", "lon": -77.03836283333334}, {"is_disabled": 0, "type": "electric_scooter", "is_reserved": 0, "lat": 38.92058633333333, "rental_uris": {"ios": "https://dc.lft.to/lastmile_qr_scan", "android": "https://dc.lft.to/lastmile_qr_scan"}, "fusion_lon": 0.0, "fusion_lat": 0.0, "bike_id": "d1e041767503282879e0356aa0e748ef", "name": "d1e041767503282879e0356aa0e748ef", "lon": -77.032865}, {"is_disabled": 0, "type": "electric_scooter", "is_reserved": 0, "lat": 38.931835166666666, "rental_uris": {"ios": "https://dc.lft.to/lastmile_qr_scan", "android": "https://dc.lft.to/lastmile_qr_scan"}, "fusion_lon": 0.0, "fusion_lat": 0.0, "bike_id": "83f4383684f2642696a828f29b3a3211", "name": "83f4383684f2642696a828f29b3a3211", "lon": -77.03862733333334}, {"is_disabled": 0, "type": "electric_scooter", "is_reserved": 0, "lat": 38.92414933333333, "rental_uris": {"ios": "https://dc.lft.to/lastmile_qr_scan", "android": "https://dc.lft.to/lastmile_qr_scan"}, "fusion_lon": 0.0, "fusion_lat": 0.0, "bike_id": "aca5a803a3021e8b0b16346782eb3f9c", "name": "aca5a803a3021e8b0b16346782eb3f9c", "lon": -77.0403355}, {"is_disabled": 0, "type": "electric_scooter", "is_reserved": 0, "lat": 38.9181715, "rental_uris": {"ios": "https://dc.lft.to/lastmile_qr_scan", "android": "https://dc.lft.to/lastmile_qr_scan"}, "fusion_lon": 0.0, "fusion_lat": 0.0, "bike_id": "7a692cf0982ec090843cf1ae2dd1a5d8", "name": "7a692cf0982ec090843cf1ae2dd1a5d8", "lon": -77.0247855}, {"is_disabled": 0, "type": "electric_scooter", "is_reserved": 0, "lat": 38.900833666666664, "rental_uris": {"ios": "https://dc.lft.to/lastmile_qr_scan", "android": "https://dc.lft.to/lastmile_qr_scan"}, "fusion_lon": 0.0, "fusion_lat": 0.0, "bike_id": "2c392cb8d6b2f54d5b9f715e987296e9", "name": "2c392cb8d6b2f54d5b9f715e987296e9", "lon": -77.04906633333333}, {"is_disabled": 0, "type": "electric_scooter", "is_reserved": 0, "lat": 38.903536833333334, "rental_uris": {"ios": "https://dc.lft.to/lastmile_qr_scan", "android": "https://dc.lft.to/lastmile_qr_scan"}, "fusion_lon": 0.0, "fusion_lat": 0.0, "bike_id": "a746b3faa65f7f600bcbe7bad8a9f78e", "name": "a746b3faa65f7f600bcbe7bad8a9f78e", "lon": -77.0111115}, {"is_disabled": 0, "type": "electric_scooter", "is_reserved": 0, "lat": 38.903793666666665, "rental_uris": {"ios": "https://dc.lft.to/lastmile_qr_scan", "android": "https://dc.lft.to/lastmile_qr_scan"}, "fusion_lon": 0.0, "fusion_lat": 0.0, "bike_id": "fa32c866f705bb548a4c98ff1930bf47", "name": "fa32c866f705bb548a4c98ff1930bf47", "lon": -77.04470033333334}, {"is_disabled": 0, "type": "electric_scooter", "is_reserved": 0, "lat": 38.90720483333333, "rental_uris": {"ios": "https://dc.lft.to/lastmile_qr_scan", "android": "https://dc.lft.to/lastmile_qr_scan"}, "fusion_lon": 0.0, "fusion_lat": 0.0, "bike_id": "99723b3f6050fba600399aaceb368c9c", "name": "99723b3f6050fba600399aaceb368c9c", "lon": -77.00071866666667}, {"is_disabled": 0, "type": "electric_scooter", "is_reserved": 0, "lat": 38.916284, "rental_uris": {"ios": "https://dc.lft.to/lastmile_qr_scan", "android": "https://dc.lft.to/lastmile_qr_scan"}, "fusion_lon": 0.0, "fusion_lat": 0.0, "bike_id": "00103d31175997237b060f5a7d33cdbd", "name": "00103d31175997237b060f5a7d33cdbd", "lon": -77.03269666666667}, {"is_disabled": 0, "type": "electric_scooter", "is_reserved": 0, "lat": 38.94161316666667, "rental_uris": {"ios": "https://dc.lft.to/lastmile_qr_scan", "android": "https://dc.lft.to/lastmile_qr_scan"}, "fusion_lon": 0.0, "fusion_lat": 0.0, "bike_id": "55d144fe97016d1dd50b56f21f749515", "name": "55d144fe97016d1dd50b56f21f749515", "lon": -77.092586}, {"is_disabled": 0, "type": "electric_scooter", "is_reserved": 0, "lat": 38.915629, "rental_uris": {"ios": "https://dc.lft.to/lastmile_qr_scan", "android": "https://dc.lft.to/lastmile_qr_scan"}, "fusion_lon": 0.0, "fusion_lat": 0.0, "bike_id": "917e6c10a156102791f20856cca8899a", "name": "917e6c10a156102791f20856cca8899a", "lon": -77.03121716666666}, {"is_disabled": 0, "type": "electric_scooter", "is_reserved": 0, "lat": 38.935733, "rental_uris": {"ios": "https://dc.lft.to/lastmile_qr_scan", "android": "https://dc.lft.to/lastmile_qr_scan"}, "fusion_lon": 0.0, "fusion_lat": 0.0, "bike_id": "20cde32280941bd6b124efccf33444a0", "name": "20cde32280941bd6b124efccf33444a0", "lon": -77.03730733333333}, {"is_disabled": 0, "type": "electric_bike", "is_reserved": 0, "lat": 38.84031983333333, "rental_uris": {"ios": "https://dc.lft.to/lastmile_qr_scan", "android": "https://dc.lft.to/lastmile_qr_scan"}, "fusion_lon": 0.0, "fusion_lat": 0.0, "bike_id": "653b00bb5a025dc64cd1efaf34cf2001", "name": "653b00bb5a025dc64cd1efaf34cf2001", "lon": -76.97584833333333}, {"is_disabled": 0, "type": "electric_scooter", "is_reserved": 0, "lat": 38.89200183333333, "rental_uris": {"ios": "https://dc.lft.to/lastmile_qr_scan", "android": "https://dc.lft.to/lastmile_qr_scan"}, "fusion_lon": 0.0, "fusion_lat": 0.0, "bike_id": "24159a9950ed6f63ef17fd35348158c3", "name": "24159a9950ed6f63ef17fd35348158c3", "lon": -77.00296833333333}, {"is_disabled": 0, "type": "electric_scooter", "is_reserved": 0, "lat": 38.92332833333333, "rental_uris": {"ios": "https://dc.lft.to/lastmile_qr_scan", "android": "https://dc.lft.to/lastmile_qr_scan"}, "fusion_lon": 0.0, "fusion_lat": 0.0, "bike_id": "9e754216ee79df033a588f6a2d01efe2", "name": "9e754216ee79df033a588f6a2d01efe2", "lon": -77.02306083333333}, {"is_disabled": 0, "type": "electric_scooter", "is_reserved": 0, "lat": 38.924838, "rental_uris": {"ios": "https://dc.lft.to/lastmile_qr_scan", "android": "https://dc.lft.to/lastmile_qr_scan"}, "fusion_lon": 0.0, "fusion_lat": 0.0, "bike_id": "615a44fc9324fb28c8f4328cc12eb2fc", "name": "615a44fc9324fb28c8f4328cc12eb2fc", "lon": -77.052145}, {"is_disabled": 0, "type": "electric_scooter", "is_reserved": 0, "lat": 38.90804383333333, "rental_uris": {"ios": "https://dc.lft.to/lastmile_qr_scan", "android": "https://dc.lft.to/lastmile_qr_scan"}, "fusion_lon": 0.0, "fusion_lat": 0.0, "bike_id": "cd442671da59a2c838c4e80471cc693d", "name": "cd442671da59a2c838c4e80471cc693d", "lon": -77.04245516666667}, {"is_disabled": 0, "type": "electric_scooter", "is_reserved": 0, "lat": 38.9063375, "rental_uris": {"ios": "https://dc.lft.to/lastmile_qr_scan", "android": "https://dc.lft.to/lastmile_qr_scan"}, "fusion_lon": 0.0, "fusion_lat": 0.0, "bike_id": "16a6ffff8903acf5a3868f7c62d33b2d", "name": "16a6ffff8903acf5a3868f7c62d33b2d", "lon": -77.0059375}, {"is_disabled": 0, "type": "electric_scooter", "is_reserved": 0, "lat": 38.827903166666665, "rental_uris": {"ios": "https://dc.lft.to/lastmile_qr_scan", "android": "https://dc.lft.to/lastmile_qr_scan"}, "fusion_lon": 0.0, "fusion_lat": 0.0, "bike_id": "bf4a09ad86ed7b32f000d9079ce5ac3c", "name": "bf4a09ad86ed7b32f000d9079ce5ac3c", "lon": -77.0091495}, {"is_disabled": 0, "type": "electric_scooter", "is_reserved": 0, "lat": 38.92482833333333, "rental_uris": {"ios": "https://dc.lft.to/lastmile_qr_scan", "android": "https://dc.lft.to/lastmile_qr_scan"}, "fusion_lon": 0.0, "fusion_lat": 0.0, "bike_id": "a57bf83b726913b19082ebc43d8a209c", "name": "a57bf83b726913b19082ebc43d8a209c", "lon": -77.031846}, {"is_disabled": 0, "type": "electric_scooter", "is_reserved": 0, "lat": 38.87762933333333, "rental_uris": {"ios": "https://dc.lft.to/lastmile_qr_scan", "android": "https://dc.lft.to/lastmile_qr_scan"}, "fusion_lon": 0.0, "fusion_lat": 0.0, "bike_id": "55a14b7e31bc0228a4163e5bee11c877", "name": "55a14b7e31bc0228a4163e5bee11c877", "lon": -76.99382066666666}, {"is_disabled": 0, "type": "electric_scooter", "is_reserved": 0, "lat": 38.934244, "rental_uris": {"ios": "https://dc.lft.to/lastmile_qr_scan", "android": "https://dc.lft.to/lastmile_qr_scan"}, "fusion_lon": 0.0, "fusion_lat": 0.0, "bike_id": "7ca873d6f508ba665abe0fab8c996f9e", "name": "7ca873d6f508ba665abe0fab8c996f9e", "lon": -77.04004266666666}, {"is_disabled": 0, "type": "electric_bike", "is_reserved": 0, "lat": 38.9164665, "rental_uris": {"ios": "https://dc.lft.to/lastmile_qr_scan", "android": "https://dc.lft.to/lastmile_qr_scan"}, "fusion_lon": 0.0, "fusion_lat": 0.0, "bike_id": "3a907fe66377314429a994097b24236d", "name": "3a907fe66377314429a994097b24236d", "lon": -76.97189483333334}, {"is_disabled": 0, "type": "electric_scooter", "is_reserved": 0, "lat": 38.9203495, "rental_uris": {"ios": "https://dc.lft.to/lastmile_qr_scan", "android": "https://dc.lft.to/lastmile_qr_scan"}, "fusion_lon": 0.0, "fusion_lat": 0.0, "bike_id": "72a610f196f59323a96a1bc21ea2954d", "name": "72a610f196f59323a96a1bc21ea2954d", "lon": -77.03390016666667}, {"is_disabled": 0, "type": "electric_bike", "is_reserved": 0, "lat": 38.87929116666667, "rental_uris": {"ios": "https://dc.lft.to/lastmile_qr_scan", "android": "https://dc.lft.to/lastmile_qr_scan"}, "fusion_lon": 0.0, "fusion_lat": 0.0, "bike_id": "d40e34073b61645e06b2f65739dae526", "name": "d40e34073b61645e06b2f65739dae526", "lon": -77.02374633333334}, {"is_disabled": 0, "type": "electric_scooter", "is_reserved": 0, "lat": 38.90944733333333, "rental_uris": {"ios": "https://dc.lft.to/lastmile_qr_scan", "android": "https://dc.lft.to/lastmile_qr_scan"}, "fusion_lon": 0.0, "fusion_lat": 0.0, "bike_id": "93ea5971e637257d0cb166dbc3d1a865", "name": "93ea5971e637257d0cb166dbc3d1a865", "lon": -77.04697883333333}, {"is_disabled": 0, "type": "electric_bike", "is_reserved": 0, "lat": 38.87283683333333, "rental_uris": {"ios": "https://dc.lft.to/lastmile_qr_scan", "android": "https://dc.lft.to/lastmile_qr_scan"}, "fusion_lon": 0.0, "fusion_lat": 0.0, "bike_id": "5cbe835b7868ab469047f0ee519a418d", "name": "5cbe835b7868ab469047f0ee519a418d", "lon": -77.2331965}, {"is_disabled": 0, "type": "electric_scooter", "is_reserved": 0, "lat": 38.8922645, "rental_uris": {"ios": "https://dc.lft.to/lastmile_qr_scan", "android": "https://dc.lft.to/lastmile_qr_scan"}, "fusion_lon": 0.0, "fusion_lat": 0.0, "bike_id": "7bebf46354af8dbee62bbea53eb8b091", "name": "7bebf46354af8dbee62bbea53eb8b091", "lon": -77.04327666666667}, {"is_disabled": 0, "type": "electric_bike", "is_reserved": 0, "lat": 38.88191916666667, "rental_uris": {"ios": "https://dc.lft.to/lastmile_qr_scan", "android": "https://dc.lft.to/lastmile_qr_scan"}, "fusion_lon": 0.0, "fusion_lat": 0.0, "bike_id": "30be529a3fee2a6b7669b8365bb592fd", "name": "30be529a3fee2a6b7669b8365bb592fd", "lon": -77.2448425}, {"is_disabled": 0, "type": "electric_scooter", "is_reserved": 0, "lat": 38.911153166666665, "rental_uris": {"ios": "https://dc.lft.to/lastmile_qr_scan", "android": "https://dc.lft.to/lastmile_qr_scan"}, "fusion_lon": 0.0, "fusion_lat": 0.0, "bike_id": "00c36955afec82b0f25ff52837706bbb", "name": "00c36955afec82b0f25ff52837706bbb", "lon": -77.03809283333334}, {"is_disabled": 0, "type": "electric_scooter", "is_reserved": 0, "lat": 38.961604333333334, "rental_uris": {"ios": "https://dc.lft.to/lastmile_qr_scan", "android": "https://dc.lft.to/lastmile_qr_scan"}, "fusion_lon": 0.0, "fusion_lat": 0.0, "bike_id": "a24a08777823807df6617d1e8e1450a3", "name": "a24a08777823807df6617d1e8e1450a3", "lon": -77.032383}, {"is_disabled": 0, "type": "electric_scooter", "is_reserved": 0, "lat": 38.8624795, "rental_uris": {"ios": "https://dc.lft.to/lastmile_qr_scan", "android": "https://dc.lft.to/lastmile_qr_scan"}, "fusion_lon": 0.0, "fusion_lat": 0.0, "bike_id": "4b182015bf8331939de9410bc1fea0e6", "name": "4b182015bf8331939de9410bc1fea0e6", "lon": -76.995273}, {"is_disabled": 0, "type": "electric_scooter", "is_reserved": 0, "lat": 38.89981783333333, "rental_uris": {"ios": "https://dc.lft.to/lastmile_qr_scan", "android": "https://dc.lft.to/lastmile_qr_scan"}, "fusion_lon": 0.0, "fusion_lat": 0.0, "bike_id": "04c4c7e96ba98069b8cb718dbd8410bd", "name": "04c4c7e96ba98069b8cb718dbd8410bd", "lon": -77.00360683333334}, {"is_disabled": 0, "type": "electric_scooter", "is_reserved": 0, "lat": 38.90470633333334, "rental_uris": {"ios": "https://dc.lft.to/lastmile_qr_scan", "android": "https://dc.lft.to/lastmile_qr_scan"}, "fusion_lon": 0.0, "fusion_lat": 0.0, "bike_id": "34caa12ed0b146ea5202644bd4d757a6", "name": "34caa12ed0b146ea5202644bd4d757a6", "lon": -77.02816283333334}, {"is_disabled": 0, "type": "electric_scooter", "is_reserved": 0, "lat": 38.890444, "rental_uris": {"ios": "https://dc.lft.to/lastmile_qr_scan", "android": "https://dc.lft.to/lastmile_qr_scan"}, "fusion_lon": 0.0, "fusion_lat": 0.0, "bike_id": "8c0931b5d7079d4fdc3bfab4b9d92aae", "name": "8c0931b5d7079d4fdc3bfab4b9d92aae", "lon": -76.9375005}, {"is_disabled": 0, "type": "electric_scooter", "is_reserved": 0, "lat": 38.883354, "rental_uris": {"ios": "https://dc.lft.to/lastmile_qr_scan", "android": "https://dc.lft.to/lastmile_qr_scan"}, "fusion_lon": 0.0, "fusion_lat": 0.0, "bike_id": "535ed3ea0ffb5f95590cb20eb8f7bc18", "name": "535ed3ea0ffb5f95590cb20eb8f7bc18", "lon": -77.02178866666667}, {"is_disabled": 0, "type": "electric_scooter", "is_reserved": 0, "lat": 38.91815233333333, "rental_uris": {"ios": "https://dc.lft.to/lastmile_qr_scan", "android": "https://dc.lft.to/lastmile_qr_scan"}, "fusion_lon": 0.0, "fusion_lat": 0.0, "bike_id": "947fe5bdb7501ffb52054b179c5e1012", "name": "947fe5bdb7501ffb52054b179c5e1012", "lon": -77.0271335}, {"is_disabled": 0, "type": "electric_scooter", "is_reserved": 0, "lat": 38.93023616666667, "rental_uris": {"ios": "https://dc.lft.to/lastmile_qr_scan", "android": "https://dc.lft.to/lastmile_qr_scan"}, "fusion_lon": 0.0, "fusion_lat": 0.0, "bike_id": "40a51f55e7cece9c291701d2313494e1", "name": "40a51f55e7cece9c291701d2313494e1", "lon": -77.0445965}, {"is_disabled": 0, "type": "electric_scooter", "is_reserved": 0, "lat": 38.863518, "rental_uris": {"ios": "https://dc.lft.to/lastmile_qr_scan", "android": "https://dc.lft.to/lastmile_qr_scan"}, "fusion_lon": 0.0, "fusion_lat": 0.0, "bike_id": "04d3f1197949237457bb902704b5ce2c", "name": "04d3f1197949237457bb902704b5ce2c", "lon": -76.9791135}, {"is_disabled": 0, "type": "electric_scooter", "is_reserved": 0, "lat": 38.89224766666667, "rental_uris": {"ios": "https://dc.lft.to/lastmile_qr_scan", "android": "https://dc.lft.to/lastmile_qr_scan"}, "fusion_lon": 0.0, "fusion_lat": 0.0, "bike_id": "2df2ed62360626415b03014a5e95bfc3", "name": "2df2ed62360626415b03014a5e95bfc3", "lon": -77.04185}, {"is_disabled": 0, "type": "electric_scooter", "is_reserved": 0, "lat": 38.8951775, "rental_uris": {"ios": "https://dc.lft.to/lastmile_qr_scan", "android": "https://dc.lft.to/lastmile_qr_scan"}, "fusion_lon": 0.0, "fusion_lat": 0.0, "bike_id": "1d8200d101ce63784d815be0ffdad72b", "name": "1d8200d101ce63784d815be0ffdad72b", "lon": -76.97732983333333}, {"is_disabled": 0, "type": "electric_scooter", "is_reserved": 0, "lat": 38.88650116666667, "rental_uris": {"ios": "https://dc.lft.to/lastmile_qr_scan", "android": "https://dc.lft.to/lastmile_qr_scan"}, "fusion_lon": 0.0, "fusion_lat": 0.0, "bike_id": "d8694152fcd934041229a311704ca7d1", "name": "d8694152fcd934041229a311704ca7d1", "lon": -77.03355533333334}, {"is_disabled": 0, "type": "electric_scooter", "is_reserved": 0, "lat": 38.8747735, "rental_uris": {"ios": "https://dc.lft.to/lastmile_qr_scan", "android": "https://dc.lft.to/lastmile_qr_scan"}, "fusion_lon": 0.0, "fusion_lat": 0.0, "bike_id": "4b29cca3b15f1f01baa088623a3274d9", "name": "4b29cca3b15f1f01baa088623a3274d9", "lon": -77.00486366666667}, {"is_disabled": 0, "type": "electric_scooter", "is_reserved": 0, "lat": 38.90036083333333, "rental_uris": {"ios": "https://dc.lft.to/lastmile_qr_scan", "android": "https://dc.lft.to/lastmile_qr_scan"}, "fusion_lon": 0.0, "fusion_lat": 0.0, "bike_id": "3a1d0c112f8e0e54a3b0d3abcaabf837", "name": "3a1d0c112f8e0e54a3b0d3abcaabf837", "lon": -76.9962085}, {"is_disabled": 0, "type": "electric_scooter", "is_reserved": 0, "lat": 38.95276916666667, "rental_uris": {"ios": "https://dc.lft.to/lastmile_qr_scan", "android": "https://dc.lft.to/lastmile_qr_scan"}, "fusion_lon": 0.0, "fusion_lat": 0.0, "bike_id": "ca399dd9fd3d1e4b3b7a5e8be00b7722", "name": "ca399dd9fd3d1e4b3b7a5e8be00b7722", "lon": -77.06868733333333}, {"is_disabled": 0, "type": "electric_scooter", "is_reserved": 0, "lat": 38.92247033333334, "rental_uris": {"ios": "https://dc.lft.to/lastmile_qr_scan", "android": "https://dc.lft.to/lastmile_qr_scan"}, "fusion_lon": 0.0, "fusion_lat": 0.0, "bike_id": "c4ed813da309d6aedbcfd779d84d12d8", "name": "c4ed813da309d6aedbcfd779d84d12d8", "lon": -77.030851}, {"is_disabled": 0, "type": "electric_scooter", "is_reserved": 0, "lat": 38.9542635, "rental_uris": {"ios": "https://dc.lft.to/lastmile_qr_scan", "android": "https://dc.lft.to/lastmile_qr_scan"}, "fusion_lon": 0.0, "fusion_lat": 0.0, "bike_id": "1ad01fc19aa003ade3bbba39e27a531b", "name": "1ad01fc19aa003ade3bbba39e27a531b", "lon": -77.0276605}, {"is_disabled": 0, "type": "electric_scooter", "is_reserved": 0, "lat": 38.89894183333333, "rental_uris": {"ios": "https://dc.lft.to/lastmile_qr_scan", "android": "https://dc.lft.to/lastmile_qr_scan"}, "fusion_lon": 0.0, "fusion_lat": 0.0, "bike_id": "cb4986fdf6201af3e0476c792e0da694", "name": "cb4986fdf6201af3e0476c792e0da694", "lon": -76.93360033333333}, {"is_disabled": 0, "type": "electric_scooter", "is_reserved": 0, "lat": 38.9234725, "rental_uris": {"ios": "https://dc.lft.to/lastmile_qr_scan", "android": "https://dc.lft.to/lastmile_qr_scan"}, "fusion_lon": 0.0, "fusion_lat": 0.0, "bike_id": "7a0084e5c5de6fb8d9b2ad13532fb267", "name": "7a0084e5c5de6fb8d9b2ad13532fb267", "lon": -77.05123216666667}, {"is_disabled": 0, "type": "electric_scooter", "is_reserved": 0, "lat": 38.92867483333333, "rental_uris": {"ios": "https://dc.lft.to/lastmile_qr_scan", "android": "https://dc.lft.to/lastmile_qr_scan"}, "fusion_lon": 0.0, "fusion_lat": 0.0, "bike_id": "1f6ddc7c49d3cf61c2ba3bc198e57daf", "name": "1f6ddc7c49d3cf61c2ba3bc198e57daf", "lon": -77.03249066666666}, {"is_disabled": 0, "type": "electric_scooter", "is_reserved": 0, "lat": 38.90255716666667, "rental_uris": {"ios": "https://dc.lft.to/lastmile_qr_scan", "android": "https://dc.lft.to/lastmile_qr_scan"}, "fusion_lon": 0.0, "fusion_lat": 0.0, "bike_id": "6c78d3ec55b6976f2f8bbc48ffdda0ec", "name": "6c78d3ec55b6976f2f8bbc48ffdda0ec", "lon": -76.977036}, {"is_disabled": 0, "type": "electric_scooter", "is_reserved": 0, "lat": 38.927249, "rental_uris": {"ios": "https://dc.lft.to/lastmile_qr_scan", "android": "https://dc.lft.to/lastmile_qr_scan"}, "fusion_lon": 0.0, "fusion_lat": 0.0, "bike_id": "de0bce680f264759781df81f86103af6", "name": "de0bce680f264759781df81f86103af6", "lon": -77.036685}, {"is_disabled": 0, "type": "electric_scooter", "is_reserved": 0, "lat": 38.89230333333333, "rental_uris": {"ios": "https://dc.lft.to/lastmile_qr_scan", "android": "https://dc.lft.to/lastmile_qr_scan"}, "fusion_lon": 0.0, "fusion_lat": 0.0, "bike_id": "b7d2988ec4f72708a06318dd1e43e60b", "name": "b7d2988ec4f72708a06318dd1e43e60b", "lon": -77.050019}, {"is_disabled": 0, "type": "electric_scooter", "is_reserved": 0, "lat": 38.908347166666665, "rental_uris": {"ios": "https://dc.lft.to/lastmile_qr_scan", "android": "https://dc.lft.to/lastmile_qr_scan"}, "fusion_lon": 0.0, "fusion_lat": 0.0, "bike_id": "1fe19cee4c2bf17d2f601c7bb03429fd", "name": "1fe19cee4c2bf17d2f601c7bb03429fd", "lon": -77.03680716666666}, {"is_disabled": 0, "type": "electric_scooter", "is_reserved": 0, "lat": 38.916651, "rental_uris": {"ios": "https://dc.lft.to/lastmile_qr_scan", "android": "https://dc.lft.to/lastmile_qr_scan"}, "fusion_lon": 0.0, "fusion_lat": 0.0, "bike_id": "1791e63a2a41c45a8915f83413df2f53", "name": "1791e63a2a41c45a8915f83413df2f53", "lon": -77.0418185}, {"is_disabled": 0, "type": "electric_bike", "is_reserved": 0, "lat": 38.9588125, "rental_uris": {"ios": "https://dc.lft.to/lastmile_qr_scan", "android": "https://dc.lft.to/lastmile_qr_scan"}, "fusion_lon": 0.0, "fusion_lat": 0.0, "bike_id": "7885f06cadcee9830c9981094409511d", "name": "7885f06cadcee9830c9981094409511d", "lon": -77.010324}, {"is_disabled": 0, "type": "electric_scooter", "is_reserved": 0, "lat": 38.90058466666667, "rental_uris": {"ios": "https://dc.lft.to/lastmile_qr_scan", "android": "https://dc.lft.to/lastmile_qr_scan"}, "fusion_lon": 0.0, "fusion_lat": 0.0, "bike_id": "5c77ffe56553300fcb35fe56c2f6aec2", "name": "5c77ffe56553300fcb35fe56c2f6aec2", "lon": -77.04658216666667}, {"is_disabled": 0, "type": "electric_scooter", "is_reserved": 0, "lat": 38.90830616666667, "rental_uris": {"ios": "https://dc.lft.to/lastmile_qr_scan", "android": "https://dc.lft.to/lastmile_qr_scan"}, "fusion_lon": 0.0, "fusion_lat": 0.0, "bike_id": "d20da661f3689323d71d09ec9339aba6", "name": "d20da661f3689323d71d09ec9339aba6", "lon": -76.9968425}, {"is_disabled": 0, "type": "electric_scooter", "is_reserved": 0, "lat": 38.923744666666664, "rental_uris": {"ios": "https://dc.lft.to/lastmile_qr_scan", "android": "https://dc.lft.to/lastmile_qr_scan"}, "fusion_lon": 0.0, "fusion_lat": 0.0, "bike_id": "3db140c8e60da906631451cc23e8c39a", "name": "3db140c8e60da906631451cc23e8c39a", "lon": -77.03132466666666}, {"is_disabled": 0, "type": "electric_scooter", "is_reserved": 0, "lat": 38.91360066666667, "rental_uris": {"ios": "https://dc.lft.to/lastmile_qr_scan", "android": "https://dc.lft.to/lastmile_qr_scan"}, "fusion_lon": 0.0, "fusion_lat": 0.0, "bike_id": "4b984e6b80712b035b9f1de2b7cc6918", "name": "4b984e6b80712b035b9f1de2b7cc6918", "lon": -77.03861716666667}, {"is_disabled": 0, "type": "electric_scooter", "is_reserved": 0, "lat": 38.9418485, "rental_uris": {"ios": "https://dc.lft.to/lastmile_qr_scan", "android": "https://dc.lft.to/lastmile_qr_scan"}, "fusion_lon": 0.0, "fusion_lat": 0.0, "bike_id": "7b6ccbffdcec73d9246a4a66bd66b588", "name": "7b6ccbffdcec73d9246a4a66bd66b588", "lon": -77.02490216666666}, {"is_disabled": 0, "type": "electric_scooter", "is_reserved": 0, "lat": 38.910453, "rental_uris": {"ios": "https://dc.lft.to/lastmile_qr_scan", "android": "https://dc.lft.to/lastmile_qr_scan"}, "fusion_lon": 0.0, "fusion_lat": 0.0, "bike_id": "90d840001f9571cd116964d59f6f7b69", "name": "90d840001f9571cd116964d59f6f7b69", "lon": -77.04355816666667}, {"is_disabled": 0, "type": "electric_scooter", "is_reserved": 0, "lat": 38.90870916666667, "rental_uris": {"ios": "https://dc.lft.to/lastmile_qr_scan", "android": "https://dc.lft.to/lastmile_qr_scan"}, "fusion_lon": 0.0, "fusion_lat": 0.0, "bike_id": "8a116edd8d8a9057bb9e54cee5826287", "name": "8a116edd8d8a9057bb9e54cee5826287", "lon": -76.98329983333333}, {"is_disabled": 0, "type": "electric_scooter", "is_reserved": 0, "lat": 38.91745733333333, "rental_uris": {"ios": "https://dc.lft.to/lastmile_qr_scan", "android": "https://dc.lft.to/lastmile_qr_scan"}, "fusion_lon": 0.0, "fusion_lat": 0.0, "bike_id": "bae8ea938a29a55ea2fbf725f51e05de", "name": "bae8ea938a29a55ea2fbf725f51e05de", "lon": -77.017097}, {"is_disabled": 0, "type": "electric_scooter", "is_reserved": 0, "lat": 38.9300925, "rental_uris": {"ios": "https://dc.lft.to/lastmile_qr_scan", "android": "https://dc.lft.to/lastmile_qr_scan"}, "fusion_lon": 0.0, "fusion_lat": 0.0, "bike_id": "ebe29ffa4b4952601aa2003ebc8e5f27", "name": "ebe29ffa4b4952601aa2003ebc8e5f27", "lon": -77.08270466666667}, {"is_disabled": 0, "type": "electric_scooter", "is_reserved": 0, "lat": 38.904608, "rental_uris": {"ios": "https://dc.lft.to/lastmile_qr_scan", "android": "https://dc.lft.to/lastmile_qr_scan"}, "fusion_lon": 0.0, "fusion_lat": 0.0, "bike_id": "4c6ed2ed6c04e2b60804f7c5dc19d7c2", "name": "4c6ed2ed6c04e2b60804f7c5dc19d7c2", "lon": -77.034699}, {"is_disabled": 0, "type": "electric_scooter", "is_reserved": 0, "lat": 38.91911966666667, "rental_uris": {"ios": "https://dc.lft.to/lastmile_qr_scan", "android": "https://dc.lft.to/lastmile_qr_scan"}, "fusion_lon": 0.0, "fusion_lat": 0.0, "bike_id": "0c275ad14d0425d2c707c75df63ff0cc", "name": "0c275ad14d0425d2c707c75df63ff0cc", "lon": -77.04600116666667}, {"is_disabled": 0, "type": "electric_scooter", "is_reserved": 0, "lat": 38.90012483333334, "rental_uris": {"ios": "https://dc.lft.to/lastmile_qr_scan", "android": "https://dc.lft.to/lastmile_qr_scan"}, "fusion_lon": 0.0, "fusion_lat": 0.0, "bike_id": "4540258d9026e232367fda00cd7b5c32", "name": "4540258d9026e232367fda00cd7b5c32", "lon": -77.040306}, {"is_disabled": 0, "type": "electric_scooter", "is_reserved": 0, "lat": 38.928753666666665, "rental_uris": {"ios": "https://dc.lft.to/lastmile_qr_scan", "android": "https://dc.lft.to/lastmile_qr_scan"}, "fusion_lon": 0.0, "fusion_lat": 0.0, "bike_id": "a9b5b25df9dce6e12063886e60c653dd", "name": "a9b5b25df9dce6e12063886e60c653dd", "lon": -77.03348383333334}, {"is_disabled": 0, "type": "electric_scooter", "is_reserved": 0, "lat": 38.93445783333333, "rental_uris": {"ios": "https://dc.lft.to/lastmile_qr_scan", "android": "https://dc.lft.to/lastmile_qr_scan"}, "fusion_lon": 0.0, "fusion_lat": 0.0, "bike_id": "edcc2bd2181472d6cb65da2d3d3d282c", "name": "edcc2bd2181472d6cb65da2d3d3d282c", "lon": -77.02980166666667}, {"is_disabled": 0, "type": "electric_scooter", "is_reserved": 0, "lat": 38.89483283333333, "rental_uris": {"ios": "https://dc.lft.to/lastmile_qr_scan", "android": "https://dc.lft.to/lastmile_qr_scan"}, "fusion_lon": 0.0, "fusion_lat": 0.0, "bike_id": "a9cbc642ac9535acb5730c5a155aa19e", "name": "a9cbc642ac9535acb5730c5a155aa19e", "lon": -77.02578983333333}, {"is_disabled": 0, "type": "electric_scooter", "is_reserved": 0, "lat": 38.9114525, "rental_uris": {"ios": "https://dc.lft.to/lastmile_qr_scan", "android": "https://dc.lft.to/lastmile_qr_scan"}, "fusion_lon": 0.0, "fusion_lat": 0.0, "bike_id": "3a0f9ca7185f2a0dd5ccffa16f3cc984", "name": "3a0f9ca7185f2a0dd5ccffa16f3cc984", "lon": -77.01686316666667}, {"is_disabled": 0, "type": "electric_scooter", "is_reserved": 0, "lat": 38.900609833333334, "rental_uris": {"ios": "https://dc.lft.to/lastmile_qr_scan", "android": "https://dc.lft.to/lastmile_qr_scan"}, "fusion_lon": 0.0, "fusion_lat": 0.0, "bike_id": "7476b3fed621cb57889e424ec6c7c69c", "name": "7476b3fed621cb57889e424ec6c7c69c", "lon": -77.0488845}, {"is_disabled": 0, "type": "electric_scooter", "is_reserved": 0, "lat": 38.896158666666665, "rental_uris": {"ios": "https://dc.lft.to/lastmile_qr_scan", "android": "https://dc.lft.to/lastmile_qr_scan"}, "fusion_lon": 0.0, "fusion_lat": 0.0, "bike_id": "490d3b8c5225091052539a2131de95d5", "name": "490d3b8c5225091052539a2131de95d5", "lon": -77.02248916666667}, {"is_disabled": 0, "type": "electric_scooter", "is_reserved": 0, "lat": 38.890003666666665, "rental_uris": {"ios": "https://dc.lft.to/lastmile_qr_scan", "android": "https://dc.lft.to/lastmile_qr_scan"}, "fusion_lon": 0.0, "fusion_lat": 0.0, "bike_id": "5679a3deb84eb19524a99376d61af26d", "name": "5679a3deb84eb19524a99376d61af26d", "lon": -76.95942683333334}, {"is_disabled": 0, "type": "electric_scooter", "is_reserved": 0, "lat": 38.918182, "rental_uris": {"ios": "https://dc.lft.to/lastmile_qr_scan", "android": "https://dc.lft.to/lastmile_qr_scan"}, "fusion_lon": 0.0, "fusion_lat": 0.0, "bike_id": "24e2608535acad2e4e581ee83b15ef7a", "name": "24e2608535acad2e4e581ee83b15ef7a", "lon": -77.03250166666666}, {"is_disabled": 0, "type": "electric_scooter", "is_reserved": 0, "lat": 38.9073265, "rental_uris": {"ios": "https://dc.lft.to/lastmile_qr_scan", "android": "https://dc.lft.to/lastmile_qr_scan"}, "fusion_lon": 0.0, "fusion_lat": 0.0, "bike_id": "fa5a5536b775cc03f586b33bf49e1af1", "name": "fa5a5536b775cc03f586b33bf49e1af1", "lon": -77.0297015}, {"is_disabled": 0, "type": "electric_scooter", "is_reserved": 0, "lat": 38.90688983333333, "rental_uris": {"ios": "https://dc.lft.to/lastmile_qr_scan", "android": "https://dc.lft.to/lastmile_qr_scan"}, "fusion_lon": 0.0, "fusion_lat": 0.0, "bike_id": "3f2f7977cb18f8d0bc8b0b7cb75bce2c", "name": "3f2f7977cb18f8d0bc8b0b7cb75bce2c", "lon": -77.02718233333333}, {"is_disabled": 0, "type": "electric_scooter", "is_reserved": 0, "lat": 38.9007735, "rental_uris": {"ios": "https://dc.lft.to/lastmile_qr_scan", "android": "https://dc.lft.to/lastmile_qr_scan"}, "fusion_lon": 0.0, "fusion_lat": 0.0, "bike_id": "64c2e033fcd1ef18b4bdde3db22e9e80", "name": "64c2e033fcd1ef18b4bdde3db22e9e80", "lon": -77.02710883333333}, {"is_disabled": 0, "type": "electric_scooter", "is_reserved": 0, "lat": 38.90278083333333, "rental_uris": {"ios": "https://dc.lft.to/lastmile_qr_scan", "android": "https://dc.lft.to/lastmile_qr_scan"}, "fusion_lon": 0.0, "fusion_lat": 0.0, "bike_id": "d15bfae54a420de82e4afcf860a7d36d", "name": "d15bfae54a420de82e4afcf860a7d36d", "lon": -77.0452675}, {"is_disabled": 0, "type": "electric_scooter", "is_reserved": 0, "lat": 38.9257315, "rental_uris": {"ios": "https://dc.lft.to/lastmile_qr_scan", "android": "https://dc.lft.to/lastmile_qr_scan"}, "fusion_lon": 0.0, "fusion_lat": 0.0, "bike_id": "f984d9fbf395ce84493346e4a4234fe2", "name": "f984d9fbf395ce84493346e4a4234fe2", "lon": -77.022864}, {"is_disabled": 0, "type": "electric_bike", "is_reserved": 0, "lat": 38.842738, "rental_uris": {"ios": "https://dc.lft.to/lastmile_qr_scan", "android": "https://dc.lft.to/lastmile_qr_scan"}, "fusion_lon": 0.0, "fusion_lat": 0.0, "bike_id": "659410edb1ddfd4f36123362de416913", "name": "659410edb1ddfd4f36123362de416913", "lon": -76.98840766666666}, {"is_disabled": 0, "type": "electric_bike", "is_reserved": 0, "lat": 38.838597666666665, "rental_uris": {"ios": "https://dc.lft.to/lastmile_qr_scan", "android": "https://dc.lft.to/lastmile_qr_scan"}, "fusion_lon": 0.0, "fusion_lat": 0.0, "bike_id": "0061f4c035be06ec4528e1caedfc5681", "name": "0061f4c035be06ec4528e1caedfc5681", "lon": -76.99710333333333}, {"is_disabled": 0, "type": "electric_bike", "is_reserved": 0, "lat": 38.936394166666666, "rental_uris": {"ios": "https://dc.lft.to/lastmile_qr_scan", "android": "https://dc.lft.to/lastmile_qr_scan"}, "fusion_lon": 0.0, "fusion_lat": 0.0, "bike_id": "9d03791e519dc347a8da80566e7ffa30", "name": "9d03791e519dc347a8da80566e7ffa30", "lon": -77.07823266666666}, {"is_disabled": 0, "type": "electric_scooter", "is_reserved": 0, "lat": 38.919579166666665, "rental_uris": {"ios": "https://dc.lft.to/lastmile_qr_scan", "android": "https://dc.lft.to/lastmile_qr_scan"}, "fusion_lon": 0.0, "fusion_lat": 0.0, "bike_id": "765290bb646d95e9c4bdd2ce7f268f37", "name": "765290bb646d95e9c4bdd2ce7f268f37", "lon": -77.02365416666666}, {"is_disabled": 0, "type": "electric_scooter", "is_reserved": 0, "lat": 38.916907333333334, "rental_uris": {"ios": "https://dc.lft.to/lastmile_qr_scan", "android": "https://dc.lft.to/lastmile_qr_scan"}, "fusion_lon": 0.0, "fusion_lat": 0.0, "bike_id": "5e39376fbc193c9fe0ffcb93514fa828", "name": "5e39376fbc193c9fe0ffcb93514fa828", "lon": -77.04600333333333}, {"is_disabled": 0, "type": "electric_scooter", "is_reserved": 0, "lat": 38.91627016666666, "rental_uris": {"ios": "https://dc.lft.to/lastmile_qr_scan", "android": "https://dc.lft.to/lastmile_qr_scan"}, "fusion_lon": 0.0, "fusion_lat": 0.0, "bike_id": "93ad337644fcb6e9ed4ec53846ed9317", "name": "93ad337644fcb6e9ed4ec53846ed9317", "lon": -77.04262166666666}, {"is_disabled": 0, "type": "electric_scooter", "is_reserved": 0, "lat": 38.9052135, "rental_uris": {"ios": "https://dc.lft.to/lastmile_qr_scan", "android": "https://dc.lft.to/lastmile_qr_scan"}, "fusion_lon": 0.0, "fusion_lat": 0.0, "bike_id": "701cec0098a006338891720166e404c3", "name": "701cec0098a006338891720166e404c3", "lon": -77.05899733333334}, {"is_disabled": 0, "type": "electric_scooter", "is_reserved": 0, "lat": 38.93937483333333, "rental_uris": {"ios": "https://dc.lft.to/lastmile_qr_scan", "android": "https://dc.lft.to/lastmile_qr_scan"}, "fusion_lon": 0.0, "fusion_lat": 0.0, "bike_id": "739182915c05d805577d2dc64cb3480a", "name": "739182915c05d805577d2dc64cb3480a", "lon": -77.0526415}, {"is_disabled": 0, "type": "electric_scooter", "is_reserved": 0, "lat": 38.9221045, "rental_uris": {"ios": "https://dc.lft.to/lastmile_qr_scan", "android": "https://dc.lft.to/lastmile_qr_scan"}, "fusion_lon": 0.0, "fusion_lat": 0.0, "bike_id": "55009e48fa5a8f77fdbe938c7d00476f", "name": "55009e48fa5a8f77fdbe938c7d00476f", "lon": -77.03889666666667}, {"is_disabled": 0, "type": "electric_scooter", "is_reserved": 0, "lat": 38.907612, "rental_uris": {"ios": "https://dc.lft.to/lastmile_qr_scan", "android": "https://dc.lft.to/lastmile_qr_scan"}, "fusion_lon": 0.0, "fusion_lat": 0.0, "bike_id": "c78fb14252f9ee4d5f9872cb30afee06", "name": "c78fb14252f9ee4d5f9872cb30afee06", "lon": -77.034463}, {"is_disabled": 0, "type": "electric_scooter", "is_reserved": 0, "lat": 38.92337283333333, "rental_uris": {"ios": "https://dc.lft.to/lastmile_qr_scan", "android": "https://dc.lft.to/lastmile_qr_scan"}, "fusion_lon": 0.0, "fusion_lat": 0.0, "bike_id": "66fc4d2e0ad6b78985fd93db19455333", "name": "66fc4d2e0ad6b78985fd93db19455333", "lon": -77.02309183333334}, {"is_disabled": 0, "type": "electric_scooter", "is_reserved": 0, "lat": 38.906255, "rental_uris": {"ios": "https://dc.lft.to/lastmile_qr_scan", "android": "https://dc.lft.to/lastmile_qr_scan"}, "fusion_lon": 0.0, "fusion_lat": 0.0, "bike_id": "3281678439d64f3dbafa808abf176025", "name": "3281678439d64f3dbafa808abf176025", "lon": -77.03967533333334}, {"is_disabled": 0, "type": "electric_scooter", "is_reserved": 0, "lat": 38.90828333333333, "rental_uris": {"ios": "https://dc.lft.to/lastmile_qr_scan", "android": "https://dc.lft.to/lastmile_qr_scan"}, "fusion_lon": 0.0, "fusion_lat": 0.0, "bike_id": "228eb759593e873264af31a71cfb5467", "name": "228eb759593e873264af31a71cfb5467", "lon": -77.01802316666667}, {"is_disabled": 0, "type": "electric_scooter", "is_reserved": 0, "lat": 38.926286, "rental_uris": {"ios": "https://dc.lft.to/lastmile_qr_scan", "android": "https://dc.lft.to/lastmile_qr_scan"}, "fusion_lon": 0.0, "fusion_lat": 0.0, "bike_id": "aec6ae97b68a1f054a10446a17692005", "name": "aec6ae97b68a1f054a10446a17692005", "lon": -77.03500516666666}, {"is_disabled": 0, "type": "electric_scooter", "is_reserved": 0, "lat": 38.926452166666664, "rental_uris": {"ios": "https://dc.lft.to/lastmile_qr_scan", "android": "https://dc.lft.to/lastmile_qr_scan"}, "fusion_lon": 0.0, "fusion_lat": 0.0, "bike_id": "97da33553302fb22a056637681019367", "name": "97da33553302fb22a056637681019367", "lon": -77.03702116666666}, {"is_disabled": 0, "type": "electric_scooter", "is_reserved": 0, "lat": 38.91632166666667, "rental_uris": {"ios": "https://dc.lft.to/lastmile_qr_scan", "android": "https://dc.lft.to/lastmile_qr_scan"}, "fusion_lon": 0.0, "fusion_lat": 0.0, "bike_id": "d349732f9ec6a2c53d1ea8e67fd3507d", "name": "d349732f9ec6a2c53d1ea8e67fd3507d", "lon": -77.00081966666667}, {"is_disabled": 0, "type": "electric_scooter", "is_reserved": 0, "lat": 38.88380033333333, "rental_uris": {"ios": "https://dc.lft.to/lastmile_qr_scan", "android": "https://dc.lft.to/lastmile_qr_scan"}, "fusion_lon": 0.0, "fusion_lat": 0.0, "bike_id": "48d73abd6a2c57a31fbbb294c46c318a", "name": "48d73abd6a2c57a31fbbb294c46c318a", "lon": -77.02622916666667}, {"is_disabled": 0, "type": "electric_scooter", "is_reserved": 0, "lat": 38.92034566666667, "rental_uris": {"ios": "https://dc.lft.to/lastmile_qr_scan", "android": "https://dc.lft.to/lastmile_qr_scan"}, "fusion_lon": 0.0, "fusion_lat": 0.0, "bike_id": "3f8457bc02067f4f5b4de63d6f79c5fd", "name": "3f8457bc02067f4f5b4de63d6f79c5fd", "lon": -77.02584233333333}, {"is_disabled": 0, "type": "electric_scooter", "is_reserved": 0, "lat": 38.925632, "rental_uris": {"ios": "https://dc.lft.to/lastmile_qr_scan", "android": "https://dc.lft.to/lastmile_qr_scan"}, "fusion_lon": 0.0, "fusion_lat": 0.0, "bike_id": "b43f3fb59893e1881198ece5876bd5ae", "name": "b43f3fb59893e1881198ece5876bd5ae", "lon": -76.99639666666667}, {"is_disabled": 0, "type": "electric_scooter", "is_reserved": 0, "lat": 38.936404, "rental_uris": {"ios": "https://dc.lft.to/lastmile_qr_scan", "android": "https://dc.lft.to/lastmile_qr_scan"}, "fusion_lon": 0.0, "fusion_lat": 0.0, "bike_id": "881c3ef4399caecd476c99df123279b3", "name": "881c3ef4399caecd476c99df123279b3", "lon": -77.03661866666667}, {"is_disabled": 0, "type": "electric_bike", "is_reserved": 0, "lat": 38.89677983333333, "rental_uris": {"ios": "https://dc.lft.to/lastmile_qr_scan", "android": "https://dc.lft.to/lastmile_qr_scan"}, "fusion_lon": 0.0, "fusion_lat": 0.0, "bike_id": "df376c6109903b43a90ec2b1b267ab8d", "name": "df376c6109903b43a90ec2b1b267ab8d", "lon": -77.13883183333333}, {"is_disabled": 0, "type": "electric_scooter", "is_reserved": 0, "lat": 38.92356733333333, "rental_uris": {"ios": "https://dc.lft.to/lastmile_qr_scan", "android": "https://dc.lft.to/lastmile_qr_scan"}, "fusion_lon": 0.0, "fusion_lat": 0.0, "bike_id": "cb355889f264d6c66c8ad9ca2055bab6", "name": "cb355889f264d6c66c8ad9ca2055bab6", "lon": -77.0503915}, {"is_disabled": 0, "type": "electric_scooter", "is_reserved": 0, "lat": 38.916173, "rental_uris": {"ios": "https://dc.lft.to/lastmile_qr_scan", "android": "https://dc.lft.to/lastmile_qr_scan"}, "fusion_lon": 0.0, "fusion_lat": 0.0, "bike_id": "c9bf574522d572931bc474ab33b51fe5", "name": "c9bf574522d572931bc474ab33b51fe5", "lon": -77.02288566666667}, {"is_disabled": 0, "type": "electric_scooter", "is_reserved": 0, "lat": 38.90639866666667, "rental_uris": {"ios": "https://dc.lft.to/lastmile_qr_scan", "android": "https://dc.lft.to/lastmile_qr_scan"}, "fusion_lon": 0.0, "fusion_lat": 0.0, "bike_id": "db780943f13f20d1fcdfb4e34982b903", "name": "db780943f13f20d1fcdfb4e34982b903", "lon": -77.0703875}, {"is_disabled": 0, "type": "electric_scooter", "is_reserved": 0, "lat": 38.916942166666665, "rental_uris": {"ios": "https://dc.lft.to/lastmile_qr_scan", "android": "https://dc.lft.to/lastmile_qr_scan"}, "fusion_lon": 0.0, "fusion_lat": 0.0, "bike_id": "e5cb6659849ace43d6c0b8041310e932", "name": "e5cb6659849ace43d6c0b8041310e932", "lon": -76.9794755}, {"is_disabled": 0, "type": "electric_scooter", "is_reserved": 0, "lat": 38.8987845, "rental_uris": {"ios": "https://dc.lft.to/lastmile_qr_scan", "android": "https://dc.lft.to/lastmile_qr_scan"}, "fusion_lon": 0.0, "fusion_lat": 0.0, "bike_id": "c5db97a1bf2acc38d111ff3f88a861ea", "name": "c5db97a1bf2acc38d111ff3f88a861ea", "lon": -76.93198016666666}, {"is_disabled": 0, "type": "electric_bike", "is_reserved": 0, "lat": 38.87075933333333, "rental_uris": {"ios": "https://dc.lft.to/lastmile_qr_scan", "android": "https://dc.lft.to/lastmile_qr_scan"}, "fusion_lon": 0.0, "fusion_lat": 0.0, "bike_id": "3df2e895f34787e172c31f562737951b", "name": "3df2e895f34787e172c31f562737951b", "lon": -77.1106465}, {"is_disabled": 0, "type": "electric_scooter", "is_reserved": 0, "lat": 38.94819583333334, "rental_uris": {"ios": "https://dc.lft.to/lastmile_qr_scan", "android": "https://dc.lft.to/lastmile_qr_scan"}, "fusion_lon": 0.0, "fusion_lat": 0.0, "bike_id": "b2ba903c97cec58ac12a3500097a1f2c", "name": "b2ba903c97cec58ac12a3500097a1f2c", "lon": -76.99902133333333}, {"is_disabled": 0, "type": "electric_scooter", "is_reserved": 0, "lat": 38.8995045, "rental_uris": {"ios": "https://dc.lft.to/lastmile_qr_scan", "android": "https://dc.lft.to/lastmile_qr_scan"}, "fusion_lon": 0.0, "fusion_lat": 0.0, "bike_id": "c70c485c21d6ca0749d602176da56481", "name": "c70c485c21d6ca0749d602176da56481", "lon": -77.02957833333333}, {"is_disabled": 0, "type": "electric_scooter", "is_reserved": 0, "lat": 38.9069285, "rental_uris": {"ios": "https://dc.lft.to/lastmile_qr_scan", "android": "https://dc.lft.to/lastmile_qr_scan"}, "fusion_lon": 0.0, "fusion_lat": 0.0, "bike_id": "c50125945f15ea4bd9719a76d96f6047", "name": "c50125945f15ea4bd9719a76d96f6047", "lon": -77.06350633333334}, {"is_disabled": 0, "type": "electric_scooter", "is_reserved": 0, "lat": 38.91873533333333, "rental_uris": {"ios": "https://dc.lft.to/lastmile_qr_scan", "android": "https://dc.lft.to/lastmile_qr_scan"}, "fusion_lon": 0.0, "fusion_lat": 0.0, "bike_id": "a4dce5241ff4e52781b7eac9e0140752", "name": "a4dce5241ff4e52781b7eac9e0140752", "lon": -77.04187433333334}, {"is_disabled": 0, "type": "electric_scooter", "is_reserved": 0, "lat": 38.90009, "rental_uris": {"ios": "https://dc.lft.to/lastmile_qr_scan", "android": "https://dc.lft.to/lastmile_qr_scan"}, "fusion_lon": 0.0, "fusion_lat": 0.0, "bike_id": "430cd481d0bb692f480a6a0c9afd06ac", "name": "430cd481d0bb692f480a6a0c9afd06ac", "lon": -76.998663}, {"is_disabled": 0, "type": "electric_scooter", "is_reserved": 0, "lat": 38.9032635, "rental_uris": {"ios": "https://dc.lft.to/lastmile_qr_scan", "android": "https://dc.lft.to/lastmile_qr_scan"}, "fusion_lon": 0.0, "fusion_lat": 0.0, "bike_id": "82e5193c3ea1b281b70476aab8ad134e", "name": "82e5193c3ea1b281b70476aab8ad134e", "lon": -77.0116535}, {"is_disabled": 0, "type": "electric_scooter", "is_reserved": 0, "lat": 38.90034716666667, "rental_uris": {"ios": "https://dc.lft.to/lastmile_qr_scan", "android": "https://dc.lft.to/lastmile_qr_scan"}, "fusion_lon": 0.0, "fusion_lat": 0.0, "bike_id": "850382313525429a1698e3e12f006183", "name": "850382313525429a1698e3e12f006183", "lon": -77.00212133333333}, {"is_disabled": 0, "type": "electric_scooter", "is_reserved": 0, "lat": 38.937387333333334, "rental_uris": {"ios": "https://dc.lft.to/lastmile_qr_scan", "android": "https://dc.lft.to/lastmile_qr_scan"}, "fusion_lon": 0.0, "fusion_lat": 0.0, "bike_id": "16fe84f48f34fee9d89307c99b0b2bcd", "name": "16fe84f48f34fee9d89307c99b0b2bcd", "lon": -77.0327415}, {"is_disabled": 0, "type": "electric_scooter", "is_reserved": 0, "lat": 38.86727533333333, "rental_uris": {"ios": "https://dc.lft.to/lastmile_qr_scan", "android": "https://dc.lft.to/lastmile_qr_scan"}, "fusion_lon": 0.0, "fusion_lat": 0.0, "bike_id": "2eec0e680ada4ef0ad9d8b720d383cef", "name": "2eec0e680ada4ef0ad9d8b720d383cef", "lon": -76.9865615}, {"is_disabled": 0, "type": "electric_scooter", "is_reserved": 0, "lat": 38.938814, "rental_uris": {"ios": "https://dc.lft.to/lastmile_qr_scan", "android": "https://dc.lft.to/lastmile_qr_scan"}, "fusion_lon": 0.0, "fusion_lat": 0.0, "bike_id": "bb11dace669484cdf46f40c1f07dde75", "name": "bb11dace669484cdf46f40c1f07dde75", "lon": -77.02467283333333}, {"is_disabled": 0, "type": "electric_scooter", "is_reserved": 0, "lat": 38.905892, "rental_uris": {"ios": "https://dc.lft.to/lastmile_qr_scan", "android": "https://dc.lft.to/lastmile_qr_scan"}, "fusion_lon": 0.0, "fusion_lat": 0.0, "bike_id": "63c3d5f0419a0d0f4602a52c54520481", "name": "63c3d5f0419a0d0f4602a52c54520481", "lon": -77.00606916666666}, {"is_disabled": 0, "type": "electric_scooter", "is_reserved": 0, "lat": 38.902403166666666, "rental_uris": {"ios": "https://dc.lft.to/lastmile_qr_scan", "android": "https://dc.lft.to/lastmile_qr_scan"},