{"data": {"bikes": [{"rental_uris": {"android": "https://dc.lft.to/lastmile_qr_scan", "ios": "https://dc.lft.to/lastmile_qr_scan"}, "type": "electric_scooter", "lon": -77.03156566666667, "name": "3cde9765a735aaffc336bee203583398", "bike_id": "3cde9765a735aaffc336bee203583398", "fusion_lat": 0.0, "is_reserved": 0, "lat": 38.8969455, "fusion_lon": 0.0, "is_disabled": 0}, {"rental_uris": {"android": "https://dc.lft.to/lastmile_qr_scan", "ios": "https://dc.lft.to/lastmile_qr_scan"}, "type": "electric_scooter", "lon": -77.04258716666666, "name": "b46b70edb1e7dc683c6c0ce85af055e3", "bike_id": "b46b70edb1e7dc683c6c0ce85af055e3", "fusion_lat": 0.0, "is_reserved": 0, "lat": 38.92195266666667, "fusion_lon": 0.0, "is_disabled": 0}, {"rental_uris": {"android": "https://dc.lft.to/lastmile_qr_scan", "ios": "https://dc.lft.to/lastmile_qr_scan"}, "type": "electric_scooter", "lon": -77.00892, "name": "adeb965c68d4481e985779918daaf043", "bike_id": "adeb965c68d4481e985779918daaf043", "fusion_lat": 0.0, "is_reserved": 0, "lat": 38.876337666666664, "fusion_lon": 0.0, "is_disabled": 0}, {"rental_uris": {"android": "https://dc.lft.to/lastmile_qr_scan", "ios": "https://dc.lft.to/lastmile_qr_scan"}, "type": "electric_scooter", "lon": -77.04759316666667, "name": "994d4df07b3ac60a1b303f2272707189", "bike_id": "994d4df07b3ac60a1b303f2272707189", "fusion_lat": 0.0, "is_reserved": 0, "lat": 38.90536733333333, "fusion_lon": 0.0, "is_disabled": 0}, {"rental_uris": {"android": "https://dc.lft.to/lastmile_qr_scan", "ios": "https://dc.lft.to/lastmile_qr_scan"}, "type": "electric_scooter", "lon": -77.0532925, "name": "314c8f7f7460df19cc92e49f196f2198", "bike_id": "314c8f7f7460df19cc92e49f196f2198", "fusion_lat": 0.0, "is_reserved": 0, "lat": 38.90541066666667, "fusion_lon": 0.0, "is_disabled": 0}, {"rental_uris": {"android": "https://dc.lft.to/lastmile_qr_scan", "ios": "https://dc.lft.to/lastmile_qr_scan"}, "type": "electric_scooter", "lon": -77.02193, "name": "79f1f32ebb8dcfa85132f90f3e552ef1", "bike_id": "79f1f32ebb8dcfa85132f90f3e552ef1", "fusion_lat": 0.0, "is_reserved": 0, "lat": 38.901817, "fusion_lon": 0.0, "is_disabled": 0}, {"rental_uris": {"android": "https://dc.lft.to/lastmile_qr_scan", "ios": "https://dc.lft.to/lastmile_qr_scan"}, "type": "electric_scooter", "lon": -77.02440183333333, "name": "0d05f170c9d293407b32b67a4329b226", "bike_id": "0d05f170c9d293407b32b67a4329b226", "fusion_lat": 0.0, "is_reserved": 0, "lat": 38.932909, "fusion_lon": 0.0, "is_disabled": 0}, {"rental_uris": {"android": "https://dc.lft.to/lastmile_qr_scan", "ios": "https://dc.lft.to/lastmile_qr_scan"}, "type": "electric_scooter", "lon": -77.007072, "name": "469c8d3a1178f1d42399c19fcdb8a54d", "bike_id": "469c8d3a1178f1d42399c19fcdb8a54d", "fusion_lat": 0.0, "is_reserved": 0, "lat": 38.87693633333333, "fusion_lon": 0.0, "is_disabled": 0}, {"rental_uris": {"android": "https://dc.lft.to/lastmile_qr_scan", "ios": "https://dc.lft.to/lastmile_qr_scan"}, "type": "electric_scooter", "lon": -77.03297016666667, "name": "658a30be932d7c72a865b290215f1276", "bike_id": "658a30be932d7c72a865b290215f1276", "fusion_lat": 0.0, "is_reserved": 0, "lat": 38.9306235, "fusion_lon": 0.0, "is_disabled": 0}, {"rental_uris": {"android": "https://dc.lft.to/lastmile_qr_scan", "ios": "https://dc.lft.to/lastmile_qr_scan"}, "type": "electric_scooter", "lon": -76.9876585, "name": "71641d229a9740f6357b0514e5fdd9ce", "bike_id": "71641d229a9740f6357b0514e5fdd9ce", "fusion_lat": 0.0, "is_reserved": 0, "lat": 38.908046666666664, "fusion_lon": 0.0, "is_disabled": 0}, {"rental_uris": {"android": "https://dc.lft.to/lastmile_qr_scan", "ios": "https://dc.lft.to/lastmile_qr_scan"}, "type": "electric_scooter", "lon": -76.983359, "name": "8021b8d3bb761b4d95c78ee9507adeaa", "bike_id": "8021b8d3bb761b4d95c78ee9507adeaa", "fusion_lat": 0.0, "is_reserved": 0, "lat": 38.862560333333334, "fusion_lon": 0.0, "is_disabled": 0}, {"rental_uris": {"android": "https://dc.lft.to/lastmile_qr_scan", "ios": "https://dc.lft.to/lastmile_qr_scan"}, "type": "electric_scooter", "lon": -77.03475216666666, "name": "92d10b0bbea451b15207b337587c95ea", "bike_id": "92d10b0bbea451b15207b337587c95ea", "fusion_lat": 0.0, "is_reserved": 0, "lat": 38.91809633333333, "fusion_lon": 0.0, "is_disabled": 0}, {"rental_uris": {"android": "https://dc.lft.to/lastmile_qr_scan", "ios": "https://dc.lft.to/lastmile_qr_scan"}, "type": "electric_bike", "lon": -77.077941, "name": "6f49f2e7fe34f9e9feca5ff5bbacbd9c", "bike_id": "6f49f2e7fe34f9e9feca5ff5bbacbd9c", "fusion_lat": 0.0, "is_reserved": 0, "lat": 38.845190833333334, "fusion_lon": 0.0, "is_disabled": 0}, {"rental_uris": {"android": "https://dc.lft.to/lastmile_qr_scan", "ios": "https://dc.lft.to/lastmile_qr_scan"}, "type": "electric_scooter", "lon": -77.016068, "name": "f8a2733512daa45b1ca57ef49b80a496", "bike_id": "f8a2733512daa45b1ca57ef49b80a496", "fusion_lat": 0.0, "is_reserved": 0, "lat": 38.9175515, "fusion_lon": 0.0, "is_disabled": 0}, {"rental_uris": {"android": "https://dc.lft.to/lastmile_qr_scan", "ios": "https://dc.lft.to/lastmile_qr_scan"}, "type": "electric_bike", "lon": -76.93889183333333, "name": "12eee39f605e27f59f00275b064921f2", "bike_id": "12eee39f605e27f59f00275b064921f2", "fusion_lat": 0.0, "is_reserved": 0, "lat": 38.956199, "fusion_lon": 0.0, "is_disabled": 0}, {"rental_uris": {"android": "https://dc.lft.to/lastmile_qr_scan", "ios": "https://dc.lft.to/lastmile_qr_scan"}, "type": "electric_scooter", "lon": -77.031588, "name": "e515e4a2d0cad1a3e86ba38a0b4a2759", "bike_id": "e515e4a2d0cad1a3e86ba38a0b4a2759", "fusion_lat": 0.0, "is_reserved": 0, "lat": 38.92813116666667, "fusion_lon": 0.0, "is_disabled": 0}, {"rental_uris": {"android": "https://dc.lft.to/lastmile_qr_scan", "ios": "https://dc.lft.to/lastmile_qr_scan"}, "type": "electric_scooter", "lon": -76.93467683333333, "name": "eca3270e3f2e9cc827dbaa0171813344", "bike_id": "eca3270e3f2e9cc827dbaa0171813344", "fusion_lat": 0.0, "is_reserved": 0, "lat": 38.90185016666667, "fusion_lon": 0.0, "is_disabled": 0}, {"rental_uris": {"android": "https://dc.lft.to/lastmile_qr_scan", "ios": "https://dc.lft.to/lastmile_qr_scan"}, "type": "electric_scooter", "lon": -77.0203075, "name": "a980eb5e15dbf56adf435c40ca13e017", "bike_id": "a980eb5e15dbf56adf435c40ca13e017", "fusion_lat": 0.0, "is_reserved": 0, "lat": 38.89866116666666, "fusion_lon": 0.0, "is_disabled": 0}, {"rental_uris": {"android": "https://dc.lft.to/lastmile_qr_scan", "ios": "https://dc.lft.to/lastmile_qr_scan"}, "type": "electric_scooter", "lon": -76.99632366666667, "name": "a2ab17f9474a1a1ca257c8f856d4bf7a", "bike_id": "a2ab17f9474a1a1ca257c8f856d4bf7a", "fusion_lat": 0.0, "is_reserved": 0, "lat": 38.84620616666667, "fusion_lon": 0.0, "is_disabled": 0}, {"rental_uris": {"android": "https://dc.lft.to/lastmile_qr_scan", "ios": "https://dc.lft.to/lastmile_qr_scan"}, "type": "electric_scooter", "lon": -77.03150083333334, "name": "88a120b1ecdd5984dadeb33325ec3253", "bike_id": "88a120b1ecdd5984dadeb33325ec3253", "fusion_lat": 0.0, "is_reserved": 0, "lat": 38.93199283333333, "fusion_lon": 0.0, "is_disabled": 0}, {"rental_uris": {"android": "https://dc.lft.to/lastmile_qr_scan", "ios": "https://dc.lft.to/lastmile_qr_scan"}, "type": "electric_scooter", "lon": -77.03349516666667, "name": "d2668e4487bab806d4f4becc0cb9780f", "bike_id": "d2668e4487bab806d4f4becc0cb9780f", "fusion_lat": 0.0, "is_reserved": 0, "lat": 38.917073333333335, "fusion_lon": 0.0, "is_disabled": 0}, {"rental_uris": {"android": "https://dc.lft.to/lastmile_qr_scan", "ios": "https://dc.lft.to/lastmile_qr_scan"}, "type": "electric_scooter", "lon": -77.01753566666666, "name": "b9db4a1bfda3c65c1df287d5b83a03ab", "bike_id": "b9db4a1bfda3c65c1df287d5b83a03ab", "fusion_lat": 0.0, "is_reserved": 0, "lat": 38.913552833333334, "fusion_lon": 0.0, "is_disabled": 0}, {"rental_uris": {"android": "https://dc.lft.to/lastmile_qr_scan", "ios": "https://dc.lft.to/lastmile_qr_scan"}, "type": "electric_scooter", "lon": -77.04655483333333, "name": "8bc6354feb14c40cd547672cd50bc2b9", "bike_id": "8bc6354feb14c40cd547672cd50bc2b9", "fusion_lat": 0.0, "is_reserved": 0, "lat": 38.892395666666665, "fusion_lon": 0.0, "is_disabled": 0}, {"rental_uris": {"android": "https://dc.lft.to/lastmile_qr_scan", "ios": "https://dc.lft.to/lastmile_qr_scan"}, "type": "electric_bike", "lon": -76.98752733333333, "name": "2862ece4eb2e4ebaf98aa1fd33e9f644", "bike_id": "2862ece4eb2e4ebaf98aa1fd33e9f644", "fusion_lat": 0.0, "is_reserved": 0, "lat": 38.98825333333333, "fusion_lon": 0.0, "is_disabled": 0}, {"rental_uris": {"android": "https://dc.lft.to/lastmile_qr_scan", "ios": "https://dc.lft.to/lastmile_qr_scan"}, "type": "electric_scooter", "lon": -77.02171333333334, "name": "b00857bc12f9bc2a285c0917e0befe81", "bike_id": "b00857bc12f9bc2a285c0917e0befe81", "fusion_lat": 0.0, "is_reserved": 0, "lat": 38.901905, "fusion_lon": 0.0, "is_disabled": 0}, {"rental_uris": {"android": "https://dc.lft.to/lastmile_qr_scan", "ios": "https://dc.lft.to/lastmile_qr_scan"}, "type": "electric_scooter", "lon": -77.02430666666666, "name": "4aabc52e4ed11bbc4a9453703a851ca9", "bike_id": "4aabc52e4ed11bbc4a9453703a851ca9", "fusion_lat": 0.0, "is_reserved": 0, "lat": 38.92058183333333, "fusion_lon": 0.0, "is_disabled": 0}, {"rental_uris": {"android": "https://dc.lft.to/lastmile_qr_scan", "ios": "https://dc.lft.to/lastmile_qr_scan"}, "type": "electric_scooter", "lon": -77.01201533333334, "name": "24815c7d853a915fe26f8eee85584ccd", "bike_id": "24815c7d853a915fe26f8eee85584ccd", "fusion_lat": 0.0, "is_reserved": 0, "lat": 38.895157833333336, "fusion_lon": 0.0, "is_disabled": 0}, {"rental_uris": {"android": "https://dc.lft.to/lastmile_qr_scan", "ios": "https://dc.lft.to/lastmile_qr_scan"}, "type": "electric_scooter", "lon": -77.023407, "name": "9c1d61d32f144bc13cf2c966759e3a45", "bike_id": "9c1d61d32f144bc13cf2c966759e3a45", "fusion_lat": 0.0, "is_reserved": 0, "lat": 38.9020005, "fusion_lon": 0.0, "is_disabled": 0}, {"rental_uris": {"android": "https://dc.lft.to/lastmile_qr_scan", "ios": "https://dc.lft.to/lastmile_qr_scan"}, "type": "electric_scooter", "lon": -76.99382983333334, "name": "e7b2de7282cb452489e59090efd47d9d", "bike_id": "e7b2de7282cb452489e59090efd47d9d", "fusion_lat": 0.0, "is_reserved": 0, "lat": 38.889664833333335, "fusion_lon": 0.0, "is_disabled": 0}, {"rental_uris": {"android": "https://dc.lft.to/lastmile_qr_scan", "ios": "https://dc.lft.to/lastmile_qr_scan"}, "type": "electric_scooter", "lon": -77.02576866666666, "name": "4d3e40b6397c37ab75115dfdb27ed1f7", "bike_id": "4d3e40b6397c37ab75115dfdb27ed1f7", "fusion_lat": 0.0, "is_reserved": 0, "lat": 38.93093733333333, "fusion_lon": 0.0, "is_disabled": 0}, {"rental_uris": {"android": "https://dc.lft.to/lastmile_qr_scan", "ios": "https://dc.lft.to/lastmile_qr_scan"}, "type": "electric_scooter", "lon": -76.98037, "name": "81467e0e092a11f7c8533d6c0b723518", "bike_id": "81467e0e092a11f7c8533d6c0b723518", "fusion_lat": 0.0, "is_reserved": 0, "lat": 38.91684866666667, "fusion_lon": 0.0, "is_disabled": 0}, {"rental_uris": {"android": "https://dc.lft.to/lastmile_qr_scan", "ios": "https://dc.lft.to/lastmile_qr_scan"}, "type": "electric_scooter", "lon": -77.03359216666666, "name": "841b3adb60797b488c255caa8c738de9", "bike_id": "841b3adb60797b488c255caa8c738de9", "fusion_lat": 0.0, "is_reserved": 0, "lat": 38.9118705, "fusion_lon": 0.0, "is_disabled": 0}, {"rental_uris": {"android": "https://dc.lft.to/lastmile_qr_scan", "ios": "https://dc.lft.to/lastmile_qr_scan"}, "type": "electric_scooter", "lon": -77.05441916666666, "name": "e9153c0e95fb57c15bf7c73e56c341fb", "bike_id": "e9153c0e95fb57c15bf7c73e56c341fb", "fusion_lat": 0.0, "is_reserved": 0, "lat": 38.896066, "fusion_lon": 0.0, "is_disabled": 0}, {"rental_uris": {"android": "https://dc.lft.to/lastmile_qr_scan", "ios": "https://dc.lft.to/lastmile_qr_scan"}, "type": "electric_scooter", "lon": -77.00894883333333, "name": "e395044cec516dee8f90dcef0ffb9c1e", "bike_id": "e395044cec516dee8f90dcef0ffb9c1e", "fusion_lat": 0.0, "is_reserved": 0, "lat": 38.90529383333333, "fusion_lon": 0.0, "is_disabled": 0}, {"rental_uris": {"android": "https://dc.lft.to/lastmile_qr_scan", "ios": "https://dc.lft.to/lastmile_qr_scan"}, "type": "electric_scooter", "lon": -77.03340966666667, "name": "a26f904d54aae62f5af9157b2556d9fb", "bike_id": "a26f904d54aae62f5af9157b2556d9fb", "fusion_lat": 0.0, "is_reserved": 0, "lat": 38.898065333333335, "fusion_lon": 0.0, "is_disabled": 0}, {"rental_uris": {"android": "https://dc.lft.to/lastmile_qr_scan", "ios": "https://dc.lft.to/lastmile_qr_scan"}, "type": "electric_scooter", "lon": -77.02175366666667, "name": "3bf6cf0a5756b2c6e5a4c11c98620f73", "bike_id": "3bf6cf0a5756b2c6e5a4c11c98620f73", "fusion_lat": 0.0, "is_reserved": 0, "lat": 38.89730083333333, "fusion_lon": 0.0, "is_disabled": 0}, {"rental_uris": {"android": "https://dc.lft.to/lastmile_qr_scan", "ios": "https://dc.lft.to/lastmile_qr_scan"}, "type": "electric_bike", "lon": -77.08574216666666, "name": "7c79ee57ed7157f056201c4a03a6bb78", "bike_id": "7c79ee57ed7157f056201c4a03a6bb78", "fusion_lat": 0.0, "is_reserved": 0, "lat": 38.874215, "fusion_lon": 0.0, "is_disabled": 0}, {"rental_uris": {"android": "https://dc.lft.to/lastmile_qr_scan", "ios": "https://dc.lft.to/lastmile_qr_scan"}, "type": "electric_scooter", "lon": -77.00227633333333, "name": "f684c846d714e52bd5fd76e1da80ed9e", "bike_id": "f684c846d714e52bd5fd76e1da80ed9e", "fusion_lat": 0.0, "is_reserved": 0, "lat": 38.90002333333333, "fusion_lon": 0.0, "is_disabled": 0}, {"rental_uris": {"android": "https://dc.lft.to/lastmile_qr_scan", "ios": "https://dc.lft.to/lastmile_qr_scan"}, "type": "electric_bike", "lon": -77.02495183333333, "name": "b81b3132ba52f63517d183fad1668d23", "bike_id": "b81b3132ba52f63517d183fad1668d23", "fusion_lat": 0.0, "is_reserved": 0, "lat": 38.97403283333333, "fusion_lon": 0.0, "is_disabled": 0}, {"rental_uris": {"android": "https://dc.lft.to/lastmile_qr_scan", "ios": "https://dc.lft.to/lastmile_qr_scan"}, "type": "electric_scooter", "lon": -77.038398, "name": "ad91607d712c56b72e06992cb6caa88d", "bike_id": "ad91607d712c56b72e06992cb6caa88d", "fusion_lat": 0.0, "is_reserved": 0, "lat": 38.90405033333333, "fusion_lon": 0.0, "is_disabled": 0}, {"rental_uris": {"android": "https://dc.lft.to/lastmile_qr_scan", "ios": "https://dc.lft.to/lastmile_qr_scan"}, "type": "electric_scooter", "lon": -77.01350366666667, "name": "e249f20e2f362bcd297361781a4fee4c", "bike_id": "e249f20e2f362bcd297361781a4fee4c", "fusion_lat": 0.0, "is_reserved": 0, "lat": 38.912512, "fusion_lon": 0.0, "is_disabled": 0}, {"rental_uris": {"android": "https://dc.lft.to/lastmile_qr_scan", "ios": "https://dc.lft.to/lastmile_qr_scan"}, "type": "electric_scooter", "lon": -76.97478233333334, "name": "53d1edb9833691c0e55794b0c18c20ad", "bike_id": "53d1edb9833691c0e55794b0c18c20ad", "fusion_lat": 0.0, "is_reserved": 0, "lat": 38.90346983333333, "fusion_lon": 0.0, "is_disabled": 0}, {"rental_uris": {"android": "https://dc.lft.to/lastmile_qr_scan", "ios": "https://dc.lft.to/lastmile_qr_scan"}, "type": "electric_scooter", "lon": -77.05790033333334, "name": "19d7892fd2462ec0a381ecd7eb43fef8", "bike_id": "19d7892fd2462ec0a381ecd7eb43fef8", "fusion_lat": 0.0, "is_reserved": 0, "lat": 38.934772333333335, "fusion_lon": 0.0, "is_disabled": 0}, {"rental_uris": {"android": "https://dc.lft.to/lastmile_qr_scan", "ios": "https://dc.lft.to/lastmile_qr_scan"}, "type": "electric_scooter", "lon": -77.03218066666666, "name": "5d0ecf688cab21b033eaa1c517a39acc", "bike_id": "5d0ecf688cab21b033eaa1c517a39acc", "fusion_lat": 0.0, "is_reserved": 0, "lat": 38.91641333333333, "fusion_lon": 0.0, "is_disabled": 0}, {"rental_uris": {"android": "https://dc.lft.to/lastmile_qr_scan", "ios": "https://dc.lft.to/lastmile_qr_scan"}, "type": "electric_bike", "lon": -77.0019215, "name": "1d2d5ca9eee1b590de5551cc73b8c0a8", "bike_id": "1d2d5ca9eee1b590de5551cc73b8c0a8", "fusion_lat": 0.0, "is_reserved": 0, "lat": 38.9415555, "fusion_lon": 0.0, "is_disabled": 0}, {"rental_uris": {"android": "https://dc.lft.to/lastmile_qr_scan", "ios": "https://dc.lft.to/lastmile_qr_scan"}, "type": "electric_scooter", "lon": -77.02322516666666, "name": "4642b7b057aea017cbfd0510342569bf", "bike_id": "4642b7b057aea017cbfd0510342569bf", "fusion_lat": 0.0, "is_reserved": 0, "lat": 38.916728666666664, "fusion_lon": 0.0, "is_disabled": 0}, {"rental_uris": {"android": "https://dc.lft.to/lastmile_qr_scan", "ios": "https://dc.lft.to/lastmile_qr_scan"}, "type": "electric_scooter", "lon": -77.033983, "name": "e8b4e5b2894190b93b198e59faaf4d54", "bike_id": "e8b4e5b2894190b93b198e59faaf4d54", "fusion_lat": 0.0, "is_reserved": 0, "lat": 38.9190845, "fusion_lon": 0.0, "is_disabled": 0}, {"rental_uris": {"android": "https://dc.lft.to/lastmile_qr_scan", "ios": "https://dc.lft.to/lastmile_qr_scan"}, "type": "electric_scooter", "lon": -77.03107433333334, "name": "58d30a36dcb71f1248c6f253d971d913", "bike_id": "58d30a36dcb71f1248c6f253d971d913", "fusion_lat": 0.0, "is_reserved": 0, "lat": 38.9191125, "fusion_lon": 0.0, "is_disabled": 0}, {"rental_uris": {"android": "https://dc.lft.to/lastmile_qr_scan", "ios": "https://dc.lft.to/lastmile_qr_scan"}, "type": "electric_scooter", "lon": -76.96520366666667, "name": "bfcab3395da60dd642997384c73405cf", "bike_id": "bfcab3395da60dd642997384c73405cf", "fusion_lat": 0.0, "is_reserved": 0, "lat": 38.8748345, "fusion_lon": 0.0, "is_disabled": 0}, {"rental_uris": {"android": "https://dc.lft.to/lastmile_qr_scan", "ios": "https://dc.lft.to/lastmile_qr_scan"}, "type": "electric_scooter", "lon": -77.04769333333333, "name": "85087ce589f4fab192fcebe859536268", "bike_id": "85087ce589f4fab192fcebe859536268", "fusion_lat": 0.0, "is_reserved": 0, "lat": 38.91771583333333, "fusion_lon": 0.0, "is_disabled": 0}, {"rental_uris": {"android": "https://dc.lft.to/lastmile_qr_scan", "ios": "https://dc.lft.to/lastmile_qr_scan"}, "type": "electric_scooter", "lon": -77.0170225, "name": "99e6dc214cd6300c78823aecc4514157", "bike_id": "99e6dc214cd6300c78823aecc4514157", "fusion_lat": 0.0, "is_reserved": 0, "lat": 38.92020333333333, "fusion_lon": 0.0, "is_disabled": 0}, {"rental_uris": {"android": "https://dc.lft.to/lastmile_qr_scan", "ios": "https://dc.lft.to/lastmile_qr_scan"}, "type": "electric_scooter", "lon": -76.99565383333334, "name": "e3065db2cd9dbd50be0b63f5f1740f7e", "bike_id": "e3065db2cd9dbd50be0b63f5f1740f7e", "fusion_lat": 0.0, "is_reserved": 0, "lat": 38.8576285, "fusion_lon": 0.0, "is_disabled": 0}, {"rental_uris": {"android": "https://dc.lft.to/lastmile_qr_scan", "ios": "https://dc.lft.to/lastmile_qr_scan"}, "type": "electric_scooter", "lon": -76.98332883333333, "name": "9b098bedbb31c68b011cdcafecad0fb8", "bike_id": "9b098bedbb31c68b011cdcafecad0fb8", "fusion_lat": 0.0, "is_reserved": 0, "lat": 38.889875333333336, "fusion_lon": 0.0, "is_disabled": 0}, {"rental_uris": {"android": "https://dc.lft.to/lastmile_qr_scan", "ios": "https://dc.lft.to/lastmile_qr_scan"}, "type": "electric_scooter", "lon": -76.9951775, "name": "55f031346ddcd1c9381868a00a64228d", "bike_id": "55f031346ddcd1c9381868a00a64228d", "fusion_lat": 0.0, "is_reserved": 0, "lat": 38.86258766666667, "fusion_lon": 0.0, "is_disabled": 0}, {"rental_uris": {"android": "https://dc.lft.to/lastmile_qr_scan", "ios": "https://dc.lft.to/lastmile_qr_scan"}, "type": "electric_scooter", "lon": -77.06403266666666, "name": "a4f30079d8a48ff53169f19c2aa727a8", "bike_id": "a4f30079d8a48ff53169f19c2aa727a8", "fusion_lat": 0.0, "is_reserved": 0, "lat": 38.909283333333335, "fusion_lon": 0.0, "is_disabled": 0}, {"rental_uris": {"android": "https://dc.lft.to/lastmile_qr_scan", "ios": "https://dc.lft.to/lastmile_qr_scan"}, "type": "electric_scooter", "lon": -77.03416016666667, "name": "16e57de2549c414d3f54e6b6f1edf317", "bike_id": "16e57de2549c414d3f54e6b6f1edf317", "fusion_lat": 0.0, "is_reserved": 0, "lat": 38.9316705, "fusion_lon": 0.0, "is_disabled": 0}, {"rental_uris": {"android": "https://dc.lft.to/lastmile_qr_scan", "ios": "https://dc.lft.to/lastmile_qr_scan"}, "type": "electric_scooter", "lon": -77.038487, "name": "8aa7d5bc60e7769b1354eebc9c4a87c6", "bike_id": "8aa7d5bc60e7769b1354eebc9c4a87c6", "fusion_lat": 0.0, "is_reserved": 0, "lat": 38.91038016666667, "fusion_lon": 0.0, "is_disabled": 0}, {"rental_uris": {"android": "https://dc.lft.to/lastmile_qr_scan", "ios": "https://dc.lft.to/lastmile_qr_scan"}, "type": "electric_scooter", "lon": -77.00331366666667, "name": "642c5d101a827dad09075bb30dd7fac2", "bike_id": "642c5d101a827dad09075bb30dd7fac2", "fusion_lat": 0.0, "is_reserved": 0, "lat": 38.8937045, "fusion_lon": 0.0, "is_disabled": 0}, {"rental_uris": {"android": "https://dc.lft.to/lastmile_qr_scan", "ios": "https://dc.lft.to/lastmile_qr_scan"}, "type": "electric_scooter", "lon": -77.02188366666667, "name": "20c1c21314b77b6aa71fcd7dd91ed72e", "bike_id": "20c1c21314b77b6aa71fcd7dd91ed72e", "fusion_lat": 0.0, "is_reserved": 0, "lat": 38.894525, "fusion_lon": 0.0, "is_disabled": 0}, {"rental_uris": {"android": "https://dc.lft.to/lastmile_qr_scan", "ios": "https://dc.lft.to/lastmile_qr_scan"}, "type": "electric_scooter", "lon": -77.08442416666666, "name": "ef9339a9677a70af5266416092385393", "bike_id": "ef9339a9677a70af5266416092385393", "fusion_lat": 0.0, "is_reserved": 0, "lat": 38.9118095, "fusion_lon": 0.0, "is_disabled": 0}, {"rental_uris": {"android": "https://dc.lft.to/lastmile_qr_scan", "ios": "https://dc.lft.to/lastmile_qr_scan"}, "type": "electric_scooter", "lon": -77.00024733333333, "name": "a8f97607e62aa354158b0a1cda28e047", "bike_id": "a8f97607e62aa354158b0a1cda28e047", "fusion_lat": 0.0, "is_reserved": 0, "lat": 38.900177, "fusion_lon": 0.0, "is_disabled": 0}, {"rental_uris": {"android": "https://dc.lft.to/lastmile_qr_scan", "ios": "https://dc.lft.to/lastmile_qr_scan"}, "type": "electric_scooter", "lon": -77.02961866666666, "name": "0b93715cf1f1db4d35f454beb33ee284", "bike_id": "0b93715cf1f1db4d35f454beb33ee284", "fusion_lat": 0.0, "is_reserved": 0, "lat": 38.921482166666664, "fusion_lon": 0.0, "is_disabled": 0}, {"rental_uris": {"android": "https://dc.lft.to/lastmile_qr_scan", "ios": "https://dc.lft.to/lastmile_qr_scan"}, "type": "electric_scooter", "lon": -77.02492633333334, "name": "21e87781e3c3a6af5782c812a6b57914", "bike_id": "21e87781e3c3a6af5782c812a6b57914", "fusion_lat": 0.0, "is_reserved": 0, "lat": 38.941927666666665, "fusion_lon": 0.0, "is_disabled": 0}, {"rental_uris": {"android": "https://dc.lft.to/lastmile_qr_scan", "ios": "https://dc.lft.to/lastmile_qr_scan"}, "type": "electric_scooter", "lon": -77.027505, "name": "1a4687ede7236a5671e7e2b4d8b013fb", "bike_id": "1a4687ede7236a5671e7e2b4d8b013fb", "fusion_lat": 0.0, "is_reserved": 0, "lat": 38.9560685, "fusion_lon": 0.0, "is_disabled": 0}, {"rental_uris": {"android": "https://dc.lft.to/lastmile_qr_scan", "ios": "https://dc.lft.to/lastmile_qr_scan"}, "type": "electric_scooter", "lon": -77.04819316666666, "name": "bbb999e2e5c12077ecacb7b5aa09141e", "bike_id": "bbb999e2e5c12077ecacb7b5aa09141e", "fusion_lat": 0.0, "is_reserved": 0, "lat": 38.914798833333336, "fusion_lon": 0.0, "is_disabled": 0}, {"rental_uris": {"android": "https://dc.lft.to/lastmile_qr_scan", "ios": "https://dc.lft.to/lastmile_qr_scan"}, "type": "electric_scooter", "lon": -76.99494533333333, "name": "0bce589263d14a0ce5b5075054b42a14", "bike_id": "0bce589263d14a0ce5b5075054b42a14", "fusion_lat": 0.0, "is_reserved": 0, "lat": 38.862451, "fusion_lon": 0.0, "is_disabled": 0}, {"rental_uris": {"android": "https://dc.lft.to/lastmile_qr_scan", "ios": "https://dc.lft.to/lastmile_qr_scan"}, "type": "electric_scooter", "lon": -77.01618333333333, "name": "c8e4bd73300a41906bab546706e958e8", "bike_id": "c8e4bd73300a41906bab546706e958e8", "fusion_lat": 0.0, "is_reserved": 0, "lat": 38.901634333333334, "fusion_lon": 0.0, "is_disabled": 0}, {"rental_uris": {"android": "https://dc.lft.to/lastmile_qr_scan", "ios": "https://dc.lft.to/lastmile_qr_scan"}, "type": "electric_scooter", "lon": -77.02513766666667, "name": "3f2e842af0190c3e8ef6553089889126", "bike_id": "3f2e842af0190c3e8ef6553089889126", "fusion_lat": 0.0, "is_reserved": 0, "lat": 38.9192315, "fusion_lon": 0.0, "is_disabled": 0}, {"rental_uris": {"android": "https://dc.lft.to/lastmile_qr_scan", "ios": "https://dc.lft.to/lastmile_qr_scan"}, "type": "electric_scooter", "lon": -77.03480633333334, "name": "2364236962c9d3899f1a9623ed38e4ee", "bike_id": "2364236962c9d3899f1a9623ed38e4ee", "fusion_lat": 0.0, "is_reserved": 0, "lat": 38.9110035, "fusion_lon": 0.0, "is_disabled": 0}, {"rental_uris": {"android": "https://dc.lft.to/lastmile_qr_scan", "ios": "https://dc.lft.to/lastmile_qr_scan"}, "type": "electric_scooter", "lon": -77.00613116666666, "name": "2409684d0d4a2db21f816ab4ee027fef", "bike_id": "2409684d0d4a2db21f816ab4ee027fef", "fusion_lat": 0.0, "is_reserved": 0, "lat": 38.90548583333333, "fusion_lon": 0.0, "is_disabled": 0}, {"rental_uris": {"android": "https://dc.lft.to/lastmile_qr_scan", "ios": "https://dc.lft.to/lastmile_qr_scan"}, "type": "electric_scooter", "lon": -76.9901045, "name": "f75abd6d40a01369ae0464f3e707ed99", "bike_id": "f75abd6d40a01369ae0464f3e707ed99", "fusion_lat": 0.0, "is_reserved": 0, "lat": 38.903949, "fusion_lon": 0.0, "is_disabled": 0}, {"rental_uris": {"android": "https://dc.lft.to/lastmile_qr_scan", "ios": "https://dc.lft.to/lastmile_qr_scan"}, "type": "electric_scooter", "lon": -77.00052633333334, "name": "fd819556bceb46982f391a25881d3f48", "bike_id": "fd819556bceb46982f391a25881d3f48", "fusion_lat": 0.0, "is_reserved": 0, "lat": 38.87645583333333, "fusion_lon": 0.0, "is_disabled": 0}, {"rental_uris": {"android": "https://dc.lft.to/lastmile_qr_scan", "ios": "https://dc.lft.to/lastmile_qr_scan"}, "type": "electric_scooter", "lon": -77.03397866666667, "name": "c8cd41f544587b15eb873cb70d0cc86d", "bike_id": "c8cd41f544587b15eb873cb70d0cc86d", "fusion_lat": 0.0, "is_reserved": 0, "lat": 38.9243535, "fusion_lon": 0.0, "is_disabled": 0}, {"rental_uris": {"android": "https://dc.lft.to/lastmile_qr_scan", "ios": "https://dc.lft.to/lastmile_qr_scan"}, "type": "electric_scooter", "lon": -77.06103483333334, "name": "ceebca118c286c2d21c099678a192cad", "bike_id": "ceebca118c286c2d21c099678a192cad", "fusion_lat": 0.0, "is_reserved": 0, "lat": 38.9437255, "fusion_lon": 0.0, "is_disabled": 0}, {"rental_uris": {"android": "https://dc.lft.to/lastmile_qr_scan", "ios": "https://dc.lft.to/lastmile_qr_scan"}, "type": "electric_scooter", "lon": -77.02022016666666, "name": "a75a1bc859b2485e2a418eba351f6835", "bike_id": "a75a1bc859b2485e2a418eba351f6835", "fusion_lat": 0.0, "is_reserved": 0, "lat": 38.92437433333333, "fusion_lon": 0.0, "is_disabled": 0}, {"rental_uris": {"android": "https://dc.lft.to/lastmile_qr_scan", "ios": "https://dc.lft.to/lastmile_qr_scan"}, "type": "electric_scooter", "lon": -76.99028916666667, "name": "c466f0b78eed1380e427c2317f3630b7", "bike_id": "c466f0b78eed1380e427c2317f3630b7", "fusion_lat": 0.0, "is_reserved": 0, "lat": 38.8640405, "fusion_lon": 0.0, "is_disabled": 0}, {"rental_uris": {"android": "https://dc.lft.to/lastmile_qr_scan", "ios": "https://dc.lft.to/lastmile_qr_scan"}, "type": "electric_scooter", "lon": -76.99724166666667, "name": "9f0ebac81da502d1dbd6e11dc214d31d", "bike_id": "9f0ebac81da502d1dbd6e11dc214d31d", "fusion_lat": 0.0, "is_reserved": 0, "lat": 38.898944166666666, "fusion_lon": 0.0, "is_disabled": 0}, {"rental_uris": {"android": "https://dc.lft.to/lastmile_qr_scan", "ios": "https://dc.lft.to/lastmile_qr_scan"}, "type": "electric_scooter", "lon": -77.03216, "name": "873d3b0acf94d9f65b0dd568ca52e613", "bike_id": "873d3b0acf94d9f65b0dd568ca52e613", "fusion_lat": 0.0, "is_reserved": 0, "lat": 38.9163605, "fusion_lon": 0.0, "is_disabled": 0}, {"rental_uris": {"android": "https://dc.lft.to/lastmile_qr_scan", "ios": "https://dc.lft.to/lastmile_qr_scan"}, "type": "electric_scooter", "lon": -77.06766316666666, "name": "8252547b933bb170842325320517ec53", "bike_id": "8252547b933bb170842325320517ec53", "fusion_lat": 0.0, "is_reserved": 0, "lat": 38.9036455, "fusion_lon": 0.0, "is_disabled": 0}, {"rental_uris": {"android": "https://dc.lft.to/lastmile_qr_scan", "ios": "https://dc.lft.to/lastmile_qr_scan"}, "type": "electric_scooter", "lon": -77.04679816666666, "name": "ebeab078c8ed5357840ab1f13b0d2851", "bike_id": "ebeab078c8ed5357840ab1f13b0d2851", "fusion_lat": 0.0, "is_reserved": 0, "lat": 38.89504916666667, "fusion_lon": 0.0, "is_disabled": 0}, {"rental_uris": {"android": "https://dc.lft.to/lastmile_qr_scan", "ios": "https://dc.lft.to/lastmile_qr_scan"}, "type": "electric_scooter", "lon": -77.03858683333333, "name": "bf4a09fc07b014e95db450dfdcccfcf5", "bike_id": "bf4a09fc07b014e95db450dfdcccfcf5", "fusion_lat": 0.0, "is_reserved": 0, "lat": 38.90288866666667, "fusion_lon": 0.0, "is_disabled": 0}, {"rental_uris": {"android": "https://dc.lft.to/lastmile_qr_scan", "ios": "https://dc.lft.to/lastmile_qr_scan"}, "type": "electric_scooter", "lon": -77.00820916666666, "name": "981de76819a0dcd6cc40248a484fa5d4", "bike_id": "981de76819a0dcd6cc40248a484fa5d4", "fusion_lat": 0.0, "is_reserved": 0, "lat": 38.91554716666667, "fusion_lon": 0.0, "is_disabled": 0}, {"rental_uris": {"android": "https://dc.lft.to/lastmile_qr_scan", "ios": "https://dc.lft.to/lastmile_qr_scan"}, "type": "electric_scooter", "lon": -77.00246183333333, "name": "edac59b5c7553eaa75fd9670a7d5ebe2", "bike_id": "edac59b5c7553eaa75fd9670a7d5ebe2", "fusion_lat": 0.0, "is_reserved": 0, "lat": 38.88024766666667, "fusion_lon": 0.0, "is_disabled": 0}, {"rental_uris": {"android": "https://dc.lft.to/lastmile_qr_scan", "ios": "https://dc.lft.to/lastmile_qr_scan"}, "type": "electric_scooter", "lon": -77.0303235, "name": "65e6e30bf682861fb5b8b82cb64fb969", "bike_id": "65e6e30bf682861fb5b8b82cb64fb969", "fusion_lat": 0.0, "is_reserved": 0, "lat": 38.884003666666665, "fusion_lon": 0.0, "is_disabled": 0}, {"rental_uris": {"android": "https://dc.lft.to/lastmile_qr_scan", "ios": "https://dc.lft.to/lastmile_qr_scan"}, "type": "electric_scooter", "lon": -77.041938, "name": "d7acf4041a5441e4f2ceb5e3c0248d97", "bike_id": "d7acf4041a5441e4f2ceb5e3c0248d97", "fusion_lat": 0.0, "is_reserved": 0, "lat": 38.8997015, "fusion_lon": 0.0, "is_disabled": 0}, {"rental_uris": {"android": "https://dc.lft.to/lastmile_qr_scan", "ios": "https://dc.lft.to/lastmile_qr_scan"}, "type": "electric_scooter", "lon": -77.01050316666667, "name": "084a6dbdec6dfb09cfed21a6a4652e3f", "bike_id": "084a6dbdec6dfb09cfed21a6a4652e3f", "fusion_lat": 0.0, "is_reserved": 0, "lat": 38.9067445, "fusion_lon": 0.0, "is_disabled": 0}, {"rental_uris": {"android": "https://dc.lft.to/lastmile_qr_scan", "ios": "https://dc.lft.to/lastmile_qr_scan"}, "type": "electric_scooter", "lon": -77.03052216666667, "name": "e8e131ccaa750d912a9a3bd84eec5720", "bike_id": "e8e131ccaa750d912a9a3bd84eec5720", "fusion_lat": 0.0, "is_reserved": 0, "lat": 38.919193, "fusion_lon": 0.0, "is_disabled": 0}, {"rental_uris": {"android": "https://dc.lft.to/lastmile_qr_scan", "ios": "https://dc.lft.to/lastmile_qr_scan"}, "type": "electric_scooter", "lon": -77.04172616666666, "name": "925f1cddf2de09d55f5c71c527bb8633", "bike_id": "925f1cddf2de09d55f5c71c527bb8633", "fusion_lat": 0.0, "is_reserved": 0, "lat": 38.9141325, "fusion_lon": 0.0, "is_disabled": 0}, {"rental_uris": {"android": "https://dc.lft.to/lastmile_qr_scan", "ios": "https://dc.lft.to/lastmile_qr_scan"}, "type": "electric_scooter", "lon": -77.03936583333333, "name": "5a8bd8b085c2aafe17747ef2ecacffb4", "bike_id": "5a8bd8b085c2aafe17747ef2ecacffb4", "fusion_lat": 0.0, "is_reserved": 0, "lat": 38.92495066666667, "fusion_lon": 0.0, "is_disabled": 0}, {"rental_uris": {"android": "https://dc.lft.to/lastmile_qr_scan", "ios": "https://dc.lft.to/lastmile_qr_scan"}, "type": "electric_scooter", "lon": -77.00555683333333, "name": "807eb1416de1330762dfd7dd26698a0d", "bike_id": "807eb1416de1330762dfd7dd26698a0d", "fusion_lat": 0.0, "is_reserved": 0, "lat": 38.90567583333333, "fusion_lon": 0.0, "is_disabled": 0}, {"rental_uris": {"android": "https://dc.lft.to/lastmile_qr_scan", "ios": "https://dc.lft.to/lastmile_qr_scan"}, "type": "electric_scooter", "lon": -76.98326866666666, "name": "86db683cd1a322eeb7ef5a71cee5ac62", "bike_id": "86db683cd1a322eeb7ef5a71cee5ac62", "fusion_lat": 0.0, "is_reserved": 0, "lat": 38.90748266666667, "fusion_lon": 0.0, "is_disabled": 0}, {"rental_uris": {"android": "https://dc.lft.to/lastmile_qr_scan", "ios": "https://dc.lft.to/lastmile_qr_scan"}, "type": "electric_scooter", "lon": -77.03311733333334, "name": "5056c39d96468018779a34b37ba72ea1", "bike_id": "5056c39d96468018779a34b37ba72ea1", "fusion_lat": 0.0, "is_reserved": 0, "lat": 38.89820866666667, "fusion_lon": 0.0, "is_disabled": 0}, {"rental_uris": {"android": "https://dc.lft.to/lastmile_qr_scan", "ios": "https://dc.lft.to/lastmile_qr_scan"}, "type": "electric_scooter", "lon": -77.02000866666667, "name": "d9121942652531c4070a541077f977d4", "bike_id": "d9121942652531c4070a541077f977d4", "fusion_lat": 0.0, "is_reserved": 0, "lat": 38.9006235, "fusion_lon": 0.0, "is_disabled": 0}, {"rental_uris": {"android": "https://dc.lft.to/lastmile_qr_scan", "ios": "https://dc.lft.to/lastmile_qr_scan"}, "type": "electric_scooter", "lon": -77.00915783333333, "name": "fb06106c934e49ba5158dac4ba481cac", "bike_id": "fb06106c934e49ba5158dac4ba481cac", "fusion_lat": 0.0, "is_reserved": 0, "lat": 38.912991833333336, "fusion_lon": 0.0, "is_disabled": 0}, {"rental_uris": {"android": "https://dc.lft.to/lastmile_qr_scan", "ios": "https://dc.lft.to/lastmile_qr_scan"}, "type": "electric_scooter", "lon": -77.02208583333334, "name": "ef8c6838fe43dc4295f0d90a38b52745", "bike_id": "ef8c6838fe43dc4295f0d90a38b52745", "fusion_lat": 0.0, "is_reserved": 0, "lat": 38.88718883333333, "fusion_lon": 0.0, "is_disabled": 0}, {"rental_uris": {"android": "https://dc.lft.to/lastmile_qr_scan", "ios": "https://dc.lft.to/lastmile_qr_scan"}, "type": "electric_scooter", "lon": -77.02385466666667, "name": "038cfe30f3a694c61cd9457e5c211b9e", "bike_id": "038cfe30f3a694c61cd9457e5c211b9e", "fusion_lat": 0.0, "is_reserved": 0, "lat": 38.95747983333333, "fusion_lon": 0.0, "is_disabled": 0}, {"rental_uris": {"android": "https://dc.lft.to/lastmile_qr_scan", "ios": "https://dc.lft.to/lastmile_qr_scan"}, "type": "electric_scooter", "lon": -77.01186666666666, "name": "93a3bcf39f81d4cc26ee8b3043f9506b", "bike_id": "93a3bcf39f81d4cc26ee8b3043f9506b", "fusion_lat": 0.0, "is_reserved": 0, "lat": 38.90011616666666, "fusion_lon": 0.0, "is_disabled": 0}, {"rental_uris": {"android": "https://dc.lft.to/lastmile_qr_scan", "ios": "https://dc.lft.to/lastmile_qr_scan"}, "type": "electric_scooter", "lon": -77.04663583333334, "name": "98c5176803241c57c059dbe3e126423e", "bike_id": "98c5176803241c57c059dbe3e126423e", "fusion_lat": 0.0, "is_reserved": 0, "lat": 38.8924625, "fusion_lon": 0.0, "is_disabled": 0}, {"rental_uris": {"android": "https://dc.lft.to/lastmile_qr_scan", "ios": "https://dc.lft.to/lastmile_qr_scan"}, "type": "electric_bike", "lon": -76.961787, "name": "d2d5a211f3d661f6b265ef141d7ff4d8", "bike_id": "d2d5a211f3d661f6b265ef141d7ff4d8", "fusion_lat": 0.0, "is_reserved": 0, "lat": 38.91860116666667, "fusion_lon": 0.0, "is_disabled": 0}, {"rental_uris": {"android": "https://dc.lft.to/lastmile_qr_scan", "ios": "https://dc.lft.to/lastmile_qr_scan"}, "type": "electric_scooter", "lon": -77.01744016666666, "name": "243506a6392ee2c3ab8e094fbb2de763", "bike_id": "243506a6392ee2c3ab8e094fbb2de763", "fusion_lat": 0.0, "is_reserved": 0, "lat": 38.886324, "fusion_lon": 0.0, "is_disabled": 0}, {"rental_uris": {"android": "https://dc.lft.to/lastmile_qr_scan", "ios": "https://dc.lft.to/lastmile_qr_scan"}, "type": "electric_scooter", "lon": -77.04329433333334, "name": "3b937903cd84ef7bcade0f22122a1dba", "bike_id": "3b937903cd84ef7bcade0f22122a1dba", "fusion_lat": 0.0, "is_reserved": 0, "lat": 38.905042, "fusion_lon": 0.0, "is_disabled": 0}, {"rental_uris": {"android": "https://dc.lft.to/lastmile_qr_scan", "ios": "https://dc.lft.to/lastmile_qr_scan"}, "type": "electric_scooter", "lon": -77.03103616666667, "name": "779882dbc027148dd5fb6c26b470bdd1", "bike_id": "779882dbc027148dd5fb6c26b470bdd1", "fusion_lat": 0.0, "is_reserved": 0, "lat": 38.919210166666666, "fusion_lon": 0.0, "is_disabled": 0}, {"rental_uris": {"android": "https://dc.lft.to/lastmile_qr_scan", "ios": "https://dc.lft.to/lastmile_qr_scan"}, "type": "electric_scooter", "lon": -77.07836366666666, "name": "822affb26dc53f6fde28175ae055ed94", "bike_id": "822affb26dc53f6fde28175ae055ed94", "fusion_lat": 0.0, "is_reserved": 0, "lat": 38.926562833333335, "fusion_lon": 0.0, "is_disabled": 0}, {"rental_uris": {"android": "https://dc.lft.to/lastmile_qr_scan", "ios": "https://dc.lft.to/lastmile_qr_scan"}, "type": "electric_scooter", "lon": -77.02269416666667, "name": "6f6e0ffaa1f8f16160c9db9226e56ca4", "bike_id": "6f6e0ffaa1f8f16160c9db9226e56ca4", "fusion_lat": 0.0, "is_reserved": 0, "lat": 38.887223, "fusion_lon": 0.0, "is_disabled": 0}, {"rental_uris": {"android": "https://dc.lft.to/lastmile_qr_scan", "ios": "https://dc.lft.to/lastmile_qr_scan"}, "type": "electric_scooter", "lon": -77.0259715, "name": "62c028c80753203c9a7b33aea57cff0f", "bike_id": "62c028c80753203c9a7b33aea57cff0f", "fusion_lat": 0.0, "is_reserved": 0, "lat": 38.97592733333333, "fusion_lon": 0.0, "is_disabled": 0}, {"rental_uris": {"android": "https://dc.lft.to/lastmile_qr_scan", "ios": "https://dc.lft.to/lastmile_qr_scan"}, "type": "electric_scooter", "lon": -77.03466866666666, "name": "c80bb43021001ae9f0aa623e4dc79558", "bike_id": "c80bb43021001ae9f0aa623e4dc79558", "fusion_lat": 0.0, "is_reserved": 0, "lat": 38.935394333333335, "fusion_lon": 0.0, "is_disabled": 0}, {"rental_uris": {"android": "https://dc.lft.to/lastmile_qr_scan", "ios": "https://dc.lft.to/lastmile_qr_scan"}, "type": "electric_scooter", "lon": -77.00340616666666, "name": "0836d440e340c1778a5dda7563c0f589", "bike_id": "0836d440e340c1778a5dda7563c0f589", "fusion_lat": 0.0, "is_reserved": 0, "lat": 38.908066833333336, "fusion_lon": 0.0, "is_disabled": 0}, {"rental_uris": {"android": "https://dc.lft.to/lastmile_qr_scan", "ios": "https://dc.lft.to/lastmile_qr_scan"}, "type": "electric_scooter", "lon": -77.0996255, "name": "d2a7d20cb039db7e9a7fe54978e0e91a", "bike_id": "d2a7d20cb039db7e9a7fe54978e0e91a", "fusion_lat": 0.0, "is_reserved": 0, "lat": 38.92249533333333, "fusion_lon": 0.0, "is_disabled": 0}, {"rental_uris": {"android": "https://dc.lft.to/lastmile_qr_scan", "ios": "https://dc.lft.to/lastmile_qr_scan"}, "type": "electric_scooter", "lon": -77.0272305, "name": "c7b800700ff791f590ad3fb094d04f7f", "bike_id": "c7b800700ff791f590ad3fb094d04f7f", "fusion_lat": 0.0, "is_reserved": 0, "lat": 38.906698166666665, "fusion_lon": 0.0, "is_disabled": 0}, {"rental_uris": {"android": "https://dc.lft.to/lastmile_qr_scan", "ios": "https://dc.lft.to/lastmile_qr_scan"}, "type": "electric_scooter", "lon": -77.03356583333333, "name": "8030d4b7d5f5e03cc4b14e3118f77018", "bike_id": "8030d4b7d5f5e03cc4b14e3118f77018", "fusion_lat": 0.0, "is_reserved": 0, "lat": 38.92439683333333, "fusion_lon": 0.0, "is_disabled": 0}, {"rental_uris": {"android": "https://dc.lft.to/lastmile_qr_scan", "ios": "https://dc.lft.to/lastmile_qr_scan"}, "type": "electric_scooter", "lon": -77.03894333333334, "name": "be7aac1be38382504dda5b9f4cd9a90d", "bike_id": "be7aac1be38382504dda5b9f4cd9a90d", "fusion_lat": 0.0, "is_reserved": 0, "lat": 38.922373, "fusion_lon": 0.0, "is_disabled": 0}, {"rental_uris": {"android": "https://dc.lft.to/lastmile_qr_scan", "ios": "https://dc.lft.to/lastmile_qr_scan"}, "type": "electric_scooter", "lon": -77.025324, "name": "2a092b3d28d74134867c2705561f07b9", "bike_id": "2a092b3d28d74134867c2705561f07b9", "fusion_lat": 0.0, "is_reserved": 0, "lat": 38.92087716666666, "fusion_lon": 0.0, "is_disabled": 0}, {"rental_uris": {"android": "https://dc.lft.to/lastmile_qr_scan", "ios": "https://dc.lft.to/lastmile_qr_scan"}, "type": "electric_bike", "lon": -77.01275083333333, "name": "29966ffa4b72d88c93af94e7a4bc85e8", "bike_id": "29966ffa4b72d88c93af94e7a4bc85e8", "fusion_lat": 0.0, "is_reserved": 0, "lat": 38.87784166666667, "fusion_lon": 0.0, "is_disabled": 0}, {"rental_uris": {"android": "https://dc.lft.to/lastmile_qr_scan", "ios": "https://dc.lft.to/lastmile_qr_scan"}, "type": "electric_scooter", "lon": -77.03642233333333, "name": "052ba1734b82f39ce76f9774572bccb4", "bike_id": "052ba1734b82f39ce76f9774572bccb4", "fusion_lat": 0.0, "is_reserved": 0, "lat": 38.9122025, "fusion_lon": 0.0, "is_disabled": 0}, {"rental_uris": {"android": "https://dc.lft.to/lastmile_qr_scan", "ios": "https://dc.lft.to/lastmile_qr_scan"}, "type": "electric_bike", "lon": -77.0107875, "name": "5cc560df5e6f7105ed210b09c051116b", "bike_id": "5cc560df5e6f7105ed210b09c051116b", "fusion_lat": 0.0, "is_reserved": 0, "lat": 38.962637, "fusion_lon": 0.0, "is_disabled": 0}, {"rental_uris": {"android": "https://dc.lft.to/lastmile_qr_scan", "ios": "https://dc.lft.to/lastmile_qr_scan"}, "type": "electric_scooter", "lon": -77.01465766666666, "name": "6b71500c2ca81b9c0bf242c29649ced4", "bike_id": "6b71500c2ca81b9c0bf242c29649ced4", "fusion_lat": 0.0, "is_reserved": 0, "lat": 38.910374, "fusion_lon": 0.0, "is_disabled": 0}, {"rental_uris": {"android": "https://dc.lft.to/lastmile_qr_scan", "ios": "https://dc.lft.to/lastmile_qr_scan"}, "type": "electric_scooter", "lon": -76.99490433333334, "name": "7c7a6da3ca44bc5803aa4157008a9195", "bike_id": "7c7a6da3ca44bc5803aa4157008a9195", "fusion_lat": 0.0, "is_reserved": 0, "lat": 38.9207635, "fusion_lon": 0.0, "is_disabled": 0}, {"rental_uris": {"android": "https://dc.lft.to/lastmile_qr_scan", "ios": "https://dc.lft.to/lastmile_qr_scan"}, "type": "electric_bike", "lon": -77.08487383333333, "name": "d0acd16a1153f8de6fa69a09c50c92b5", "bike_id": "d0acd16a1153f8de6fa69a09c50c92b5", "fusion_lat": 0.0, "is_reserved": 0, "lat": 38.89054433333333, "fusion_lon": 0.0, "is_disabled": 0}, {"rental_uris": {"android": "https://dc.lft.to/lastmile_qr_scan", "ios": "https://dc.lft.to/lastmile_qr_scan"}, "type": "electric_scooter", "lon": -77.01513166666666, "name": "c122b7d3f415115c95100ee054abe9b6", "bike_id": "c122b7d3f415115c95100ee054abe9b6", "fusion_lat": 0.0, "is_reserved": 0, "lat": 38.91001966666666, "fusion_lon": 0.0, "is_disabled": 0}, {"rental_uris": {"android": "https://dc.lft.to/lastmile_qr_scan", "ios": "https://dc.lft.to/lastmile_qr_scan"}, "type": "electric_scooter", "lon": -77.02885633333334, "name": "b366ae537e4089a52814604978fc9603", "bike_id": "b366ae537e4089a52814604978fc9603", "fusion_lat": 0.0, "is_reserved": 0, "lat": 38.914182833333335, "fusion_lon": 0.0, "is_disabled": 0}, {"rental_uris": {"android": "https://dc.lft.to/lastmile_qr_scan", "ios": "https://dc.lft.to/lastmile_qr_scan"}, "type": "electric_scooter", "lon": -77.01995483333333, "name": "f06cbec976fa3c3d7dbf48b8e0aed2f6", "bike_id": "f06cbec976fa3c3d7dbf48b8e0aed2f6", "fusion_lat": 0.0, "is_reserved": 0, "lat": 38.96623133333333, "fusion_lon": 0.0, "is_disabled": 0}, {"rental_uris": {"android": "https://dc.lft.to/lastmile_qr_scan", "ios": "https://dc.lft.to/lastmile_qr_scan"}, "type": "electric_scooter", "lon": -77.01259833333333, "name": "733b59dae52360904fe7625897f1c513", "bike_id": "733b59dae52360904fe7625897f1c513", "fusion_lat": 0.0, "is_reserved": 0, "lat": 38.9084255, "fusion_lon": 0.0, "is_disabled": 0}, {"rental_uris": {"android": "https://dc.lft.to/lastmile_qr_scan", "ios": "https://dc.lft.to/lastmile_qr_scan"}, "type": "electric_scooter", "lon": -76.99166883333334, "name": "acaf643a52ac3a51f848fead21d82544", "bike_id": "acaf643a52ac3a51f848fead21d82544", "fusion_lat": 0.0, "is_reserved": 0, "lat": 38.87342683333333, "fusion_lon": 0.0, "is_disabled": 0}, {"rental_uris": {"android": "https://dc.lft.to/lastmile_qr_scan", "ios": "https://dc.lft.to/lastmile_qr_scan"}, "type": "electric_bike", "lon": -76.9983955, "name": "00b43adc777927c29eec7901186eda68", "bike_id": "00b43adc777927c29eec7901186eda68", "fusion_lat": 0.0, "is_reserved": 0, "lat": 38.839218333333335, "fusion_lon": 0.0, "is_disabled": 0}, {"rental_uris": {"android": "https://dc.lft.to/lastmile_qr_scan", "ios": "https://dc.lft.to/lastmile_qr_scan"}, "type": "electric_scooter", "lon": -77.03353766666666, "name": "3da4cb2404c04646dc86539c1fe77baf", "bike_id": "3da4cb2404c04646dc86539c1fe77baf", "fusion_lat": 0.0, "is_reserved": 0, "lat": 38.922579, "fusion_lon": 0.0, "is_disabled": 0}, {"rental_uris": {"android": "https://dc.lft.to/lastmile_qr_scan", "ios": "https://dc.lft.to/lastmile_qr_scan"}, "type": "electric_scooter", "lon": -77.03682216666667, "name": "eef829c0ff729e768b035f3a59d8c270", "bike_id": "eef829c0ff729e768b035f3a59d8c270", "fusion_lat": 0.0, "is_reserved": 0, "lat": 38.927191, "fusion_lon": 0.0, "is_disabled": 0}, {"rental_uris": {"android": "https://dc.lft.to/lastmile_qr_scan", "ios": "https://dc.lft.to/lastmile_qr_scan"}, "type": "electric_bike", "lon": -77.09161716666667, "name": "69a7f7bbf95b131b74a3a6df57d3b42b", "bike_id": "69a7f7bbf95b131b74a3a6df57d3b42b", "fusion_lat": 0.0, "is_reserved": 0, "lat": 38.96764316666667, "fusion_lon": 0.0, "is_disabled": 0}, {"rental_uris": {"android": "https://dc.lft.to/lastmile_qr_scan", "ios": "https://dc.lft.to/lastmile_qr_scan"}, "type": "electric_scooter", "lon": -77.03732583333333, "name": "ff754a21f0bbcdd9601d46a883b7467a", "bike_id": "ff754a21f0bbcdd9601d46a883b7467a", "fusion_lat": 0.0, "is_reserved": 0, "lat": 38.91806283333333, "fusion_lon": 0.0, "is_disabled": 0}, {"rental_uris": {"android": "https://dc.lft.to/lastmile_qr_scan", "ios": "https://dc.lft.to/lastmile_qr_scan"}, "type": "electric_scooter", "lon": -77.03119766666667, "name": "1d0858637aae9ff94abff2fb94cf60f8", "bike_id": "1d0858637aae9ff94abff2fb94cf60f8", "fusion_lat": 0.0, "is_reserved": 0, "lat": 38.97376966666667, "fusion_lon": 0.0, "is_disabled": 0}, {"rental_uris": {"android": "https://dc.lft.to/lastmile_qr_scan", "ios": "https://dc.lft.to/lastmile_qr_scan"}, "type": "electric_scooter", "lon": -77.0465915, "name": "420c83867654ac815bc03b89bff40b88", "bike_id": "420c83867654ac815bc03b89bff40b88", "fusion_lat": 0.0, "is_reserved": 0, "lat": 38.89299616666667, "fusion_lon": 0.0, "is_disabled": 0}, {"rental_uris": {"android": "https://dc.lft.to/lastmile_qr_scan", "ios": "https://dc.lft.to/lastmile_qr_scan"}, "type": "electric_scooter", "lon": -77.0442475, "name": "35c8fb735d1daf321f4b2ea53b0b1920", "bike_id": "35c8fb735d1daf321f4b2ea53b0b1920", "fusion_lat": 0.0, "is_reserved": 0, "lat": 38.8742905, "fusion_lon": 0.0, "is_disabled": 0}, {"rental_uris": {"android": "https://dc.lft.to/lastmile_qr_scan", "ios": "https://dc.lft.to/lastmile_qr_scan"}, "type": "electric_scooter", "lon": -76.96700033333333, "name": "0d2f74a2c829bf8b4df7674c06bba76b", "bike_id": "0d2f74a2c829bf8b4df7674c06bba76b", "fusion_lat": 0.0, "is_reserved": 0, "lat": 38.858958666666666, "fusion_lon": 0.0, "is_disabled": 0}, {"rental_uris": {"android": "https://dc.lft.to/lastmile_qr_scan", "ios": "https://dc.lft.to/lastmile_qr_scan"}, "type": "electric_bike", "lon": -77.05034483333333, "name": "bb226dc40506ead6f4e4a31b867cb790", "bike_id": "bb226dc40506ead6f4e4a31b867cb790", "fusion_lat": 0.0, "is_reserved": 0, "lat": 38.911160333333335, "fusion_lon": 0.0, "is_disabled": 0}, {"rental_uris": {"android": "https://dc.lft.to/lastmile_qr_scan", "ios": "https://dc.lft.to/lastmile_qr_scan"}, "type": "electric_scooter", "lon": -77.03434466666667, "name": "fdaab5f2c72638c36ca4614257e2e1b7", "bike_id": "fdaab5f2c72638c36ca4614257e2e1b7", "fusion_lat": 0.0, "is_reserved": 0, "lat": 38.9026595, "fusion_lon": 0.0, "is_disabled": 0}, {"rental_uris": {"android": "https://dc.lft.to/lastmile_qr_scan", "ios": "https://dc.lft.to/lastmile_qr_scan"}, "type": "electric_scooter", "lon": -76.97467833333333, "name": "da9e9ac42a75fc124158d920864a5dbd", "bike_id": "da9e9ac42a75fc124158d920864a5dbd", "fusion_lat": 0.0, "is_reserved": 0, "lat": 38.8839435, "fusion_lon": 0.0, "is_disabled": 0}, {"rental_uris": {"android": "https://dc.lft.to/lastmile_qr_scan", "ios": "https://dc.lft.to/lastmile_qr_scan"}, "type": "electric_scooter", "lon": -76.947212, "name": "97689e930dd3337151d15862292ab7d3", "bike_id": "97689e930dd3337151d15862292ab7d3", "fusion_lat": 0.0, "is_reserved": 0, "lat": 38.89738716666667, "fusion_lon": 0.0, "is_disabled": 0}, {"rental_uris": {"android": "https://dc.lft.to/lastmile_qr_scan", "ios": "https://dc.lft.to/lastmile_qr_scan"}, "type": "electric_scooter", "lon": -77.06495966666667, "name": "4edc072fd0473ca4d8ccb8268d0229ac", "bike_id": "4edc072fd0473ca4d8ccb8268d0229ac", "fusion_lat": 0.0, "is_reserved": 0, "lat": 38.964944, "fusion_lon": 0.0, "is_disabled": 0}, {"rental_uris": {"android": "https://dc.lft.to/lastmile_qr_scan", "ios": "https://dc.lft.to/lastmile_qr_scan"}, "type": "electric_scooter", "lon": -76.99683, "name": "e909601e3b00c476c8b75810e8b09ec7", "bike_id": "e909601e3b00c476c8b75810e8b09ec7", "fusion_lat": 0.0, "is_reserved": 0, "lat": 38.88704083333333, "fusion_lon": 0.0, "is_disabled": 0}, {"rental_uris": {"android": "https://dc.lft.to/lastmile_qr_scan", "ios": "https://dc.lft.to/lastmile_qr_scan"}, "type": "electric_scooter", "lon": -77.02232833333333, "name": "b1f36261619bf061922478a948959cbd", "bike_id": "b1f36261619bf061922478a948959cbd", "fusion_lat": 0.0, "is_reserved": 0, "lat": 38.924797833333336, "fusion_lon": 0.0, "is_disabled": 0}, {"rental_uris": {"android": "https://dc.lft.to/lastmile_qr_scan", "ios": "https://dc.lft.to/lastmile_qr_scan"}, "type": "electric_bike", "lon": -76.94570566666667, "name": "40b417140b38a50728bcc00fa52fd801", "bike_id": "40b417140b38a50728bcc00fa52fd801", "fusion_lat": 0.0, "is_reserved": 0, "lat": 38.866204333333336, "fusion_lon": 0.0, "is_disabled": 0}, {"rental_uris": {"android": "https://dc.lft.to/lastmile_qr_scan", "ios": "https://dc.lft.to/lastmile_qr_scan"}, "type": "electric_scooter", "lon": -77.0432065, "name": "3163d9d7e258c06093cf724218c2aba6", "bike_id": "3163d9d7e258c06093cf724218c2aba6", "fusion_lat": 0.0, "is_reserved": 0, "lat": 38.892231, "fusion_lon": 0.0, "is_disabled": 0}, {"rental_uris": {"android": "https://dc.lft.to/lastmile_qr_scan", "ios": "https://dc.lft.to/lastmile_qr_scan"}, "type": "electric_scooter", "lon": -76.996102, "name": "ee932fc88067e0846641d982d33cf133", "bike_id": "ee932fc88067e0846641d982d33cf133", "fusion_lat": 0.0, "is_reserved": 0, "lat": 38.89763883333333, "fusion_lon": 0.0, "is_disabled": 0}, {"rental_uris": {"android": "https://dc.lft.to/lastmile_qr_scan", "ios": "https://dc.lft.to/lastmile_qr_scan"}, "type": "electric_scooter", "lon": -77.0445485, "name": "b56e9b8ebe99a6a8b019cd114c2ec234", "bike_id": "b56e9b8ebe99a6a8b019cd114c2ec234", "fusion_lat": 0.0, "is_reserved": 0, "lat": 38.8880865, "fusion_lon": 0.0, "is_disabled": 0}, {"rental_uris": {"android": "https://dc.lft.to/lastmile_qr_scan", "ios": "https://dc.lft.to/lastmile_qr_scan"}, "type": "electric_scooter", "lon": -77.0265335, "name": "c080c9b863d32b24032d82e14b25738d", "bike_id": "c080c9b863d32b24032d82e14b25738d", "fusion_lat": 0.0, "is_reserved": 0, "lat": 38.881124666666665, "fusion_lon": 0.0, "is_disabled": 0}, {"rental_uris": {"android": "https://dc.lft.to/lastmile_qr_scan", "ios": "https://dc.lft.to/lastmile_qr_scan"}, "type": "electric_scooter", "lon": -77.02169666666667, "name": "100ec555273e19c0efdbca2378740f18", "bike_id": "100ec555273e19c0efdbca2378740f18", "fusion_lat": 0.0, "is_reserved": 0, "lat": 38.887418333333336, "fusion_lon": 0.0, "is_disabled": 0}, {"rental_uris": {"android": "https://dc.lft.to/lastmile_qr_scan", "ios": "https://dc.lft.to/lastmile_qr_scan"}, "type": "electric_scooter", "lon": -77.068898, "name": "724def7f95bd1329446d0d53ac8a2a26", "bike_id": "724def7f95bd1329446d0d53ac8a2a26", "fusion_lat": 0.0, "is_reserved": 0, "lat": 38.90515533333333, "fusion_lon": 0.0, "is_disabled": 0}, {"rental_uris": {"android": "https://dc.lft.to/lastmile_qr_scan", "ios": "https://dc.lft.to/lastmile_qr_scan"}, "type": "electric_scooter", "lon": -77.0377085, "name": "e9124f0af2fff089db094d4f9a35373a", "bike_id": "e9124f0af2fff089db094d4f9a35373a", "fusion_lat": 0.0, "is_reserved": 0, "lat": 38.906958333333336, "fusion_lon": 0.0, "is_disabled": 0}, {"rental_uris": {"android": "https://dc.lft.to/lastmile_qr_scan", "ios": "https://dc.lft.to/lastmile_qr_scan"}, "type": "electric_scooter", "lon": -77.045582, "name": "fb0a883f769579fc13cde7118d3a5066", "bike_id": "fb0a883f769579fc13cde7118d3a5066", "fusion_lat": 0.0, "is_reserved": 0, "lat": 38.917931, "fusion_lon": 0.0, "is_disabled": 0}, {"rental_uris": {"android": "https://dc.lft.to/lastmile_qr_scan", "ios": "https://dc.lft.to/lastmile_qr_scan"}, "type": "electric_scooter", "lon": -77.03045366666667, "name": "07f1e87545ffb2a7edffd278fe668807", "bike_id": "07f1e87545ffb2a7edffd278fe668807", "fusion_lat": 0.0, "is_reserved": 0, "lat": 38.8840155, "fusion_lon": 0.0, "is_disabled": 0}, {"rental_uris": {"android": "https://dc.lft.to/lastmile_qr_scan", "ios": "https://dc.lft.to/lastmile_qr_scan"}, "type": "electric_scooter", "lon": -77.05460066666667, "name": "c6e4300c9bb9622b7d17d1f999337fe0", "bike_id": "c6e4300c9bb9622b7d17d1f999337fe0", "fusion_lat": 0.0, "is_reserved": 0, "lat": 38.929019333333336, "fusion_lon": 0.0, "is_disabled": 0}, {"rental_uris": {"android": "https://dc.lft.to/lastmile_qr_scan", "ios": "https://dc.lft.to/lastmile_qr_scan"}, "type": "electric_scooter", "lon": -77.00712983333334, "name": "8b0f20f166677cd48ea286ef1ea638a7", "bike_id": "8b0f20f166677cd48ea286ef1ea638a7", "fusion_lat": 0.0, "is_reserved": 0, "lat": 38.884904166666665, "fusion_lon": 0.0, "is_disabled": 0}, {"rental_uris": {"android": "https://dc.lft.to/lastmile_qr_scan", "ios": "https://dc.lft.to/lastmile_qr_scan"}, "type": "electric_scooter", "lon": -77.03369566666667, "name": "13818990da67a5c1e8d328cb8910def4", "bike_id": "13818990da67a5c1e8d328cb8910def4", "fusion_lat": 0.0, "is_reserved": 0, "lat": 38.900837833333334, "fusion_lon": 0.0, "is_disabled": 0}, {"rental_uris": {"android": "https://dc.lft.to/lastmile_qr_scan", "ios": "https://dc.lft.to/lastmile_qr_scan"}, "type": "electric_scooter", "lon": -77.03087983333333, "name": "94fef024da239e06de03a3af6b719f6b", "bike_id": "94fef024da239e06de03a3af6b719f6b", "fusion_lat": 0.0, "is_reserved": 0, "lat": 38.89735733333333, "fusion_lon": 0.0, "is_disabled": 0}, {"rental_uris": {"android": "https://dc.lft.to/lastmile_qr_scan", "ios": "https://dc.lft.to/lastmile_qr_scan"}, "type": "electric_scooter", "lon": -76.9718625, "name": "bb6673af1d80de2ef57a74f4b9884e85", "bike_id": "bb6673af1d80de2ef57a74f4b9884e85", "fusion_lat": 0.0, "is_reserved": 0, "lat": 38.912625, "fusion_lon": 0.0, "is_disabled": 0}, {"rental_uris": {"android": "https://dc.lft.to/lastmile_qr_scan", "ios": "https://dc.lft.to/lastmile_qr_scan"}, "type": "electric_scooter", "lon": -77.019763, "name": "b3b938ca2869045cb64509bc392c1066", "bike_id": "b3b938ca2869045cb64509bc392c1066", "fusion_lat": 0.0, "is_reserved": 0, "lat": 38.912912666666664, "fusion_lon": 0.0, "is_disabled": 0}, {"rental_uris": {"android": "https://dc.lft.to/lastmile_qr_scan", "ios": "https://dc.lft.to/lastmile_qr_scan"}, "type": "electric_scooter", "lon": -77.03354666666667, "name": "0ba286e8f39d35b2168cc3f795cb0781", "bike_id": "0ba286e8f39d35b2168cc3f795cb0781", "fusion_lat": 0.0, "is_reserved": 0, "lat": 38.898230833333336, "fusion_lon": 0.0, "is_disabled": 0}, {"rental_uris": {"android": "https://dc.lft.to/lastmile_qr_scan", "ios": "https://dc.lft.to/lastmile_qr_scan"}, "type": "electric_scooter", "lon": -77.03799766666667, "name": "6fd6d95eeb9dea4e026db2eeda0e0bbb", "bike_id": "6fd6d95eeb9dea4e026db2eeda0e0bbb", "fusion_lat": 0.0, "is_reserved": 0, "lat": 38.9102935, "fusion_lon": 0.0, "is_disabled": 0}, {"rental_uris": {"android": "https://dc.lft.to/lastmile_qr_scan", "ios": "https://dc.lft.to/lastmile_qr_scan"}, "type": "electric_scooter", "lon": -76.99496566666667, "name": "9580a3b011e7ebe5e46741db60276acc", "bike_id": "9580a3b011e7ebe5e46741db60276acc", "fusion_lat": 0.0, "is_reserved": 0, "lat": 38.8622015, "fusion_lon": 0.0, "is_disabled": 0}, {"rental_uris": {"android": "https://dc.lft.to/lastmile_qr_scan", "ios": "https://dc.lft.to/lastmile_qr_scan"}, "type": "electric_scooter", "lon": -77.02849333333333, "name": "d16630439912826c9f18f79fa244b8a8", "bike_id": "d16630439912826c9f18f79fa244b8a8", "fusion_lat": 0.0, "is_reserved": 0, "lat": 38.917103, "fusion_lon": 0.0, "is_disabled": 0}, {"rental_uris": {"android": "https://dc.lft.to/lastmile_qr_scan", "ios": "https://dc.lft.to/lastmile_qr_scan"}, "type": "electric_scooter", "lon": -77.024233, "name": "ff9497d500cbac880bbeffcbc7933510", "bike_id": "ff9497d500cbac880bbeffcbc7933510", "fusion_lat": 0.0, "is_reserved": 0, "lat": 38.8928725, "fusion_lon": 0.0, "is_disabled": 0}, {"rental_uris": {"android": "https://dc.lft.to/lastmile_qr_scan", "ios": "https://dc.lft.to/lastmile_qr_scan"}, "type": "electric_scooter", "lon": -77.002236, "name": "66e0d1f6d5c3959e1b49b0c0a99e9f82", "bike_id": "66e0d1f6d5c3959e1b49b0c0a99e9f82", "fusion_lat": 0.0, "is_reserved": 0, "lat": 38.90004283333333, "fusion_lon": 0.0, "is_disabled": 0}, {"rental_uris": {"android": "https://dc.lft.to/lastmile_qr_scan", "ios": "https://dc.lft.to/lastmile_qr_scan"}, "type": "electric_bike", "lon": -77.02367166666667, "name": "8db10b08b94d6b529e06027b0e7f402c", "bike_id": "8db10b08b94d6b529e06027b0e7f402c", "fusion_lat": 0.0, "is_reserved": 0, "lat": 38.9007655, "fusion_lon": 0.0, "is_disabled": 0}, {"rental_uris": {"android": "https://dc.lft.to/lastmile_qr_scan", "ios": "https://dc.lft.to/lastmile_qr_scan"}, "type": "electric_scooter", "lon": -77.045009, "name": "330bf8b44b2e625eea58adb38b01164f", "bike_id": "330bf8b44b2e625eea58adb38b01164f", "fusion_lat": 0.0, "is_reserved": 0, "lat": 38.900173, "fusion_lon": 0.0, "is_disabled": 0}, {"rental_uris": {"android": "https://dc.lft.to/lastmile_qr_scan", "ios": "https://dc.lft.to/lastmile_qr_scan"}, "type": "electric_bike", "lon": -77.101288, "name": "80bd2b260a78b720a649e5547e77f9f7", "bike_id": "80bd2b260a78b720a649e5547e77f9f7", "fusion_lat": 0.0, "is_reserved": 0, "lat": 38.85205366666667, "fusion_lon": 0.0, "is_disabled": 0}, {"rental_uris": {"android": "https://dc.lft.to/lastmile_qr_scan", "ios": "https://dc.lft.to/lastmile_qr_scan"}, "type": "electric_scooter", "lon": -77.07314666666667, "name": "c6352e164a67266ff47cce13f251eb8c", "bike_id": "c6352e164a67266ff47cce13f251eb8c", "fusion_lat": 0.0, "is_reserved": 0, "lat": 38.911955166666665, "fusion_lon": 0.0, "is_disabled": 0}, {"rental_uris": {"android": "https://dc.lft.to/lastmile_qr_scan", "ios": "https://dc.lft.to/lastmile_qr_scan"}, "type": "electric_bike", "lon": -77.149893, "name": "35e53366c6dcf52043afcc58e1a42955", "bike_id": "35e53366c6dcf52043afcc58e1a42955", "fusion_lat": 0.0, "is_reserved": 0, "lat": 39.094567166666664, "fusion_lon": 0.0, "is_disabled": 0}, {"rental_uris": {"android": "https://dc.lft.to/lastmile_qr_scan", "ios": "https://dc.lft.to/lastmile_qr_scan"}, "type": "electric_bike", "lon": -77.04414583333333, "name": "21f939e19e5d00c5098a5650ecca0b3c", "bike_id": "21f939e19e5d00c5098a5650ecca0b3c", "fusion_lat": 0.0, "is_reserved": 0, "lat": 38.933718666666664, "fusion_lon": 0.0, "is_disabled": 0}, {"rental_uris": {"android": "https://dc.lft.to/lastmile_qr_scan", "ios": "https://dc.lft.to/lastmile_qr_scan"}, "type": "electric_scooter", "lon": -76.94885433333333, "name": "f68f4eee927b9331be9618e1e69eafc6", "bike_id": "f68f4eee927b9331be9618e1e69eafc6", "fusion_lat": 0.0, "is_reserved": 0, "lat": 38.895103666666664, "fusion_lon": 0.0, "is_disabled": 0}, {"rental_uris": {"android": "https://dc.lft.to/lastmile_qr_scan", "ios": "https://dc.lft.to/lastmile_qr_scan"}, "type": "electric_scooter", "lon": -76.99232433333333, "name": "65fb18d86380da9772a1d6f3d22cfe00", "bike_id": "65fb18d86380da9772a1d6f3d22cfe00", "fusion_lat": 0.0, "is_reserved": 0, "lat": 38.89890616666667, "fusion_lon": 0.0, "is_disabled": 0}, {"rental_uris": {"android": "https://dc.lft.to/lastmile_qr_scan", "ios": "https://dc.lft.to/lastmile_qr_scan"}, "type": "electric_bike", "lon": -77.0900625, "name": "1abc359f60eaf5c20ad54a5c2a09af9e", "bike_id": "1abc359f60eaf5c20ad54a5c2a09af9e", "fusion_lat": 0.0, "is_reserved": 0, "lat": 38.84118483333334, "fusion_lon": 0.0, "is_disabled": 0}, {"rental_uris": {"android": "https://dc.lft.to/lastmile_qr_scan", "ios": "https://dc.lft.to/lastmile_qr_scan"}, "type": "electric_scooter", "lon": -77.0409235, "name": "45eccbcdb83e03b4a993e1f2d50a7ec9", "bike_id": "45eccbcdb83e03b4a993e1f2d50a7ec9", "fusion_lat": 0.0, "is_reserved": 0, "lat": 38.911214, "fusion_lon": 0.0, "is_disabled": 0}, {"rental_uris": {"android": "https://dc.lft.to/lastmile_qr_scan", "ios": "https://dc.lft.to/lastmile_qr_scan"}, "type": "electric_scooter", "lon": -77.04908833333333, "name": "23083b500e5ca0889c717b1291a40525", "bike_id": "23083b500e5ca0889c717b1291a40525", "fusion_lat": 0.0, "is_reserved": 0, "lat": 38.905743333333334, "fusion_lon": 0.0, "is_disabled": 0}, {"rental_uris": {"android": "https://dc.lft.to/lastmile_qr_scan", "ios": "https://dc.lft.to/lastmile_qr_scan"}, "type": "electric_bike", "lon": -77.1990435, "name": "9e414b74c877a398ea159f9caaf54eb7", "bike_id": "9e414b74c877a398ea159f9caaf54eb7", "fusion_lat": 0.0, "is_reserved": 0, "lat": 38.875249333333336, "fusion_lon": 0.0, "is_disabled": 0}, {"rental_uris": {"android": "https://dc.lft.to/lastmile_qr_scan", "ios": "https://dc.lft.to/lastmile_qr_scan"}, "type": "electric_scooter", "lon": -77.007062, "name": "935b42fdd23afaf2b905ceb1a46efe6f", "bike_id": "935b42fdd23afaf2b905ceb1a46efe6f", "fusion_lat": 0.0, "is_reserved": 0, "lat": 38.9054285, "fusion_lon": 0.0, "is_disabled": 0}, {"rental_uris": {"android": "https://dc.lft.to/lastmile_qr_scan", "ios": "https://dc.lft.to/lastmile_qr_scan"}, "type": "electric_scooter", "lon": -77.02713783333333, "name": "9a70b1f82292094fb0b2b0f3251ee5bc", "bike_id": "9a70b1f82292094fb0b2b0f3251ee5bc", "fusion_lat": 0.0, "is_reserved": 0, "lat": 38.8813035, "fusion_lon": 0.0, "is_disabled": 0}, {"rental_uris": {"android": "https://dc.lft.to/lastmile_qr_scan", "ios": "https://dc.lft.to/lastmile_qr_scan"}, "type": "electric_scooter", "lon": -77.04853183333333, "name": "453150c6c85d11418583066886d49571", "bike_id": "453150c6c85d11418583066886d49571", "fusion_lat": 0.0, "is_reserved": 0, "lat": 38.904665333333334, "fusion_lon": 0.0, "is_disabled": 0}, {"rental_uris": {"android": "https://dc.lft.to/lastmile_qr_scan", "ios": "https://dc.lft.to/lastmile_qr_scan"}, "type": "electric_scooter", "lon": -77.0322, "name": "0b41a3bb844c288450959df5a02f3820", "bike_id": "0b41a3bb844c288450959df5a02f3820", "fusion_lat": 0.0, "is_reserved": 0, "lat": 38.91201916666667, "fusion_lon": 0.0, "is_disabled": 0}, {"rental_uris": {"android": "https://dc.lft.to/lastmile_qr_scan", "ios": "https://dc.lft.to/lastmile_qr_scan"}, "type": "electric_bike", "lon": -77.12268233333333, "name": "216ba4f8308a0b3cfa0fe6cb9201eadd", "bike_id": "216ba4f8308a0b3cfa0fe6cb9201eadd", "fusion_lat": 0.0, "is_reserved": 0, "lat": 38.891923, "fusion_lon": 0.0, "is_disabled": 0}, {"rental_uris": {"android": "https://dc.lft.to/lastmile_qr_scan", "ios": "https://dc.lft.to/lastmile_qr_scan"}, "type": "electric_bike", "lon": -77.07688683333333, "name": "e6b43fcec19a3730a06f214b42e00902", "bike_id": "e6b43fcec19a3730a06f214b42e00902", "fusion_lat": 0.0, "is_reserved": 0, "lat": 38.8319465, "fusion_lon": 0.0, "is_disabled": 0}, {"rental_uris": {"android": "https://dc.lft.to/lastmile_qr_scan", "ios": "https://dc.lft.to/lastmile_qr_scan"}, "type": "electric_bike", "lon": -77.112254, "name": "2beb48e9384060034eca293338ab37fb", "bike_id": "2beb48e9384060034eca293338ab37fb", "fusion_lat": 0.0, "is_reserved": 0, "lat": 38.82865816666666, "fusion_lon": 0.0, "is_disabled": 0}, {"rental_uris": {"android": "https://dc.lft.to/lastmile_qr_scan", "ios": "https://dc.lft.to/lastmile_qr_scan"}, "type": "electric_bike", "lon": -76.93536633333333, "name": "cf673fd75104060b11aaa15efcf4e881", "bike_id": "cf673fd75104060b11aaa15efcf4e881", "fusion_lat": 0.0, "is_reserved": 0, "lat": 38.95543816666667, "fusion_lon": 0.0, "is_disabled": 0}, {"rental_uris": {"android": "https://dc.lft.to/lastmile_qr_scan", "ios": "https://dc.lft.to/lastmile_qr_scan"}, "type": "electric_scooter", "lon": -76.984951, "name": "68cf88d949e97a968a968bf5d4cbc474", "bike_id": "68cf88d949e97a968a968bf5d4cbc474", "fusion_lat": 0.0, "is_reserved": 0, "lat": 38.900451833333335, "fusion_lon": 0.0, "is_disabled": 0}, {"rental_uris": {"android": "https://dc.lft.to/lastmile_qr_scan", "ios": "https://dc.lft.to/lastmile_qr_scan"}, "type": "electric_scooter", "lon": -77.00222833333333, "name": "1714dc868afde3cc1148471fbaee9010", "bike_id": "1714dc868afde3cc1148471fbaee9010", "fusion_lat": 0.0, "is_reserved": 0, "lat": 38.87744333333333, "fusion_lon": 0.0, "is_disabled": 0}, {"rental_uris": {"android": "https://dc.lft.to/lastmile_qr_scan", "ios": "https://dc.lft.to/lastmile_qr_scan"}, "type": "electric_scooter", "lon": -77.00121183333333, "name": "87bce78942c7de13551ab651c0f38eb9", "bike_id": "87bce78942c7de13551ab651c0f38eb9", "fusion_lat": 0.0, "is_reserved": 0, "lat": 38.90001933333333, "fusion_lon": 0.0, "is_disabled": 0}, {"rental_uris": {"android": "https://dc.lft.to/lastmile_qr_scan", "ios": "https://dc.lft.to/lastmile_qr_scan"}, "type": "electric_scooter", "lon": -77.01098983333333, "name": "23a0c3d9742399c02f5787bdc6e8886f", "bike_id": "23a0c3d9742399c02f5787bdc6e8886f", "fusion_lat": 0.0, "is_reserved": 0, "lat": 38.90556483333334, "fusion_lon": 0.0, "is_disabled": 0}, {"rental_uris": {"android": "https://dc.lft.to/lastmile_qr_scan", "ios": "https://dc.lft.to/lastmile_qr_scan"}, "type": "electric_scooter", "lon": -76.99163166666666, "name": "075021c9eae05f7f97c4b6c7cf6677ab", "bike_id": "075021c9eae05f7f97c4b6c7cf6677ab", "fusion_lat": 0.0, "is_reserved": 0, "lat": 38.879206333333336, "fusion_lon": 0.0, "is_disabled": 0}, {"rental_uris": {"android": "https://dc.lft.to/lastmile_qr_scan", "ios": "https://dc.lft.to/lastmile_qr_scan"}, "type": "electric_scooter", "lon": -77.0281375, "name": "2bc18e7ee785f0fcc17b4645bd92c6bc", "bike_id": "2bc18e7ee785f0fcc17b4645bd92c6bc", "fusion_lat": 0.0, "is_reserved": 0, "lat": 38.956149833333335, "fusion_lon": 0.0, "is_disabled": 0}, {"rental_uris": {"android": "https://dc.lft.to/lastmile_qr_scan", "ios": "https://dc.lft.to/lastmile_qr_scan"}, "type": "electric_bike", "lon": -76.98735533333334, "name": "8ef046a43e367a937335a19aa07d964a", "bike_id": "8ef046a43e367a937335a19aa07d964a", "fusion_lat": 0.0, "is_reserved": 0, "lat": 38.9442855, "fusion_lon": 0.0, "is_disabled": 0}, {"rental_uris": {"android": "https://dc.lft.to/lastmile_qr_scan", "ios": "https://dc.lft.to/lastmile_qr_scan"}, "type": "electric_scooter", "lon": -77.04762, "name": "e2e471e5f5576101b11846f95ec8c4c0", "bike_id": "e2e471e5f5576101b11846f95ec8c4c0", "fusion_lat": 0.0, "is_reserved": 0, "lat": 38.902221833333336, "fusion_lon": 0.0, "is_disabled": 0}, {"rental_uris": {"android": "https://dc.lft.to/lastmile_qr_scan", "ios": "https://dc.lft.to/lastmile_qr_scan"}, "type": "electric_scooter", "lon": -77.035583, "name": "97625a9bd5759315fcd2eeeb68c0da5d", "bike_id": "97625a9bd5759315fcd2eeeb68c0da5d", "fusion_lat": 0.0, "is_reserved": 0, "lat": 38.91702433333333, "fusion_lon": 0.0, "is_disabled": 0}, {"rental_uris": {"android": "https://dc.lft.to/lastmile_qr_scan", "ios": "https://dc.lft.to/lastmile_qr_scan"}, "type": "electric_scooter", "lon": -77.06776233333333, "name": "d04a765f331a691c7b1becc3da9048d0", "bike_id": "d04a765f331a691c7b1becc3da9048d0", "fusion_lat": 0.0, "is_reserved": 0, "lat": 38.90349416666667, "fusion_lon": 0.0, "is_disabled": 0}, {"rental_uris": {"android": "https://dc.lft.to/lastmile_qr_scan", "ios": "https://dc.lft.to/lastmile_qr_scan"}, "type": "electric_scooter", "lon": -77.04779233333333, "name": "1f464298d9196abbcb81b82f1161c875", "bike_id": "1f464298d9196abbcb81b82f1161c875", "fusion_lat": 0.0, "is_reserved": 0, "lat": 38.902237166666666, "fusion_lon": 0.0, "is_disabled": 0}, {"rental_uris": {"android": "https://dc.lft.to/lastmile_qr_scan", "ios": "https://dc.lft.to/lastmile_qr_scan"}, "type": "electric_scooter", "lon": -77.0786395, "name": "be1a6f1558319efd9aaafd8c11fd8ad1", "bike_id": "be1a6f1558319efd9aaafd8c11fd8ad1", "fusion_lat": 0.0, "is_reserved": 0, "lat": 38.92468933333333, "fusion_lon": 0.0, "is_disabled": 0}, {"rental_uris": {"android": "https://dc.lft.to/lastmile_qr_scan", "ios": "https://dc.lft.to/lastmile_qr_scan"}, "type": "electric_scooter", "lon": -77.02840233333333, "name": "c1a2293002afce07c76a1f01c2ebe432", "bike_id": "c1a2293002afce07c76a1f01c2ebe432", "fusion_lat": 0.0, "is_reserved": 0, "lat": 38.90027633333333, "fusion_lon": 0.0, "is_disabled": 0}, {"rental_uris": {"android": "https://dc.lft.to/lastmile_qr_scan", "ios": "https://dc.lft.to/lastmile_qr_scan"}, "type": "electric_scooter", "lon": -77.05156533333333, "name": "89dee67ff3b2db6823a7e694947e25b1", "bike_id": "89dee67ff3b2db6823a7e694947e25b1", "fusion_lat": 0.0, "is_reserved": 0, "lat": 38.905794, "fusion_lon": 0.0, "is_disabled": 0}, {"rental_uris": {"android": "https://dc.lft.to/lastmile_qr_scan", "ios": "https://dc.lft.to/lastmile_qr_scan"}, "type": "electric_scooter", "lon": -77.04127866666667, "name": "32320cde90d423f3f2c660c513e41ace", "bike_id": "32320cde90d423f3f2c660c513e41ace", "fusion_lat": 0.0, "is_reserved": 0, "lat": 38.91632833333333, "fusion_lon": 0.0, "is_disabled": 0}, {"rental_uris": {"android": "https://dc.lft.to/lastmile_qr_scan", "ios": "https://dc.lft.to/lastmile_qr_scan"}, "type": "electric_scooter", "lon": -77.02425883333333, "name": "3b0fa018ec3366976a88c135fe6d75bf", "bike_id": "3b0fa018ec3366976a88c135fe6d75bf", "fusion_lat": 0.0, "is_reserved": 0, "lat": 38.892289166666664, "fusion_lon": 0.0, "is_disabled": 0}, {"rental_uris": {"android": "https://dc.lft.to/lastmile_qr_scan", "ios": "https://dc.lft.to/lastmile_qr_scan"}, "type": "electric_scooter", "lon": -77.027905, "name": "e27ff8e3a8b76400025c6c5ab39e10c9", "bike_id": "e27ff8e3a8b76400025c6c5ab39e10c9", "fusion_lat": 0.0, "is_reserved": 0, "lat": 38.96135433333333, "fusion_lon": 0.0, "is_disabled": 0}, {"rental_uris": {"android": "https://dc.lft.to/lastmile_qr_scan", "ios": "https://dc.lft.to/lastmile_qr_scan"}, "type": "electric_scooter", "lon": -77.01618483333333, "name": "a357b04ce9da5345d70b294d66bf9a46", "bike_id": "a357b04ce9da5345d70b294d66bf9a46", "fusion_lat": 0.0, "is_reserved": 0, "lat": 38.90610066666667, "fusion_lon": 0.0, "is_disabled": 0}, {"rental_uris": {"android": "https://dc.lft.to/lastmile_qr_scan", "ios": "https://dc.lft.to/lastmile_qr_scan"}, "type": "electric_scooter", "lon": -77.05192433333333, "name": "a6c4572e3368717bb9954b507581b723", "bike_id": "a6c4572e3368717bb9954b507581b723", "fusion_lat": 0.0, "is_reserved": 0, "lat": 38.925376, "fusion_lon": 0.0, "is_disabled": 0}, {"rental_uris": {"android": "https://dc.lft.to/lastmile_qr_scan", "ios": "https://dc.lft.to/lastmile_qr_scan"}, "type": "electric_scooter", "lon": -76.98884233333334, "name": "f2e77b34eb26a6b82de8a859c1452b63", "bike_id": "f2e77b34eb26a6b82de8a859c1452b63", "fusion_lat": 0.0, "is_reserved": 0, "lat": 38.90633233333333, "fusion_lon": 0.0, "is_disabled": 0}, {"rental_uris": {"android": "https://dc.lft.to/lastmile_qr_scan", "ios": "https://dc.lft.to/lastmile_qr_scan"}, "type": "electric_scooter", "lon": -77.01207783333334, "name": "b81acfc6e020d075f51035d9140c3951", "bike_id": "b81acfc6e020d075f51035d9140c3951", "fusion_lat": 0.0, "is_reserved": 0, "lat": 38.92175816666666, "fusion_lon": 0.0, "is_disabled": 0}, {"rental_uris": {"android": "https://dc.lft.to/lastmile_qr_scan", "ios": "https://dc.lft.to/lastmile_qr_scan"}, "type": "electric_scooter", "lon": -77.04659916666667, "name": "33fefa0025c5c01fb196682c49a1e071", "bike_id": "33fefa0025c5c01fb196682c49a1e071", "fusion_lat": 0.0, "is_reserved": 0, "lat": 38.89346033333333, "fusion_lon": 0.0, "is_disabled": 0}, {"rental_uris": {"android": "https://dc.lft.to/lastmile_qr_scan", "ios": "https://dc.lft.to/lastmile_qr_scan"}, "type": "electric_bike", "lon": -76.98154983333333, "name": "ef4d1cf00d3da41ee8be8e66c2cc2839", "bike_id": "ef4d1cf00d3da41ee8be8e66c2cc2839", "fusion_lat": 0.0, "is_reserved": 0, "lat": 38.959625833333334, "fusion_lon": 0.0, "is_disabled": 0}, {"rental_uris": {"android": "https://dc.lft.to/lastmile_qr_scan", "ios": "https://dc.lft.to/lastmile_qr_scan"}, "type": "electric_scooter", "lon": -77.03833083333333, "name": "0f00039e3d15a4d8d00d923910cfd7b0", "bike_id": "0f00039e3d15a4d8d00d923910cfd7b0", "fusion_lat": 0.0, "is_reserved": 0, "lat": 38.91182116666667, "fusion_lon": 0.0, "is_disabled": 0}, {"rental_uris": {"android": "https://dc.lft.to/lastmile_qr_scan", "ios": "https://dc.lft.to/lastmile_qr_scan"}, "type": "electric_scooter", "lon": -77.04375733333333, "name": "c5d778543e252bfbf68bb1c106ff44ee", "bike_id": "c5d778543e252bfbf68bb1c106ff44ee", "fusion_lat": 0.0, "is_reserved": 0, "lat": 38.9256545, "fusion_lon": 0.0, "is_disabled": 0}, {"rental_uris": {"android": "https://dc.lft.to/lastmile_qr_scan", "ios": "https://dc.lft.to/lastmile_qr_scan"}, "type": "electric_scooter", "lon": -77.046717, "name": "e1ae8d06101c40c0dcedd94847d50055", "bike_id": "e1ae8d06101c40c0dcedd94847d50055", "fusion_lat": 0.0, "is_reserved": 0, "lat": 38.899233333333335, "fusion_lon": 0.0, "is_disabled": 0}, {"rental_uris": {"android": "https://dc.lft.to/lastmile_qr_scan", "ios": "https://dc.lft.to/lastmile_qr_scan"}, "type": "electric_scooter", "lon": -76.994594, "name": "5c515c0e3669f20063a295a06b6a7293", "bike_id": "5c515c0e3669f20063a295a06b6a7293", "fusion_lat": 0.0, "is_reserved": 0, "lat": 38.85164966666667, "fusion_lon": 0.0, "is_disabled": 0}, {"rental_uris": {"android": "https://dc.lft.to/lastmile_qr_scan", "ios": "https://dc.lft.to/lastmile_qr_scan"}, "type": "electric_bike", "lon": -77.08057033333333, "name": "4857f957ab4e637354b07c1caf125511", "bike_id": "4857f957ab4e637354b07c1caf125511", "fusion_lat": 0.0, "is_reserved": 0, "lat": 38.84830566666667, "fusion_lon": 0.0, "is_disabled": 0}, {"rental_uris": {"android": "https://dc.lft.to/lastmile_qr_scan", "ios": "https://dc.lft.to/lastmile_qr_scan"}, "type": "electric_scooter", "lon": -77.04687783333334, "name": "a1c824d315c9949b178c119f27670586", "bike_id": "a1c824d315c9949b178c119f27670586", "fusion_lat": 0.0, "is_reserved": 0, "lat": 38.92108783333333, "fusion_lon": 0.0, "is_disabled": 0}, {"rental_uris": {"android": "https://dc.lft.to/lastmile_qr_scan", "ios": "https://dc.lft.to/lastmile_qr_scan"}, "type": "electric_scooter", "lon": -76.98472466666666, "name": "c08ce8ee9c06831802d9e8a2049705c1", "bike_id": "c08ce8ee9c06831802d9e8a2049705c1", "fusion_lat": 0.0, "is_reserved": 0, "lat": 38.908621833333335, "fusion_lon": 0.0, "is_disabled": 0}, {"rental_uris": {"android": "https://dc.lft.to/lastmile_qr_scan", "ios": "https://dc.lft.to/lastmile_qr_scan"}, "type": "electric_scooter", "lon": -76.93264166666667, "name": "d235751c1e290e1e6ae0ec9726433c51", "bike_id": "d235751c1e290e1e6ae0ec9726433c51", "fusion_lat": 0.0, "is_reserved": 0, "lat": 38.887758, "fusion_lon": 0.0, "is_disabled": 0}, {"rental_uris": {"android": "https://dc.lft.to/lastmile_qr_scan", "ios": "https://dc.lft.to/lastmile_qr_scan"}, "type": "electric_scooter", "lon": -77.0395415, "name": "cfa4a3e39917751ceeb80304181f9f15", "bike_id": "cfa4a3e39917751ceeb80304181f9f15", "fusion_lat": 0.0, "is_reserved": 0, "lat": 38.8924525, "fusion_lon": 0.0, "is_disabled": 0}, {"rental_uris": {"android": "https://dc.lft.to/lastmile_qr_scan", "ios": "https://dc.lft.to/lastmile_qr_scan"}, "type": "electric_scooter", "lon": -76.986175, "name": "c45dbbe9f22abd1daf003affebb89f22", "bike_id": "c45dbbe9f22abd1daf003affebb89f22", "fusion_lat": 0.0, "is_reserved": 0, "lat": 38.9069515, "fusion_lon": 0.0, "is_disabled": 0}, {"rental_uris": {"android": "https://dc.lft.to/lastmile_qr_scan", "ios": "https://dc.lft.to/lastmile_qr_scan"}, "type": "electric_scooter", "lon": -77.02195383333333, "name": "a6cf86eee1cc28af4d08bac9b9eff3c1", "bike_id": "a6cf86eee1cc28af4d08bac9b9eff3c1", "fusion_lat": 0.0, "is_reserved": 0, "lat": 38.910971, "fusion_lon": 0.0, "is_disabled": 0}, {"rental_uris": {"android": "https://dc.lft.to/lastmile_qr_scan", "ios": "https://dc.lft.to/lastmile_qr_scan"}, "type": "electric_bike", "lon": -77.13180266666667, "name": "4f4e0f188b733b69129eecb22249bd4d", "bike_id": "4f4e0f188b733b69129eecb22249bd4d", "fusion_lat": 0.0, "is_reserved": 0, "lat": 38.8691045, "fusion_lon": 0.0, "is_disabled": 0}, {"rental_uris": {"android": "https://dc.lft.to/lastmile_qr_scan", "ios": "https://dc.lft.to/lastmile_qr_scan"}, "type": "electric_scooter", "lon": -76.9511315, "name": "dd075c612f67801c3a94cafb72152b4b", "bike_id": "dd075c612f67801c3a94cafb72152b4b", "fusion_lat": 0.0, "is_reserved": 0, "lat": 38.88793883333334, "fusion_lon": 0.0, "is_disabled": 0}, {"rental_uris": {"android": "https://dc.lft.to/lastmile_qr_scan", "ios": "https://dc.lft.to/lastmile_qr_scan"}, "type": "electric_scooter", "lon": -76.99454416666667, "name": "8c332053190738996e22f6f16336fd54", "bike_id": "8c332053190738996e22f6f16336fd54", "fusion_lat": 0.0, "is_reserved": 0, "lat": 38.9050355, "fusion_lon": 0.0, "is_disabled": 0}, {"rental_uris": {"android": "https://dc.lft.to/lastmile_qr_scan", "ios": "https://dc.lft.to/lastmile_qr_scan"}, "type": "electric_scooter", "lon": -77.01374033333333, "name": "adc23ec5802dae5e83c877d67bf88512", "bike_id": "adc23ec5802dae5e83c877d67bf88512", "fusion_lat": 0.0, "is_reserved": 0, "lat": 38.89218616666667, "fusion_lon": 0.0, "is_disabled": 0}, {"rental_uris": {"android": "https://dc.lft.to/lastmile_qr_scan", "ios": "https://dc.lft.to/lastmile_qr_scan"}, "type": "electric_scooter", "lon": -76.92636333333333, "name": "92c658618cea17846ec0d0e56aa79b6c", "bike_id": "92c658618cea17846ec0d0e56aa79b6c", "fusion_lat": 0.0, "is_reserved": 0, "lat": 38.89975966666667, "fusion_lon": 0.0, "is_disabled": 0}, {"rental_uris": {"android": "https://dc.lft.to/lastmile_qr_scan", "ios": "https://dc.lft.to/lastmile_qr_scan"}, "type": "electric_bike", "lon": -77.03656066666667, "name": "62e59d24cf8808e0b94a2843da69b1ec", "bike_id": "62e59d24cf8808e0b94a2843da69b1ec", "fusion_lat": 0.0, "is_reserved": 0, "lat": 38.95021533333333, "fusion_lon": 0.0, "is_disabled": 0}, {"rental_uris": {"android": "https://dc.lft.to/lastmile_qr_scan", "ios": "https://dc.lft.to/lastmile_qr_scan"}, "type": "electric_bike", "lon": -77.12812566666666, "name": "4cf44c8b3943b18a3d1c726f0731be44", "bike_id": "4cf44c8b3943b18a3d1c726f0731be44", "fusion_lat": 0.0, "is_reserved": 0, "lat": 38.8653265, "fusion_lon": 0.0, "is_disabled": 0}, {"rental_uris": {"android": "https://dc.lft.to/lastmile_qr_scan", "ios": "https://dc.lft.to/lastmile_qr_scan"}, "type": "electric_scooter", "lon": -77.0421575, "name": "f59fbf3e563e316582f754a5d774bda3", "bike_id": "f59fbf3e563e316582f754a5d774bda3", "fusion_lat": 0.0, "is_reserved": 0, "lat": 38.92170383333333, "fusion_lon": 0.0, "is_disabled": 0}, {"rental_uris": {"android": "https://dc.lft.to/lastmile_qr_scan", "ios": "https://dc.lft.to/lastmile_qr_scan"}, "type": "electric_scooter", "lon": -77.00193483333334, "name": "79043e57e09873f3881d0ec3ffecbb18", "bike_id": "79043e57e09873f3881d0ec3ffecbb18", "fusion_lat": 0.0, "is_reserved": 0, "lat": 38.90368466666666, "fusion_lon": 0.0, "is_disabled": 0}, {"rental_uris": {"android": "https://dc.lft.to/lastmile_qr_scan", "ios": "https://dc.lft.to/lastmile_qr_scan"}, "type": "electric_scooter", "lon": -76.987013, "name": "280bd0d8d1e2a121391d021ffcfbaff5", "bike_id": "280bd0d8d1e2a121391d021ffcfbaff5", "fusion_lat": 0.0, "is_reserved": 0, "lat": 38.8653435, "fusion_lon": 0.0, "is_disabled": 0}, {"rental_uris": {"android": "https://dc.lft.to/lastmile_qr_scan", "ios": "https://dc.lft.to/lastmile_qr_scan"}, "type": "electric_bike", "lon": -77.07050933333333, "name": "bc88d2e1f7e89ab7d73d3f73876409c2", "bike_id": "bc88d2e1f7e89ab7d73d3f73876409c2", "fusion_lat": 0.0, "is_reserved": 0, "lat": 38.824450166666665, "fusion_lon": 0.0, "is_disabled": 0}, {"rental_uris": {"android": "https://dc.lft.to/lastmile_qr_scan", "ios": "https://dc.lft.to/lastmile_qr_scan"}, "type": "electric_scooter", "lon": -77.02308116666667, "name": "482789a302b6256d69d559a34ea7ac79", "bike_id": "482789a302b6256d69d559a34ea7ac79", "fusion_lat": 0.0, "is_reserved": 0, "lat": 38.92724, "fusion_lon": 0.0, "is_disabled": 0}, {"rental_uris": {"android": "https://dc.lft.to/lastmile_qr_scan", "ios": "https://dc.lft.to/lastmile_qr_scan"}, "type": "electric_scooter", "lon": -77.06395883333333, "name": "148ae714f7196b1eb1edd064aabab67e", "bike_id": "148ae714f7196b1eb1edd064aabab67e", "fusion_lat": 0.0, "is_reserved": 0, "lat": 38.929096666666666, "fusion_lon": 0.0, "is_disabled": 0}, {"rental_uris": {"android": "https://dc.lft.to/lastmile_qr_scan", "ios": "https://dc.lft.to/lastmile_qr_scan"}, "type": "electric_bike", "lon": -77.12984166666666, "name": "9d63d8511031d21300ba5878073dcc4c", "bike_id": "9d63d8511031d21300ba5878073dcc4c", "fusion_lat": 0.0, "is_reserved": 0, "lat": 38.79991016666666, "fusion_lon": 0.0, "is_disabled": 0}, {"rental_uris": {"android": "https://dc.lft.to/lastmile_qr_scan", "ios": "https://dc.lft.to/lastmile_qr_scan"}, "type": "electric_scooter", "lon": -77.01210633333334, "name": "3e62aea91d95974489f3764532492277", "bike_id": "3e62aea91d95974489f3764532492277", "fusion_lat": 0.0, "is_reserved": 0, "lat": 38.925882666666666, "fusion_lon": 0.0, "is_disabled": 0}, {"rental_uris": {"android": "https://dc.lft.to/lastmile_qr_scan", "ios": "https://dc.lft.to/lastmile_qr_scan"}, "type": "electric_scooter", "lon": -77.01997, "name": "8c4f896266f3a7ebf507493a42be2eb1", "bike_id": "8c4f896266f3a7ebf507493a42be2eb1", "fusion_lat": 0.0, "is_reserved": 0, "lat": 38.96641533333333, "fusion_lon": 0.0, "is_disabled": 0}, {"rental_uris": {"android": "https://dc.lft.to/lastmile_qr_scan", "ios": "https://dc.lft.to/lastmile_qr_scan"}, "type": "electric_scooter", "lon": -77.04651016666666, "name": "f70a5f5acb88b9a664e3946859755fa4", "bike_id": "f70a5f5acb88b9a664e3946859755fa4", "fusion_lat": 0.0, "is_reserved": 0, "lat": 38.900035333333335, "fusion_lon": 0.0, "is_disabled": 0}, {"rental_uris": {"android": "https://dc.lft.to/lastmile_qr_scan", "ios": "https://dc.lft.to/lastmile_qr_scan"}, "type": "electric_scooter", "lon": -77.02692883333333, "name": "f6af98b6d2798451df1541ff34645b43", "bike_id": "f6af98b6d2798451df1541ff34645b43", "fusion_lat": 0.0, "is_reserved": 0, "lat": 38.91256416666667, "fusion_lon": 0.0, "is_disabled": 0}, {"rental_uris": {"android": "https://dc.lft.to/lastmile_qr_scan", "ios": "https://dc.lft.to/lastmile_qr_scan"}, "type": "electric_scooter", "lon": -76.993653, "name": "2ff87c74fd15953cba892d2d95efac1a", "bike_id": "2ff87c74fd15953cba892d2d95efac1a", "fusion_lat": 0.0, "is_reserved": 0, "lat": 38.928407, "fusion_lon": 0.0, "is_disabled": 0}, {"rental_uris": {"android": "https://dc.lft.to/lastmile_qr_scan", "ios": "https://dc.lft.to/lastmile_qr_scan"}, "type": "electric_scooter", "lon": -76.99009166666667, "name": "7539d9324d061649fbd990d56cadc9a3", "bike_id": "7539d9324d061649fbd990d56cadc9a3", "fusion_lat": 0.0, "is_reserved": 0, "lat": 38.8650305, "fusion_lon": 0.0, "is_disabled": 0}, {"rental_uris": {"android": "https://dc.lft.to/lastmile_qr_scan", "ios": "https://dc.lft.to/lastmile_qr_scan"}, "type": "electric_scooter", "lon": -77.02829866666667, "name": "e213fa9833305aa1979dd696c2c7dabe", "bike_id": "e213fa9833305aa1979dd696c2c7dabe", "fusion_lat": 0.0, "is_reserved": 0, "lat": 38.92466116666667, "fusion_lon": 0.0, "is_disabled": 0}, {"rental_uris": {"android": "https://dc.lft.to/lastmile_qr_scan", "ios": "https://dc.lft.to/lastmile_qr_scan"}, "type": "electric_scooter", "lon": -76.99082666666666, "name": "18a451b470e63fb39743bbe2dbe855d8", "bike_id": "18a451b470e63fb39743bbe2dbe855d8", "fusion_lat": 0.0, "is_reserved": 0, "lat": 38.86048783333333, "fusion_lon": 0.0, "is_disabled": 0}, {"rental_uris": {"android": "https://dc.lft.to/lastmile_qr_scan", "ios": "https://dc.lft.to/lastmile_qr_scan"}, "type": "electric_scooter", "lon": -76.999445, "name": "27983a754e4d12c551b6695233f8c797", "bike_id": "27983a754e4d12c551b6695233f8c797", "fusion_lat": 0.0, "is_reserved": 0, "lat": 38.843180333333336, "fusion_lon": 0.0, "is_disabled": 0}, {"rental_uris": {"android": "https://dc.lft.to/lastmile_qr_scan", "ios": "https://dc.lft.to/lastmile_qr_scan"}, "type": "electric_bike", "lon": -77.02816533333333, "name": "327048b5889db0f587156458d0ef6106", "bike_id": "327048b5889db0f587156458d0ef6106", "fusion_lat": 0.0, "is_reserved": 0, "lat": 38.9206835, "fusion_lon": 0.0, "is_disabled": 0}, {"rental_uris": {"android": "https://dc.lft.to/lastmile_qr_scan", "ios": "https://dc.lft.to/lastmile_qr_scan"}, "type": "electric_scooter", "lon": -77.0304285, "name": "65b5c1dc0b3a60a893e5154493c53a39", "bike_id": "65b5c1dc0b3a60a893e5154493c53a39", "fusion_lat": 0.0, "is_reserved": 0, "lat": 38.922461, "fusion_lon": 0.0, "is_disabled": 0}, {"rental_uris": {"android": "https://dc.lft.to/lastmile_qr_scan", "ios": "https://dc.lft.to/lastmile_qr_scan"}, "type": "electric_scooter", "lon": -77.02483116666667, "name": "2868f3c4dbaf5acdb73ff5d48e3862de", "bike_id": "2868f3c4dbaf5acdb73ff5d48e3862de", "fusion_lat": 0.0, "is_reserved": 0, "lat": 38.93879583333333, "fusion_lon": 0.0, "is_disabled": 0}, {"rental_uris": {"android": "https://dc.lft.to/lastmile_qr_scan", "ios": "https://dc.lft.to/lastmile_qr_scan"}, "type": "electric_scooter", "lon": -77.02717133333333, "name": "34c88b2d14064b3f90bbb35c21bfd102", "bike_id": "34c88b2d14064b3f90bbb35c21bfd102", "fusion_lat": 0.0, "is_reserved": 0, "lat": 38.90742316666667, "fusion_lon": 0.0, "is_disabled": 0}, {"rental_uris": {"android": "https://dc.lft.to/lastmile_qr_scan", "ios": "https://dc.lft.to/lastmile_qr_scan"}, "type": "electric_bike", "lon": -76.9081805, "name": "3cd6bd5f1af01235918f057deb89ade8", "bike_id": "3cd6bd5f1af01235918f057deb89ade8", "fusion_lat": 0.0, "is_reserved": 0, "lat": 38.994543166666666, "fusion_lon": 0.0, "is_disabled": 0}, {"rental_uris": {"android": "https://dc.lft.to/lastmile_qr_scan", "ios": "https://dc.lft.to/lastmile_qr_scan"}, "type": "electric_scooter", "lon": -77.06240116666666, "name": "f19bc1dc63409d04ff30a89ca02aba01", "bike_id": "f19bc1dc63409d04ff30a89ca02aba01", "fusion_lat": 0.0, "is_reserved": 0, "lat": 38.90530483333333, "fusion_lon": 0.0, "is_disabled": 0}, {"rental_uris": {"android": "https://dc.lft.to/lastmile_qr_scan", "ios": "https://dc.lft.to/lastmile_qr_scan"}, "type": "electric_scooter", "lon": -77.036275, "name": "1d8710ac85d30802e5f03b4078e7350b", "bike_id": "1d8710ac85d30802e5f03b4078e7350b", "fusion_lat": 0.0, "is_reserved": 0, "lat": 38.952880666666665, "fusion_lon": 0.0, "is_disabled": 0}, {"rental_uris": {"android": "https://dc.lft.to/lastmile_qr_scan", "ios": "https://dc.lft.to/lastmile_qr_scan"}, "type": "electric_scooter", "lon": -77.10177116666667, "name": "dad12ff92659e1020be9aa1ed8166bce", "bike_id": "dad12ff92659e1020be9aa1ed8166bce", "fusion_lat": 0.0, "is_reserved": 0, "lat": 38.925455, "fusion_lon": 0.0, "is_disabled": 0}, {"rental_uris": {"android": "https://dc.lft.to/lastmile_qr_scan", "ios": "https://dc.lft.to/lastmile_qr_scan"}, "type": "electric_bike", "lon": -76.97901633333333, "name": "3fcfdca6702b2e9afcc361f1e031d513", "bike_id": "3fcfdca6702b2e9afcc361f1e031d513", "fusion_lat": 0.0, "is_reserved": 0, "lat": 38.854906166666666, "fusion_lon": 0.0, "is_disabled": 0}, {"rental_uris": {"android": "https://dc.lft.to/lastmile_qr_scan", "ios": "https://dc.lft.to/lastmile_qr_scan"}, "type": "electric_scooter", "lon": -76.9946385, "name": "a3b466c7d685138f4062a0ca6a134360", "bike_id": "a3b466c7d685138f4062a0ca6a134360", "fusion_lat": 0.0, "is_reserved": 0, "lat": 38.862241833333336, "fusion_lon": 0.0, "is_disabled": 0}, {"rental_uris": {"android": "https://dc.lft.to/lastmile_qr_scan", "ios": "https://dc.lft.to/lastmile_qr_scan"}, "type": "electric_scooter", "lon": -77.03299333333334, "name": "69c4c5f497b8ebf3a7f34439780d2148", "bike_id": "69c4c5f497b8ebf3a7f34439780d2148", "fusion_lat": 0.0, "is_reserved": 0, "lat": 38.95646133333334, "fusion_lon": 0.0, "is_disabled": 0}, {"rental_uris": {"android": "https://dc.lft.to/lastmile_qr_scan", "ios": "https://dc.lft.to/lastmile_qr_scan"}, "type": "electric_scooter", "lon": -76.9871895, "name": "3a90b3e32c5b539dc5fdf8a5022d26d2", "bike_id": "3a90b3e32c5b539dc5fdf8a5022d26d2", "fusion_lat": 0.0, "is_reserved": 0, "lat": 38.89924633333333, "fusion_lon": 0.0, "is_disabled": 0}, {"rental_uris": {"android": "https://dc.lft.to/lastmile_qr_scan", "ios": "https://dc.lft.to/lastmile_qr_scan"}, "type": "electric_scooter", "lon": -77.00370166666667, "name": "6f07169bf843e5c912d15925eca248c6", "bike_id": "6f07169bf843e5c912d15925eca248c6", "fusion_lat": 0.0, "is_reserved": 0, "lat": 38.89954616666667, "fusion_lon": 0.0, "is_disabled": 0}, {"rental_uris": {"android": "https://dc.lft.to/lastmile_qr_scan", "ios": "https://dc.lft.to/lastmile_qr_scan"}, "type": "electric_scooter", "lon": -77.0386065, "name": "0233f9567ab8f9abb78a061a7ea6026c", "bike_id": "0233f9567ab8f9abb78a061a7ea6026c", "fusion_lat": 0.0, "is_reserved": 0, "lat": 38.906529, "fusion_lon": 0.0, "is_disabled": 0}, {"rental_uris": {"android": "https://dc.lft.to/lastmile_qr_scan", "ios": "https://dc.lft.to/lastmile_qr_scan"}, "type": "electric_bike", "lon": -76.960865, "name": "5c70d4e0cab6c19f2c497e5f4261b100", "bike_id": "5c70d4e0cab6c19f2c497e5f4261b100", "fusion_lat": 0.0, "is_reserved": 0, "lat": 38.91842916666667, "fusion_lon": 0.0, "is_disabled": 0}, {"rental_uris": {"android": "https://dc.lft.to/lastmile_qr_scan", "ios": "https://dc.lft.to/lastmile_qr_scan"}, "type": "electric_bike", "lon": -77.0638525, "name": "51ef006ac3323ee0e85382c3b7854bc2", "bike_id": "51ef006ac3323ee0e85382c3b7854bc2", "fusion_lat": 0.0, "is_reserved": 0, "lat": 39.01732283333333, "fusion_lon": 0.0, "is_disabled": 0}, {"rental_uris": {"android": "https://dc.lft.to/lastmile_qr_scan", "ios": "https://dc.lft.to/lastmile_qr_scan"}, "type": "electric_scooter", "lon": -77.0613405, "name": "8b8e5477819be8e46162129887c48127", "bike_id": "8b8e5477819be8e46162129887c48127", "fusion_lat": 0.0, "is_reserved": 0, "lat": 38.904772666666666, "fusion_lon": 0.0, "is_disabled": 0}, {"rental_uris": {"android": "https://dc.lft.to/lastmile_qr_scan", "ios": "https://dc.lft.to/lastmile_qr_scan"}, "type": "electric_scooter", "lon": -76.98887533333334, "name": "91e906505264e8f8230c93e645c61b34", "bike_id": "91e906505264e8f8230c93e645c61b34", "fusion_lat": 0.0, "is_reserved": 0, "lat": 38.86669, "fusion_lon": 0.0, "is_disabled": 0}, {"rental_uris": {"android": "https://dc.lft.to/lastmile_qr_scan", "ios": "https://dc.lft.to/lastmile_qr_scan"}, "type": "electric_scooter", "lon": -77.0200005, "name": "73ff5f8329d7b4d0532080de62237893", "bike_id": "73ff5f8329d7b4d0532080de62237893", "fusion_lat": 0.0, "is_reserved": 0, "lat": 38.91331, "fusion_lon": 0.0, "is_disabled": 0}, {"rental_uris": {"android": "https://dc.lft.to/lastmile_qr_scan", "ios": "https://dc.lft.to/lastmile_qr_scan"}, "type": "electric_scooter", "lon": -77.06398683333333, "name": "f0283b6be9488294a58f10be0470f433", "bike_id": "f0283b6be9488294a58f10be0470f433", "fusion_lat": 0.0, "is_reserved": 0, "lat": 38.94413733333333, "fusion_lon": 0.0, "is_disabled": 0}, {"rental_uris": {"android": "https://dc.lft.to/lastmile_qr_scan", "ios": "https://dc.lft.to/lastmile_qr_scan"}, "type": "electric_bike", "lon": -77.18738333333333, "name": "7aec4e98bcadc72883a4778bf9106eeb", "bike_id": "7aec4e98bcadc72883a4778bf9106eeb", "fusion_lat": 0.0, "is_reserved": 0, "lat": 38.893505, "fusion_lon": 0.0, "is_disabled": 0}, {"rental_uris": {"android": "https://dc.lft.to/lastmile_qr_scan", "ios": "https://dc.lft.to/lastmile_qr_scan"}, "type": "electric_scooter", "lon": -77.0363115, "name": "53550b7fa41d1cad9acac522d48513c6", "bike_id": "53550b7fa41d1cad9acac522d48513c6", "fusion_lat": 0.0, "is_reserved": 0, "lat": 38.916265833333334, "fusion_lon": 0.0, "is_disabled": 0}, {"rental_uris": {"android": "https://dc.lft.to/lastmile_qr_scan", "ios": "https://dc.lft.to/lastmile_qr_scan"}, "type": "electric_scooter", "lon": -76.9499305, "name": "a449e4ff708a0e46062ff85b0b013042", "bike_id": "a449e4ff708a0e46062ff85b0b013042", "fusion_lat": 0.0, "is_reserved": 0, "lat": 38.89383183333333, "fusion_lon": 0.0, "is_disabled": 0}, {"rental_uris": {"android": "https://dc.lft.to/lastmile_qr_scan", "ios": "https://dc.lft.to/lastmile_qr_scan"}, "type": "electric_bike", "lon": -77.10739616666666, "name": "87395023a2f445d4459a1e85cb186692", "bike_id": "87395023a2f445d4459a1e85cb186692", "fusion_lat": 0.0, "is_reserved": 0, "lat": 38.855157, "fusion_lon": 0.0, "is_disabled": 0}, {"rental_uris": {"android": "https://dc.lft.to/lastmile_qr_scan", "ios": "https://dc.lft.to/lastmile_qr_scan"}, "type": "electric_scooter", "lon": -77.02693616666667, "name": "ea7353f7e6f228f7e246fb1c80ea7cfa", "bike_id": "ea7353f7e6f228f7e246fb1c80ea7cfa", "fusion_lat": 0.0, "is_reserved": 0, "lat": 38.906838666666665, "fusion_lon": 0.0, "is_disabled": 0}, {"rental_uris": {"android": "https://dc.lft.to/lastmile_qr_scan", "ios": "https://dc.lft.to/lastmile_qr_scan"}, "type": "electric_bike", "lon": -77.03762916666666, "name": "958e3c0f96563befdd42bd7b2e7f9a26", "bike_id": "958e3c0f96563befdd42bd7b2e7f9a26", "fusion_lat": 0.0, "is_reserved": 0, "lat": 38.916944666666666, "fusion_lon": 0.0, "is_disabled": 0}, {"rental_uris": {"android": "https://dc.lft.to/lastmile_qr_scan", "ios": "https://dc.lft.to/lastmile_qr_scan"}, "type": "electric_bike", "lon": -76.98523716666666, "name": "a126397882eba479c88c965ddbdb2204", "bike_id": "a126397882eba479c88c965ddbdb2204", "fusion_lat": 0.0, "is_reserved": 0, "lat": 38.91980816666667, "fusion_lon": 0.0, "is_disabled": 0}, {"rental_uris": {"android": "https://dc.lft.to/lastmile_qr_scan", "ios": "https://dc.lft.to/lastmile_qr_scan"}, "type": "electric_scooter", "lon": -77.02381433333333, "name": "f717a0ca1ab9d2f9a4a5cabf27589e9b", "bike_id": "f717a0ca1ab9d2f9a4a5cabf27589e9b", "fusion_lat": 0.0, "is_reserved": 0, "lat": 38.90413, "fusion_lon": 0.0, "is_disabled": 0}, {"rental_uris": {"android": "https://dc.lft.to/lastmile_qr_scan", "ios": "https://dc.lft.to/lastmile_qr_scan"}, "type": "electric_scooter", "lon": -77.0327605, "name": "e3e8f51cc99bfd40b11fa44c59da8f27", "bike_id": "e3e8f51cc99bfd40b11fa44c59da8f27", "fusion_lat": 0.0, "is_reserved": 0, "lat": 38.89884333333333, "fusion_lon": 0.0, "is_disabled": 0}, {"rental_uris": {"android": "https://dc.lft.to/lastmile_qr_scan", "ios": "https://dc.lft.to/lastmile_qr_scan"}, "type": "electric_scooter", "lon": -76.942173, "name": "a686ad43ed747da7326e54ab9f93bd69", "bike_id": "a686ad43ed747da7326e54ab9f93bd69", "fusion_lat": 0.0, "is_reserved": 0, "lat": 38.89670233333333, "fusion_lon": 0.0, "is_disabled": 0}, {"rental_uris": {"android": "https://dc.lft.to/lastmile_qr_scan", "ios": "https://dc.lft.to/lastmile_qr_scan"}, "type": "electric_bike", "lon": -76.87778716666666, "name": "a2fe8748a0c256f7525e6863d847760b", "bike_id": "a2fe8748a0c256f7525e6863d847760b", "fusion_lat": 0.0, "is_reserved": 0, "lat": 38.99222683333333, "fusion_lon": 0.0, "is_disabled": 0}, {"rental_uris": {"android": "https://dc.lft.to/lastmile_qr_scan", "ios": "https://dc.lft.to/lastmile_qr_scan"}, "type": "electric_scooter", "lon": -77.04283716666667, "name": "a4e811d4a38e242390ab5786da2c1b9a", "bike_id": "a4e811d4a38e242390ab5786da2c1b9a", "fusion_lat": 0.0, "is_reserved": 0, "lat": 38.9156165, "fusion_lon": 0.0, "is_disabled": 0}, {"rental_uris": {"android": "https://dc.lft.to/lastmile_qr_scan", "ios": "https://dc.lft.to/lastmile_qr_scan"}, "type": "electric_bike", "lon": -76.96388283333333, "name": "99e294ffd84e55af1b979223d70d3369", "bike_id": "99e294ffd84e55af1b979223d70d3369", "fusion_lat": 0.0, "is_reserved": 0, "lat": 38.975796833333334, "fusion_lon": 0.0, "is_disabled": 0}, {"rental_uris": {"android": "https://dc.lft.to/lastmile_qr_scan", "ios": "https://dc.lft.to/lastmile_qr_scan"}, "type": "electric_scooter", "lon": -76.98732433333333, "name": "a2ff4bfa16c7dfe78cac378df417fca4", "bike_id": "a2ff4bfa16c7dfe78cac378df417fca4", "fusion_lat": 0.0, "is_reserved": 0, "lat": 38.86718833333333, "fusion_lon": 0.0, "is_disabled": 0}, {"rental_uris": {"android": "https://dc.lft.to/lastmile_qr_scan", "ios": "https://dc.lft.to/lastmile_qr_scan"}, "type": "electric_scooter", "lon": -77.02491733333333, "name": "6c69ad434522af361245e2c26714563d", "bike_id": "6c69ad434522af361245e2c26714563d", "fusion_lat": 0.0, "is_reserved": 0, "lat": 38.932737833333334, "fusion_lon": 0.0, "is_disabled": 0}, {"rental_uris": {"android": "https://dc.lft.to/lastmile_qr_scan", "ios": "https://dc.lft.to/lastmile_qr_scan"}, "type": "electric_scooter", "lon": -76.98029216666667, "name": "6c3f29f2392e9499aacf858f7275337f", "bike_id": "6c3f29f2392e9499aacf858f7275337f", "fusion_lat": 0.0, "is_reserved": 0, "lat": 38.8573025, "fusion_lon": 0.0, "is_disabled": 0}, {"rental_uris": {"android": "https://dc.lft.to/lastmile_qr_scan", "ios": "https://dc.lft.to/lastmile_qr_scan"}, "type": "electric_scooter", "lon": -77.02815466666667, "name": "ffc178486544940027ec927bfa6531a2", "bike_id": "ffc178486544940027ec927bfa6531a2", "fusion_lat": 0.0, "is_reserved": 0, "lat": 38.91414183333333, "fusion_lon": 0.0, "is_disabled": 0}, {"rental_uris": {"android": "https://dc.lft.to/lastmile_qr_scan", "ios": "https://dc.lft.to/lastmile_qr_scan"}, "type": "electric_scooter", "lon": -77.04986833333334, "name": "147e8b7201dc6bff144cf89193414789", "bike_id": "147e8b7201dc6bff144cf89193414789", "fusion_lat": 0.0, "is_reserved": 0, "lat": 38.905268, "fusion_lon": 0.0, "is_disabled": 0}, {"rental_uris": {"android": "https://dc.lft.to/lastmile_qr_scan", "ios": "https://dc.lft.to/lastmile_qr_scan"}, "type": "electric_scooter", "lon": -76.99610433333334, "name": "b3c6ba95a0cdc3ca11823461cb4313ce", "bike_id": "b3c6ba95a0cdc3ca11823461cb4313ce", "fusion_lat": 0.0, "is_reserved": 0, "lat": 38.903308833333334, "fusion_lon": 0.0, "is_disabled": 0}, {"rental_uris": {"android": "https://dc.lft.to/lastmile_qr_scan", "ios": "https://dc.lft.to/lastmile_qr_scan"}, "type": "electric_scooter", "lon": -77.02978166666666, "name": "5117005bf33e4ef10959b97d5bd392e6", "bike_id": "5117005bf33e4ef10959b97d5bd392e6", "fusion_lat": 0.0, "is_reserved": 0, "lat": 38.9253075, "fusion_lon": 0.0, "is_disabled": 0}, {"rental_uris": {"android": "https://dc.lft.to/lastmile_qr_scan", "ios": "https://dc.lft.to/lastmile_qr_scan"}, "type": "electric_scooter", "lon": -76.94987133333333, "name": "1d664a96d2cf640f8efe08e20fd7a256", "bike_id": "1d664a96d2cf640f8efe08e20fd7a256", "fusion_lat": 0.0, "is_reserved": 0, "lat": 38.894333, "fusion_lon": 0.0, "is_disabled": 0}, {"rental_uris": {"android": "https://dc.lft.to/lastmile_qr_scan", "ios": "https://dc.lft.to/lastmile_qr_scan"}, "type": "electric_scooter", "lon": -77.02296616666666, "name": "fc252b82c9dca342c668cbfcd50ba53a", "bike_id": "fc252b82c9dca342c668cbfcd50ba53a", "fusion_lat": 0.0, "is_reserved": 0, "lat": 38.908633333333334, "fusion_lon": 0.0, "is_disabled": 0}, {"rental_uris": {"android": "https://dc.lft.to/lastmile_qr_scan", "ios": "https://dc.lft.to/lastmile_qr_scan"}, "type": "electric_scooter", "lon": -76.990835, "name": "bb0b81b1125bb43cbd9b12903905f953", "bike_id": "bb0b81b1125bb43cbd9b12903905f953", "fusion_lat": 0.0, "is_reserved": 0, "lat": 38.8623955, "fusion_lon": 0.0, "is_disabled": 0}, {"rental_uris": {"android": "https://dc.lft.to/lastmile_qr_scan", "ios": "https://dc.lft.to/lastmile_qr_scan"}, "type": "electric_scooter", "lon": -77.03905066666667, "name": "7c306f0aa2b010e8c8b8d5448ff3158d", "bike_id": "7c306f0aa2b010e8c8b8d5448ff3158d", "fusion_lat": 0.0, "is_reserved": 0, "lat": 38.92225616666666, "fusion_lon": 0.0, "is_disabled": 0}, {"rental_uris": {"android": "https://dc.lft.to/lastmile_qr_scan", "ios": "https://dc.lft.to/lastmile_qr_scan"},