{"data": {"bikes": [{"is_disabled": 0, "is_reserved": 0, "fusion_lat": 0.0, "lat": 38.8959865, "fusion_lon": 0.0, "rental_uris": {"ios": "https://dc.lft.to/lastmile_qr_scan", "android": "https://dc.lft.to/lastmile_qr_scan"}, "lon": -77.0252105, "bike_id": "69fb86207e5b862cb1219e953d4acff7", "type": "electric_scooter", "name": "69fb86207e5b862cb1219e953d4acff7"}, {"is_disabled": 0, "is_reserved": 0, "fusion_lat": 0.0, "lat": 38.908576333333336, "fusion_lon": 0.0, "rental_uris": {"ios": "https://dc.lft.to/lastmile_qr_scan", "android": "https://dc.lft.to/lastmile_qr_scan"}, "lon": -77.0482675, "bike_id": "a01e2c0a492ddfba3f725a9bd8a36d34", "type": "electric_scooter", "name": "a01e2c0a492ddfba3f725a9bd8a36d34"}, {"is_disabled": 0, "is_reserved": 0, "fusion_lat": 0.0, "lat": 38.93122566666667, "fusion_lon": 0.0, "rental_uris": {"ios": "https://dc.lft.to/lastmile_qr_scan", "android": "https://dc.lft.to/lastmile_qr_scan"}, "lon": -77.02085866666667, "bike_id": "96109f62fa1490c6b9e69daca7798443", "type": "electric_scooter", "name": "96109f62fa1490c6b9e69daca7798443"}, {"is_disabled": 0, "is_reserved": 0, "fusion_lat": 0.0, "lat": 38.901924, "fusion_lon": 0.0, "rental_uris": {"ios": "https://dc.lft.to/lastmile_qr_scan", "android": "https://dc.lft.to/lastmile_qr_scan"}, "lon": -77.05086566666667, "bike_id": "294ab07ef3a32f08d3f781af13ab8f29", "type": "electric_scooter", "name": "294ab07ef3a32f08d3f781af13ab8f29"}, {"is_disabled": 0, "is_reserved": 0, "fusion_lat": 0.0, "lat": 38.91353516666667, "fusion_lon": 0.0, "rental_uris": {"ios": "https://dc.lft.to/lastmile_qr_scan", "android": "https://dc.lft.to/lastmile_qr_scan"}, "lon": -77.032075, "bike_id": "497a922971ffc09e350e2f7461485839", "type": "electric_scooter", "name": "497a922971ffc09e350e2f7461485839"}, {"is_disabled": 0, "is_reserved": 0, "fusion_lat": 0.0, "lat": 38.908743, "fusion_lon": 0.0, "rental_uris": {"ios": "https://dc.lft.to/lastmile_qr_scan", "android": "https://dc.lft.to/lastmile_qr_scan"}, "lon": -77.085891, "bike_id": "e323e96c1d1c736a4ab61c950a132609", "type": "electric_scooter", "name": "e323e96c1d1c736a4ab61c950a132609"}, {"is_disabled": 0, "is_reserved": 0, "fusion_lat": 0.0, "lat": 38.947243666666665, "fusion_lon": 0.0, "rental_uris": {"ios": "https://dc.lft.to/lastmile_qr_scan", "android": "https://dc.lft.to/lastmile_qr_scan"}, "lon": -77.0235445, "bike_id": "0769f7ec7165d5f17e3bc245971c59e7", "type": "electric_scooter", "name": "0769f7ec7165d5f17e3bc245971c59e7"}, {"is_disabled": 0, "is_reserved": 0, "fusion_lat": 0.0, "lat": 38.92967066666667, "fusion_lon": 0.0, "rental_uris": {"ios": "https://dc.lft.to/lastmile_qr_scan", "android": "https://dc.lft.to/lastmile_qr_scan"}, "lon": -77.04201783333333, "bike_id": "dab95ccdd5cf343f749978319f218033", "type": "electric_scooter", "name": "dab95ccdd5cf343f749978319f218033"}, {"is_disabled": 0, "is_reserved": 0, "fusion_lat": 0.0, "lat": 38.91789883333333, "fusion_lon": 0.0, "rental_uris": {"ios": "https://dc.lft.to/lastmile_qr_scan", "android": "https://dc.lft.to/lastmile_qr_scan"}, "lon": -77.02470166666667, "bike_id": "1e5571c3204ae1f4f9ac4580a01b1734", "type": "electric_scooter", "name": "1e5571c3204ae1f4f9ac4580a01b1734"}, {"is_disabled": 0, "is_reserved": 0, "fusion_lat": 0.0, "lat": 38.94916116666667, "fusion_lon": 0.0, "rental_uris": {"ios": "https://dc.lft.to/lastmile_qr_scan", "android": "https://dc.lft.to/lastmile_qr_scan"}, "lon": -77.0208195, "bike_id": "8234bd47fab5a1f38ff88401c17f5674", "type": "electric_scooter", "name": "8234bd47fab5a1f38ff88401c17f5674"}, {"is_disabled": 0, "is_reserved": 0, "fusion_lat": 0.0, "lat": 38.87528833333333, "fusion_lon": 0.0, "rental_uris": {"ios": "https://dc.lft.to/lastmile_qr_scan", "android": "https://dc.lft.to/lastmile_qr_scan"}, "lon": -77.01232283333333, "bike_id": "351af57a8302ab6cb338774518ef6aeb", "type": "electric_scooter", "name": "351af57a8302ab6cb338774518ef6aeb"}, {"is_disabled": 0, "is_reserved": 0, "fusion_lat": 0.0, "lat": 38.9155665, "fusion_lon": 0.0, "rental_uris": {"ios": "https://dc.lft.to/lastmile_qr_scan", "android": "https://dc.lft.to/lastmile_qr_scan"}, "lon": -77.003637, "bike_id": "c25f211f3d74edfdc106ab1802f48ec6", "type": "electric_scooter", "name": "c25f211f3d74edfdc106ab1802f48ec6"}, {"is_disabled": 0, "is_reserved": 0, "fusion_lat": 0.0, "lat": 38.9162625, "fusion_lon": 0.0, "rental_uris": {"ios": "https://dc.lft.to/lastmile_qr_scan", "android": "https://dc.lft.to/lastmile_qr_scan"}, "lon": -77.02109683333333, "bike_id": "e8182bbac88cee54e4763b2244be2b6e", "type": "electric_scooter", "name": "e8182bbac88cee54e4763b2244be2b6e"}, {"is_disabled": 0, "is_reserved": 0, "fusion_lat": 0.0, "lat": 38.901843666666664, "fusion_lon": 0.0, "rental_uris": {"ios": "https://dc.lft.to/lastmile_qr_scan", "android": "https://dc.lft.to/lastmile_qr_scan"}, "lon": -77.02422333333334, "bike_id": "a361cc3bb70c921dc4ecb302acd39734", "type": "electric_scooter", "name": "a361cc3bb70c921dc4ecb302acd39734"}, {"is_disabled": 0, "is_reserved": 0, "fusion_lat": 0.0, "lat": 38.918211, "fusion_lon": 0.0, "rental_uris": {"ios": "https://dc.lft.to/lastmile_qr_scan", "android": "https://dc.lft.to/lastmile_qr_scan"}, "lon": -77.02533666666666, "bike_id": "b18c5ae4f89e46338d8272f9ba3eb8ce", "type": "electric_scooter", "name": "b18c5ae4f89e46338d8272f9ba3eb8ce"}, {"is_disabled": 0, "is_reserved": 0, "fusion_lat": 0.0, "lat": 38.92531666666667, "fusion_lon": 0.0, "rental_uris": {"ios": "https://dc.lft.to/lastmile_qr_scan", "android": "https://dc.lft.to/lastmile_qr_scan"}, "lon": -77.03856733333333, "bike_id": "22e8c1a2f362361b337a780ffb1bed4c", "type": "electric_scooter", "name": "22e8c1a2f362361b337a780ffb1bed4c"}, {"is_disabled": 0, "is_reserved": 0, "fusion_lat": 0.0, "lat": 38.927031666666664, "fusion_lon": 0.0, "rental_uris": {"ios": "https://dc.lft.to/lastmile_qr_scan", "android": "https://dc.lft.to/lastmile_qr_scan"}, "lon": -76.96078466666667, "bike_id": "5fcd543692bf75f0cfd4fe13e598b3eb", "type": "electric_scooter", "name": "5fcd543692bf75f0cfd4fe13e598b3eb"}, {"is_disabled": 0, "is_reserved": 0, "fusion_lat": 0.0, "lat": 38.8627015, "fusion_lon": 0.0, "rental_uris": {"ios": "https://dc.lft.to/lastmile_qr_scan", "android": "https://dc.lft.to/lastmile_qr_scan"}, "lon": -77.089339, "bike_id": "de03f47e0dc526faeefe927bc638d682", "type": "electric_bike", "name": "de03f47e0dc526faeefe927bc638d682"}, {"is_disabled": 0, "is_reserved": 0, "fusion_lat": 0.0, "lat": 38.91826666666667, "fusion_lon": 0.0, "rental_uris": {"ios": "https://dc.lft.to/lastmile_qr_scan", "android": "https://dc.lft.to/lastmile_qr_scan"}, "lon": -77.03445333333333, "bike_id": "19c3c8a5ab056abc0755040eaf64a59d", "type": "electric_scooter", "name": "19c3c8a5ab056abc0755040eaf64a59d"}, {"is_disabled": 0, "is_reserved": 0, "fusion_lat": 0.0, "lat": 38.923257, "fusion_lon": 0.0, "rental_uris": {"ios": "https://dc.lft.to/lastmile_qr_scan", "android": "https://dc.lft.to/lastmile_qr_scan"}, "lon": -77.073203, "bike_id": "04d811ff88ac795b503bfadf191029ed", "type": "electric_scooter", "name": "04d811ff88ac795b503bfadf191029ed"}, {"is_disabled": 0, "is_reserved": 0, "fusion_lat": 0.0, "lat": 38.91318316666667, "fusion_lon": 0.0, "rental_uris": {"ios": "https://dc.lft.to/lastmile_qr_scan", "android": "https://dc.lft.to/lastmile_qr_scan"}, "lon": -77.01438116666667, "bike_id": "577b8503f109cd72bce9c0ab4a3374c6", "type": "electric_scooter", "name": "577b8503f109cd72bce9c0ab4a3374c6"}, {"is_disabled": 0, "is_reserved": 0, "fusion_lat": 0.0, "lat": 38.899432, "fusion_lon": 0.0, "rental_uris": {"ios": "https://dc.lft.to/lastmile_qr_scan", "android": "https://dc.lft.to/lastmile_qr_scan"}, "lon": -77.03228533333333, "bike_id": "5e20498ec8099c98fc0da7505ab73616", "type": "electric_scooter", "name": "5e20498ec8099c98fc0da7505ab73616"}, {"is_disabled": 0, "is_reserved": 0, "fusion_lat": 0.0, "lat": 38.90535883333333, "fusion_lon": 0.0, "rental_uris": {"ios": "https://dc.lft.to/lastmile_qr_scan", "android": "https://dc.lft.to/lastmile_qr_scan"}, "lon": -77.00560116666666, "bike_id": "a2289a6250f0ad11a2b1e269b6b39771", "type": "electric_scooter", "name": "a2289a6250f0ad11a2b1e269b6b39771"}, {"is_disabled": 0, "is_reserved": 0, "fusion_lat": 0.0, "lat": 38.903066, "fusion_lon": 0.0, "rental_uris": {"ios": "https://dc.lft.to/lastmile_qr_scan", "android": "https://dc.lft.to/lastmile_qr_scan"}, "lon": -77.04481366666667, "bike_id": "367abd0e26f82bd16f7a9f6479980596", "type": "electric_scooter", "name": "367abd0e26f82bd16f7a9f6479980596"}, {"is_disabled": 0, "is_reserved": 0, "fusion_lat": 0.0, "lat": 38.900626333333335, "fusion_lon": 0.0, "rental_uris": {"ios": "https://dc.lft.to/lastmile_qr_scan", "android": "https://dc.lft.to/lastmile_qr_scan"}, "lon": -76.98702483333334, "bike_id": "1b7fb5c724712b66ac6ed83b48129295", "type": "electric_scooter", "name": "1b7fb5c724712b66ac6ed83b48129295"}, {"is_disabled": 0, "is_reserved": 0, "fusion_lat": 0.0, "lat": 38.9191385, "fusion_lon": 0.0, "rental_uris": {"ios": "https://dc.lft.to/lastmile_qr_scan", "android": "https://dc.lft.to/lastmile_qr_scan"}, "lon": -77.03183433333334, "bike_id": "f876e07677fd99f92772bc1f69daf6d7", "type": "electric_scooter", "name": "f876e07677fd99f92772bc1f69daf6d7"}, {"is_disabled": 0, "is_reserved": 0, "fusion_lat": 0.0, "lat": 38.9319615, "fusion_lon": 0.0, "rental_uris": {"ios": "https://dc.lft.to/lastmile_qr_scan", "android": "https://dc.lft.to/lastmile_qr_scan"}, "lon": -77.02390983333333, "bike_id": "303ab8d5b0fc7b7978e21cd88fb2920d", "type": "electric_scooter", "name": "303ab8d5b0fc7b7978e21cd88fb2920d"}, {"is_disabled": 0, "is_reserved": 0, "fusion_lat": 0.0, "lat": 38.920356, "fusion_lon": 0.0, "rental_uris": {"ios": "https://dc.lft.to/lastmile_qr_scan", "android": "https://dc.lft.to/lastmile_qr_scan"}, "lon": -77.01732866666667, "bike_id": "ba3af33d481bfca23146a2a0502396ff", "type": "electric_scooter", "name": "ba3af33d481bfca23146a2a0502396ff"}, {"is_disabled": 0, "is_reserved": 0, "fusion_lat": 0.0, "lat": 38.902553, "fusion_lon": 0.0, "rental_uris": {"ios": "https://dc.lft.to/lastmile_qr_scan", "android": "https://dc.lft.to/lastmile_qr_scan"}, "lon": -77.0325445, "bike_id": "3595e945868d94b13faa0456699dccd2", "type": "electric_scooter", "name": "3595e945868d94b13faa0456699dccd2"}, {"is_disabled": 0, "is_reserved": 0, "fusion_lat": 0.0, "lat": 38.89241066666666, "fusion_lon": 0.0, "rental_uris": {"ios": "https://dc.lft.to/lastmile_qr_scan", "android": "https://dc.lft.to/lastmile_qr_scan"}, "lon": -77.04875033333333, "bike_id": "8d4778ebb0b5a9647bd49f2c34f61f00", "type": "electric_scooter", "name": "8d4778ebb0b5a9647bd49f2c34f61f00"}, {"is_disabled": 0, "is_reserved": 0, "fusion_lat": 0.0, "lat": 38.91263266666667, "fusion_lon": 0.0, "rental_uris": {"ios": "https://dc.lft.to/lastmile_qr_scan", "android": "https://dc.lft.to/lastmile_qr_scan"}, "lon": -77.03865583333334, "bike_id": "fd5ea5057aaeb226d8562ba49129f757", "type": "electric_scooter", "name": "fd5ea5057aaeb226d8562ba49129f757"}, {"is_disabled": 0, "is_reserved": 0, "fusion_lat": 0.0, "lat": 38.910344333333335, "fusion_lon": 0.0, "rental_uris": {"ios": "https://dc.lft.to/lastmile_qr_scan", "android": "https://dc.lft.to/lastmile_qr_scan"}, "lon": -77.012148, "bike_id": "35773d082d8f58693faf391c441f968d", "type": "electric_scooter", "name": "35773d082d8f58693faf391c441f968d"}, {"is_disabled": 0, "is_reserved": 0, "fusion_lat": 0.0, "lat": 38.91574883333333, "fusion_lon": 0.0, "rental_uris": {"ios": "https://dc.lft.to/lastmile_qr_scan", "android": "https://dc.lft.to/lastmile_qr_scan"}, "lon": -77.036604, "bike_id": "0993955930628abb0ff8b4ee07344bf4", "type": "electric_scooter", "name": "0993955930628abb0ff8b4ee07344bf4"}, {"is_disabled": 0, "is_reserved": 0, "fusion_lat": 0.0, "lat": 38.9465315, "fusion_lon": 0.0, "rental_uris": {"ios": "https://dc.lft.to/lastmile_qr_scan", "android": "https://dc.lft.to/lastmile_qr_scan"}, "lon": -77.0647595, "bike_id": "bec2bd737cceeb248fd981a2b5578cc4", "type": "electric_scooter", "name": "bec2bd737cceeb248fd981a2b5578cc4"}, {"is_disabled": 0, "is_reserved": 0, "fusion_lat": 0.0, "lat": 38.904701833333334, "fusion_lon": 0.0, "rental_uris": {"ios": "https://dc.lft.to/lastmile_qr_scan", "android": "https://dc.lft.to/lastmile_qr_scan"}, "lon": -77.06592933333333, "bike_id": "6a459be12f2c51b6c7ab4aa9a3520bc6", "type": "electric_scooter", "name": "6a459be12f2c51b6c7ab4aa9a3520bc6"}, {"is_disabled": 0, "is_reserved": 0, "fusion_lat": 0.0, "lat": 38.852499, "fusion_lon": 0.0, "rental_uris": {"ios": "https://dc.lft.to/lastmile_qr_scan", "android": "https://dc.lft.to/lastmile_qr_scan"}, "lon": -77.11412166666666, "bike_id": "de7a2361e9383262cd90f4f899e671f8", "type": "electric_bike", "name": "de7a2361e9383262cd90f4f899e671f8"}, {"is_disabled": 0, "is_reserved": 0, "fusion_lat": 0.0, "lat": 38.8830175, "fusion_lon": 0.0, "rental_uris": {"ios": "https://dc.lft.to/lastmile_qr_scan", "android": "https://dc.lft.to/lastmile_qr_scan"}, "lon": -76.93500966666667, "bike_id": "fca80886333d10fe6f2769282a38e28e", "type": "electric_scooter", "name": "fca80886333d10fe6f2769282a38e28e"}, {"is_disabled": 0, "is_reserved": 0, "fusion_lat": 0.0, "lat": 38.90455983333333, "fusion_lon": 0.0, "rental_uris": {"ios": "https://dc.lft.to/lastmile_qr_scan", "android": "https://dc.lft.to/lastmile_qr_scan"}, "lon": -77.043204, "bike_id": "52b38f1aee284258b9d76ae87f08c027", "type": "electric_scooter", "name": "52b38f1aee284258b9d76ae87f08c027"}, {"is_disabled": 0, "is_reserved": 0, "fusion_lat": 0.0, "lat": 38.892056333333336, "fusion_lon": 0.0, "rental_uris": {"ios": "https://dc.lft.to/lastmile_qr_scan", "android": "https://dc.lft.to/lastmile_qr_scan"}, "lon": -76.99930433333333, "bike_id": "2e60caf4d93cddc10dccebc857a3cec5", "type": "electric_scooter", "name": "2e60caf4d93cddc10dccebc857a3cec5"}, {"is_disabled": 0, "is_reserved": 0, "fusion_lat": 0.0, "lat": 38.923190166666664, "fusion_lon": 0.0, "rental_uris": {"ios": "https://dc.lft.to/lastmile_qr_scan", "android": "https://dc.lft.to/lastmile_qr_scan"}, "lon": -77.02896, "bike_id": "7654c34172063913302bf71e8e18b0ea", "type": "electric_scooter", "name": "7654c34172063913302bf71e8e18b0ea"}, {"is_disabled": 0, "is_reserved": 0, "fusion_lat": 0.0, "lat": 38.923384, "fusion_lon": 0.0, "rental_uris": {"ios": "https://dc.lft.to/lastmile_qr_scan", "android": "https://dc.lft.to/lastmile_qr_scan"}, "lon": -77.0568305, "bike_id": "8af39cef24ada131665c0e47f5a1a1c2", "type": "electric_scooter", "name": "8af39cef24ada131665c0e47f5a1a1c2"}, {"is_disabled": 0, "is_reserved": 0, "fusion_lat": 0.0, "lat": 38.918245666666664, "fusion_lon": 0.0, "rental_uris": {"ios": "https://dc.lft.to/lastmile_qr_scan", "android": "https://dc.lft.to/lastmile_qr_scan"}, "lon": -77.03443266666666, "bike_id": "a2056e77020965f3ccc0b23e7b5f2b0b", "type": "electric_scooter", "name": "a2056e77020965f3ccc0b23e7b5f2b0b"}, {"is_disabled": 0, "is_reserved": 0, "fusion_lat": 0.0, "lat": 38.9003575, "fusion_lon": 0.0, "rental_uris": {"ios": "https://dc.lft.to/lastmile_qr_scan", "android": "https://dc.lft.to/lastmile_qr_scan"}, "lon": -76.97229683333333, "bike_id": "026d73b84838287cd974408773d6274a", "type": "electric_bike", "name": "026d73b84838287cd974408773d6274a"}, {"is_disabled": 0, "is_reserved": 0, "fusion_lat": 0.0, "lat": 38.923453, "fusion_lon": 0.0, "rental_uris": {"ios": "https://dc.lft.to/lastmile_qr_scan", "android": "https://dc.lft.to/lastmile_qr_scan"}, "lon": -76.9985935, "bike_id": "0d4a5b2cc9649b0c31fdc57ed35f78bf", "type": "electric_scooter", "name": "0d4a5b2cc9649b0c31fdc57ed35f78bf"}, {"is_disabled": 0, "is_reserved": 0, "fusion_lat": 0.0, "lat": 38.87442566666667, "fusion_lon": 0.0, "rental_uris": {"ios": "https://dc.lft.to/lastmile_qr_scan", "android": "https://dc.lft.to/lastmile_qr_scan"}, "lon": -77.00046633333334, "bike_id": "d6653502293135a39e62b906d93ec36a", "type": "electric_scooter", "name": "d6653502293135a39e62b906d93ec36a"}, {"is_disabled": 0, "is_reserved": 0, "fusion_lat": 0.0, "lat": 38.8980585, "fusion_lon": 0.0, "rental_uris": {"ios": "https://dc.lft.to/lastmile_qr_scan", "android": "https://dc.lft.to/lastmile_qr_scan"}, "lon": -76.97946333333333, "bike_id": "25818c3c66e86b7ad1551857d8dc5a3b", "type": "electric_scooter", "name": "25818c3c66e86b7ad1551857d8dc5a3b"}, {"is_disabled": 0, "is_reserved": 0, "fusion_lat": 0.0, "lat": 38.89241616666666, "fusion_lon": 0.0, "rental_uris": {"ios": "https://dc.lft.to/lastmile_qr_scan", "android": "https://dc.lft.to/lastmile_qr_scan"}, "lon": -77.03213966666667, "bike_id": "ff088834f3357eaf6606bbce075dcc10", "type": "electric_scooter", "name": "ff088834f3357eaf6606bbce075dcc10"}, {"is_disabled": 0, "is_reserved": 0, "fusion_lat": 0.0, "lat": 38.93075783333333, "fusion_lon": 0.0, "rental_uris": {"ios": "https://dc.lft.to/lastmile_qr_scan", "android": "https://dc.lft.to/lastmile_qr_scan"}, "lon": -77.0217115, "bike_id": "c17620070d2a5b191c43246b6e03422b", "type": "electric_scooter", "name": "c17620070d2a5b191c43246b6e03422b"}, {"is_disabled": 0, "is_reserved": 0, "fusion_lat": 0.0, "lat": 38.9003065, "fusion_lon": 0.0, "rental_uris": {"ios": "https://dc.lft.to/lastmile_qr_scan", "android": "https://dc.lft.to/lastmile_qr_scan"}, "lon": -76.99871966666667, "bike_id": "e45943d0181eabd1294a8fc9c9d02335", "type": "electric_scooter", "name": "e45943d0181eabd1294a8fc9c9d02335"}, {"is_disabled": 0, "is_reserved": 0, "fusion_lat": 0.0, "lat": 38.91546266666667, "fusion_lon": 0.0, "rental_uris": {"ios": "https://dc.lft.to/lastmile_qr_scan", "android": "https://dc.lft.to/lastmile_qr_scan"}, "lon": -77.04477183333333, "bike_id": "0f63530fb85c0233e014729634514fb0", "type": "electric_scooter", "name": "0f63530fb85c0233e014729634514fb0"}, {"is_disabled": 0, "is_reserved": 0, "fusion_lat": 0.0, "lat": 38.94188183333333, "fusion_lon": 0.0, "rental_uris": {"ios": "https://dc.lft.to/lastmile_qr_scan", "android": "https://dc.lft.to/lastmile_qr_scan"}, "lon": -77.01532216666666, "bike_id": "cac6851fa235555d59fc83a88591fc1e", "type": "electric_scooter", "name": "cac6851fa235555d59fc83a88591fc1e"}, {"is_disabled": 0, "is_reserved": 0, "fusion_lat": 0.0, "lat": 38.94294133333333, "fusion_lon": 0.0, "rental_uris": {"ios": "https://dc.lft.to/lastmile_qr_scan", "android": "https://dc.lft.to/lastmile_qr_scan"}, "lon": -77.02172666666667, "bike_id": "a1d05e6e1ed2eabc61b59ad7793d21d7", "type": "electric_scooter", "name": "a1d05e6e1ed2eabc61b59ad7793d21d7"}, {"is_disabled": 0, "is_reserved": 0, "fusion_lat": 0.0, "lat": 38.91483366666667, "fusion_lon": 0.0, "rental_uris": {"ios": "https://dc.lft.to/lastmile_qr_scan", "android": "https://dc.lft.to/lastmile_qr_scan"}, "lon": -77.01890116666667, "bike_id": "c81bf5f6c43948e7c90af68fbf17ef27", "type": "electric_scooter", "name": "c81bf5f6c43948e7c90af68fbf17ef27"}, {"is_disabled": 0, "is_reserved": 0, "fusion_lat": 0.0, "lat": 38.9217495, "fusion_lon": 0.0, "rental_uris": {"ios": "https://dc.lft.to/lastmile_qr_scan", "android": "https://dc.lft.to/lastmile_qr_scan"}, "lon": -77.04229166666667, "bike_id": "f5a709dbb4e8f92cd0bc42b2d55bd07e", "type": "electric_scooter", "name": "f5a709dbb4e8f92cd0bc42b2d55bd07e"}, {"is_disabled": 0, "is_reserved": 0, "fusion_lat": 0.0, "lat": 38.928293, "fusion_lon": 0.0, "rental_uris": {"ios": "https://dc.lft.to/lastmile_qr_scan", "android": "https://dc.lft.to/lastmile_qr_scan"}, "lon": -77.01406416666667, "bike_id": "014b1b5fd549f7bfebc632d142ac1099", "type": "electric_scooter", "name": "014b1b5fd549f7bfebc632d142ac1099"}, {"is_disabled": 0, "is_reserved": 0, "fusion_lat": 0.0, "lat": 38.89662716666667, "fusion_lon": 0.0, "rental_uris": {"ios": "https://dc.lft.to/lastmile_qr_scan", "android": "https://dc.lft.to/lastmile_qr_scan"}, "lon": -76.949056, "bike_id": "eeb007e218f2296ea01ec3b09b5d6407", "type": "electric_scooter", "name": "eeb007e218f2296ea01ec3b09b5d6407"}, {"is_disabled": 0, "is_reserved": 0, "fusion_lat": 0.0, "lat": 38.90953116666667, "fusion_lon": 0.0, "rental_uris": {"ios": "https://dc.lft.to/lastmile_qr_scan", "android": "https://dc.lft.to/lastmile_qr_scan"}, "lon": -77.04728683333333, "bike_id": "34f4b28563468bc37194cc091dc57562", "type": "electric_scooter", "name": "34f4b28563468bc37194cc091dc57562"}, {"is_disabled": 0, "is_reserved": 0, "fusion_lat": 0.0, "lat": 38.90978666666667, "fusion_lon": 0.0, "rental_uris": {"ios": "https://dc.lft.to/lastmile_qr_scan", "android": "https://dc.lft.to/lastmile_qr_scan"}, "lon": -77.02419316666666, "bike_id": "1aafb6e8730300aad636f3fa5914483b", "type": "electric_scooter", "name": "1aafb6e8730300aad636f3fa5914483b"}, {"is_disabled": 0, "is_reserved": 0, "fusion_lat": 0.0, "lat": 38.9225165, "fusion_lon": 0.0, "rental_uris": {"ios": "https://dc.lft.to/lastmile_qr_scan", "android": "https://dc.lft.to/lastmile_qr_scan"}, "lon": -77.03904783333333, "bike_id": "f231d08ce05cb39afb86937c53b5cab6", "type": "electric_scooter", "name": "f231d08ce05cb39afb86937c53b5cab6"}, {"is_disabled": 0, "is_reserved": 0, "fusion_lat": 0.0, "lat": 38.90036, "fusion_lon": 0.0, "rental_uris": {"ios": "https://dc.lft.to/lastmile_qr_scan", "android": "https://dc.lft.to/lastmile_qr_scan"}, "lon": -77.01787666666667, "bike_id": "22da687e3ee6deb43af1dfa89b58da29", "type": "electric_scooter", "name": "22da687e3ee6deb43af1dfa89b58da29"}, {"is_disabled": 0, "is_reserved": 0, "fusion_lat": 0.0, "lat": 38.908333, "fusion_lon": 0.0, "rental_uris": {"ios": "https://dc.lft.to/lastmile_qr_scan", "android": "https://dc.lft.to/lastmile_qr_scan"}, "lon": -76.98266, "bike_id": "269195330ff08001de0cb5f7b040cc10", "type": "electric_scooter", "name": "269195330ff08001de0cb5f7b040cc10"}, {"is_disabled": 0, "is_reserved": 0, "fusion_lat": 0.0, "lat": 38.9252985, "fusion_lon": 0.0, "rental_uris": {"ios": "https://dc.lft.to/lastmile_qr_scan", "android": "https://dc.lft.to/lastmile_qr_scan"}, "lon": -77.038505, "bike_id": "87e1fd0c836d14ee8c9ef50db5f8e0e3", "type": "electric_scooter", "name": "87e1fd0c836d14ee8c9ef50db5f8e0e3"}, {"is_disabled": 0, "is_reserved": 0, "fusion_lat": 0.0, "lat": 38.90205383333333, "fusion_lon": 0.0, "rental_uris": {"ios": "https://dc.lft.to/lastmile_qr_scan", "android": "https://dc.lft.to/lastmile_qr_scan"}, "lon": -77.03392433333333, "bike_id": "cfd5a30e755fe4d58a864a22c99e81e8", "type": "electric_scooter", "name": "cfd5a30e755fe4d58a864a22c99e81e8"}, {"is_disabled": 0, "is_reserved": 0, "fusion_lat": 0.0, "lat": 38.901238, "fusion_lon": 0.0, "rental_uris": {"ios": "https://dc.lft.to/lastmile_qr_scan", "android": "https://dc.lft.to/lastmile_qr_scan"}, "lon": -77.049891, "bike_id": "158126ce3f3c36b3e83ee978403338a6", "type": "electric_scooter", "name": "158126ce3f3c36b3e83ee978403338a6"}, {"is_disabled": 0, "is_reserved": 0, "fusion_lat": 0.0, "lat": 38.907883166666664, "fusion_lon": 0.0, "rental_uris": {"ios": "https://dc.lft.to/lastmile_qr_scan", "android": "https://dc.lft.to/lastmile_qr_scan"}, "lon": -77.04512266666667, "bike_id": "cb67026448661785e6cb07801c79b7b5", "type": "electric_scooter", "name": "cb67026448661785e6cb07801c79b7b5"}, {"is_disabled": 0, "is_reserved": 0, "fusion_lat": 0.0, "lat": 38.913630166666664, "fusion_lon": 0.0, "rental_uris": {"ios": "https://dc.lft.to/lastmile_qr_scan", "android": "https://dc.lft.to/lastmile_qr_scan"}, "lon": -77.02052516666667, "bike_id": "e6a00139ea13ed28d2c56f5af3a79c7f", "type": "electric_scooter", "name": "e6a00139ea13ed28d2c56f5af3a79c7f"}, {"is_disabled": 0, "is_reserved": 0, "fusion_lat": 0.0, "lat": 38.870914666666664, "fusion_lon": 0.0, "rental_uris": {"ios": "https://dc.lft.to/lastmile_qr_scan", "android": "https://dc.lft.to/lastmile_qr_scan"}, "lon": -77.13331266666667, "bike_id": "acee5006dad49873e58fa1d43cf0bff3", "type": "electric_bike", "name": "acee5006dad49873e58fa1d43cf0bff3"}, {"is_disabled": 0, "is_reserved": 0, "fusion_lat": 0.0, "lat": 38.92262766666666, "fusion_lon": 0.0, "rental_uris": {"ios": "https://dc.lft.to/lastmile_qr_scan", "android": "https://dc.lft.to/lastmile_qr_scan"}, "lon": -77.019484, "bike_id": "2df7cdbb36969290395f3c1a8fdeaeaf", "type": "electric_scooter", "name": "2df7cdbb36969290395f3c1a8fdeaeaf"}, {"is_disabled": 0, "is_reserved": 0, "fusion_lat": 0.0, "lat": 38.88026516666667, "fusion_lon": 0.0, "rental_uris": {"ios": "https://dc.lft.to/lastmile_qr_scan", "android": "https://dc.lft.to/lastmile_qr_scan"}, "lon": -76.9432495, "bike_id": "1eadb408c9cb45af44fe6727d0ab8095", "type": "electric_scooter", "name": "1eadb408c9cb45af44fe6727d0ab8095"}, {"is_disabled": 0, "is_reserved": 0, "fusion_lat": 0.0, "lat": 38.8871235, "fusion_lon": 0.0, "rental_uris": {"ios": "https://dc.lft.to/lastmile_qr_scan", "android": "https://dc.lft.to/lastmile_qr_scan"}, "lon": -76.98340983333334, "bike_id": "cf0779bb10f7f93856b52cb556ff6aea", "type": "electric_scooter", "name": "cf0779bb10f7f93856b52cb556ff6aea"}, {"is_disabled": 0, "is_reserved": 0, "fusion_lat": 0.0, "lat": 38.91322, "fusion_lon": 0.0, "rental_uris": {"ios": "https://dc.lft.to/lastmile_qr_scan", "android": "https://dc.lft.to/lastmile_qr_scan"}, "lon": -77.0318765, "bike_id": "6a9421ecbf3ebeec1dba3ebc88fa92a7", "type": "electric_scooter", "name": "6a9421ecbf3ebeec1dba3ebc88fa92a7"}, {"is_disabled": 0, "is_reserved": 0, "fusion_lat": 0.0, "lat": 38.919141, "fusion_lon": 0.0, "rental_uris": {"ios": "https://dc.lft.to/lastmile_qr_scan", "android": "https://dc.lft.to/lastmile_qr_scan"}, "lon": -77.03180433333333, "bike_id": "f40f8e0fb4e1efbf61903d98252bb75e", "type": "electric_scooter", "name": "f40f8e0fb4e1efbf61903d98252bb75e"}, {"is_disabled": 0, "is_reserved": 0, "fusion_lat": 0.0, "lat": 38.8315925, "fusion_lon": 0.0, "rental_uris": {"ios": "https://dc.lft.to/lastmile_qr_scan", "android": "https://dc.lft.to/lastmile_qr_scan"}, "lon": -76.99574266666667, "bike_id": "7c43593394204bfe3c67157fd7427d1c", "type": "electric_bike", "name": "7c43593394204bfe3c67157fd7427d1c"}, {"is_disabled": 0, "is_reserved": 0, "fusion_lat": 0.0, "lat": 38.84647966666667, "fusion_lon": 0.0, "rental_uris": {"ios": "https://dc.lft.to/lastmile_qr_scan", "android": "https://dc.lft.to/lastmile_qr_scan"}, "lon": -77.00370583333333, "bike_id": "988f7a450db6d873f070f937468b7014", "type": "electric_scooter", "name": "988f7a450db6d873f070f937468b7014"}, {"is_disabled": 0, "is_reserved": 0, "fusion_lat": 0.0, "lat": 38.92066333333333, "fusion_lon": 0.0, "rental_uris": {"ios": "https://dc.lft.to/lastmile_qr_scan", "android": "https://dc.lft.to/lastmile_qr_scan"}, "lon": -77.04358016666667, "bike_id": "eff1372e5545c6e9d60a1bc39c6a0165", "type": "electric_scooter", "name": "eff1372e5545c6e9d60a1bc39c6a0165"}, {"is_disabled": 0, "is_reserved": 0, "fusion_lat": 0.0, "lat": 38.915722333333335, "fusion_lon": 0.0, "rental_uris": {"ios": "https://dc.lft.to/lastmile_qr_scan", "android": "https://dc.lft.to/lastmile_qr_scan"}, "lon": -77.03933283333333, "bike_id": "5f5f66b4772e959a4135fed772b75d8c", "type": "electric_scooter", "name": "5f5f66b4772e959a4135fed772b75d8c"}, {"is_disabled": 0, "is_reserved": 0, "fusion_lat": 0.0, "lat": 38.91710783333333, "fusion_lon": 0.0, "rental_uris": {"ios": "https://dc.lft.to/lastmile_qr_scan", "android": "https://dc.lft.to/lastmile_qr_scan"}, "lon": -77.04125433333333, "bike_id": "05277ef7abc9939155d494dca73a83b1", "type": "electric_scooter", "name": "05277ef7abc9939155d494dca73a83b1"}, {"is_disabled": 0, "is_reserved": 0, "fusion_lat": 0.0, "lat": 38.877204, "fusion_lon": 0.0, "rental_uris": {"ios": "https://dc.lft.to/lastmile_qr_scan", "android": "https://dc.lft.to/lastmile_qr_scan"}, "lon": -77.007329, "bike_id": "529766637ab125610377194e8945eb57", "type": "electric_scooter", "name": "529766637ab125610377194e8945eb57"}, {"is_disabled": 0, "is_reserved": 0, "fusion_lat": 0.0, "lat": 38.93153616666667, "fusion_lon": 0.0, "rental_uris": {"ios": "https://dc.lft.to/lastmile_qr_scan", "android": "https://dc.lft.to/lastmile_qr_scan"}, "lon": -77.02371383333333, "bike_id": "717c4ed1e608eca3abae3cc8fce44a9f", "type": "electric_scooter", "name": "717c4ed1e608eca3abae3cc8fce44a9f"}, {"is_disabled": 0, "is_reserved": 0, "fusion_lat": 0.0, "lat": 38.93449966666667, "fusion_lon": 0.0, "rental_uris": {"ios": "https://dc.lft.to/lastmile_qr_scan", "android": "https://dc.lft.to/lastmile_qr_scan"}, "lon": -77.029779, "bike_id": "8ab8b2de9136dc704e1503bfe60a836c", "type": "electric_scooter", "name": "8ab8b2de9136dc704e1503bfe60a836c"}, {"is_disabled": 0, "is_reserved": 0, "fusion_lat": 0.0, "lat": 38.927975, "fusion_lon": 0.0, "rental_uris": {"ios": "https://dc.lft.to/lastmile_qr_scan", "android": "https://dc.lft.to/lastmile_qr_scan"}, "lon": -77.055866, "bike_id": "72932b57bf52b6afeaa1f7e94082967f", "type": "electric_scooter", "name": "72932b57bf52b6afeaa1f7e94082967f"}, {"is_disabled": 0, "is_reserved": 0, "fusion_lat": 0.0, "lat": 38.89823366666667, "fusion_lon": 0.0, "rental_uris": {"ios": "https://dc.lft.to/lastmile_qr_scan", "android": "https://dc.lft.to/lastmile_qr_scan"}, "lon": -77.02945883333334, "bike_id": "3c769b16bc49ae81512fbb7a83af6dbd", "type": "electric_scooter", "name": "3c769b16bc49ae81512fbb7a83af6dbd"}, {"is_disabled": 0, "is_reserved": 0, "fusion_lat": 0.0, "lat": 38.88973583333333, "fusion_lon": 0.0, "rental_uris": {"ios": "https://dc.lft.to/lastmile_qr_scan", "android": "https://dc.lft.to/lastmile_qr_scan"}, "lon": -76.9803505, "bike_id": "c12e7618e7c27e6872350e816d4d3c06", "type": "electric_scooter", "name": "c12e7618e7c27e6872350e816d4d3c06"}, {"is_disabled": 0, "is_reserved": 0, "fusion_lat": 0.0, "lat": 38.914228333333334, "fusion_lon": 0.0, "rental_uris": {"ios": "https://dc.lft.to/lastmile_qr_scan", "android": "https://dc.lft.to/lastmile_qr_scan"}, "lon": -77.02225916666667, "bike_id": "3780dd9ddb4563aefeaa3ee270c6ae41", "type": "electric_scooter", "name": "3780dd9ddb4563aefeaa3ee270c6ae41"}, {"is_disabled": 0, "is_reserved": 0, "fusion_lat": 0.0, "lat": 38.84679283333333, "fusion_lon": 0.0, "rental_uris": {"ios": "https://dc.lft.to/lastmile_qr_scan", "android": "https://dc.lft.to/lastmile_qr_scan"}, "lon": -77.13938, "bike_id": "1a5ade7b93cca40610eef7cba5d7e970", "type": "electric_bike", "name": "1a5ade7b93cca40610eef7cba5d7e970"}, {"is_disabled": 0, "is_reserved": 0, "fusion_lat": 0.0, "lat": 38.9112225, "fusion_lon": 0.0, "rental_uris": {"ios": "https://dc.lft.to/lastmile_qr_scan", "android": "https://dc.lft.to/lastmile_qr_scan"}, "lon": -77.03833766666666, "bike_id": "7098a6b3284267067a39b0c82d75612c", "type": "electric_scooter", "name": "7098a6b3284267067a39b0c82d75612c"}, {"is_disabled": 0, "is_reserved": 0, "fusion_lat": 0.0, "lat": 38.91555266666667, "fusion_lon": 0.0, "rental_uris": {"ios": "https://dc.lft.to/lastmile_qr_scan", "android": "https://dc.lft.to/lastmile_qr_scan"}, "lon": -77.05104933333334, "bike_id": "f8facaeaffea0182d78ec3299798aa1f", "type": "electric_scooter", "name": "f8facaeaffea0182d78ec3299798aa1f"}, {"is_disabled": 0, "is_reserved": 0, "fusion_lat": 0.0, "lat": 38.922402, "fusion_lon": 0.0, "rental_uris": {"ios": "https://dc.lft.to/lastmile_qr_scan", "android": "https://dc.lft.to/lastmile_qr_scan"}, "lon": -77.03894366666667, "bike_id": "d8e29fec27f40e7207b83da2198d54c4", "type": "electric_scooter", "name": "d8e29fec27f40e7207b83da2198d54c4"}, {"is_disabled": 0, "is_reserved": 0, "fusion_lat": 0.0, "lat": 38.9200445, "fusion_lon": 0.0, "rental_uris": {"ios": "https://dc.lft.to/lastmile_qr_scan", "android": "https://dc.lft.to/lastmile_qr_scan"}, "lon": -77.0216425, "bike_id": "9f5855f1b97613b324e08ddedac5c99c", "type": "electric_scooter", "name": "9f5855f1b97613b324e08ddedac5c99c"}, {"is_disabled": 0, "is_reserved": 0, "fusion_lat": 0.0, "lat": 38.932679, "fusion_lon": 0.0, "rental_uris": {"ios": "https://dc.lft.to/lastmile_qr_scan", "android": "https://dc.lft.to/lastmile_qr_scan"}, "lon": -77.02097266666667, "bike_id": "838cb3f54173cc2dd9e58a7970e9742b", "type": "electric_scooter", "name": "838cb3f54173cc2dd9e58a7970e9742b"}, {"is_disabled": 0, "is_reserved": 0, "fusion_lat": 0.0, "lat": 38.910445833333334, "fusion_lon": 0.0, "rental_uris": {"ios": "https://dc.lft.to/lastmile_qr_scan", "android": "https://dc.lft.to/lastmile_qr_scan"}, "lon": -77.009994, "bike_id": "f3012f671cff8c8d3ec24ae62cad3f9f", "type": "electric_scooter", "name": "f3012f671cff8c8d3ec24ae62cad3f9f"}, {"is_disabled": 0, "is_reserved": 0, "fusion_lat": 0.0, "lat": 38.88489633333333, "fusion_lon": 0.0, "rental_uris": {"ios": "https://dc.lft.to/lastmile_qr_scan", "android": "https://dc.lft.to/lastmile_qr_scan"}, "lon": -77.03474116666666, "bike_id": "21f2aa3f0273cd3e6f0e6dccf37f11e2", "type": "electric_scooter", "name": "21f2aa3f0273cd3e6f0e6dccf37f11e2"}, {"is_disabled": 0, "is_reserved": 0, "fusion_lat": 0.0, "lat": 38.91135966666667, "fusion_lon": 0.0, "rental_uris": {"ios": "https://dc.lft.to/lastmile_qr_scan", "android": "https://dc.lft.to/lastmile_qr_scan"}, "lon": -77.0486595, "bike_id": "302d8f9c2a344e5dae0b8b32cdf3c504", "type": "electric_scooter", "name": "302d8f9c2a344e5dae0b8b32cdf3c504"}, {"is_disabled": 0, "is_reserved": 0, "fusion_lat": 0.0, "lat": 38.918155666666664, "fusion_lon": 0.0, "rental_uris": {"ios": "https://dc.lft.to/lastmile_qr_scan", "android": "https://dc.lft.to/lastmile_qr_scan"}, "lon": -77.024758, "bike_id": "4f727a83e27b8c95f733988dbcf5ead5", "type": "electric_scooter", "name": "4f727a83e27b8c95f733988dbcf5ead5"}, {"is_disabled": 0, "is_reserved": 0, "fusion_lat": 0.0, "lat": 38.94190566666666, "fusion_lon": 0.0, "rental_uris": {"ios": "https://dc.lft.to/lastmile_qr_scan", "android": "https://dc.lft.to/lastmile_qr_scan"}, "lon": -77.031076, "bike_id": "155582dee8d52f804f2796cc83575dd6", "type": "electric_scooter", "name": "155582dee8d52f804f2796cc83575dd6"}, {"is_disabled": 0, "is_reserved": 0, "fusion_lat": 0.0, "lat": 38.896261833333334, "fusion_lon": 0.0, "rental_uris": {"ios": "https://dc.lft.to/lastmile_qr_scan", "android": "https://dc.lft.to/lastmile_qr_scan"}, "lon": -77.04357, "bike_id": "cde3180b047038afe3260dc4d90ece59", "type": "electric_scooter", "name": "cde3180b047038afe3260dc4d90ece59"}, {"is_disabled": 0, "is_reserved": 0, "fusion_lat": 0.0, "lat": 38.89200116666667, "fusion_lon": 0.0, "rental_uris": {"ios": "https://dc.lft.to/lastmile_qr_scan", "android": "https://dc.lft.to/lastmile_qr_scan"}, "lon": -77.0438715, "bike_id": "b68093e2d81abdf4a6cb1fc235348a63", "type": "electric_scooter", "name": "b68093e2d81abdf4a6cb1fc235348a63"}, {"is_disabled": 0, "is_reserved": 0, "fusion_lat": 0.0, "lat": 38.827599166666666, "fusion_lon": 0.0, "rental_uris": {"ios": "https://dc.lft.to/lastmile_qr_scan", "android": "https://dc.lft.to/lastmile_qr_scan"}, "lon": -77.05035933333333, "bike_id": "f394c15e1a7ad032156b0beb7ae0ed7e", "type": "electric_bike", "name": "f394c15e1a7ad032156b0beb7ae0ed7e"}, {"is_disabled": 0, "is_reserved": 0, "fusion_lat": 0.0, "lat": 38.9009015, "fusion_lon": 0.0, "rental_uris": {"ios": "https://dc.lft.to/lastmile_qr_scan", "android": "https://dc.lft.to/lastmile_qr_scan"}, "lon": -77.04783733333333, "bike_id": "160d947cc3b25ac2855579fbb929df3b", "type": "electric_scooter", "name": "160d947cc3b25ac2855579fbb929df3b"}, {"is_disabled": 0, "is_reserved": 0, "fusion_lat": 0.0, "lat": 38.9317345, "fusion_lon": 0.0, "rental_uris": {"ios": "https://dc.lft.to/lastmile_qr_scan", "android": "https://dc.lft.to/lastmile_qr_scan"}, "lon": -77.02817366666666, "bike_id": "f23a83a57e4c5d4b26d1c9e42638be8f", "type": "electric_scooter", "name": "f23a83a57e4c5d4b26d1c9e42638be8f"}, {"is_disabled": 0, "is_reserved": 0, "fusion_lat": 0.0, "lat": 38.88402716666667, "fusion_lon": 0.0, "rental_uris": {"ios": "https://dc.lft.to/lastmile_qr_scan", "android": "https://dc.lft.to/lastmile_qr_scan"}, "lon": -76.98588933333333, "bike_id": "c1015e8ba950a152e1766284dc45d11f", "type": "electric_bike", "name": "c1015e8ba950a152e1766284dc45d11f"}, {"is_disabled": 0, "is_reserved": 0, "fusion_lat": 0.0, "lat": 38.903164833333335, "fusion_lon": 0.0, "rental_uris": {"ios": "https://dc.lft.to/lastmile_qr_scan", "android": "https://dc.lft.to/lastmile_qr_scan"}, "lon": -77.050193, "bike_id": "033012c49aa52550cf887af0c2d11b9e", "type": "electric_scooter", "name": "033012c49aa52550cf887af0c2d11b9e"}, {"is_disabled": 0, "is_reserved": 0, "fusion_lat": 0.0, "lat": 38.92616433333333, "fusion_lon": 0.0, "rental_uris": {"ios": "https://dc.lft.to/lastmile_qr_scan", "android": "https://dc.lft.to/lastmile_qr_scan"}, "lon": -77.0216295, "bike_id": "af665d480a4242ae33610ea09690de38", "type": "electric_scooter", "name": "af665d480a4242ae33610ea09690de38"}, {"is_disabled": 0, "is_reserved": 0, "fusion_lat": 0.0, "lat": 38.96801283333333, "fusion_lon": 0.0, "rental_uris": {"ios": "https://dc.lft.to/lastmile_qr_scan", "android": "https://dc.lft.to/lastmile_qr_scan"}, "lon": -77.02433516666666, "bike_id": "4ccaab9d88b1651b7d09ab4f73782102", "type": "electric_scooter", "name": "4ccaab9d88b1651b7d09ab4f73782102"}, {"is_disabled": 0, "is_reserved": 0, "fusion_lat": 0.0, "lat": 38.91258916666666, "fusion_lon": 0.0, "rental_uris": {"ios": "https://dc.lft.to/lastmile_qr_scan", "android": "https://dc.lft.to/lastmile_qr_scan"}, "lon": -77.0195045, "bike_id": "4b56b768bc4ddc291e817c6e55aad7d1", "type": "electric_scooter", "name": "4b56b768bc4ddc291e817c6e55aad7d1"}, {"is_disabled": 0, "is_reserved": 0, "fusion_lat": 0.0, "lat": 38.908453333333334, "fusion_lon": 0.0, "rental_uris": {"ios": "https://dc.lft.to/lastmile_qr_scan", "android": "https://dc.lft.to/lastmile_qr_scan"}, "lon": -76.93449116666666, "bike_id": "c605527120cab220772905e6fff3a3b3", "type": "electric_scooter", "name": "c605527120cab220772905e6fff3a3b3"}, {"is_disabled": 0, "is_reserved": 0, "fusion_lat": 0.0, "lat": 38.886302, "fusion_lon": 0.0, "rental_uris": {"ios": "https://dc.lft.to/lastmile_qr_scan", "android": "https://dc.lft.to/lastmile_qr_scan"}, "lon": -77.02829666666666, "bike_id": "50272412b187872d14d31775a5ffdc31", "type": "electric_scooter", "name": "50272412b187872d14d31775a5ffdc31"}, {"is_disabled": 0, "is_reserved": 0, "fusion_lat": 0.0, "lat": 38.94267333333333, "fusion_lon": 0.0, "rental_uris": {"ios": "https://dc.lft.to/lastmile_qr_scan", "android": "https://dc.lft.to/lastmile_qr_scan"}, "lon": -77.02842266666667, "bike_id": "1370490d5bedb7b36bee0ded5f33d7af", "type": "electric_bike", "name": "1370490d5bedb7b36bee0ded5f33d7af"}, {"is_disabled": 0, "is_reserved": 0, "fusion_lat": 0.0, "lat": 38.925179666666665, "fusion_lon": 0.0, "rental_uris": {"ios": "https://dc.lft.to/lastmile_qr_scan", "android": "https://dc.lft.to/lastmile_qr_scan"}, "lon": -77.023609, "bike_id": "fa54cbfaac7f1d3fa027723acb108f6d", "type": "electric_scooter", "name": "fa54cbfaac7f1d3fa027723acb108f6d"}, {"is_disabled": 0, "is_reserved": 0, "fusion_lat": 0.0, "lat": 38.92386, "fusion_lon": 0.0, "rental_uris": {"ios": "https://dc.lft.to/lastmile_qr_scan", "android": "https://dc.lft.to/lastmile_qr_scan"}, "lon": -77.03093433333333, "bike_id": "69342bcbe474afea136eda11a2ea0c66", "type": "electric_scooter", "name": "69342bcbe474afea136eda11a2ea0c66"}, {"is_disabled": 0, "is_reserved": 0, "fusion_lat": 0.0, "lat": 38.92548816666667, "fusion_lon": 0.0, "rental_uris": {"ios": "https://dc.lft.to/lastmile_qr_scan", "android": "https://dc.lft.to/lastmile_qr_scan"}, "lon": -77.02268433333333, "bike_id": "b8533eb880fa690a5535ca0d0157ec62", "type": "electric_scooter", "name": "b8533eb880fa690a5535ca0d0157ec62"}, {"is_disabled": 0, "is_reserved": 0, "fusion_lat": 0.0, "lat": 38.927498166666666, "fusion_lon": 0.0, "rental_uris": {"ios": "https://dc.lft.to/lastmile_qr_scan", "android": "https://dc.lft.to/lastmile_qr_scan"}, "lon": -77.03302066666667, "bike_id": "75cac041fcd330d5b59f5ebdfbbaa46e", "type": "electric_scooter", "name": "75cac041fcd330d5b59f5ebdfbbaa46e"}, {"is_disabled": 0, "is_reserved": 0, "fusion_lat": 0.0, "lat": 38.9142255, "fusion_lon": 0.0, "rental_uris": {"ios": "https://dc.lft.to/lastmile_qr_scan", "android": "https://dc.lft.to/lastmile_qr_scan"}, "lon": -77.031739, "bike_id": "c4fe877637988052fc2e2f1fbf7978c4", "type": "electric_scooter", "name": "c4fe877637988052fc2e2f1fbf7978c4"}, {"is_disabled": 0, "is_reserved": 0, "fusion_lat": 0.0, "lat": 38.92987183333334, "fusion_lon": 0.0, "rental_uris": {"ios": "https://dc.lft.to/lastmile_qr_scan", "android": "https://dc.lft.to/lastmile_qr_scan"}, "lon": -77.01477516666667, "bike_id": "b4204ebc2c06a3894027740ee2faf66e", "type": "electric_scooter", "name": "b4204ebc2c06a3894027740ee2faf66e"}, {"is_disabled": 0, "is_reserved": 0, "fusion_lat": 0.0, "lat": 38.905791, "fusion_lon": 0.0, "rental_uris": {"ios": "https://dc.lft.to/lastmile_qr_scan", "android": "https://dc.lft.to/lastmile_qr_scan"}, "lon": -77.04269966666666, "bike_id": "4596aa9b55132a5cfbd5fc24feb4a834", "type": "electric_scooter", "name": "4596aa9b55132a5cfbd5fc24feb4a834"}, {"is_disabled": 0, "is_reserved": 0, "fusion_lat": 0.0, "lat": 38.87289283333333, "fusion_lon": 0.0, "rental_uris": {"ios": "https://dc.lft.to/lastmile_qr_scan", "android": "https://dc.lft.to/lastmile_qr_scan"}, "lon": -76.9678565, "bike_id": "d4519cff6133cc8aef8e39c702a7e605", "type": "electric_scooter", "name": "d4519cff6133cc8aef8e39c702a7e605"}, {"is_disabled": 0, "is_reserved": 0, "fusion_lat": 0.0, "lat": 38.9319495, "fusion_lon": 0.0, "rental_uris": {"ios": "https://dc.lft.to/lastmile_qr_scan", "android": "https://dc.lft.to/lastmile_qr_scan"}, "lon": -77.02451016666667, "bike_id": "2c173bf3ff9c58540363feda4b33c40d", "type": "electric_scooter", "name": "2c173bf3ff9c58540363feda4b33c40d"}, {"is_disabled": 0, "is_reserved": 0, "fusion_lat": 0.0, "lat": 38.92080416666667, "fusion_lon": 0.0, "rental_uris": {"ios": "https://dc.lft.to/lastmile_qr_scan", "android": "https://dc.lft.to/lastmile_qr_scan"}, "lon": -77.0045855, "bike_id": "03d9322043c75d6e1bb9575cb6eece43", "type": "electric_scooter", "name": "03d9322043c75d6e1bb9575cb6eece43"}, {"is_disabled": 0, "is_reserved": 0, "fusion_lat": 0.0, "lat": 38.89298083333333, "fusion_lon": 0.0, "rental_uris": {"ios": "https://dc.lft.to/lastmile_qr_scan", "android": "https://dc.lft.to/lastmile_qr_scan"}, "lon": -77.03937216666667, "bike_id": "43229360f2fdd7b3cf8047839101a209", "type": "electric_scooter", "name": "43229360f2fdd7b3cf8047839101a209"}, {"is_disabled": 0, "is_reserved": 0, "fusion_lat": 0.0, "lat": 38.9226205, "fusion_lon": 0.0, "rental_uris": {"ios": "https://dc.lft.to/lastmile_qr_scan", "android": "https://dc.lft.to/lastmile_qr_scan"}, "lon": -77.03670333333334, "bike_id": "a7ddd95df5ffe12d19189b6e01e729fa", "type": "electric_scooter", "name": "a7ddd95df5ffe12d19189b6e01e729fa"}, {"is_disabled": 0, "is_reserved": 0, "fusion_lat": 0.0, "lat": 38.93363316666667, "fusion_lon": 0.0, "rental_uris": {"ios": "https://dc.lft.to/lastmile_qr_scan", "android": "https://dc.lft.to/lastmile_qr_scan"}, "lon": -77.02387166666666, "bike_id": "1a3cab9e79d419a3ac32ba0c56d1b78d", "type": "electric_scooter", "name": "1a3cab9e79d419a3ac32ba0c56d1b78d"}, {"is_disabled": 0, "is_reserved": 0, "fusion_lat": 0.0, "lat": 38.908795833333336, "fusion_lon": 0.0, "rental_uris": {"ios": "https://dc.lft.to/lastmile_qr_scan", "android": "https://dc.lft.to/lastmile_qr_scan"}, "lon": -77.0405205, "bike_id": "6adad81408b287be2748df5af39a3641", "type": "electric_scooter", "name": "6adad81408b287be2748df5af39a3641"}, {"is_disabled": 0, "is_reserved": 0, "fusion_lat": 0.0, "lat": 38.89243666666667, "fusion_lon": 0.0, "rental_uris": {"ios": "https://dc.lft.to/lastmile_qr_scan", "android": "https://dc.lft.to/lastmile_qr_scan"}, "lon": -77.032106, "bike_id": "c603793b1dcb47a34e05c1da2379c8e3", "type": "electric_scooter", "name": "c603793b1dcb47a34e05c1da2379c8e3"}, {"is_disabled": 0, "is_reserved": 0, "fusion_lat": 0.0, "lat": 38.847597666666665, "fusion_lon": 0.0, "rental_uris": {"ios": "https://dc.lft.to/lastmile_qr_scan", "android": "https://dc.lft.to/lastmile_qr_scan"}, "lon": -77.05374183333333, "bike_id": "6d614cac660338205560dad65b7b5646", "type": "electric_bike", "name": "6d614cac660338205560dad65b7b5646"}, {"is_disabled": 0, "is_reserved": 0, "fusion_lat": 0.0, "lat": 38.8277365, "fusion_lon": 0.0, "rental_uris": {"ios": "https://dc.lft.to/lastmile_qr_scan", "android": "https://dc.lft.to/lastmile_qr_scan"}, "lon": -77.06014233333333, "bike_id": "2cebb37d744f52057cf0505b7987ffbe", "type": "electric_bike", "name": "2cebb37d744f52057cf0505b7987ffbe"}, {"is_disabled": 0, "is_reserved": 0, "fusion_lat": 0.0, "lat": 38.9256755, "fusion_lon": 0.0, "rental_uris": {"ios": "https://dc.lft.to/lastmile_qr_scan", "android": "https://dc.lft.to/lastmile_qr_scan"}, "lon": -77.022851, "bike_id": "4b6a365343a208d660725a6c009a7c4c", "type": "electric_scooter", "name": "4b6a365343a208d660725a6c009a7c4c"}, {"is_disabled": 0, "is_reserved": 0, "fusion_lat": 0.0, "lat": 38.95734933333333, "fusion_lon": 0.0, "rental_uris": {"ios": "https://dc.lft.to/lastmile_qr_scan", "android": "https://dc.lft.to/lastmile_qr_scan"}, "lon": -77.02406283333333, "bike_id": "3c64b39c3cb6a3208614acab0ce0bee7", "type": "electric_scooter", "name": "3c64b39c3cb6a3208614acab0ce0bee7"}, {"is_disabled": 0, "is_reserved": 0, "fusion_lat": 0.0, "lat": 38.912621, "fusion_lon": 0.0, "rental_uris": {"ios": "https://dc.lft.to/lastmile_qr_scan", "android": "https://dc.lft.to/lastmile_qr_scan"}, "lon": -77.01904166666667, "bike_id": "bf9181ad883770c75c0869672fae6f1c", "type": "electric_scooter", "name": "bf9181ad883770c75c0869672fae6f1c"}, {"is_disabled": 0, "is_reserved": 0, "fusion_lat": 0.0, "lat": 38.920692, "fusion_lon": 0.0, "rental_uris": {"ios": "https://dc.lft.to/lastmile_qr_scan", "android": "https://dc.lft.to/lastmile_qr_scan"}, "lon": -77.028424, "bike_id": "8ffc843b47650d9e67915010720ead53", "type": "electric_scooter", "name": "8ffc843b47650d9e67915010720ead53"}, {"is_disabled": 0, "is_reserved": 0, "fusion_lat": 0.0, "lat": 38.907328166666666, "fusion_lon": 0.0, "rental_uris": {"ios": "https://dc.lft.to/lastmile_qr_scan", "android": "https://dc.lft.to/lastmile_qr_scan"}, "lon": -77.03214283333334, "bike_id": "c7eb635e5d9ea53c7b087b298be7164a", "type": "electric_scooter", "name": "c7eb635e5d9ea53c7b087b298be7164a"}, {"is_disabled": 0, "is_reserved": 0, "fusion_lat": 0.0, "lat": 38.914213833333335, "fusion_lon": 0.0, "rental_uris": {"ios": "https://dc.lft.to/lastmile_qr_scan", "android": "https://dc.lft.to/lastmile_qr_scan"}, "lon": -77.03178166666666, "bike_id": "bf279d85f9ce45de0f0344d7c15fcb58", "type": "electric_scooter", "name": "bf279d85f9ce45de0f0344d7c15fcb58"}, {"is_disabled": 0, "is_reserved": 0, "fusion_lat": 0.0, "lat": 38.9074165, "fusion_lon": 0.0, "rental_uris": {"ios": "https://dc.lft.to/lastmile_qr_scan", "android": "https://dc.lft.to/lastmile_qr_scan"}, "lon": -77.028071, "bike_id": "b70aaaabdbe7cdf0be7eaae9ff8e4f30", "type": "electric_scooter", "name": "b70aaaabdbe7cdf0be7eaae9ff8e4f30"}, {"is_disabled": 0, "is_reserved": 0, "fusion_lat": 0.0, "lat": 38.95699616666667, "fusion_lon": 0.0, "rental_uris": {"ios": "https://dc.lft.to/lastmile_qr_scan", "android": "https://dc.lft.to/lastmile_qr_scan"}, "lon": -77.02227083333334, "bike_id": "df408c560eedeb2031fccf6a4d05578f", "type": "electric_bike", "name": "df408c560eedeb2031fccf6a4d05578f"}, {"is_disabled": 0, "is_reserved": 0, "fusion_lat": 0.0, "lat": 38.95178633333333, "fusion_lon": 0.0, "rental_uris": {"ios": "https://dc.lft.to/lastmile_qr_scan", "android": "https://dc.lft.to/lastmile_qr_scan"}, "lon": -77.01848183333334, "bike_id": "2340f8723e0bdd74b5e8fd2d3d74126f", "type": "electric_scooter", "name": "2340f8723e0bdd74b5e8fd2d3d74126f"}, {"is_disabled": 0, "is_reserved": 0, "fusion_lat": 0.0, "lat": 38.917188, "fusion_lon": 0.0, "rental_uris": {"ios": "https://dc.lft.to/lastmile_qr_scan", "android": "https://dc.lft.to/lastmile_qr_scan"}, "lon": -77.03860033333333, "bike_id": "73988f5f00fae48a9e732bd9f944d418", "type": "electric_scooter", "name": "73988f5f00fae48a9e732bd9f944d418"}, {"is_disabled": 0, "is_reserved": 0, "fusion_lat": 0.0, "lat": 38.949717166666666, "fusion_lon": 0.0, "rental_uris": {"ios": "https://dc.lft.to/lastmile_qr_scan", "android": "https://dc.lft.to/lastmile_qr_scan"}, "lon": -77.06759033333333, "bike_id": "a9cb2f26f14625d5acca2ac7e1d18299", "type": "electric_scooter", "name": "a9cb2f26f14625d5acca2ac7e1d18299"}, {"is_disabled": 0, "is_reserved": 0, "fusion_lat": 0.0, "lat": 38.95736183333333, "fusion_lon": 0.0, "rental_uris": {"ios": "https://dc.lft.to/lastmile_qr_scan", "android": "https://dc.lft.to/lastmile_qr_scan"}, "lon": -77.0240395, "bike_id": "b767668375727fea5612b966d952ea91", "type": "electric_scooter", "name": "b767668375727fea5612b966d952ea91"}, {"is_disabled": 0, "is_reserved": 0, "fusion_lat": 0.0, "lat": 38.86217216666667, "fusion_lon": 0.0, "rental_uris": {"ios": "https://dc.lft.to/lastmile_qr_scan", "android": "https://dc.lft.to/lastmile_qr_scan"}, "lon": -76.99479, "bike_id": "52254424539c799eafbca17a31b3f912", "type": "electric_scooter", "name": "52254424539c799eafbca17a31b3f912"}, {"is_disabled": 0, "is_reserved": 0, "fusion_lat": 0.0, "lat": 38.89662783333333, "fusion_lon": 0.0, "rental_uris": {"ios": "https://dc.lft.to/lastmile_qr_scan", "android": "https://dc.lft.to/lastmile_qr_scan"}, "lon": -77.04327383333333, "bike_id": "6150e25f45c9011fb90b404dfbbbcd72", "type": "electric_scooter", "name": "6150e25f45c9011fb90b404dfbbbcd72"}, {"is_disabled": 0, "is_reserved": 0, "fusion_lat": 0.0, "lat": 38.9209695, "fusion_lon": 0.0, "rental_uris": {"ios": "https://dc.lft.to/lastmile_qr_scan", "android": "https://dc.lft.to/lastmile_qr_scan"}, "lon": -77.025975, "bike_id": "7ff7245defb4fdd20a1ab951c3f07e13", "type": "electric_scooter", "name": "7ff7245defb4fdd20a1ab951c3f07e13"}, {"is_disabled": 0, "is_reserved": 0, "fusion_lat": 0.0, "lat": 38.8912805, "fusion_lon": 0.0, "rental_uris": {"ios": "https://dc.lft.to/lastmile_qr_scan", "android": "https://dc.lft.to/lastmile_qr_scan"}, "lon": -76.9994885, "bike_id": "ada999ef4141af6c434543b8504f474c", "type": "electric_scooter", "name": "ada999ef4141af6c434543b8504f474c"}, {"is_disabled": 0, "is_reserved": 0, "fusion_lat": 0.0, "lat": 38.898808833333334, "fusion_lon": 0.0, "rental_uris": {"ios": "https://dc.lft.to/lastmile_qr_scan", "android": "https://dc.lft.to/lastmile_qr_scan"}, "lon": -77.02825883333334, "bike_id": "79457efcb287747827f0d9a51c373087", "type": "electric_scooter", "name": "79457efcb287747827f0d9a51c373087"}, {"is_disabled": 0, "is_reserved": 0, "fusion_lat": 0.0, "lat": 38.949192333333336, "fusion_lon": 0.0, "rental_uris": {"ios": "https://dc.lft.to/lastmile_qr_scan", "android": "https://dc.lft.to/lastmile_qr_scan"}, "lon": -77.0079865, "bike_id": "ec6c510bbc55cfd952ea6ff53ab1cbba", "type": "electric_bike", "name": "ec6c510bbc55cfd952ea6ff53ab1cbba"}, {"is_disabled": 0, "is_reserved": 0, "fusion_lat": 0.0, "lat": 38.87641683333333, "fusion_lon": 0.0, "rental_uris": {"ios": "https://dc.lft.to/lastmile_qr_scan", "android": "https://dc.lft.to/lastmile_qr_scan"}, "lon": -76.99294283333333, "bike_id": "77ccd76600f6c3fc35e56f4b05e1b67a", "type": "electric_scooter", "name": "77ccd76600f6c3fc35e56f4b05e1b67a"}, {"is_disabled": 0, "is_reserved": 0, "fusion_lat": 0.0, "lat": 38.9127125, "fusion_lon": 0.0, "rental_uris": {"ios": "https://dc.lft.to/lastmile_qr_scan", "android": "https://dc.lft.to/lastmile_qr_scan"}, "lon": -77.0448315, "bike_id": "2f021648467998f6f585ddfb2c77e97a", "type": "electric_scooter", "name": "2f021648467998f6f585ddfb2c77e97a"}, {"is_disabled": 0, "is_reserved": 0, "fusion_lat": 0.0, "lat": 38.906539333333335, "fusion_lon": 0.0, "rental_uris": {"ios": "https://dc.lft.to/lastmile_qr_scan", "android": "https://dc.lft.to/lastmile_qr_scan"}, "lon": -77.01414433333333, "bike_id": "6260528a9e2e6d86e756007bb40d5306", "type": "electric_scooter", "name": "6260528a9e2e6d86e756007bb40d5306"}, {"is_disabled": 0, "is_reserved": 0, "fusion_lat": 0.0, "lat": 38.9009095, "fusion_lon": 0.0, "rental_uris": {"ios": "https://dc.lft.to/lastmile_qr_scan", "android": "https://dc.lft.to/lastmile_qr_scan"}, "lon": -77.04783633333334, "bike_id": "833e8af45227d2d06dc6f471ccfb7091", "type": "electric_scooter", "name": "833e8af45227d2d06dc6f471ccfb7091"}, {"is_disabled": 0, "is_reserved": 0, "fusion_lat": 0.0, "lat": 38.914209666666665, "fusion_lon": 0.0, "rental_uris": {"ios": "https://dc.lft.to/lastmile_qr_scan", "android": "https://dc.lft.to/lastmile_qr_scan"}, "lon": -77.031749, "bike_id": "7200059981b80504e31d3b91128c25d6", "type": "electric_scooter", "name": "7200059981b80504e31d3b91128c25d6"}, {"is_disabled": 0, "is_reserved": 0, "fusion_lat": 0.0, "lat": 38.905947833333336, "fusion_lon": 0.0, "rental_uris": {"ios": "https://dc.lft.to/lastmile_qr_scan", "android": "https://dc.lft.to/lastmile_qr_scan"}, "lon": -77.06543516666666, "bike_id": "3f9dd5f56b95feb8173b4e14b455c073", "type": "electric_scooter", "name": "3f9dd5f56b95feb8173b4e14b455c073"}, {"is_disabled": 0, "is_reserved": 0, "fusion_lat": 0.0, "lat": 38.918249, "fusion_lon": 0.0, "rental_uris": {"ios": "https://dc.lft.to/lastmile_qr_scan", "android": "https://dc.lft.to/lastmile_qr_scan"}, "lon": -77.03442983333333, "bike_id": "800654555c439fe93809a0d8b15e74c0", "type": "electric_scooter", "name": "800654555c439fe93809a0d8b15e74c0"}, {"is_disabled": 0, "is_reserved": 0, "fusion_lat": 0.0, "lat": 38.914799, "fusion_lon": 0.0, "rental_uris": {"ios": "https://dc.lft.to/lastmile_qr_scan", "android": "https://dc.lft.to/lastmile_qr_scan"}, "lon": -77.00915216666667, "bike_id": "8219f3c6c4a8322c88e399b92a1fa433", "type": "electric_scooter", "name": "8219f3c6c4a8322c88e399b92a1fa433"}, {"is_disabled": 0, "is_reserved": 0, "fusion_lat": 0.0, "lat": 39.02646133333333, "fusion_lon": 0.0, "rental_uris": {"ios": "https://dc.lft.to/lastmile_qr_scan", "android": "https://dc.lft.to/lastmile_qr_scan"}, "lon": -77.03687983333333, "bike_id": "d34ba1ea318f4fd6dc6e73df2624e3a8", "type": "electric_bike", "name": "d34ba1ea318f4fd6dc6e73df2624e3a8"}, {"is_disabled": 0, "is_reserved": 0, "fusion_lat": 0.0, "lat": 38.9145995, "fusion_lon": 0.0, "rental_uris": {"ios": "https://dc.lft.to/lastmile_qr_scan", "android": "https://dc.lft.to/lastmile_qr_scan"}, "lon": -77.03205783333334, "bike_id": "be8e1b8d26149d6314ca2c1061919366", "type": "electric_scooter", "name": "be8e1b8d26149d6314ca2c1061919366"}, {"is_disabled": 0, "is_reserved": 0, "fusion_lat": 0.0, "lat": 38.94333683333333, "fusion_lon": 0.0, "rental_uris": {"ios": "https://dc.lft.to/lastmile_qr_scan", "android": "https://dc.lft.to/lastmile_qr_scan"}, "lon": -77.02691816666666, "bike_id": "9a39468c566b41c736a0bc56cc861d8c", "type": "electric_scooter", "name": "9a39468c566b41c736a0bc56cc861d8c"}, {"is_disabled": 0, "is_reserved": 0, "fusion_lat": 0.0, "lat": 38.930236666666666, "fusion_lon": 0.0, "rental_uris": {"ios": "https://dc.lft.to/lastmile_qr_scan", "android": "https://dc.lft.to/lastmile_qr_scan"}, "lon": -77.0232295, "bike_id": "baacb5d52a63f4ca7b57119f141df9e0", "type": "electric_scooter", "name": "baacb5d52a63f4ca7b57119f141df9e0"}, {"is_disabled": 0, "is_reserved": 0, "fusion_lat": 0.0, "lat": 38.91417633333333, "fusion_lon": 0.0, "rental_uris": {"ios": "https://dc.lft.to/lastmile_qr_scan", "android": "https://dc.lft.to/lastmile_qr_scan"}, "lon": -77.05209683333334, "bike_id": "3a37e267d2cdeaeac094b2c1ed3785e2", "type": "electric_scooter", "name": "3a37e267d2cdeaeac094b2c1ed3785e2"}, {"is_disabled": 0, "is_reserved": 0, "fusion_lat": 0.0, "lat": 38.90515416666667, "fusion_lon": 0.0, "rental_uris": {"ios": "https://dc.lft.to/lastmile_qr_scan", "android": "https://dc.lft.to/lastmile_qr_scan"}, "lon": -76.95209716666666, "bike_id": "9b7836e393320651459e2a45d14d7348", "type": "electric_scooter", "name": "9b7836e393320651459e2a45d14d7348"}, {"is_disabled": 0, "is_reserved": 0, "fusion_lat": 0.0, "lat": 38.88624266666667, "fusion_lon": 0.0, "rental_uris": {"ios": "https://dc.lft.to/lastmile_qr_scan", "android": "https://dc.lft.to/lastmile_qr_scan"}, "lon": -76.92633816666667, "bike_id": "84d36e0993cd8d5bdeb90accdf2e7d75", "type": "electric_scooter", "name": "84d36e0993cd8d5bdeb90accdf2e7d75"}, {"is_disabled": 0, "is_reserved": 0, "fusion_lat": 0.0, "lat": 38.90016583333333, "fusion_lon": 0.0, "rental_uris": {"ios": "https://dc.lft.to/lastmile_qr_scan", "android": "https://dc.lft.to/lastmile_qr_scan"}, "lon": -77.02706783333333, "bike_id": "e2f4531680a4a53b871cc42ddac677ed", "type": "electric_scooter", "name": "e2f4531680a4a53b871cc42ddac677ed"}, {"is_disabled": 0, "is_reserved": 0, "fusion_lat": 0.0, "lat": 38.92364516666667, "fusion_lon": 0.0, "rental_uris": {"ios": "https://dc.lft.to/lastmile_qr_scan", "android": "https://dc.lft.to/lastmile_qr_scan"}, "lon": -77.02140766666666, "bike_id": "c1f968d31a9b36b75571ed0dcf2eff7c", "type": "electric_scooter", "name": "c1f968d31a9b36b75571ed0dcf2eff7c"}, {"is_disabled": 0, "is_reserved": 0, "fusion_lat": 0.0, "lat": 38.93068933333333, "fusion_lon": 0.0, "rental_uris": {"ios": "https://dc.lft.to/lastmile_qr_scan", "android": "https://dc.lft.to/lastmile_qr_scan"}, "lon": -77.040557, "bike_id": "8e4a9324824e48c5e2a45b2877817832", "type": "electric_scooter", "name": "8e4a9324824e48c5e2a45b2877817832"}, {"is_disabled": 0, "is_reserved": 0, "fusion_lat": 0.0, "lat": 38.92598366666667, "fusion_lon": 0.0, "rental_uris": {"ios": "https://dc.lft.to/lastmile_qr_scan", "android": "https://dc.lft.to/lastmile_qr_scan"}, "lon": -77.05281133333334, "bike_id": "a28d5071f2aa6be81ce72f3de34ff140", "type": "electric_scooter", "name": "a28d5071f2aa6be81ce72f3de34ff140"}, {"is_disabled": 0, "is_reserved": 0, "fusion_lat": 0.0, "lat": 38.91713166666667, "fusion_lon": 0.0, "rental_uris": {"ios": "https://dc.lft.to/lastmile_qr_scan", "android": "https://dc.lft.to/lastmile_qr_scan"}, "lon": -77.03867483333333, "bike_id": "e0c2c57ffa630ba99e04d74a5d2fcc5b", "type": "electric_scooter", "name": "e0c2c57ffa630ba99e04d74a5d2fcc5b"}, {"is_disabled": 0, "is_reserved": 0, "fusion_lat": 0.0, "lat": 38.88736016666667, "fusion_lon": 0.0, "rental_uris": {"ios": "https://dc.lft.to/lastmile_qr_scan", "android": "https://dc.lft.to/lastmile_qr_scan"}, "lon": -77.02206916666667, "bike_id": "747b99a37afacb4f9fa99e5211dbfabf", "type": "electric_scooter", "name": "747b99a37afacb4f9fa99e5211dbfabf"}, {"is_disabled": 0, "is_reserved": 0, "fusion_lat": 0.0, "lat": 38.92196833333333, "fusion_lon": 0.0, "rental_uris": {"ios": "https://dc.lft.to/lastmile_qr_scan", "android": "https://dc.lft.to/lastmile_qr_scan"}, "lon": -77.03795833333334, "bike_id": "1b9969f1867d2cfee4fa54dce845ba3b", "type": "electric_scooter", "name": "1b9969f1867d2cfee4fa54dce845ba3b"}, {"is_disabled": 0, "is_reserved": 0, "fusion_lat": 0.0, "lat": 38.92318916666667, "fusion_lon": 0.0, "rental_uris": {"ios": "https://dc.lft.to/lastmile_qr_scan", "android": "https://dc.lft.to/lastmile_qr_scan"}, "lon": -77.0280405, "bike_id": "d0f7cdcfd15d3ff1bf82a189f659f288", "type": "electric_scooter", "name": "d0f7cdcfd15d3ff1bf82a189f659f288"}, {"is_disabled": 0, "is_reserved": 0, "fusion_lat": 0.0, "lat": 38.85788, "fusion_lon": 0.0, "rental_uris": {"ios": "https://dc.lft.to/lastmile_qr_scan", "android": "https://dc.lft.to/lastmile_qr_scan"}, "lon": -76.98763666666666, "bike_id": "53f600b65dd58502f1fe7499e60411cb", "type": "electric_bike", "name": "53f600b65dd58502f1fe7499e60411cb"}, {"is_disabled": 0, "is_reserved": 0, "fusion_lat": 0.0, "lat": 38.919174, "fusion_lon": 0.0, "rental_uris": {"ios": "https://dc.lft.to/lastmile_qr_scan", "android": "https://dc.lft.to/lastmile_qr_scan"}, "lon": -77.03091466666666, "bike_id": "a177ab6a17fe6639a6289ce56b0a35ca", "type": "electric_scooter", "name": "a177ab6a17fe6639a6289ce56b0a35ca"}, {"is_disabled": 0, "is_reserved": 0, "fusion_lat": 0.0, "lat": 38.923278333333336, "fusion_lon": 0.0, "rental_uris": {"ios": "https://dc.lft.to/lastmile_qr_scan", "android": "https://dc.lft.to/lastmile_qr_scan"}, "lon": -77.02966983333333, "bike_id": "9ce6ea1927b4f8f69d809043de87f515", "type": "electric_scooter", "name": "9ce6ea1927b4f8f69d809043de87f515"}, {"is_disabled": 0, "is_reserved": 0, "fusion_lat": 0.0, "lat": 38.90010266666667, "fusion_lon": 0.0, "rental_uris": {"ios": "https://dc.lft.to/lastmile_qr_scan", "android": "https://dc.lft.to/lastmile_qr_scan"}, "lon": -77.052638, "bike_id": "9562c39ae57b5a24d2cdc6133c3a5de4", "type": "electric_scooter", "name": "9562c39ae57b5a24d2cdc6133c3a5de4"}, {"is_disabled": 0, "is_reserved": 0, "fusion_lat": 0.0, "lat": 38.92416933333333, "fusion_lon": 0.0, "rental_uris": {"ios": "https://dc.lft.to/lastmile_qr_scan", "android": "https://dc.lft.to/lastmile_qr_scan"}, "lon": -77.02719733333333, "bike_id": "7a5c54e06fc7d56d942b0b71237059a0", "type": "electric_scooter", "name": "7a5c54e06fc7d56d942b0b71237059a0"}, {"is_disabled": 0, "is_reserved": 0, "fusion_lat": 0.0, "lat": 38.91786183333333, "fusion_lon": 0.0, "rental_uris": {"ios": "https://dc.lft.to/lastmile_qr_scan", "android": "https://dc.lft.to/lastmile_qr_scan"}, "lon": -77.0230955, "bike_id": "8c90759c61e2a1a79dda0f69487ad7ba", "type": "electric_scooter", "name": "8c90759c61e2a1a79dda0f69487ad7ba"}, {"is_disabled": 0, "is_reserved": 0, "fusion_lat": 0.0, "lat": 38.9051185, "fusion_lon": 0.0, "rental_uris": {"ios": "https://dc.lft.to/lastmile_qr_scan", "android": "https://dc.lft.to/lastmile_qr_scan"}, "lon": -76.95193116666667, "bike_id": "f089b04b258d03d2acbe94e9567f64f2", "type": "electric_scooter", "name": "f089b04b258d03d2acbe94e9567f64f2"}, {"is_disabled": 0, "is_reserved": 0, "fusion_lat": 0.0, "lat": 38.90002033333333, "fusion_lon": 0.0, "rental_uris": {"ios": "https://dc.lft.to/lastmile_qr_scan", "android": "https://dc.lft.to/lastmile_qr_scan"}, "lon": -77.02707333333333, "bike_id": "efd742e002519bf8ca0dd144af599be8", "type": "electric_scooter", "name": "efd742e002519bf8ca0dd144af599be8"}, {"is_disabled": 0, "is_reserved": 0, "fusion_lat": 0.0, "lat": 38.900428833333336, "fusion_lon": 0.0, "rental_uris": {"ios": "https://dc.lft.to/lastmile_qr_scan", "android": "https://dc.lft.to/lastmile_qr_scan"}, "lon": -77.00203733333333, "bike_id": "c2227cc44d069e313c7391caedc56089", "type": "electric_scooter", "name": "c2227cc44d069e313c7391caedc56089"}, {"is_disabled": 0, "is_reserved": 0, "fusion_lat": 0.0, "lat": 38.91810016666667, "fusion_lon": 0.0, "rental_uris": {"ios": "https://dc.lft.to/lastmile_qr_scan", "android": "https://dc.lft.to/lastmile_qr_scan"}, "lon": -77.02492466666666, "bike_id": "f8f743d065fcaedb9adb8740cb7ad54e", "type": "electric_scooter", "name": "f8f743d065fcaedb9adb8740cb7ad54e"}, {"is_disabled": 0, "is_reserved": 0, "fusion_lat": 0.0, "lat": 38.902483, "fusion_lon": 0.0, "rental_uris": {"ios": "https://dc.lft.to/lastmile_qr_scan", "android": "https://dc.lft.to/lastmile_qr_scan"}, "lon": -77.03424083333333, "bike_id": "50b065900a0f24bd980be5cc919aaf18", "type": "electric_scooter", "name": "50b065900a0f24bd980be5cc919aaf18"}, {"is_disabled": 0, "is_reserved": 0, "fusion_lat": 0.0, "lat": 38.905714833333334, "fusion_lon": 0.0, "rental_uris": {"ios": "https://dc.lft.to/lastmile_qr_scan", "android": "https://dc.lft.to/lastmile_qr_scan"}, "lon": -77.06277033333333, "bike_id": "da3c48e139b8e527377d065990021dce", "type": "electric_scooter", "name": "da3c48e139b8e527377d065990021dce"}, {"is_disabled": 0, "is_reserved": 0, "fusion_lat": 0.0, "lat": 38.90786333333333, "fusion_lon": 0.0, "rental_uris": {"ios": "https://dc.lft.to/lastmile_qr_scan", "android": "https://dc.lft.to/lastmile_qr_scan"}, "lon": -77.07254733333333, "bike_id": "d00ea1e1b026e8f8b4daa950daaffbd9", "type": "electric_scooter", "name": "d00ea1e1b026e8f8b4daa950daaffbd9"}, {"is_disabled": 0, "is_reserved": 0, "fusion_lat": 0.0, "lat": 38.912704833333336, "fusion_lon": 0.0, "rental_uris": {"ios": "https://dc.lft.to/lastmile_qr_scan", "android": "https://dc.lft.to/lastmile_qr_scan"}, "lon": -77.03731966666666, "bike_id": "d5d34aed4487f1fb34f01ef40f0e5b61", "type": "electric_scooter", "name": "d5d34aed4487f1fb34f01ef40f0e5b61"}, {"is_disabled": 0, "is_reserved": 0, "fusion_lat": 0.0, "lat": 38.934295, "fusion_lon": 0.0, "rental_uris": {"ios": "https://dc.lft.to/lastmile_qr_scan", "android": "https://dc.lft.to/lastmile_qr_scan"}, "lon": -77.04004383333333, "bike_id": "89153dbc8b8f1303b45f5ee3a9019b5f", "type": "electric_scooter", "name": "89153dbc8b8f1303b45f5ee3a9019b5f"}, {"is_disabled": 0, "is_reserved": 0, "fusion_lat": 0.0, "lat": 38.9076235, "fusion_lon": 0.0, "rental_uris": {"ios": "https://dc.lft.to/lastmile_qr_scan", "android": "https://dc.lft.to/lastmile_qr_scan"}, "lon": -77.00118933333333, "bike_id": "5ed2556168b21c3cfa0a057d5660aa39", "type": "electric_scooter", "name": "5ed2556168b21c3cfa0a057d5660aa39"}, {"is_disabled": 0, "is_reserved": 0, "fusion_lat": 0.0, "lat": 38.922459333333336, "fusion_lon": 0.0, "rental_uris": {"ios": "https://dc.lft.to/lastmile_qr_scan", "android": "https://dc.lft.to/lastmile_qr_scan"}, "lon": -77.02990133333333, "bike_id": "f11fd768ecc7b2f920916f4689f13748", "type": "electric_scooter", "name": "f11fd768ecc7b2f920916f4689f13748"}, {"is_disabled": 0, "is_reserved": 0, "fusion_lat": 0.0, "lat": 38.8767815, "fusion_lon": 0.0, "rental_uris": {"ios": "https://dc.lft.to/lastmile_qr_scan", "android": "https://dc.lft.to/lastmile_qr_scan"}, "lon": -77.01445116666666, "bike_id": "4f0760dd3916ba56e9c8e9190f5d87ee", "type": "electric_bike", "name": "4f0760dd3916ba56e9c8e9190f5d87ee"}, {"is_disabled": 0, "is_reserved": 0, "fusion_lat": 0.0, "lat": 38.848632, "fusion_lon": 0.0, "rental_uris": {"ios": "https://dc.lft.to/lastmile_qr_scan", "android": "https://dc.lft.to/lastmile_qr_scan"}, "lon": -77.06829933333333, "bike_id": "bc4b236321e5b093bbe77ffdb28dadee", "type": "electric_bike", "name": "bc4b236321e5b093bbe77ffdb28dadee"}, {"is_disabled": 0, "is_reserved": 0, "fusion_lat": 0.0, "lat": 38.897207, "fusion_lon": 0.0, "rental_uris": {"ios": "https://dc.lft.to/lastmile_qr_scan", "android": "https://dc.lft.to/lastmile_qr_scan"}, "lon": -77.027997, "bike_id": "596fd1cd05bb82166604238901eb7e57", "type": "electric_scooter", "name": "596fd1cd05bb82166604238901eb7e57"}, {"is_disabled": 0, "is_reserved": 0, "fusion_lat": 0.0, "lat": 38.8974135, "fusion_lon": 0.0, "rental_uris": {"ios": "https://dc.lft.to/lastmile_qr_scan", "android": "https://dc.lft.to/lastmile_qr_scan"}, "lon": -76.99223083333334, "bike_id": "3930e222a1d51e530fbf93650b0ec7cd", "type": "electric_bike", "name": "3930e222a1d51e530fbf93650b0ec7cd"}, {"is_disabled": 0, "is_reserved": 0, "fusion_lat": 0.0, "lat": 38.92104483333333, "fusion_lon": 0.0, "rental_uris": {"ios": "https://dc.lft.to/lastmile_qr_scan", "android": "https://dc.lft.to/lastmile_qr_scan"}, "lon": -77.01806783333333, "bike_id": "ea6803a01887d4146fa373cf46a2fe46", "type": "electric_scooter", "name": "ea6803a01887d4146fa373cf46a2fe46"}, {"is_disabled": 0, "is_reserved": 0, "fusion_lat": 0.0, "lat": 38.911396333333336, "fusion_lon": 0.0, "rental_uris": {"ios": "https://dc.lft.to/lastmile_qr_scan", "android": "https://dc.lft.to/lastmile_qr_scan"}, "lon": -77.02200316666666, "bike_id": "48afac71218739e0af46c5d092ef70f6", "type": "electric_scooter", "name": "48afac71218739e0af46c5d092ef70f6"}, {"is_disabled": 0, "is_reserved": 0, "fusion_lat": 0.0, "lat": 38.899675333333334, "fusion_lon": 0.0, "rental_uris": {"ios": "https://dc.lft.to/lastmile_qr_scan", "android": "https://dc.lft.to/lastmile_qr_scan"}, "lon": -77.016357, "bike_id": "c2d62f7ac153e7e93e03a07b2126f5cc", "type": "electric_scooter", "name": "c2d62f7ac153e7e93e03a07b2126f5cc"}, {"is_disabled": 0, "is_reserved": 0, "fusion_lat": 0.0, "lat": 38.921071833333336, "fusion_lon": 0.0, "rental_uris": {"ios": "https://dc.lft.to/lastmile_qr_scan", "android": "https://dc.lft.to/lastmile_qr_scan"}, "lon": -77.03245016666666, "bike_id": "6b01b2d9f8241d522ecf3cdc83bb478f", "type": "electric_scooter", "name": "6b01b2d9f8241d522ecf3cdc83bb478f"}, {"is_disabled": 0, "is_reserved": 0, "fusion_lat": 0.0, "lat": 38.919627166666665, "fusion_lon": 0.0, "rental_uris": {"ios": "https://dc.lft.to/lastmile_qr_scan", "android": "https://dc.lft.to/lastmile_qr_scan"}, "lon": -77.07870233333334, "bike_id": "34e21089d15eafb19ffeafa758706817", "type": "electric_scooter", "name": "34e21089d15eafb19ffeafa758706817"}, {"is_disabled": 0, "is_reserved": 0, "fusion_lat": 0.0, "lat": 38.92048583333333, "fusion_lon": 0.0, "rental_uris": {"ios": "https://dc.lft.to/lastmile_qr_scan", "android": "https://dc.lft.to/lastmile_qr_scan"}, "lon": -77.0346895, "bike_id": "d14684f041266cef8d588004acdf3f02", "type": "electric_scooter", "name": "d14684f041266cef8d588004acdf3f02"}, {"is_disabled": 0, "is_reserved": 0, "fusion_lat": 0.0, "lat": 38.904296, "fusion_lon": 0.0, "rental_uris": {"ios": "https://dc.lft.to/lastmile_qr_scan", "android": "https://dc.lft.to/lastmile_qr_scan"}, "lon": -77.02588566666667, "bike_id": "baafcc39ecd29b8a2e9aa9a90dab022e", "type": "electric_scooter", "name": "baafcc39ecd29b8a2e9aa9a90dab022e"}, {"is_disabled": 0, "is_reserved": 0, "fusion_lat": 0.0, "lat": 38.904221666666665, "fusion_lon": 0.0, "rental_uris": {"ios": "https://dc.lft.to/lastmile_qr_scan", "android": "https://dc.lft.to/lastmile_qr_scan"}, "lon": -77.05328133333333, "bike_id": "22d45a6af66fe1e50cb04900a2515e58", "type": "electric_scooter", "name": "22d45a6af66fe1e50cb04900a2515e58"}, {"is_disabled": 0, "is_reserved": 0, "fusion_lat": 0.0, "lat": 38.92977466666667, "fusion_lon": 0.0, "rental_uris": {"ios": "https://dc.lft.to/lastmile_qr_scan", "android": "https://dc.lft.to/lastmile_qr_scan"}, "lon": -77.02795866666666, "bike_id": "91a6b366535b8db4f7f3903207b08a3b", "type": "electric_scooter", "name": "91a6b366535b8db4f7f3903207b08a3b"}, {"is_disabled": 0, "is_reserved": 0, "fusion_lat": 0.0, "lat": 38.8876385, "fusion_lon": 0.0, "rental_uris": {"ios": "https://dc.lft.to/lastmile_qr_scan", "android": "https://dc.lft.to/lastmile_qr_scan"}, "lon": -77.0335025, "bike_id": "786a070a6bf2fae70a354a9366ac5d88", "type": "electric_scooter", "name": "786a070a6bf2fae70a354a9366ac5d88"}, {"is_disabled": 0, "is_reserved": 0, "fusion_lat": 0.0, "lat": 38.935247, "fusion_lon": 0.0, "rental_uris": {"ios": "https://dc.lft.to/lastmile_qr_scan", "android": "https://dc.lft.to/lastmile_qr_scan"}, "lon": -77.03263333333334, "bike_id": "2699a586010f5983be72702b803eabcf", "type": "electric_scooter", "name": "2699a586010f5983be72702b803eabcf"}, {"is_disabled": 0, "is_reserved": 0, "fusion_lat": 0.0, "lat": 38.90396116666667, "fusion_lon": 0.0, "rental_uris": {"ios": "https://dc.lft.to/lastmile_qr_scan", "android": "https://dc.lft.to/lastmile_qr_scan"}, "lon": -76.9901315, "bike_id": "efd79447da197148609ce3024c9758ed", "type": "electric_scooter", "name": "efd79447da197148609ce3024c9758ed"}, {"is_disabled": 0, "is_reserved": 0, "fusion_lat": 0.0, "lat": 38.9097495, "fusion_lon": 0.0, "rental_uris": {"ios": "https://dc.lft.to/lastmile_qr_scan", "android": "https://dc.lft.to/lastmile_qr_scan"}, "lon": -77.0241785, "bike_id": "60937ab37e1d4791164084e553e223b9", "type": "electric_scooter", "name": "60937ab37e1d4791164084e553e223b9"}, {"is_disabled": 0, "is_reserved": 0, "fusion_lat": 0.0, "lat": 38.9008315, "fusion_lon": 0.0, "rental_uris": {"ios": "https://dc.lft.to/lastmile_qr_scan", "android": "https://dc.lft.to/lastmile_qr_scan"}, "lon": -77.0590585, "bike_id": "d0c2ec12206c69681d130c6077784d7a", "type": "electric_scooter", "name": "d0c2ec12206c69681d130c6077784d7a"}, {"is_disabled": 0, "is_reserved": 0, "fusion_lat": 0.0, "lat": 38.9156145, "fusion_lon": 0.0, "rental_uris": {"ios": "https://dc.lft.to/lastmile_qr_scan", "android": "https://dc.lft.to/lastmile_qr_scan"}, "lon": -77.031329, "bike_id": "eef51edc394cb8b5b868b36f8b651895", "type": "electric_scooter", "name": "eef51edc394cb8b5b868b36f8b651895"}, {"is_disabled": 0, "is_reserved": 0, "fusion_lat": 0.0, "lat": 38.891993166666666, "fusion_lon": 0.0, "rental_uris": {"ios": "https://dc.lft.to/lastmile_qr_scan", "android": "https://dc.lft.to/lastmile_qr_scan"}, "lon": -77.022285, "bike_id": "9d9e4c19ba0ce116998ed6dbc5c0ad30", "type": "electric_scooter", "name": "9d9e4c19ba0ce116998ed6dbc5c0ad30"}, {"is_disabled": 0, "is_reserved": 0, "fusion_lat": 0.0, "lat": 38.9068745, "fusion_lon": 0.0, "rental_uris": {"ios": "https://dc.lft.to/lastmile_qr_scan", "android": "https://dc.lft.to/lastmile_qr_scan"}, "lon": -76.9793185, "bike_id": "a741f21fd6038159325996311f12a8c2", "type": "electric_scooter", "name": "a741f21fd6038159325996311f12a8c2"}, {"is_disabled": 0, "is_reserved": 0, "fusion_lat": 0.0, "lat": 38.9260185, "fusion_lon": 0.0, "rental_uris": {"ios": "https://dc.lft.to/lastmile_qr_scan", "android": "https://dc.lft.to/lastmile_qr_scan"}, "lon": -77.02152383333333, "bike_id": "f108e3ecda47b582fd5bd8dbf6e6c51d", "type": "electric_scooter", "name": "f108e3ecda47b582fd5bd8dbf6e6c51d"}, {"is_disabled": 0, "is_reserved": 0, "fusion_lat": 0.0, "lat": 38.9472035, "fusion_lon": 0.0, "rental_uris": {"ios": "https://dc.lft.to/lastmile_qr_scan", "android": "https://dc.lft.to/lastmile_qr_scan"}, "lon": -77.02264, "bike_id": "940e5aa494209189189cf38a6ce9f467", "type": "electric_scooter", "name": "940e5aa494209189189cf38a6ce9f467"}, {"is_disabled": 0, "is_reserved": 0, "fusion_lat": 0.0, "lat": 38.881003666666665, "fusion_lon": 0.0, "rental_uris": {"ios": "https://dc.lft.to/lastmile_qr_scan", "android": "https://dc.lft.to/lastmile_qr_scan"}, "lon": -76.99256, "bike_id": "0f5f58d740ae6d7a4b8b8c034bdefe19", "type": "electric_bike", "name": "0f5f58d740ae6d7a4b8b8c034bdefe19"}, {"is_disabled": 0, "is_reserved": 0, "fusion_lat": 0.0, "lat": 38.94795166666667, "fusion_lon": 0.0, "rental_uris": {"ios": "https://dc.lft.to/lastmile_qr_scan", "android": "https://dc.lft.to/lastmile_qr_scan"}, "lon": -77.07898733333333, "bike_id": "2c35cdcd51f407fdd938ca947723213d", "type": "electric_scooter", "name": "2c35cdcd51f407fdd938ca947723213d"}, {"is_disabled": 0, "is_reserved": 0, "fusion_lat": 0.0, "lat": 38.95276633333334, "fusion_lon": 0.0, "rental_uris": {"ios": "https://dc.lft.to/lastmile_qr_scan", "android": "https://dc.lft.to/lastmile_qr_scan"}, "lon": -77.06865533333334, "bike_id": "35085e7572b55fce1cd1f095cbd3e7d4", "type": "electric_scooter", "name": "35085e7572b55fce1cd1f095cbd3e7d4"}, {"is_disabled": 0, "is_reserved": 0, "fusion_lat": 0.0, "lat": 38.9268625, "fusion_lon": 0.0, "rental_uris": {"ios": "https://dc.lft.to/lastmile_qr_scan", "android": "https://dc.lft.to/lastmile_qr_scan"}, "lon": -77.01466116666667, "bike_id": "074074dfbd4424c9cc3ec6ade3c6f942", "type": "electric_scooter", "name": "074074dfbd4424c9cc3ec6ade3c6f942"}, {"is_disabled": 0, "is_reserved": 0, "fusion_lat": 0.0, "lat": 38.87173966666667, "fusion_lon": 0.0, "rental_uris": {"ios": "https://dc.lft.to/lastmile_qr_scan", "android": "https://dc.lft.to/lastmile_qr_scan"}, "lon": -77.006273, "bike_id": "8e8df1193cea5f070e1586e5935be415", "type": "electric_scooter", "name": "8e8df1193cea5f070e1586e5935be415"}, {"is_disabled": 0, "is_reserved": 0, "fusion_lat": 0.0, "lat": 38.92976933333333, "fusion_lon": 0.0, "rental_uris": {"ios": "https://dc.lft.to/lastmile_qr_scan", "android": "https://dc.lft.to/lastmile_qr_scan"}, "lon": -77.02823566666666, "bike_id": "eb5becc2be6277381ad06548c3a33f3e", "type": "electric_scooter", "name": "eb5becc2be6277381ad06548c3a33f3e"}, {"is_disabled": 0, "is_reserved": 0, "fusion_lat": 0.0, "lat": 38.9018445, "fusion_lon": 0.0, "rental_uris": {"ios": "https://dc.lft.to/lastmile_qr_scan", "android": "https://dc.lft.to/lastmile_qr_scan"}, "lon": -77.0502535, "bike_id": "de411a45d39abb7719c20a6554ef3cd0", "type": "electric_scooter", "name": "de411a45d39abb7719c20a6554ef3cd0"}, {"is_disabled": 0, "is_reserved": 0, "fusion_lat": 0.0, "lat": 38.852238166666666, "fusion_lon": 0.0, "rental_uris": {"ios": "https://dc.lft.to/lastmile_qr_scan", "android": "https://dc.lft.to/lastmile_qr_scan"}, "lon": -76.99373216666666, "bike_id": "b13157d1c05b1a8c0157340e7c0a2058", "type": "electric_bike", "name": "b13157d1c05b1a8c0157340e7c0a2058"}, {"is_disabled": 0, "is_reserved": 0, "fusion_lat": 0.0, "lat": 38.938692333333336, "fusion_lon": 0.0, "rental_uris": {"ios": "https://dc.lft.to/lastmile_qr_scan", "android": "https://dc.lft.to/lastmile_qr_scan"}, "lon": -77.03043883333333, "bike_id": "06ce2305370020c6114def1376c4d82c", "type": "electric_scooter", "name": "06ce2305370020c6114def1376c4d82c"}, {"is_disabled": 0, "is_reserved": 0, "fusion_lat": 0.0, "lat": 38.948296, "fusion_lon": 0.0, "rental_uris": {"ios": "https://dc.lft.to/lastmile_qr_scan", "android": "https://dc.lft.to/lastmile_qr_scan"}, "lon": -77.02546, "bike_id": "acf4bc918c8b9ef242fee695ca0ef677", "type": "electric_scooter", "name": "acf4bc918c8b9ef242fee695ca0ef677"}, {"is_disabled": 0, "is_reserved": 0, "fusion_lat": 0.0, "lat": 38.90680316666667, "fusion_lon": 0.0, "rental_uris": {"ios": "https://dc.lft.to/lastmile_qr_scan", "android": "https://dc.lft.to/lastmile_qr_scan"}, "lon": -77.05323166666666, "bike_id": "2ca004e7384375da0e6f3f60e115e62e", "type": "electric_scooter", "name": "2ca004e7384375da0e6f3f60e115e62e"}, {"is_disabled": 0, "is_reserved": 0, "fusion_lat": 0.0, "lat": 38.90285166666666, "fusion_lon": 0.0, "rental_uris": {"ios": "https://dc.lft.to/lastmile_qr_scan", "android": "https://dc.lft.to/lastmile_qr_scan"}, "lon": -77.05922866666667, "bike_id": "cb1e78746b4da36f95004c74a9231eeb", "type": "electric_scooter", "name": "cb1e78746b4da36f95004c74a9231eeb"}, {"is_disabled": 0, "is_reserved": 0, "fusion_lat": 0.0, "lat": 38.896519, "fusion_lon": 0.0, "rental_uris": {"ios": "https://dc.lft.to/lastmile_qr_scan", "android": "https://dc.lft.to/lastmile_qr_scan"}, "lon": -77.00921366666667, "bike_id": "8ba31bfc45d92b130e5775659041e2f0", "type": "electric_scooter", "name": "8ba31bfc45d92b130e5775659041e2f0"}, {"is_disabled": 0, "is_reserved": 0, "fusion_lat": 0.0, "lat": 38.90117016666667, "fusion_lon": 0.0, "rental_uris": {"ios": "https://dc.lft.to/lastmile_qr_scan", "android": "https://dc.lft.to/lastmile_qr_scan"}, "lon": -77.04986616666666, "bike_id": "cf4e400184777f49557e5af743adde77", "type": "electric_scooter", "name": "cf4e400184777f49557e5af743adde77"}, {"is_disabled": 0, "is_reserved": 0, "fusion_lat": 0.0, "lat": 38.90531716666667, "fusion_lon": 0.0, "rental_uris": {"ios": "https://dc.lft.to/lastmile_qr_scan", "android": "https://dc.lft.to/lastmile_qr_scan"}, "lon": -77.06147633333333, "bike_id": "21af42671dcbf02fa5c3d1ddb59575ca", "type": "electric_scooter", "name": "21af42671dcbf02fa5c3d1ddb59575ca"}, {"is_disabled": 0, "is_reserved": 0, "fusion_lat": 0.0, "lat": 38.924746999999996, "fusion_lon": 0.0, "rental_uris": {"ios": "https://dc.lft.to/lastmile_qr_scan", "android": "https://dc.lft.to/lastmile_qr_scan"}, "lon": -77.035339, "bike_id": "3591618cf25322978e81878de67c0969", "type": "electric_scooter", "name": "3591618cf25322978e81878de67c0969"}, {"is_disabled": 0, "is_reserved": 0, "fusion_lat": 0.0, "lat": 38.9112955, "fusion_lon": 0.0, "rental_uris": {"ios": "https://dc.lft.to/lastmile_qr_scan", "android": "https://dc.lft.to/lastmile_qr_scan"}, "lon": -77.02096966666667, "bike_id": "3afe65e548ae487f85407cad04280a03", "type": "electric_scooter", "name": "3afe65e548ae487f85407cad04280a03"}, {"is_disabled": 0, "is_reserved": 0, "fusion_lat": 0.0, "lat": 38.907144833333334, "fusion_lon": 0.0, "rental_uris": {"ios": "https://dc.lft.to/lastmile_qr_scan", "android": "https://dc.lft.to/lastmile_qr_scan"}, "lon": -77.03214883333334, "bike_id": "7747799f7dfbb3e1bdf196ddb522a544", "type": "electric_scooter", "name": "7747799f7dfbb3e1bdf196ddb522a544"}, {"is_disabled": 0, "is_reserved": 0, "fusion_lat": 0.0, "lat": 38.91993316666667, "fusion_lon": 0.0, "rental_uris": {"ios": "https://dc.lft.to/lastmile_qr_scan", "android": "https://dc.lft.to/lastmile_qr_scan"}, "lon": -77.041762, "bike_id": "b3c358bef47d69659b74dd9f76c6c33f", "type": "electric_scooter", "name": "b3c358bef47d69659b74dd9f76c6c33f"}, {"is_disabled": 0, "is_reserved": 0, "fusion_lat": 0.0, "lat": 38.90479366666667, "fusion_lon": 0.0, "rental_uris": {"ios": "https://dc.lft.to/lastmile_qr_scan", "android": "https://dc.lft.to/lastmile_qr_scan"}, "lon": -76.950633, "bike_id": "da248105a5e87a2281224a20245e00b2", "type": "electric_scooter", "name": "da248105a5e87a2281224a20245e00b2"}, {"is_disabled": 0, "is_reserved": 0, "fusion_lat": 0.0, "lat": 38.9047925, "fusion_lon": 0.0, "rental_uris": {"ios": "https://dc.lft.to/lastmile_qr_scan", "android": "https://dc.lft.to/lastmile_qr_scan"}, "lon": -77.04874, "bike_id": "7ff675480d023c6e7eaf4397e80aa321", "type": "electric_scooter", "name": "7ff675480d023c6e7eaf4397e80aa321"}, {"is_disabled": 0, "is_reserved": 0, "fusion_lat": 0.0, "lat": 38.909017666666664, "fusion_lon": 0.0, "rental_uris": {"ios": "https://dc.lft.to/lastmile_qr_scan", "android": "https://dc.lft.to/lastmile_qr_scan"}, "lon": -77.0442705, "bike_id": "693d4c6166564ac7e03101f4fa29db62", "type": "electric_scooter", "name": "693d4c6166564ac7e03101f4fa29db62"}, {"is_disabled": 0, "is_reserved": 0, "fusion_lat": 0.0, "lat": 38.93088083333333, "fusion_lon": 0.0, "rental_uris": {"ios": "https://dc.lft.to/lastmile_qr_scan", "android": "https://dc.lft.to/lastmile_qr_scan"}, "lon": -77.028102, "bike_id": "8c83c562987043abede09d70790d0158", "type": "electric_scooter", "name": "8c83c562987043abede09d70790d0158"}, {"is_disabled": 0, "is_reserved": 0, "fusion_lat": 0.0, "lat": 38.85534283333333, "fusion_lon": 0.0, "rental_uris": {"ios": "https://dc.lft.to/lastmile_qr_scan", "android": "https://dc.lft.to/lastmile_qr_scan"}, "lon": -76.9918005, "bike_id": "55b9351b812a773cd1e9c3c7626aa91d", "type": "electric_scooter", "name": "55b9351b812a773cd1e9c3c7626aa91d"}, {"is_disabled": 0, "is_reserved": 0, "fusion_lat": 0.0, "lat": 38.926032166666666, "fusion_lon": 0.0, "rental_uris": {"ios": "https://dc.lft.to/lastmile_qr_scan", "android": "https://dc.lft.to/lastmile_qr_scan"}, "lon": -77.02155316666666, "bike_id": "93e013fadebee6b97615325b3b7e507d", "type": "electric_scooter", "name": "93e013fadebee6b97615325b3b7e507d"}, {"is_disabled": 0, "is_reserved": 0, "fusion_lat": 0.0, "lat": 38.8922605, "fusion_lon": 0.0, "rental_uris": {"ios": "https://dc.lft.to/lastmile_qr_scan", "android": "https://dc.lft.to/lastmile_qr_scan"}, "lon": -77.02786666666667, "bike_id": "a56b0a815104e977a5b73cac133afb71", "type": "electric_scooter", "name": "a56b0a815104e977a5b73cac133afb71"}, {"is_disabled": 0, "is_reserved": 0, "fusion_lat": 0.0, "lat": 38.90010016666667, "fusion_lon": 0.0, "rental_uris": {"ios": "https://dc.lft.to/lastmile_qr_scan", "android": "https://dc.lft.to/lastmile_qr_scan"}, "lon": -77.01201583333334, "bike_id": "9b68e4ef1be9b01c6b7b785304e127c1", "type": "electric_scooter", "name": "9b68e4ef1be9b01c6b7b785304e127c1"}, {"is_disabled": 0, "is_reserved": 0, "fusion_lat": 0.0, "lat": 38.884911, "fusion_lon": 0.0, "rental_uris": {"ios": "https://dc.lft.to/lastmile_qr_scan", "android": "https://dc.lft.to/lastmile_qr_scan"}, "lon": -77.03475816666666, "bike_id": "477ccaae54a6ec3ed1d4beb5020709a1", "type": "electric_scooter", "name": "477ccaae54a6ec3ed1d4beb5020709a1"}, {"is_disabled": 0, "is_reserved": 0, "fusion_lat": 0.0, "lat": 38.8752005, "fusion_lon": 0.0, "rental_uris": {"ios": "https://dc.lft.to/lastmile_qr_scan", "android": "https://dc.lft.to/lastmile_qr_scan"}, "lon": -77.11757966666667, "bike_id": "2dd0340ab027a7b9e461413dcc711ced", "type": "electric_bike", "name": "2dd0340ab027a7b9e461413dcc711ced"}, {"is_disabled": 0, "is_reserved": 0, "fusion_lat": 0.0, "lat": 38.914066166666665, "fusion_lon": 0.0, "rental_uris": {"ios": "https://dc.lft.to/lastmile_qr_scan", "android": "https://dc.lft.to/lastmile_qr_scan"}, "lon": -77.048847, "bike_id": "6dd90f5a5fb68a09f99138cf1857e5c2", "type": "electric_scooter", "name": "6dd90f5a5fb68a09f99138cf1857e5c2"}, {"is_disabled": 0, "is_reserved": 0, "fusion_lat": 0.0, "lat": 38.922100666666665, "fusion_lon": 0.0, "rental_uris": {"ios": "https://dc.lft.to/lastmile_qr_scan", "android": "https://dc.lft.to/lastmile_qr_scan"}, "lon": -77.02031766666667, "bike_id": "3c7a559b258112e5d62e3eeba972bd19", "type": "electric_scooter", "name": "3c7a559b258112e5d62e3eeba972bd19"}, {"is_disabled": 0, "is_reserved": 0, "fusion_lat": 0.0, "lat": 38.91712016666666, "fusion_lon": 0.0, "rental_uris": {"ios": "https://dc.lft.to/lastmile_qr_scan", "android": "https://dc.lft.to/lastmile_qr_scan"}, "lon": -77.0332035, "bike_id": "725e172f6cdc50a86e1ae38fc8db0f03", "type": "electric_scooter", "name": "725e172f6cdc50a86e1ae38fc8db0f03"}, {"is_disabled": 0, "is_reserved": 0, "fusion_lat": 0.0, "lat": 38.9227525, "fusion_lon": 0.0, "rental_uris": {"ios": "https://dc.lft.to/lastmile_qr_scan", "android": "https://dc.lft.to/lastmile_qr_scan"}, "lon": -77.042825, "bike_id": "c3164394aa20373f3513b895644c924d", "type": "electric_scooter", "name": "c3164394aa20373f3513b895644c924d"}, {"is_disabled": 0, "is_reserved": 0, "fusion_lat": 0.0, "lat": 38.925255166666666, "fusion_lon": 0.0, "rental_uris": {"ios": "https://dc.lft.to/lastmile_qr_scan", "android": "https://dc.lft.to/lastmile_qr_scan"}, "lon": -77.0385745, "bike_id": "79fa62bfb626e99e2a3088afe0274f97", "type": "electric_scooter", "name": "79fa62bfb626e99e2a3088afe0274f97"}, {"is_disabled": 0, "is_reserved": 0, "fusion_lat": 0.0, "lat": 38.97476966666667, "fusion_lon": 0.0, "rental_uris": {"ios": "https://dc.lft.to/lastmile_qr_scan", "android": "https://dc.lft.to/lastmile_qr_scan"}, "lon": -77.0148845, "bike_id": "6834f74b11beb4e6fd203bdbc31df430", "type": "electric_scooter", "name": "6834f74b11beb4e6fd203bdbc31df430"}, {"is_disabled": 0, "is_reserved": 0, "fusion_lat": 0.0, "lat": 38.916209333333335, "fusion_lon": 0.0, "rental_uris": {"ios": "https://dc.lft.to/lastmile_qr_scan", "android": "https://dc.lft.to/lastmile_qr_scan"}, "lon": -77.05072533333333, "bike_id": "8f5af09ba5c12bde991b8781115153c8", "type": "electric_scooter", "name": "8f5af09ba5c12bde991b8781115153c8"}, {"is_disabled": 0, "is_reserved": 0, "fusion_lat": 0.0, "lat": 38.906806833333334, "fusion_lon": 0.0, "rental_uris": {"ios": "https://dc.lft.to/lastmile_qr_scan", "android": "https://dc.lft.to/lastmile_qr_scan"}, "lon": -77.02699866666667, "bike_id": "a5de5ac5d30225794950a16280c0490e", "type": "electric_scooter", "name": "a5de5ac5d30225794950a16280c0490e"}, {"is_disabled": 0, "is_reserved": 0, "fusion_lat": 0.0, "lat": 38.8737595, "fusion_lon": 0.0, "rental_uris": {"ios": "https://dc.lft.to/lastmile_qr_scan", "android": "https://dc.lft.to/lastmile_qr_scan"}, "lon": -77.00096366666666, "bike_id": "8dcd0a2a4200a8870cb5b599380d6acd", "type": "electric_scooter", "name": "8dcd0a2a4200a8870cb5b599380d6acd"}, {"is_disabled": 0, "is_reserved": 0, "fusion_lat": 0.0, "lat": 38.8949135, "fusion_lon": 0.0, "rental_uris": {"ios": "https://dc.lft.to/lastmile_qr_scan", "android": "https://dc.lft.to/lastmile_qr_scan"}, "lon": -76.97887433333334, "bike_id": "847f22ff8b824bd87927522a9664cfeb", "type": "electric_scooter", "name": "847f22ff8b824bd87927522a9664cfeb"}, {"is_disabled": 0, "is_reserved": 0, "fusion_lat": 0.0, "lat": 38.908888166666664, "fusion_lon": 0.0, "rental_uris": {"ios": "https://dc.lft.to/lastmile_qr_scan", "android": "https://dc.lft.to/lastmile_qr_scan"}, "lon": -77.0434055, "bike_id": "0cd5b44060f388fcb839adc01f4459e0", "type": "electric_scooter", "name": "0cd5b44060f388fcb839adc01f4459e0"}, {"is_disabled": 0, "is_reserved": 0, "fusion_lat": 0.0, "lat": 38.921553333333335, "fusion_lon": 0.0, "rental_uris": {"ios": "https://dc.lft.to/lastmile_qr_scan", "android": "https://dc.lft.to/lastmile_qr_scan"}, "lon": -77.03507433333333, "bike_id": "3ef23c8e457c5144757b5f8e2c8935e3", "type": "electric_scooter", "name": "3ef23c8e457c5144757b5f8e2c8935e3"}, {"is_disabled": 0, "is_reserved": 0, "fusion_lat": 0.0, "lat": 38.933484, "fusion_lon": 0.0, "rental_uris": {"ios": "https://dc.lft.to/lastmile_qr_scan", "android": "https://dc.lft.to/lastmile_qr_scan"}, "lon": -77.0593325, "bike_id": "b79aa02376e9828617a61ad578275a43", "type": "electric_scooter", "name": "b79aa02376e9828617a61ad578275a43"}, {"is_disabled": 0, "is_reserved": 0, "fusion_lat": 0.0, "lat": 38.9017695, "fusion_lon": 0.0, "rental_uris": {"ios": "https://dc.lft.to/lastmile_qr_scan", "android": "https://dc.lft.to/lastmile_qr_scan"}, "lon": -77.023991, "bike_id": "afd6ab9a6b17285b548039856b47d9d4", "type": "electric_scooter", "name": "afd6ab9a6b17285b548039856b47d9d4"}, {"is_disabled": 0, "is_reserved": 0, "fusion_lat": 0.0, "lat": 38.92172133333333, "fusion_lon": 0.0, "rental_uris": {"ios": "https://dc.lft.to/lastmile_qr_scan", "android": "https://dc.lft.to/lastmile_qr_scan"}, "lon": -77.04014433333333, "bike_id": "b9e3c885c6dbb7482e742a8dfa365126", "type": "electric_scooter", "name": "b9e3c885c6dbb7482e742a8dfa365126"}, {"is_disabled": 0, "is_reserved": 0, "fusion_lat": 0.0, "lat": 38.91037383333333, "fusion_lon": 0.0, "rental_uris": {"ios": "https://dc.lft.to/lastmile_qr_scan", "android": "https://dc.lft.to/lastmile_qr_scan"}, "lon": -76.92335783333333, "bike_id": "725aa1127184d0e00ff555694e73b31e", "type": "electric_bike", "name": "725aa1127184d0e00ff555694e73b31e"}, {"is_disabled": 0, "is_reserved": 0, "fusion_lat": 0.0, "lat": 38.925072, "fusion_lon": 0.0, "rental_uris": {"ios": "https://dc.lft.to/lastmile_qr_scan", "android": "https://dc.lft.to/lastmile_qr_scan"}, "lon": -77.02357033333334, "bike_id": "4fd6074d956c720c9173acfe90aac88e", "type": "electric_scooter", "name": "4fd6074d956c720c9173acfe90aac88e"}, {"is_disabled": 0, "is_reserved": 0, "fusion_lat": 0.0, "lat": 38.90237483333333, "fusion_lon": 0.0, "rental_uris": {"ios": "https://dc.lft.to/lastmile_qr_scan", "android": "https://dc.lft.to/lastmile_qr_scan"}, "lon": -77.04518266666666, "bike_id": "e076b827db829f7e879a850dd7f9792c", "type": "electric_scooter", "name": "e076b827db829f7e879a850dd7f9792c"}, {"is_disabled": 0, "is_reserved": 0, "fusion_lat": 0.0, "lat": 38.90257966666667, "fusion_lon": 0.0, "rental_uris": {"ios": "https://dc.lft.to/lastmile_qr_scan", "android": "https://dc.lft.to/lastmile_qr_scan"}, "lon": -77.02654233333334, "bike_id": "6c9184980badacb2887cb8ca72d3a928", "type": "electric_scooter", "name": "6c9184980badacb2887cb8ca72d3a928"}, {"is_disabled": 0, "is_reserved": 0, "fusion_lat": 0.0, "lat": 38.91917883333333, "fusion_lon": 0.0, "rental_uris": {"ios": "https://dc.lft.to/lastmile_qr_scan", "android": "https://dc.lft.to/lastmile_qr_scan"}, "lon": -77.03224433333334, "bike_id": "36f5a5558dfc6360151aa8689b23bd59", "type": "electric_scooter", "name": "36f5a5558dfc6360151aa8689b23bd59"}, {"is_disabled": 0, "is_reserved": 0, "fusion_lat": 0.0, "lat": 38.91227216666667, "fusion_lon": 0.0, "rental_uris": {"ios": "https://dc.lft.to/lastmile_qr_scan", "android": "https://dc.lft.to/lastmile_qr_scan"}, "lon": -77.03640716666666, "bike_id": "36aefdc854195cfcbc5eb5e87a1188f9", "type": "electric_scooter", "name": "36aefdc854195cfcbc5eb5e87a1188f9"}, {"is_disabled": 0, "is_reserved": 0, "fusion_lat": 0.0, "lat": 38.894067666666665, "fusion_lon": 0.0, "rental_uris": {"ios": "https://dc.lft.to/lastmile_qr_scan", "android": "https://dc.lft.to/lastmile_qr_scan"}, "lon": -77.03373566666667, "bike_id": "dfc707a6418349d552ee90678bbe6837", "type": "electric_scooter", "name": "dfc707a6418349d552ee90678bbe6837"}, {"is_disabled": 0, "is_reserved": 0, "fusion_lat": 0.0, "lat": 38.91859066666667, "fusion_lon": 0.0, "rental_uris": {"ios": "https://dc.lft.to/lastmile_qr_scan", "android": "https://dc.lft.to/lastmile_qr_scan"}, "lon": -76.96090133333334, "bike_id": "38b6a586641443c01a32e6a5a51ec4f5", "type": "electric_scooter", "name": "38b6a586641443c01a32e6a5a51ec4f5"}, {"is_disabled": 0, "is_reserved": 0, "fusion_lat": 0.0, "lat": 38.89251766666667, "fusion_lon": 0.0, "rental_uris": {"ios": "https://dc.lft.to/lastmile_qr_scan", "android": "https://dc.lft.to/lastmile_qr_scan"}, "lon": -76.92551166666667, "bike_id": "4f9e12ffdd3c4d744648c75960a6f89f", "type": "electric_scooter", "name": "4f9e12ffdd3c4d744648c75960a6f89f"}, {"is_disabled": 0, "is_reserved": 0, "fusion_lat": 0.0, "lat": 38.90832833333333, "fusion_lon": 0.0, "rental_uris": {"ios": "https://dc.lft.to/lastmile_qr_scan", "android": "https://dc.lft.to/lastmile_qr_scan"}, "lon": -77.03376133333333, "bike_id": "354167c5330e40e19824cbb969bb5354", "type": "electric_scooter", "name": "354167c5330e40e19824cbb969bb5354"}, {"is_disabled": 0, "is_reserved": 0, "fusion_lat": 0.0, "lat": 38.91931233333333, "fusion_lon": 0.0, "rental_uris": {"ios": "https://dc.lft.to/lastmile_qr_scan", "android": "https://dc.lft.to/lastmile_qr_scan"}, "lon": -77.013642, "bike_id": "3fc882a888a4351a5137cd0312acffc0", "type": "electric_scooter", "name": "3fc882a888a4351a5137cd0312acffc0"}, {"is_disabled": 0, "is_reserved": 0, "fusion_lat": 0.0, "lat": 38.92510016666667, "fusion_lon": 0.0, "rental_uris": {"ios": "https://dc.lft.to/lastmile_qr_scan", "android": "https://dc.lft.to/lastmile_qr_scan"}, "lon": -77.02431366666667, "bike_id": "bf7683727de38e14f1b5e5a90f1cd7c8", "type": "electric_scooter", "name": "bf7683727de38e14f1b5e5a90f1cd7c8"}, {"is_disabled": 0, "is_reserved": 0, "fusion_lat": 0.0, "lat": 38.915716333333336, "fusion_lon": 0.0, "rental_uris": {"ios": "https://dc.lft.to/lastmile_qr_scan", "android": "https://dc.lft.to/lastmile_qr_scan"}, "lon": -77.04450433333334, "bike_id": "e9e231a3609218e6e4c2c73da097c08b", "type": "electric_scooter", "name": "e9e231a3609218e6e4c2c73da097c08b"}, {"is_disabled": 0, "is_reserved": 0, "fusion_lat": 0.0, "lat": 38.896936833333335, "fusion_lon": 0.0, "rental_uris": {"ios": "https://dc.lft.to/lastmile_qr_scan", "android": "https://dc.lft.to/lastmile_qr_scan"}, "lon": -77.00496016666666, "bike_id": "64709d4d4a0aada83875ed24156182d0", "type": "electric_scooter", "name": "64709d4d4a0aada83875ed24156182d0"}, {"is_disabled": 0, "is_reserved": 0, "fusion_lat": 0.0, "lat": 38.930662833333336, "fusion_lon": 0.0, "rental_uris": {"ios": "https://dc.lft.to/lastmile_qr_scan", "android": "https://dc.lft.to/lastmile_qr_scan"}, "lon": -77.03944366666667, "bike_id": "a52e6ddc6ac15d7ef11d5a86474a6b15", "type": "electric_scooter", "name": "a52e6ddc6ac15d7ef11d5a86474a6b15"}, {"is_disabled": 0, "is_reserved": 0, "fusion_lat": 0.0, "lat": 38.92617516666667, "fusion_lon": 0.0, "rental_uris": {"ios": "https://dc.lft.to/lastmile_qr_scan", "android": "https://dc.lft.to/lastmile_qr_scan"}, "lon": -77.02163333333333, "bike_id": "674d9cc5215e3a50b0c03ac52d982881", "type": "electric_scooter", "name": "674d9cc5215e3a50b0c03ac52d982881"}, {"is_disabled": 0, "is_reserved": 0, "fusion_lat": 0.0, "lat": 38.952486, "fusion_lon": 0.0, "rental_uris": {"ios": "https://dc.lft.to/lastmile_qr_scan", "android": "https://dc.lft.to/lastmile_qr_scan"}, "lon": -76.9824595, "bike_id": "d43e40a237d2a93f95aae8f0bd1d1e85", "type": "electric_bike", "name": "d43e40a237d2a93f95aae8f0bd1d1e85"}, {"is_disabled": 0, "is_reserved": 0, "fusion_lat": 0.0, "lat": 38.9158425, "fusion_lon": 0.0, "rental_uris": {"ios": "https://dc.lft.to/lastmile_qr_scan", "android": "https://dc.lft.to/lastmile_qr_scan"}, "lon": -77.020028, "bike_id": "4e96cbb82b41185fe2184ac0bf3214e6", "type": "electric_scooter", "name": "4e96cbb82b41185fe2184ac0bf3214e6"}, {"is_disabled": 0, "is_reserved": 0, "fusion_lat": 0.0, "lat": 38.9006375, "fusion_lon": 0.0, "rental_uris": {"ios": "https://dc.lft.to/lastmile_qr_scan", "android": "https://dc.lft.to/lastmile_qr_scan"}, "lon": -76.94979283333333, "bike_id": "4702f31bed99691681e5a35baf8023cc", "type": "electric_scooter", "name": "4702f31bed99691681e5a35baf8023cc"}, {"is_disabled": 0, "is_reserved": 0, "fusion_lat": 0.0, "lat": 38.918901, "fusion_lon": 0.0, "rental_uris": {"ios": "https://dc.lft.to/lastmile_qr_scan", "android": "https://dc.lft.to/lastmile_qr_scan"}, "lon": -77.035072, "bike_id": "d89e926d67d1d5f57bc06af354884552", "type": "electric_scooter", "name": "d89e926d67d1d5f57bc06af354884552"}, {"is_disabled": 0, "is_reserved": 0, "fusion_lat": 0.0, "lat": 38.92697, "fusion_lon": 0.0, "rental_uris": {"ios": "https://dc.lft.to/lastmile_qr_scan", "android": "https://dc.lft.to/lastmile_qr_scan"}, "lon": -76.99787833333333, "bike_id": "82360bc56ef17c4a58e31c067512000a", "type": "electric_scooter", "name": "82360bc56ef17c4a58e31c067512000a"}, {"is_disabled": 0, "is_reserved": 0, "fusion_lat": 0.0, "lat": 38.908326333333335, "fusion_lon": 0.0, "rental_uris": {"ios": "https://dc.lft.to/lastmile_qr_scan", "android": "https://dc.lft.to/lastmile_qr_scan"}, "lon": -77.03559883333334, "bike_id": "04fe8b9a7207174d10d6cda6be95c801", "type": "electric_scooter", "name": "04fe8b9a7207174d10d6cda6be95c801"}, {"is_disabled": 0, "is_reserved": 0, "fusion_lat": 0.0, "lat": 38.91057416666666, "fusion_lon": 0.0, "rental_uris": {"ios": "https://dc.lft.to/lastmile_qr_scan", "android": "https://dc.lft.to/lastmile_qr_scan"}, "lon": -77.02302333333333, "bike_id": "add111c7f51b0a89e32117dffde5eb66", "type": "electric_scooter", "name": "add111c7f51b0a89e32117dffde5eb66"}, {"is_disabled": 0, "is_reserved": 0, "fusion_lat": 0.0, "lat": 38.876340166666665, "fusion_lon": 0.0, "rental_uris": {"ios": "https://dc.lft.to/lastmile_qr_scan", "android": "https://dc.lft.to/lastmile_qr_scan"}, "lon": -77.00955766666667, "bike_id": "7717aca47035ff290866f34e6f8ddb2a", "type": "electric_scooter", "name": "7717aca47035ff290866f34e6f8ddb2a"}, {"is_disabled": 0, "is_reserved": 0, "fusion_lat": 0.0, "lat": 38.9035575, "fusion_lon": 0.0, "rental_uris": {"ios": "https://dc.lft.to/lastmile_qr_scan", "android": "https://dc.lft.to/lastmile_qr_scan"}, "lon": -77.03170333333334, "bike_id": "c76396f40f37d80071779e1629009ee4", "type": "electric_scooter", "name": "c76396f40f37d80071779e1629009ee4"}, {"is_disabled": 0, "is_reserved": 0, "fusion_lat": 0.0, "lat": 38.90382483333333, "fusion_lon": 0.0, "rental_uris": {"ios": "https://dc.lft.to/lastmile_qr_scan", "android": "https://dc.lft.to/lastmile_qr_scan"}, "lon": -77.04096516666667, "bike_id": "b237d8a3e9c95318c844a7f0b6b2cbf2", "type": "electric_scooter", "name": "b237d8a3e9c95318c844a7f0b6b2cbf2"}, {"is_disabled": 0, "is_reserved": 0, "fusion_lat": 0.0, "lat": 38.86492033333333, "fusion_lon": 0.0, "rental_uris": {"ios": "https://dc.lft.to/lastmile_qr_scan", "android": "https://dc.lft.to/lastmile_qr_scan"}, "lon": -76.97750916666666, "bike_id": "e16b4a7122955d0fd84791a65980ad73", "type": "electric_bike", "name": "e16b4a7122955d0fd84791a65980ad73"}, {"is_disabled": 0, "is_reserved": 0, "fusion_lat": 0.0, "lat": 38.87671733333333, "fusion_lon": 0.0, "rental_uris": {"ios": "https://dc.lft.to/lastmile_qr_scan", "android": "https://dc.lft.to/lastmile_qr_scan"}, "lon": -77.01760166666666, "bike_id": "e1eb96b2bc137ebca56e3b6810653f32", "type": "electric_scooter", "name": "e1eb96b2bc137ebca56e3b6810653f32"}, {"is_disabled": 0, "is_reserved": 0, "fusion_lat": 0.0, "lat": 38.91697633333333, "fusion_lon": 0.0, "rental_uris": {"ios": "https://dc.lft.to/lastmile_qr_scan", "android": "https://dc.lft.to/lastmile_qr_scan"}, "lon": -77.03732166666667, "bike_id": "866a35cad4131a8a071647ea87db3e79", "type": "electric_scooter", "name": "866a35cad4131a8a071647ea87db3e79"}, {"is_disabled": 0, "is_reserved": 0, "fusion_lat": 0.0, "lat": 38.909714, "fusion_lon": 0.0, "rental_uris": {"ios": "https://dc.lft.to/lastmile_qr_scan", "android": "https://dc.lft.to/lastmile_qr_scan"}, "lon": -77.01713683333334, "bike_id": "8fa80cd07da29d81c4e374ef14f92a75", "type": "electric_scooter", "name": "8fa80cd07da29d81c4e374ef14f92a75"}, {"is_disabled": 0, "is_reserved": 0, "fusion_lat": 0.0, "lat": 38.9210295, "fusion_lon": 0.0, "rental_uris": {"ios": "https://dc.lft.to/lastmile_qr_scan", "android": "https://dc.lft.to/lastmile_qr_scan"}, "lon": -77.04171616666666, "bike_id": "91b6c53a24259f7aff78e91eaf3582a6", "type": "electric_scooter", "name": "91b6c53a24259f7aff78e91eaf3582a6"}, {"is_disabled": 0, "is_reserved": 0, "fusion_lat": 0.0, "lat": 38.893995, "fusion_lon": 0.0, "rental_uris": {"ios": "https://dc.lft.to/lastmile_qr_scan", "android": "https://dc.lft.to/lastmile_qr_scan"}, "lon": -77.04655583333333, "bike_id": "70033ad7a347baeefcbabcd17a01815f", "type": "electric_scooter", "name": "70033ad7a347baeefcbabcd17a01815f"}, {"is_disabled": 0, "is_reserved": 0, "fusion_lat": 0.0, "lat": 38.92353116666666, "fusion_lon": 0.0, "rental_uris": {"ios": "https://dc.lft.to/lastmile_qr_scan", "android": "https://dc.lft.to/lastmile_qr_scan"},