{"data": {"bikes": [{"rental_uris": {"ios": "https://dc.lft.to/lastmile_qr_scan", "android": "https://dc.lft.to/lastmile_qr_scan"}, "type": "electric_bike", "name": "a2466933e41143de6b85f7bbc354e993", "is_reserved": 0, "lon": -77.0038315, "is_disabled": 0, "fusion_lat": 0.0, "lat": 38.8360905, "bike_id": "a2466933e41143de6b85f7bbc354e993", "fusion_lon": 0.0}, {"rental_uris": {"ios": "https://dc.lft.to/lastmile_qr_scan", "android": "https://dc.lft.to/lastmile_qr_scan"}, "type": "electric_scooter", "name": "2c8e4ff8101e343039a19e1af9b842e3", "is_reserved": 0, "lon": -77.0175225, "is_disabled": 0, "fusion_lat": 0.0, "lat": 38.921010333333335, "bike_id": "2c8e4ff8101e343039a19e1af9b842e3", "fusion_lon": 0.0}, {"rental_uris": {"ios": "https://dc.lft.to/lastmile_qr_scan", "android": "https://dc.lft.to/lastmile_qr_scan"}, "type": "electric_scooter", "name": "841d69ddc828d1565ea197d66f1a63ca", "is_reserved": 0, "lon": -77.01217466666667, "is_disabled": 0, "fusion_lat": 0.0, "lat": 38.920368, "bike_id": "841d69ddc828d1565ea197d66f1a63ca", "fusion_lon": 0.0}, {"rental_uris": {"ios": "https://dc.lft.to/lastmile_qr_scan", "android": "https://dc.lft.to/lastmile_qr_scan"}, "type": "electric_scooter", "name": "7739316e11be488d5b792b024455393f", "is_reserved": 0, "lon": -77.00927066666667, "is_disabled": 0, "fusion_lat": 0.0, "lat": 38.881692666666666, "bike_id": "7739316e11be488d5b792b024455393f", "fusion_lon": 0.0}, {"rental_uris": {"ios": "https://dc.lft.to/lastmile_qr_scan", "android": "https://dc.lft.to/lastmile_qr_scan"}, "type": "electric_scooter", "name": "0540318d730e1c3ca2d6ec958f140961", "is_reserved": 0, "lon": -77.02597233333333, "is_disabled": 0, "fusion_lat": 0.0, "lat": 38.91959533333333, "bike_id": "0540318d730e1c3ca2d6ec958f140961", "fusion_lon": 0.0}, {"rental_uris": {"ios": "https://dc.lft.to/lastmile_qr_scan", "android": "https://dc.lft.to/lastmile_qr_scan"}, "type": "electric_scooter", "name": "b08928e031b76d0c0326e9fbfa3dbe4e", "is_reserved": 0, "lon": -77.03209366666667, "is_disabled": 0, "fusion_lat": 0.0, "lat": 38.907874666666665, "bike_id": "b08928e031b76d0c0326e9fbfa3dbe4e", "fusion_lon": 0.0}, {"rental_uris": {"ios": "https://dc.lft.to/lastmile_qr_scan", "android": "https://dc.lft.to/lastmile_qr_scan"}, "type": "electric_scooter", "name": "3d78b980ea1598740f520e09fa4825c0", "is_reserved": 0, "lon": -77.02713416666667, "is_disabled": 0, "fusion_lat": 0.0, "lat": 38.92403066666667, "bike_id": "3d78b980ea1598740f520e09fa4825c0", "fusion_lon": 0.0}, {"rental_uris": {"ios": "https://dc.lft.to/lastmile_qr_scan", "android": "https://dc.lft.to/lastmile_qr_scan"}, "type": "electric_scooter", "name": "a52ae2195f84c436a02c9069476e37b0", "is_reserved": 0, "lon": -77.0464885, "is_disabled": 0, "fusion_lat": 0.0, "lat": 38.9197405, "bike_id": "a52ae2195f84c436a02c9069476e37b0", "fusion_lon": 0.0}, {"rental_uris": {"ios": "https://dc.lft.to/lastmile_qr_scan", "android": "https://dc.lft.to/lastmile_qr_scan"}, "type": "electric_scooter", "name": "eed981467c4729de31ee58fc93c99d4d", "is_reserved": 0, "lon": -77.0192995, "is_disabled": 0, "fusion_lat": 0.0, "lat": 38.92875266666667, "bike_id": "eed981467c4729de31ee58fc93c99d4d", "fusion_lon": 0.0}, {"rental_uris": {"ios": "https://dc.lft.to/lastmile_qr_scan", "android": "https://dc.lft.to/lastmile_qr_scan"}, "type": "electric_scooter", "name": "f75c41e310e82e9d6fd671982c3d15f6", "is_reserved": 0, "lon": -76.99624966666667, "is_disabled": 0, "fusion_lat": 0.0, "lat": 38.89178866666666, "bike_id": "f75c41e310e82e9d6fd671982c3d15f6", "fusion_lon": 0.0}, {"rental_uris": {"ios": "https://dc.lft.to/lastmile_qr_scan", "android": "https://dc.lft.to/lastmile_qr_scan"}, "type": "electric_scooter", "name": "3f20e7bd2c811ddee428d253bc2a5e02", "is_reserved": 0, "lon": -77.00994016666667, "is_disabled": 0, "fusion_lat": 0.0, "lat": 38.911333666666664, "bike_id": "3f20e7bd2c811ddee428d253bc2a5e02", "fusion_lon": 0.0}, {"rental_uris": {"ios": "https://dc.lft.to/lastmile_qr_scan", "android": "https://dc.lft.to/lastmile_qr_scan"}, "type": "electric_bike", "name": "cca7e20091fdde3d9d87147fcc91d1a8", "is_reserved": 0, "lon": -77.04422216666667, "is_disabled": 0, "fusion_lat": 0.0, "lat": 39.01566033333334, "bike_id": "cca7e20091fdde3d9d87147fcc91d1a8", "fusion_lon": 0.0}, {"rental_uris": {"ios": "https://dc.lft.to/lastmile_qr_scan", "android": "https://dc.lft.to/lastmile_qr_scan"}, "type": "electric_scooter", "name": "a1bf7bc766ed6fec6cdd931eceb6bf32", "is_reserved": 0, "lon": -77.02689716666667, "is_disabled": 0, "fusion_lat": 0.0, "lat": 38.94979583333333, "bike_id": "a1bf7bc766ed6fec6cdd931eceb6bf32", "fusion_lon": 0.0}, {"rental_uris": {"ios": "https://dc.lft.to/lastmile_qr_scan", "android": "https://dc.lft.to/lastmile_qr_scan"}, "type": "electric_scooter", "name": "7d80815d26b99fed013a0b32181fd6c9", "is_reserved": 0, "lon": -77.00051033333334, "is_disabled": 0, "fusion_lat": 0.0, "lat": 38.92331933333333, "bike_id": "7d80815d26b99fed013a0b32181fd6c9", "fusion_lon": 0.0}, {"rental_uris": {"ios": "https://dc.lft.to/lastmile_qr_scan", "android": "https://dc.lft.to/lastmile_qr_scan"}, "type": "electric_bike", "name": "84d8ee00f195202ff2f6f7160c1e418f", "is_reserved": 0, "lon": -77.12739766666667, "is_disabled": 0, "fusion_lat": 0.0, "lat": 38.8956545, "bike_id": "84d8ee00f195202ff2f6f7160c1e418f", "fusion_lon": 0.0}, {"rental_uris": {"ios": "https://dc.lft.to/lastmile_qr_scan", "android": "https://dc.lft.to/lastmile_qr_scan"}, "type": "electric_bike", "name": "a962b14cb02ec9807067b2cddcf1f5a2", "is_reserved": 0, "lon": -77.0342695, "is_disabled": 0, "fusion_lat": 0.0, "lat": 38.965357, "bike_id": "a962b14cb02ec9807067b2cddcf1f5a2", "fusion_lon": 0.0}, {"rental_uris": {"ios": "https://dc.lft.to/lastmile_qr_scan", "android": "https://dc.lft.to/lastmile_qr_scan"}, "type": "electric_bike", "name": "b20d7dac6a6320426eef0d318feeeaf5", "is_reserved": 0, "lon": -77.09625466666667, "is_disabled": 0, "fusion_lat": 0.0, "lat": 38.95247283333333, "bike_id": "b20d7dac6a6320426eef0d318feeeaf5", "fusion_lon": 0.0}, {"rental_uris": {"ios": "https://dc.lft.to/lastmile_qr_scan", "android": "https://dc.lft.to/lastmile_qr_scan"}, "type": "electric_scooter", "name": "e9c7198a2a433a52c0d0daf631c38294", "is_reserved": 0, "lon": -77.03339266666667, "is_disabled": 0, "fusion_lat": 0.0, "lat": 38.892252666666664, "bike_id": "e9c7198a2a433a52c0d0daf631c38294", "fusion_lon": 0.0}, {"rental_uris": {"ios": "https://dc.lft.to/lastmile_qr_scan", "android": "https://dc.lft.to/lastmile_qr_scan"}, "type": "electric_scooter", "name": "757f67bac8e99c0a09efcf6a8c74a447", "is_reserved": 0, "lon": -77.00886716666666, "is_disabled": 0, "fusion_lat": 0.0, "lat": 38.91713166666667, "bike_id": "757f67bac8e99c0a09efcf6a8c74a447", "fusion_lon": 0.0}, {"rental_uris": {"ios": "https://dc.lft.to/lastmile_qr_scan", "android": "https://dc.lft.to/lastmile_qr_scan"}, "type": "electric_scooter", "name": "b523362c977cef3f4a79c0ad87316803", "is_reserved": 0, "lon": -76.93700666666666, "is_disabled": 0, "fusion_lat": 0.0, "lat": 38.89017466666667, "bike_id": "b523362c977cef3f4a79c0ad87316803", "fusion_lon": 0.0}, {"rental_uris": {"ios": "https://dc.lft.to/lastmile_qr_scan", "android": "https://dc.lft.to/lastmile_qr_scan"}, "type": "electric_scooter", "name": "e62964c411818adb3d75772361a2dcd7", "is_reserved": 0, "lon": -77.03201316666667, "is_disabled": 0, "fusion_lat": 0.0, "lat": 38.90829766666667, "bike_id": "e62964c411818adb3d75772361a2dcd7", "fusion_lon": 0.0}, {"rental_uris": {"ios": "https://dc.lft.to/lastmile_qr_scan", "android": "https://dc.lft.to/lastmile_qr_scan"}, "type": "electric_scooter", "name": "a90f8f687d85b166258909807b0a8d1b", "is_reserved": 0, "lon": -77.02071666666667, "is_disabled": 0, "fusion_lat": 0.0, "lat": 38.9311325, "bike_id": "a90f8f687d85b166258909807b0a8d1b", "fusion_lon": 0.0}, {"rental_uris": {"ios": "https://dc.lft.to/lastmile_qr_scan", "android": "https://dc.lft.to/lastmile_qr_scan"}, "type": "electric_scooter", "name": "be02cef830f183717308be8de8ee8aca", "is_reserved": 0, "lon": -77.06419133333333, "is_disabled": 0, "fusion_lat": 0.0, "lat": 38.91399066666666, "bike_id": "be02cef830f183717308be8de8ee8aca", "fusion_lon": 0.0}, {"rental_uris": {"ios": "https://dc.lft.to/lastmile_qr_scan", "android": "https://dc.lft.to/lastmile_qr_scan"}, "type": "electric_scooter", "name": "747693c0c9a93ca621b1ce06589a8d76", "is_reserved": 0, "lon": -77.023937, "is_disabled": 0, "fusion_lat": 0.0, "lat": 38.91760216666667, "bike_id": "747693c0c9a93ca621b1ce06589a8d76", "fusion_lon": 0.0}, {"rental_uris": {"ios": "https://dc.lft.to/lastmile_qr_scan", "android": "https://dc.lft.to/lastmile_qr_scan"}, "type": "electric_scooter", "name": "e35d4ce18b68cd9c906af6de399e6311", "is_reserved": 0, "lon": -77.00559933333334, "is_disabled": 0, "fusion_lat": 0.0, "lat": 38.874676, "bike_id": "e35d4ce18b68cd9c906af6de399e6311", "fusion_lon": 0.0}, {"rental_uris": {"ios": "https://dc.lft.to/lastmile_qr_scan", "android": "https://dc.lft.to/lastmile_qr_scan"}, "type": "electric_scooter", "name": "8e130dbabc044858182d0aa0b2711114", "is_reserved": 0, "lon": -77.00983166666667, "is_disabled": 0, "fusion_lat": 0.0, "lat": 38.905704, "bike_id": "8e130dbabc044858182d0aa0b2711114", "fusion_lon": 0.0}, {"rental_uris": {"ios": "https://dc.lft.to/lastmile_qr_scan", "android": "https://dc.lft.to/lastmile_qr_scan"}, "type": "electric_scooter", "name": "a7b0cbf2857a5a4529021c2623fb3898", "is_reserved": 0, "lon": -77.03176333333333, "is_disabled": 0, "fusion_lat": 0.0, "lat": 38.915503, "bike_id": "a7b0cbf2857a5a4529021c2623fb3898", "fusion_lon": 0.0}, {"rental_uris": {"ios": "https://dc.lft.to/lastmile_qr_scan", "android": "https://dc.lft.to/lastmile_qr_scan"}, "type": "electric_scooter", "name": "335023cba048c4ce249ec0bb4d07b353", "is_reserved": 0, "lon": -77.02477416666666, "is_disabled": 0, "fusion_lat": 0.0, "lat": 38.9181325, "bike_id": "335023cba048c4ce249ec0bb4d07b353", "fusion_lon": 0.0}, {"rental_uris": {"ios": "https://dc.lft.to/lastmile_qr_scan", "android": "https://dc.lft.to/lastmile_qr_scan"}, "type": "electric_scooter", "name": "accbbf9df2db662984a451dc52edfc22", "is_reserved": 0, "lon": -77.03632866666666, "is_disabled": 0, "fusion_lat": 0.0, "lat": 38.908473, "bike_id": "accbbf9df2db662984a451dc52edfc22", "fusion_lon": 0.0}, {"rental_uris": {"ios": "https://dc.lft.to/lastmile_qr_scan", "android": "https://dc.lft.to/lastmile_qr_scan"}, "type": "electric_scooter", "name": "2457bed4dfcc7e42e333efa42010a141", "is_reserved": 0, "lon": -77.02433, "is_disabled": 0, "fusion_lat": 0.0, "lat": 38.92329616666667, "bike_id": "2457bed4dfcc7e42e333efa42010a141", "fusion_lon": 0.0}, {"rental_uris": {"ios": "https://dc.lft.to/lastmile_qr_scan", "android": "https://dc.lft.to/lastmile_qr_scan"}, "type": "electric_scooter", "name": "fd2ab6e6b663df9f7ac3b1796382c2c2", "is_reserved": 0, "lon": -76.97980566666666, "is_disabled": 0, "fusion_lat": 0.0, "lat": 38.89734266666667, "bike_id": "fd2ab6e6b663df9f7ac3b1796382c2c2", "fusion_lon": 0.0}, {"rental_uris": {"ios": "https://dc.lft.to/lastmile_qr_scan", "android": "https://dc.lft.to/lastmile_qr_scan"}, "type": "electric_bike", "name": "f08d20cc5fcc92a5e29ff8a962472907", "is_reserved": 0, "lon": -76.9074235, "is_disabled": 0, "fusion_lat": 0.0, "lat": 38.89618816666667, "bike_id": "f08d20cc5fcc92a5e29ff8a962472907", "fusion_lon": 0.0}, {"rental_uris": {"ios": "https://dc.lft.to/lastmile_qr_scan", "android": "https://dc.lft.to/lastmile_qr_scan"}, "type": "electric_scooter", "name": "9b264357b0cb9603a04024d626025d43", "is_reserved": 0, "lon": -77.0365865, "is_disabled": 0, "fusion_lat": 0.0, "lat": 38.91327716666667, "bike_id": "9b264357b0cb9603a04024d626025d43", "fusion_lon": 0.0}, {"rental_uris": {"ios": "https://dc.lft.to/lastmile_qr_scan", "android": "https://dc.lft.to/lastmile_qr_scan"}, "type": "electric_scooter", "name": "544659201e51efa2c0b24e64b84becaa", "is_reserved": 0, "lon": -77.04569766666667, "is_disabled": 0, "fusion_lat": 0.0, "lat": 38.914062, "bike_id": "544659201e51efa2c0b24e64b84becaa", "fusion_lon": 0.0}, {"rental_uris": {"ios": "https://dc.lft.to/lastmile_qr_scan", "android": "https://dc.lft.to/lastmile_qr_scan"}, "type": "electric_bike", "name": "fdad2915e944af2825d85fdc8d6c8171", "is_reserved": 0, "lon": -76.9949815, "is_disabled": 0, "fusion_lat": 0.0, "lat": 38.86220566666667, "bike_id": "fdad2915e944af2825d85fdc8d6c8171", "fusion_lon": 0.0}, {"rental_uris": {"ios": "https://dc.lft.to/lastmile_qr_scan", "android": "https://dc.lft.to/lastmile_qr_scan"}, "type": "electric_scooter", "name": "2787ad3057a4598c1e8de717003390d3", "is_reserved": 0, "lon": -77.0322755, "is_disabled": 0, "fusion_lat": 0.0, "lat": 38.8992345, "bike_id": "2787ad3057a4598c1e8de717003390d3", "fusion_lon": 0.0}, {"rental_uris": {"ios": "https://dc.lft.to/lastmile_qr_scan", "android": "https://dc.lft.to/lastmile_qr_scan"}, "type": "electric_scooter", "name": "433c46f7485f6401288d57491dd11e29", "is_reserved": 0, "lon": -77.05789683333333, "is_disabled": 0, "fusion_lat": 0.0, "lat": 38.9347935, "bike_id": "433c46f7485f6401288d57491dd11e29", "fusion_lon": 0.0}, {"rental_uris": {"ios": "https://dc.lft.to/lastmile_qr_scan", "android": "https://dc.lft.to/lastmile_qr_scan"}, "type": "electric_scooter", "name": "66867b06574f6736942abbd95178c3d4", "is_reserved": 0, "lon": -77.02706566666667, "is_disabled": 0, "fusion_lat": 0.0, "lat": 38.93581116666667, "bike_id": "66867b06574f6736942abbd95178c3d4", "fusion_lon": 0.0}, {"rental_uris": {"ios": "https://dc.lft.to/lastmile_qr_scan", "android": "https://dc.lft.to/lastmile_qr_scan"}, "type": "electric_scooter", "name": "cd53472d253a5a629fdb54881ac04166", "is_reserved": 0, "lon": -77.01628566666666, "is_disabled": 0, "fusion_lat": 0.0, "lat": 38.906616166666666, "bike_id": "cd53472d253a5a629fdb54881ac04166", "fusion_lon": 0.0}, {"rental_uris": {"ios": "https://dc.lft.to/lastmile_qr_scan", "android": "https://dc.lft.to/lastmile_qr_scan"}, "type": "electric_scooter", "name": "ce14c22f851f78d7c20d35315f733b1b", "is_reserved": 0, "lon": -77.0182145, "is_disabled": 0, "fusion_lat": 0.0, "lat": 38.92223833333333, "bike_id": "ce14c22f851f78d7c20d35315f733b1b", "fusion_lon": 0.0}, {"rental_uris": {"ios": "https://dc.lft.to/lastmile_qr_scan", "android": "https://dc.lft.to/lastmile_qr_scan"}, "type": "electric_scooter", "name": "8a0e4e8b236741c2c90e10ebcb4ad182", "is_reserved": 0, "lon": -77.02278233333334, "is_disabled": 0, "fusion_lat": 0.0, "lat": 38.924203, "bike_id": "8a0e4e8b236741c2c90e10ebcb4ad182", "fusion_lon": 0.0}, {"rental_uris": {"ios": "https://dc.lft.to/lastmile_qr_scan", "android": "https://dc.lft.to/lastmile_qr_scan"}, "type": "electric_scooter", "name": "bdbad6bd6b62f5cdc2e9eed24533b6a4", "is_reserved": 0, "lon": -77.04337166666667, "is_disabled": 0, "fusion_lat": 0.0, "lat": 38.892225833333335, "bike_id": "bdbad6bd6b62f5cdc2e9eed24533b6a4", "fusion_lon": 0.0}, {"rental_uris": {"ios": "https://dc.lft.to/lastmile_qr_scan", "android": "https://dc.lft.to/lastmile_qr_scan"}, "type": "electric_scooter", "name": "3790983b920a2679d7c44073000b6ea8", "is_reserved": 0, "lon": -77.04111633333333, "is_disabled": 0, "fusion_lat": 0.0, "lat": 38.93466016666667, "bike_id": "3790983b920a2679d7c44073000b6ea8", "fusion_lon": 0.0}, {"rental_uris": {"ios": "https://dc.lft.to/lastmile_qr_scan", "android": "https://dc.lft.to/lastmile_qr_scan"}, "type": "electric_scooter", "name": "bf5caa17e99c64843eef686af7c713bd", "is_reserved": 0, "lon": -77.01617483333334, "is_disabled": 0, "fusion_lat": 0.0, "lat": 38.899732166666666, "bike_id": "bf5caa17e99c64843eef686af7c713bd", "fusion_lon": 0.0}, {"rental_uris": {"ios": "https://dc.lft.to/lastmile_qr_scan", "android": "https://dc.lft.to/lastmile_qr_scan"}, "type": "electric_scooter", "name": "e64071ff343adf27e5019c50b4757278", "is_reserved": 0, "lon": -77.02472283333333, "is_disabled": 0, "fusion_lat": 0.0, "lat": 38.90083533333333, "bike_id": "e64071ff343adf27e5019c50b4757278", "fusion_lon": 0.0}, {"rental_uris": {"ios": "https://dc.lft.to/lastmile_qr_scan", "android": "https://dc.lft.to/lastmile_qr_scan"}, "type": "electric_bike", "name": "7536367c2b1d91631463426c384d3f0d", "is_reserved": 0, "lon": -76.94165083333333, "is_disabled": 0, "fusion_lat": 0.0, "lat": 38.8655295, "bike_id": "7536367c2b1d91631463426c384d3f0d", "fusion_lon": 0.0}, {"rental_uris": {"ios": "https://dc.lft.to/lastmile_qr_scan", "android": "https://dc.lft.to/lastmile_qr_scan"}, "type": "electric_scooter", "name": "fd90dcd8aeb4cde3a3fcab8c51684bc8", "is_reserved": 0, "lon": -77.0461145, "is_disabled": 0, "fusion_lat": 0.0, "lat": 38.914901666666665, "bike_id": "fd90dcd8aeb4cde3a3fcab8c51684bc8", "fusion_lon": 0.0}, {"rental_uris": {"ios": "https://dc.lft.to/lastmile_qr_scan", "android": "https://dc.lft.to/lastmile_qr_scan"}, "type": "electric_scooter", "name": "9688e332f79b8980aade08bf89b4e9cf", "is_reserved": 0, "lon": -77.04877633333334, "is_disabled": 0, "fusion_lat": 0.0, "lat": 38.9134125, "bike_id": "9688e332f79b8980aade08bf89b4e9cf", "fusion_lon": 0.0}, {"rental_uris": {"ios": "https://dc.lft.to/lastmile_qr_scan", "android": "https://dc.lft.to/lastmile_qr_scan"}, "type": "electric_scooter", "name": "b16b353cfcead8ceb95d7fcf6586930d", "is_reserved": 0, "lon": -76.98030383333334, "is_disabled": 0, "fusion_lat": 0.0, "lat": 38.916818666666664, "bike_id": "b16b353cfcead8ceb95d7fcf6586930d", "fusion_lon": 0.0}, {"rental_uris": {"ios": "https://dc.lft.to/lastmile_qr_scan", "android": "https://dc.lft.to/lastmile_qr_scan"}, "type": "electric_scooter", "name": "32c2b93d533e693f9272a73f2ebc2a4f", "is_reserved": 0, "lon": -77.03957483333333, "is_disabled": 0, "fusion_lat": 0.0, "lat": 38.8925015, "bike_id": "32c2b93d533e693f9272a73f2ebc2a4f", "fusion_lon": 0.0}, {"rental_uris": {"ios": "https://dc.lft.to/lastmile_qr_scan", "android": "https://dc.lft.to/lastmile_qr_scan"}, "type": "electric_scooter", "name": "8a425c719dbb715e3ee1e97ddd355ede", "is_reserved": 0, "lon": -77.00314083333333, "is_disabled": 0, "fusion_lat": 0.0, "lat": 38.919001333333334, "bike_id": "8a425c719dbb715e3ee1e97ddd355ede", "fusion_lon": 0.0}, {"rental_uris": {"ios": "https://dc.lft.to/lastmile_qr_scan", "android": "https://dc.lft.to/lastmile_qr_scan"}, "type": "electric_scooter", "name": "9f37b83c446b26a1cd58fc3390a0fc20", "is_reserved": 0, "lon": -77.04967766666667, "is_disabled": 0, "fusion_lat": 0.0, "lat": 38.913395, "bike_id": "9f37b83c446b26a1cd58fc3390a0fc20", "fusion_lon": 0.0}, {"rental_uris": {"ios": "https://dc.lft.to/lastmile_qr_scan", "android": "https://dc.lft.to/lastmile_qr_scan"}, "type": "electric_scooter", "name": "837d3bd6c9ae06031276980bb965651d", "is_reserved": 0, "lon": -77.02572616666667, "is_disabled": 0, "fusion_lat": 0.0, "lat": 38.88745333333333, "bike_id": "837d3bd6c9ae06031276980bb965651d", "fusion_lon": 0.0}, {"rental_uris": {"ios": "https://dc.lft.to/lastmile_qr_scan", "android": "https://dc.lft.to/lastmile_qr_scan"}, "type": "electric_bike", "name": "7e87a1f37ee7e4e1ac7053a0f4df0d76", "is_reserved": 0, "lon": -77.00726666666667, "is_disabled": 0, "fusion_lat": 0.0, "lat": 38.83244083333334, "bike_id": "7e87a1f37ee7e4e1ac7053a0f4df0d76", "fusion_lon": 0.0}, {"rental_uris": {"ios": "https://dc.lft.to/lastmile_qr_scan", "android": "https://dc.lft.to/lastmile_qr_scan"}, "type": "electric_scooter", "name": "5f1ed2f3e447de305e4f42fa15be5b72", "is_reserved": 0, "lon": -76.98314116666667, "is_disabled": 0, "fusion_lat": 0.0, "lat": 38.9258955, "bike_id": "5f1ed2f3e447de305e4f42fa15be5b72", "fusion_lon": 0.0}, {"rental_uris": {"ios": "https://dc.lft.to/lastmile_qr_scan", "android": "https://dc.lft.to/lastmile_qr_scan"}, "type": "electric_scooter", "name": "40089173a7542443b253246f8679f4ac", "is_reserved": 0, "lon": -77.02500683333334, "is_disabled": 0, "fusion_lat": 0.0, "lat": 38.942093666666665, "bike_id": "40089173a7542443b253246f8679f4ac", "fusion_lon": 0.0}, {"rental_uris": {"ios": "https://dc.lft.to/lastmile_qr_scan", "android": "https://dc.lft.to/lastmile_qr_scan"}, "type": "electric_scooter", "name": "86f38e0edc413751cd212f26039dba13", "is_reserved": 0, "lon": -77.03660383333333, "is_disabled": 0, "fusion_lat": 0.0, "lat": 38.91725183333333, "bike_id": "86f38e0edc413751cd212f26039dba13", "fusion_lon": 0.0}, {"rental_uris": {"ios": "https://dc.lft.to/lastmile_qr_scan", "android": "https://dc.lft.to/lastmile_qr_scan"}, "type": "electric_scooter", "name": "be9ccb14f5e3291568093e6d21b663b9", "is_reserved": 0, "lon": -77.02617583333334, "is_disabled": 0, "fusion_lat": 0.0, "lat": 38.951807333333335, "bike_id": "be9ccb14f5e3291568093e6d21b663b9", "fusion_lon": 0.0}, {"rental_uris": {"ios": "https://dc.lft.to/lastmile_qr_scan", "android": "https://dc.lft.to/lastmile_qr_scan"}, "type": "electric_scooter", "name": "69697fbec29c0b433f136f747e7ac518", "is_reserved": 0, "lon": -77.00224733333333, "is_disabled": 0, "fusion_lat": 0.0, "lat": 38.89449, "bike_id": "69697fbec29c0b433f136f747e7ac518", "fusion_lon": 0.0}, {"rental_uris": {"ios": "https://dc.lft.to/lastmile_qr_scan", "android": "https://dc.lft.to/lastmile_qr_scan"}, "type": "electric_bike", "name": "8decea7582694a765f77717d2c832166", "is_reserved": 0, "lon": -77.05087133333333, "is_disabled": 0, "fusion_lat": 0.0, "lat": 38.813329, "bike_id": "8decea7582694a765f77717d2c832166", "fusion_lon": 0.0}, {"rental_uris": {"ios": "https://dc.lft.to/lastmile_qr_scan", "android": "https://dc.lft.to/lastmile_qr_scan"}, "type": "electric_scooter", "name": "0e7633c2e23de88ec9ca48bed99ac403", "is_reserved": 0, "lon": -77.01490783333334, "is_disabled": 0, "fusion_lat": 0.0, "lat": 38.88747166666667, "bike_id": "0e7633c2e23de88ec9ca48bed99ac403", "fusion_lon": 0.0}, {"rental_uris": {"ios": "https://dc.lft.to/lastmile_qr_scan", "android": "https://dc.lft.to/lastmile_qr_scan"}, "type": "electric_scooter", "name": "0d4f2b6a906fbcdd63a76644aec619dd", "is_reserved": 0, "lon": -77.00928833333333, "is_disabled": 0, "fusion_lat": 0.0, "lat": 38.907642333333335, "bike_id": "0d4f2b6a906fbcdd63a76644aec619dd", "fusion_lon": 0.0}, {"rental_uris": {"ios": "https://dc.lft.to/lastmile_qr_scan", "android": "https://dc.lft.to/lastmile_qr_scan"}, "type": "electric_scooter", "name": "ab25465c03b95e1c718ed2949be37ba0", "is_reserved": 0, "lon": -77.015741, "is_disabled": 0, "fusion_lat": 0.0, "lat": 38.916752, "bike_id": "ab25465c03b95e1c718ed2949be37ba0", "fusion_lon": 0.0}, {"rental_uris": {"ios": "https://dc.lft.to/lastmile_qr_scan", "android": "https://dc.lft.to/lastmile_qr_scan"}, "type": "electric_scooter", "name": "6b2b52d1454973fe58abcb63b665953e", "is_reserved": 0, "lon": -77.02492133333334, "is_disabled": 0, "fusion_lat": 0.0, "lat": 38.92592833333333, "bike_id": "6b2b52d1454973fe58abcb63b665953e", "fusion_lon": 0.0}, {"rental_uris": {"ios": "https://dc.lft.to/lastmile_qr_scan", "android": "https://dc.lft.to/lastmile_qr_scan"}, "type": "electric_scooter", "name": "6ca3609f0ec788df00a81bbe6c17f824", "is_reserved": 0, "lon": -77.0727675, "is_disabled": 0, "fusion_lat": 0.0, "lat": 38.9353625, "bike_id": "6ca3609f0ec788df00a81bbe6c17f824", "fusion_lon": 0.0}, {"rental_uris": {"ios": "https://dc.lft.to/lastmile_qr_scan", "android": "https://dc.lft.to/lastmile_qr_scan"}, "type": "electric_scooter", "name": "15834e952ee67bc65a667a9db70a83a1", "is_reserved": 0, "lon": -77.02066983333333, "is_disabled": 0, "fusion_lat": 0.0, "lat": 38.9084695, "bike_id": "15834e952ee67bc65a667a9db70a83a1", "fusion_lon": 0.0}, {"rental_uris": {"ios": "https://dc.lft.to/lastmile_qr_scan", "android": "https://dc.lft.to/lastmile_qr_scan"}, "type": "electric_scooter", "name": "1dc384243ff3967dc430384c000f4c54", "is_reserved": 0, "lon": -77.00985933333334, "is_disabled": 0, "fusion_lat": 0.0, "lat": 38.92028783333333, "bike_id": "1dc384243ff3967dc430384c000f4c54", "fusion_lon": 0.0}, {"rental_uris": {"ios": "https://dc.lft.to/lastmile_qr_scan", "android": "https://dc.lft.to/lastmile_qr_scan"}, "type": "electric_scooter", "name": "242c4bd392ad9b6ada2472fc0ae7a94a", "is_reserved": 0, "lon": -77.03856116666667, "is_disabled": 0, "fusion_lat": 0.0, "lat": 38.912809, "bike_id": "242c4bd392ad9b6ada2472fc0ae7a94a", "fusion_lon": 0.0}, {"rental_uris": {"ios": "https://dc.lft.to/lastmile_qr_scan", "android": "https://dc.lft.to/lastmile_qr_scan"}, "type": "electric_bike", "name": "cde819e8a990125c8e2f1a5ff357d608", "is_reserved": 0, "lon": -76.97333316666666, "is_disabled": 0, "fusion_lat": 0.0, "lat": 38.86515266666667, "bike_id": "cde819e8a990125c8e2f1a5ff357d608", "fusion_lon": 0.0}, {"rental_uris": {"ios": "https://dc.lft.to/lastmile_qr_scan", "android": "https://dc.lft.to/lastmile_qr_scan"}, "type": "electric_scooter", "name": "cafce2ed06deac8e6bfb1aeb84d9c4a3", "is_reserved": 0, "lon": -77.0417845, "is_disabled": 0, "fusion_lat": 0.0, "lat": 38.917238166666664, "bike_id": "cafce2ed06deac8e6bfb1aeb84d9c4a3", "fusion_lon": 0.0}, {"rental_uris": {"ios": "https://dc.lft.to/lastmile_qr_scan", "android": "https://dc.lft.to/lastmile_qr_scan"}, "type": "electric_scooter", "name": "4ec93489633fd0e5b6853a9b6d6f2ce5", "is_reserved": 0, "lon": -77.031769, "is_disabled": 0, "fusion_lat": 0.0, "lat": 38.89227066666667, "bike_id": "4ec93489633fd0e5b6853a9b6d6f2ce5", "fusion_lon": 0.0}, {"rental_uris": {"ios": "https://dc.lft.to/lastmile_qr_scan", "android": "https://dc.lft.to/lastmile_qr_scan"}, "type": "electric_bike", "name": "392a1726df7cb6423fb5bfa57ae268f9", "is_reserved": 0, "lon": -76.9734505, "is_disabled": 0, "fusion_lat": 0.0, "lat": 38.897229833333334, "bike_id": "392a1726df7cb6423fb5bfa57ae268f9", "fusion_lon": 0.0}, {"rental_uris": {"ios": "https://dc.lft.to/lastmile_qr_scan", "android": "https://dc.lft.to/lastmile_qr_scan"}, "type": "electric_scooter", "name": "4c725885f94d283300b47ff41b670bc5", "is_reserved": 0, "lon": -77.00759933333333, "is_disabled": 0, "fusion_lat": 0.0, "lat": 38.9267585, "bike_id": "4c725885f94d283300b47ff41b670bc5", "fusion_lon": 0.0}, {"rental_uris": {"ios": "https://dc.lft.to/lastmile_qr_scan", "android": "https://dc.lft.to/lastmile_qr_scan"}, "type": "electric_bike", "name": "23d2d1e9ba839186b6fa01914ea5b58f", "is_reserved": 0, "lon": -77.0228745, "is_disabled": 0, "fusion_lat": 0.0, "lat": 38.92701266666667, "bike_id": "23d2d1e9ba839186b6fa01914ea5b58f", "fusion_lon": 0.0}, {"rental_uris": {"ios": "https://dc.lft.to/lastmile_qr_scan", "android": "https://dc.lft.to/lastmile_qr_scan"}, "type": "electric_scooter", "name": "087ba199935807b24e6a4b5467a7f565", "is_reserved": 0, "lon": -77.00458633333334, "is_disabled": 0, "fusion_lat": 0.0, "lat": 38.920760666666666, "bike_id": "087ba199935807b24e6a4b5467a7f565", "fusion_lon": 0.0}, {"rental_uris": {"ios": "https://dc.lft.to/lastmile_qr_scan", "android": "https://dc.lft.to/lastmile_qr_scan"}, "type": "electric_scooter", "name": "f7cd4127497ee51c267146c11ee7df4d", "is_reserved": 0, "lon": -77.03540583333333, "is_disabled": 0, "fusion_lat": 0.0, "lat": 38.904649166666665, "bike_id": "f7cd4127497ee51c267146c11ee7df4d", "fusion_lon": 0.0}, {"rental_uris": {"ios": "https://dc.lft.to/lastmile_qr_scan", "android": "https://dc.lft.to/lastmile_qr_scan"}, "type": "electric_scooter", "name": "a7dae76957307f53bfc4a9481feb7ed6", "is_reserved": 0, "lon": -77.0450515, "is_disabled": 0, "fusion_lat": 0.0, "lat": 38.892548833333336, "bike_id": "a7dae76957307f53bfc4a9481feb7ed6", "fusion_lon": 0.0}, {"rental_uris": {"ios": "https://dc.lft.to/lastmile_qr_scan", "android": "https://dc.lft.to/lastmile_qr_scan"}, "type": "electric_scooter", "name": "ee61633df339afa1b1336a13fd2bd267", "is_reserved": 0, "lon": -77.03831916666667, "is_disabled": 0, "fusion_lat": 0.0, "lat": 38.91079383333334, "bike_id": "ee61633df339afa1b1336a13fd2bd267", "fusion_lon": 0.0}, {"rental_uris": {"ios": "https://dc.lft.to/lastmile_qr_scan", "android": "https://dc.lft.to/lastmile_qr_scan"}, "type": "electric_scooter", "name": "26e1273a0bf785f75b93655019380ab2", "is_reserved": 0, "lon": -77.0593445, "is_disabled": 0, "fusion_lat": 0.0, "lat": 38.943100666666666, "bike_id": "26e1273a0bf785f75b93655019380ab2", "fusion_lon": 0.0}, {"rental_uris": {"ios": "https://dc.lft.to/lastmile_qr_scan", "android": "https://dc.lft.to/lastmile_qr_scan"}, "type": "electric_scooter", "name": "41649c399c12e2486cd19664d98ab156", "is_reserved": 0, "lon": -77.00709383333333, "is_disabled": 0, "fusion_lat": 0.0, "lat": 38.88490083333333, "bike_id": "41649c399c12e2486cd19664d98ab156", "fusion_lon": 0.0}, {"rental_uris": {"ios": "https://dc.lft.to/lastmile_qr_scan", "android": "https://dc.lft.to/lastmile_qr_scan"}, "type": "electric_scooter", "name": "89152067b4ae5465915c101f97f4333a", "is_reserved": 0, "lon": -77.02398083333334, "is_disabled": 0, "fusion_lat": 0.0, "lat": 38.909521833333336, "bike_id": "89152067b4ae5465915c101f97f4333a", "fusion_lon": 0.0}, {"rental_uris": {"ios": "https://dc.lft.to/lastmile_qr_scan", "android": "https://dc.lft.to/lastmile_qr_scan"}, "type": "electric_scooter", "name": "43c37482e3be122a3156ef73657a3143", "is_reserved": 0, "lon": -77.0388055, "is_disabled": 0, "fusion_lat": 0.0, "lat": 38.93367683333334, "bike_id": "43c37482e3be122a3156ef73657a3143", "fusion_lon": 0.0}, {"rental_uris": {"ios": "https://dc.lft.to/lastmile_qr_scan", "android": "https://dc.lft.to/lastmile_qr_scan"}, "type": "electric_scooter", "name": "0a675c7a28902061699a8623912d0ac2", "is_reserved": 0, "lon": -77.01080716666667, "is_disabled": 0, "fusion_lat": 0.0, "lat": 38.9033585, "bike_id": "0a675c7a28902061699a8623912d0ac2", "fusion_lon": 0.0}, {"rental_uris": {"ios": "https://dc.lft.to/lastmile_qr_scan", "android": "https://dc.lft.to/lastmile_qr_scan"}, "type": "electric_bike", "name": "ffb70f63c2913c455c4a6b2d406d5161", "is_reserved": 0, "lon": -76.99797516666666, "is_disabled": 0, "fusion_lat": 0.0, "lat": 38.88121483333333, "bike_id": "ffb70f63c2913c455c4a6b2d406d5161", "fusion_lon": 0.0}, {"rental_uris": {"ios": "https://dc.lft.to/lastmile_qr_scan", "android": "https://dc.lft.to/lastmile_qr_scan"}, "type": "electric_scooter", "name": "bc2e2af2699c31d99ab37c6f53277b0d", "is_reserved": 0, "lon": -77.0366295, "is_disabled": 0, "fusion_lat": 0.0, "lat": 38.91762166666667, "bike_id": "bc2e2af2699c31d99ab37c6f53277b0d", "fusion_lon": 0.0}, {"rental_uris": {"ios": "https://dc.lft.to/lastmile_qr_scan", "android": "https://dc.lft.to/lastmile_qr_scan"}, "type": "electric_scooter", "name": "f574663a7d7a57f2a91eef122129262d", "is_reserved": 0, "lon": -77.05598433333333, "is_disabled": 0, "fusion_lat": 0.0, "lat": 38.9370415, "bike_id": "f574663a7d7a57f2a91eef122129262d", "fusion_lon": 0.0}, {"rental_uris": {"ios": "https://dc.lft.to/lastmile_qr_scan", "android": "https://dc.lft.to/lastmile_qr_scan"}, "type": "electric_scooter", "name": "d21bcc792d600d220c0ef04941a359f9", "is_reserved": 0, "lon": -77.02306366666667, "is_disabled": 0, "fusion_lat": 0.0, "lat": 38.92861583333333, "bike_id": "d21bcc792d600d220c0ef04941a359f9", "fusion_lon": 0.0}, {"rental_uris": {"ios": "https://dc.lft.to/lastmile_qr_scan", "android": "https://dc.lft.to/lastmile_qr_scan"}, "type": "electric_scooter", "name": "4de55c30e5d2a9d6ad1d2e09d8557f2e", "is_reserved": 0, "lon": -76.94195816666667, "is_disabled": 0, "fusion_lat": 0.0, "lat": 38.9022825, "bike_id": "4de55c30e5d2a9d6ad1d2e09d8557f2e", "fusion_lon": 0.0}, {"rental_uris": {"ios": "https://dc.lft.to/lastmile_qr_scan", "android": "https://dc.lft.to/lastmile_qr_scan"}, "type": "electric_scooter", "name": "c8e5bd9d02002aa5c2be0964ad1f767f", "is_reserved": 0, "lon": -77.07552033333333, "is_disabled": 0, "fusion_lat": 0.0, "lat": 38.920897, "bike_id": "c8e5bd9d02002aa5c2be0964ad1f767f", "fusion_lon": 0.0}, {"rental_uris": {"ios": "https://dc.lft.to/lastmile_qr_scan", "android": "https://dc.lft.to/lastmile_qr_scan"}, "type": "electric_scooter", "name": "36bd52bc5dce30070deb9220ed71781b", "is_reserved": 0, "lon": -77.0375375, "is_disabled": 0, "fusion_lat": 0.0, "lat": 38.9319905, "bike_id": "36bd52bc5dce30070deb9220ed71781b", "fusion_lon": 0.0}, {"rental_uris": {"ios": "https://dc.lft.to/lastmile_qr_scan", "android": "https://dc.lft.to/lastmile_qr_scan"}, "type": "electric_scooter", "name": "313b092018065431f6fcbba6c65cebdd", "is_reserved": 0, "lon": -77.038549, "is_disabled": 0, "fusion_lat": 0.0, "lat": 38.91644083333333, "bike_id": "313b092018065431f6fcbba6c65cebdd", "fusion_lon": 0.0}, {"rental_uris": {"ios": "https://dc.lft.to/lastmile_qr_scan", "android": "https://dc.lft.to/lastmile_qr_scan"}, "type": "electric_scooter", "name": "308540b28ae6bb5beb75b9fa37aaca24", "is_reserved": 0, "lon": -77.00396966666666, "is_disabled": 0, "fusion_lat": 0.0, "lat": 38.90573233333333, "bike_id": "308540b28ae6bb5beb75b9fa37aaca24", "fusion_lon": 0.0}, {"rental_uris": {"ios": "https://dc.lft.to/lastmile_qr_scan", "android": "https://dc.lft.to/lastmile_qr_scan"}, "type": "electric_scooter", "name": "6cd7033495d1d29a2aa856ede311c08c", "is_reserved": 0, "lon": -77.0214645, "is_disabled": 0, "fusion_lat": 0.0, "lat": 38.92000516666667, "bike_id": "6cd7033495d1d29a2aa856ede311c08c", "fusion_lon": 0.0}, {"rental_uris": {"ios": "https://dc.lft.to/lastmile_qr_scan", "android": "https://dc.lft.to/lastmile_qr_scan"}, "type": "electric_scooter", "name": "8da0d50421cce32eb6c4fdf97fd899a9", "is_reserved": 0, "lon": -76.99475816666667, "is_disabled": 0, "fusion_lat": 0.0, "lat": 38.905548833333334, "bike_id": "8da0d50421cce32eb6c4fdf97fd899a9", "fusion_lon": 0.0}, {"rental_uris": {"ios": "https://dc.lft.to/lastmile_qr_scan", "android": "https://dc.lft.to/lastmile_qr_scan"}, "type": "electric_scooter", "name": "ddc11950351bd537a00bce93d2c04c28", "is_reserved": 0, "lon": -77.01768866666667, "is_disabled": 0, "fusion_lat": 0.0, "lat": 38.900916333333335, "bike_id": "ddc11950351bd537a00bce93d2c04c28", "fusion_lon": 0.0}, {"rental_uris": {"ios": "https://dc.lft.to/lastmile_qr_scan", "android": "https://dc.lft.to/lastmile_qr_scan"}, "type": "electric_scooter", "name": "646ff74203451fdcdf792ac3910cfc71", "is_reserved": 0, "lon": -76.96534716666666, "is_disabled": 0, "fusion_lat": 0.0, "lat": 38.91844483333333, "bike_id": "646ff74203451fdcdf792ac3910cfc71", "fusion_lon": 0.0}, {"rental_uris": {"ios": "https://dc.lft.to/lastmile_qr_scan", "android": "https://dc.lft.to/lastmile_qr_scan"}, "type": "electric_scooter", "name": "2a8c69ce4ce01346f180d58745906e42", "is_reserved": 0, "lon": -77.03867633333333, "is_disabled": 0, "fusion_lat": 0.0, "lat": 38.9118585, "bike_id": "2a8c69ce4ce01346f180d58745906e42", "fusion_lon": 0.0}, {"rental_uris": {"ios": "https://dc.lft.to/lastmile_qr_scan", "android": "https://dc.lft.to/lastmile_qr_scan"}, "type": "electric_bike", "name": "d3abc1f066da9a99248a6643c4bfa647", "is_reserved": 0, "lon": -76.91723616666667, "is_disabled": 0, "fusion_lat": 0.0, "lat": 38.880283, "bike_id": "d3abc1f066da9a99248a6643c4bfa647", "fusion_lon": 0.0}, {"rental_uris": {"ios": "https://dc.lft.to/lastmile_qr_scan", "android": "https://dc.lft.to/lastmile_qr_scan"}, "type": "electric_scooter", "name": "ebf9286e833c85a20692a1b9adc0bbc3", "is_reserved": 0, "lon": -77.04360333333334, "is_disabled": 0, "fusion_lat": 0.0, "lat": 38.926739833333336, "bike_id": "ebf9286e833c85a20692a1b9adc0bbc3", "fusion_lon": 0.0}, {"rental_uris": {"ios": "https://dc.lft.to/lastmile_qr_scan", "android": "https://dc.lft.to/lastmile_qr_scan"}, "type": "electric_scooter", "name": "fb6617abcc6ad488c4dee5a427c32ce3", "is_reserved": 0, "lon": -77.00732816666667, "is_disabled": 0, "fusion_lat": 0.0, "lat": 38.906309, "bike_id": "fb6617abcc6ad488c4dee5a427c32ce3", "fusion_lon": 0.0}, {"rental_uris": {"ios": "https://dc.lft.to/lastmile_qr_scan", "android": "https://dc.lft.to/lastmile_qr_scan"}, "type": "electric_scooter", "name": "0034541c9de5cb74ce8d906275b30517", "is_reserved": 0, "lon": -77.03248716666667, "is_disabled": 0, "fusion_lat": 0.0, "lat": 38.91990583333333, "bike_id": "0034541c9de5cb74ce8d906275b30517", "fusion_lon": 0.0}, {"rental_uris": {"ios": "https://dc.lft.to/lastmile_qr_scan", "android": "https://dc.lft.to/lastmile_qr_scan"}, "type": "electric_scooter", "name": "ddc3e2d14e316996b148a4de110deda1", "is_reserved": 0, "lon": -77.02087216666666, "is_disabled": 0, "fusion_lat": 0.0, "lat": 38.927153, "bike_id": "ddc3e2d14e316996b148a4de110deda1", "fusion_lon": 0.0}, {"rental_uris": {"ios": "https://dc.lft.to/lastmile_qr_scan", "android": "https://dc.lft.to/lastmile_qr_scan"}, "type": "electric_scooter", "name": "33b6a37c7a03bc3109530efa26cd3a05", "is_reserved": 0, "lon": -77.0322025, "is_disabled": 0, "fusion_lat": 0.0, "lat": 38.90885733333333, "bike_id": "33b6a37c7a03bc3109530efa26cd3a05", "fusion_lon": 0.0}, {"rental_uris": {"ios": "https://dc.lft.to/lastmile_qr_scan", "android": "https://dc.lft.to/lastmile_qr_scan"}, "type": "electric_scooter", "name": "cc8d828809d9e4a9ef7681653125c7e8", "is_reserved": 0, "lon": -76.980681, "is_disabled": 0, "fusion_lat": 0.0, "lat": 38.90164133333333, "bike_id": "cc8d828809d9e4a9ef7681653125c7e8", "fusion_lon": 0.0}, {"rental_uris": {"ios": "https://dc.lft.to/lastmile_qr_scan", "android": "https://dc.lft.to/lastmile_qr_scan"}, "type": "electric_bike", "name": "5af716cd02909d7cf184bc694a8bef12", "is_reserved": 0, "lon": -77.073295, "is_disabled": 0, "fusion_lat": 0.0, "lat": 38.92510516666667, "bike_id": "5af716cd02909d7cf184bc694a8bef12", "fusion_lon": 0.0}, {"rental_uris": {"ios": "https://dc.lft.to/lastmile_qr_scan", "android": "https://dc.lft.to/lastmile_qr_scan"}, "type": "electric_scooter", "name": "4f850b7913e5472db9738b9373c1be54", "is_reserved": 0, "lon": -77.023813, "is_disabled": 0, "fusion_lat": 0.0, "lat": 38.93392883333333, "bike_id": "4f850b7913e5472db9738b9373c1be54", "fusion_lon": 0.0}, {"rental_uris": {"ios": "https://dc.lft.to/lastmile_qr_scan", "android": "https://dc.lft.to/lastmile_qr_scan"}, "type": "electric_bike", "name": "29ea9269831e50617f6bd2e8ae96afce", "is_reserved": 0, "lon": -77.0763995, "is_disabled": 0, "fusion_lat": 0.0, "lat": 38.845384833333334, "bike_id": "29ea9269831e50617f6bd2e8ae96afce", "fusion_lon": 0.0}, {"rental_uris": {"ios": "https://dc.lft.to/lastmile_qr_scan", "android": "https://dc.lft.to/lastmile_qr_scan"}, "type": "electric_scooter", "name": "8e213fc7ced5b7c2871e05abe7e701a0", "is_reserved": 0, "lon": -77.02707033333333, "is_disabled": 0, "fusion_lat": 0.0, "lat": 38.905303833333335, "bike_id": "8e213fc7ced5b7c2871e05abe7e701a0", "fusion_lon": 0.0}, {"rental_uris": {"ios": "https://dc.lft.to/lastmile_qr_scan", "android": "https://dc.lft.to/lastmile_qr_scan"}, "type": "electric_scooter", "name": "bc2eed2670b757df82a2d45d7c411199", "is_reserved": 0, "lon": -77.004024, "is_disabled": 0, "fusion_lat": 0.0, "lat": 38.879391, "bike_id": "bc2eed2670b757df82a2d45d7c411199", "fusion_lon": 0.0}, {"rental_uris": {"ios": "https://dc.lft.to/lastmile_qr_scan", "android": "https://dc.lft.to/lastmile_qr_scan"}, "type": "electric_scooter", "name": "a45201fd02c7472945dcdf50c9d68325", "is_reserved": 0, "lon": -76.923014, "is_disabled": 0, "fusion_lat": 0.0, "lat": 38.89386666666667, "bike_id": "a45201fd02c7472945dcdf50c9d68325", "fusion_lon": 0.0}, {"rental_uris": {"ios": "https://dc.lft.to/lastmile_qr_scan", "android": "https://dc.lft.to/lastmile_qr_scan"}, "type": "electric_bike", "name": "5ae8785367b9c590cbe84ad4e6da7aea", "is_reserved": 0, "lon": -77.06577833333333, "is_disabled": 0, "fusion_lat": 0.0, "lat": 38.911268, "bike_id": "5ae8785367b9c590cbe84ad4e6da7aea", "fusion_lon": 0.0}, {"rental_uris": {"ios": "https://dc.lft.to/lastmile_qr_scan", "android": "https://dc.lft.to/lastmile_qr_scan"}, "type": "electric_scooter", "name": "654dd4a10cbf34a598be4ffd1b58a462", "is_reserved": 0, "lon": -77.0383715, "is_disabled": 0, "fusion_lat": 0.0, "lat": 38.910388833333336, "bike_id": "654dd4a10cbf34a598be4ffd1b58a462", "fusion_lon": 0.0}, {"rental_uris": {"ios": "https://dc.lft.to/lastmile_qr_scan", "android": "https://dc.lft.to/lastmile_qr_scan"}, "type": "electric_scooter", "name": "b373ba201d45af5e96c8b8e85eff5ff7", "is_reserved": 0, "lon": -77.02665516666667, "is_disabled": 0, "fusion_lat": 0.0, "lat": 38.938644333333336, "bike_id": "b373ba201d45af5e96c8b8e85eff5ff7", "fusion_lon": 0.0}, {"rental_uris": {"ios": "https://dc.lft.to/lastmile_qr_scan", "android": "https://dc.lft.to/lastmile_qr_scan"}, "type": "electric_scooter", "name": "0ad103d362b02d8a2430e39c00595668", "is_reserved": 0, "lon": -77.02033616666667, "is_disabled": 0, "fusion_lat": 0.0, "lat": 38.92440416666667, "bike_id": "0ad103d362b02d8a2430e39c00595668", "fusion_lon": 0.0}, {"rental_uris": {"ios": "https://dc.lft.to/lastmile_qr_scan", "android": "https://dc.lft.to/lastmile_qr_scan"}, "type": "electric_scooter", "name": "9264da9f1ac9356d7b141aec4636cf06", "is_reserved": 0, "lon": -77.0246705, "is_disabled": 0, "fusion_lat": 0.0, "lat": 38.9577925, "bike_id": "9264da9f1ac9356d7b141aec4636cf06", "fusion_lon": 0.0}, {"rental_uris": {"ios": "https://dc.lft.to/lastmile_qr_scan", "android": "https://dc.lft.to/lastmile_qr_scan"}, "type": "electric_bike", "name": "1929a0d258f4fb5a01d982079f3a557b", "is_reserved": 0, "lon": -77.106282, "is_disabled": 0, "fusion_lat": 0.0, "lat": 38.873227166666666, "bike_id": "1929a0d258f4fb5a01d982079f3a557b", "fusion_lon": 0.0}, {"rental_uris": {"ios": "https://dc.lft.to/lastmile_qr_scan", "android": "https://dc.lft.to/lastmile_qr_scan"}, "type": "electric_scooter", "name": "c54a5e327608d444fddd2b90ad2c182e", "is_reserved": 0, "lon": -77.02447416666666, "is_disabled": 0, "fusion_lat": 0.0, "lat": 38.949795, "bike_id": "c54a5e327608d444fddd2b90ad2c182e", "fusion_lon": 0.0}, {"rental_uris": {"ios": "https://dc.lft.to/lastmile_qr_scan", "android": "https://dc.lft.to/lastmile_qr_scan"}, "type": "electric_scooter", "name": "6c28fb27ca509fa7ab4bd1c822c9d54c", "is_reserved": 0, "lon": -77.03489983333333, "is_disabled": 0, "fusion_lat": 0.0, "lat": 38.932794666666666, "bike_id": "6c28fb27ca509fa7ab4bd1c822c9d54c", "fusion_lon": 0.0}, {"rental_uris": {"ios": "https://dc.lft.to/lastmile_qr_scan", "android": "https://dc.lft.to/lastmile_qr_scan"}, "type": "electric_scooter", "name": "a0737f8b122cef4e512868384a5e3bec", "is_reserved": 0, "lon": -77.070572, "is_disabled": 0, "fusion_lat": 0.0, "lat": 38.899115333333334, "bike_id": "a0737f8b122cef4e512868384a5e3bec", "fusion_lon": 0.0}, {"rental_uris": {"ios": "https://dc.lft.to/lastmile_qr_scan", "android": "https://dc.lft.to/lastmile_qr_scan"}, "type": "electric_scooter", "name": "0cab06eecf857b952bdbd63bc67a8c43", "is_reserved": 0, "lon": -76.99014966666667, "is_disabled": 0, "fusion_lat": 0.0, "lat": 38.898875833333335, "bike_id": "0cab06eecf857b952bdbd63bc67a8c43", "fusion_lon": 0.0}, {"rental_uris": {"ios": "https://dc.lft.to/lastmile_qr_scan", "android": "https://dc.lft.to/lastmile_qr_scan"}, "type": "electric_bike", "name": "022ae57af66c3fdfdfe853734f02818b", "is_reserved": 0, "lon": -77.07386983333333, "is_disabled": 0, "fusion_lat": 0.0, "lat": 38.9144015, "bike_id": "022ae57af66c3fdfdfe853734f02818b", "fusion_lon": 0.0}, {"rental_uris": {"ios": "https://dc.lft.to/lastmile_qr_scan", "android": "https://dc.lft.to/lastmile_qr_scan"}, "type": "electric_scooter", "name": "bbd3613241259ae57da1abf12dc8c1a1", "is_reserved": 0, "lon": -77.024632, "is_disabled": 0, "fusion_lat": 0.0, "lat": 38.8999225, "bike_id": "bbd3613241259ae57da1abf12dc8c1a1", "fusion_lon": 0.0}, {"rental_uris": {"ios": "https://dc.lft.to/lastmile_qr_scan", "android": "https://dc.lft.to/lastmile_qr_scan"}, "type": "electric_scooter", "name": "d93ae587517456aa0b42b1b3eac756a2", "is_reserved": 0, "lon": -77.04225416666667, "is_disabled": 0, "fusion_lat": 0.0, "lat": 38.921616666666665, "bike_id": "d93ae587517456aa0b42b1b3eac756a2", "fusion_lon": 0.0}, {"rental_uris": {"ios": "https://dc.lft.to/lastmile_qr_scan", "android": "https://dc.lft.to/lastmile_qr_scan"}, "type": "electric_scooter", "name": "02ea9b9167fc803393c3260fea89c2b2", "is_reserved": 0, "lon": -77.04753516666666, "is_disabled": 0, "fusion_lat": 0.0, "lat": 38.90065033333333, "bike_id": "02ea9b9167fc803393c3260fea89c2b2", "fusion_lon": 0.0}, {"rental_uris": {"ios": "https://dc.lft.to/lastmile_qr_scan", "android": "https://dc.lft.to/lastmile_qr_scan"}, "type": "electric_scooter", "name": "58dc273688b2336731797536c6e2f9f1", "is_reserved": 0, "lon": -76.98653, "is_disabled": 0, "fusion_lat": 0.0, "lat": 38.90538816666667, "bike_id": "58dc273688b2336731797536c6e2f9f1", "fusion_lon": 0.0}, {"rental_uris": {"ios": "https://dc.lft.to/lastmile_qr_scan", "android": "https://dc.lft.to/lastmile_qr_scan"}, "type": "electric_scooter", "name": "2995052bf96969a4ef9e6c9f2b3a67d6", "is_reserved": 0, "lon": -77.07251133333334, "is_disabled": 0, "fusion_lat": 0.0, "lat": 38.93322033333333, "bike_id": "2995052bf96969a4ef9e6c9f2b3a67d6", "fusion_lon": 0.0}, {"rental_uris": {"ios": "https://dc.lft.to/lastmile_qr_scan", "android": "https://dc.lft.to/lastmile_qr_scan"}, "type": "electric_scooter", "name": "2b4398fa7283e0286de6f0fed67e8400", "is_reserved": 0, "lon": -77.02719583333334, "is_disabled": 0, "fusion_lat": 0.0, "lat": 38.9172085, "bike_id": "2b4398fa7283e0286de6f0fed67e8400", "fusion_lon": 0.0}, {"rental_uris": {"ios": "https://dc.lft.to/lastmile_qr_scan", "android": "https://dc.lft.to/lastmile_qr_scan"}, "type": "electric_scooter", "name": "e4f89e252473226c2e3eca4b2fc13e12", "is_reserved": 0, "lon": -77.02389, "is_disabled": 0, "fusion_lat": 0.0, "lat": 38.919579666666664, "bike_id": "e4f89e252473226c2e3eca4b2fc13e12", "fusion_lon": 0.0}, {"rental_uris": {"ios": "https://dc.lft.to/lastmile_qr_scan", "android": "https://dc.lft.to/lastmile_qr_scan"}, "type": "electric_scooter", "name": "f67cdd5927cef2d57e1a39c99c999435", "is_reserved": 0, "lon": -76.97801733333333, "is_disabled": 0, "fusion_lat": 0.0, "lat": 38.903135666666664, "bike_id": "f67cdd5927cef2d57e1a39c99c999435", "fusion_lon": 0.0}, {"rental_uris": {"ios": "https://dc.lft.to/lastmile_qr_scan", "android": "https://dc.lft.to/lastmile_qr_scan"}, "type": "electric_scooter", "name": "a14efd13bb722807c297b3dcfa262098", "is_reserved": 0, "lon": -76.99013216666667, "is_disabled": 0, "fusion_lat": 0.0, "lat": 38.899967333333336, "bike_id": "a14efd13bb722807c297b3dcfa262098", "fusion_lon": 0.0}, {"rental_uris": {"ios": "https://dc.lft.to/lastmile_qr_scan", "android": "https://dc.lft.to/lastmile_qr_scan"}, "type": "electric_scooter", "name": "55b7e5c46f2e41a7979c0f14b5dbbdfa", "is_reserved": 0, "lon": -77.023626, "is_disabled": 0, "fusion_lat": 0.0, "lat": 38.9204865, "bike_id": "55b7e5c46f2e41a7979c0f14b5dbbdfa", "fusion_lon": 0.0}, {"rental_uris": {"ios": "https://dc.lft.to/lastmile_qr_scan", "android": "https://dc.lft.to/lastmile_qr_scan"}, "type": "electric_scooter", "name": "4ab35dc6755a9794edc16087b8665783", "is_reserved": 0, "lon": -77.04504083333333, "is_disabled": 0, "fusion_lat": 0.0, "lat": 38.919352333333336, "bike_id": "4ab35dc6755a9794edc16087b8665783", "fusion_lon": 0.0}, {"rental_uris": {"ios": "https://dc.lft.to/lastmile_qr_scan", "android": "https://dc.lft.to/lastmile_qr_scan"}, "type": "electric_scooter", "name": "45e75187e22d6e121e874d50385806f1", "is_reserved": 0, "lon": -77.033735, "is_disabled": 0, "fusion_lat": 0.0, "lat": 38.919087833333336, "bike_id": "45e75187e22d6e121e874d50385806f1", "fusion_lon": 0.0}, {"rental_uris": {"ios": "https://dc.lft.to/lastmile_qr_scan", "android": "https://dc.lft.to/lastmile_qr_scan"}, "type": "electric_scooter", "name": "1162df9ecb62acafb8a3bc4fc28b059a", "is_reserved": 0, "lon": -77.02943466666666, "is_disabled": 0, "fusion_lat": 0.0, "lat": 38.91404516666667, "bike_id": "1162df9ecb62acafb8a3bc4fc28b059a", "fusion_lon": 0.0}, {"rental_uris": {"ios": "https://dc.lft.to/lastmile_qr_scan", "android": "https://dc.lft.to/lastmile_qr_scan"}, "type": "electric_scooter", "name": "04223a0744832b14c9a728817122a3ab", "is_reserved": 0, "lon": -77.014274, "is_disabled": 0, "fusion_lat": 0.0, "lat": 38.914647333333335, "bike_id": "04223a0744832b14c9a728817122a3ab", "fusion_lon": 0.0}, {"rental_uris": {"ios": "https://dc.lft.to/lastmile_qr_scan", "android": "https://dc.lft.to/lastmile_qr_scan"}, "type": "electric_scooter", "name": "97c4396200571ac227642e4dec48ee52", "is_reserved": 0, "lon": -77.0255085, "is_disabled": 0, "fusion_lat": 0.0, "lat": 38.930967, "bike_id": "97c4396200571ac227642e4dec48ee52", "fusion_lon": 0.0}, {"rental_uris": {"ios": "https://dc.lft.to/lastmile_qr_scan", "android": "https://dc.lft.to/lastmile_qr_scan"}, "type": "electric_scooter", "name": "242917da7fc0faaefed903e8727aee45", "is_reserved": 0, "lon": -77.03389066666666, "is_disabled": 0, "fusion_lat": 0.0, "lat": 38.90268783333333, "bike_id": "242917da7fc0faaefed903e8727aee45", "fusion_lon": 0.0}, {"rental_uris": {"ios": "https://dc.lft.to/lastmile_qr_scan", "android": "https://dc.lft.to/lastmile_qr_scan"}, "type": "electric_scooter", "name": "7eac0c9459a5ef338cb70193a7d5491f", "is_reserved": 0, "lon": -76.9347685, "is_disabled": 0, "fusion_lat": 0.0, "lat": 38.89503466666667, "bike_id": "7eac0c9459a5ef338cb70193a7d5491f", "fusion_lon": 0.0}, {"rental_uris": {"ios": "https://dc.lft.to/lastmile_qr_scan", "android": "https://dc.lft.to/lastmile_qr_scan"}, "type": "electric_scooter", "name": "a75c8e3e5a282c7d61b9f6038260f461", "is_reserved": 0, "lon": -77.0366105, "is_disabled": 0, "fusion_lat": 0.0, "lat": 38.939527, "bike_id": "a75c8e3e5a282c7d61b9f6038260f461", "fusion_lon": 0.0}, {"rental_uris": {"ios": "https://dc.lft.to/lastmile_qr_scan", "android": "https://dc.lft.to/lastmile_qr_scan"}, "type": "electric_scooter", "name": "9a33a8992009b70ad11fda8976a3a99f", "is_reserved": 0, "lon": -77.005903, "is_disabled": 0, "fusion_lat": 0.0, "lat": 38.90581916666667, "bike_id": "9a33a8992009b70ad11fda8976a3a99f", "fusion_lon": 0.0}, {"rental_uris": {"ios": "https://dc.lft.to/lastmile_qr_scan", "android": "https://dc.lft.to/lastmile_qr_scan"}, "type": "electric_scooter", "name": "1ec0ba139ebdba8e89269db19c69a960", "is_reserved": 0, "lon": -77.0105335, "is_disabled": 0, "fusion_lat": 0.0, "lat": 38.916418166666666, "bike_id": "1ec0ba139ebdba8e89269db19c69a960", "fusion_lon": 0.0}, {"rental_uris": {"ios": "https://dc.lft.to/lastmile_qr_scan", "android": "https://dc.lft.to/lastmile_qr_scan"}, "type": "electric_bike", "name": "c735518e218201744e333fdeb6706953", "is_reserved": 0, "lon": -77.01231266666667, "is_disabled": 0, "fusion_lat": 0.0, "lat": 38.95088633333334, "bike_id": "c735518e218201744e333fdeb6706953", "fusion_lon": 0.0}, {"rental_uris": {"ios": "https://dc.lft.to/lastmile_qr_scan", "android": "https://dc.lft.to/lastmile_qr_scan"}, "type": "electric_bike", "name": "640d144b046fbb686a5ec21cc9b75a55", "is_reserved": 0, "lon": -77.12732733333333, "is_disabled": 0, "fusion_lat": 0.0, "lat": 38.89563666666667, "bike_id": "640d144b046fbb686a5ec21cc9b75a55", "fusion_lon": 0.0}, {"rental_uris": {"ios": "https://dc.lft.to/lastmile_qr_scan", "android": "https://dc.lft.to/lastmile_qr_scan"}, "type": "electric_scooter", "name": "eec0575fdd4e76332f37b8c276036df6", "is_reserved": 0, "lon": -77.04696183333333, "is_disabled": 0, "fusion_lat": 0.0, "lat": 38.902984833333335, "bike_id": "eec0575fdd4e76332f37b8c276036df6", "fusion_lon": 0.0}, {"rental_uris": {"ios": "https://dc.lft.to/lastmile_qr_scan", "android": "https://dc.lft.to/lastmile_qr_scan"}, "type": "electric_bike", "name": "be3fc6c29babfd1287271f6880bb48d1", "is_reserved": 0, "lon": -76.97972416666667, "is_disabled": 0, "fusion_lat": 0.0, "lat": 38.92044516666667, "bike_id": "be3fc6c29babfd1287271f6880bb48d1", "fusion_lon": 0.0}, {"rental_uris": {"ios": "https://dc.lft.to/lastmile_qr_scan", "android": "https://dc.lft.to/lastmile_qr_scan"}, "type": "electric_bike", "name": "c8da540f516bb110789ac3528f107e4b", "is_reserved": 0, "lon": -76.996935, "is_disabled": 0, "fusion_lat": 0.0, "lat": 38.8386535, "bike_id": "c8da540f516bb110789ac3528f107e4b", "fusion_lon": 0.0}, {"rental_uris": {"ios": "https://dc.lft.to/lastmile_qr_scan", "android": "https://dc.lft.to/lastmile_qr_scan"}, "type": "electric_bike", "name": "f0eada9fe5a6afac9a8b2d967669a030", "is_reserved": 0, "lon": -76.99281766666667, "is_disabled": 0, "fusion_lat": 0.0, "lat": 38.972581, "bike_id": "f0eada9fe5a6afac9a8b2d967669a030", "fusion_lon": 0.0}, {"rental_uris": {"ios": "https://dc.lft.to/lastmile_qr_scan", "android": "https://dc.lft.to/lastmile_qr_scan"}, "type": "electric_scooter", "name": "b96f7324baeb7919fe0f20daec29e57c", "is_reserved": 0, "lon": -77.01856533333333, "is_disabled": 0, "fusion_lat": 0.0, "lat": 38.9007835, "bike_id": "b96f7324baeb7919fe0f20daec29e57c", "fusion_lon": 0.0}, {"rental_uris": {"ios": "https://dc.lft.to/lastmile_qr_scan", "android": "https://dc.lft.to/lastmile_qr_scan"}, "type": "electric_scooter", "name": "e57ca8d44707ce50307acd78d65353b6", "is_reserved": 0, "lon": -77.04048233333333, "is_disabled": 0, "fusion_lat": 0.0, "lat": 38.90482183333334, "bike_id": "e57ca8d44707ce50307acd78d65353b6", "fusion_lon": 0.0}, {"rental_uris": {"ios": "https://dc.lft.to/lastmile_qr_scan", "android": "https://dc.lft.to/lastmile_qr_scan"}, "type": "electric_scooter", "name": "cc113107e5ffc51b67de77a04aaefdb8", "is_reserved": 0, "lon": -77.03822716666667, "is_disabled": 0, "fusion_lat": 0.0, "lat": 38.91266666666667, "bike_id": "cc113107e5ffc51b67de77a04aaefdb8", "fusion_lon": 0.0}, {"rental_uris": {"ios": "https://dc.lft.to/lastmile_qr_scan", "android": "https://dc.lft.to/lastmile_qr_scan"}, "type": "electric_scooter", "name": "fc5f65ecd1ea152a68f7cc215d969e49", "is_reserved": 0, "lon": -77.015182, "is_disabled": 0, "fusion_lat": 0.0, "lat": 38.90213633333333, "bike_id": "fc5f65ecd1ea152a68f7cc215d969e49", "fusion_lon": 0.0}, {"rental_uris": {"ios": "https://dc.lft.to/lastmile_qr_scan", "android": "https://dc.lft.to/lastmile_qr_scan"}, "type": "electric_scooter", "name": "8b8728b590ead960f8ec88387f6f3587", "is_reserved": 0, "lon": -77.04836283333333, "is_disabled": 0, "fusion_lat": 0.0, "lat": 38.898419833333335, "bike_id": "8b8728b590ead960f8ec88387f6f3587", "fusion_lon": 0.0}, {"rental_uris": {"ios": "https://dc.lft.to/lastmile_qr_scan", "android": "https://dc.lft.to/lastmile_qr_scan"}, "type": "electric_scooter", "name": "ea7f8bd266b7b41899014a0a48f3b94b", "is_reserved": 0, "lon": -77.0259645, "is_disabled": 0, "fusion_lat": 0.0, "lat": 38.896283333333336, "bike_id": "ea7f8bd266b7b41899014a0a48f3b94b", "fusion_lon": 0.0}, {"rental_uris": {"ios": "https://dc.lft.to/lastmile_qr_scan", "android": "https://dc.lft.to/lastmile_qr_scan"}, "type": "electric_bike", "name": "52d9ef814e9d5bd4f96c744007289b4f", "is_reserved": 0, "lon": -76.995521, "is_disabled": 0, "fusion_lat": 0.0, "lat": 38.908194333333334, "bike_id": "52d9ef814e9d5bd4f96c744007289b4f", "fusion_lon": 0.0}, {"rental_uris": {"ios": "https://dc.lft.to/lastmile_qr_scan", "android": "https://dc.lft.to/lastmile_qr_scan"}, "type": "electric_scooter", "name": "975fa49319e9b1f2d9b2b0e33416aee6", "is_reserved": 0, "lon": -77.04748216666667, "is_disabled": 0, "fusion_lat": 0.0, "lat": 38.9053, "bike_id": "975fa49319e9b1f2d9b2b0e33416aee6", "fusion_lon": 0.0}, {"rental_uris": {"ios": "https://dc.lft.to/lastmile_qr_scan", "android": "https://dc.lft.to/lastmile_qr_scan"}, "type": "electric_scooter", "name": "82b52679b251b9795c9509207845f457", "is_reserved": 0, "lon": -77.028261, "is_disabled": 0, "fusion_lat": 0.0, "lat": 38.899663333333336, "bike_id": "82b52679b251b9795c9509207845f457", "fusion_lon": 0.0}, {"rental_uris": {"ios": "https://dc.lft.to/lastmile_qr_scan", "android": "https://dc.lft.to/lastmile_qr_scan"}, "type": "electric_scooter", "name": "73df2709a9ec16c97e76851f21de09c3", "is_reserved": 0, "lon": -77.03174716666666, "is_disabled": 0, "fusion_lat": 0.0, "lat": 38.92025683333333, "bike_id": "73df2709a9ec16c97e76851f21de09c3", "fusion_lon": 0.0}, {"rental_uris": {"ios": "https://dc.lft.to/lastmile_qr_scan", "android": "https://dc.lft.to/lastmile_qr_scan"}, "type": "electric_scooter", "name": "094530981d1db4b3387bd063e3c3933e", "is_reserved": 0, "lon": -77.03901883333333, "is_disabled": 0, "fusion_lat": 0.0, "lat": 38.91270133333333, "bike_id": "094530981d1db4b3387bd063e3c3933e", "fusion_lon": 0.0}, {"rental_uris": {"ios": "https://dc.lft.to/lastmile_qr_scan", "android": "https://dc.lft.to/lastmile_qr_scan"}, "type": "electric_scooter", "name": "a12ec3fee97e1153eb3bea74ee7e0685", "is_reserved": 0, "lon": -77.0270885, "is_disabled": 0, "fusion_lat": 0.0, "lat": 38.90458016666667, "bike_id": "a12ec3fee97e1153eb3bea74ee7e0685", "fusion_lon": 0.0}, {"rental_uris": {"ios": "https://dc.lft.to/lastmile_qr_scan", "android": "https://dc.lft.to/lastmile_qr_scan"}, "type": "electric_scooter", "name": "331f3f15bfb196537e40866b42217a99", "is_reserved": 0, "lon": -77.04549283333333, "is_disabled": 0, "fusion_lat": 0.0, "lat": 38.933931666666666, "bike_id": "331f3f15bfb196537e40866b42217a99", "fusion_lon": 0.0}, {"rental_uris": {"ios": "https://dc.lft.to/lastmile_qr_scan", "android": "https://dc.lft.to/lastmile_qr_scan"}, "type": "electric_scooter", "name": "1fd54d31c3da83671f07f25e43ada216", "is_reserved": 0, "lon": -77.0449105, "is_disabled": 0, "fusion_lat": 0.0, "lat": 38.91449183333334, "bike_id": "1fd54d31c3da83671f07f25e43ada216", "fusion_lon": 0.0}, {"rental_uris": {"ios": "https://dc.lft.to/lastmile_qr_scan", "android": "https://dc.lft.to/lastmile_qr_scan"}, "type": "electric_scooter", "name": "b27a48236eb823417d0efee8b388fa60", "is_reserved": 0, "lon": -77.03580816666667, "is_disabled": 0, "fusion_lat": 0.0, "lat": 38.9188475, "bike_id": "b27a48236eb823417d0efee8b388fa60", "fusion_lon": 0.0}, {"rental_uris": {"ios": "https://dc.lft.to/lastmile_qr_scan", "android": "https://dc.lft.to/lastmile_qr_scan"}, "type": "electric_scooter", "name": "f577218024428f3cc7b94c4fc6aced49", "is_reserved": 0, "lon": -77.01981183333334, "is_disabled": 0, "fusion_lat": 0.0, "lat": 38.88718033333333, "bike_id": "f577218024428f3cc7b94c4fc6aced49", "fusion_lon": 0.0}, {"rental_uris": {"ios": "https://dc.lft.to/lastmile_qr_scan", "android": "https://dc.lft.to/lastmile_qr_scan"}, "type": "electric_scooter", "name": "f1736807ff0bb280c8d04da2aa69fac1", "is_reserved": 0, "lon": -77.0339025, "is_disabled": 0, "fusion_lat": 0.0, "lat": 38.89924766666667, "bike_id": "f1736807ff0bb280c8d04da2aa69fac1", "fusion_lon": 0.0}, {"rental_uris": {"ios": "https://dc.lft.to/lastmile_qr_scan", "android": "https://dc.lft.to/lastmile_qr_scan"}, "type": "electric_scooter", "name": "c604481a67e3c83b769f523e8aec285a", "is_reserved": 0, "lon": -77.03441183333334, "is_disabled": 0, "fusion_lat": 0.0, "lat": 38.918001333333336, "bike_id": "c604481a67e3c83b769f523e8aec285a", "fusion_lon": 0.0}, {"rental_uris": {"ios": "https://dc.lft.to/lastmile_qr_scan", "android": "https://dc.lft.to/lastmile_qr_scan"}, "type": "electric_scooter", "name": "a3fdb0244e1755ff1928b50ef7144c29", "is_reserved": 0, "lon": -77.02932783333334, "is_disabled": 0, "fusion_lat": 0.0, "lat": 38.90731783333333, "bike_id": "a3fdb0244e1755ff1928b50ef7144c29", "fusion_lon": 0.0}, {"rental_uris": {"ios": "https://dc.lft.to/lastmile_qr_scan", "android": "https://dc.lft.to/lastmile_qr_scan"}, "type": "electric_bike", "name": "2539cd28acc6434dc2f46cebd4229ae9", "is_reserved": 0, "lon": -77.05517016666667, "is_disabled": 0, "fusion_lat": 0.0, "lat": 38.944081, "bike_id": "2539cd28acc6434dc2f46cebd4229ae9", "fusion_lon": 0.0}, {"rental_uris": {"ios": "https://dc.lft.to/lastmile_qr_scan", "android": "https://dc.lft.to/lastmile_qr_scan"}, "type": "electric_scooter", "name": "ca0b690288d91916d2a4a435975c7498", "is_reserved": 0, "lon": -77.03958516666667, "is_disabled": 0, "fusion_lat": 0.0, "lat": 38.89244266666667, "bike_id": "ca0b690288d91916d2a4a435975c7498", "fusion_lon": 0.0}, {"rental_uris": {"ios": "https://dc.lft.to/lastmile_qr_scan", "android": "https://dc.lft.to/lastmile_qr_scan"}, "type": "electric_scooter", "name": "49d2b2928ac1eefa6069492c60ea9364", "is_reserved": 0, "lon": -77.04473766666666, "is_disabled": 0, "fusion_lat": 0.0, "lat": 38.92286766666667, "bike_id": "49d2b2928ac1eefa6069492c60ea9364", "fusion_lon": 0.0}, {"rental_uris": {"ios": "https://dc.lft.to/lastmile_qr_scan", "android": "https://dc.lft.to/lastmile_qr_scan"}, "type": "electric_scooter", "name": "44db9dc2e7e87ac2acd7e338767c656e", "is_reserved": 0, "lon": -77.066098, "is_disabled": 0, "fusion_lat": 0.0, "lat": 38.911082666666665, "bike_id": "44db9dc2e7e87ac2acd7e338767c656e", "fusion_lon": 0.0}, {"rental_uris": {"ios": "https://dc.lft.to/lastmile_qr_scan", "android": "https://dc.lft.to/lastmile_qr_scan"}, "type": "electric_scooter", "name": "160756157e7c94cbea0e6ab1d816888f", "is_reserved": 0, "lon": -77.02358133333334, "is_disabled": 0, "fusion_lat": 0.0, "lat": 38.92505083333333, "bike_id": "160756157e7c94cbea0e6ab1d816888f", "fusion_lon": 0.0}, {"rental_uris": {"ios": "https://dc.lft.to/lastmile_qr_scan", "android": "https://dc.lft.to/lastmile_qr_scan"}, "type": "electric_scooter", "name": "499319af01571626f3c93a889780d7b9", "is_reserved": 0, "lon": -77.02778216666667, "is_disabled": 0, "fusion_lat": 0.0, "lat": 38.962414833333334, "bike_id": "499319af01571626f3c93a889780d7b9", "fusion_lon": 0.0}, {"rental_uris": {"ios": "https://dc.lft.to/lastmile_qr_scan", "android": "https://dc.lft.to/lastmile_qr_scan"}, "type": "electric_scooter", "name": "5a2aa0627dc22bf707cf223a55d06e0a", "is_reserved": 0, "lon": -77.00380066666666, "is_disabled": 0, "fusion_lat": 0.0, "lat": 38.9406415, "bike_id": "5a2aa0627dc22bf707cf223a55d06e0a", "fusion_lon": 0.0}, {"rental_uris": {"ios": "https://dc.lft.to/lastmile_qr_scan", "android": "https://dc.lft.to/lastmile_qr_scan"}, "type": "electric_bike", "name": "0fdef0591bd14526fa5bca993aaff3cf", "is_reserved": 0, "lon": -76.9991845, "is_disabled": 0, "fusion_lat": 0.0, "lat": 38.99469166666667, "bike_id": "0fdef0591bd14526fa5bca993aaff3cf", "fusion_lon": 0.0}, {"rental_uris": {"ios": "https://dc.lft.to/lastmile_qr_scan", "android": "https://dc.lft.to/lastmile_qr_scan"}, "type": "electric_scooter", "name": "68dfde4e9b3ecfa80286b5443980410e", "is_reserved": 0, "lon": -77.05122833333333, "is_disabled": 0, "fusion_lat": 0.0, "lat": 38.92528316666667, "bike_id": "68dfde4e9b3ecfa80286b5443980410e", "fusion_lon": 0.0}, {"rental_uris": {"ios": "https://dc.lft.to/lastmile_qr_scan", "android": "https://dc.lft.to/lastmile_qr_scan"}, "type": "electric_scooter", "name": "3555a27b9330f7fc70e30bf02f89b0b6", "is_reserved": 0, "lon": -77.0467325, "is_disabled": 0, "fusion_lat": 0.0, "lat": 38.8927855, "bike_id": "3555a27b9330f7fc70e30bf02f89b0b6", "fusion_lon": 0.0}, {"rental_uris": {"ios": "https://dc.lft.to/lastmile_qr_scan", "android": "https://dc.lft.to/lastmile_qr_scan"}, "type": "electric_scooter", "name": "02d406b75e5620f81e48530d3a7b20c5", "is_reserved": 0, "lon": -77.04685516666666, "is_disabled": 0, "fusion_lat": 0.0, "lat": 38.892223666666666, "bike_id": "02d406b75e5620f81e48530d3a7b20c5", "fusion_lon": 0.0}, {"rental_uris": {"ios": "https://dc.lft.to/lastmile_qr_scan", "android": "https://dc.lft.to/lastmile_qr_scan"}, "type": "electric_scooter", "name": "2bd72b047d278e2173eba97ff7f8438d", "is_reserved": 0, "lon": -77.00874383333333, "is_disabled": 0, "fusion_lat": 0.0, "lat": 38.92246183333334, "bike_id": "2bd72b047d278e2173eba97ff7f8438d", "fusion_lon": 0.0}, {"rental_uris": {"ios": "https://dc.lft.to/lastmile_qr_scan", "android": "https://dc.lft.to/lastmile_qr_scan"}, "type": "electric_scooter", "name": "9a45003b0b7cd074f2969d23f3c554c8", "is_reserved": 0, "lon": -77.038375, "is_disabled": 0, "fusion_lat": 0.0, "lat": 38.910419166666664, "bike_id": "9a45003b0b7cd074f2969d23f3c554c8", "fusion_lon": 0.0}, {"rental_uris": {"ios": "https://dc.lft.to/lastmile_qr_scan", "android": "https://dc.lft.to/lastmile_qr_scan"}, "type": "electric_scooter", "name": "669ad8c227797860f2b86035f666ca1a", "is_reserved": 0, "lon": -77.04742466666667, "is_disabled": 0, "fusion_lat": 0.0, "lat": 38.90526883333333, "bike_id": "669ad8c227797860f2b86035f666ca1a", "fusion_lon": 0.0}, {"rental_uris": {"ios": "https://dc.lft.to/lastmile_qr_scan", "android": "https://dc.lft.to/lastmile_qr_scan"}, "type": "electric_scooter", "name": "7ba9c6f8de4d4858333595ca866a5c9e", "is_reserved": 0, "lon": -77.00923483333334, "is_disabled": 0, "fusion_lat": 0.0, "lat": 38.88174083333333, "bike_id": "7ba9c6f8de4d4858333595ca866a5c9e", "fusion_lon": 0.0}, {"rental_uris": {"ios": "https://dc.lft.to/lastmile_qr_scan", "android": "https://dc.lft.to/lastmile_qr_scan"}, "type": "electric_scooter", "name": "5421843ce8c4caa5e9678ea2b3cd1c2e", "is_reserved": 0, "lon": -77.02469133333334, "is_disabled": 0, "fusion_lat": 0.0, "lat": 38.938555666666666, "bike_id": "5421843ce8c4caa5e9678ea2b3cd1c2e", "fusion_lon": 0.0}, {"rental_uris": {"ios": "https://dc.lft.to/lastmile_qr_scan", "android": "https://dc.lft.to/lastmile_qr_scan"}, "type": "electric_scooter", "name": "fbba909f4a6891deff8ed8fb74577a52", "is_reserved": 0, "lon": -77.01900133333334, "is_disabled": 0, "fusion_lat": 0.0, "lat": 38.923457, "bike_id": "fbba909f4a6891deff8ed8fb74577a52", "fusion_lon": 0.0}, {"rental_uris": {"ios": "https://dc.lft.to/lastmile_qr_scan", "android": "https://dc.lft.to/lastmile_qr_scan"}, "type": "electric_bike", "name": "0589b55a0be60ae7820e734960dd37fc", "is_reserved": 0, "lon": -76.97324233333333, "is_disabled": 0, "fusion_lat": 0.0, "lat": 38.85779566666667, "bike_id": "0589b55a0be60ae7820e734960dd37fc", "fusion_lon": 0.0}, {"rental_uris": {"ios": "https://dc.lft.to/lastmile_qr_scan", "android": "https://dc.lft.to/lastmile_qr_scan"}, "type": "electric_scooter", "name": "742afcd7b405e54cc2e9e8f9aa0c1440", "is_reserved": 0, "lon": -77.03173866666667, "is_disabled": 0, "fusion_lat": 0.0, "lat": 38.920071666666665, "bike_id": "742afcd7b405e54cc2e9e8f9aa0c1440", "fusion_lon": 0.0}, {"rental_uris": {"ios": "https://dc.lft.to/lastmile_qr_scan", "android": "https://dc.lft.to/lastmile_qr_scan"}, "type": "electric_scooter", "name": "1ff61d8961711bd3d2ed5c6a9b68f784", "is_reserved": 0, "lon": -77.02388766666667, "is_disabled": 0, "fusion_lat": 0.0, "lat": 38.92701616666667, "bike_id": "1ff61d8961711bd3d2ed5c6a9b68f784", "fusion_lon": 0.0}, {"rental_uris": {"ios": "https://dc.lft.to/lastmile_qr_scan", "android": "https://dc.lft.to/lastmile_qr_scan"}, "type": "electric_scooter", "name": "14ff7284918ba989265e0bb4069ab79d", "is_reserved": 0, "lon": -77.0260215, "is_disabled": 0, "fusion_lat": 0.0, "lat": 38.90580083333333, "bike_id": "14ff7284918ba989265e0bb4069ab79d", "fusion_lon": 0.0}, {"rental_uris": {"ios": "https://dc.lft.to/lastmile_qr_scan", "android": "https://dc.lft.to/lastmile_qr_scan"}, "type": "electric_scooter", "name": "1aff1a8819baeaff753b4ebf5ebe3250", "is_reserved": 0, "lon": -77.03660916666666, "is_disabled": 0, "fusion_lat": 0.0, "lat": 38.91723733333333, "bike_id": "1aff1a8819baeaff753b4ebf5ebe3250", "fusion_lon": 0.0}, {"rental_uris": {"ios": "https://dc.lft.to/lastmile_qr_scan", "android": "https://dc.lft.to/lastmile_qr_scan"}, "type": "electric_scooter", "name": "f2b2e10704c0eff8f2887da7dd120cb3", "is_reserved": 0, "lon": -77.0214915, "is_disabled": 0, "fusion_lat": 0.0, "lat": 38.93221616666666, "bike_id": "f2b2e10704c0eff8f2887da7dd120cb3", "fusion_lon": 0.0}, {"rental_uris": {"ios": "https://dc.lft.to/lastmile_qr_scan", "android": "https://dc.lft.to/lastmile_qr_scan"}, "type": "electric_scooter", "name": "e1a1f8fabee0c3a79538f547c4208a99", "is_reserved": 0, "lon": -77.030491, "is_disabled": 0, "fusion_lat": 0.0, "lat": 38.924840833333334, "bike_id": "e1a1f8fabee0c3a79538f547c4208a99", "fusion_lon": 0.0}, {"rental_uris": {"ios": "https://dc.lft.to/lastmile_qr_scan", "android": "https://dc.lft.to/lastmile_qr_scan"}, "type": "electric_scooter", "name": "07447ea99513eda58e01b71bb3258df4", "is_reserved": 0, "lon": -77.04351266666667, "is_disabled": 0, "fusion_lat": 0.0, "lat": 38.908475, "bike_id": "07447ea99513eda58e01b71bb3258df4", "fusion_lon": 0.0}, {"rental_uris": {"ios": "https://dc.lft.to/lastmile_qr_scan", "android": "https://dc.lft.to/lastmile_qr_scan"}, "type": "electric_bike", "name": "c61f384e34ad0f7f4d85f8dbc0c0a003", "is_reserved": 0, "lon": -76.988411, "is_disabled": 0, "fusion_lat": 0.0, "lat": 38.84275483333333, "bike_id": "c61f384e34ad0f7f4d85f8dbc0c0a003", "fusion_lon": 0.0}, {"rental_uris": {"ios": "https://dc.lft.to/lastmile_qr_scan", "android": "https://dc.lft.to/lastmile_qr_scan"}, "type": "electric_scooter", "name": "5b41fe0601bf7241bcee310064c4d0b2", "is_reserved": 0, "lon": -77.02378933333334, "is_disabled": 0, "fusion_lat": 0.0, "lat": 38.91959966666667, "bike_id": "5b41fe0601bf7241bcee310064c4d0b2", "fusion_lon": 0.0}, {"rental_uris": {"ios": "https://dc.lft.to/lastmile_qr_scan", "android": "https://dc.lft.to/lastmile_qr_scan"}, "type": "electric_scooter", "name": "c495050af6af5084918c2b9df1a34ad9", "is_reserved": 0, "lon": -77.02293816666666, "is_disabled": 0, "fusion_lat": 0.0, "lat": 38.91662683333333, "bike_id": "c495050af6af5084918c2b9df1a34ad9", "fusion_lon": 0.0}, {"rental_uris": {"ios": "https://dc.lft.to/lastmile_qr_scan", "android": "https://dc.lft.to/lastmile_qr_scan"}, "type": "electric_scooter", "name": "99b11a9450f97d83fc1bfd6ac8122d0c", "is_reserved": 0, "lon": -77.03242283333333, "is_disabled": 0, "fusion_lat": 0.0, "lat": 38.90705083333334, "bike_id": "99b11a9450f97d83fc1bfd6ac8122d0c", "fusion_lon": 0.0}, {"rental_uris": {"ios": "https://dc.lft.to/lastmile_qr_scan", "android": "https://dc.lft.to/lastmile_qr_scan"}, "type": "electric_scooter", "name": "bdb18665019598adc7dc89e8b69a5efc", "is_reserved": 0, "lon": -77.03572783333334, "is_disabled": 0, "fusion_lat": 0.0, "lat": 38.927904166666664, "bike_id": "bdb18665019598adc7dc89e8b69a5efc", "fusion_lon": 0.0}, {"rental_uris": {"ios": "https://dc.lft.to/lastmile_qr_scan", "android": "https://dc.lft.to/lastmile_qr_scan"}, "type": "electric_scooter", "name": "c7995d2e0a584626924250b17028062e", "is_reserved": 0, "lon": -77.02463016666667, "is_disabled": 0, "fusion_lat": 0.0, "lat": 38.899883333333335, "bike_id": "c7995d2e0a584626924250b17028062e", "fusion_lon": 0.0}, {"rental_uris": {"ios": "https://dc.lft.to/lastmile_qr_scan", "android": "https://dc.lft.to/lastmile_qr_scan"}, "type": "electric_scooter", "name": "b1c8481d0b4398b9b66b7036bea6adbc", "is_reserved": 0, "lon": -77.04004833333333, "is_disabled": 0, "fusion_lat": 0.0, "lat": 38.91188533333333, "bike_id": "b1c8481d0b4398b9b66b7036bea6adbc", "fusion_lon": 0.0}, {"rental_uris": {"ios": "https://dc.lft.to/lastmile_qr_scan", "android": "https://dc.lft.to/lastmile_qr_scan"}, "type": "electric_scooter", "name": "acc8945897cd80bb7d969140338ffbbe", "is_reserved": 0, "lon": -77.04726283333333, "is_disabled": 0, "fusion_lat": 0.0, "lat": 38.905870666666665, "bike_id": "acc8945897cd80bb7d969140338ffbbe", "fusion_lon": 0.0}, {"rental_uris": {"ios": "https://dc.lft.to/lastmile_qr_scan", "android": "https://dc.lft.to/lastmile_qr_scan"}, "type": "electric_scooter", "name": "970a656611d52869bd2968800a4bda38", "is_reserved": 0, "lon": -77.0212985, "is_disabled": 0, "fusion_lat": 0.0, "lat": 38.926946, "bike_id": "970a656611d52869bd2968800a4bda38", "fusion_lon": 0.0}, {"rental_uris": {"ios": "https://dc.lft.to/lastmile_qr_scan", "android": "https://dc.lft.to/lastmile_qr_scan"}, "type": "electric_scooter", "name": "938eaae2bf37cffeb8d5e2ef4d342b1d", "is_reserved": 0, "lon": -77.032635, "is_disabled": 0, "fusion_lat": 0.0, "lat": 38.92741633333333, "bike_id": "938eaae2bf37cffeb8d5e2ef4d342b1d", "fusion_lon": 0.0}, {"rental_uris": {"ios": "https://dc.lft.to/lastmile_qr_scan", "android": "https://dc.lft.to/lastmile_qr_scan"}, "type": "electric_scooter", "name": "f396a57f40cbcb71179179d9f68a1d2b", "is_reserved": 0, "lon": -77.02378733333333, "is_disabled": 0, "fusion_lat": 0.0, "lat": 38.90958766666667, "bike_id": "f396a57f40cbcb71179179d9f68a1d2b", "fusion_lon": 0.0}, {"rental_uris": {"ios": "https://dc.lft.to/lastmile_qr_scan", "android": "https://dc.lft.to/lastmile_qr_scan"}, "type": "electric_scooter", "name": "714d96ff6b4a72a0395e044c7d999064", "is_reserved": 0, "lon": -77.03076733333333, "is_disabled": 0, "fusion_lat": 0.0, "lat": 38.938761166666666, "bike_id": "714d96ff6b4a72a0395e044c7d999064", "fusion_lon": 0.0}, {"rental_uris": {"ios": "https://dc.lft.to/lastmile_qr_scan", "android": "https://dc.lft.to/lastmile_qr_scan"}, "type": "electric_scooter", "name": "af39cc065072be7c4917d52c852f5305", "is_reserved": 0, "lon": -77.03505166666666, "is_disabled": 0, "fusion_lat": 0.0, "lat": 38.9215385, "bike_id": "af39cc065072be7c4917d52c852f5305", "fusion_lon": 0.0}, {"rental_uris": {"ios": "https://dc.lft.to/lastmile_qr_scan", "android": "https://dc.lft.to/lastmile_qr_scan"}, "type": "electric_scooter", "name": "2ea5c4f405f4df49aaff177c9b5b4c1e", "is_reserved": 0, "lon": -77.022366, "is_disabled": 0, "fusion_lat": 0.0, "lat": 38.9086665, "bike_id": "2ea5c4f405f4df49aaff177c9b5b4c1e", "fusion_lon": 0.0}, {"rental_uris": {"ios": "https://dc.lft.to/lastmile_qr_scan", "android": "https://dc.lft.to/lastmile_qr_scan"}, "type": "electric_scooter", "name": "57a76d371f9977a3568cc673ae40ec3f", "is_reserved": 0, "lon": -77.03677616666667, "is_disabled": 0, "fusion_lat": 0.0, "lat": 38.9391415, "bike_id": "57a76d371f9977a3568cc673ae40ec3f", "fusion_lon": 0.0}, {"rental_uris": {"ios": "https://dc.lft.to/lastmile_qr_scan", "android": "https://dc.lft.to/lastmile_qr_scan"}, "type": "electric_scooter", "name": "89ca29514e225fe7e911eeddd2926db8", "is_reserved": 0, "lon": -77.0431635, "is_disabled": 0, "fusion_lat": 0.0, "lat": 38.922141333333336, "bike_id": "89ca29514e225fe7e911eeddd2926db8", "fusion_lon": 0.0}, {"rental_uris": {"ios": "https://dc.lft.to/lastmile_qr_scan", "android": "https://dc.lft.to/lastmile_qr_scan"}, "type": "electric_scooter", "name": "ea455472bf74d77260f6cf4e8105e8b2", "is_reserved": 0, "lon": -77.0412115, "is_disabled": 0, "fusion_lat": 0.0, "lat": 38.93102716666667, "bike_id": "ea455472bf74d77260f6cf4e8105e8b2", "fusion_lon": 0.0}, {"rental_uris": {"ios": "https://dc.lft.to/lastmile_qr_scan", "android": "https://dc.lft.to/lastmile_qr_scan"}, "type": "electric_scooter", "name": "4f739ea1a046de9986defe5f7273d53b", "is_reserved": 0, "lon": -77.000442, "is_disabled": 0, "fusion_lat": 0.0, "lat": 38.919016, "bike_id": "4f739ea1a046de9986defe5f7273d53b", "fusion_lon": 0.0}, {"rental_uris": {"ios": "https://dc.lft.to/lastmile_qr_scan", "android": "https://dc.lft.to/lastmile_qr_scan"}, "type": "electric_scooter", "name": "d83b9dc8860e96f7cea1c9719eb773a4", "is_reserved": 0, "lon": -76.98084416666667, "is_disabled": 0, "fusion_lat": 0.0, "lat": 38.89438416666667, "bike_id": "d83b9dc8860e96f7cea1c9719eb773a4", "fusion_lon": 0.0}, {"rental_uris": {"ios": "https://dc.lft.to/lastmile_qr_scan", "android": "https://dc.lft.to/lastmile_qr_scan"}, "type": "electric_scooter", "name": "c7867ddcac55dd4b6ed6f09ff6b979d0", "is_reserved": 0, "lon": -77.033628, "is_disabled": 0, "fusion_lat": 0.0, "lat": 38.89984416666667, "bike_id": "c7867ddcac55dd4b6ed6f09ff6b979d0", "fusion_lon": 0.0}, {"rental_uris": {"ios": "https://dc.lft.to/lastmile_qr_scan", "android": "https://dc.lft.to/lastmile_qr_scan"}, "type": "electric_scooter", "name": "ed7ebbc8129bfce5fc6d8996c5b48108", "is_reserved": 0, "lon": -77.01428, "is_disabled": 0, "fusion_lat": 0.0, "lat": 38.9180215, "bike_id": "ed7ebbc8129bfce5fc6d8996c5b48108", "fusion_lon": 0.0}, {"rental_uris": {"ios": "https://dc.lft.to/lastmile_qr_scan", "android": "https://dc.lft.to/lastmile_qr_scan"}, "type": "electric_scooter", "name": "b716dae434652f90f0ce81c826f8237b", "is_reserved": 0, "lon": -77.03402416666667, "is_disabled": 0, "fusion_lat": 0.0, "lat": 38.905661, "bike_id": "b716dae434652f90f0ce81c826f8237b", "fusion_lon": 0.0}, {"rental_uris": {"ios": "https://dc.lft.to/lastmile_qr_scan", "android": "https://dc.lft.to/lastmile_qr_scan"}, "type": "electric_scooter", "name": "cb6553bce15dabf80ca39e9ce1688f2e", "is_reserved": 0, "lon": -77.03637166666667, "is_disabled": 0, "fusion_lat": 0.0, "lat": 38.92813, "bike_id": "cb6553bce15dabf80ca39e9ce1688f2e", "fusion_lon": 0.0}, {"rental_uris": {"ios": "https://dc.lft.to/lastmile_qr_scan", "android": "https://dc.lft.to/lastmile_qr_scan"}, "type": "electric_scooter", "name": "09bae317b48fd14a2f3fffce473cd634", "is_reserved": 0, "lon": -76.98576733333333, "is_disabled": 0, "fusion_lat": 0.0, "lat": 38.85446683333333, "bike_id": "09bae317b48fd14a2f3fffce473cd634", "fusion_lon": 0.0}, {"rental_uris": {"ios": "https://dc.lft.to/lastmile_qr_scan", "android": "https://dc.lft.to/lastmile_qr_scan"}, "type": "electric_scooter", "name": "d545da491df90136f1fddca9a3d08de0", "is_reserved": 0, "lon": -77.03832183333333, "is_disabled": 0, "fusion_lat": 0.0, "lat": 38.91108283333333, "bike_id": "d545da491df90136f1fddca9a3d08de0", "fusion_lon": 0.0}, {"rental_uris": {"ios": "https://dc.lft.to/lastmile_qr_scan", "android": "https://dc.lft.to/lastmile_qr_scan"}, "type": "electric_scooter", "name": "9e188f9061c55ec5780194cacabaa44b", "is_reserved": 0, "lon": -77.02970883333333, "is_disabled": 0, "fusion_lat": 0.0, "lat": 38.90709783333333, "bike_id": "9e188f9061c55ec5780194cacabaa44b", "fusion_lon": 0.0}, {"rental_uris": {"ios": "https://dc.lft.to/lastmile_qr_scan", "android": "https://dc.lft.to/lastmile_qr_scan"}, "type": "electric_scooter", "name": "5b7bf0c6d6fb443432e7dbfb9de51380", "is_reserved": 0, "lon": -77.04318166666667, "is_disabled": 0, "fusion_lat": 0.0, "lat": 38.897371, "bike_id": "5b7bf0c6d6fb443432e7dbfb9de51380", "fusion_lon": 0.0}, {"rental_uris": {"ios": "https://dc.lft.to/lastmile_qr_scan", "android": "https://dc.lft.to/lastmile_qr_scan"}, "type": "electric_scooter", "name": "72beb7d5e82aaeecc6ec6d0e3f202bd9", "is_reserved": 0, "lon": -77.02549, "is_disabled": 0, "fusion_lat": 0.0, "lat": 38.930864166666666, "bike_id": "72beb7d5e82aaeecc6ec6d0e3f202bd9", "fusion_lon": 0.0}, {"rental_uris": {"ios": "https://dc.lft.to/lastmile_qr_scan", "android": "https://dc.lft.to/lastmile_qr_scan"}, "type": "electric_scooter", "name": "7ebc6a6bede7497a7ff1da2f438913d0", "is_reserved": 0, "lon": -77.02510683333334, "is_disabled": 0, "fusion_lat": 0.0, "lat": 38.8973545, "bike_id": "7ebc6a6bede7497a7ff1da2f438913d0", "fusion_lon": 0.0}, {"rental_uris": {"ios": "https://dc.lft.to/lastmile_qr_scan", "android": "https://dc.lft.to/lastmile_qr_scan"}, "type": "electric_scooter", "name": "7a6b18d643eb0957a898e7862d0cf116", "is_reserved": 0, "lon": -77.03321666666666, "is_disabled": 0, "fusion_lat": 0.0, "lat": 38.91805, "bike_id": "7a6b18d643eb0957a898e7862d0cf116", "fusion_lon": 0.0}, {"rental_uris": {"ios": "https://dc.lft.to/lastmile_qr_scan", "android": "https://dc.lft.to/lastmile_qr_scan"}, "type": "electric_scooter", "name": "d79535719d52ed618107ce9cf580fb75", "is_reserved": 0, "lon": -77.05264316666667, "is_disabled": 0, "fusion_lat": 0.0, "lat": 38.92566866666667, "bike_id": "d79535719d52ed618107ce9cf580fb75", "fusion_lon": 0.0}, {"rental_uris": {"ios": "https://dc.lft.to/lastmile_qr_scan", "android": "https://dc.lft.to/lastmile_qr_scan"}, "type": "electric_scooter", "name": "1412167ac854676e69b56ac6eeedd32f", "is_reserved": 0, "lon": -77.03937833333333, "is_disabled": 0, "fusion_lat": 0.0, "lat": 38.901594333333335, "bike_id": "1412167ac854676e69b56ac6eeedd32f", "fusion_lon": 0.0}, {"rental_uris": {"ios": "https://dc.lft.to/lastmile_qr_scan", "android": "https://dc.lft.to/lastmile_qr_scan"}, "type": "electric_scooter", "name": "d7dbb07b2cd0448dd85e478623ed0ae8", "is_reserved": 0, "lon": -77.043275, "is_disabled": 0, "fusion_lat": 0.0, "lat": 38.92616483333333, "bike_id": "d7dbb07b2cd0448dd85e478623ed0ae8", "fusion_lon": 0.0}, {"rental_uris": {"ios": "https://dc.lft.to/lastmile_qr_scan", "android": "https://dc.lft.to/lastmile_qr_scan"}, "type": "electric_scooter", "name": "7368c35159a84a3b67b608b166a1fb21", "is_reserved": 0, "lon": -77.00930533333333, "is_disabled": 0, "fusion_lat": 0.0, "lat": 38.89697266666667, "bike_id": "7368c35159a84a3b67b608b166a1fb21", "fusion_lon": 0.0}, {"rental_uris": {"ios": "https://dc.lft.to/lastmile_qr_scan", "android": "https://dc.lft.to/lastmile_qr_scan"}, "type": "electric_scooter", "name": "d4fae6e00e0438b8263e1ef3d7bf66e4", "is_reserved": 0, "lon": -77.04765166666667, "is_disabled": 0, "fusion_lat": 0.0, "lat": 38.918650166666666, "bike_id": "d4fae6e00e0438b8263e1ef3d7bf66e4", "fusion_lon": 0.0}, {"rental_uris": {"ios": "https://dc.lft.to/lastmile_qr_scan", "android": "https://dc.lft.to/lastmile_qr_scan"}, "type": "electric_scooter", "name": "c57e7fdf1bd3e15d8aa558b5c718d6dd", "is_reserved": 0, "lon": -77.0197875, "is_disabled": 0, "fusion_lat": 0.0, "lat": 38.952136833333334, "bike_id": "c57e7fdf1bd3e15d8aa558b5c718d6dd", "fusion_lon": 0.0}, {"rental_uris": {"ios": "https://dc.lft.to/lastmile_qr_scan", "android": "https://dc.lft.to/lastmile_qr_scan"}, "type": "electric_scooter", "name": "18aad5a3b36a1593d6a1d2e01d84f295", "is_reserved": 0, "lon": -77.0467045, "is_disabled": 0, "fusion_lat": 0.0, "lat": 38.892377, "bike_id": "18aad5a3b36a1593d6a1d2e01d84f295", "fusion_lon": 0.0}, {"rental_uris": {"ios": "https://dc.lft.to/lastmile_qr_scan", "android": "https://dc.lft.to/lastmile_qr_scan"}, "type": "electric_scooter", "name": "82bc48373815bfa6b72610abb2fdc34f", "is_reserved": 0, "lon": -77.01985416666666, "is_disabled": 0, "fusion_lat": 0.0, "lat": 38.90154233333333, "bike_id": "82bc48373815bfa6b72610abb2fdc34f", "fusion_lon": 0.0}, {"rental_uris": {"ios": "https://dc.lft.to/lastmile_qr_scan", "android": "https://dc.lft.to/lastmile_qr_scan"}, "type": "electric_scooter", "name": "cb6a86c3b981932754c19cc587009b72", "is_reserved": 0, "lon": -77.0165765, "is_disabled": 0, "fusion_lat": 0.0, "lat": 38.881122833333336, "bike_id": "cb6a86c3b981932754c19cc587009b72", "fusion_lon": 0.0}, {"rental_uris": {"ios": "https://dc.lft.to/lastmile_qr_scan", "android": "https://dc.lft.to/lastmile_qr_scan"}, "type": "electric_scooter", "name": "c4ae3f9186507264524610556e366b1c", "is_reserved": 0, "lon": -77.0373155, "is_disabled": 0, "fusion_lat": 0.0, "lat": 38.928827166666665, "bike_id": "c4ae3f9186507264524610556e366b1c", "fusion_lon": 0.0}, {"rental_uris": {"ios": "https://dc.lft.to/lastmile_qr_scan", "android": "https://dc.lft.to/lastmile_qr_scan"}, "type": "electric_scooter", "name": "b99a9dd523726e60087ed1cec2fd05e8", "is_reserved": 0, "lon": -77.0655315, "is_disabled": 0, "fusion_lat": 0.0, "lat": 38.905074166666665, "bike_id": "b99a9dd523726e60087ed1cec2fd05e8", "fusion_lon": 0.0}, {"rental_uris": {"ios": "https://dc.lft.to/lastmile_qr_scan", "android": "https://dc.lft.to/lastmile_qr_scan"}, "type": "electric_scooter", "name": "7a1cdb7bef2c818825896972f0f8224c", "is_reserved": 0, "lon": -76.92654483333334, "is_disabled": 0, "fusion_lat": 0.0, "lat": 38.883815166666665, "bike_id": "7a1cdb7bef2c818825896972f0f8224c", "fusion_lon": 0.0}, {"rental_uris": {"ios": "https://dc.lft.to/lastmile_qr_scan", "android": "https://dc.lft.to/lastmile_qr_scan"}, "type": "electric_scooter", "name": "da828180b93eb5cb6871c42bd4e0beca", "is_reserved": 0, "lon": -77.05017533333333, "is_disabled": 0, "fusion_lat": 0.0, "lat": 38.9105275, "bike_id": "da828180b93eb5cb6871c42bd4e0beca", "fusion_lon": 0.0}, {"rental_uris": {"ios": "https://dc.lft.to/lastmile_qr_scan", "android": "https://dc.lft.to/lastmile_qr_scan"}, "type": "electric_scooter", "name": "ffa4966ac13bc44950503fd9ac6d533b", "is_reserved": 0, "lon": -77.04426416666666, "is_disabled": 0, "fusion_lat": 0.0, "lat": 38.926039333333335, "bike_id": "ffa4966ac13bc44950503fd9ac6d533b", "fusion_lon": 0.0}, {"rental_uris": {"ios": "https://dc.lft.to/lastmile_qr_scan", "android": "https://dc.lft.to/lastmile_qr_scan"}, "type": "electric_scooter", "name": "19f031c9333fb02539d9086c5775cc44", "is_reserved": 0, "lon": -77.037608, "is_disabled": 0, "fusion_lat": 0.0, "lat": 38.92917166666667, "bike_id": "19f031c9333fb02539d9086c5775cc44", "fusion_lon": 0.0}, {"rental_uris": {"ios": "https://dc.lft.to/lastmile_qr_scan", "android": "https://dc.lft.to/lastmile_qr_scan"}, "type": "electric_scooter", "name": "afaa1a431ebeec159a44e45fcede9f15", "is_reserved": 0, "lon": -77.04471366666667, "is_disabled": 0, "fusion_lat": 0.0, "lat": 38.9079445, "bike_id": "afaa1a431ebeec159a44e45fcede9f15", "fusion_lon": 0.0}, {"rental_uris": {"ios": "https://dc.lft.to/lastmile_qr_scan", "android": "https://dc.lft.to/lastmile_qr_scan"}, "type": "electric_scooter", "name": "fea7f257907421dad98a0affff0fb083", "is_reserved": 0, "lon": -77.02337916666667, "is_disabled": 0, "fusion_lat": 0.0, "lat": 38.9270555, "bike_id": "fea7f257907421dad98a0affff0fb083", "fusion_lon": 0.0}, {"rental_uris": {"ios": "https://dc.lft.to/lastmile_qr_scan", "android": "https://dc.lft.to/lastmile_qr_scan"}, "type": "electric_scooter", "name": "6527f53978c7fe24784d568edbe722b1", "is_reserved": 0, "lon": -77.07462183333334, "is_disabled": 0, "fusion_lat": 0.0, "lat": 38.92079416666667, "bike_id": "6527f53978c7fe24784d568edbe722b1", "fusion_lon": 0.0}, {"rental_uris": {"ios": "https://dc.lft.to/lastmile_qr_scan", "android": "https://dc.lft.to/lastmile_qr_scan"}, "type": "electric_scooter", "name": "543a21167b3a43749c05c2a3d22e07ec", "is_reserved": 0, "lon": -76.98538266666667, "is_disabled": 0, "fusion_lat": 0.0, "lat": 38.90953016666667, "bike_id": "543a21167b3a43749c05c2a3d22e07ec", "fusion_lon": 0.0}, {"rental_uris": {"ios": "https://dc.lft.to/lastmile_qr_scan", "android": "https://dc.lft.to/lastmile_qr_scan"}, "type": "electric_scooter", "name": "f42000749bb68e605062b2555276f7dc", "is_reserved": 0, "lon": -77.02300783333334, "is_disabled": 0, "fusion_lat": 0.0, "lat": 38.910558, "bike_id": "f42000749bb68e605062b2555276f7dc", "fusion_lon": 0.0}, {"rental_uris": {"ios": "https://dc.lft.to/lastmile_qr_scan", "android": "https://dc.lft.to/lastmile_qr_scan"}, "type": "electric_scooter", "name": "df1be0384392bc2dcd0e716f922f81fe", "is_reserved": 0, "lon": -77.028419, "is_disabled": 0, "fusion_lat": 0.0, "lat": 38.934414833333335, "bike_id": "df1be0384392bc2dcd0e716f922f81fe", "fusion_lon": 0.0}, {"rental_uris": {"ios": "https://dc.lft.to/lastmile_qr_scan", "android": "https://dc.lft.to/lastmile_qr_scan"}, "type": "electric_scooter", "name": "43d08a5e05aedb3cab0c24b99bd35a7c", "is_reserved": 0, "lon": -76.985535, "is_disabled": 0, "fusion_lat": 0.0, "lat": 38.889942833333336, "bike_id": "43d08a5e05aedb3cab0c24b99bd35a7c", "fusion_lon": 0.0}, {"rental_uris": {"ios": "https://dc.lft.to/lastmile_qr_scan", "android": "https://dc.lft.to/lastmile_qr_scan"}, "type": "electric_scooter", "name": "93ee9c57f6ca30be020b627d03226fc3", "is_reserved": 0, "lon": -76.98445416666667, "is_disabled": 0, "fusion_lat": 0.0, "lat": 38.914584, "bike_id": "93ee9c57f6ca30be020b627d03226fc3", "fusion_lon": 0.0}, {"rental_uris": {"ios": "https://dc.lft.to/lastmile_qr_scan", "android": "https://dc.lft.to/lastmile_qr_scan"}, "type": "electric_scooter", "name": "a707ab7191201f83a05e30ad192a7dba", "is_reserved": 0, "lon": -77.04214633333333, "is_disabled": 0, "fusion_lat": 0.0, "lat": 38.92398083333333, "bike_id": "a707ab7191201f83a05e30ad192a7dba", "fusion_lon": 0.0}, {"rental_uris": {"ios": "https://dc.lft.to/lastmile_qr_scan", "android": "https://dc.lft.to/lastmile_qr_scan"}, "type": "electric_scooter", "name": "13339e59b5a2a3b01324bab962506356", "is_reserved": 0, "lon": -77.05325933333333, "is_disabled": 0, "fusion_lat": 0.0, "lat": 38.9073075, "bike_id": "13339e59b5a2a3b01324bab962506356", "fusion_lon": 0.0}, {"rental_uris": {"ios": "https://dc.lft.to/lastmile_qr_scan", "android": "https://dc.lft.to/lastmile_qr_scan"}, "type": "electric_scooter", "name": "b8cf73996f18b348d8721bb4885fe505", "is_reserved": 0, "lon": -77.0392145, "is_disabled": 0, "fusion_lat": 0.0, "lat": 38.90805266666667, "bike_id": "b8cf73996f18b348d8721bb4885fe505", "fusion_lon": 0.0}, {"rental_uris": {"ios": "https://dc.lft.to/lastmile_qr_scan", "android": "https://dc.lft.to/lastmile_qr_scan"}, "type": "electric_scooter", "name": "460b916daf178387e649ee3e5c7ac80d", "is_reserved": 0, "lon": -77.0081795, "is_disabled": 0, "fusion_lat": 0.0, "lat": 38.8765595, "bike_id": "460b916daf178387e649ee3e5c7ac80d", "fusion_lon": 0.0}, {"rental_uris": {"ios": "https://dc.lft.to/lastmile_qr_scan", "android": "https://dc.lft.to/lastmile_qr_scan"}, "type": "electric_scooter", "name": "495b4b0c181a2e3c876d5dbafbb90ba4", "is_reserved": 0, "lon": -77.048012, "is_disabled": 0, "fusion_lat": 0.0, "lat": 38.892225833333335, "bike_id": "495b4b0c181a2e3c876d5dbafbb90ba4", "fusion_lon": 0.0}, {"rental_uris": {"ios": "https://dc.lft.to/lastmile_qr_scan", "android": "https://dc.lft.to/lastmile_qr_scan"}, "type": "electric_scooter", "name": "679e12390d6c4ad9ac64de6204027ef2", "is_reserved": 0, "lon": -77.0386085, "is_disabled": 0, "fusion_lat": 0.0, "lat": 38.911789666666664, "bike_id": "679e12390d6c4ad9ac64de6204027ef2", "fusion_lon": 0.0}, {"rental_uris": {"ios": "https://dc.lft.to/lastmile_qr_scan", "android": "https://dc.lft.to/lastmile_qr_scan"}, "type": "electric_scooter", "name": "5a0bb48625d5d9ce95ffc8adf4258bac", "is_reserved": 0, "lon": -76.92828266666666, "is_disabled": 0, "fusion_lat": 0.0, "lat": 38.90179933333334, "bike_id": "5a0bb48625d5d9ce95ffc8adf4258bac", "fusion_lon": 0.0}, {"rental_uris": {"ios": "https://dc.lft.to/lastmile_qr_scan", "android": "https://dc.lft.to/lastmile_qr_scan"}, "type": "electric_scooter", "name": "d52e1c87ae25ef690ca942fb44399ce7", "is_reserved": 0, "lon": -77.04627883333333, "is_disabled": 0, "fusion_lat": 0.0, "lat": 38.897442833333336, "bike_id": "d52e1c87ae25ef690ca942fb44399ce7", "fusion_lon": 0.0}, {"rental_uris": {"ios": "https://dc.lft.to/lastmile_qr_scan", "android": "https://dc.lft.to/lastmile_qr_scan"}, "type": "electric_scooter", "name": "e73daa5fd927a832e977d136c15d3623", "is_reserved": 0, "lon": -76.94753416666667, "is_disabled": 0, "fusion_lat": 0.0, "lat": 38.89359833333334, "bike_id": "e73daa5fd927a832e977d136c15d3623", "fusion_lon": 0.0}, {"rental_uris": {"ios": "https://dc.lft.to/lastmile_qr_scan", "android": "https://dc.lft.to/lastmile_qr_scan"}, "type": "electric_bike", "name": "62904bb9a822c70b7be04b99aa89d06b", "is_reserved": 0, "lon": -76.99583266666667, "is_disabled": 0, "fusion_lat": 0.0, "lat": 38.8622325, "bike_id": "62904bb9a822c70b7be04b99aa89d06b", "fusion_lon": 0.0}, {"rental_uris": {"ios": "https://dc.lft.to/lastmile_qr_scan", "android": "https://dc.lft.to/lastmile_qr_scan"}, "type": "electric_scooter", "name": "a86dd4031ae0f34bd9d953675e9416d4", "is_reserved": 0, "lon": -77.03072383333334, "is_disabled": 0, "fusion_lat": 0.0, "lat": 38.92253, "bike_id": "a86dd4031ae0f34bd9d953675e9416d4", "fusion_lon": 0.0}, {"rental_uris": {"ios": "https://dc.lft.to/lastmile_qr_scan", "android": "https://dc.lft.to/lastmile_qr_scan"}, "type": "electric_scooter", "name": "fd4b57ae093af582e5a840add01b7257", "is_reserved": 0, "lon": -77.022867, "is_disabled": 0, "fusion_lat": 0.0, "lat": 38.89979, "bike_id": "fd4b57ae093af582e5a840add01b7257", "fusion_lon": 0.0}, {"rental_uris": {"ios": "https://dc.lft.to/lastmile_qr_scan", "android": "https://dc.lft.to/lastmile_qr_scan"}, "type": "electric_scooter", "name": "c9be4c2d31c341dfa1f95d16caadc8f5", "is_reserved": 0, "lon": -77.063753, "is_disabled": 0, "fusion_lat": 0.0, "lat": 38.935595666666664, "bike_id": "c9be4c2d31c341dfa1f95d16caadc8f5", "fusion_lon": 0.0}, {"rental_uris": {"ios": "https://dc.lft.to/lastmile_qr_scan", "android": "https://dc.lft.to/lastmile_qr_scan"}, "type": "electric_scooter", "name": "1e1b311205fc9229a8064926894b1cb3", "is_reserved": 0, "lon": -77.0213055, "is_disabled": 0, "fusion_lat": 0.0, "lat": 38.932813, "bike_id": "1e1b311205fc9229a8064926894b1cb3", "fusion_lon": 0.0}, {"rental_uris": {"ios": "https://dc.lft.to/lastmile_qr_scan", "android": "https://dc.lft.to/lastmile_qr_scan"}, "type": "electric_bike", "name": "8b8b0c7e592a95a76fcd2d3307e2e2a7", "is_reserved": 0, "lon": -77.1264895, "is_disabled": 0, "fusion_lat": 0.0, "lat": 38.819079, "bike_id": "8b8b0c7e592a95a76fcd2d3307e2e2a7", "fusion_lon": 0.0}, {"rental_uris": {"ios": "https://dc.lft.to/lastmile_qr_scan", "android": "https://dc.lft.to/lastmile_qr_scan"}, "type": "electric_scooter", "name": "a575931ffc9882ad1069aa358fceedb6", "is_reserved": 0, "lon": -77.04144183333334, "is_disabled": 0, "fusion_lat": 0.0, "lat": 38.92295883333333, "bike_id": "a575931ffc9882ad1069aa358fceedb6", "fusion_lon": 0.0}, {"rental_uris": {"ios": "https://dc.lft.to/lastmile_qr_scan", "android": "https://dc.lft.to/lastmile_qr_scan"}, "type": "electric_scooter", "name": "38acec935d3418871d002441815135c0", "is_reserved": 0, "lon": -77.0488695, "is_disabled": 0, "fusion_lat": 0.0, "lat": 38.9049135, "bike_id": "38acec935d3418871d002441815135c0", "fusion_lon": 0.0}, {"rental_uris": {"ios": "https://dc.lft.to/lastmile_qr_scan", "android": "https://dc.lft.to/lastmile_qr_scan"}, "type": "electric_scooter", "name": "d7d5f6b95ee0f0345421fda5c25c86f4", "is_reserved": 0, "lon": -77.038541, "is_disabled": 0, "fusion_lat": 0.0, "lat": 38.91279766666667, "bike_id": "d7d5f6b95ee0f0345421fda5c25c86f4", "fusion_lon": 0.0}, {"rental_uris": {"ios": "https://dc.lft.to/lastmile_qr_scan", "android": "https://dc.lft.to/lastmile_qr_scan"}, "type": "electric_scooter", "name": "d36621f2b91e138d51fe770ff96b5271", "is_reserved": 0, "lon": -77.01218433333334, "is_disabled": 0, "fusion_lat": 0.0, "lat": 38.914976, "bike_id": "d36621f2b91e138d51fe770ff96b5271", "fusion_lon": 0.0}, {"rental_uris": {"ios": "https://dc.lft.to/lastmile_qr_scan", "android": "https://dc.lft.to/lastmile_qr_scan"}, "type": "electric_scooter", "name": "242e8ccd2bd4dcb0ec119164cd92b798", "is_reserved": 0, "lon": -76.95277283333333, "is_disabled": 0, "fusion_lat": 0.0, "lat": 38.89192833333333, "bike_id": "242e8ccd2bd4dcb0ec119164cd92b798", "fusion_lon": 0.0}, {"rental_uris": {"ios": "https://dc.lft.to/lastmile_qr_scan", "android": "https://dc.lft.to/lastmile_qr_scan"}, "type": "electric_scooter", "name": "a30b86769abec78919a8d950daffe7fc", "is_reserved": 0, "lon": -77.03437666666666, "is_disabled": 0, "fusion_lat": 0.0, "lat": 38.91802033333333, "bike_id": "a30b86769abec78919a8d950daffe7fc", "fusion_lon": 0.0}, {"rental_uris": {"ios": "https://dc.lft.to/lastmile_qr_scan", "android": "https://dc.lft.to/lastmile_qr_scan"}, "type": "electric_bike", "name": "b8c1a884cb50746370792c499a06655c", "is_reserved": 0, "lon": -76.9967685, "is_disabled": 0, "fusion_lat": 0.0, "lat": 38.83817, "bike_id": "b8c1a884cb50746370792c499a06655c", "fusion_lon": 0.0}, {"rental_uris": {"ios": "https://dc.lft.to/lastmile_qr_scan", "android": "https://dc.lft.to/lastmile_qr_scan"}, "type": "electric_scooter", "name": "0083dac1ea697ec410206ab6650cd6da", "is_reserved": 0, "lon": -77.0421395, "is_disabled": 0, "fusion_lat": 0.0, "lat": 38.925132166666664, "bike_id": "0083dac1ea697ec410206ab6650cd6da", "fusion_lon": 0.0}, {"rental_uris": {"ios": "https://dc.lft.to/lastmile_qr_scan", "android": "https://dc.lft.to/lastmile_qr_scan"}, "type": "electric_scooter", "name": "7573c5f309a53455fcd2ea431d8c5af3", "is_reserved": 0, "lon": -77.02690316666667, "is_disabled": 0, "fusion_lat": 0.0, "lat": 38.94981, "bike_id": "7573c5f309a53455fcd2ea431d8c5af3", "fusion_lon": 0.0}, {"rental_uris": {"ios": "https://dc.lft.to/lastmile_qr_scan", "android": "https://dc.lft.to/lastmile_qr_scan"}, "type": "electric_bike", "name": "9d9ff534b70d394521c24f183b5c3442", "is_reserved": 0, "lon": -77.01223416666667, "is_disabled": 0, "fusion_lat": 0.0, "lat": 38.95080383333333, "bike_id": "9d9ff534b70d394521c24f183b5c3442", "fusion_lon": 0.0}, {"rental_uris": {"ios": "https://dc.lft.to/lastmile_qr_scan", "android": "https://dc.lft.to/lastmile_qr_scan"}, "type": "electric_scooter", "name": "9d89765d8997d6f37df5ededb5cf2388", "is_reserved": 0, "lon": -76.934275, "is_disabled": 0, "fusion_lat": 0.0, "lat": 38.893438333333336, "bike_id": "9d89765d8997d6f37df5ededb5cf2388", "fusion_lon": 0.0}, {"rental_uris": {"ios": "https://dc.lft.to/lastmile_qr_scan", "android": "https://dc.lft.to/lastmile_qr_scan"}, "type": "electric_scooter", "name": "df716a904706b4c60e1ec6740ccf6cb1", "is_reserved": 0, "lon": -77.0318765, "is_disabled": 0, "fusion_lat": 0.0, "lat": 38.921212, "bike_id": "df716a904706b4c60e1ec6740ccf6cb1", "fusion_lon": 0.0}, {"rental_uris": {"ios": "https://dc.lft.to/lastmile_qr_scan", "android": "https://dc.lft.to/lastmile_qr_scan"}, "type": "electric_scooter", "name": "3f2ba93a8acff284c51cd0cf8de0d150", "is_reserved": 0, "lon": -77.00874566666667, "is_disabled": 0, "fusion_lat": 0.0, "lat": 38.897473833333336, "bike_id": "3f2ba93a8acff284c51cd0cf8de0d150", "fusion_lon": 0.0}, {"rental_uris": {"ios": "https://dc.lft.to/lastmile_qr_scan", "android": "https://dc.lft.to/lastmile_qr_scan"}, "type": "electric_scooter", "name": "ba7f0c7506afa842928249aab47f164c", "is_reserved": 0, "lon": -76.93426116666667, "is_disabled": 0, "fusion_lat": 0.0, "lat": 38.8991785, "bike_id": "ba7f0c7506afa842928249aab47f164c", "fusion_lon": 0.0}, {"rental_uris": {"ios": "https://dc.lft.to/lastmile_qr_scan", "android": "https://dc.lft.to/lastmile_qr_scan"}, "type": "electric_scooter", "name": "bbbfb8b4130879dba0534cabfa0634e2", "is_reserved": 0, "lon": -76.99493983333333, "is_disabled": 0, "fusion_lat": 0.0, "lat": 38.862205333333335, "bike_id": "bbbfb8b4130879dba0534cabfa0634e2", "fusion_lon": 0.0}, {"rental_uris": {"ios": "https://dc.lft.to/lastmile_qr_scan", "android": "https://dc.lft.to/lastmile_qr_scan"}, "type": "electric_scooter", "name": "59e6450de4ae46954f27d13099c7952e", "is_reserved": 0, "lon": -77.0143615, "is_disabled": 0, "fusion_lat": 0.0, "lat": 38.91315433333333, "bike_id": "59e6450de4ae46954f27d13099c7952e", "fusion_lon": 0.0}, {"rental_uris": {"ios": "https://dc.lft.to/lastmile_qr_scan", "android": "https://dc.lft.to/lastmile_qr_scan"}, "type": "electric_scooter", "name": "e150642880a7bb74e7bccaa7e9b95237", "is_reserved": 0, "lon": -76.99912583333334, "is_disabled": 0, "fusion_lat": 0.0, "lat": 38.9245765, "bike_id": "e150642880a7bb74e7bccaa7e9b95237", "fusion_lon": 0.0}, {"rental_uris": {"ios": "https://dc.lft.to/lastmile_qr_scan", "android": "https://dc.lft.to/lastmile_qr_scan"}, "type": "electric_scooter", "name": "f0791b9ee3465bc49595ea7959dd5aa5", "is_reserved": 0, "lon": -77.01862866666667, "is_disabled": 0, "fusion_lat": 0.0, "lat": 38.8946735, "bike_id": "f0791b9ee3465bc49595ea7959dd5aa5", "fusion_lon": 0.0}, {"rental_uris": {"ios": "https://dc.lft.to/lastmile_qr_scan", "android": "https://dc.lft.to/lastmile_qr_scan"}, "type": "electric_bike", "name": "13892dfd7ff3c3aae35f9f98ed31a98c", "is_reserved": 0, "lon": -77.007579, "is_disabled": 0, "fusion_lat": 0.0, "lat": 38.99785966666666, "bike_id": "13892dfd7ff3c3aae35f9f98ed31a98c", "fusion_lon": 0.0}, {"rental_uris": {"ios": "https://dc.lft.to/lastmile_qr_scan", "android": "https://dc.lft.to/lastmile_qr_scan"}, "type": "electric_scooter", "name": "97ca8f7b7002ef4ecf8eb50d506d1239", "is_reserved": 0, "lon": -76.998427, "is_disabled": 0, "fusion_lat": 0.0, "lat": 38.9233745, "bike_id": "97ca8f7b7002ef4ecf8eb50d506d1239", "fusion_lon": 0.0}, {"rental_uris": {"ios": "https://dc.lft.to/lastmile_qr_scan", "android": "https://dc.lft.to/lastmile_qr_scan"}, "type": "electric_scooter", "name": "dbbff95344aae40b9a91007f04902737", "is_reserved": 0, "lon": -77.010391, "is_disabled": 0, "fusion_lat": 0.0, "lat": 38.91107483333333, "bike_id": "dbbff95344aae40b9a91007f04902737", "fusion_lon": 0.0}, {"rental_uris": {"ios": "https://dc.lft.to/lastmile_qr_scan", "android": "https://dc.lft.to/lastmile_qr_scan"}, "type": "electric_scooter", "name": "dc535ef8b39f78bb2d6f01c8503b118f", "is_reserved": 0, "lon": -77.00198216666666, "is_disabled": 0, "fusion_lat": 0.0, "lat": 38.892895833333334, "bike_id": "dc535ef8b39f78bb2d6f01c8503b118f", "fusion_lon": 0.0}, {"rental_uris": {"ios": "https://dc.lft.to/lastmile_qr_scan", "android": "https://dc.lft.to/lastmile_qr_scan"}, "type": "electric_scooter", "name": "8ae39781ef2f4bb23b56dce68442dcd9", "is_reserved": 0, "lon": -77.042449, "is_disabled": 0, "fusion_lat": 0.0, "lat": 38.905669, "bike_id": "8ae39781ef2f4bb23b56dce68442dcd9", "fusion_lon": 0.0}, {"rental_uris": {"ios": "https://dc.lft.to/lastmile_qr_scan", "android": "https://dc.lft.to/lastmile_qr_scan"},