{"data": {"bikes": [{"fusion_lat": 0.0, "name": "55c60a0bac32a408319d0c953da06a4e", "is_disabled": 0, "rental_uris": {"android": "https://dc.lft.to/lastmile_qr_scan", "ios": "https://dc.lft.to/lastmile_qr_scan"}, "fusion_lon": 0.0, "lat": 38.83928616666667, "bike_id": "55c60a0bac32a408319d0c953da06a4e", "type": "electric_bike", "is_reserved": 0, "lon": -77.078998}, {"fusion_lat": 0.0, "name": "2880d368836b4f4a8a33862012f85428", "is_disabled": 0, "rental_uris": {"android": "https://dc.lft.to/lastmile_qr_scan", "ios": "https://dc.lft.to/lastmile_qr_scan"}, "fusion_lon": 0.0, "lat": 38.89513566666667, "bike_id": "2880d368836b4f4a8a33862012f85428", "type": "electric_scooter", "is_reserved": 0, "lon": -76.9995685}, {"fusion_lat": 0.0, "name": "49eb744fb07f1768e3f0f1ae4c2ce81e", "is_disabled": 0, "rental_uris": {"android": "https://dc.lft.to/lastmile_qr_scan", "ios": "https://dc.lft.to/lastmile_qr_scan"}, "fusion_lon": 0.0, "lat": 38.905578, "bike_id": "49eb744fb07f1768e3f0f1ae4c2ce81e", "type": "electric_scooter", "is_reserved": 0, "lon": -77.05805533333333}, {"fusion_lat": 0.0, "name": "bd890eaed88f549ff5a67fee70b16a45", "is_disabled": 0, "rental_uris": {"android": "https://dc.lft.to/lastmile_qr_scan", "ios": "https://dc.lft.to/lastmile_qr_scan"}, "fusion_lon": 0.0, "lat": 38.92620483333334, "bike_id": "bd890eaed88f549ff5a67fee70b16a45", "type": "electric_scooter", "is_reserved": 0, "lon": -77.043386}, {"fusion_lat": 0.0, "name": "a10d4a5b72b7bd0246feaa869baa8995", "is_disabled": 0, "rental_uris": {"android": "https://dc.lft.to/lastmile_qr_scan", "ios": "https://dc.lft.to/lastmile_qr_scan"}, "fusion_lon": 0.0, "lat": 38.906482833333335, "bike_id": "a10d4a5b72b7bd0246feaa869baa8995", "type": "electric_scooter", "is_reserved": 0, "lon": -77.06286933333334}, {"fusion_lat": 0.0, "name": "47775ee89b3ecab3138bcec1ffa8223a", "is_disabled": 0, "rental_uris": {"android": "https://dc.lft.to/lastmile_qr_scan", "ios": "https://dc.lft.to/lastmile_qr_scan"}, "fusion_lon": 0.0, "lat": 38.917141, "bike_id": "47775ee89b3ecab3138bcec1ffa8223a", "type": "electric_scooter", "is_reserved": 0, "lon": -77.0385775}, {"fusion_lat": 0.0, "name": "3434041857e267eae40a783c135ca60c", "is_disabled": 0, "rental_uris": {"android": "https://dc.lft.to/lastmile_qr_scan", "ios": "https://dc.lft.to/lastmile_qr_scan"}, "fusion_lon": 0.0, "lat": 38.91561083333333, "bike_id": "3434041857e267eae40a783c135ca60c", "type": "electric_scooter", "is_reserved": 0, "lon": -77.03252483333333}, {"fusion_lat": 0.0, "name": "9376fae3189c73a8da57f5180236703f", "is_disabled": 0, "rental_uris": {"android": "https://dc.lft.to/lastmile_qr_scan", "ios": "https://dc.lft.to/lastmile_qr_scan"}, "fusion_lon": 0.0, "lat": 38.94206283333333, "bike_id": "9376fae3189c73a8da57f5180236703f", "type": "electric_scooter", "is_reserved": 0, "lon": -77.02597266666666}, {"fusion_lat": 0.0, "name": "0fbfc7857ccc08da8c19e4fd4d104574", "is_disabled": 0, "rental_uris": {"android": "https://dc.lft.to/lastmile_qr_scan", "ios": "https://dc.lft.to/lastmile_qr_scan"}, "fusion_lon": 0.0, "lat": 38.917088666666665, "bike_id": "0fbfc7857ccc08da8c19e4fd4d104574", "type": "electric_scooter", "is_reserved": 0, "lon": -77.0417605}, {"fusion_lat": 0.0, "name": "8355f2fe893827c80710508f30018f4f", "is_disabled": 0, "rental_uris": {"android": "https://dc.lft.to/lastmile_qr_scan", "ios": "https://dc.lft.to/lastmile_qr_scan"}, "fusion_lon": 0.0, "lat": 38.872884, "bike_id": "8355f2fe893827c80710508f30018f4f", "type": "electric_scooter", "is_reserved": 0, "lon": -77.00181233333333}, {"fusion_lat": 0.0, "name": "edeee3033c07a45b39932eec9d1f1bb4", "is_disabled": 0, "rental_uris": {"android": "https://dc.lft.to/lastmile_qr_scan", "ios": "https://dc.lft.to/lastmile_qr_scan"}, "fusion_lon": 0.0, "lat": 38.978832, "bike_id": "edeee3033c07a45b39932eec9d1f1bb4", "type": "electric_bike", "is_reserved": 0, "lon": -77.0602585}, {"fusion_lat": 0.0, "name": "f9ceb1ac3141a3a4943a65da29fa9c82", "is_disabled": 0, "rental_uris": {"android": "https://dc.lft.to/lastmile_qr_scan", "ios": "https://dc.lft.to/lastmile_qr_scan"}, "fusion_lon": 0.0, "lat": 38.93081216666667, "bike_id": "f9ceb1ac3141a3a4943a65da29fa9c82", "type": "electric_bike", "is_reserved": 0, "lon": -76.9850155}, {"fusion_lat": 0.0, "name": "5202a057d9aa199965557b1ad45ca571", "is_disabled": 0, "rental_uris": {"android": "https://dc.lft.to/lastmile_qr_scan", "ios": "https://dc.lft.to/lastmile_qr_scan"}, "fusion_lon": 0.0, "lat": 38.919246666666666, "bike_id": "5202a057d9aa199965557b1ad45ca571", "type": "electric_scooter", "is_reserved": 0, "lon": -77.03261666666667}, {"fusion_lat": 0.0, "name": "4c8ab1de6b26fa5c76d60758247b9a78", "is_disabled": 0, "rental_uris": {"android": "https://dc.lft.to/lastmile_qr_scan", "ios": "https://dc.lft.to/lastmile_qr_scan"}, "fusion_lon": 0.0, "lat": 38.89532466666667, "bike_id": "4c8ab1de6b26fa5c76d60758247b9a78", "type": "electric_scooter", "is_reserved": 0, "lon": -77.03060983333333}, {"fusion_lat": 0.0, "name": "4943686ae2c62934a885a609c444a678", "is_disabled": 0, "rental_uris": {"android": "https://dc.lft.to/lastmile_qr_scan", "ios": "https://dc.lft.to/lastmile_qr_scan"}, "fusion_lon": 0.0, "lat": 38.93570733333333, "bike_id": "4943686ae2c62934a885a609c444a678", "type": "electric_scooter", "is_reserved": 0, "lon": -77.058787}, {"fusion_lat": 0.0, "name": "73a8339608c8934fcfb46c7f033c62c8", "is_disabled": 0, "rental_uris": {"android": "https://dc.lft.to/lastmile_qr_scan", "ios": "https://dc.lft.to/lastmile_qr_scan"}, "fusion_lon": 0.0, "lat": 38.844319666666664, "bike_id": "73a8339608c8934fcfb46c7f033c62c8", "type": "electric_scooter", "is_reserved": 0, "lon": -76.997839}, {"fusion_lat": 0.0, "name": "72e5db9390bdd29323e9e24c1e4c2df6", "is_disabled": 0, "rental_uris": {"android": "https://dc.lft.to/lastmile_qr_scan", "ios": "https://dc.lft.to/lastmile_qr_scan"}, "fusion_lon": 0.0, "lat": 38.90747983333333, "bike_id": "72e5db9390bdd29323e9e24c1e4c2df6", "type": "electric_scooter", "is_reserved": 0, "lon": -77.0634635}, {"fusion_lat": 0.0, "name": "35b3c7a947d85346904de5fff61d805f", "is_disabled": 0, "rental_uris": {"android": "https://dc.lft.to/lastmile_qr_scan", "ios": "https://dc.lft.to/lastmile_qr_scan"}, "fusion_lon": 0.0, "lat": 38.882229833333334, "bike_id": "35b3c7a947d85346904de5fff61d805f", "type": "electric_scooter", "is_reserved": 0, "lon": -77.02944816666667}, {"fusion_lat": 0.0, "name": "92693bfb98be96c3cf7f49f5423dafa7", "is_disabled": 0, "rental_uris": {"android": "https://dc.lft.to/lastmile_qr_scan", "ios": "https://dc.lft.to/lastmile_qr_scan"}, "fusion_lon": 0.0, "lat": 38.916618666666665, "bike_id": "92693bfb98be96c3cf7f49f5423dafa7", "type": "electric_scooter", "is_reserved": 0, "lon": -77.038534}, {"fusion_lat": 0.0, "name": "e3062a7e87e42cb6f29445e695a02818", "is_disabled": 0, "rental_uris": {"android": "https://dc.lft.to/lastmile_qr_scan", "ios": "https://dc.lft.to/lastmile_qr_scan"}, "fusion_lon": 0.0, "lat": 38.91819016666667, "bike_id": "e3062a7e87e42cb6f29445e695a02818", "type": "electric_scooter", "is_reserved": 0, "lon": -77.02534016666667}, {"fusion_lat": 0.0, "name": "eb6a84618ea34e32481813e949b8739b", "is_disabled": 0, "rental_uris": {"android": "https://dc.lft.to/lastmile_qr_scan", "ios": "https://dc.lft.to/lastmile_qr_scan"}, "fusion_lon": 0.0, "lat": 38.93538133333333, "bike_id": "eb6a84618ea34e32481813e949b8739b", "type": "electric_scooter", "is_reserved": 0, "lon": -77.03095466666667}, {"fusion_lat": 0.0, "name": "ad17a6d2268ccee0c45a3d0de1c08d7d", "is_disabled": 0, "rental_uris": {"android": "https://dc.lft.to/lastmile_qr_scan", "ios": "https://dc.lft.to/lastmile_qr_scan"}, "fusion_lon": 0.0, "lat": 38.88893866666667, "bike_id": "ad17a6d2268ccee0c45a3d0de1c08d7d", "type": "electric_bike", "is_reserved": 0, "lon": -77.1153265}, {"fusion_lat": 0.0, "name": "8364294fa8983b73b315a510b9a1d8c7", "is_disabled": 0, "rental_uris": {"android": "https://dc.lft.to/lastmile_qr_scan", "ios": "https://dc.lft.to/lastmile_qr_scan"}, "fusion_lon": 0.0, "lat": 38.87655266666667, "bike_id": "8364294fa8983b73b315a510b9a1d8c7", "type": "electric_scooter", "is_reserved": 0, "lon": -77.007529}, {"fusion_lat": 0.0, "name": "3546c634b7c130da8547cf778a61fac0", "is_disabled": 0, "rental_uris": {"android": "https://dc.lft.to/lastmile_qr_scan", "ios": "https://dc.lft.to/lastmile_qr_scan"}, "fusion_lon": 0.0, "lat": 38.917185833333335, "bike_id": "3546c634b7c130da8547cf778a61fac0", "type": "electric_scooter", "is_reserved": 0, "lon": -77.03860866666666}, {"fusion_lat": 0.0, "name": "0c098780e223fb748c090313d5536972", "is_disabled": 0, "rental_uris": {"android": "https://dc.lft.to/lastmile_qr_scan", "ios": "https://dc.lft.to/lastmile_qr_scan"}, "fusion_lon": 0.0, "lat": 38.9341305, "bike_id": "0c098780e223fb748c090313d5536972", "type": "electric_scooter", "is_reserved": 0, "lon": -76.979741}, {"fusion_lat": 0.0, "name": "e394a3826d91f742433a71231f34d192", "is_disabled": 0, "rental_uris": {"android": "https://dc.lft.to/lastmile_qr_scan", "ios": "https://dc.lft.to/lastmile_qr_scan"}, "fusion_lon": 0.0, "lat": 38.925515833333336, "bike_id": "e394a3826d91f742433a71231f34d192", "type": "electric_scooter", "is_reserved": 0, "lon": -77.03547166666667}, {"fusion_lat": 0.0, "name": "d76921b6d0823e56f10f688d13443b85", "is_disabled": 0, "rental_uris": {"android": "https://dc.lft.to/lastmile_qr_scan", "ios": "https://dc.lft.to/lastmile_qr_scan"}, "fusion_lon": 0.0, "lat": 38.95570933333333, "bike_id": "d76921b6d0823e56f10f688d13443b85", "type": "electric_bike", "is_reserved": 0, "lon": -77.010059}, {"fusion_lat": 0.0, "name": "1663381bbe65bbc7af8350facd370cca", "is_disabled": 0, "rental_uris": {"android": "https://dc.lft.to/lastmile_qr_scan", "ios": "https://dc.lft.to/lastmile_qr_scan"}, "fusion_lon": 0.0, "lat": 38.9587425, "bike_id": "1663381bbe65bbc7af8350facd370cca", "type": "electric_bike", "is_reserved": 0, "lon": -76.970662}, {"fusion_lat": 0.0, "name": "7000af38e514ad978c87b2eb166307cb", "is_disabled": 0, "rental_uris": {"android": "https://dc.lft.to/lastmile_qr_scan", "ios": "https://dc.lft.to/lastmile_qr_scan"}, "fusion_lon": 0.0, "lat": 38.930023166666665, "bike_id": "7000af38e514ad978c87b2eb166307cb", "type": "electric_scooter", "is_reserved": 0, "lon": -77.03240133333334}, {"fusion_lat": 0.0, "name": "10eebf259cf9eec8c62d4bf530818582", "is_disabled": 0, "rental_uris": {"android": "https://dc.lft.to/lastmile_qr_scan", "ios": "https://dc.lft.to/lastmile_qr_scan"}, "fusion_lon": 0.0, "lat": 38.930473166666665, "bike_id": "10eebf259cf9eec8c62d4bf530818582", "type": "electric_scooter", "is_reserved": 0, "lon": -77.03267483333333}, {"fusion_lat": 0.0, "name": "46b836f6576336c333e1ffb39dec94db", "is_disabled": 0, "rental_uris": {"android": "https://dc.lft.to/lastmile_qr_scan", "ios": "https://dc.lft.to/lastmile_qr_scan"}, "fusion_lon": 0.0, "lat": 38.932128, "bike_id": "46b836f6576336c333e1ffb39dec94db", "type": "electric_scooter", "is_reserved": 0, "lon": -77.02735266666667}, {"fusion_lat": 0.0, "name": "338418ed35973b70bdc883d8963e7e5f", "is_disabled": 0, "rental_uris": {"android": "https://dc.lft.to/lastmile_qr_scan", "ios": "https://dc.lft.to/lastmile_qr_scan"}, "fusion_lon": 0.0, "lat": 38.9462705, "bike_id": "338418ed35973b70bdc883d8963e7e5f", "type": "electric_scooter", "is_reserved": 0, "lon": -77.0329095}, {"fusion_lat": 0.0, "name": "8b024dfcd2b15e1d2d8f7e042ee9831d", "is_disabled": 0, "rental_uris": {"android": "https://dc.lft.to/lastmile_qr_scan", "ios": "https://dc.lft.to/lastmile_qr_scan"}, "fusion_lon": 0.0, "lat": 38.890175, "bike_id": "8b024dfcd2b15e1d2d8f7e042ee9831d", "type": "electric_scooter", "is_reserved": 0, "lon": -76.937471}, {"fusion_lat": 0.0, "name": "72e61ffdda2eff6c723a604c40f8931c", "is_disabled": 0, "rental_uris": {"android": "https://dc.lft.to/lastmile_qr_scan", "ios": "https://dc.lft.to/lastmile_qr_scan"}, "fusion_lon": 0.0, "lat": 38.908952166666666, "bike_id": "72e61ffdda2eff6c723a604c40f8931c", "type": "electric_scooter", "is_reserved": 0, "lon": -77.0366745}, {"fusion_lat": 0.0, "name": "763a5e52164b493e99292e2402f91e66", "is_disabled": 0, "rental_uris": {"android": "https://dc.lft.to/lastmile_qr_scan", "ios": "https://dc.lft.to/lastmile_qr_scan"}, "fusion_lon": 0.0, "lat": 38.88849366666667, "bike_id": "763a5e52164b493e99292e2402f91e66", "type": "electric_scooter", "is_reserved": 0, "lon": -76.92682483333333}, {"fusion_lat": 0.0, "name": "b06fc76d56757f0018315a6d1ac85fe4", "is_disabled": 0, "rental_uris": {"android": "https://dc.lft.to/lastmile_qr_scan", "ios": "https://dc.lft.to/lastmile_qr_scan"}, "fusion_lon": 0.0, "lat": 38.89495933333333, "bike_id": "b06fc76d56757f0018315a6d1ac85fe4", "type": "electric_scooter", "is_reserved": 0, "lon": -77.02110066666667}, {"fusion_lat": 0.0, "name": "5b457256bc5f811e3a3e8b29218109ca", "is_disabled": 0, "rental_uris": {"android": "https://dc.lft.to/lastmile_qr_scan", "ios": "https://dc.lft.to/lastmile_qr_scan"}, "fusion_lon": 0.0, "lat": 38.90317783333333, "bike_id": "5b457256bc5f811e3a3e8b29218109ca", "type": "electric_scooter", "is_reserved": 0, "lon": -77.02895816666667}, {"fusion_lat": 0.0, "name": "2faa482bcfbdbec09ae33d7ff4aad6d6", "is_disabled": 0, "rental_uris": {"android": "https://dc.lft.to/lastmile_qr_scan", "ios": "https://dc.lft.to/lastmile_qr_scan"}, "fusion_lon": 0.0, "lat": 38.92285066666667, "bike_id": "2faa482bcfbdbec09ae33d7ff4aad6d6", "type": "electric_scooter", "is_reserved": 0, "lon": -76.99790433333334}, {"fusion_lat": 0.0, "name": "20c061b5a2de86cc2f54a65e5d416de6", "is_disabled": 0, "rental_uris": {"android": "https://dc.lft.to/lastmile_qr_scan", "ios": "https://dc.lft.to/lastmile_qr_scan"}, "fusion_lon": 0.0, "lat": 38.909443333333336, "bike_id": "20c061b5a2de86cc2f54a65e5d416de6", "type": "electric_scooter", "is_reserved": 0, "lon": -76.98772333333334}, {"fusion_lat": 0.0, "name": "b3728eb9c69489c36f507a502a5baee5", "is_disabled": 0, "rental_uris": {"android": "https://dc.lft.to/lastmile_qr_scan", "ios": "https://dc.lft.to/lastmile_qr_scan"}, "fusion_lon": 0.0, "lat": 38.89738333333333, "bike_id": "b3728eb9c69489c36f507a502a5baee5", "type": "electric_scooter", "is_reserved": 0, "lon": -77.007578}, {"fusion_lat": 0.0, "name": "27f28e80b9b1ea31c87d96b0bbc6071f", "is_disabled": 0, "rental_uris": {"android": "https://dc.lft.to/lastmile_qr_scan", "ios": "https://dc.lft.to/lastmile_qr_scan"}, "fusion_lon": 0.0, "lat": 38.88491583333333, "bike_id": "27f28e80b9b1ea31c87d96b0bbc6071f", "type": "electric_scooter", "is_reserved": 0, "lon": -77.010857}, {"fusion_lat": 0.0, "name": "ea658999de1ad41c45c67f4a4c3e3504", "is_disabled": 0, "rental_uris": {"android": "https://dc.lft.to/lastmile_qr_scan", "ios": "https://dc.lft.to/lastmile_qr_scan"}, "fusion_lon": 0.0, "lat": 38.819148166666665, "bike_id": "ea658999de1ad41c45c67f4a4c3e3504", "type": "electric_bike", "is_reserved": 0, "lon": -77.0480705}, {"fusion_lat": 0.0, "name": "55041fb67df98ba47cae735d69b1b4cb", "is_disabled": 0, "rental_uris": {"android": "https://dc.lft.to/lastmile_qr_scan", "ios": "https://dc.lft.to/lastmile_qr_scan"}, "fusion_lon": 0.0, "lat": 38.92676216666667, "bike_id": "55041fb67df98ba47cae735d69b1b4cb", "type": "electric_scooter", "is_reserved": 0, "lon": -77.03084966666667}, {"fusion_lat": 0.0, "name": "97f0231eb173b542cca668a931a0d122", "is_disabled": 0, "rental_uris": {"android": "https://dc.lft.to/lastmile_qr_scan", "ios": "https://dc.lft.to/lastmile_qr_scan"}, "fusion_lon": 0.0, "lat": 38.8830185, "bike_id": "97f0231eb173b542cca668a931a0d122", "type": "electric_scooter", "is_reserved": 0, "lon": -76.94859483333333}, {"fusion_lat": 0.0, "name": "adb811cb3f9723c954235eacca63d20b", "is_disabled": 0, "rental_uris": {"android": "https://dc.lft.to/lastmile_qr_scan", "ios": "https://dc.lft.to/lastmile_qr_scan"}, "fusion_lon": 0.0, "lat": 38.912650166666666, "bike_id": "adb811cb3f9723c954235eacca63d20b", "type": "electric_scooter", "is_reserved": 0, "lon": -77.03038266666667}, {"fusion_lat": 0.0, "name": "40d3df81a767e87d75382659c74c9342", "is_disabled": 0, "rental_uris": {"android": "https://dc.lft.to/lastmile_qr_scan", "ios": "https://dc.lft.to/lastmile_qr_scan"}, "fusion_lon": 0.0, "lat": 38.925324833333335, "bike_id": "40d3df81a767e87d75382659c74c9342", "type": "electric_scooter", "is_reserved": 0, "lon": -77.00757333333334}, {"fusion_lat": 0.0, "name": "dc921933a57285e2adcfb3ae2983aa79", "is_disabled": 0, "rental_uris": {"android": "https://dc.lft.to/lastmile_qr_scan", "ios": "https://dc.lft.to/lastmile_qr_scan"}, "fusion_lon": 0.0, "lat": 38.904034333333335, "bike_id": "dc921933a57285e2adcfb3ae2983aa79", "type": "electric_scooter", "is_reserved": 0, "lon": -77.06806633333333}, {"fusion_lat": 0.0, "name": "93c8cedddd8907394c893415e3191809", "is_disabled": 0, "rental_uris": {"android": "https://dc.lft.to/lastmile_qr_scan", "ios": "https://dc.lft.to/lastmile_qr_scan"}, "fusion_lon": 0.0, "lat": 38.80710233333333, "bike_id": "93c8cedddd8907394c893415e3191809", "type": "electric_bike", "is_reserved": 0, "lon": -77.0618065}, {"fusion_lat": 0.0, "name": "57d0c8fa352b3dfd5a040802f08516c0", "is_disabled": 0, "rental_uris": {"android": "https://dc.lft.to/lastmile_qr_scan", "ios": "https://dc.lft.to/lastmile_qr_scan"}, "fusion_lon": 0.0, "lat": 38.81256466666667, "bike_id": "57d0c8fa352b3dfd5a040802f08516c0", "type": "electric_bike", "is_reserved": 0, "lon": -77.117727}, {"fusion_lat": 0.0, "name": "00d07cfcde9b823c00b43368c0467569", "is_disabled": 0, "rental_uris": {"android": "https://dc.lft.to/lastmile_qr_scan", "ios": "https://dc.lft.to/lastmile_qr_scan"}, "fusion_lon": 0.0, "lat": 38.891049333333335, "bike_id": "00d07cfcde9b823c00b43368c0467569", "type": "electric_scooter", "is_reserved": 0, "lon": -76.99627533333333}, {"fusion_lat": 0.0, "name": "4050d2ad9fae35e9e23645a6fe032468", "is_disabled": 0, "rental_uris": {"android": "https://dc.lft.to/lastmile_qr_scan", "ios": "https://dc.lft.to/lastmile_qr_scan"}, "fusion_lon": 0.0, "lat": 38.90736716666667, "bike_id": "4050d2ad9fae35e9e23645a6fe032468", "type": "electric_scooter", "is_reserved": 0, "lon": -76.935596}, {"fusion_lat": 0.0, "name": "0c098368fc0ab5f99e95221331033474", "is_disabled": 0, "rental_uris": {"android": "https://dc.lft.to/lastmile_qr_scan", "ios": "https://dc.lft.to/lastmile_qr_scan"}, "fusion_lon": 0.0, "lat": 38.90664866666667, "bike_id": "0c098368fc0ab5f99e95221331033474", "type": "electric_bike", "is_reserved": 0, "lon": -77.02799233333333}, {"fusion_lat": 0.0, "name": "63060929f5d1e3e395ec14b3d0cbff14", "is_disabled": 0, "rental_uris": {"android": "https://dc.lft.to/lastmile_qr_scan", "ios": "https://dc.lft.to/lastmile_qr_scan"}, "fusion_lon": 0.0, "lat": 38.919326, "bike_id": "63060929f5d1e3e395ec14b3d0cbff14", "type": "electric_scooter", "is_reserved": 0, "lon": -77.02497916666667}, {"fusion_lat": 0.0, "name": "5252ff5215ff4a94d815c332e27fb90b", "is_disabled": 0, "rental_uris": {"android": "https://dc.lft.to/lastmile_qr_scan", "ios": "https://dc.lft.to/lastmile_qr_scan"}, "fusion_lon": 0.0, "lat": 38.921357, "bike_id": "5252ff5215ff4a94d815c332e27fb90b", "type": "electric_scooter", "is_reserved": 0, "lon": -77.04423416666667}, {"fusion_lat": 0.0, "name": "38ff45c3ab254892d01a034efa2a8208", "is_disabled": 0, "rental_uris": {"android": "https://dc.lft.to/lastmile_qr_scan", "ios": "https://dc.lft.to/lastmile_qr_scan"}, "fusion_lon": 0.0, "lat": 38.868307, "bike_id": "38ff45c3ab254892d01a034efa2a8208", "type": "electric_scooter", "is_reserved": 0, "lon": -77.01129533333334}, {"fusion_lat": 0.0, "name": "67ebb5541f26735cf6ecf55da6259c45", "is_disabled": 0, "rental_uris": {"android": "https://dc.lft.to/lastmile_qr_scan", "ios": "https://dc.lft.to/lastmile_qr_scan"}, "fusion_lon": 0.0, "lat": 38.919571166666664, "bike_id": "67ebb5541f26735cf6ecf55da6259c45", "type": "electric_bike", "is_reserved": 0, "lon": -77.1011065}, {"fusion_lat": 0.0, "name": "8e841ad6a77616e94c2f9d21f35a9bbd", "is_disabled": 0, "rental_uris": {"android": "https://dc.lft.to/lastmile_qr_scan", "ios": "https://dc.lft.to/lastmile_qr_scan"}, "fusion_lon": 0.0, "lat": 38.91668116666666, "bike_id": "8e841ad6a77616e94c2f9d21f35a9bbd", "type": "electric_scooter", "is_reserved": 0, "lon": -77.02960416666667}, {"fusion_lat": 0.0, "name": "a124e434dd150cef3056124217f2e0fe", "is_disabled": 0, "rental_uris": {"android": "https://dc.lft.to/lastmile_qr_scan", "ios": "https://dc.lft.to/lastmile_qr_scan"}, "fusion_lon": 0.0, "lat": 38.91705283333334, "bike_id": "a124e434dd150cef3056124217f2e0fe", "type": "electric_scooter", "is_reserved": 0, "lon": -77.03105783333334}, {"fusion_lat": 0.0, "name": "896e40f2e33b7dfe64c2d9280f63e66b", "is_disabled": 0, "rental_uris": {"android": "https://dc.lft.to/lastmile_qr_scan", "ios": "https://dc.lft.to/lastmile_qr_scan"}, "fusion_lon": 0.0, "lat": 38.90277583333334, "bike_id": "896e40f2e33b7dfe64c2d9280f63e66b", "type": "electric_scooter", "is_reserved": 0, "lon": -77.03379366666667}, {"fusion_lat": 0.0, "name": "ba2a84306f62046f91c701d786e8a6fd", "is_disabled": 0, "rental_uris": {"android": "https://dc.lft.to/lastmile_qr_scan", "ios": "https://dc.lft.to/lastmile_qr_scan"}, "fusion_lon": 0.0, "lat": 38.8947265, "bike_id": "ba2a84306f62046f91c701d786e8a6fd", "type": "electric_scooter", "is_reserved": 0, "lon": -77.01050066666667}, {"fusion_lat": 0.0, "name": "4809318e4b8776c30ba71ae09133d100", "is_disabled": 0, "rental_uris": {"android": "https://dc.lft.to/lastmile_qr_scan", "ios": "https://dc.lft.to/lastmile_qr_scan"}, "fusion_lon": 0.0, "lat": 38.833127, "bike_id": "4809318e4b8776c30ba71ae09133d100", "type": "electric_bike", "is_reserved": 0, "lon": -77.041766}, {"fusion_lat": 0.0, "name": "1d5a5e489d5fd61035f95eee0be9bba8", "is_disabled": 0, "rental_uris": {"android": "https://dc.lft.to/lastmile_qr_scan", "ios": "https://dc.lft.to/lastmile_qr_scan"}, "fusion_lon": 0.0, "lat": 38.9186285, "bike_id": "1d5a5e489d5fd61035f95eee0be9bba8", "type": "electric_scooter", "is_reserved": 0, "lon": -77.04159183333333}, {"fusion_lat": 0.0, "name": "8f627d68956599665a0a0b46adbc1467", "is_disabled": 0, "rental_uris": {"android": "https://dc.lft.to/lastmile_qr_scan", "ios": "https://dc.lft.to/lastmile_qr_scan"}, "fusion_lon": 0.0, "lat": 38.9454315, "bike_id": "8f627d68956599665a0a0b46adbc1467", "type": "electric_scooter", "is_reserved": 0, "lon": -77.01692683333333}, {"fusion_lat": 0.0, "name": "d6ee1d6927fc2a96428acdb776bf1727", "is_disabled": 0, "rental_uris": {"android": "https://dc.lft.to/lastmile_qr_scan", "ios": "https://dc.lft.to/lastmile_qr_scan"}, "fusion_lon": 0.0, "lat": 38.91416016666667, "bike_id": "d6ee1d6927fc2a96428acdb776bf1727", "type": "electric_scooter", "is_reserved": 0, "lon": -77.034428}, {"fusion_lat": 0.0, "name": "84af3ce1c02f643c6ae56e963b39100f", "is_disabled": 0, "rental_uris": {"android": "https://dc.lft.to/lastmile_qr_scan", "ios": "https://dc.lft.to/lastmile_qr_scan"}, "fusion_lon": 0.0, "lat": 38.93488216666667, "bike_id": "84af3ce1c02f643c6ae56e963b39100f", "type": "electric_scooter", "is_reserved": 0, "lon": -77.03021633333333}, {"fusion_lat": 0.0, "name": "b04963c313373ff1a0f0438f81d683d2", "is_disabled": 0, "rental_uris": {"android": "https://dc.lft.to/lastmile_qr_scan", "ios": "https://dc.lft.to/lastmile_qr_scan"}, "fusion_lon": 0.0, "lat": 38.97367533333333, "bike_id": "b04963c313373ff1a0f0438f81d683d2", "type": "electric_scooter", "is_reserved": 0, "lon": -77.01854433333334}, {"fusion_lat": 0.0, "name": "d9d902134f75ee3465f3bde9cc743ebf", "is_disabled": 0, "rental_uris": {"android": "https://dc.lft.to/lastmile_qr_scan", "ios": "https://dc.lft.to/lastmile_qr_scan"}, "fusion_lon": 0.0, "lat": 38.9155235, "bike_id": "d9d902134f75ee3465f3bde9cc743ebf", "type": "electric_scooter", "is_reserved": 0, "lon": -77.0317225}, {"fusion_lat": 0.0, "name": "8f7574e34430c584b1f664993a2e57d3", "is_disabled": 0, "rental_uris": {"android": "https://dc.lft.to/lastmile_qr_scan", "ios": "https://dc.lft.to/lastmile_qr_scan"}, "fusion_lon": 0.0, "lat": 38.92381616666667, "bike_id": "8f7574e34430c584b1f664993a2e57d3", "type": "electric_scooter", "is_reserved": 0, "lon": -77.04464633333333}, {"fusion_lat": 0.0, "name": "d1955cc0693d288cc7810dbfc9992f59", "is_disabled": 0, "rental_uris": {"android": "https://dc.lft.to/lastmile_qr_scan", "ios": "https://dc.lft.to/lastmile_qr_scan"}, "fusion_lon": 0.0, "lat": 38.905722, "bike_id": "d1955cc0693d288cc7810dbfc9992f59", "type": "electric_scooter", "is_reserved": 0, "lon": -77.03111733333333}, {"fusion_lat": 0.0, "name": "e9fdcb52da2d2450025986fd8cdf6652", "is_disabled": 0, "rental_uris": {"android": "https://dc.lft.to/lastmile_qr_scan", "ios": "https://dc.lft.to/lastmile_qr_scan"}, "fusion_lon": 0.0, "lat": 38.877820666666665, "bike_id": "e9fdcb52da2d2450025986fd8cdf6652", "type": "electric_scooter", "is_reserved": 0, "lon": -77.00563016666666}, {"fusion_lat": 0.0, "name": "94857fd265fd17c238a4466d93e4e77f", "is_disabled": 0, "rental_uris": {"android": "https://dc.lft.to/lastmile_qr_scan", "ios": "https://dc.lft.to/lastmile_qr_scan"}, "fusion_lon": 0.0, "lat": 38.802951666666665, "bike_id": "94857fd265fd17c238a4466d93e4e77f", "type": "electric_bike", "is_reserved": 0, "lon": -77.05947}, {"fusion_lat": 0.0, "name": "8f10c0d4efcb06954ee7896d82763467", "is_disabled": 0, "rental_uris": {"android": "https://dc.lft.to/lastmile_qr_scan", "ios": "https://dc.lft.to/lastmile_qr_scan"}, "fusion_lon": 0.0, "lat": 38.939329666666666, "bike_id": "8f10c0d4efcb06954ee7896d82763467", "type": "electric_scooter", "is_reserved": 0, "lon": -77.07487416666666}, {"fusion_lat": 0.0, "name": "42a339ade14fd8e48aa3fd7a46cbd495", "is_disabled": 0, "rental_uris": {"android": "https://dc.lft.to/lastmile_qr_scan", "ios": "https://dc.lft.to/lastmile_qr_scan"}, "fusion_lon": 0.0, "lat": 38.902628666666665, "bike_id": "42a339ade14fd8e48aa3fd7a46cbd495", "type": "electric_scooter", "is_reserved": 0, "lon": -77.016558}, {"fusion_lat": 0.0, "name": "dcbbf4d7199275664595919c1f6dc49f", "is_disabled": 0, "rental_uris": {"android": "https://dc.lft.to/lastmile_qr_scan", "ios": "https://dc.lft.to/lastmile_qr_scan"}, "fusion_lon": 0.0, "lat": 38.90416666666667, "bike_id": "dcbbf4d7199275664595919c1f6dc49f", "type": "electric_scooter", "is_reserved": 0, "lon": -77.051393}, {"fusion_lat": 0.0, "name": "f3141c6a637a894229d7fc723c6ea190", "is_disabled": 0, "rental_uris": {"android": "https://dc.lft.to/lastmile_qr_scan", "ios": "https://dc.lft.to/lastmile_qr_scan"}, "fusion_lon": 0.0, "lat": 38.881859166666665, "bike_id": "f3141c6a637a894229d7fc723c6ea190", "type": "electric_scooter", "is_reserved": 0, "lon": -77.00357666666666}, {"fusion_lat": 0.0, "name": "3fa8ba99672394f2b1768c0c4446de97", "is_disabled": 0, "rental_uris": {"android": "https://dc.lft.to/lastmile_qr_scan", "ios": "https://dc.lft.to/lastmile_qr_scan"}, "fusion_lon": 0.0, "lat": 38.92332183333333, "bike_id": "3fa8ba99672394f2b1768c0c4446de97", "type": "electric_scooter", "is_reserved": 0, "lon": -77.025547}, {"fusion_lat": 0.0, "name": "1727ade62b45b669fca4948fb2549416", "is_disabled": 0, "rental_uris": {"android": "https://dc.lft.to/lastmile_qr_scan", "ios": "https://dc.lft.to/lastmile_qr_scan"}, "fusion_lon": 0.0, "lat": 38.90314716666666, "bike_id": "1727ade62b45b669fca4948fb2549416", "type": "electric_scooter", "is_reserved": 0, "lon": -76.97815466666667}, {"fusion_lat": 0.0, "name": "c2bd7c5d9af5e20eef61d0ffb253d6ef", "is_disabled": 0, "rental_uris": {"android": "https://dc.lft.to/lastmile_qr_scan", "ios": "https://dc.lft.to/lastmile_qr_scan"}, "fusion_lon": 0.0, "lat": 38.89979066666667, "bike_id": "c2bd7c5d9af5e20eef61d0ffb253d6ef", "type": "electric_scooter", "is_reserved": 0, "lon": -77.011951}, {"fusion_lat": 0.0, "name": "51825ad684228bbe9383a6e6a00a630e", "is_disabled": 0, "rental_uris": {"android": "https://dc.lft.to/lastmile_qr_scan", "ios": "https://dc.lft.to/lastmile_qr_scan"}, "fusion_lon": 0.0, "lat": 38.894521833333336, "bike_id": "51825ad684228bbe9383a6e6a00a630e", "type": "electric_scooter", "is_reserved": 0, "lon": -77.04549333333334}, {"fusion_lat": 0.0, "name": "5a40730ae6ce4879d2a8ba4c77904e99", "is_disabled": 0, "rental_uris": {"android": "https://dc.lft.to/lastmile_qr_scan", "ios": "https://dc.lft.to/lastmile_qr_scan"}, "fusion_lon": 0.0, "lat": 38.9132865, "bike_id": "5a40730ae6ce4879d2a8ba4c77904e99", "type": "electric_scooter", "is_reserved": 0, "lon": -77.04540533333333}, {"fusion_lat": 0.0, "name": "8848457f124c51314129e7cd205c136b", "is_disabled": 0, "rental_uris": {"android": "https://dc.lft.to/lastmile_qr_scan", "ios": "https://dc.lft.to/lastmile_qr_scan"}, "fusion_lon": 0.0, "lat": 38.891271833333334, "bike_id": "8848457f124c51314129e7cd205c136b", "type": "electric_scooter", "is_reserved": 0, "lon": -76.94384833333334}, {"fusion_lat": 0.0, "name": "43a4193eee1cd37bd440898b5de8c7e2", "is_disabled": 0, "rental_uris": {"android": "https://dc.lft.to/lastmile_qr_scan", "ios": "https://dc.lft.to/lastmile_qr_scan"}, "fusion_lon": 0.0, "lat": 38.9055345, "bike_id": "43a4193eee1cd37bd440898b5de8c7e2", "type": "electric_scooter", "is_reserved": 0, "lon": -77.0465355}, {"fusion_lat": 0.0, "name": "22395bc0ca983e6477d2c1b5cb1a13ac", "is_disabled": 0, "rental_uris": {"android": "https://dc.lft.to/lastmile_qr_scan", "ios": "https://dc.lft.to/lastmile_qr_scan"}, "fusion_lon": 0.0, "lat": 38.9051495, "bike_id": "22395bc0ca983e6477d2c1b5cb1a13ac", "type": "electric_scooter", "is_reserved": 0, "lon": -77.03177033333333}, {"fusion_lat": 0.0, "name": "2ceb690bae12664e1e5b151f8179900b", "is_disabled": 0, "rental_uris": {"android": "https://dc.lft.to/lastmile_qr_scan", "ios": "https://dc.lft.to/lastmile_qr_scan"}, "fusion_lon": 0.0, "lat": 38.904256833333335, "bike_id": "2ceb690bae12664e1e5b151f8179900b", "type": "electric_scooter", "is_reserved": 0, "lon": -77.0188105}, {"fusion_lat": 0.0, "name": "4df87b094d0951f608e39acdf9aab4c2", "is_disabled": 0, "rental_uris": {"android": "https://dc.lft.to/lastmile_qr_scan", "ios": "https://dc.lft.to/lastmile_qr_scan"}, "fusion_lon": 0.0, "lat": 38.86210783333333, "bike_id": "4df87b094d0951f608e39acdf9aab4c2", "type": "electric_scooter", "is_reserved": 0, "lon": -76.994733}, {"fusion_lat": 0.0, "name": "f04b172d903e59e99f51529802b6f903", "is_disabled": 0, "rental_uris": {"android": "https://dc.lft.to/lastmile_qr_scan", "ios": "https://dc.lft.to/lastmile_qr_scan"}, "fusion_lon": 0.0, "lat": 38.924287, "bike_id": "f04b172d903e59e99f51529802b6f903", "type": "electric_scooter", "is_reserved": 0, "lon": -77.04473483333334}, {"fusion_lat": 0.0, "name": "d68e4cb655e9b3e224e9b7d5a6ed0273", "is_disabled": 0, "rental_uris": {"android": "https://dc.lft.to/lastmile_qr_scan", "ios": "https://dc.lft.to/lastmile_qr_scan"}, "fusion_lon": 0.0, "lat": 38.97376116666667, "bike_id": "d68e4cb655e9b3e224e9b7d5a6ed0273", "type": "electric_scooter", "is_reserved": 0, "lon": -77.01285533333333}, {"fusion_lat": 0.0, "name": "a031935012f002dfd01bad4e485e58f7", "is_disabled": 0, "rental_uris": {"android": "https://dc.lft.to/lastmile_qr_scan", "ios": "https://dc.lft.to/lastmile_qr_scan"}, "fusion_lon": 0.0, "lat": 38.897159, "bike_id": "a031935012f002dfd01bad4e485e58f7", "type": "electric_scooter", "is_reserved": 0, "lon": -77.01323983333333}, {"fusion_lat": 0.0, "name": "dbb1df5fc8ae88394d3983355ed28530", "is_disabled": 0, "rental_uris": {"android": "https://dc.lft.to/lastmile_qr_scan", "ios": "https://dc.lft.to/lastmile_qr_scan"}, "fusion_lon": 0.0, "lat": 38.96182666666667, "bike_id": "dbb1df5fc8ae88394d3983355ed28530", "type": "electric_bike", "is_reserved": 0, "lon": -77.052719}, {"fusion_lat": 0.0, "name": "99b32b77e2a1879a41205ec7764f03a7", "is_disabled": 0, "rental_uris": {"android": "https://dc.lft.to/lastmile_qr_scan", "ios": "https://dc.lft.to/lastmile_qr_scan"}, "fusion_lon": 0.0, "lat": 38.912652, "bike_id": "99b32b77e2a1879a41205ec7764f03a7", "type": "electric_scooter", "is_reserved": 0, "lon": -77.03178416666667}, {"fusion_lat": 0.0, "name": "775386e10875a32609f8e22042b83b13", "is_disabled": 0, "rental_uris": {"android": "https://dc.lft.to/lastmile_qr_scan", "ios": "https://dc.lft.to/lastmile_qr_scan"}, "fusion_lon": 0.0, "lat": 38.88813316666667, "bike_id": "775386e10875a32609f8e22042b83b13", "type": "electric_scooter", "is_reserved": 0, "lon": -76.9835785}, {"fusion_lat": 0.0, "name": "3f8ddfb132bf1c07eaea794b9dfe4566", "is_disabled": 0, "rental_uris": {"android": "https://dc.lft.to/lastmile_qr_scan", "ios": "https://dc.lft.to/lastmile_qr_scan"}, "fusion_lon": 0.0, "lat": 38.902681666666666, "bike_id": "3f8ddfb132bf1c07eaea794b9dfe4566", "type": "electric_scooter", "is_reserved": 0, "lon": -77.0020555}, {"fusion_lat": 0.0, "name": "5407bb88aa904b30ab7b82234e24d9fc", "is_disabled": 0, "rental_uris": {"android": "https://dc.lft.to/lastmile_qr_scan", "ios": "https://dc.lft.to/lastmile_qr_scan"}, "fusion_lon": 0.0, "lat": 38.89956566666667, "bike_id": "5407bb88aa904b30ab7b82234e24d9fc", "type": "electric_scooter", "is_reserved": 0, "lon": -77.05478566666666}, {"fusion_lat": 0.0, "name": "0f6897d2d085c3d84f8a1bbcfa5988bd", "is_disabled": 0, "rental_uris": {"android": "https://dc.lft.to/lastmile_qr_scan", "ios": "https://dc.lft.to/lastmile_qr_scan"}, "fusion_lon": 0.0, "lat": 38.887443833333336, "bike_id": "0f6897d2d085c3d84f8a1bbcfa5988bd", "type": "electric_scooter", "is_reserved": 0, "lon": -76.9835935}, {"fusion_lat": 0.0, "name": "81b208a0cf6a03efd5b130ddc97d7c6d", "is_disabled": 0, "rental_uris": {"android": "https://dc.lft.to/lastmile_qr_scan", "ios": "https://dc.lft.to/lastmile_qr_scan"}, "fusion_lon": 0.0, "lat": 38.9242155, "bike_id": "81b208a0cf6a03efd5b130ddc97d7c6d", "type": "electric_scooter", "is_reserved": 0, "lon": -77.02010283333334}, {"fusion_lat": 0.0, "name": "32ee1c6df143eb95703298fc0f157f32", "is_disabled": 0, "rental_uris": {"android": "https://dc.lft.to/lastmile_qr_scan", "ios": "https://dc.lft.to/lastmile_qr_scan"}, "fusion_lon": 0.0, "lat": 38.9268205, "bike_id": "32ee1c6df143eb95703298fc0f157f32", "type": "electric_scooter", "is_reserved": 0, "lon": -77.03147566666667}, {"fusion_lat": 0.0, "name": "cba6816e448f73e4bc75c53bfe392bb6", "is_disabled": 0, "rental_uris": {"android": "https://dc.lft.to/lastmile_qr_scan", "ios": "https://dc.lft.to/lastmile_qr_scan"}, "fusion_lon": 0.0, "lat": 38.87383283333333, "bike_id": "cba6816e448f73e4bc75c53bfe392bb6", "type": "electric_scooter", "is_reserved": 0, "lon": -77.00077266666666}, {"fusion_lat": 0.0, "name": "e5f2de3ba95efca3587b9f06c48f02df", "is_disabled": 0, "rental_uris": {"android": "https://dc.lft.to/lastmile_qr_scan", "ios": "https://dc.lft.to/lastmile_qr_scan"}, "fusion_lon": 0.0, "lat": 38.913458166666665, "bike_id": "e5f2de3ba95efca3587b9f06c48f02df", "type": "electric_bike", "is_reserved": 0, "lon": -76.989039}, {"fusion_lat": 0.0, "name": "e8746c21e2ae17b311c1158ef1e24b34", "is_disabled": 0, "rental_uris": {"android": "https://dc.lft.to/lastmile_qr_scan", "ios": "https://dc.lft.to/lastmile_qr_scan"}, "fusion_lon": 0.0, "lat": 38.871929, "bike_id": "e8746c21e2ae17b311c1158ef1e24b34", "type": "electric_scooter", "is_reserved": 0, "lon": -77.00631466666667}, {"fusion_lat": 0.0, "name": "7633842ba49257d095f022f6dc46fbfc", "is_disabled": 0, "rental_uris": {"android": "https://dc.lft.to/lastmile_qr_scan", "ios": "https://dc.lft.to/lastmile_qr_scan"}, "fusion_lon": 0.0, "lat": 38.90295033333334, "bike_id": "7633842ba49257d095f022f6dc46fbfc", "type": "electric_scooter", "is_reserved": 0, "lon": -76.99259833333333}, {"fusion_lat": 0.0, "name": "4a9e2b0fcb0faee70a039b05cb43ae0d", "is_disabled": 0, "rental_uris": {"android": "https://dc.lft.to/lastmile_qr_scan", "ios": "https://dc.lft.to/lastmile_qr_scan"}, "fusion_lon": 0.0, "lat": 38.943154166666666, "bike_id": "4a9e2b0fcb0faee70a039b05cb43ae0d", "type": "electric_scooter", "is_reserved": 0, "lon": -77.02011033333334}, {"fusion_lat": 0.0, "name": "2500b98e649703d718055bbf1a088c94", "is_disabled": 0, "rental_uris": {"android": "https://dc.lft.to/lastmile_qr_scan", "ios": "https://dc.lft.to/lastmile_qr_scan"}, "fusion_lon": 0.0, "lat": 38.91715833333333, "bike_id": "2500b98e649703d718055bbf1a088c94", "type": "electric_scooter", "is_reserved": 0, "lon": -76.9687285}, {"fusion_lat": 0.0, "name": "22754b94b1ccfee411b7cc7542ab9bef", "is_disabled": 0, "rental_uris": {"android": "https://dc.lft.to/lastmile_qr_scan", "ios": "https://dc.lft.to/lastmile_qr_scan"}, "fusion_lon": 0.0, "lat": 38.88223083333333, "bike_id": "22754b94b1ccfee411b7cc7542ab9bef", "type": "electric_scooter", "is_reserved": 0, "lon": -77.0294085}, {"fusion_lat": 0.0, "name": "54a2b2566aeeadf9d1832ee575128e07", "is_disabled": 0, "rental_uris": {"android": "https://dc.lft.to/lastmile_qr_scan", "ios": "https://dc.lft.to/lastmile_qr_scan"}, "fusion_lon": 0.0, "lat": 38.9066735, "bike_id": "54a2b2566aeeadf9d1832ee575128e07", "type": "electric_scooter", "is_reserved": 0, "lon": -77.07128266666666}, {"fusion_lat": 0.0, "name": "f1db9ff9a6e6bc9a6fbdf122f5e89f98", "is_disabled": 0, "rental_uris": {"android": "https://dc.lft.to/lastmile_qr_scan", "ios": "https://dc.lft.to/lastmile_qr_scan"}, "fusion_lon": 0.0, "lat": 38.90501666666667, "bike_id": "f1db9ff9a6e6bc9a6fbdf122f5e89f98", "type": "electric_scooter", "is_reserved": 0, "lon": -77.02952216666667}, {"fusion_lat": 0.0, "name": "0c1503b0270fca46bfb00ae583630c9e", "is_disabled": 0, "rental_uris": {"android": "https://dc.lft.to/lastmile_qr_scan", "ios": "https://dc.lft.to/lastmile_qr_scan"}, "fusion_lon": 0.0, "lat": 38.90706683333333, "bike_id": "0c1503b0270fca46bfb00ae583630c9e", "type": "electric_scooter", "is_reserved": 0, "lon": -77.03766066666667}, {"fusion_lat": 0.0, "name": "63cb36abd9ca39769afa46e861ab6d04", "is_disabled": 0, "rental_uris": {"android": "https://dc.lft.to/lastmile_qr_scan", "ios": "https://dc.lft.to/lastmile_qr_scan"}, "fusion_lon": 0.0, "lat": 38.91315783333334, "bike_id": "63cb36abd9ca39769afa46e861ab6d04", "type": "electric_scooter", "is_reserved": 0, "lon": -77.0471835}, {"fusion_lat": 0.0, "name": "cff557173704f3f3e6a341c7463d3ec5", "is_disabled": 0, "rental_uris": {"android": "https://dc.lft.to/lastmile_qr_scan", "ios": "https://dc.lft.to/lastmile_qr_scan"}, "fusion_lon": 0.0, "lat": 38.904759166666665, "bike_id": "cff557173704f3f3e6a341c7463d3ec5", "type": "electric_scooter", "is_reserved": 0, "lon": -77.0483235}, {"fusion_lat": 0.0, "name": "6071972a87f7163d979deda2db0f7ab1", "is_disabled": 0, "rental_uris": {"android": "https://dc.lft.to/lastmile_qr_scan", "ios": "https://dc.lft.to/lastmile_qr_scan"}, "fusion_lon": 0.0, "lat": 38.89874666666667, "bike_id": "6071972a87f7163d979deda2db0f7ab1", "type": "electric_scooter", "is_reserved": 0, "lon": -76.93190683333333}, {"fusion_lat": 0.0, "name": "8a91a76bde72998a4357b761e7e414ae", "is_disabled": 0, "rental_uris": {"android": "https://dc.lft.to/lastmile_qr_scan", "ios": "https://dc.lft.to/lastmile_qr_scan"}, "fusion_lon": 0.0, "lat": 38.87712116666667, "bike_id": "8a91a76bde72998a4357b761e7e414ae", "type": "electric_scooter", "is_reserved": 0, "lon": -76.99395233333334}, {"fusion_lat": 0.0, "name": "7f9bda190eeb630be30db66be0be908f", "is_disabled": 0, "rental_uris": {"android": "https://dc.lft.to/lastmile_qr_scan", "ios": "https://dc.lft.to/lastmile_qr_scan"}, "fusion_lon": 0.0, "lat": 38.90567433333333, "bike_id": "7f9bda190eeb630be30db66be0be908f", "type": "electric_scooter", "is_reserved": 0, "lon": -77.02224783333334}, {"fusion_lat": 0.0, "name": "57ee841fd1e8e64ccc464527f19ffabd", "is_disabled": 0, "rental_uris": {"android": "https://dc.lft.to/lastmile_qr_scan", "ios": "https://dc.lft.to/lastmile_qr_scan"}, "fusion_lon": 0.0, "lat": 38.921004833333335, "bike_id": "57ee841fd1e8e64ccc464527f19ffabd", "type": "electric_scooter", "is_reserved": 0, "lon": -77.02198433333334}, {"fusion_lat": 0.0, "name": "3eaba13b9451323e797a7865b9c0a05b", "is_disabled": 0, "rental_uris": {"android": "https://dc.lft.to/lastmile_qr_scan", "ios": "https://dc.lft.to/lastmile_qr_scan"}, "fusion_lon": 0.0, "lat": 38.93868716666667, "bike_id": "3eaba13b9451323e797a7865b9c0a05b", "type": "electric_scooter", "is_reserved": 0, "lon": -77.03228216666666}, {"fusion_lat": 0.0, "name": "811cffbbcd4d13886afc8801786f6eba", "is_disabled": 0, "rental_uris": {"android": "https://dc.lft.to/lastmile_qr_scan", "ios": "https://dc.lft.to/lastmile_qr_scan"}, "fusion_lon": 0.0, "lat": 38.914584166666664, "bike_id": "811cffbbcd4d13886afc8801786f6eba", "type": "electric_scooter", "is_reserved": 0, "lon": -76.9843775}, {"fusion_lat": 0.0, "name": "e7036e37895e7ba0442d2fa13e969700", "is_disabled": 0, "rental_uris": {"android": "https://dc.lft.to/lastmile_qr_scan", "ios": "https://dc.lft.to/lastmile_qr_scan"}, "fusion_lon": 0.0, "lat": 38.9072415, "bike_id": "e7036e37895e7ba0442d2fa13e969700", "type": "electric_scooter", "is_reserved": 0, "lon": -77.02894266666667}, {"fusion_lat": 0.0, "name": "d85f2ee4b164566268c3ec4e1476b656", "is_disabled": 0, "rental_uris": {"android": "https://dc.lft.to/lastmile_qr_scan", "ios": "https://dc.lft.to/lastmile_qr_scan"}, "fusion_lon": 0.0, "lat": 38.91592983333334, "bike_id": "d85f2ee4b164566268c3ec4e1476b656", "type": "electric_scooter", "is_reserved": 0, "lon": -77.02279666666666}, {"fusion_lat": 0.0, "name": "de6756953edf020024a671d86443a606", "is_disabled": 0, "rental_uris": {"android": "https://dc.lft.to/lastmile_qr_scan", "ios": "https://dc.lft.to/lastmile_qr_scan"}, "fusion_lon": 0.0, "lat": 38.90007166666667, "bike_id": "de6756953edf020024a671d86443a606", "type": "electric_scooter", "is_reserved": 0, "lon": -77.01191316666667}, {"fusion_lat": 0.0, "name": "d09858211aa2ded4bdbed2205dd2abde", "is_disabled": 0, "rental_uris": {"android": "https://dc.lft.to/lastmile_qr_scan", "ios": "https://dc.lft.to/lastmile_qr_scan"}, "fusion_lon": 0.0, "lat": 38.917845, "bike_id": "d09858211aa2ded4bdbed2205dd2abde", "type": "electric_scooter", "is_reserved": 0, "lon": -77.04035066666667}, {"fusion_lat": 0.0, "name": "348cef7ac39cab3b87ee898ca9ab1cad", "is_disabled": 0, "rental_uris": {"android": "https://dc.lft.to/lastmile_qr_scan", "ios": "https://dc.lft.to/lastmile_qr_scan"}, "fusion_lon": 0.0, "lat": 38.93221416666667, "bike_id": "348cef7ac39cab3b87ee898ca9ab1cad", "type": "electric_scooter", "is_reserved": 0, "lon": -77.0442145}, {"fusion_lat": 0.0, "name": "20ef81b8c0ed72eb5b446e598271b92f", "is_disabled": 0, "rental_uris": {"android": "https://dc.lft.to/lastmile_qr_scan", "ios": "https://dc.lft.to/lastmile_qr_scan"}, "fusion_lon": 0.0, "lat": 38.90564783333333, "bike_id": "20ef81b8c0ed72eb5b446e598271b92f", "type": "electric_scooter", "is_reserved": 0, "lon": -77.04248766666667}, {"fusion_lat": 0.0, "name": "23e52ae143a06d2a29c8fc779e143076", "is_disabled": 0, "rental_uris": {"android": "https://dc.lft.to/lastmile_qr_scan", "ios": "https://dc.lft.to/lastmile_qr_scan"}, "fusion_lon": 0.0, "lat": 38.905247833333334, "bike_id": "23e52ae143a06d2a29c8fc779e143076", "type": "electric_scooter", "is_reserved": 0, "lon": -77.06146866666667}, {"fusion_lat": 0.0, "name": "852350c9abcbeb185a4ba39a0c3e3a61", "is_disabled": 0, "rental_uris": {"android": "https://dc.lft.to/lastmile_qr_scan", "ios": "https://dc.lft.to/lastmile_qr_scan"}, "fusion_lon": 0.0, "lat": 38.8076505, "bike_id": "852350c9abcbeb185a4ba39a0c3e3a61", "type": "electric_bike", "is_reserved": 0, "lon": -77.09473416666667}, {"fusion_lat": 0.0, "name": "aff881ab4fdcaf53f823c7b65d4a32b7", "is_disabled": 0, "rental_uris": {"android": "https://dc.lft.to/lastmile_qr_scan", "ios": "https://dc.lft.to/lastmile_qr_scan"}, "fusion_lon": 0.0, "lat": 38.9058255, "bike_id": "aff881ab4fdcaf53f823c7b65d4a32b7", "type": "electric_scooter", "is_reserved": 0, "lon": -77.00627066666667}, {"fusion_lat": 0.0, "name": "a724740052ca113fa69bdceab943df5a", "is_disabled": 0, "rental_uris": {"android": "https://dc.lft.to/lastmile_qr_scan", "ios": "https://dc.lft.to/lastmile_qr_scan"}, "fusion_lon": 0.0, "lat": 38.923804, "bike_id": "a724740052ca113fa69bdceab943df5a", "type": "electric_scooter", "is_reserved": 0, "lon": -77.02919433333334}, {"fusion_lat": 0.0, "name": "1297dd649c384bcc6bff74ad9d29638e", "is_disabled": 0, "rental_uris": {"android": "https://dc.lft.to/lastmile_qr_scan", "ios": "https://dc.lft.to/lastmile_qr_scan"}, "fusion_lon": 0.0, "lat": 38.905362833333335, "bike_id": "1297dd649c384bcc6bff74ad9d29638e", "type": "electric_scooter", "is_reserved": 0, "lon": -77.06265766666667}, {"fusion_lat": 0.0, "name": "32fbbd7df8313db090280132e57aceff", "is_disabled": 0, "rental_uris": {"android": "https://dc.lft.to/lastmile_qr_scan", "ios": "https://dc.lft.to/lastmile_qr_scan"}, "fusion_lon": 0.0, "lat": 38.904112166666664, "bike_id": "32fbbd7df8313db090280132e57aceff", "type": "electric_scooter", "is_reserved": 0, "lon": -76.97335}, {"fusion_lat": 0.0, "name": "84826022577a1c8f6e1e8ec8603103e8", "is_disabled": 0, "rental_uris": {"android": "https://dc.lft.to/lastmile_qr_scan", "ios": "https://dc.lft.to/lastmile_qr_scan"}, "fusion_lon": 0.0, "lat": 38.91405783333333, "bike_id": "84826022577a1c8f6e1e8ec8603103e8", "type": "electric_scooter", "is_reserved": 0, "lon": -77.03173416666667}, {"fusion_lat": 0.0, "name": "af4a432bdf2a15967acfe3d9166b920e", "is_disabled": 0, "rental_uris": {"android": "https://dc.lft.to/lastmile_qr_scan", "ios": "https://dc.lft.to/lastmile_qr_scan"}, "fusion_lon": 0.0, "lat": 38.9412775, "bike_id": "af4a432bdf2a15967acfe3d9166b920e", "type": "electric_scooter", "is_reserved": 0, "lon": -77.02656316666666}, {"fusion_lat": 0.0, "name": "6482c133016c11b547a586178657bdb1", "is_disabled": 0, "rental_uris": {"android": "https://dc.lft.to/lastmile_qr_scan", "ios": "https://dc.lft.to/lastmile_qr_scan"}, "fusion_lon": 0.0, "lat": 38.920595166666665, "bike_id": "6482c133016c11b547a586178657bdb1", "type": "electric_scooter", "is_reserved": 0, "lon": -77.04111433333334}, {"fusion_lat": 0.0, "name": "8f59da09271a2c72ad0da3d6ef0e5017", "is_disabled": 0, "rental_uris": {"android": "https://dc.lft.to/lastmile_qr_scan", "ios": "https://dc.lft.to/lastmile_qr_scan"}, "fusion_lon": 0.0, "lat": 38.90355783333333, "bike_id": "8f59da09271a2c72ad0da3d6ef0e5017", "type": "electric_scooter", "is_reserved": 0, "lon": -77.0529365}, {"fusion_lat": 0.0, "name": "7401a4255e867dccdea7c386993f9565", "is_disabled": 0, "rental_uris": {"android": "https://dc.lft.to/lastmile_qr_scan", "ios": "https://dc.lft.to/lastmile_qr_scan"}, "fusion_lon": 0.0, "lat": 38.99777783333333, "bike_id": "7401a4255e867dccdea7c386993f9565", "type": "electric_bike", "is_reserved": 0, "lon": -77.0472145}, {"fusion_lat": 0.0, "name": "7c5ba72919f0d0b7c417f9a9f7286d76", "is_disabled": 0, "rental_uris": {"android": "https://dc.lft.to/lastmile_qr_scan", "ios": "https://dc.lft.to/lastmile_qr_scan"}, "fusion_lon": 0.0, "lat": 38.8551325, "bike_id": "7c5ba72919f0d0b7c417f9a9f7286d76", "type": "electric_bike", "is_reserved": 0, "lon": -77.105443}, {"fusion_lat": 0.0, "name": "8147427df30dba7c17d47efe87ccf06e", "is_disabled": 0, "rental_uris": {"android": "https://dc.lft.to/lastmile_qr_scan", "ios": "https://dc.lft.to/lastmile_qr_scan"}, "fusion_lon": 0.0, "lat": 38.916616166666664, "bike_id": "8147427df30dba7c17d47efe87ccf06e", "type": "electric_scooter", "is_reserved": 0, "lon": -77.038517}, {"fusion_lat": 0.0, "name": "cda450c04e5e3aabe66f9b32e7368d67", "is_disabled": 0, "rental_uris": {"android": "https://dc.lft.to/lastmile_qr_scan", "ios": "https://dc.lft.to/lastmile_qr_scan"}, "fusion_lon": 0.0, "lat": 38.90271416666667, "bike_id": "cda450c04e5e3aabe66f9b32e7368d67", "type": "electric_scooter", "is_reserved": 0, "lon": -77.0201375}, {"fusion_lat": 0.0, "name": "0b1539708467a6fc29c6e314d739c9ac", "is_disabled": 0, "rental_uris": {"android": "https://dc.lft.to/lastmile_qr_scan", "ios": "https://dc.lft.to/lastmile_qr_scan"}, "fusion_lon": 0.0, "lat": 38.88871833333333, "bike_id": "0b1539708467a6fc29c6e314d739c9ac", "type": "electric_scooter", "is_reserved": 0, "lon": -76.98451933333334}, {"fusion_lat": 0.0, "name": "e28bb114bb716171ee7a054c0be7b151", "is_disabled": 0, "rental_uris": {"android": "https://dc.lft.to/lastmile_qr_scan", "ios": "https://dc.lft.to/lastmile_qr_scan"}, "fusion_lon": 0.0, "lat": 38.90684316666667, "bike_id": "e28bb114bb716171ee7a054c0be7b151", "type": "electric_scooter", "is_reserved": 0, "lon": -77.02717583333333}, {"fusion_lat": 0.0, "name": "7e1b5c995204070911496d3b580cbd65", "is_disabled": 0, "rental_uris": {"android": "https://dc.lft.to/lastmile_qr_scan", "ios": "https://dc.lft.to/lastmile_qr_scan"}, "fusion_lon": 0.0, "lat": 38.894854, "bike_id": "7e1b5c995204070911496d3b580cbd65", "type": "electric_scooter", "is_reserved": 0, "lon": -76.997472}, {"fusion_lat": 0.0, "name": "eef3ed0363cb2594afdb3a25ef6b5f6b", "is_disabled": 0, "rental_uris": {"android": "https://dc.lft.to/lastmile_qr_scan", "ios": "https://dc.lft.to/lastmile_qr_scan"}, "fusion_lon": 0.0, "lat": 38.95972583333333, "bike_id": "eef3ed0363cb2594afdb3a25ef6b5f6b", "type": "electric_bike", "is_reserved": 0, "lon": -76.98159733333334}, {"fusion_lat": 0.0, "name": "a2cfc1c158c31de412994d848271e417", "is_disabled": 0, "rental_uris": {"android": "https://dc.lft.to/lastmile_qr_scan", "ios": "https://dc.lft.to/lastmile_qr_scan"}, "fusion_lon": 0.0, "lat": 38.9052415, "bike_id": "a2cfc1c158c31de412994d848271e417", "type": "electric_scooter", "is_reserved": 0, "lon": -77.01715416666667}, {"fusion_lat": 0.0, "name": "5be3967b40b1193351d206e7a4bfad81", "is_disabled": 0, "rental_uris": {"android": "https://dc.lft.to/lastmile_qr_scan", "ios": "https://dc.lft.to/lastmile_qr_scan"}, "fusion_lon": 0.0, "lat": 38.88255, "bike_id": "5be3967b40b1193351d206e7a4bfad81", "type": "electric_scooter", "is_reserved": 0, "lon": -76.99035966666666}, {"fusion_lat": 0.0, "name": "e8fd99252745c3135678a3d7a63f1a5f", "is_disabled": 0, "rental_uris": {"android": "https://dc.lft.to/lastmile_qr_scan", "ios": "https://dc.lft.to/lastmile_qr_scan"}, "fusion_lon": 0.0, "lat": 38.90784083333333, "bike_id": "e8fd99252745c3135678a3d7a63f1a5f", "type": "electric_scooter", "is_reserved": 0, "lon": -77.04258033333333}, {"fusion_lat": 0.0, "name": "0cf53cad6c0d28e9b53012d05e9fac9a", "is_disabled": 0, "rental_uris": {"android": "https://dc.lft.to/lastmile_qr_scan", "ios": "https://dc.lft.to/lastmile_qr_scan"}, "fusion_lon": 0.0, "lat": 38.9231645, "bike_id": "0cf53cad6c0d28e9b53012d05e9fac9a", "type": "electric_scooter", "is_reserved": 0, "lon": -77.04226966666667}, {"fusion_lat": 0.0, "name": "74815ba57c3a2d69e1692e97686a576b", "is_disabled": 0, "rental_uris": {"android": "https://dc.lft.to/lastmile_qr_scan", "ios": "https://dc.lft.to/lastmile_qr_scan"}, "fusion_lon": 0.0, "lat": 38.928340166666665, "bike_id": "74815ba57c3a2d69e1692e97686a576b", "type": "electric_scooter", "is_reserved": 0, "lon": -77.0159775}, {"fusion_lat": 0.0, "name": "ae516f0d9d8ff65fb979dff099abdf84", "is_disabled": 0, "rental_uris": {"android": "https://dc.lft.to/lastmile_qr_scan", "ios": "https://dc.lft.to/lastmile_qr_scan"}, "fusion_lon": 0.0, "lat": 38.89900133333333, "bike_id": "ae516f0d9d8ff65fb979dff099abdf84", "type": "electric_scooter", "is_reserved": 0, "lon": -76.933553}, {"fusion_lat": 0.0, "name": "a4f05a6cadedf2774e76936767f26aa1", "is_disabled": 0, "rental_uris": {"android": "https://dc.lft.to/lastmile_qr_scan", "ios": "https://dc.lft.to/lastmile_qr_scan"}, "fusion_lon": 0.0, "lat": 38.899102666666664, "bike_id": "a4f05a6cadedf2774e76936767f26aa1", "type": "electric_scooter", "is_reserved": 0, "lon": -76.94586433333333}, {"fusion_lat": 0.0, "name": "953923731fd33929867c4afc0a3f7c2f", "is_disabled": 0, "rental_uris": {"android": "https://dc.lft.to/lastmile_qr_scan", "ios": "https://dc.lft.to/lastmile_qr_scan"}, "fusion_lon": 0.0, "lat": 38.939038333333336, "bike_id": "953923731fd33929867c4afc0a3f7c2f", "type": "electric_scooter", "is_reserved": 0, "lon": -77.07803683333333}, {"fusion_lat": 0.0, "name": "41929230589e4f60b8bd62cb8ed81650", "is_disabled": 0, "rental_uris": {"android": "https://dc.lft.to/lastmile_qr_scan", "ios": "https://dc.lft.to/lastmile_qr_scan"}, "fusion_lon": 0.0, "lat": 38.88527233333333, "bike_id": "41929230589e4f60b8bd62cb8ed81650", "type": "electric_scooter", "is_reserved": 0, "lon": -76.92913383333334}, {"fusion_lat": 0.0, "name": "e06dfd6d8d6b1a6a29c7458b10bb7d3c", "is_disabled": 0, "rental_uris": {"android": "https://dc.lft.to/lastmile_qr_scan", "ios": "https://dc.lft.to/lastmile_qr_scan"}, "fusion_lon": 0.0, "lat": 38.914874833333336, "bike_id": "e06dfd6d8d6b1a6a29c7458b10bb7d3c", "type": "electric_scooter", "is_reserved": 0, "lon": -77.04161283333333}, {"fusion_lat": 0.0, "name": "b5a9577a5f9192dcfe5efc953e44ef79", "is_disabled": 0, "rental_uris": {"android": "https://dc.lft.to/lastmile_qr_scan", "ios": "https://dc.lft.to/lastmile_qr_scan"}, "fusion_lon": 0.0, "lat": 38.910944, "bike_id": "b5a9577a5f9192dcfe5efc953e44ef79", "type": "electric_scooter", "is_reserved": 0, "lon": -77.009319}, {"fusion_lat": 0.0, "name": "152cfe99392f5b30a30ed53ee95119a8", "is_disabled": 0, "rental_uris": {"android": "https://dc.lft.to/lastmile_qr_scan", "ios": "https://dc.lft.to/lastmile_qr_scan"}, "fusion_lon": 0.0, "lat": 38.8758105, "bike_id": "152cfe99392f5b30a30ed53ee95119a8", "type": "electric_bike", "is_reserved": 0, "lon": -77.234135}, {"fusion_lat": 0.0, "name": "cac2aabe79042b05495acabdcc410d04", "is_disabled": 0, "rental_uris": {"android": "https://dc.lft.to/lastmile_qr_scan", "ios": "https://dc.lft.to/lastmile_qr_scan"}, "fusion_lon": 0.0, "lat": 38.9128685, "bike_id": "cac2aabe79042b05495acabdcc410d04", "type": "electric_scooter", "is_reserved": 0, "lon": -77.02373016666667}, {"fusion_lat": 0.0, "name": "d84d6a4830ccda4d12dcabadff454362", "is_disabled": 0, "rental_uris": {"android": "https://dc.lft.to/lastmile_qr_scan", "ios": "https://dc.lft.to/lastmile_qr_scan"}, "fusion_lon": 0.0, "lat": 38.899033333333335, "bike_id": "d84d6a4830ccda4d12dcabadff454362", "type": "electric_scooter", "is_reserved": 0, "lon": -76.94559783333334}, {"fusion_lat": 0.0, "name": "0a2c3cc4d5262364755231ff340713f4", "is_disabled": 0, "rental_uris": {"android": "https://dc.lft.to/lastmile_qr_scan", "ios": "https://dc.lft.to/lastmile_qr_scan"}, "fusion_lon": 0.0, "lat": 38.92207916666667, "bike_id": "0a2c3cc4d5262364755231ff340713f4", "type": "electric_scooter", "is_reserved": 0, "lon": -77.03782633333333}, {"fusion_lat": 0.0, "name": "91a0564cbe9fe858aa965ceec291c209", "is_disabled": 0, "rental_uris": {"android": "https://dc.lft.to/lastmile_qr_scan", "ios": "https://dc.lft.to/lastmile_qr_scan"}, "fusion_lon": 0.0, "lat": 38.90957733333333, "bike_id": "91a0564cbe9fe858aa965ceec291c209", "type": "electric_scooter", "is_reserved": 0, "lon": -76.98538666666667}, {"fusion_lat": 0.0, "name": "c0b64bf2e6f52d42f345d5e57129d4a4", "is_disabled": 0, "rental_uris": {"android": "https://dc.lft.to/lastmile_qr_scan", "ios": "https://dc.lft.to/lastmile_qr_scan"}, "fusion_lon": 0.0, "lat": 38.87041283333333, "bike_id": "c0b64bf2e6f52d42f345d5e57129d4a4", "type": "electric_scooter", "is_reserved": 0, "lon": -77.01009633333334}, {"fusion_lat": 0.0, "name": "125c828ce102641347d24199bd70b7f3", "is_disabled": 0, "rental_uris": {"android": "https://dc.lft.to/lastmile_qr_scan", "ios": "https://dc.lft.to/lastmile_qr_scan"}, "fusion_lon": 0.0, "lat": 38.89554866666667, "bike_id": "125c828ce102641347d24199bd70b7f3", "type": "electric_scooter", "is_reserved": 0, "lon": -77.03988016666666}, {"fusion_lat": 0.0, "name": "ff283538528aecebf522ca63fb15ec9b", "is_disabled": 0, "rental_uris": {"android": "https://dc.lft.to/lastmile_qr_scan", "ios": "https://dc.lft.to/lastmile_qr_scan"}, "fusion_lon": 0.0, "lat": 38.9107865, "bike_id": "ff283538528aecebf522ca63fb15ec9b", "type": "electric_scooter", "is_reserved": 0, "lon": -77.06520566666667}, {"fusion_lat": 0.0, "name": "ef5b7ee55346c8d8e3de97caaccdd137", "is_disabled": 0, "rental_uris": {"android": "https://dc.lft.to/lastmile_qr_scan", "ios": "https://dc.lft.to/lastmile_qr_scan"}, "fusion_lon": 0.0, "lat": 38.88766316666667, "bike_id": "ef5b7ee55346c8d8e3de97caaccdd137", "type": "electric_scooter", "is_reserved": 0, "lon": -76.97759266666667}, {"fusion_lat": 0.0, "name": "f2e1337c8595047f52728abb15fe4bd1", "is_disabled": 0, "rental_uris": {"android": "https://dc.lft.to/lastmile_qr_scan", "ios": "https://dc.lft.to/lastmile_qr_scan"}, "fusion_lon": 0.0, "lat": 38.8245815, "bike_id": "f2e1337c8595047f52728abb15fe4bd1", "type": "electric_bike", "is_reserved": 0, "lon": -77.00793366666667}, {"fusion_lat": 0.0, "name": "4bf4b2e92e23ed825c24f987ece2e896", "is_disabled": 0, "rental_uris": {"android": "https://dc.lft.to/lastmile_qr_scan", "ios": "https://dc.lft.to/lastmile_qr_scan"}, "fusion_lon": 0.0, "lat": 38.914098, "bike_id": "4bf4b2e92e23ed825c24f987ece2e896", "type": "electric_scooter", "is_reserved": 0, "lon": -77.0083785}, {"fusion_lat": 0.0, "name": "3e173350c1f8ed55a61f7e0f8a2fa6bf", "is_disabled": 0, "rental_uris": {"android": "https://dc.lft.to/lastmile_qr_scan", "ios": "https://dc.lft.to/lastmile_qr_scan"}, "fusion_lon": 0.0, "lat": 38.91646766666667, "bike_id": "3e173350c1f8ed55a61f7e0f8a2fa6bf", "type": "electric_bike", "is_reserved": 0, "lon": -77.02138066666667}, {"fusion_lat": 0.0, "name": "27365fa6efa6554f3d2203d9078d97a1", "is_disabled": 0, "rental_uris": {"android": "https://dc.lft.to/lastmile_qr_scan", "ios": "https://dc.lft.to/lastmile_qr_scan"}, "fusion_lon": 0.0, "lat": 38.892339, "bike_id": "27365fa6efa6554f3d2203d9078d97a1", "type": "electric_scooter", "is_reserved": 0, "lon": -77.02412433333333}, {"fusion_lat": 0.0, "name": "baaf314fe94e039b331489d6185f40be", "is_disabled": 0, "rental_uris": {"android": "https://dc.lft.to/lastmile_qr_scan", "ios": "https://dc.lft.to/lastmile_qr_scan"}, "fusion_lon": 0.0, "lat": 38.94409916666667, "bike_id": "baaf314fe94e039b331489d6185f40be", "type": "electric_scooter", "is_reserved": 0, "lon": -77.03863716666666}, {"fusion_lat": 0.0, "name": "45b0c8dbae43900aec502d6404176dc1", "is_disabled": 0, "rental_uris": {"android": "https://dc.lft.to/lastmile_qr_scan", "ios": "https://dc.lft.to/lastmile_qr_scan"}, "fusion_lon": 0.0, "lat": 38.84296416666667, "bike_id": "45b0c8dbae43900aec502d6404176dc1", "type": "electric_bike", "is_reserved": 0, "lon": -77.10872866666666}, {"fusion_lat": 0.0, "name": "d96b013b1610d7d433cdcb49da2ec6b9", "is_disabled": 0, "rental_uris": {"android": "https://dc.lft.to/lastmile_qr_scan", "ios": "https://dc.lft.to/lastmile_qr_scan"}, "fusion_lon": 0.0, "lat": 38.921083333333335, "bike_id": "d96b013b1610d7d433cdcb49da2ec6b9", "type": "electric_scooter", "is_reserved": 0, "lon": -77.017685}, {"fusion_lat": 0.0, "name": "0799aeccba7d00285341b623f78099ca", "is_disabled": 0, "rental_uris": {"android": "https://dc.lft.to/lastmile_qr_scan", "ios": "https://dc.lft.to/lastmile_qr_scan"}, "fusion_lon": 0.0, "lat": 38.90838383333333, "bike_id": "0799aeccba7d00285341b623f78099ca", "type": "electric_scooter", "is_reserved": 0, "lon": -77.00117483333334}, {"fusion_lat": 0.0, "name": "89e4fa4661c02aca4897cdd9d1c07113", "is_disabled": 0, "rental_uris": {"android": "https://dc.lft.to/lastmile_qr_scan", "ios": "https://dc.lft.to/lastmile_qr_scan"}, "fusion_lon": 0.0, "lat": 38.907250166666664, "bike_id": "89e4fa4661c02aca4897cdd9d1c07113", "type": "electric_scooter", "is_reserved": 0, "lon": -77.04774583333334}, {"fusion_lat": 0.0, "name": "db09616c964b02f6f668417dd33efbd2", "is_disabled": 0, "rental_uris": {"android": "https://dc.lft.to/lastmile_qr_scan", "ios": "https://dc.lft.to/lastmile_qr_scan"}, "fusion_lon": 0.0, "lat": 38.896179333333336, "bike_id": "db09616c964b02f6f668417dd33efbd2", "type": "electric_scooter", "is_reserved": 0, "lon": -77.02278466666667}, {"fusion_lat": 0.0, "name": "a71e2acfa7d6efc2c6536d23f958825e", "is_disabled": 0, "rental_uris": {"android": "https://dc.lft.to/lastmile_qr_scan", "ios": "https://dc.lft.to/lastmile_qr_scan"}, "fusion_lon": 0.0, "lat": 38.94331016666667, "bike_id": "a71e2acfa7d6efc2c6536d23f958825e", "type": "electric_scooter", "is_reserved": 0, "lon": -77.01551633333334}, {"fusion_lat": 0.0, "name": "2cfb0af9828acf36ffb7f92d9741cd89", "is_disabled": 0, "rental_uris": {"android": "https://dc.lft.to/lastmile_qr_scan", "ios": "https://dc.lft.to/lastmile_qr_scan"}, "fusion_lon": 0.0, "lat": 38.88039033333333, "bike_id": "2cfb0af9828acf36ffb7f92d9741cd89", "type": "electric_bike", "is_reserved": 0, "lon": -77.025155}, {"fusion_lat": 0.0, "name": "8ec7befdde844702c0c405654735b8b1", "is_disabled": 0, "rental_uris": {"android": "https://dc.lft.to/lastmile_qr_scan", "ios": "https://dc.lft.to/lastmile_qr_scan"}, "fusion_lon": 0.0, "lat": 38.911088666666664, "bike_id": "8ec7befdde844702c0c405654735b8b1", "type": "electric_scooter", "is_reserved": 0, "lon": -77.01012283333333}, {"fusion_lat": 0.0, "name": "11d57fcdab473758f0c733d599c68521", "is_disabled": 0, "rental_uris": {"android": "https://dc.lft.to/lastmile_qr_scan", "ios": "https://dc.lft.to/lastmile_qr_scan"}, "fusion_lon": 0.0, "lat": 38.8961005, "bike_id": "11d57fcdab473758f0c733d599c68521", "type": "electric_scooter", "is_reserved": 0, "lon": -76.9811065}, {"fusion_lat": 0.0, "name": "6580b6eabdcdca81b1e3bede3cf2af08", "is_disabled": 0, "rental_uris": {"android": "https://dc.lft.to/lastmile_qr_scan", "ios": "https://dc.lft.to/lastmile_qr_scan"}, "fusion_lon": 0.0, "lat": 38.900230666666666, "bike_id": "6580b6eabdcdca81b1e3bede3cf2af08", "type": "electric_scooter", "is_reserved": 0, "lon": -77.03209866666667}, {"fusion_lat": 0.0, "name": "38c567297a238c50901ef4e4c6711bd4", "is_disabled": 0, "rental_uris": {"android": "https://dc.lft.to/lastmile_qr_scan", "ios": "https://dc.lft.to/lastmile_qr_scan"}, "fusion_lon": 0.0, "lat": 38.8901065, "bike_id": "38c567297a238c50901ef4e4c6711bd4", "type": "electric_scooter", "is_reserved": 0, "lon": -76.93739716666667}, {"fusion_lat": 0.0, "name": "8a066f42ad2455b6944bc12d10f5519b", "is_disabled": 0, "rental_uris": {"android": "https://dc.lft.to/lastmile_qr_scan", "ios": "https://dc.lft.to/lastmile_qr_scan"}, "fusion_lon": 0.0, "lat": 38.92489583333333, "bike_id": "8a066f42ad2455b6944bc12d10f5519b", "type": "electric_scooter", "is_reserved": 0, "lon": -77.027168}, {"fusion_lat": 0.0, "name": "ee45a5c11cd0aa1b05aa50c55c1ed8e4", "is_disabled": 0, "rental_uris": {"android": "https://dc.lft.to/lastmile_qr_scan", "ios": "https://dc.lft.to/lastmile_qr_scan"}, "fusion_lon": 0.0, "lat": 38.839314333333334, "bike_id": "ee45a5c11cd0aa1b05aa50c55c1ed8e4", "type": "electric_bike", "is_reserved": 0, "lon": -77.07895516666666}, {"fusion_lat": 0.0, "name": "c777f203f90cdc5ce25f8ee11f61ff7d", "is_disabled": 0, "rental_uris": {"android": "https://dc.lft.to/lastmile_qr_scan", "ios": "https://dc.lft.to/lastmile_qr_scan"}, "fusion_lon": 0.0, "lat": 38.89742533333333, "bike_id": "c777f203f90cdc5ce25f8ee11f61ff7d", "type": "electric_scooter", "is_reserved": 0, "lon": -77.03229083333333}, {"fusion_lat": 0.0, "name": "b4493935440eb189fc8389a6b6e2fd9f", "is_disabled": 0, "rental_uris": {"android": "https://dc.lft.to/lastmile_qr_scan", "ios": "https://dc.lft.to/lastmile_qr_scan"}, "fusion_lon": 0.0, "lat": 38.917087, "bike_id": "b4493935440eb189fc8389a6b6e2fd9f", "type": "electric_scooter", "is_reserved": 0, "lon": -77.03217316666667}, {"fusion_lat": 0.0, "name": "19474ab06259ec59d8d82b732c6a5b12", "is_disabled": 0, "rental_uris": {"android": "https://dc.lft.to/lastmile_qr_scan", "ios": "https://dc.lft.to/lastmile_qr_scan"}, "fusion_lon": 0.0, "lat": 38.91668583333333, "bike_id": "19474ab06259ec59d8d82b732c6a5b12", "type": "electric_scooter", "is_reserved": 0, "lon": -77.0295465}, {"fusion_lat": 0.0, "name": "9610e369e91a9daeb48d0f3cc7e55005", "is_disabled": 0, "rental_uris": {"android": "https://dc.lft.to/lastmile_qr_scan", "ios": "https://dc.lft.to/lastmile_qr_scan"}, "fusion_lon": 0.0, "lat": 38.933637, "bike_id": "9610e369e91a9daeb48d0f3cc7e55005", "type": "electric_scooter", "is_reserved": 0, "lon": -77.03875783333334}, {"fusion_lat": 0.0, "name": "13e7369aebd8a0a4ed8d6f04561f0c49", "is_disabled": 0, "rental_uris": {"android": "https://dc.lft.to/lastmile_qr_scan", "ios": "https://dc.lft.to/lastmile_qr_scan"}, "fusion_lon": 0.0, "lat": 38.94137666666666, "bike_id": "13e7369aebd8a0a4ed8d6f04561f0c49", "type": "electric_scooter", "is_reserved": 0, "lon": -77.00610483333334}, {"fusion_lat": 0.0, "name": "0f3434c83b049e3b1e48689828be1995", "is_disabled": 0, "rental_uris": {"android": "https://dc.lft.to/lastmile_qr_scan", "ios": "https://dc.lft.to/lastmile_qr_scan"}, "fusion_lon": 0.0, "lat": 38.903394166666665, "bike_id": "0f3434c83b049e3b1e48689828be1995", "type": "electric_scooter", "is_reserved": 0, "lon": -76.97251683333333}, {"fusion_lat": 0.0, "name": "f0b4d82562a826eae29feeecbde1b193", "is_disabled": 0, "rental_uris": {"android": "https://dc.lft.to/lastmile_qr_scan", "ios": "https://dc.lft.to/lastmile_qr_scan"}, "fusion_lon": 0.0, "lat": 38.91591116666667, "bike_id": "f0b4d82562a826eae29feeecbde1b193", "type": "electric_scooter", "is_reserved": 0, "lon": -77.03199133333334}, {"fusion_lat": 0.0, "name": "1c529db547593455c51fa2edb54bc4f2", "is_disabled": 0, "rental_uris": {"android": "https://dc.lft.to/lastmile_qr_scan", "ios": "https://dc.lft.to/lastmile_qr_scan"}, "fusion_lon": 0.0, "lat": 38.91991, "bike_id": "1c529db547593455c51fa2edb54bc4f2", "type": "electric_scooter", "is_reserved": 0, "lon": -77.021593}, {"fusion_lat": 0.0, "name": "c68894b66a56cb05b3ca5577da26d089", "is_disabled": 0, "rental_uris": {"android": "https://dc.lft.to/lastmile_qr_scan", "ios": "https://dc.lft.to/lastmile_qr_scan"}, "fusion_lon": 0.0, "lat": 38.909712999999996, "bike_id": "c68894b66a56cb05b3ca5577da26d089", "type": "electric_scooter", "is_reserved": 0, "lon": -77.00900633333333}, {"fusion_lat": 0.0, "name": "4fd9bdf9cd71d7cb97aaa6e4f08d3e3a", "is_disabled": 0, "rental_uris": {"android": "https://dc.lft.to/lastmile_qr_scan", "ios": "https://dc.lft.to/lastmile_qr_scan"}, "fusion_lon": 0.0, "lat": 38.94514066666667, "bike_id": "4fd9bdf9cd71d7cb97aaa6e4f08d3e3a", "type": "electric_scooter", "is_reserved": 0, "lon": -77.03886466666667}, {"fusion_lat": 0.0, "name": "43f6072a208b742840df20df46802a40", "is_disabled": 0, "rental_uris": {"android": "https://dc.lft.to/lastmile_qr_scan", "ios": "https://dc.lft.to/lastmile_qr_scan"}, "fusion_lon": 0.0, "lat": 38.90165733333333, "bike_id": "43f6072a208b742840df20df46802a40", "type": "electric_scooter", "is_reserved": 0, "lon": -76.9925795}, {"fusion_lat": 0.0, "name": "5fc1758660efe4c0d72608b12453912a", "is_disabled": 0, "rental_uris": {"android": "https://dc.lft.to/lastmile_qr_scan", "ios": "https://dc.lft.to/lastmile_qr_scan"}, "fusion_lon": 0.0, "lat": 38.93630183333333, "bike_id": "5fc1758660efe4c0d72608b12453912a", "type": "electric_scooter", "is_reserved": 0, "lon": -77.07309883333333}, {"fusion_lat": 0.0, "name": "19c269d6e1a75dfe01388a44b1799eb5", "is_disabled": 0, "rental_uris": {"android": "https://dc.lft.to/lastmile_qr_scan", "ios": "https://dc.lft.to/lastmile_qr_scan"}, "fusion_lon": 0.0, "lat": 38.84757066666667, "bike_id": "19c269d6e1a75dfe01388a44b1799eb5", "type": "electric_scooter", "is_reserved": 0, "lon": -76.99502183333334}, {"fusion_lat": 0.0, "name": "5b8675713996474bfd247802ed31da32", "is_disabled": 0, "rental_uris": {"android": "https://dc.lft.to/lastmile_qr_scan", "ios": "https://dc.lft.to/lastmile_qr_scan"}, "fusion_lon": 0.0, "lat": 38.923513, "bike_id": "5b8675713996474bfd247802ed31da32", "type": "electric_scooter", "is_reserved": 0, "lon": -76.99253483333334}, {"fusion_lat": 0.0, "name": "ef78e864328be0fd1bd166a4ad8819b6", "is_disabled": 0, "rental_uris": {"android": "https://dc.lft.to/lastmile_qr_scan", "ios": "https://dc.lft.to/lastmile_qr_scan"}, "fusion_lon": 0.0, "lat": 38.88761066666667, "bike_id": "ef78e864328be0fd1bd166a4ad8819b6", "type": "electric_scooter", "is_reserved": 0, "lon": -76.99796383333333}, {"fusion_lat": 0.0, "name": "20124bd564c45ee232566025e4bcf2b8", "is_disabled": 0, "rental_uris": {"android": "https://dc.lft.to/lastmile_qr_scan", "ios": "https://dc.lft.to/lastmile_qr_scan"}, "fusion_lon": 0.0, "lat": 38.9096985, "bike_id": "20124bd564c45ee232566025e4bcf2b8", "type": "electric_scooter", "is_reserved": 0, "lon": -77.03309733333333}, {"fusion_lat": 0.0, "name": "dd2b4231ef905ec56e50e8111fe2c0eb", "is_disabled": 0, "rental_uris": {"android": "https://dc.lft.to/lastmile_qr_scan", "ios": "https://dc.lft.to/lastmile_qr_scan"}, "fusion_lon": 0.0, "lat": 38.9110725, "bike_id": "dd2b4231ef905ec56e50e8111fe2c0eb", "type": "electric_scooter", "is_reserved": 0, "lon": -77.02407766666667}, {"fusion_lat": 0.0, "name": "919679a0e86e56c4c892d566f1eb6169", "is_disabled": 0, "rental_uris": {"android": "https://dc.lft.to/lastmile_qr_scan", "ios": "https://dc.lft.to/lastmile_qr_scan"}, "fusion_lon": 0.0, "lat": 38.93599833333333, "bike_id": "919679a0e86e56c4c892d566f1eb6169", "type": "electric_scooter", "is_reserved": 0, "lon": -77.02384183333334}, {"fusion_lat": 0.0, "name": "c57934c125a23ffe5cbbd99b95b0d10f", "is_disabled": 0, "rental_uris": {"android": "https://dc.lft.to/lastmile_qr_scan", "ios": "https://dc.lft.to/lastmile_qr_scan"}, "fusion_lon": 0.0, "lat": 38.9004935, "bike_id": "c57934c125a23ffe5cbbd99b95b0d10f", "type": "electric_scooter", "is_reserved": 0, "lon": -77.04482083333333}, {"fusion_lat": 0.0, "name": "c134ca4ff41fc3749ab65116e8f6f073", "is_disabled": 0, "rental_uris": {"android": "https://dc.lft.to/lastmile_qr_scan", "ios": "https://dc.lft.to/lastmile_qr_scan"}, "fusion_lon": 0.0, "lat": 38.882233166666666, "bike_id": "c134ca4ff41fc3749ab65116e8f6f073", "type": "electric_scooter", "is_reserved": 0, "lon": -77.04149633333333}, {"fusion_lat": 0.0, "name": "ae041b39bf0d4405c352813e53d2d579", "is_disabled": 0, "rental_uris": {"android": "https://dc.lft.to/lastmile_qr_scan", "ios": "https://dc.lft.to/lastmile_qr_scan"}, "fusion_lon": 0.0, "lat": 38.924738833333336, "bike_id": "ae041b39bf0d4405c352813e53d2d579", "type": "electric_bike", "is_reserved": 0, "lon": -77.23357933333334}, {"fusion_lat": 0.0, "name": "5b6ab47451bb975593d9b8cf11cf5064", "is_disabled": 0, "rental_uris": {"android": "https://dc.lft.to/lastmile_qr_scan", "ios": "https://dc.lft.to/lastmile_qr_scan"}, "fusion_lon": 0.0, "lat": 38.9396475, "bike_id": "5b6ab47451bb975593d9b8cf11cf5064", "type": "electric_scooter", "is_reserved": 0, "lon": -77.03293083333334}, {"fusion_lat": 0.0, "name": "d2c03b633258e6fcdb59a99a24a6a7f1", "is_disabled": 0, "rental_uris": {"android": "https://dc.lft.to/lastmile_qr_scan", "ios": "https://dc.lft.to/lastmile_qr_scan"}, "fusion_lon": 0.0, "lat": 38.93255883333333, "bike_id": "d2c03b633258e6fcdb59a99a24a6a7f1", "type": "electric_scooter", "is_reserved": 0, "lon": -77.019256}, {"fusion_lat": 0.0, "name": "d02df08e95a19eef37de7ae2f6f0dc09", "is_disabled": 0, "rental_uris": {"android": "https://dc.lft.to/lastmile_qr_scan", "ios": "https://dc.lft.to/lastmile_qr_scan"}, "fusion_lon": 0.0, "lat": 38.9348765, "bike_id": "d02df08e95a19eef37de7ae2f6f0dc09", "type": "electric_scooter", "is_reserved": 0, "lon": -77.04538433333333}, {"fusion_lat": 0.0, "name": "aac846da8c3ff4a40447e8eaac6ce90f", "is_disabled": 0, "rental_uris": {"android": "https://dc.lft.to/lastmile_qr_scan", "ios": "https://dc.lft.to/lastmile_qr_scan"}, "fusion_lon": 0.0, "lat": 38.909363666666664, "bike_id": "aac846da8c3ff4a40447e8eaac6ce90f", "type": "electric_scooter", "is_reserved": 0, "lon": -77.06274433333333}, {"fusion_lat": 0.0, "name": "9e5093591174e1e6a0c49d220ef099c6", "is_disabled": 0, "rental_uris": {"android": "https://dc.lft.to/lastmile_qr_scan", "ios": "https://dc.lft.to/lastmile_qr_scan"}, "fusion_lon": 0.0, "lat": 38.905212, "bike_id": "9e5093591174e1e6a0c49d220ef099c6", "type": "electric_scooter", "is_reserved": 0, "lon": -77.068036}, {"fusion_lat": 0.0, "name": "61cf1b6dfb577c6feefcb5990ff28591", "is_disabled": 0, "rental_uris": {"android": "https://dc.lft.to/lastmile_qr_scan", "ios": "https://dc.lft.to/lastmile_qr_scan"}, "fusion_lon": 0.0, "lat": 38.89673766666667, "bike_id": "61cf1b6dfb577c6feefcb5990ff28591", "type": "electric_scooter", "is_reserved": 0, "lon": -76.93211333333333}, {"fusion_lat": 0.0, "name": "79db193971737a19ee214b802c2f95e0", "is_disabled": 0, "rental_uris": {"android": "https://dc.lft.to/lastmile_qr_scan", "ios": "https://dc.lft.to/lastmile_qr_scan"}, "fusion_lon": 0.0, "lat": 38.931109, "bike_id": "79db193971737a19ee214b802c2f95e0", "type": "electric_scooter", "is_reserved": 0, "lon": -77.0208685}, {"fusion_lat": 0.0, "name": "ddd2d0df76a29558d5706b657e8070a4", "is_disabled": 0, "rental_uris": {"android": "https://dc.lft.to/lastmile_qr_scan", "ios": "https://dc.lft.to/lastmile_qr_scan"}, "fusion_lon": 0.0, "lat": 38.91323416666667, "bike_id": "ddd2d0df76a29558d5706b657e8070a4", "type": "electric_scooter", "is_reserved": 0, "lon": -77.03176883333333}, {"fusion_lat": 0.0, "name": "37b7963f4940c258bedfd739fd97ae85", "is_disabled": 0, "rental_uris": {"android": "https://dc.lft.to/lastmile_qr_scan", "ios": "https://dc.lft.to/lastmile_qr_scan"}, "fusion_lon": 0.0, "lat": 38.953579166666664, "bike_id": "37b7963f4940c258bedfd739fd97ae85", "type": "electric_bike", "is_reserved": 0, "lon": -76.98094533333334}, {"fusion_lat": 0.0, "name": "697d6b8462defded65074e99d8a377d2", "is_disabled": 0, "rental_uris": {"android": "https://dc.lft.to/lastmile_qr_scan", "ios": "https://dc.lft.to/lastmile_qr_scan"}, "fusion_lon": 0.0, "lat": 38.91631266666667, "bike_id": "697d6b8462defded65074e99d8a377d2", "type": "electric_scooter", "is_reserved": 0, "lon": -77.01349066666667}, {"fusion_lat": 0.0, "name": "a77b37fdda94ae7fffd3ec28ce5212e0", "is_disabled": 0, "rental_uris": {"android": "https://dc.lft.to/lastmile_qr_scan", "ios": "https://dc.lft.to/lastmile_qr_scan"}, "fusion_lon": 0.0, "lat": 38.902550833333336, "bike_id": "a77b37fdda94ae7fffd3ec28ce5212e0", "type": "electric_scooter", "is_reserved": 0, "lon": -77.04362483333334}, {"fusion_lat": 0.0, "name": "d1e0dbd6cd8c3b4207bc955ec4ff0d09", "is_disabled": 0, "rental_uris": {"android": "https://dc.lft.to/lastmile_qr_scan", "ios": "https://dc.lft.to/lastmile_qr_scan"}, "fusion_lon": 0.0, "lat": 38.9072765, "bike_id": "d1e0dbd6cd8c3b4207bc955ec4ff0d09", "type": "electric_scooter", "is_reserved": 0, "lon": -77.04812216666667}, {"fusion_lat": 0.0, "name": "0051ad095ef61cdad26813d624e4f14c", "is_disabled": 0, "rental_uris": {"android": "https://dc.lft.to/lastmile_qr_scan", "ios": "https://dc.lft.to/lastmile_qr_scan"}, "fusion_lon": 0.0, "lat": 38.91639283333333, "bike_id": "0051ad095ef61cdad26813d624e4f14c", "type": "electric_scooter", "is_reserved": 0, "lon": -77.04378616666666}, {"fusion_lat": 0.0, "name": "e4584184db8c375baa364f4ba7449fe2", "is_disabled": 0, "rental_uris": {"android": "https://dc.lft.to/lastmile_qr_scan", "ios": "https://dc.lft.to/lastmile_qr_scan"}, "fusion_lon": 0.0, "lat": 38.874963666666666, "bike_id": "e4584184db8c375baa364f4ba7449fe2", "type": "electric_scooter", "is_reserved": 0, "lon": -77.00034316666667}, {"fusion_lat": 0.0, "name": "a5e583c569bbb7639badf0efcbd41f00", "is_disabled": 0, "rental_uris": {"android": "https://dc.lft.to/lastmile_qr_scan", "ios": "https://dc.lft.to/lastmile_qr_scan"}, "fusion_lon": 0.0, "lat": 38.93139633333333, "bike_id": "a5e583c569bbb7639badf0efcbd41f00", "type": "electric_scooter", "is_reserved": 0, "lon": -77.078458}, {"fusion_lat": 0.0, "name": "a38d2f8e5f7bc2aad5a17a4af460164e", "is_disabled": 0, "rental_uris": {"android": "https://dc.lft.to/lastmile_qr_scan", "ios": "https://dc.lft.to/lastmile_qr_scan"}, "fusion_lon": 0.0, "lat": 38.940765166666665, "bike_id": "a38d2f8e5f7bc2aad5a17a4af460164e", "type": "electric_bike", "is_reserved": 0, "lon": -76.99462466666667}, {"fusion_lat": 0.0, "name": "76cf51a59c15a6c2dfc06b63d6e1827f", "is_disabled": 0, "rental_uris": {"android": "https://dc.lft.to/lastmile_qr_scan", "ios": "https://dc.lft.to/lastmile_qr_scan"}, "fusion_lon": 0.0, "lat": 38.93459333333333, "bike_id": "76cf51a59c15a6c2dfc06b63d6e1827f", "type": "electric_scooter", "is_reserved": 0, "lon": -77.0411525}, {"fusion_lat": 0.0, "name": "fe396fb8ac822dd3caeaba9a2ce43433", "is_disabled": 0, "rental_uris": {"android": "https://dc.lft.to/lastmile_qr_scan", "ios": "https://dc.lft.to/lastmile_qr_scan"}, "fusion_lon": 0.0, "lat": 38.9233125, "bike_id": "fe396fb8ac822dd3caeaba9a2ce43433", "type": "electric_scooter", "is_reserved": 0, "lon": -77.02089683333334}, {"fusion_lat": 0.0, "name": "33b6d3acd42ed8c77653df57374356ba", "is_disabled": 0, "rental_uris": {"android": "https://dc.lft.to/lastmile_qr_scan", "ios": "https://dc.lft.to/lastmile_qr_scan"}, "fusion_lon": 0.0, "lat": 38.88519, "bike_id": "33b6d3acd42ed8c77653df57374356ba", "type": "electric_scooter", "is_reserved": 0, "lon": -76.99623983333333}, {"fusion_lat": 0.0, "name": "94df9b1b28694095a751b9f71bf5a89c", "is_disabled": 0, "rental_uris": {"android": "https://dc.lft.to/lastmile_qr_scan", "ios": "https://dc.lft.to/lastmile_qr_scan"}, "fusion_lon": 0.0, "lat": 38.921290166666665, "bike_id": "94df9b1b28694095a751b9f71bf5a89c", "type": "electric_scooter", "is_reserved": 0, "lon": -77.0103045}, {"fusion_lat": 0.0, "name": "f70c5436706a55f053e01b3448e9bdf6", "is_disabled": 0, "rental_uris": {"android": "https://dc.lft.to/lastmile_qr_scan", "ios": "https://dc.lft.to/lastmile_qr_scan"}, "fusion_lon": 0.0, "lat": 39.010792333333335, "bike_id": "f70c5436706a55f053e01b3448e9bdf6", "type": "electric_bike", "is_reserved": 0, "lon": -76.91067616666666}, {"fusion_lat": 0.0, "name": "64e92624ae36b054650de88e0d2f5825", "is_disabled": 0, "rental_uris": {"android": "https://dc.lft.to/lastmile_qr_scan", "ios": "https://dc.lft.to/lastmile_qr_scan"}, "fusion_lon": 0.0, "lat": 38.930571, "bike_id": "64e92624ae36b054650de88e0d2f5825", "type": "electric_scooter", "is_reserved": 0, "lon": -77.04073183333334}, {"fusion_lat": 0.0, "name": "c6ace499ca0333fb30ea560b211e9c1c", "is_disabled": 0, "rental_uris": {"android": "https://dc.lft.to/lastmile_qr_scan", "ios": "https://dc.lft.to/lastmile_qr_scan"}, "fusion_lon": 0.0, "lat": 38.921425666666664, "bike_id": "c6ace499ca0333fb30ea560b211e9c1c", "type": "electric_scooter", "is_reserved": 0, "lon": -77.042252}, {"fusion_lat": 0.0, "name": "56e2bc66333b15a0e01e46de93736c1e", "is_disabled": 0, "rental_uris": {"android": "https://dc.lft.to/lastmile_qr_scan", "ios": "https://dc.lft.to/lastmile_qr_scan"}, "fusion_lon": 0.0, "lat": 38.91934833333333, "bike_id": "56e2bc66333b15a0e01e46de93736c1e", "type": "electric_scooter", "is_reserved": 0, "lon": -77.024504}, {"fusion_lat": 0.0, "name": "fb64cd811d032b9b23796df25cb712ae", "is_disabled": 0, "rental_uris": {"android": "https://dc.lft.to/lastmile_qr_scan", "ios": "https://dc.lft.to/lastmile_qr_scan"}, "fusion_lon": 0.0, "lat": 38.9073195, "bike_id": "fb64cd811d032b9b23796df25cb712ae", "type": "electric_scooter", "is_reserved": 0, "lon": -77.04014716666667}, {"fusion_lat": 0.0, "name": "241a34f0fd32c0e1dc8c9249bac5541b", "is_disabled": 0, "rental_uris": {"android": "https://dc.lft.to/lastmile_qr_scan", "ios": "https://dc.lft.to/lastmile_qr_scan"}, "fusion_lon": 0.0, "lat": 38.9237165, "bike_id": "241a34f0fd32c0e1dc8c9249bac5541b", "type": "electric_scooter", "is_reserved": 0, "lon": -77.02917783333334}, {"fusion_lat": 0.0, "name": "c6198497af711e2e9e39cd5bf38eaeb8", "is_disabled": 0, "rental_uris": {"android": "https://dc.lft.to/lastmile_qr_scan", "ios": "https://dc.lft.to/lastmile_qr_scan"}, "fusion_lon": 0.0, "lat": 38.919204, "bike_id": "c6198497af711e2e9e39cd5bf38eaeb8", "type": "electric_scooter", "is_reserved": 0, "lon": -77.01212216666667}, {"fusion_lat": 0.0, "name": "da16a0458c5196d3dffc0ae9f006c20c", "is_disabled": 0, "rental_uris": {"android": "https://dc.lft.to/lastmile_qr_scan", "ios": "https://dc.lft.to/lastmile_qr_scan"}, "fusion_lon": 0.0, "lat": 38.92285, "bike_id": "da16a0458c5196d3dffc0ae9f006c20c", "type": "electric_scooter", "is_reserved": 0, "lon": -77.03661883333334}, {"fusion_lat": 0.0, "name": "a61862752dd92a794ab560605ec12b09", "is_disabled": 0, "rental_uris": {"android": "https://dc.lft.to/lastmile_qr_scan", "ios": "https://dc.lft.to/lastmile_qr_scan"}, "fusion_lon": 0.0, "lat": 38.89476166666667, "bike_id": "a61862752dd92a794ab560605ec12b09", "type": "electric_scooter", "is_reserved": 0, "lon": -77.01101833333334}, {"fusion_lat": 0.0, "name": "831e866362932aaf3817cd4f44d523e6", "is_disabled": 0, "rental_uris": {"android": "https://dc.lft.to/lastmile_qr_scan", "ios": "https://dc.lft.to/lastmile_qr_scan"}, "fusion_lon": 0.0, "lat": 38.92322166666667, "bike_id": "831e866362932aaf3817cd4f44d523e6", "type": "electric_scooter", "is_reserved": 0, "lon": -77.0352575}, {"fusion_lat": 0.0, "name": "638376478dbb53da53484de13c577685", "is_disabled": 0, "rental_uris": {"android": "https://dc.lft.to/lastmile_qr_scan", "ios": "https://dc.lft.to/lastmile_qr_scan"}, "fusion_lon": 0.0, "lat": 38.881621, "bike_id": "638376478dbb53da53484de13c577685", "type": "electric_scooter", "is_reserved": 0, "lon": -77.0276695}, {"fusion_lat": 0.0, "name": "d6876ce835cf1e447a376828c98a03af", "is_disabled": 0, "rental_uris": {"android": "https://dc.lft.to/lastmile_qr_scan", "ios": "https://dc.lft.to/lastmile_qr_scan"}, "fusion_lon": 0.0, "lat": 38.90684433333333, "bike_id": "d6876ce835cf1e447a376828c98a03af", "type": "electric_scooter", "is_reserved": 0, "lon": -77.02714233333333}, {"fusion_lat": 0.0, "name": "9edc5d90b2a19654705f446976d50628", "is_disabled": 0, "rental_uris": {"android": "https://dc.lft.to/lastmile_qr_scan", "ios": "https://dc.lft.to/lastmile_qr_scan"}, "fusion_lon": 0.0, "lat": 38.90283016666667, "bike_id": "9edc5d90b2a19654705f446976d50628", "type": "electric_scooter", "is_reserved": 0, "lon": -77.03637583333334}, {"fusion_lat": 0.0, "name": "eddb318988d2d54a6d64511c78eaf0d6", "is_disabled": 0, "rental_uris": {"android": "https://dc.lft.to/lastmile_qr_scan", "ios": "https://dc.lft.to/lastmile_qr_scan"}, "fusion_lon": 0.0, "lat": 38.956353666666665, "bike_id": "eddb318988d2d54a6d64511c78eaf0d6", "type": "electric_bike", "is_reserved": 0, "lon": -76.93876366666667}, {"fusion_lat": 0.0, "name": "ade1748d045cd9d3eb176a9e0beeb14d", "is_disabled": 0, "rental_uris": {"android": "https://dc.lft.to/lastmile_qr_scan", "ios": "https://dc.lft.to/lastmile_qr_scan"}, "fusion_lon": 0.0, "lat": 38.8996415, "bike_id": "ade1748d045cd9d3eb176a9e0beeb14d", "type": "electric_bike", "is_reserved": 0, "lon": -77.0453475}, {"fusion_lat": 0.0, "name": "6308f526a1f3b70c1d4b5dbbc4837523", "is_disabled": 0, "rental_uris": {"android": "https://dc.lft.to/lastmile_qr_scan", "ios": "https://dc.lft.to/lastmile_qr_scan"}, "fusion_lon": 0.0, "lat": 38.945289833333334, "bike_id": "6308f526a1f3b70c1d4b5dbbc4837523", "type": "electric_scooter", "is_reserved": 0, "lon": -77.02092116666667}, {"fusion_lat": 0.0, "name": "6d47660f7505ee51f07901f92fd158c8", "is_disabled": 0, "rental_uris": {"android": "https://dc.lft.to/lastmile_qr_scan", "ios": "https://dc.lft.to/lastmile_qr_scan"}, "fusion_lon": 0.0, "lat": 38.91944816666667, "bike_id": "6d47660f7505ee51f07901f92fd158c8", "type": "electric_scooter", "is_reserved": 0, "lon": -77.041595}, {"fusion_lat": 0.0, "name": "a321f99a6b4b9e20ae724a3e259e4853", "is_disabled": 0, "rental_uris": {"android": "https://dc.lft.to/lastmile_qr_scan", "ios": "https://dc.lft.to/lastmile_qr_scan"}, "fusion_lon": 0.0, "lat": 38.8799655, "bike_id": "a321f99a6b4b9e20ae724a3e259e4853", "type": "electric_scooter", "is_reserved": 0, "lon": -76.98542}, {"fusion_lat": 0.0, "name": "60deb7d05406120fcef2ad2780b6e792", "is_disabled": 0, "rental_uris": {"android": "https://dc.lft.to/lastmile_qr_scan", "ios": "https://dc.lft.to/lastmile_qr_scan"}, "fusion_lon": 0.0, "lat": 38.911553, "bike_id": "60deb7d05406120fcef2ad2780b6e792", "type": "electric_scooter", "is_reserved": 0, "lon": -76.98730866666666}, {"fusion_lat": 0.0, "name": "ea3e31da2f53038496c65e0541aea367", "is_disabled": 0, "rental_uris": {"android": "https://dc.lft.to/lastmile_qr_scan", "ios": "https://dc.lft.to/lastmile_qr_scan"}, "fusion_lon": 0.0, "lat": 38.903922666666666, "bike_id": "ea3e31da2f53038496c65e0541aea367", "type": "electric_scooter", "is_reserved": 0, "lon": -77.03651716666667}, {"fusion_lat": 0.0, "name": "f21e759b1496ab50c871963b156697cc", "is_disabled": 0, "rental_uris": {"android": "https://dc.lft.to/lastmile_qr_scan", "ios": "https://dc.lft.to/lastmile_qr_scan"}, "fusion_lon": 0.0, "lat": 38.898559666666664, "bike_id": "f21e759b1496ab50c871963b156697cc", "type": "electric_scooter", "is_reserved": 0, "lon": -77.02218833333333}, {"fusion_lat": 0.0, "name": "5d0caa87fe1c9291e7012167d09a51a5", "is_disabled": 0, "rental_uris": {"android": "https://dc.lft.to/lastmile_qr_scan", "ios": "https://dc.lft.to/lastmile_qr_scan"}, "fusion_lon": 0.0, "lat": 38.909441666666666, "bike_id": "5d0caa87fe1c9291e7012167d09a51a5", "type": "electric_scooter", "is_reserved": 0, "lon": -77.03848816666667}, {"fusion_lat": 0.0, "name": "656ddbdc3ac3cee0e1c98e5d9a7f152f", "is_disabled": 0, "rental_uris": {"android": "https://dc.lft.to/lastmile_qr_scan", "ios": "https://dc.lft.to/lastmile_qr_scan"}, "fusion_lon": 0.0, "lat": 38.914893166666666, "bike_id": "656ddbdc3ac3cee0e1c98e5d9a7f152f", "type": "electric_scooter", "is_reserved": 0, "lon": -77.01421333333333}, {"fusion_lat": 0.0, "name": "cf11b7109d31c1c739f7defff6b6de00", "is_disabled": 0, "rental_uris": {"android": "https://dc.lft.to/lastmile_qr_scan", "ios": "https://dc.lft.to/lastmile_qr_scan"}, "fusion_lon": 0.0, "lat": 38.89220266666667, "bike_id": "cf11b7109d31c1c739f7defff6b6de00", "type": "electric_scooter", "is_reserved": 0, "lon": -77.02376533333333}, {"fusion_lat": 0.0, "name": "ad7feb8ab1d1754ed43be2eb9e73f848", "is_disabled": 0, "rental_uris": {"android": "https://dc.lft.to/lastmile_qr_scan", "ios": "https://dc.lft.to/lastmile_qr_scan"}, "fusion_lon": 0.0, "lat": 38.9063625, "bike_id": "ad7feb8ab1d1754ed43be2eb9e73f848", "type": "electric_scooter", "is_reserved": 0, "lon": -77.0488025}, {"fusion_lat": 0.0, "name": "22c911ce798f0d135a671c7087238dd0", "is_disabled": 0, "rental_uris": {"android": "https://dc.lft.to/lastmile_qr_scan", "ios": "https://dc.lft.to/lastmile_qr_scan"}, "fusion_lon": 0.0, "lat": 38.89447, "bike_id": "22c911ce798f0d135a671c7087238dd0", "type": "electric_scooter", "is_reserved": 0, "lon": -76.9368155}, {"fusion_lat": 0.0, "name": "ba8d6baa7f8c04ba9404b50df6e90b88", "is_disabled": 0, "rental_uris": {"android": "https://dc.lft.to/lastmile_qr_scan", "ios": "https://dc.lft.to/lastmile_qr_scan"}, "fusion_lon": 0.0, "lat": 38.901992166666666, "bike_id": "ba8d6baa7f8c04ba9404b50df6e90b88", "type": "electric_scooter", "is_reserved": 0, "lon": -77.03670583333333}, {"fusion_lat": 0.0, "name": "04d330920a79998c530deac1136362e8", "is_disabled": 0, "rental_uris": {"android": "https://dc.lft.to/lastmile_qr_scan", "ios": "https://dc.lft.to/lastmile_qr_scan"}, "fusion_lon": 0.0, "lat": 38.896692, "bike_id": "04d330920a79998c530deac1136362e8", "type": "electric_scooter", "is_reserved": 0, "lon": -76.98843583333333}, {"fusion_lat": 0.0, "name": "e6aa7e823925faa696e35c9d2c7824eb", "is_disabled": 0, "rental_uris": {"android": "https://dc.lft.to/lastmile_qr_scan", "ios": "https://dc.lft.to/lastmile_qr_scan"}, "fusion_lon": 0.0, "lat": 38.8987365, "bike_id": "e6aa7e823925faa696e35c9d2c7824eb", "type": "electric_scooter", "is_reserved": 0, "lon": -76.93189883333334}, {"fusion_lat": 0.0, "name": "f61d1603ca31acdeb02a853c0f3b071e", "is_disabled": 0, "rental_uris": {"android": "https://dc.lft.to/lastmile_qr_scan", "ios": "https://dc.lft.to/lastmile_qr_scan"}, "fusion_lon": 0.0, "lat": 38.90527216666667, "bike_id": "f61d1603ca31acdeb02a853c0f3b071e", "type": "electric_scooter", "is_reserved": 0, "lon": -77.029774}, {"fusion_lat": 0.0, "name": "eaa6db418ced77fc728fc5374eca7c1a", "is_disabled": 0, "rental_uris": {"android": "https://dc.lft.to/lastmile_qr_scan", "ios": "https://dc.lft.to/lastmile_qr_scan"}, "fusion_lon": 0.0, "lat": 38.847565333333336, "bike_id": "eaa6db418ced77fc728fc5374eca7c1a", "type": "electric_scooter", "is_reserved": 0, "lon": -76.995026}, {"fusion_lat": 0.0, "name": "b83c6cfd6ddda1fb47d00971892bb7fd", "is_disabled": 0, "rental_uris": {"android": "https://dc.lft.to/lastmile_qr_scan", "ios": "https://dc.lft.to/lastmile_qr_scan"}, "fusion_lon": 0.0, "lat": 38.910458166666665, "bike_id": "b83c6cfd6ddda1fb47d00971892bb7fd", "type": "electric_scooter", "is_reserved": 0, "lon": -77.04294583333333}, {"fusion_lat": 0.0, "name": "0967ce45404da3c69dc26412deb61449", "is_disabled": 0, "rental_uris": {"android": "https://dc.lft.to/lastmile_qr_scan", "ios": "https://dc.lft.to/lastmile_qr_scan"}, "fusion_lon": 0.0, "lat": 38.907559666666664, "bike_id": "0967ce45404da3c69dc26412deb61449", "type": "electric_scooter", "is_reserved": 0, "lon": -77.045613}, {"fusion_lat": 0.0, "name": "76568e7ae706c31528ba58073f8acf0c", "is_disabled": 0, "rental_uris": {"android": "https://dc.lft.to/lastmile_qr_scan", "ios": "https://dc.lft.to/lastmile_qr_scan"}, "fusion_lon": 0.0, "lat": 38.93523366666667, "bike_id": "76568e7ae706c31528ba58073f8acf0c", "type": "electric_scooter", "is_reserved": 0, "lon": -77.07260866666667}, {"fusion_lat": 0.0, "name": "0813fb011a44042b6eebcec68d4d751d", "is_disabled": 0, "rental_uris": {"android": "https://dc.lft.to/lastmile_qr_scan", "ios": "https://dc.lft.to/lastmile_qr_scan"}, "fusion_lon": 0.0, "lat": 38.87191033333333, "bike_id": "0813fb011a44042b6eebcec68d4d751d", "type": "electric_scooter", "is_reserved": 0, "lon": -77.006301}, {"fusion_lat": 0.0, "name": "2aefe268cf121248c2d470d82eec0737", "is_disabled": 0, "rental_uris": {"android": "https://dc.lft.to/lastmile_qr_scan", "ios": "https://dc.lft.to/lastmile_qr_scan"}, "fusion_lon": 0.0, "lat": 39.05255983333333, "bike_id": "2aefe268cf121248c2d470d82eec0737", "type": "electric_bike", "is_reserved": 0, "lon": -77.08072283333334}, {"fusion_lat": 0.0, "name": "7ffe9903d8e7a9ab67b29764794f7801", "is_disabled": 0, "rental_uris": {"android": "https://dc.lft.to/lastmile_qr_scan", "ios": "https://dc.lft.to/lastmile_qr_scan"}, "fusion_lon": 0.0, "lat": 38.935596833333335, "bike_id": "7ffe9903d8e7a9ab67b29764794f7801", "type": "electric_bike", "is_reserved": 0, "lon": -77.03703616666667}, {"fusion_lat": 0.0, "name": "7b0df2aaca1aa5933c4fe607b76bf7c7", "is_disabled": 0, "rental_uris": {"android": "https://dc.lft.to/lastmile_qr_scan", "ios": "https://dc.lft.to/lastmile_qr_scan"}, "fusion_lon": 0.0, "lat": 38.9154815, "bike_id": "7b0df2aaca1aa5933c4fe607b76bf7c7", "type": "electric_scooter", "is_reserved": 0, "lon": -77.01274733333334}, {"fusion_lat": 0.0, "name": "a783ad3e0601ee54afedb7a68729435c", "is_disabled": 0, "rental_uris": {"android": "https://dc.lft.to/lastmile_qr_scan", "ios": "https://dc.lft.to/lastmile_qr_scan"}, "fusion_lon": 0.0, "lat": 38.92785466666667, "bike_id": "a783ad3e0601ee54afedb7a68729435c", "type": "electric_scooter", "is_reserved": 0, "lon": -77.032208}, {"fusion_lat": 0.0, "name": "7f257bbaf96fcfae367b87030e86cf34", "is_disabled": 0, "rental_uris": {"android": "https://dc.lft.to/lastmile_qr_scan", "ios": "https://dc.lft.to/lastmile_qr_scan"}, "fusion_lon": 0.0, "lat": 38.910841833333336, "bike_id": "7f257bbaf96fcfae367b87030e86cf34", "type": "electric_scooter", "is_reserved": 0, "lon": -77.06512516666666}, {"fusion_lat": 0.0, "name": "72dea70f74890ab8dbec8e5a693c69d0", "is_disabled": 0, "rental_uris": {"android": "https://dc.lft.to/lastmile_qr_scan", "ios": "https://dc.lft.to/lastmile_qr_scan"}, "fusion_lon": 0.0, "lat": 38.9376715, "bike_id": "72dea70f74890ab8dbec8e5a693c69d0", "type": "electric_scooter", "is_reserved": 0, "lon": -77.03264183333333}, {"fusion_lat": 0.0, "name": "2c7294ce6b5ff3c8c1be145461e9be7d", "is_disabled": 0, "rental_uris": {"android": "https://dc.lft.to/lastmile_qr_scan", "ios": "https://dc.lft.to/lastmile_qr_scan"}, "fusion_lon": 0.0, "lat": 38.9171165, "bike_id": "2c7294ce6b5ff3c8c1be145461e9be7d", "type": "electric_scooter", "is_reserved": 0, "lon": -77.01145516666666}, {"fusion_lat": 0.0, "name": "be671702c97089fdfd9daca56ce79c7e", "is_disabled": 0, "rental_uris": {"android": "https://dc.lft.to/lastmile_qr_scan", "ios": "https://dc.lft.to/lastmile_qr_scan"}, "fusion_lon": 0.0, "lat": 38.913005, "bike_id": "be671702c97089fdfd9daca56ce79c7e", "type": "electric_scooter", "is_reserved": 0, "lon": -77.048705}, {"fusion_lat": 0.0, "name": "2f52291e80e959b242a06fbf5042594e", "is_disabled": 0, "rental_uris": {"android": "https://dc.lft.to/lastmile_qr_scan", "ios": "https://dc.lft.to/lastmile_qr_scan"}, "fusion_lon": 0.0, "lat": 38.873735833333335, "bike_id": "2f52291e80e959b242a06fbf5042594e", "type": "electric_scooter", "is_reserved": 0, "lon": -77.00049133333333}, {"fusion_lat": 0.0, "name": "0bdc82645a987bb1bc224b4ec9338a4e", "is_disabled": 0, "rental_uris": {"android": "https://dc.lft.to/lastmile_qr_scan", "ios": "https://dc.lft.to/lastmile_qr_scan"}, "fusion_lon": 0.0, "lat": 38.819472833333336, "bike_id": "0bdc82645a987bb1bc224b4ec9338a4e", "type": "electric_bike", "is_reserved": 0, "lon": -77.12722983333333}, {"fusion_lat": 0.0, "name": "076443c0a760219c3b57827dc74303b1", "is_disabled": 0, "rental_uris": {"android": "https://dc.lft.to/lastmile_qr_scan", "ios": "https://dc.lft.to/lastmile_qr_scan"}, "fusion_lon": 0.0, "lat": 38.9255505, "bike_id": "076443c0a760219c3b57827dc74303b1", "type": "electric_scooter", "is_reserved": 0, "lon": -77.0776545}, {"fusion_lat": 0.0, "name": "61def17443b1342ffe12b8152c0792fd", "is_disabled": 0, "rental_uris": {"android": "https://dc.lft.to/lastmile_qr_scan", "ios": "https://dc.lft.to/lastmile_qr_scan"}, "fusion_lon": 0.0, "lat": 38.87832566666667, "bike_id": "61def17443b1342ffe12b8152c0792fd", "type": "electric_scooter", "is_reserved": 0, "lon": -76.963261}, {"fusion_lat": 0.0, "name": "158f5c584ad388fbd22ae15d96655d02", "is_disabled": 0, "rental_uris": {"android": "https://dc.lft.to/lastmile_qr_scan", "ios": "https://dc.lft.to/lastmile_qr_scan"}, "fusion_lon": 0.0, "lat": 38.88477966666667, "bike_id": "158f5c584ad388fbd22ae15d96655d02", "type": "electric_scooter", "is_reserved": 0, "lon": -77.02097266666667}, {"fusion_lat": 0.0, "name": "19f57720e63d6445d3155da536e06640", "is_disabled": 0, "rental_uris": {"android": "https://dc.lft.to/lastmile_qr_scan", "ios": "https://dc.lft.to/lastmile_qr_scan"}, "fusion_lon": 0.0, "lat": 38.8740255, "bike_id": "19f57720e63d6445d3155da536e06640", "type": "electric_scooter", "is_reserved": 0, "lon": -76.97471133333333}, {"fusion_lat": 0.0, "name": "e3d1c2a4add43c19efa0c3271ab2ab8a", "is_disabled": 0, "rental_uris": {"android": "https://dc.lft.to/lastmile_qr_scan", "ios": "https://dc.lft.to/lastmile_qr_scan"}, "fusion_lon": 0.0, "lat": 38.935478, "bike_id": "e3d1c2a4add43c19efa0c3271ab2ab8a", "type": "electric_scooter", "is_reserved": 0, "lon": -77.03459616666666}, {"fusion_lat": 0.0, "name": "16f9748cdd751c04f861c2e660a2eaab", "is_disabled": 0, "rental_uris": {"android": "https://dc.lft.to/lastmile_qr_scan", "ios": "https://dc.lft.to/lastmile_qr_scan"}, "fusion_lon": 0.0, "lat": 38.89987983333333, "bike_id": "16f9748cdd751c04f861c2e660a2eaab", "type": "electric_scooter", "is_reserved": 0, "lon": -77.01947483333333}, {"fusion_lat": 0.0, "name": "e96e2334e9a96e2493125ddac106e6df", "is_disabled": 0, "rental_uris": {"android": "https://dc.lft.to/lastmile_qr_scan", "ios": "https://dc.lft.to/lastmile_qr_scan"}, "fusion_lon": 0.0, "lat": 38.911237, "bike_id": "e96e2334e9a96e2493125ddac106e6df", "type": "electric_scooter", "is_reserved": 0, "lon": -77.03835366666667}, {"fusion_lat": 0.0, "name": "e41a43c119410935d61a5b3272427099", "is_disabled": 0, "rental_uris": {"android": "https://dc.lft.to/lastmile_qr_scan", "ios": "https://dc.lft.to/lastmile_qr_scan"}, "fusion_lon": 0.0, "lat": 38.898918333333334, "bike_id": "e41a43c119410935d61a5b3272427099", "type": "electric_scooter", "is_reserved": 0, "lon": -76.98064666666667}, {"fusion_lat": 0.0, "name": "e61e72b64431b6a6fe3543be994a4214", "is_disabled": 0, "rental_uris": {"android": "https://dc.lft.to/lastmile_qr_scan", "ios": "https://dc.lft.to/lastmile_qr_scan"}, "fusion_lon": 0.0, "lat": 38.9097975, "bike_id": "e61e72b64431b6a6fe3543be994a4214", "type": "electric_scooter", "is_reserved": 0, "lon": -77.03937366666666}, {"fusion_lat": 0.0, "name": "317758dd0698fb1fe31da82f117ce758", "is_disabled": 0, "rental_uris": {"android": "https://dc.lft.to/lastmile_qr_scan", "ios": "https://dc.lft.to/lastmile_qr_scan"}, "fusion_lon": 0.0, "lat": 39.070536833333335, "bike_id": "317758dd0698fb1fe31da82f117ce758", "type": "electric_bike", "is_reserved": 0, "lon": -77.11489}, {"fusion_lat": 0.0, "name": "e3724d9e0c8d1cba8806762e0aacc467", "is_disabled": 0, "rental_uris": {"android": "https://dc.lft.to/lastmile_qr_scan", "ios": "https://dc.lft.to/lastmile_qr_scan"}, "fusion_lon": 0.0, "lat": 38.90945966666666, "bike_id": "e3724d9e0c8d1cba8806762e0aacc467", "type": "electric_scooter", "is_reserved": 0, "lon": -77.03843816666667}, {"fusion_lat": 0.0, "name": "de4cbb0b5f51513caf422d1eaebf8bc6", "is_disabled": 0, "rental_uris": {"android": "https://dc.lft.to/lastmile_qr_scan", "ios": "https://dc.lft.to/lastmile_qr_scan"}, "fusion_lon": 0.0, "lat": 38.8698815, "bike_id": "de4cbb0b5f51513caf422d1eaebf8bc6", "type": "electric_scooter", "is_reserved": 0, "lon": -77.0137585}, {"fusion_lat": 0.0, "name": "52372f239bcd418a97a251903488b09e", "is_disabled": 0, "rental_uris": {"android": "https://dc.lft.to/lastmile_qr_scan", "ios": "https://dc.lft.to/lastmile_qr_scan"}, "fusion_lon": 0.0, "lat": 38.900386166666664, "bike_id": "52372f239bcd418a97a251903488b09e", "type": "electric_scooter", "is_reserved": 0, "lon": -76.98947333333334}, {"fusion_lat": 0.0, "name": "f75c6c65a2267605ae31422acdea6460", "is_disabled": 0, "rental_uris": {"android": "https://dc.lft.to/lastmile_qr_scan", "ios": "https://dc.lft.to/lastmile_qr_scan"}, "fusion_lon": 0.0, "lat": 38.92694266666667, "bike_id": "f75c6c65a2267605ae31422acdea6460", "type": "electric_scooter", "is_reserved": 0, "lon": -77.0209755}, {"fusion_lat": 0.0, "name": "b0cfee90cdf905495e399430a179664e", "is_disabled": 0, "rental_uris": {"android": "https://dc.lft.to/lastmile_qr_scan", "ios": "https://dc.lft.to/lastmile_qr_scan"}, "fusion_lon": 0.0, "lat": 38.90021133333333, "bike_id": "b0cfee90cdf905495e399430a179664e", "type": "electric_scooter", "is_reserved": 0, "lon": -77.00037216666666}, {"fusion_lat": 0.0, "name": "614eff4ff963009bef497e9e353f14f2", "is_disabled": 0, "rental_uris": {"android": "https://dc.lft.to/lastmile_qr_scan", "ios": "https://dc.lft.to/lastmile_qr_scan"}, "fusion_lon": 0.0, "lat": 38.925436, "bike_id": "614eff4ff963009bef497e9e353f14f2", "type": "electric_scooter", "is_reserved": 0, "lon": -77.04309333333333}, {"fusion_lat": 0.0, "name": "6b90c9ae72e45d677279626e4a211790", "is_disabled": 0, "rental_uris": {"android": "https://dc.lft.to/lastmile_qr_scan", "ios": "https://dc.lft.to/lastmile_qr_scan"}, "fusion_lon": 0.0, "lat": 38.953887333333334, "bike_id": "6b90c9ae72e45d677279626e4a211790", "type": "electric_bike", "is_reserved": 0, "lon": -76.9796525}, {"fusion_lat": 0.0, "name": "8c42bc336f5d6ecf9c4f8b2b72890da4", "is_disabled": 0, "rental_uris": {"android": "https://dc.lft.to/lastmile_qr_scan", "ios": "https://dc.lft.to/lastmile_qr_scan"}, "fusion_lon": 0.0, "lat": 38.92618566666667, "bike_id": "8c42bc336f5d6ecf9c4f8b2b72890da4", "type": "electric_scooter", "is_reserved": 0, "lon": -77.04333866666667}, {"fusion_lat": 0.0, "name": "2b1dfad52c5bfaf2e849d879735af187", "is_disabled": 0, "rental_uris": {"android": "https://dc.lft.to/lastmile_qr_scan", "ios": "https://dc.lft.to/lastmile_qr_scan"}, "fusion_lon": 0.0, "lat": 38.92006516666667, "bike_id": "2b1dfad52c5bfaf2e849d879735af187", "type": "electric_scooter", "is_reserved": 0, "lon": -77.07119333333333}, {"fusion_lat": 0.0, "name": "e90cf2227a7846aed36e5e5c675a4e94", "is_disabled": 0, "rental_uris": {"android": "https://dc.lft.to/lastmile_qr_scan", "ios": "https://dc.lft.to/lastmile_qr_scan"}, "fusion_lon": 0.0, "lat": 38.913346833333335, "bike_id": "e90cf2227a7846aed36e5e5c675a4e94", "type": "electric_scooter", "is_reserved": 0, "lon": -77.04785266666667},