{"data": {"bikes": [{"bike_id": "f3cde5e3a0fefa863e840f9c9cc8c101", "is_reserved": 0, "name": "f3cde5e3a0fefa863e840f9c9cc8c101", "lat": 38.93916083333333, "fusion_lat": 0.0, "lon": -77.02479116666666, "is_disabled": 0, "fusion_lon": 0.0, "rental_uris": {"android": "https://dc.lft.to/lastmile_qr_scan", "ios": "https://dc.lft.to/lastmile_qr_scan"}, "type": "electric_scooter"}, {"bike_id": "85c11761b376975b317a771a0158f9b7", "is_reserved": 0, "name": "85c11761b376975b317a771a0158f9b7", "lat": 38.906815333333334, "fusion_lat": 0.0, "lon": -77.07181566666667, "is_disabled": 0, "fusion_lon": 0.0, "rental_uris": {"android": "https://dc.lft.to/lastmile_qr_scan", "ios": "https://dc.lft.to/lastmile_qr_scan"}, "type": "electric_scooter"}, {"bike_id": "8c29b683d1bad5c669234ffc074a73ff", "is_reserved": 0, "name": "8c29b683d1bad5c669234ffc074a73ff", "lat": 38.9160625, "fusion_lat": 0.0, "lon": -77.04168833333334, "is_disabled": 0, "fusion_lon": 0.0, "rental_uris": {"android": "https://dc.lft.to/lastmile_qr_scan", "ios": "https://dc.lft.to/lastmile_qr_scan"}, "type": "electric_scooter"}, {"bike_id": "6db542816d490923550f027267b8be1a", "is_reserved": 0, "name": "6db542816d490923550f027267b8be1a", "lat": 38.873676833333334, "fusion_lat": 0.0, "lon": -77.001294, "is_disabled": 0, "fusion_lon": 0.0, "rental_uris": {"android": "https://dc.lft.to/lastmile_qr_scan", "ios": "https://dc.lft.to/lastmile_qr_scan"}, "type": "electric_scooter"}, {"bike_id": "df1c6a6780dc321fafe503db7cb560c3", "is_reserved": 0, "name": "df1c6a6780dc321fafe503db7cb560c3", "lat": 38.87228266666666, "fusion_lat": 0.0, "lon": -77.00572566666666, "is_disabled": 0, "fusion_lon": 0.0, "rental_uris": {"android": "https://dc.lft.to/lastmile_qr_scan", "ios": "https://dc.lft.to/lastmile_qr_scan"}, "type": "electric_scooter"}, {"bike_id": "5c9e30a43a8f6c83d9230d3fe37f1f04", "is_reserved": 0, "name": "5c9e30a43a8f6c83d9230d3fe37f1f04", "lat": 38.90855066666666, "fusion_lat": 0.0, "lon": -77.02723633333333, "is_disabled": 0, "fusion_lon": 0.0, "rental_uris": {"android": "https://dc.lft.to/lastmile_qr_scan", "ios": "https://dc.lft.to/lastmile_qr_scan"}, "type": "electric_scooter"}, {"bike_id": "59d03308d9cd5b57810e00c050d75180", "is_reserved": 0, "name": "59d03308d9cd5b57810e00c050d75180", "lat": 38.9026865, "fusion_lat": 0.0, "lon": -77.02831166666667, "is_disabled": 0, "fusion_lon": 0.0, "rental_uris": {"android": "https://dc.lft.to/lastmile_qr_scan", "ios": "https://dc.lft.to/lastmile_qr_scan"}, "type": "electric_scooter"}, {"bike_id": "f4066b704d11fe0bde898b60d8b084b2", "is_reserved": 0, "name": "f4066b704d11fe0bde898b60d8b084b2", "lat": 38.887320333333335, "fusion_lat": 0.0, "lon": -77.02382116666666, "is_disabled": 0, "fusion_lon": 0.0, "rental_uris": {"android": "https://dc.lft.to/lastmile_qr_scan", "ios": "https://dc.lft.to/lastmile_qr_scan"}, "type": "electric_scooter"}, {"bike_id": "c242e4270a49116a96b7ab9db8f44be1", "is_reserved": 0, "name": "c242e4270a49116a96b7ab9db8f44be1", "lat": 38.9622255, "fusion_lat": 0.0, "lon": -77.0280225, "is_disabled": 0, "fusion_lon": 0.0, "rental_uris": {"android": "https://dc.lft.to/lastmile_qr_scan", "ios": "https://dc.lft.to/lastmile_qr_scan"}, "type": "electric_bike"}, {"bike_id": "ce7878546bb30e6993efe1a9e337012f", "is_reserved": 0, "name": "ce7878546bb30e6993efe1a9e337012f", "lat": 38.900656166666664, "fusion_lat": 0.0, "lon": -77.013096, "is_disabled": 0, "fusion_lon": 0.0, "rental_uris": {"android": "https://dc.lft.to/lastmile_qr_scan", "ios": "https://dc.lft.to/lastmile_qr_scan"}, "type": "electric_scooter"}, {"bike_id": "342c74c63e63ed91bb8766f9ecaa89ea", "is_reserved": 0, "name": "342c74c63e63ed91bb8766f9ecaa89ea", "lat": 38.91689816666667, "fusion_lat": 0.0, "lon": -77.03554233333334, "is_disabled": 0, "fusion_lon": 0.0, "rental_uris": {"android": "https://dc.lft.to/lastmile_qr_scan", "ios": "https://dc.lft.to/lastmile_qr_scan"}, "type": "electric_scooter"}, {"bike_id": "ed662e069cbd81e46c74e8e3fbb78509", "is_reserved": 0, "name": "ed662e069cbd81e46c74e8e3fbb78509", "lat": 38.942955166666664, "fusion_lat": 0.0, "lon": -77.02168683333333, "is_disabled": 0, "fusion_lon": 0.0, "rental_uris": {"android": "https://dc.lft.to/lastmile_qr_scan", "ios": "https://dc.lft.to/lastmile_qr_scan"}, "type": "electric_scooter"}, {"bike_id": "ad62f3d9fb99fa5e4810edb87664845e", "is_reserved": 0, "name": "ad62f3d9fb99fa5e4810edb87664845e", "lat": 38.92308966666667, "fusion_lat": 0.0, "lon": -77.03658533333333, "is_disabled": 0, "fusion_lon": 0.0, "rental_uris": {"android": "https://dc.lft.to/lastmile_qr_scan", "ios": "https://dc.lft.to/lastmile_qr_scan"}, "type": "electric_scooter"}, {"bike_id": "e0d59b6c0590436d321d6f7175623317", "is_reserved": 0, "name": "e0d59b6c0590436d321d6f7175623317", "lat": 38.919217833333335, "fusion_lat": 0.0, "lon": -77.03122866666666, "is_disabled": 0, "fusion_lon": 0.0, "rental_uris": {"android": "https://dc.lft.to/lastmile_qr_scan", "ios": "https://dc.lft.to/lastmile_qr_scan"}, "type": "electric_scooter"}, {"bike_id": "402dd56776187d83ceb01299c10879de", "is_reserved": 0, "name": "402dd56776187d83ceb01299c10879de", "lat": 38.876758833333334, "fusion_lat": 0.0, "lon": -77.0034105, "is_disabled": 0, "fusion_lon": 0.0, "rental_uris": {"android": "https://dc.lft.to/lastmile_qr_scan", "ios": "https://dc.lft.to/lastmile_qr_scan"}, "type": "electric_scooter"}, {"bike_id": "a819bbb8e5bac32c1823e934520a7bc2", "is_reserved": 0, "name": "a819bbb8e5bac32c1823e934520a7bc2", "lat": 38.8461145, "fusion_lat": 0.0, "lon": -76.96908116666667, "is_disabled": 0, "fusion_lon": 0.0, "rental_uris": {"android": "https://dc.lft.to/lastmile_qr_scan", "ios": "https://dc.lft.to/lastmile_qr_scan"}, "type": "electric_bike"}, {"bike_id": "dbc61180adfcda9f73424d7618ab133c", "is_reserved": 0, "name": "dbc61180adfcda9f73424d7618ab133c", "lat": 38.89733966666667, "fusion_lat": 0.0, "lon": -77.03303733333334, "is_disabled": 0, "fusion_lon": 0.0, "rental_uris": {"android": "https://dc.lft.to/lastmile_qr_scan", "ios": "https://dc.lft.to/lastmile_qr_scan"}, "type": "electric_scooter"}, {"bike_id": "c98bb30a05000db27394e4beb6ea6514", "is_reserved": 0, "name": "c98bb30a05000db27394e4beb6ea6514", "lat": 38.92850083333333, "fusion_lat": 0.0, "lon": -77.0327295, "is_disabled": 0, "fusion_lon": 0.0, "rental_uris": {"android": "https://dc.lft.to/lastmile_qr_scan", "ios": "https://dc.lft.to/lastmile_qr_scan"}, "type": "electric_scooter"}, {"bike_id": "4b269874f56fe69e5a20c0126dd67f4c", "is_reserved": 0, "name": "4b269874f56fe69e5a20c0126dd67f4c", "lat": 38.892210666666664, "fusion_lat": 0.0, "lon": -77.04322633333334, "is_disabled": 0, "fusion_lon": 0.0, "rental_uris": {"android": "https://dc.lft.to/lastmile_qr_scan", "ios": "https://dc.lft.to/lastmile_qr_scan"}, "type": "electric_scooter"}, {"bike_id": "b18ecead9df6a142e2fb591e9a2c373d", "is_reserved": 0, "name": "b18ecead9df6a142e2fb591e9a2c373d", "lat": 38.920449, "fusion_lat": 0.0, "lon": -77.0236245, "is_disabled": 0, "fusion_lon": 0.0, "rental_uris": {"android": "https://dc.lft.to/lastmile_qr_scan", "ios": "https://dc.lft.to/lastmile_qr_scan"}, "type": "electric_scooter"}, {"bike_id": "4314a772adaa711eaf94d8f8519612a1", "is_reserved": 0, "name": "4314a772adaa711eaf94d8f8519612a1", "lat": 38.88187816666667, "fusion_lat": 0.0, "lon": -76.99024633333333, "is_disabled": 0, "fusion_lon": 0.0, "rental_uris": {"android": "https://dc.lft.to/lastmile_qr_scan", "ios": "https://dc.lft.to/lastmile_qr_scan"}, "type": "electric_scooter"}, {"bike_id": "70894c712a942ffd0d1ec9c6b14d3806", "is_reserved": 0, "name": "70894c712a942ffd0d1ec9c6b14d3806", "lat": 38.90047833333333, "fusion_lat": 0.0, "lon": -77.0296295, "is_disabled": 0, "fusion_lon": 0.0, "rental_uris": {"android": "https://dc.lft.to/lastmile_qr_scan", "ios": "https://dc.lft.to/lastmile_qr_scan"}, "type": "electric_scooter"}, {"bike_id": "badb1edb23b2a7dd9626f417f085082a", "is_reserved": 0, "name": "badb1edb23b2a7dd9626f417f085082a", "lat": 38.920579000000004, "fusion_lat": 0.0, "lon": -77.03185733333333, "is_disabled": 0, "fusion_lon": 0.0, "rental_uris": {"android": "https://dc.lft.to/lastmile_qr_scan", "ios": "https://dc.lft.to/lastmile_qr_scan"}, "type": "electric_scooter"}, {"bike_id": "22ede555bccfb68f19ca4957d08b537d", "is_reserved": 0, "name": "22ede555bccfb68f19ca4957d08b537d", "lat": 38.90396283333333, "fusion_lat": 0.0, "lon": -76.98942216666667, "is_disabled": 0, "fusion_lon": 0.0, "rental_uris": {"android": "https://dc.lft.to/lastmile_qr_scan", "ios": "https://dc.lft.to/lastmile_qr_scan"}, "type": "electric_scooter"}, {"bike_id": "39c9b9b41ff25621fd088e6fe4c9d9bb", "is_reserved": 0, "name": "39c9b9b41ff25621fd088e6fe4c9d9bb", "lat": 38.8957065, "fusion_lat": 0.0, "lon": -77.0217485, "is_disabled": 0, "fusion_lon": 0.0, "rental_uris": {"android": "https://dc.lft.to/lastmile_qr_scan", "ios": "https://dc.lft.to/lastmile_qr_scan"}, "type": "electric_scooter"}, {"bike_id": "2f6a99645d0ac7472dd6e0ca4314ceb7", "is_reserved": 0, "name": "2f6a99645d0ac7472dd6e0ca4314ceb7", "lat": 38.909807, "fusion_lat": 0.0, "lon": -77.0333385, "is_disabled": 0, "fusion_lon": 0.0, "rental_uris": {"android": "https://dc.lft.to/lastmile_qr_scan", "ios": "https://dc.lft.to/lastmile_qr_scan"}, "type": "electric_scooter"}, {"bike_id": "75f360865d0265fcc19c3cfe3b2425c1", "is_reserved": 0, "name": "75f360865d0265fcc19c3cfe3b2425c1", "lat": 38.9265465, "fusion_lat": 0.0, "lon": -77.02432266666666, "is_disabled": 0, "fusion_lon": 0.0, "rental_uris": {"android": "https://dc.lft.to/lastmile_qr_scan", "ios": "https://dc.lft.to/lastmile_qr_scan"}, "type": "electric_scooter"}, {"bike_id": "cba2296289276b652cf7c7851463e2b3", "is_reserved": 0, "name": "cba2296289276b652cf7c7851463e2b3", "lat": 38.913309166666664, "fusion_lat": 0.0, "lon": -77.03709133333334, "is_disabled": 0, "fusion_lon": 0.0, "rental_uris": {"android": "https://dc.lft.to/lastmile_qr_scan", "ios": "https://dc.lft.to/lastmile_qr_scan"}, "type": "electric_scooter"}, {"bike_id": "43a84062f1ad2a4f7a23b0cb48ecc891", "is_reserved": 0, "name": "43a84062f1ad2a4f7a23b0cb48ecc891", "lat": 38.904453333333336, "fusion_lat": 0.0, "lon": -77.05815483333333, "is_disabled": 0, "fusion_lon": 0.0, "rental_uris": {"android": "https://dc.lft.to/lastmile_qr_scan", "ios": "https://dc.lft.to/lastmile_qr_scan"}, "type": "electric_scooter"}, {"bike_id": "aa78418fa80ab651af0bcdce73520a06", "is_reserved": 0, "name": "aa78418fa80ab651af0bcdce73520a06", "lat": 38.899356833333336, "fusion_lat": 0.0, "lon": -77.051403, "is_disabled": 0, "fusion_lon": 0.0, "rental_uris": {"android": "https://dc.lft.to/lastmile_qr_scan", "ios": "https://dc.lft.to/lastmile_qr_scan"}, "type": "electric_scooter"}, {"bike_id": "7cdd4391325fc61a202807a300324ad1", "is_reserved": 0, "name": "7cdd4391325fc61a202807a300324ad1", "lat": 38.89609083333333, "fusion_lat": 0.0, "lon": -77.04505266666666, "is_disabled": 0, "fusion_lon": 0.0, "rental_uris": {"android": "https://dc.lft.to/lastmile_qr_scan", "ios": "https://dc.lft.to/lastmile_qr_scan"}, "type": "electric_scooter"}, {"bike_id": "3770bdd1965c534b163712885c7d16e4", "is_reserved": 0, "name": "3770bdd1965c534b163712885c7d16e4", "lat": 38.938528833333336, "fusion_lat": 0.0, "lon": -77.02457433333333, "is_disabled": 0, "fusion_lon": 0.0, "rental_uris": {"android": "https://dc.lft.to/lastmile_qr_scan", "ios": "https://dc.lft.to/lastmile_qr_scan"}, "type": "electric_scooter"}, {"bike_id": "34b146ee0c600fcb5bb3b48df58f32e5", "is_reserved": 0, "name": "34b146ee0c600fcb5bb3b48df58f32e5", "lat": 38.907222833333336, "fusion_lat": 0.0, "lon": -77.02677466666667, "is_disabled": 0, "fusion_lon": 0.0, "rental_uris": {"android": "https://dc.lft.to/lastmile_qr_scan", "ios": "https://dc.lft.to/lastmile_qr_scan"}, "type": "electric_scooter"}, {"bike_id": "da989e360698b54185f3772561452362", "is_reserved": 0, "name": "da989e360698b54185f3772561452362", "lat": 38.934453500000004, "fusion_lat": 0.0, "lon": -77.090541, "is_disabled": 0, "fusion_lon": 0.0, "rental_uris": {"android": "https://dc.lft.to/lastmile_qr_scan", "ios": "https://dc.lft.to/lastmile_qr_scan"}, "type": "electric_scooter"}, {"bike_id": "c06d1d0f454875ffd601d144f7cd7066", "is_reserved": 0, "name": "c06d1d0f454875ffd601d144f7cd7066", "lat": 38.92611683333333, "fusion_lat": 0.0, "lon": -77.0370085, "is_disabled": 0, "fusion_lon": 0.0, "rental_uris": {"android": "https://dc.lft.to/lastmile_qr_scan", "ios": "https://dc.lft.to/lastmile_qr_scan"}, "type": "electric_scooter"}, {"bike_id": "9f3bcbec993717eca8692468ef825be0", "is_reserved": 0, "name": "9f3bcbec993717eca8692468ef825be0", "lat": 38.89901616666667, "fusion_lat": 0.0, "lon": -76.999554, "is_disabled": 0, "fusion_lon": 0.0, "rental_uris": {"android": "https://dc.lft.to/lastmile_qr_scan", "ios": "https://dc.lft.to/lastmile_qr_scan"}, "type": "electric_scooter"}, {"bike_id": "2e6399bce385b7285ad5699d18b0bdf6", "is_reserved": 0, "name": "2e6399bce385b7285ad5699d18b0bdf6", "lat": 38.91720566666667, "fusion_lat": 0.0, "lon": -77.02582716666667, "is_disabled": 0, "fusion_lon": 0.0, "rental_uris": {"android": "https://dc.lft.to/lastmile_qr_scan", "ios": "https://dc.lft.to/lastmile_qr_scan"}, "type": "electric_scooter"}, {"bike_id": "4e44b9ef58321d06b25adcc9b87a8cec", "is_reserved": 0, "name": "4e44b9ef58321d06b25adcc9b87a8cec", "lat": 38.8968605, "fusion_lat": 0.0, "lon": -76.93710533333334, "is_disabled": 0, "fusion_lon": 0.0, "rental_uris": {"android": "https://dc.lft.to/lastmile_qr_scan", "ios": "https://dc.lft.to/lastmile_qr_scan"}, "type": "electric_scooter"}, {"bike_id": "a8f972968093f863df31ef72069e51a7", "is_reserved": 0, "name": "a8f972968093f863df31ef72069e51a7", "lat": 38.935399, "fusion_lat": 0.0, "lon": -77.0574825, "is_disabled": 0, "fusion_lon": 0.0, "rental_uris": {"android": "https://dc.lft.to/lastmile_qr_scan", "ios": "https://dc.lft.to/lastmile_qr_scan"}, "type": "electric_scooter"}, {"bike_id": "f3c3ce28930759fce79f6e6eac52b3b2", "is_reserved": 0, "name": "f3c3ce28930759fce79f6e6eac52b3b2", "lat": 38.899143333333335, "fusion_lat": 0.0, "lon": -76.945548, "is_disabled": 0, "fusion_lon": 0.0, "rental_uris": {"android": "https://dc.lft.to/lastmile_qr_scan", "ios": "https://dc.lft.to/lastmile_qr_scan"}, "type": "electric_scooter"}, {"bike_id": "f603868a6941ab55e1ff0ac1e1b6c0b6", "is_reserved": 0, "name": "f603868a6941ab55e1ff0ac1e1b6c0b6", "lat": 38.87577733333333, "fusion_lat": 0.0, "lon": -77.23412416666666, "is_disabled": 0, "fusion_lon": 0.0, "rental_uris": {"android": "https://dc.lft.to/lastmile_qr_scan", "ios": "https://dc.lft.to/lastmile_qr_scan"}, "type": "electric_bike"}, {"bike_id": "f0bf77df2e79e7eb65fe87617ee1a852", "is_reserved": 0, "name": "f0bf77df2e79e7eb65fe87617ee1a852", "lat": 38.90839883333334, "fusion_lat": 0.0, "lon": -77.033006, "is_disabled": 0, "fusion_lon": 0.0, "rental_uris": {"android": "https://dc.lft.to/lastmile_qr_scan", "ios": "https://dc.lft.to/lastmile_qr_scan"}, "type": "electric_scooter"}, {"bike_id": "4a7162fb4aa90eed02b5a5a368c3cccd", "is_reserved": 0, "name": "4a7162fb4aa90eed02b5a5a368c3cccd", "lat": 38.90578983333333, "fusion_lat": 0.0, "lon": -77.008867, "is_disabled": 0, "fusion_lon": 0.0, "rental_uris": {"android": "https://dc.lft.to/lastmile_qr_scan", "ios": "https://dc.lft.to/lastmile_qr_scan"}, "type": "electric_scooter"}, {"bike_id": "2626757ab4ae2efb7cf4166b4ce0f56b", "is_reserved": 0, "name": "2626757ab4ae2efb7cf4166b4ce0f56b", "lat": 38.95054116666667, "fusion_lat": 0.0, "lon": -77.0802115, "is_disabled": 0, "fusion_lon": 0.0, "rental_uris": {"android": "https://dc.lft.to/lastmile_qr_scan", "ios": "https://dc.lft.to/lastmile_qr_scan"}, "type": "electric_scooter"}, {"bike_id": "3b873066c6e82528a8a98bc2eb6dc8da", "is_reserved": 0, "name": "3b873066c6e82528a8a98bc2eb6dc8da", "lat": 38.899729666666666, "fusion_lat": 0.0, "lon": -77.02709116666666, "is_disabled": 0, "fusion_lon": 0.0, "rental_uris": {"android": "https://dc.lft.to/lastmile_qr_scan", "ios": "https://dc.lft.to/lastmile_qr_scan"}, "type": "electric_scooter"}, {"bike_id": "147be6ecfe952eab4b55a3c32881a5a8", "is_reserved": 0, "name": "147be6ecfe952eab4b55a3c32881a5a8", "lat": 38.92343616666667, "fusion_lat": 0.0, "lon": -77.05162666666666, "is_disabled": 0, "fusion_lon": 0.0, "rental_uris": {"android": "https://dc.lft.to/lastmile_qr_scan", "ios": "https://dc.lft.to/lastmile_qr_scan"}, "type": "electric_scooter"}, {"bike_id": "23d8a7d7c4911b7eb1fec6d7f554d572", "is_reserved": 0, "name": "23d8a7d7c4911b7eb1fec6d7f554d572", "lat": 38.902602, "fusion_lat": 0.0, "lon": -77.0300075, "is_disabled": 0, "fusion_lon": 0.0, "rental_uris": {"android": "https://dc.lft.to/lastmile_qr_scan", "ios": "https://dc.lft.to/lastmile_qr_scan"}, "type": "electric_scooter"}, {"bike_id": "c542e9b9d2ed5877d4c7e6de3cbc6197", "is_reserved": 0, "name": "c542e9b9d2ed5877d4c7e6de3cbc6197", "lat": 38.905335, "fusion_lat": 0.0, "lon": -77.065218, "is_disabled": 0, "fusion_lon": 0.0, "rental_uris": {"android": "https://dc.lft.to/lastmile_qr_scan", "ios": "https://dc.lft.to/lastmile_qr_scan"}, "type": "electric_scooter"}, {"bike_id": "6459ad098a1987e662c190e8640dfdd8", "is_reserved": 0, "name": "6459ad098a1987e662c190e8640dfdd8", "lat": 38.933243, "fusion_lat": 0.0, "lon": -77.03265733333333, "is_disabled": 0, "fusion_lon": 0.0, "rental_uris": {"android": "https://dc.lft.to/lastmile_qr_scan", "ios": "https://dc.lft.to/lastmile_qr_scan"}, "type": "electric_scooter"}, {"bike_id": "57f32d2ddd22c94f8d74faff0fb66cf3", "is_reserved": 0, "name": "57f32d2ddd22c94f8d74faff0fb66cf3", "lat": 38.895241666666664, "fusion_lat": 0.0, "lon": -77.0447585, "is_disabled": 0, "fusion_lon": 0.0, "rental_uris": {"android": "https://dc.lft.to/lastmile_qr_scan", "ios": "https://dc.lft.to/lastmile_qr_scan"}, "type": "electric_scooter"}, {"bike_id": "b05fba5d7adb2528c200c652ea56b99c", "is_reserved": 0, "name": "b05fba5d7adb2528c200c652ea56b99c", "lat": 38.90837033333333, "fusion_lat": 0.0, "lon": -76.99974833333333, "is_disabled": 0, "fusion_lon": 0.0, "rental_uris": {"android": "https://dc.lft.to/lastmile_qr_scan", "ios": "https://dc.lft.to/lastmile_qr_scan"}, "type": "electric_scooter"}, {"bike_id": "87c67f44df53ee9db828722a702c2f16", "is_reserved": 0, "name": "87c67f44df53ee9db828722a702c2f16", "lat": 38.884168833333334, "fusion_lat": 0.0, "lon": -76.9420065, "is_disabled": 0, "fusion_lon": 0.0, "rental_uris": {"android": "https://dc.lft.to/lastmile_qr_scan", "ios": "https://dc.lft.to/lastmile_qr_scan"}, "type": "electric_scooter"}, {"bike_id": "0550a555e6c88b99d8fef96b7a5e5588", "is_reserved": 0, "name": "0550a555e6c88b99d8fef96b7a5e5588", "lat": 38.887303833333334, "fusion_lat": 0.0, "lon": -76.98358383333333, "is_disabled": 0, "fusion_lon": 0.0, "rental_uris": {"android": "https://dc.lft.to/lastmile_qr_scan", "ios": "https://dc.lft.to/lastmile_qr_scan"}, "type": "electric_scooter"}, {"bike_id": "9eec3e46c5cf28fccc60ee9987586030", "is_reserved": 0, "name": "9eec3e46c5cf28fccc60ee9987586030", "lat": 38.90052383333333, "fusion_lat": 0.0, "lon": -77.02609266666667, "is_disabled": 0, "fusion_lon": 0.0, "rental_uris": {"android": "https://dc.lft.to/lastmile_qr_scan", "ios": "https://dc.lft.to/lastmile_qr_scan"}, "type": "electric_scooter"}, {"bike_id": "ce18847ed34f94c202f3cd27f3fc0519", "is_reserved": 0, "name": "ce18847ed34f94c202f3cd27f3fc0519", "lat": 38.91960983333333, "fusion_lat": 0.0, "lon": -77.0238545, "is_disabled": 0, "fusion_lon": 0.0, "rental_uris": {"android": "https://dc.lft.to/lastmile_qr_scan", "ios": "https://dc.lft.to/lastmile_qr_scan"}, "type": "electric_scooter"}, {"bike_id": "693f8d8ebc71d38bcafa961ea6ce2bba", "is_reserved": 0, "name": "693f8d8ebc71d38bcafa961ea6ce2bba", "lat": 38.87560033333333, "fusion_lat": 0.0, "lon": -77.00595683333333, "is_disabled": 0, "fusion_lon": 0.0, "rental_uris": {"android": "https://dc.lft.to/lastmile_qr_scan", "ios": "https://dc.lft.to/lastmile_qr_scan"}, "type": "electric_scooter"}, {"bike_id": "5bb2fd03045fb2112cf0d407e4d26d53", "is_reserved": 0, "name": "5bb2fd03045fb2112cf0d407e4d26d53", "lat": 38.91257483333333, "fusion_lat": 0.0, "lon": -77.03867116666666, "is_disabled": 0, "fusion_lon": 0.0, "rental_uris": {"android": "https://dc.lft.to/lastmile_qr_scan", "ios": "https://dc.lft.to/lastmile_qr_scan"}, "type": "electric_scooter"}, {"bike_id": "f1dfad0d9caa4297ae7727feb00a54eb", "is_reserved": 0, "name": "f1dfad0d9caa4297ae7727feb00a54eb", "lat": 38.90506283333333, "fusion_lat": 0.0, "lon": -77.029442, "is_disabled": 0, "fusion_lon": 0.0, "rental_uris": {"android": "https://dc.lft.to/lastmile_qr_scan", "ios": "https://dc.lft.to/lastmile_qr_scan"}, "type": "electric_scooter"}, {"bike_id": "a8c2686ea2b138e6ecc403a5a4a9fe7c", "is_reserved": 0, "name": "a8c2686ea2b138e6ecc403a5a4a9fe7c", "lat": 38.883389666666666, "fusion_lat": 0.0, "lon": -77.03156066666666, "is_disabled": 0, "fusion_lon": 0.0, "rental_uris": {"android": "https://dc.lft.to/lastmile_qr_scan", "ios": "https://dc.lft.to/lastmile_qr_scan"}, "type": "electric_scooter"}, {"bike_id": "04c205e94229fb0e99886d0a7987adaa", "is_reserved": 0, "name": "04c205e94229fb0e99886d0a7987adaa", "lat": 38.847565, "fusion_lat": 0.0, "lon": -76.9949895, "is_disabled": 0, "fusion_lon": 0.0, "rental_uris": {"android": "https://dc.lft.to/lastmile_qr_scan", "ios": "https://dc.lft.to/lastmile_qr_scan"}, "type": "electric_scooter"}, {"bike_id": "87aef2f9249fef12ab00be431f301812", "is_reserved": 0, "name": "87aef2f9249fef12ab00be431f301812", "lat": 38.905565333333335, "fusion_lat": 0.0, "lon": -77.0210625, "is_disabled": 0, "fusion_lon": 0.0, "rental_uris": {"android": "https://dc.lft.to/lastmile_qr_scan", "ios": "https://dc.lft.to/lastmile_qr_scan"}, "type": "electric_scooter"}, {"bike_id": "c33a81cd40eca27715669dce7507387e", "is_reserved": 0, "name": "c33a81cd40eca27715669dce7507387e", "lat": 38.904888, "fusion_lat": 0.0, "lon": -76.98877616666667, "is_disabled": 0, "fusion_lon": 0.0, "rental_uris": {"android": "https://dc.lft.to/lastmile_qr_scan", "ios": "https://dc.lft.to/lastmile_qr_scan"}, "type": "electric_scooter"}, {"bike_id": "c02a7e318ac2ed43371e666b19fe1247", "is_reserved": 0, "name": "c02a7e318ac2ed43371e666b19fe1247", "lat": 38.896982333333334, "fusion_lat": 0.0, "lon": -76.96306333333334, "is_disabled": 0, "fusion_lon": 0.0, "rental_uris": {"android": "https://dc.lft.to/lastmile_qr_scan", "ios": "https://dc.lft.to/lastmile_qr_scan"}, "type": "electric_bike"}, {"bike_id": "34bd16b96ae4a2b80d74cf38bf497c78", "is_reserved": 0, "name": "34bd16b96ae4a2b80d74cf38bf497c78", "lat": 38.941852833333336, "fusion_lat": 0.0, "lon": -77.02612683333334, "is_disabled": 0, "fusion_lon": 0.0, "rental_uris": {"android": "https://dc.lft.to/lastmile_qr_scan", "ios": "https://dc.lft.to/lastmile_qr_scan"}, "type": "electric_scooter"}, {"bike_id": "d7d072befc47661ccfad223df2b753c0", "is_reserved": 0, "name": "d7d072befc47661ccfad223df2b753c0", "lat": 38.905222, "fusion_lat": 0.0, "lon": -77.06062283333333, "is_disabled": 0, "fusion_lon": 0.0, "rental_uris": {"android": "https://dc.lft.to/lastmile_qr_scan", "ios": "https://dc.lft.to/lastmile_qr_scan"}, "type": "electric_scooter"}, {"bike_id": "cfc6648b5a278e2114d6262830237274", "is_reserved": 0, "name": "cfc6648b5a278e2114d6262830237274", "lat": 38.9241515, "fusion_lat": 0.0, "lon": -77.01941316666667, "is_disabled": 0, "fusion_lon": 0.0, "rental_uris": {"android": "https://dc.lft.to/lastmile_qr_scan", "ios": "https://dc.lft.to/lastmile_qr_scan"}, "type": "electric_scooter"}, {"bike_id": "261d75b27ef9bd8577611e436e13f46b", "is_reserved": 0, "name": "261d75b27ef9bd8577611e436e13f46b", "lat": 38.924454833333336, "fusion_lat": 0.0, "lon": -76.98991666666667, "is_disabled": 0, "fusion_lon": 0.0, "rental_uris": {"android": "https://dc.lft.to/lastmile_qr_scan", "ios": "https://dc.lft.to/lastmile_qr_scan"}, "type": "electric_scooter"}, {"bike_id": "d54412cdecbdcca6f4a7326ff8d2ba64", "is_reserved": 0, "name": "d54412cdecbdcca6f4a7326ff8d2ba64", "lat": 38.91344483333334, "fusion_lat": 0.0, "lon": -77.01737966666667, "is_disabled": 0, "fusion_lon": 0.0, "rental_uris": {"android": "https://dc.lft.to/lastmile_qr_scan", "ios": "https://dc.lft.to/lastmile_qr_scan"}, "type": "electric_scooter"}, {"bike_id": "96ee6697431046319b2b3f3053fdedc4", "is_reserved": 0, "name": "96ee6697431046319b2b3f3053fdedc4", "lat": 38.9096145, "fusion_lat": 0.0, "lon": -77.02412766666667, "is_disabled": 0, "fusion_lon": 0.0, "rental_uris": {"android": "https://dc.lft.to/lastmile_qr_scan", "ios": "https://dc.lft.to/lastmile_qr_scan"}, "type": "electric_scooter"}, {"bike_id": "db960d5d600f2b8bea071074ffea87f4", "is_reserved": 0, "name": "db960d5d600f2b8bea071074ffea87f4", "lat": 38.930790333333334, "fusion_lat": 0.0, "lon": -77.027917, "is_disabled": 0, "fusion_lon": 0.0, "rental_uris": {"android": "https://dc.lft.to/lastmile_qr_scan", "ios": "https://dc.lft.to/lastmile_qr_scan"}, "type": "electric_scooter"}, {"bike_id": "7dc7338c8bf59f1782cfb167a5832175", "is_reserved": 0, "name": "7dc7338c8bf59f1782cfb167a5832175", "lat": 38.906826333333335, "fusion_lat": 0.0, "lon": -77.02685016666666, "is_disabled": 0, "fusion_lon": 0.0, "rental_uris": {"android": "https://dc.lft.to/lastmile_qr_scan", "ios": "https://dc.lft.to/lastmile_qr_scan"}, "type": "electric_scooter"}, {"bike_id": "eebe8e0f2d08fbbd5885c6f3b07a0d79", "is_reserved": 0, "name": "eebe8e0f2d08fbbd5885c6f3b07a0d79", "lat": 38.923197, "fusion_lat": 0.0, "lon": -77.039762, "is_disabled": 0, "fusion_lon": 0.0, "rental_uris": {"android": "https://dc.lft.to/lastmile_qr_scan", "ios": "https://dc.lft.to/lastmile_qr_scan"}, "type": "electric_scooter"}, {"bike_id": "acd563208ac1f98f7b1e25c8b559e3cc", "is_reserved": 0, "name": "acd563208ac1f98f7b1e25c8b559e3cc", "lat": 38.887513166666665, "fusion_lat": 0.0, "lon": -76.99603366666666, "is_disabled": 0, "fusion_lon": 0.0, "rental_uris": {"android": "https://dc.lft.to/lastmile_qr_scan", "ios": "https://dc.lft.to/lastmile_qr_scan"}, "type": "electric_scooter"}, {"bike_id": "7c6064ab8276e55911e5fdea56eb4f0b", "is_reserved": 0, "name": "7c6064ab8276e55911e5fdea56eb4f0b", "lat": 38.89849266666667, "fusion_lat": 0.0, "lon": -77.01350616666667, "is_disabled": 0, "fusion_lon": 0.0, "rental_uris": {"android": "https://dc.lft.to/lastmile_qr_scan", "ios": "https://dc.lft.to/lastmile_qr_scan"}, "type": "electric_scooter"}, {"bike_id": "a1cccb665cdc78e20da8fad6312de8b5", "is_reserved": 0, "name": "a1cccb665cdc78e20da8fad6312de8b5", "lat": 38.92384066666666, "fusion_lat": 0.0, "lon": -77.04093183333333, "is_disabled": 0, "fusion_lon": 0.0, "rental_uris": {"android": "https://dc.lft.to/lastmile_qr_scan", "ios": "https://dc.lft.to/lastmile_qr_scan"}, "type": "electric_scooter"}, {"bike_id": "6e52da353121e3f4cb666a846296ad26", "is_reserved": 0, "name": "6e52da353121e3f4cb666a846296ad26", "lat": 38.9473575, "fusion_lat": 0.0, "lon": -77.01615366666667, "is_disabled": 0, "fusion_lon": 0.0, "rental_uris": {"android": "https://dc.lft.to/lastmile_qr_scan", "ios": "https://dc.lft.to/lastmile_qr_scan"}, "type": "electric_scooter"}, {"bike_id": "268a9cfb13cb10da6afb738413a6e071", "is_reserved": 0, "name": "268a9cfb13cb10da6afb738413a6e071", "lat": 38.924465833333336, "fusion_lat": 0.0, "lon": -77.04020833333334, "is_disabled": 0, "fusion_lon": 0.0, "rental_uris": {"android": "https://dc.lft.to/lastmile_qr_scan", "ios": "https://dc.lft.to/lastmile_qr_scan"}, "type": "electric_scooter"}, {"bike_id": "3b210b3bfb470f8459a057549be220e6", "is_reserved": 0, "name": "3b210b3bfb470f8459a057549be220e6", "lat": 38.90482466666667, "fusion_lat": 0.0, "lon": -77.00737033333333, "is_disabled": 0, "fusion_lon": 0.0, "rental_uris": {"android": "https://dc.lft.to/lastmile_qr_scan", "ios": "https://dc.lft.to/lastmile_qr_scan"}, "type": "electric_scooter"}, {"bike_id": "a227e91603ee1df56531bb072c31bb15", "is_reserved": 0, "name": "a227e91603ee1df56531bb072c31bb15", "lat": 38.912910333333336, "fusion_lat": 0.0, "lon": -77.02229033333333, "is_disabled": 0, "fusion_lon": 0.0, "rental_uris": {"android": "https://dc.lft.to/lastmile_qr_scan", "ios": "https://dc.lft.to/lastmile_qr_scan"}, "type": "electric_scooter"}, {"bike_id": "6531f946dede7ac38d4b13e8864bfc03", "is_reserved": 0, "name": "6531f946dede7ac38d4b13e8864bfc03", "lat": 38.900853833333336, "fusion_lat": 0.0, "lon": -77.03353183333333, "is_disabled": 0, "fusion_lon": 0.0, "rental_uris": {"android": "https://dc.lft.to/lastmile_qr_scan", "ios": "https://dc.lft.to/lastmile_qr_scan"}, "type": "electric_scooter"}, {"bike_id": "dbf2c5835e24a6ebccdb12687fb6b24e", "is_reserved": 0, "name": "dbf2c5835e24a6ebccdb12687fb6b24e", "lat": 38.90383583333333, "fusion_lat": 0.0, "lon": -77.01812316666667, "is_disabled": 0, "fusion_lon": 0.0, "rental_uris": {"android": "https://dc.lft.to/lastmile_qr_scan", "ios": "https://dc.lft.to/lastmile_qr_scan"}, "type": "electric_scooter"}, {"bike_id": "90b6b3ce759b5443052b6a651518fbf3", "is_reserved": 0, "name": "90b6b3ce759b5443052b6a651518fbf3", "lat": 38.914505, "fusion_lat": 0.0, "lon": -77.041529, "is_disabled": 0, "fusion_lon": 0.0, "rental_uris": {"android": "https://dc.lft.to/lastmile_qr_scan", "ios": "https://dc.lft.to/lastmile_qr_scan"}, "type": "electric_scooter"}, {"bike_id": "be742e5b3f3ea8e5f45091e10f17222f", "is_reserved": 0, "name": "be742e5b3f3ea8e5f45091e10f17222f", "lat": 38.8984635, "fusion_lat": 0.0, "lon": -77.02913583333333, "is_disabled": 0, "fusion_lon": 0.0, "rental_uris": {"android": "https://dc.lft.to/lastmile_qr_scan", "ios": "https://dc.lft.to/lastmile_qr_scan"}, "type": "electric_scooter"}, {"bike_id": "6872ad8a1d45c7cd974a3e1f78783470", "is_reserved": 0, "name": "6872ad8a1d45c7cd974a3e1f78783470", "lat": 38.832457166666664, "fusion_lat": 0.0, "lon": -77.00725, "is_disabled": 0, "fusion_lon": 0.0, "rental_uris": {"android": "https://dc.lft.to/lastmile_qr_scan", "ios": "https://dc.lft.to/lastmile_qr_scan"}, "type": "electric_bike"}, {"bike_id": "5d476773c919893f713a7a03c1376ce8", "is_reserved": 0, "name": "5d476773c919893f713a7a03c1376ce8", "lat": 38.913983333333334, "fusion_lat": 0.0, "lon": -77.0084665, "is_disabled": 0, "fusion_lon": 0.0, "rental_uris": {"android": "https://dc.lft.to/lastmile_qr_scan", "ios": "https://dc.lft.to/lastmile_qr_scan"}, "type": "electric_scooter"}, {"bike_id": "b65c8e1bcd39009cd545c45df1429d78", "is_reserved": 0, "name": "b65c8e1bcd39009cd545c45df1429d78", "lat": 38.8990715, "fusion_lat": 0.0, "lon": -76.94556, "is_disabled": 0, "fusion_lon": 0.0, "rental_uris": {"android": "https://dc.lft.to/lastmile_qr_scan", "ios": "https://dc.lft.to/lastmile_qr_scan"}, "type": "electric_scooter"}, {"bike_id": "64e3bc36c049485e2ab8791405e82823", "is_reserved": 0, "name": "64e3bc36c049485e2ab8791405e82823", "lat": 38.923199, "fusion_lat": 0.0, "lon": -77.03409116666667, "is_disabled": 0, "fusion_lon": 0.0, "rental_uris": {"android": "https://dc.lft.to/lastmile_qr_scan", "ios": "https://dc.lft.to/lastmile_qr_scan"}, "type": "electric_scooter"}, {"bike_id": "0010fde12e35e072034ac996380a9b30", "is_reserved": 0, "name": "0010fde12e35e072034ac996380a9b30", "lat": 38.916553666666665, "fusion_lat": 0.0, "lon": -77.04379666666667, "is_disabled": 0, "fusion_lon": 0.0, "rental_uris": {"android": "https://dc.lft.to/lastmile_qr_scan", "ios": "https://dc.lft.to/lastmile_qr_scan"}, "type": "electric_scooter"}, {"bike_id": "59a9136876ad54b0c38b030a36ff0279", "is_reserved": 0, "name": "59a9136876ad54b0c38b030a36ff0279", "lat": 38.917618166666664, "fusion_lat": 0.0, "lon": -77.02390066666666, "is_disabled": 0, "fusion_lon": 0.0, "rental_uris": {"android": "https://dc.lft.to/lastmile_qr_scan", "ios": "https://dc.lft.to/lastmile_qr_scan"}, "type": "electric_scooter"}, {"bike_id": "3cbb7c8d8ef85dbc292e02d6495704b0", "is_reserved": 0, "name": "3cbb7c8d8ef85dbc292e02d6495704b0", "lat": 38.90362066666667, "fusion_lat": 0.0, "lon": -77.03854, "is_disabled": 0, "fusion_lon": 0.0, "rental_uris": {"android": "https://dc.lft.to/lastmile_qr_scan", "ios": "https://dc.lft.to/lastmile_qr_scan"}, "type": "electric_scooter"}, {"bike_id": "4873de9eecb388e1662665e084f7f3f8", "is_reserved": 0, "name": "4873de9eecb388e1662665e084f7f3f8", "lat": 38.917085, "fusion_lat": 0.0, "lon": -77.02423683333333, "is_disabled": 0, "fusion_lon": 0.0, "rental_uris": {"android": "https://dc.lft.to/lastmile_qr_scan", "ios": "https://dc.lft.to/lastmile_qr_scan"}, "type": "electric_scooter"}, {"bike_id": "eb2f8ee5f0f0512a891ccef90fa5e5f3", "is_reserved": 0, "name": "eb2f8ee5f0f0512a891ccef90fa5e5f3", "lat": 38.90971716666667, "fusion_lat": 0.0, "lon": -77.03855983333334, "is_disabled": 0, "fusion_lon": 0.0, "rental_uris": {"android": "https://dc.lft.to/lastmile_qr_scan", "ios": "https://dc.lft.to/lastmile_qr_scan"}, "type": "electric_scooter"}, {"bike_id": "b8f35511c2666c3f3d3015a91db177f5", "is_reserved": 0, "name": "b8f35511c2666c3f3d3015a91db177f5", "lat": 38.941806666666665, "fusion_lat": 0.0, "lon": -77.02533333333334, "is_disabled": 0, "fusion_lon": 0.0, "rental_uris": {"android": "https://dc.lft.to/lastmile_qr_scan", "ios": "https://dc.lft.to/lastmile_qr_scan"}, "type": "electric_scooter"}, {"bike_id": "d0481ffe3a605093eafb480b08b16151", "is_reserved": 0, "name": "d0481ffe3a605093eafb480b08b16151", "lat": 38.92319483333333, "fusion_lat": 0.0, "lon": -77.026907, "is_disabled": 0, "fusion_lon": 0.0, "rental_uris": {"android": "https://dc.lft.to/lastmile_qr_scan", "ios": "https://dc.lft.to/lastmile_qr_scan"}, "type": "electric_scooter"}, {"bike_id": "d878fbdce9415db524362079ee5ad84a", "is_reserved": 0, "name": "d878fbdce9415db524362079ee5ad84a", "lat": 38.918099, "fusion_lat": 0.0, "lon": -77.026819, "is_disabled": 0, "fusion_lon": 0.0, "rental_uris": {"android": "https://dc.lft.to/lastmile_qr_scan", "ios": "https://dc.lft.to/lastmile_qr_scan"}, "type": "electric_scooter"}, {"bike_id": "710f7b484fde7d2525845af3b5b494ab", "is_reserved": 0, "name": "710f7b484fde7d2525845af3b5b494ab", "lat": 38.84825683333333, "fusion_lat": 0.0, "lon": -77.07910766666667, "is_disabled": 0, "fusion_lon": 0.0, "rental_uris": {"android": "https://dc.lft.to/lastmile_qr_scan", "ios": "https://dc.lft.to/lastmile_qr_scan"}, "type": "electric_bike"}, {"bike_id": "f004fc7d22eec0fe4f6c241e22d42901", "is_reserved": 0, "name": "f004fc7d22eec0fe4f6c241e22d42901", "lat": 38.9111715, "fusion_lat": 0.0, "lon": -77.04470066666667, "is_disabled": 0, "fusion_lon": 0.0, "rental_uris": {"android": "https://dc.lft.to/lastmile_qr_scan", "ios": "https://dc.lft.to/lastmile_qr_scan"}, "type": "electric_scooter"}, {"bike_id": "b9fac7e552aa2cca366687217bf0aaf9", "is_reserved": 0, "name": "b9fac7e552aa2cca366687217bf0aaf9", "lat": 38.903986833333335, "fusion_lat": 0.0, "lon": -77.03865366666666, "is_disabled": 0, "fusion_lon": 0.0, "rental_uris": {"android": "https://dc.lft.to/lastmile_qr_scan", "ios": "https://dc.lft.to/lastmile_qr_scan"}, "type": "electric_scooter"}, {"bike_id": "66f89264fe96c2ecc1b8a31374406ddd", "is_reserved": 0, "name": "66f89264fe96c2ecc1b8a31374406ddd", "lat": 38.91257616666667, "fusion_lat": 0.0, "lon": -77.0387855, "is_disabled": 0, "fusion_lon": 0.0, "rental_uris": {"android": "https://dc.lft.to/lastmile_qr_scan", "ios": "https://dc.lft.to/lastmile_qr_scan"}, "type": "electric_scooter"}, {"bike_id": "9bf41d47b4c5056decb0c409aabca701", "is_reserved": 0, "name": "9bf41d47b4c5056decb0c409aabca701", "lat": 38.86973716666667, "fusion_lat": 0.0, "lon": -77.01079733333333, "is_disabled": 0, "fusion_lon": 0.0, "rental_uris": {"android": "https://dc.lft.to/lastmile_qr_scan", "ios": "https://dc.lft.to/lastmile_qr_scan"}, "type": "electric_scooter"}, {"bike_id": "a6f483f875b44a68da61a7b12eba71b2", "is_reserved": 0, "name": "a6f483f875b44a68da61a7b12eba71b2", "lat": 38.873206333333336, "fusion_lat": 0.0, "lon": -76.97000216666666, "is_disabled": 0, "fusion_lon": 0.0, "rental_uris": {"android": "https://dc.lft.to/lastmile_qr_scan", "ios": "https://dc.lft.to/lastmile_qr_scan"}, "type": "electric_scooter"}, {"bike_id": "7d986ddd14ba7c47b07e509e07f4ef7c", "is_reserved": 0, "name": "7d986ddd14ba7c47b07e509e07f4ef7c", "lat": 38.930748333333334, "fusion_lat": 0.0, "lon": -77.02154083333333, "is_disabled": 0, "fusion_lon": 0.0, "rental_uris": {"android": "https://dc.lft.to/lastmile_qr_scan", "ios": "https://dc.lft.to/lastmile_qr_scan"}, "type": "electric_scooter"}, {"bike_id": "b28b37d56920571cd17e8bab8ac8cfaf", "is_reserved": 0, "name": "b28b37d56920571cd17e8bab8ac8cfaf", "lat": 38.878208666666666, "fusion_lat": 0.0, "lon": -77.001257, "is_disabled": 0, "fusion_lon": 0.0, "rental_uris": {"android": "https://dc.lft.to/lastmile_qr_scan", "ios": "https://dc.lft.to/lastmile_qr_scan"}, "type": "electric_scooter"}, {"bike_id": "ac92ca2eabed5882b7b7958ba51ad95a", "is_reserved": 0, "name": "ac92ca2eabed5882b7b7958ba51ad95a", "lat": 38.85373666666667, "fusion_lat": 0.0, "lon": -76.9652375, "is_disabled": 0, "fusion_lon": 0.0, "rental_uris": {"android": "https://dc.lft.to/lastmile_qr_scan", "ios": "https://dc.lft.to/lastmile_qr_scan"}, "type": "electric_bike"}, {"bike_id": "ebf65def2540b94fe156578980ad7901", "is_reserved": 0, "name": "ebf65def2540b94fe156578980ad7901", "lat": 38.931208833333336, "fusion_lat": 0.0, "lon": -77.03035933333334, "is_disabled": 0, "fusion_lon": 0.0, "rental_uris": {"android": "https://dc.lft.to/lastmile_qr_scan", "ios": "https://dc.lft.to/lastmile_qr_scan"}, "type": "electric_scooter"}, {"bike_id": "be89df622e8df26b7b72bae07a5f132e", "is_reserved": 0, "name": "be89df622e8df26b7b72bae07a5f132e", "lat": 38.87374583333333, "fusion_lat": 0.0, "lon": -77.00163483333333, "is_disabled": 0, "fusion_lon": 0.0, "rental_uris": {"android": "https://dc.lft.to/lastmile_qr_scan", "ios": "https://dc.lft.to/lastmile_qr_scan"}, "type": "electric_scooter"}, {"bike_id": "2507b0e23294afe105577562ea9abf8a", "is_reserved": 0, "name": "2507b0e23294afe105577562ea9abf8a", "lat": 38.88718466666667, "fusion_lat": 0.0, "lon": -77.0257415, "is_disabled": 0, "fusion_lon": 0.0, "rental_uris": {"android": "https://dc.lft.to/lastmile_qr_scan", "ios": "https://dc.lft.to/lastmile_qr_scan"}, "type": "electric_scooter"}, {"bike_id": "1c70bfbf3e4c27d6923708489741ed58", "is_reserved": 0, "name": "1c70bfbf3e4c27d6923708489741ed58", "lat": 38.9262335, "fusion_lat": 0.0, "lon": -77.04194016666666, "is_disabled": 0, "fusion_lon": 0.0, "rental_uris": {"android": "https://dc.lft.to/lastmile_qr_scan", "ios": "https://dc.lft.to/lastmile_qr_scan"}, "type": "electric_scooter"}, {"bike_id": "0e9a797c0cc86db8c4c5a39a45f84ee2", "is_reserved": 0, "name": "0e9a797c0cc86db8c4c5a39a45f84ee2", "lat": 38.914745, "fusion_lat": 0.0, "lon": -77.03837116666666, "is_disabled": 0, "fusion_lon": 0.0, "rental_uris": {"android": "https://dc.lft.to/lastmile_qr_scan", "ios": "https://dc.lft.to/lastmile_qr_scan"}, "type": "electric_scooter"}, {"bike_id": "c79cf6178eadeb2545783abd31e9b408", "is_reserved": 0, "name": "c79cf6178eadeb2545783abd31e9b408", "lat": 38.90261666666667, "fusion_lat": 0.0, "lon": -77.0201365, "is_disabled": 0, "fusion_lon": 0.0, "rental_uris": {"android": "https://dc.lft.to/lastmile_qr_scan", "ios": "https://dc.lft.to/lastmile_qr_scan"}, "type": "electric_scooter"}, {"bike_id": "ef4d8117a0b94ad9ca78912ba2eef473", "is_reserved": 0, "name": "ef4d8117a0b94ad9ca78912ba2eef473", "lat": 38.8699685, "fusion_lat": 0.0, "lon": -77.01114733333333, "is_disabled": 0, "fusion_lon": 0.0, "rental_uris": {"android": "https://dc.lft.to/lastmile_qr_scan", "ios": "https://dc.lft.to/lastmile_qr_scan"}, "type": "electric_bike"}, {"bike_id": "5c9cb49eb3b412063943ec6807f8e707", "is_reserved": 0, "name": "5c9cb49eb3b412063943ec6807f8e707", "lat": 38.877673333333334, "fusion_lat": 0.0, "lon": -77.01051183333334, "is_disabled": 0, "fusion_lon": 0.0, "rental_uris": {"android": "https://dc.lft.to/lastmile_qr_scan", "ios": "https://dc.lft.to/lastmile_qr_scan"}, "type": "electric_bike"}, {"bike_id": "2d792ed9b83e0f883ef68b6a43d16177", "is_reserved": 0, "name": "2d792ed9b83e0f883ef68b6a43d16177", "lat": 38.901845333333334, "fusion_lat": 0.0, "lon": -77.050625, "is_disabled": 0, "fusion_lon": 0.0, "rental_uris": {"android": "https://dc.lft.to/lastmile_qr_scan", "ios": "https://dc.lft.to/lastmile_qr_scan"}, "type": "electric_scooter"}, {"bike_id": "522e20e74ed0ba355bc32622bfe48cad", "is_reserved": 0, "name": "522e20e74ed0ba355bc32622bfe48cad", "lat": 38.94300783333333, "fusion_lat": 0.0, "lon": -77.02493333333334, "is_disabled": 0, "fusion_lon": 0.0, "rental_uris": {"android": "https://dc.lft.to/lastmile_qr_scan", "ios": "https://dc.lft.to/lastmile_qr_scan"}, "type": "electric_scooter"}, {"bike_id": "8bce4a2bf00b0b4ca048a432c6d6a503", "is_reserved": 0, "name": "8bce4a2bf00b0b4ca048a432c6d6a503", "lat": 38.91103433333333, "fusion_lat": 0.0, "lon": -77.044774, "is_disabled": 0, "fusion_lon": 0.0, "rental_uris": {"android": "https://dc.lft.to/lastmile_qr_scan", "ios": "https://dc.lft.to/lastmile_qr_scan"}, "type": "electric_scooter"}, {"bike_id": "7d660f623fc8eb2077455cdc42c8e891", "is_reserved": 0, "name": "7d660f623fc8eb2077455cdc42c8e891", "lat": 38.90974333333333, "fusion_lat": 0.0, "lon": -77.038345, "is_disabled": 0, "fusion_lon": 0.0, "rental_uris": {"android": "https://dc.lft.to/lastmile_qr_scan", "ios": "https://dc.lft.to/lastmile_qr_scan"}, "type": "electric_scooter"}, {"bike_id": "1a150cf3093c40d6e27f7242e32722ea", "is_reserved": 0, "name": "1a150cf3093c40d6e27f7242e32722ea", "lat": 38.883764666666664, "fusion_lat": 0.0, "lon": -77.01966383333334, "is_disabled": 0, "fusion_lon": 0.0, "rental_uris": {"android": "https://dc.lft.to/lastmile_qr_scan", "ios": "https://dc.lft.to/lastmile_qr_scan"}, "type": "electric_scooter"}, {"bike_id": "20b6e2f5abf6ef410e1d8c3dcea0552f", "is_reserved": 0, "name": "20b6e2f5abf6ef410e1d8c3dcea0552f", "lat": 38.90010566666667, "fusion_lat": 0.0, "lon": -77.04673766666667, "is_disabled": 0, "fusion_lon": 0.0, "rental_uris": {"android": "https://dc.lft.to/lastmile_qr_scan", "ios": "https://dc.lft.to/lastmile_qr_scan"}, "type": "electric_scooter"}, {"bike_id": "0b5f18fdd08d63aef313f3f0f769aeae", "is_reserved": 0, "name": "0b5f18fdd08d63aef313f3f0f769aeae", "lat": 38.9126855, "fusion_lat": 0.0, "lon": -77.04704783333334, "is_disabled": 0, "fusion_lon": 0.0, "rental_uris": {"android": "https://dc.lft.to/lastmile_qr_scan", "ios": "https://dc.lft.to/lastmile_qr_scan"}, "type": "electric_scooter"}, {"bike_id": "d3763715715918150c6988926e095032", "is_reserved": 0, "name": "d3763715715918150c6988926e095032", "lat": 38.90472783333333, "fusion_lat": 0.0, "lon": -77.01890166666666, "is_disabled": 0, "fusion_lon": 0.0, "rental_uris": {"android": "https://dc.lft.to/lastmile_qr_scan", "ios": "https://dc.lft.to/lastmile_qr_scan"}, "type": "electric_scooter"}, {"bike_id": "fdf4865574ddcce95d5149d96a6c6563", "is_reserved": 0, "name": "fdf4865574ddcce95d5149d96a6c6563", "lat": 38.920705833333336, "fusion_lat": 0.0, "lon": -77.03191533333333, "is_disabled": 0, "fusion_lon": 0.0, "rental_uris": {"android": "https://dc.lft.to/lastmile_qr_scan", "ios": "https://dc.lft.to/lastmile_qr_scan"}, "type": "electric_scooter"}, {"bike_id": "76ed12d1a90b3dfc9b82566e744af064", "is_reserved": 0, "name": "76ed12d1a90b3dfc9b82566e744af064", "lat": 38.923407166666664, "fusion_lat": 0.0, "lon": -77.05165983333333, "is_disabled": 0, "fusion_lon": 0.0, "rental_uris": {"android": "https://dc.lft.to/lastmile_qr_scan", "ios": "https://dc.lft.to/lastmile_qr_scan"}, "type": "electric_scooter"}, {"bike_id": "1b54cbf6fa9c30ef220f079bedec4234", "is_reserved": 0, "name": "1b54cbf6fa9c30ef220f079bedec4234", "lat": 38.9109925, "fusion_lat": 0.0, "lon": -77.0296055, "is_disabled": 0, "fusion_lon": 0.0, "rental_uris": {"android": "https://dc.lft.to/lastmile_qr_scan", "ios": "https://dc.lft.to/lastmile_qr_scan"}, "type": "electric_scooter"}, {"bike_id": "16bb003103ed468e8e739941f1703d1b", "is_reserved": 0, "name": "16bb003103ed468e8e739941f1703d1b", "lat": 38.978819, "fusion_lat": 0.0, "lon": -77.0602305, "is_disabled": 0, "fusion_lon": 0.0, "rental_uris": {"android": "https://dc.lft.to/lastmile_qr_scan", "ios": "https://dc.lft.to/lastmile_qr_scan"}, "type": "electric_bike"}, {"bike_id": "2307244d0d6b968552a9e29791b3ea48", "is_reserved": 0, "name": "2307244d0d6b968552a9e29791b3ea48", "lat": 38.877854666666664, "fusion_lat": 0.0, "lon": -76.99941333333334, "is_disabled": 0, "fusion_lon": 0.0, "rental_uris": {"android": "https://dc.lft.to/lastmile_qr_scan", "ios": "https://dc.lft.to/lastmile_qr_scan"}, "type": "electric_scooter"}, {"bike_id": "6f77dc0b937821b325d7345ffb73ca89", "is_reserved": 0, "name": "6f77dc0b937821b325d7345ffb73ca89", "lat": 38.91821616666667, "fusion_lat": 0.0, "lon": -77.02421766666667, "is_disabled": 0, "fusion_lon": 0.0, "rental_uris": {"android": "https://dc.lft.to/lastmile_qr_scan", "ios": "https://dc.lft.to/lastmile_qr_scan"}, "type": "electric_scooter"}, {"bike_id": "a007f2969748652fbad869c6882a026a", "is_reserved": 0, "name": "a007f2969748652fbad869c6882a026a", "lat": 38.92576366666667, "fusion_lat": 0.0, "lon": -77.0323845, "is_disabled": 0, "fusion_lon": 0.0, "rental_uris": {"android": "https://dc.lft.to/lastmile_qr_scan", "ios": "https://dc.lft.to/lastmile_qr_scan"}, "type": "electric_scooter"}, {"bike_id": "8bfd930be44bde428ff34419f25351f1", "is_reserved": 0, "name": "8bfd930be44bde428ff34419f25351f1", "lat": 38.930831, "fusion_lat": 0.0, "lon": -77.02792766666667, "is_disabled": 0, "fusion_lon": 0.0, "rental_uris": {"android": "https://dc.lft.to/lastmile_qr_scan", "ios": "https://dc.lft.to/lastmile_qr_scan"}, "type": "electric_scooter"}, {"bike_id": "db15b82e8fcabb30bd1882e435db4804", "is_reserved": 0, "name": "db15b82e8fcabb30bd1882e435db4804", "lat": 38.916956666666664, "fusion_lat": 0.0, "lon": -77.02867983333333, "is_disabled": 0, "fusion_lon": 0.0, "rental_uris": {"android": "https://dc.lft.to/lastmile_qr_scan", "ios": "https://dc.lft.to/lastmile_qr_scan"}, "type": "electric_scooter"}, {"bike_id": "001d9b5f7af5451b210f310b96386ee7", "is_reserved": 0, "name": "001d9b5f7af5451b210f310b96386ee7", "lat": 38.965757833333335, "fusion_lat": 0.0, "lon": -77.00264316666667, "is_disabled": 0, "fusion_lon": 0.0, "rental_uris": {"android": "https://dc.lft.to/lastmile_qr_scan", "ios": "https://dc.lft.to/lastmile_qr_scan"}, "type": "electric_scooter"}, {"bike_id": "2c7f452c0719d46a26f9abe6daf22aae", "is_reserved": 0, "name": "2c7f452c0719d46a26f9abe6daf22aae", "lat": 38.895649166666665, "fusion_lat": 0.0, "lon": -76.94863466666666, "is_disabled": 0, "fusion_lon": 0.0, "rental_uris": {"android": "https://dc.lft.to/lastmile_qr_scan", "ios": "https://dc.lft.to/lastmile_qr_scan"}, "type": "electric_scooter"}, {"bike_id": "0c966b382c59859f310d42c957046add", "is_reserved": 0, "name": "0c966b382c59859f310d42c957046add", "lat": 38.89822783333334, "fusion_lat": 0.0, "lon": -77.03028783333333, "is_disabled": 0, "fusion_lon": 0.0, "rental_uris": {"android": "https://dc.lft.to/lastmile_qr_scan", "ios": "https://dc.lft.to/lastmile_qr_scan"}, "type": "electric_scooter"}, {"bike_id": "d34a2349b92b516cc4d4685d534bd992", "is_reserved": 0, "name": "d34a2349b92b516cc4d4685d534bd992", "lat": 38.9084695, "fusion_lat": 0.0, "lon": -77.0235135, "is_disabled": 0, "fusion_lon": 0.0, "rental_uris": {"android": "https://dc.lft.to/lastmile_qr_scan", "ios": "https://dc.lft.to/lastmile_qr_scan"}, "type": "electric_scooter"}, {"bike_id": "e390922f8bebc7cffcdcdf787b00d1e5", "is_reserved": 0, "name": "e390922f8bebc7cffcdcdf787b00d1e5", "lat": 38.86728516666667, "fusion_lat": 0.0, "lon": -76.9878835, "is_disabled": 0, "fusion_lon": 0.0, "rental_uris": {"android": "https://dc.lft.to/lastmile_qr_scan", "ios": "https://dc.lft.to/lastmile_qr_scan"}, "type": "electric_scooter"}, {"bike_id": "e141c28b678bd7a8a1aa7df0e4a61776", "is_reserved": 0, "name": "e141c28b678bd7a8a1aa7df0e4a61776", "lat": 38.904891, "fusion_lat": 0.0, "lon": -77.02109983333334, "is_disabled": 0, "fusion_lon": 0.0, "rental_uris": {"android": "https://dc.lft.to/lastmile_qr_scan", "ios": "https://dc.lft.to/lastmile_qr_scan"}, "type": "electric_scooter"}, {"bike_id": "182be7e7e3d1a797699b518758151bb7", "is_reserved": 0, "name": "182be7e7e3d1a797699b518758151bb7", "lat": 38.91002983333333, "fusion_lat": 0.0, "lon": -77.03443516666667, "is_disabled": 0, "fusion_lon": 0.0, "rental_uris": {"android": "https://dc.lft.to/lastmile_qr_scan", "ios": "https://dc.lft.to/lastmile_qr_scan"}, "type": "electric_scooter"}, {"bike_id": "eea90a894e3f2a0df8e021a1485cfd30", "is_reserved": 0, "name": "eea90a894e3f2a0df8e021a1485cfd30", "lat": 38.924216, "fusion_lat": 0.0, "lon": -77.05744666666666, "is_disabled": 0, "fusion_lon": 0.0, "rental_uris": {"android": "https://dc.lft.to/lastmile_qr_scan", "ios": "https://dc.lft.to/lastmile_qr_scan"}, "type": "electric_scooter"}, {"bike_id": "0d99cb6f6a6f957048c958fae367d94e", "is_reserved": 0, "name": "0d99cb6f6a6f957048c958fae367d94e", "lat": 38.917206, "fusion_lat": 0.0, "lon": -77.02697566666667, "is_disabled": 0, "fusion_lon": 0.0, "rental_uris": {"android": "https://dc.lft.to/lastmile_qr_scan", "ios": "https://dc.lft.to/lastmile_qr_scan"}, "type": "electric_scooter"}, {"bike_id": "79d7718896eba51a5789aba06da871d2", "is_reserved": 0, "name": "79d7718896eba51a5789aba06da871d2", "lat": 38.873681833333336, "fusion_lat": 0.0, "lon": -77.00122966666666, "is_disabled": 0, "fusion_lon": 0.0, "rental_uris": {"android": "https://dc.lft.to/lastmile_qr_scan", "ios": "https://dc.lft.to/lastmile_qr_scan"}, "type": "electric_scooter"}, {"bike_id": "a5acae99aecd4c89a92ef29892d183f4", "is_reserved": 0, "name": "a5acae99aecd4c89a92ef29892d183f4", "lat": 38.9235555, "fusion_lat": 0.0, "lon": -77.050722, "is_disabled": 0, "fusion_lon": 0.0, "rental_uris": {"android": "https://dc.lft.to/lastmile_qr_scan", "ios": "https://dc.lft.to/lastmile_qr_scan"}, "type": "electric_scooter"}, {"bike_id": "0c9074fa0667d4f740f350803a820053", "is_reserved": 0, "name": "0c9074fa0667d4f740f350803a820053", "lat": 38.9223255, "fusion_lat": 0.0, "lon": -77.02332716666666, "is_disabled": 0, "fusion_lon": 0.0, "rental_uris": {"android": "https://dc.lft.to/lastmile_qr_scan", "ios": "https://dc.lft.to/lastmile_qr_scan"}, "type": "electric_scooter"}, {"bike_id": "e0a48df60af53058d8e1921e95573048", "is_reserved": 0, "name": "e0a48df60af53058d8e1921e95573048", "lat": 38.89226216666667, "fusion_lat": 0.0, "lon": -77.02633783333333, "is_disabled": 0, "fusion_lon": 0.0, "rental_uris": {"android": "https://dc.lft.to/lastmile_qr_scan", "ios": "https://dc.lft.to/lastmile_qr_scan"}, "type": "electric_scooter"}, {"bike_id": "76dd8c8df65dee7bb4cc25baf8f73a57", "is_reserved": 0, "name": "76dd8c8df65dee7bb4cc25baf8f73a57", "lat": 38.93966533333333, "fusion_lat": 0.0, "lon": -77.03253683333334, "is_disabled": 0, "fusion_lon": 0.0, "rental_uris": {"android": "https://dc.lft.to/lastmile_qr_scan", "ios": "https://dc.lft.to/lastmile_qr_scan"}, "type": "electric_scooter"}, {"bike_id": "00a2533f3c72bc6a0eb0981e590287e5", "is_reserved": 0, "name": "00a2533f3c72bc6a0eb0981e590287e5", "lat": 38.919764666666666, "fusion_lat": 0.0, "lon": -77.03201316666667, "is_disabled": 0, "fusion_lon": 0.0, "rental_uris": {"android": "https://dc.lft.to/lastmile_qr_scan", "ios": "https://dc.lft.to/lastmile_qr_scan"}, "type": "electric_scooter"}, {"bike_id": "3945091adfc1428e8d42500b3c5d8d08", "is_reserved": 0, "name": "3945091adfc1428e8d42500b3c5d8d08", "lat": 38.96182016666667, "fusion_lat": 0.0, "lon": -77.05264766666667, "is_disabled": 0, "fusion_lon": 0.0, "rental_uris": {"android": "https://dc.lft.to/lastmile_qr_scan", "ios": "https://dc.lft.to/lastmile_qr_scan"}, "type": "electric_bike"}, {"bike_id": "396a5feefdaaf678ffdb90d56b7c25f1", "is_reserved": 0, "name": "396a5feefdaaf678ffdb90d56b7c25f1", "lat": 38.91254883333333, "fusion_lat": 0.0, "lon": -77.058804, "is_disabled": 0, "fusion_lon": 0.0, "rental_uris": {"android": "https://dc.lft.to/lastmile_qr_scan", "ios": "https://dc.lft.to/lastmile_qr_scan"}, "type": "electric_scooter"}, {"bike_id": "71dc358ecefe9340745747770395192c", "is_reserved": 0, "name": "71dc358ecefe9340745747770395192c", "lat": 38.884966166666665, "fusion_lat": 0.0, "lon": -76.98061616666666, "is_disabled": 0, "fusion_lon": 0.0, "rental_uris": {"android": "https://dc.lft.to/lastmile_qr_scan", "ios": "https://dc.lft.to/lastmile_qr_scan"}, "type": "electric_scooter"}, {"bike_id": "6a3f5c00056fd8c5dc71cc8e712158a5", "is_reserved": 0, "name": "6a3f5c00056fd8c5dc71cc8e712158a5", "lat": 38.930995333333335, "fusion_lat": 0.0, "lon": -77.03080416666667, "is_disabled": 0, "fusion_lon": 0.0, "rental_uris": {"android": "https://dc.lft.to/lastmile_qr_scan", "ios": "https://dc.lft.to/lastmile_qr_scan"}, "type": "electric_scooter"}, {"bike_id": "73ac2c116bd28a6261752ae0d842d72c", "is_reserved": 0, "name": "73ac2c116bd28a6261752ae0d842d72c", "lat": 38.9279795, "fusion_lat": 0.0, "lon": -77.01551616666667, "is_disabled": 0, "fusion_lon": 0.0, "rental_uris": {"android": "https://dc.lft.to/lastmile_qr_scan", "ios": "https://dc.lft.to/lastmile_qr_scan"}, "type": "electric_scooter"}, {"bike_id": "7c8788391781c95f36abd0bbabccdb90", "is_reserved": 0, "name": "7c8788391781c95f36abd0bbabccdb90", "lat": 38.912932833333336, "fusion_lat": 0.0, "lon": -76.986926, "is_disabled": 0, "fusion_lon": 0.0, "rental_uris": {"android": "https://dc.lft.to/lastmile_qr_scan", "ios": "https://dc.lft.to/lastmile_qr_scan"}, "type": "electric_scooter"}, {"bike_id": "7abf20f5ac9585ebad24b4078f1ea4a0", "is_reserved": 0, "name": "7abf20f5ac9585ebad24b4078f1ea4a0", "lat": 38.90856216666667, "fusion_lat": 0.0, "lon": -77.043592, "is_disabled": 0, "fusion_lon": 0.0, "rental_uris": {"android": "https://dc.lft.to/lastmile_qr_scan", "ios": "https://dc.lft.to/lastmile_qr_scan"}, "type": "electric_scooter"}, {"bike_id": "c783ca587d5715abd9ad55e728fb02b7", "is_reserved": 0, "name": "c783ca587d5715abd9ad55e728fb02b7", "lat": 38.8718195, "fusion_lat": 0.0, "lon": -77.00569033333333, "is_disabled": 0, "fusion_lon": 0.0, "rental_uris": {"android": "https://dc.lft.to/lastmile_qr_scan", "ios": "https://dc.lft.to/lastmile_qr_scan"}, "type": "electric_scooter"}, {"bike_id": "9b955e213380fdc0d016515d423c017d", "is_reserved": 0, "name": "9b955e213380fdc0d016515d423c017d", "lat": 38.902614166666666, "fusion_lat": 0.0, "lon": -77.03419683333334, "is_disabled": 0, "fusion_lon": 0.0, "rental_uris": {"android": "https://dc.lft.to/lastmile_qr_scan", "ios": "https://dc.lft.to/lastmile_qr_scan"}, "type": "electric_scooter"}, {"bike_id": "609c7840ef124fa6509f2fbd4ec96df0", "is_reserved": 0, "name": "609c7840ef124fa6509f2fbd4ec96df0", "lat": 38.90180866666667, "fusion_lat": 0.0, "lon": -76.9347395, "is_disabled": 0, "fusion_lon": 0.0, "rental_uris": {"android": "https://dc.lft.to/lastmile_qr_scan", "ios": "https://dc.lft.to/lastmile_qr_scan"}, "type": "electric_scooter"}, {"bike_id": "72573baa992036658ac5c148b72a9fda", "is_reserved": 0, "name": "72573baa992036658ac5c148b72a9fda", "lat": 38.943291333333335, "fusion_lat": 0.0, "lon": -77.01477383333334, "is_disabled": 0, "fusion_lon": 0.0, "rental_uris": {"android": "https://dc.lft.to/lastmile_qr_scan", "ios": "https://dc.lft.to/lastmile_qr_scan"}, "type": "electric_scooter"}, {"bike_id": "2d74eb682ddae043ad24c064bd5f4d6a", "is_reserved": 0, "name": "2d74eb682ddae043ad24c064bd5f4d6a", "lat": 38.914783666666665, "fusion_lat": 0.0, "lon": -77.046061, "is_disabled": 0, "fusion_lon": 0.0, "rental_uris": {"android": "https://dc.lft.to/lastmile_qr_scan", "ios": "https://dc.lft.to/lastmile_qr_scan"}, "type": "electric_scooter"}, {"bike_id": "444c7aa3218dd77398962d2efb9a49a0", "is_reserved": 0, "name": "444c7aa3218dd77398962d2efb9a49a0", "lat": 38.905122166666665, "fusion_lat": 0.0, "lon": -77.06460333333334, "is_disabled": 0, "fusion_lon": 0.0, "rental_uris": {"android": "https://dc.lft.to/lastmile_qr_scan", "ios": "https://dc.lft.to/lastmile_qr_scan"}, "type": "electric_scooter"}, {"bike_id": "7ef2b7c9ed8062bf6049c6ea7b546638", "is_reserved": 0, "name": "7ef2b7c9ed8062bf6049c6ea7b546638", "lat": 38.9197385, "fusion_lat": 0.0, "lon": -77.025875, "is_disabled": 0, "fusion_lon": 0.0, "rental_uris": {"android": "https://dc.lft.to/lastmile_qr_scan", "ios": "https://dc.lft.to/lastmile_qr_scan"}, "type": "electric_scooter"}, {"bike_id": "6217f6a8104ed65fd14a43642d055653", "is_reserved": 0, "name": "6217f6a8104ed65fd14a43642d055653", "lat": 38.95626383333333, "fusion_lat": 0.0, "lon": -76.938927, "is_disabled": 0, "fusion_lon": 0.0, "rental_uris": {"android": "https://dc.lft.to/lastmile_qr_scan", "ios": "https://dc.lft.to/lastmile_qr_scan"}, "type": "electric_bike"}, {"bike_id": "48b60629795ba56b3a23daa0286d4ad8", "is_reserved": 0, "name": "48b60629795ba56b3a23daa0286d4ad8", "lat": 38.87207016666667, "fusion_lat": 0.0, "lon": -77.01328116666667, "is_disabled": 0, "fusion_lon": 0.0, "rental_uris": {"android": "https://dc.lft.to/lastmile_qr_scan", "ios": "https://dc.lft.to/lastmile_qr_scan"}, "type": "electric_bike"}, {"bike_id": "66669eebbb3215f827f35aa2a737dd7a", "is_reserved": 0, "name": "66669eebbb3215f827f35aa2a737dd7a", "lat": 38.898261, "fusion_lat": 0.0, "lon": -77.025869, "is_disabled": 0, "fusion_lon": 0.0, "rental_uris": {"android": "https://dc.lft.to/lastmile_qr_scan", "ios": "https://dc.lft.to/lastmile_qr_scan"}, "type": "electric_scooter"}, {"bike_id": "483fa261f291a42fbdfadb1f2734aa38", "is_reserved": 0, "name": "483fa261f291a42fbdfadb1f2734aa38", "lat": 38.911097166666664, "fusion_lat": 0.0, "lon": -76.99744266666667, "is_disabled": 0, "fusion_lon": 0.0, "rental_uris": {"android": "https://dc.lft.to/lastmile_qr_scan", "ios": "https://dc.lft.to/lastmile_qr_scan"}, "type": "electric_scooter"}, {"bike_id": "856d0796a8abfd6e6bbe5837097c5196", "is_reserved": 0, "name": "856d0796a8abfd6e6bbe5837097c5196", "lat": 38.88500066666667, "fusion_lat": 0.0, "lon": -77.029727, "is_disabled": 0, "fusion_lon": 0.0, "rental_uris": {"android": "https://dc.lft.to/lastmile_qr_scan", "ios": "https://dc.lft.to/lastmile_qr_scan"}, "type": "electric_scooter"}, {"bike_id": "084f1717053d7e47b489c9511a698231", "is_reserved": 0, "name": "084f1717053d7e47b489c9511a698231", "lat": 38.91230133333333, "fusion_lat": 0.0, "lon": -76.98992766666667, "is_disabled": 0, "fusion_lon": 0.0, "rental_uris": {"android": "https://dc.lft.to/lastmile_qr_scan", "ios": "https://dc.lft.to/lastmile_qr_scan"}, "type": "electric_scooter"}, {"bike_id": "3ef7d2adc628106f9e459cad30f3e71e", "is_reserved": 0, "name": "3ef7d2adc628106f9e459cad30f3e71e", "lat": 38.93404566666667, "fusion_lat": 0.0, "lon": -77.039868, "is_disabled": 0, "fusion_lon": 0.0, "rental_uris": {"android": "https://dc.lft.to/lastmile_qr_scan", "ios": "https://dc.lft.to/lastmile_qr_scan"}, "type": "electric_scooter"}, {"bike_id": "fe0d70ab1f34df2c3d710a315d10eb83", "is_reserved": 0, "name": "fe0d70ab1f34df2c3d710a315d10eb83", "lat": 38.88626333333333, "fusion_lat": 0.0, "lon": -77.0282425, "is_disabled": 0, "fusion_lon": 0.0, "rental_uris": {"android": "https://dc.lft.to/lastmile_qr_scan", "ios": "https://dc.lft.to/lastmile_qr_scan"}, "type": "electric_scooter"}, {"bike_id": "667f0df4d0186cb1b28aa5a5b3ec9089", "is_reserved": 0, "name": "667f0df4d0186cb1b28aa5a5b3ec9089", "lat": 38.902962333333335, "fusion_lat": 0.0, "lon": -77.01990466666666, "is_disabled": 0, "fusion_lon": 0.0, "rental_uris": {"android": "https://dc.lft.to/lastmile_qr_scan", "ios": "https://dc.lft.to/lastmile_qr_scan"}, "type": "electric_scooter"}, {"bike_id": "aa67aba23029b50e1752280f0b7cc49d", "is_reserved": 0, "name": "aa67aba23029b50e1752280f0b7cc49d", "lat": 38.886805, "fusion_lat": 0.0, "lon": -77.03175083333333, "is_disabled": 0, "fusion_lon": 0.0, "rental_uris": {"android": "https://dc.lft.to/lastmile_qr_scan", "ios": "https://dc.lft.to/lastmile_qr_scan"}, "type": "electric_scooter"}, {"bike_id": "43a2f53f72f20be8d5610fc25414d9bf", "is_reserved": 0, "name": "43a2f53f72f20be8d5610fc25414d9bf", "lat": 39.036015666666664, "fusion_lat": 0.0, "lon": -77.05538433333334, "is_disabled": 0, "fusion_lon": 0.0, "rental_uris": {"android": "https://dc.lft.to/lastmile_qr_scan", "ios": "https://dc.lft.to/lastmile_qr_scan"}, "type": "electric_bike"}, {"bike_id": "ed59556fb4304f454fe80cd2d41badce", "is_reserved": 0, "name": "ed59556fb4304f454fe80cd2d41badce", "lat": 38.9276755, "fusion_lat": 0.0, "lon": -77.0206545, "is_disabled": 0, "fusion_lon": 0.0, "rental_uris": {"android": "https://dc.lft.to/lastmile_qr_scan", "ios": "https://dc.lft.to/lastmile_qr_scan"}, "type": "electric_scooter"}, {"bike_id": "a562ef3edbd75624331741810963ee41", "is_reserved": 0, "name": "a562ef3edbd75624331741810963ee41", "lat": 38.9319445, "fusion_lat": 0.0, "lon": -77.0389335, "is_disabled": 0, "fusion_lon": 0.0, "rental_uris": {"android": "https://dc.lft.to/lastmile_qr_scan", "ios": "https://dc.lft.to/lastmile_qr_scan"}, "type": "electric_scooter"}, {"bike_id": "ba0296db9e68a8ef6df6be3f68944caf", "is_reserved": 0, "name": "ba0296db9e68a8ef6df6be3f68944caf", "lat": 38.9245155, "fusion_lat": 0.0, "lon": -77.05192716666667, "is_disabled": 0, "fusion_lon": 0.0, "rental_uris": {"android": "https://dc.lft.to/lastmile_qr_scan", "ios": "https://dc.lft.to/lastmile_qr_scan"}, "type": "electric_scooter"}, {"bike_id": "898537c7e0d425d6a7eba19c26e90474", "is_reserved": 0, "name": "898537c7e0d425d6a7eba19c26e90474", "lat": 38.89889066666667, "fusion_lat": 0.0, "lon": -76.931739, "is_disabled": 0, "fusion_lon": 0.0, "rental_uris": {"android": "https://dc.lft.to/lastmile_qr_scan", "ios": "https://dc.lft.to/lastmile_qr_scan"}, "type": "electric_scooter"}, {"bike_id": "421157a4fd18341b3c7699a8dd801df7", "is_reserved": 0, "name": "421157a4fd18341b3c7699a8dd801df7", "lat": 38.89221166666667, "fusion_lat": 0.0, "lon": -77.022221, "is_disabled": 0, "fusion_lon": 0.0, "rental_uris": {"android": "https://dc.lft.to/lastmile_qr_scan", "ios": "https://dc.lft.to/lastmile_qr_scan"}, "type": "electric_scooter"}, {"bike_id": "d27e75561921f06f2a30403a599724e4", "is_reserved": 0, "name": "d27e75561921f06f2a30403a599724e4", "lat": 38.877142166666665, "fusion_lat": 0.0, "lon": -76.9969685, "is_disabled": 0, "fusion_lon": 0.0, "rental_uris": {"android": "https://dc.lft.to/lastmile_qr_scan", "ios": "https://dc.lft.to/lastmile_qr_scan"}, "type": "electric_scooter"}, {"bike_id": "90ccd93f4f91b69c5e0a6ed799aac1cf", "is_reserved": 0, "name": "90ccd93f4f91b69c5e0a6ed799aac1cf", "lat": 38.90601516666667, "fusion_lat": 0.0, "lon": -77.05684916666667, "is_disabled": 0, "fusion_lon": 0.0, "rental_uris": {"android": "https://dc.lft.to/lastmile_qr_scan", "ios": "https://dc.lft.to/lastmile_qr_scan"}, "type": "electric_scooter"}, {"bike_id": "eb8db8613a50c791ff900728751d7b2f", "is_reserved": 0, "name": "eb8db8613a50c791ff900728751d7b2f", "lat": 38.88539083333333, "fusion_lat": 0.0, "lon": -77.00059366666666, "is_disabled": 0, "fusion_lon": 0.0, "rental_uris": {"android": "https://dc.lft.to/lastmile_qr_scan", "ios": "https://dc.lft.to/lastmile_qr_scan"}, "type": "electric_scooter"}, {"bike_id": "9564563ee6ac15727f40a505d134c659", "is_reserved": 0, "name": "9564563ee6ac15727f40a505d134c659", "lat": 38.89542216666667, "fusion_lat": 0.0, "lon": -76.99004616666667, "is_disabled": 0, "fusion_lon": 0.0, "rental_uris": {"android": "https://dc.lft.to/lastmile_qr_scan", "ios": "https://dc.lft.to/lastmile_qr_scan"}, "type": "electric_scooter"}, {"bike_id": "eb28a44ef1c559010451a2440cfa145c", "is_reserved": 0, "name": "eb28a44ef1c559010451a2440cfa145c", "lat": 38.94291533333333, "fusion_lat": 0.0, "lon": -77.02171133333333, "is_disabled": 0, "fusion_lon": 0.0, "rental_uris": {"android": "https://dc.lft.to/lastmile_qr_scan", "ios": "https://dc.lft.to/lastmile_qr_scan"}, "type": "electric_scooter"}, {"bike_id": "ea47772e087abe5b527688171185c855", "is_reserved": 0, "name": "ea47772e087abe5b527688171185c855", "lat": 38.912867, "fusion_lat": 0.0, "lon": -77.03647916666667, "is_disabled": 0, "fusion_lon": 0.0, "rental_uris": {"android": "https://dc.lft.to/lastmile_qr_scan", "ios": "https://dc.lft.to/lastmile_qr_scan"}, "type": "electric_scooter"}, {"bike_id": "28d5e34aa9a5d164c9656a5b8ad91ed5", "is_reserved": 0, "name": "28d5e34aa9a5d164c9656a5b8ad91ed5", "lat": 38.92844216666667, "fusion_lat": 0.0, "lon": -77.03280333333333, "is_disabled": 0, "fusion_lon": 0.0, "rental_uris": {"android": "https://dc.lft.to/lastmile_qr_scan", "ios": "https://dc.lft.to/lastmile_qr_scan"}, "type": "electric_scooter"}, {"bike_id": "5bf25c26de680b6bbb7ea2a20d889211", "is_reserved": 0, "name": "5bf25c26de680b6bbb7ea2a20d889211", "lat": 38.904668, "fusion_lat": 0.0, "lon": -77.06281, "is_disabled": 0, "fusion_lon": 0.0, "rental_uris": {"android": "https://dc.lft.to/lastmile_qr_scan", "ios": "https://dc.lft.to/lastmile_qr_scan"}, "type": "electric_scooter"}, {"bike_id": "48b7522e23ad96f2e00e88c3417b72db", "is_reserved": 0, "name": "48b7522e23ad96f2e00e88c3417b72db", "lat": 38.87222116666667, "fusion_lat": 0.0, "lon": -77.01216966666667, "is_disabled": 0, "fusion_lon": 0.0, "rental_uris": {"android": "https://dc.lft.to/lastmile_qr_scan", "ios": "https://dc.lft.to/lastmile_qr_scan"}, "type": "electric_scooter"}, {"bike_id": "cacecf2a20ae33c496175c755ea793f3", "is_reserved": 0, "name": "cacecf2a20ae33c496175c755ea793f3", "lat": 38.89225, "fusion_lat": 0.0, "lon": -77.02628616666667, "is_disabled": 0, "fusion_lon": 0.0, "rental_uris": {"android": "https://dc.lft.to/lastmile_qr_scan", "ios": "https://dc.lft.to/lastmile_qr_scan"}, "type": "electric_scooter"}, {"bike_id": "88e196ba44c22725da685dadba55a446", "is_reserved": 0, "name": "88e196ba44c22725da685dadba55a446", "lat": 38.90385633333333, "fusion_lat": 0.0, "lon": -77.06808333333333, "is_disabled": 0, "fusion_lon": 0.0, "rental_uris": {"android": "https://dc.lft.to/lastmile_qr_scan", "ios": "https://dc.lft.to/lastmile_qr_scan"}, "type": "electric_scooter"}, {"bike_id": "7a13401faf95612b5371edf2c49bbcc1", "is_reserved": 0, "name": "7a13401faf95612b5371edf2c49bbcc1", "lat": 38.922503, "fusion_lat": 0.0, "lon": -77.0352155, "is_disabled": 0, "fusion_lon": 0.0, "rental_uris": {"android": "https://dc.lft.to/lastmile_qr_scan", "ios": "https://dc.lft.to/lastmile_qr_scan"}, "type": "electric_scooter"}, {"bike_id": "d779f9f39e6e5b526c4bdf061e9b8195", "is_reserved": 0, "name": "d779f9f39e6e5b526c4bdf061e9b8195", "lat": 38.90454233333333, "fusion_lat": 0.0, "lon": -77.00161233333333, "is_disabled": 0, "fusion_lon": 0.0, "rental_uris": {"android": "https://dc.lft.to/lastmile_qr_scan", "ios": "https://dc.lft.to/lastmile_qr_scan"}, "type": "electric_scooter"}, {"bike_id": "05838572a6a6a92f05d7ff9f0d72b391", "is_reserved": 0, "name": "05838572a6a6a92f05d7ff9f0d72b391", "lat": 38.93196283333333, "fusion_lat": 0.0, "lon": -77.03066516666667, "is_disabled": 0, "fusion_lon": 0.0, "rental_uris": {"android": "https://dc.lft.to/lastmile_qr_scan", "ios": "https://dc.lft.to/lastmile_qr_scan"}, "type": "electric_scooter"}, {"bike_id": "ac8c9dac92b4b340e2354cbdd162bb09", "is_reserved": 0, "name": "ac8c9dac92b4b340e2354cbdd162bb09", "lat": 38.9097015, "fusion_lat": 0.0, "lon": -77.03234216666667, "is_disabled": 0, "fusion_lon": 0.0, "rental_uris": {"android": "https://dc.lft.to/lastmile_qr_scan", "ios": "https://dc.lft.to/lastmile_qr_scan"}, "type": "electric_scooter"}, {"bike_id": "58b5fc8f17c6c92cc8b59a861bb75356", "is_reserved": 0, "name": "58b5fc8f17c6c92cc8b59a861bb75356", "lat": 38.92481633333333, "fusion_lat": 0.0, "lon": -77.02653466666666, "is_disabled": 0, "fusion_lon": 0.0, "rental_uris": {"android": "https://dc.lft.to/lastmile_qr_scan", "ios": "https://dc.lft.to/lastmile_qr_scan"}, "type": "electric_scooter"}, {"bike_id": "e986b5a1901abba39edb23553d895bce", "is_reserved": 0, "name": "e986b5a1901abba39edb23553d895bce", "lat": 38.910431, "fusion_lat": 0.0, "lon": -77.01666266666666, "is_disabled": 0, "fusion_lon": 0.0, "rental_uris": {"android": "https://dc.lft.to/lastmile_qr_scan", "ios": "https://dc.lft.to/lastmile_qr_scan"}, "type": "electric_scooter"}, {"bike_id": "0605ba7bf8ad9aeee45cf50f4ebae5b2", "is_reserved": 0, "name": "0605ba7bf8ad9aeee45cf50f4ebae5b2", "lat": 38.956214333333335, "fusion_lat": 0.0, "lon": -77.02829283333334, "is_disabled": 0, "fusion_lon": 0.0, "rental_uris": {"android": "https://dc.lft.to/lastmile_qr_scan", "ios": "https://dc.lft.to/lastmile_qr_scan"}, "type": "electric_scooter"}, {"bike_id": "46740536b3880b352773d9cffa115cd6", "is_reserved": 0, "name": "46740536b3880b352773d9cffa115cd6", "lat": 38.918036666666666, "fusion_lat": 0.0, "lon": -77.03329233333334, "is_disabled": 0, "fusion_lon": 0.0, "rental_uris": {"android": "https://dc.lft.to/lastmile_qr_scan", "ios": "https://dc.lft.to/lastmile_qr_scan"}, "type": "electric_scooter"}, {"bike_id": "ad0ea0ff2345608a995d3a37146c65d5", "is_reserved": 0, "name": "ad0ea0ff2345608a995d3a37146c65d5", "lat": 38.92342033333333, "fusion_lat": 0.0, "lon": -77.05225583333333, "is_disabled": 0, "fusion_lon": 0.0, "rental_uris": {"android": "https://dc.lft.to/lastmile_qr_scan", "ios": "https://dc.lft.to/lastmile_qr_scan"}, "type": "electric_scooter"}, {"bike_id": "a75e941b778d1dde49935a3664539880", "is_reserved": 0, "name": "a75e941b778d1dde49935a3664539880", "lat": 38.940223333333336, "fusion_lat": 0.0, "lon": -76.97608916666667, "is_disabled": 0, "fusion_lon": 0.0, "rental_uris": {"android": "https://dc.lft.to/lastmile_qr_scan", "ios": "https://dc.lft.to/lastmile_qr_scan"}, "type": "electric_bike"}, {"bike_id": "7383c1521e374a40c2282e0c3ef59f91", "is_reserved": 0, "name": "7383c1521e374a40c2282e0c3ef59f91", "lat": 38.91579316666667, "fusion_lat": 0.0, "lon": -76.9838035, "is_disabled": 0, "fusion_lon": 0.0, "rental_uris": {"android": "https://dc.lft.to/lastmile_qr_scan", "ios": "https://dc.lft.to/lastmile_qr_scan"}, "type": "electric_scooter"}, {"bike_id": "03f6459adc33e4871867d43057379f28", "is_reserved": 0, "name": "03f6459adc33e4871867d43057379f28", "lat": 38.89669266666667, "fusion_lat": 0.0, "lon": -77.02483066666667, "is_disabled": 0, "fusion_lon": 0.0, "rental_uris": {"android": "https://dc.lft.to/lastmile_qr_scan", "ios": "https://dc.lft.to/lastmile_qr_scan"}, "type": "electric_scooter"}, {"bike_id": "15955fc17f8eefcfc9b2bf3be48df36f", "is_reserved": 0, "name": "15955fc17f8eefcfc9b2bf3be48df36f", "lat": 38.916481833333336, "fusion_lat": 0.0, "lon": -77.04151933333333, "is_disabled": 0, "fusion_lon": 0.0, "rental_uris": {"android": "https://dc.lft.to/lastmile_qr_scan", "ios": "https://dc.lft.to/lastmile_qr_scan"}, "type": "electric_scooter"}, {"bike_id": "114f6fe08a260cdc5d40ee0a21397f7c", "is_reserved": 0, "name": "114f6fe08a260cdc5d40ee0a21397f7c", "lat": 38.898204666666665, "fusion_lat": 0.0, "lon": -77.03347716666667, "is_disabled": 0, "fusion_lon": 0.0, "rental_uris": {"android": "https://dc.lft.to/lastmile_qr_scan", "ios": "https://dc.lft.to/lastmile_qr_scan"}, "type": "electric_scooter"}, {"bike_id": "861e40b2d55852a5b0a19231cd832a17", "is_reserved": 0, "name": "861e40b2d55852a5b0a19231cd832a17", "lat": 38.9083185, "fusion_lat": 0.0, "lon": -77.03943483333333, "is_disabled": 0, "fusion_lon": 0.0, "rental_uris": {"android": "https://dc.lft.to/lastmile_qr_scan", "ios": "https://dc.lft.to/lastmile_qr_scan"}, "type": "electric_scooter"}, {"bike_id": "7cdda50b2e40c1edbd66b56b4eaaad57", "is_reserved": 0, "name": "7cdda50b2e40c1edbd66b56b4eaaad57", "lat": 38.879565166666666, "fusion_lat": 0.0, "lon": -77.00581116666666, "is_disabled": 0, "fusion_lon": 0.0, "rental_uris": {"android": "https://dc.lft.to/lastmile_qr_scan", "ios": "https://dc.lft.to/lastmile_qr_scan"}, "type": "electric_scooter"}, {"bike_id": "3e0c67302472a1ffb2bac32e00f31c5c", "is_reserved": 0, "name": "3e0c67302472a1ffb2bac32e00f31c5c", "lat": 38.904964, "fusion_lat": 0.0, "lon": -76.97447616666666, "is_disabled": 0, "fusion_lon": 0.0, "rental_uris": {"android": "https://dc.lft.to/lastmile_qr_scan", "ios": "https://dc.lft.to/lastmile_qr_scan"}, "type": "electric_bike"}, {"bike_id": "cda77e8fa7830e56812de046c504fe40", "is_reserved": 0, "name": "cda77e8fa7830e56812de046c504fe40", "lat": 38.870548, "fusion_lat": 0.0, "lon": -77.00750233333333, "is_disabled": 0, "fusion_lon": 0.0, "rental_uris": {"android": "https://dc.lft.to/lastmile_qr_scan", "ios": "https://dc.lft.to/lastmile_qr_scan"}, "type": "electric_scooter"}, {"bike_id": "ce02e4be1bf14fbbf8cc709a0e9e0cbd", "is_reserved": 0, "name": "ce02e4be1bf14fbbf8cc709a0e9e0cbd", "lat": 38.9336965, "fusion_lat": 0.0, "lon": -77.05727266666666, "is_disabled": 0, "fusion_lon": 0.0, "rental_uris": {"android": "https://dc.lft.to/lastmile_qr_scan", "ios": "https://dc.lft.to/lastmile_qr_scan"}, "type": "electric_scooter"}, {"bike_id": "a1ee324b86958d106fbee137aaaa4866", "is_reserved": 0, "name": "a1ee324b86958d106fbee137aaaa4866", "lat": 38.944752333333334, "fusion_lat": 0.0, "lon": -77.022403, "is_disabled": 0, "fusion_lon": 0.0, "rental_uris": {"android": "https://dc.lft.to/lastmile_qr_scan", "ios": "https://dc.lft.to/lastmile_qr_scan"}, "type": "electric_bike"}, {"bike_id": "1fce8f12e26f4dc91f298824ee3e6147", "is_reserved": 0, "name": "1fce8f12e26f4dc91f298824ee3e6147", "lat": 38.90723666666667, "fusion_lat": 0.0, "lon": -77.02490766666666, "is_disabled": 0, "fusion_lon": 0.0, "rental_uris": {"android": "https://dc.lft.to/lastmile_qr_scan", "ios": "https://dc.lft.to/lastmile_qr_scan"}, "type": "electric_scooter"}, {"bike_id": "1e600745f306a90b0357b40fc4398e3a", "is_reserved": 0, "name": "1e600745f306a90b0357b40fc4398e3a", "lat": 38.921213, "fusion_lat": 0.0, "lon": -77.04217766666666, "is_disabled": 0, "fusion_lon": 0.0, "rental_uris": {"android": "https://dc.lft.to/lastmile_qr_scan", "ios": "https://dc.lft.to/lastmile_qr_scan"}, "type": "electric_scooter"}, {"bike_id": "57850e29eeb29ee879edf73e7eaf1822", "is_reserved": 0, "name": "57850e29eeb29ee879edf73e7eaf1822", "lat": 38.91855533333333, "fusion_lat": 0.0, "lon": -76.96541866666666, "is_disabled": 0, "fusion_lon": 0.0, "rental_uris": {"android": "https://dc.lft.to/lastmile_qr_scan", "ios": "https://dc.lft.to/lastmile_qr_scan"}, "type": "electric_scooter"}, {"bike_id": "b9410f4e77a4831b57611b8df7e8f013", "is_reserved": 0, "name": "b9410f4e77a4831b57611b8df7e8f013", "lat": 38.874021166666665, "fusion_lat": 0.0, "lon": -77.00197466666667, "is_disabled": 0, "fusion_lon": 0.0, "rental_uris": {"android": "https://dc.lft.to/lastmile_qr_scan", "ios": "https://dc.lft.to/lastmile_qr_scan"}, "type": "electric_scooter"}, {"bike_id": "97b78779d6320505088ae0980bf426d5", "is_reserved": 0, "name": "97b78779d6320505088ae0980bf426d5", "lat": 38.9572995, "fusion_lat": 0.0, "lon": -77.023941, "is_disabled": 0, "fusion_lon": 0.0, "rental_uris": {"android": "https://dc.lft.to/lastmile_qr_scan", "ios": "https://dc.lft.to/lastmile_qr_scan"}, "type": "electric_scooter"}, {"bike_id": "9c6d671f1da966b3dc62b85644040ea4", "is_reserved": 0, "name": "9c6d671f1da966b3dc62b85644040ea4", "lat": 38.8704375, "fusion_lat": 0.0, "lon": -77.01007283333334, "is_disabled": 0, "fusion_lon": 0.0, "rental_uris": {"android": "https://dc.lft.to/lastmile_qr_scan", "ios": "https://dc.lft.to/lastmile_qr_scan"}, "type": "electric_scooter"}, {"bike_id": "7d3a0f6e6eb32ef278a160a559844a78", "is_reserved": 0, "name": "7d3a0f6e6eb32ef278a160a559844a78", "lat": 38.92244866666667, "fusion_lat": 0.0, "lon": -77.03066316666667, "is_disabled": 0, "fusion_lon": 0.0, "rental_uris": {"android": "https://dc.lft.to/lastmile_qr_scan", "ios": "https://dc.lft.to/lastmile_qr_scan"}, "type": "electric_scooter"}, {"bike_id": "4760694ab2e86e322ae8fbf61da0bba0", "is_reserved": 0, "name": "4760694ab2e86e322ae8fbf61da0bba0", "lat": 38.923088166666666, "fusion_lat": 0.0, "lon": -77.0365855, "is_disabled": 0, "fusion_lon": 0.0, "rental_uris": {"android": "https://dc.lft.to/lastmile_qr_scan", "ios": "https://dc.lft.to/lastmile_qr_scan"}, "type": "electric_scooter"}, {"bike_id": "e6803e99a58fde40e476dcf5836bf9c6", "is_reserved": 0, "name": "e6803e99a58fde40e476dcf5836bf9c6", "lat": 38.887352, "fusion_lat": 0.0, "lon": -77.023828, "is_disabled": 0, "fusion_lon": 0.0, "rental_uris": {"android": "https://dc.lft.to/lastmile_qr_scan", "ios": "https://dc.lft.to/lastmile_qr_scan"}, "type": "electric_scooter"}, {"bike_id": "f68148866b9182f432c4719eb4693202", "is_reserved": 0, "name": "f68148866b9182f432c4719eb4693202", "lat": 38.92836416666667, "fusion_lat": 0.0, "lon": -77.054176, "is_disabled": 0, "fusion_lon": 0.0, "rental_uris": {"android": "https://dc.lft.to/lastmile_qr_scan", "ios": "https://dc.lft.to/lastmile_qr_scan"}, "type": "electric_scooter"}, {"bike_id": "eaeaf5a179e931e1a119a7b9fed4722e", "is_reserved": 0, "name": "eaeaf5a179e931e1a119a7b9fed4722e", "lat": 38.908962, "fusion_lat": 0.0, "lon": -77.043941, "is_disabled": 0, "fusion_lon": 0.0, "rental_uris": {"android": "https://dc.lft.to/lastmile_qr_scan", "ios": "https://dc.lft.to/lastmile_qr_scan"}, "type": "electric_scooter"}, {"bike_id": "2e7b1a311200c974123bec1d39ca0d78", "is_reserved": 0, "name": "2e7b1a311200c974123bec1d39ca0d78", "lat": 38.90578266666667, "fusion_lat": 0.0, "lon": -77.00601983333334, "is_disabled": 0, "fusion_lon": 0.0, "rental_uris": {"android": "https://dc.lft.to/lastmile_qr_scan", "ios": "https://dc.lft.to/lastmile_qr_scan"}, "type": "electric_scooter"}, {"bike_id": "c4650559e90de8739b28ea7a2c059327", "is_reserved": 0, "name": "c4650559e90de8739b28ea7a2c059327", "lat": 38.902168333333336, "fusion_lat": 0.0, "lon": -76.98614033333334, "is_disabled": 0, "fusion_lon": 0.0, "rental_uris": {"android": "https://dc.lft.to/lastmile_qr_scan", "ios": "https://dc.lft.to/lastmile_qr_scan"}, "type": "electric_scooter"}, {"bike_id": "714638b553b36c1d877414f55add4c97", "is_reserved": 0, "name": "714638b553b36c1d877414f55add4c97", "lat": 38.911204166666664, "fusion_lat": 0.0, "lon": -77.0383025, "is_disabled": 0, "fusion_lon": 0.0, "rental_uris": {"android": "https://dc.lft.to/lastmile_qr_scan", "ios": "https://dc.lft.to/lastmile_qr_scan"}, "type": "electric_scooter"}, {"bike_id": "daa90261cedb6da1239d99c5a2699020", "is_reserved": 0, "name": "daa90261cedb6da1239d99c5a2699020", "lat": 38.898968333333336, "fusion_lat": 0.0, "lon": -77.021761, "is_disabled": 0, "fusion_lon": 0.0, "rental_uris": {"android": "https://dc.lft.to/lastmile_qr_scan", "ios": "https://dc.lft.to/lastmile_qr_scan"}, "type": "electric_bike"}, {"bike_id": "cbae08dd3bf9ab66580f37c68c3f0af6", "is_reserved": 0, "name": "cbae08dd3bf9ab66580f37c68c3f0af6", "lat": 38.904725, "fusion_lat": 0.0, "lon": -77.06602916666667, "is_disabled": 0, "fusion_lon": 0.0, "rental_uris": {"android": "https://dc.lft.to/lastmile_qr_scan", "ios": "https://dc.lft.to/lastmile_qr_scan"}, "type": "electric_scooter"}, {"bike_id": "853a8c466ccb72cafb3d06e9cbec0839", "is_reserved": 0, "name": "853a8c466ccb72cafb3d06e9cbec0839", "lat": 38.87375816666667, "fusion_lat": 0.0, "lon": -77.00124333333333, "is_disabled": 0, "fusion_lon": 0.0, "rental_uris": {"android": "https://dc.lft.to/lastmile_qr_scan", "ios": "https://dc.lft.to/lastmile_qr_scan"}, "type": "electric_scooter"}, {"bike_id": "8389c6449b093df9767946eef8c95591", "is_reserved": 0, "name": "8389c6449b093df9767946eef8c95591", "lat": 38.9878915, "fusion_lat": 0.0, "lon": -77.14100216666667, "is_disabled": 0, "fusion_lon": 0.0, "rental_uris": {"android": "https://dc.lft.to/lastmile_qr_scan", "ios": "https://dc.lft.to/lastmile_qr_scan"}, "type": "electric_bike"}, {"bike_id": "d4a24b130b3b52aed7f46b2e1bbaba4e", "is_reserved": 0, "name": "d4a24b130b3b52aed7f46b2e1bbaba4e", "lat": 38.91186866666666, "fusion_lat": 0.0, "lon": -77.0228695, "is_disabled": 0, "fusion_lon": 0.0, "rental_uris": {"android": "https://dc.lft.to/lastmile_qr_scan", "ios": "https://dc.lft.to/lastmile_qr_scan"}, "type": "electric_scooter"}, {"bike_id": "47e9e71a2caef1d36591ddc16fde547d", "is_reserved": 0, "name": "47e9e71a2caef1d36591ddc16fde547d", "lat": 38.9160655, "fusion_lat": 0.0, "lon": -77.02286533333333, "is_disabled": 0, "fusion_lon": 0.0, "rental_uris": {"android": "https://dc.lft.to/lastmile_qr_scan", "ios": "https://dc.lft.to/lastmile_qr_scan"}, "type": "electric_scooter"}, {"bike_id": "d82c87ab2f2c9f2ccda63d19eeab9fed", "is_reserved": 0, "name": "d82c87ab2f2c9f2ccda63d19eeab9fed", "lat": 38.89544216666667, "fusion_lat": 0.0, "lon": -76.98337883333333, "is_disabled": 0, "fusion_lon": 0.0, "rental_uris": {"android": "https://dc.lft.to/lastmile_qr_scan", "ios": "https://dc.lft.to/lastmile_qr_scan"}, "type": "electric_scooter"}, {"bike_id": "52dab8756c906e3c53dfa8a20c023065", "is_reserved": 0, "name": "52dab8756c906e3c53dfa8a20c023065", "lat": 38.91465216666667, "fusion_lat": 0.0, "lon": -77.04563833333333, "is_disabled": 0, "fusion_lon": 0.0, "rental_uris": {"android": "https://dc.lft.to/lastmile_qr_scan", "ios": "https://dc.lft.to/lastmile_qr_scan"}, "type": "electric_scooter"}, {"bike_id": "c7ce5d1e82d91782e4b6682617b3c5df", "is_reserved": 0, "name": "c7ce5d1e82d91782e4b6682617b3c5df", "lat": 38.924074166666664, "fusion_lat": 0.0, "lon": -77.05033783333333, "is_disabled": 0, "fusion_lon": 0.0, "rental_uris": {"android": "https://dc.lft.to/lastmile_qr_scan", "ios": "https://dc.lft.to/lastmile_qr_scan"}, "type": "electric_bike"}, {"bike_id": "eb8ab015134a3a5899cfd9cfebf89f75", "is_reserved": 0, "name": "eb8ab015134a3a5899cfd9cfebf89f75", "lat": 38.89282033333333, "fusion_lat": 0.0, "lon": -77.046569, "is_disabled": 0, "fusion_lon": 0.0, "rental_uris": {"android": "https://dc.lft.to/lastmile_qr_scan", "ios": "https://dc.lft.to/lastmile_qr_scan"}, "type": "electric_scooter"}, {"bike_id": "49398b705821f5c255f10bd3d6f3805c", "is_reserved": 0, "name": "49398b705821f5c255f10bd3d6f3805c", "lat": 38.869786166666664, "fusion_lat": 0.0, "lon": -77.013714, "is_disabled": 0, "fusion_lon": 0.0, "rental_uris": {"android": "https://dc.lft.to/lastmile_qr_scan", "ios": "https://dc.lft.to/lastmile_qr_scan"}, "type": "electric_scooter"}, {"bike_id": "ee38a6c4fe21190d2b1737c0ce23e526", "is_reserved": 0, "name": "ee38a6c4fe21190d2b1737c0ce23e526", "lat": 38.89702966666667, "fusion_lat": 0.0, "lon": -77.0295445, "is_disabled": 0, "fusion_lon": 0.0, "rental_uris": {"android": "https://dc.lft.to/lastmile_qr_scan", "ios": "https://dc.lft.to/lastmile_qr_scan"}, "type": "electric_scooter"}, {"bike_id": "3c21e9c4bac2e2ea28a3112deac5b226", "is_reserved": 0, "name": "3c21e9c4bac2e2ea28a3112deac5b226", "lat": 38.892094166666666, "fusion_lat": 0.0, "lon": -77.0265255, "is_disabled": 0, "fusion_lon": 0.0, "rental_uris": {"android": "https://dc.lft.to/lastmile_qr_scan", "ios": "https://dc.lft.to/lastmile_qr_scan"}, "type": "electric_scooter"}, {"bike_id": "e57e4ab7275f71b8def1415b5d58435a", "is_reserved": 0, "name": "e57e4ab7275f71b8def1415b5d58435a", "lat": 38.9335085, "fusion_lat": 0.0, "lon": -77.061872, "is_disabled": 0, "fusion_lon": 0.0, "rental_uris": {"android": "https://dc.lft.to/lastmile_qr_scan", "ios": "https://dc.lft.to/lastmile_qr_scan"}, "type": "electric_scooter"}, {"bike_id": "4a0206f0d266854e7659715a61ce97f8", "is_reserved": 0, "name": "4a0206f0d266854e7659715a61ce97f8", "lat": 38.925970666666664, "fusion_lat": 0.0, "lon": -77.03538583333334, "is_disabled": 0, "fusion_lon": 0.0, "rental_uris": {"android": "https://dc.lft.to/lastmile_qr_scan", "ios": "https://dc.lft.to/lastmile_qr_scan"}, "type": "electric_scooter"}, {"bike_id": "bf871bd8ab255c5884f79b09cbe0124b", "is_reserved": 0, "name": "bf871bd8ab255c5884f79b09cbe0124b", "lat": 38.914814666666665, "fusion_lat": 0.0, "lon": -77.0460635, "is_disabled": 0, "fusion_lon": 0.0, "rental_uris": {"android": "https://dc.lft.to/lastmile_qr_scan", "ios": "https://dc.lft.to/lastmile_qr_scan"}, "type": "electric_scooter"}, {"bike_id": "579114b8ee34ad7d72d84edff8a5eb59", "is_reserved": 0, "name": "579114b8ee34ad7d72d84edff8a5eb59", "lat": 38.92480333333334, "fusion_lat": 0.0, "lon": -77.0355685, "is_disabled": 0, "fusion_lon": 0.0, "rental_uris": {"android": "https://dc.lft.to/lastmile_qr_scan", "ios": "https://dc.lft.to/lastmile_qr_scan"}, "type": "electric_scooter"}, {"bike_id": "c6c620430f7b163a74dbd6b0133d55ba", "is_reserved": 0, "name": "c6c620430f7b163a74dbd6b0133d55ba", "lat": 38.91780966666666, "fusion_lat": 0.0, "lon": -77.03190483333333, "is_disabled": 0, "fusion_lon": 0.0, "rental_uris": {"android": "https://dc.lft.to/lastmile_qr_scan", "ios": "https://dc.lft.to/lastmile_qr_scan"}, "type": "electric_scooter"}, {"bike_id": "74fb68e0f912b6de9aa7d82d791ad05b", "is_reserved": 0, "name": "74fb68e0f912b6de9aa7d82d791ad05b", "lat": 38.92202966666667, "fusion_lat": 0.0, "lon": -77.04189233333334, "is_disabled": 0, "fusion_lon": 0.0, "rental_uris": {"android": "https://dc.lft.to/lastmile_qr_scan", "ios": "https://dc.lft.to/lastmile_qr_scan"}, "type": "electric_scooter"}, {"bike_id": "eff8d50a524ef0c70d3dda00b99ea745", "is_reserved": 0, "name": "eff8d50a524ef0c70d3dda00b99ea745", "lat": 38.91811233333333, "fusion_lat": 0.0, "lon": -77.04000616666667, "is_disabled": 0, "fusion_lon": 0.0, "rental_uris": {"android": "https://dc.lft.to/lastmile_qr_scan", "ios": "https://dc.lft.to/lastmile_qr_scan"}, "type": "electric_scooter"}, {"bike_id": "cc682805d2d282276fa9515c85e2d0be", "is_reserved": 0, "name": "cc682805d2d282276fa9515c85e2d0be", "lat": 38.93229216666667, "fusion_lat": 0.0, "lon": -77.02966183333334, "is_disabled": 0, "fusion_lon": 0.0, "rental_uris": {"android": "https://dc.lft.to/lastmile_qr_scan", "ios": "https://dc.lft.to/lastmile_qr_scan"}, "type": "electric_scooter"}, {"bike_id": "a6d29c2f2d32a9fdab42a7d82d5dc1e5", "is_reserved": 0, "name": "a6d29c2f2d32a9fdab42a7d82d5dc1e5", "lat": 38.92621333333334, "fusion_lat": 0.0, "lon": -77.03306, "is_disabled": 0, "fusion_lon": 0.0, "rental_uris": {"android": "https://dc.lft.to/lastmile_qr_scan", "ios": "https://dc.lft.to/lastmile_qr_scan"}, "type": "electric_bike"}, {"bike_id": "994e9ca46c71f2979df1477d6bb9a4c4", "is_reserved": 0, "name": "994e9ca46c71f2979df1477d6bb9a4c4", "lat": 38.88725133333333, "fusion_lat": 0.0, "lon": -77.013344, "is_disabled": 0, "fusion_lon": 0.0, "rental_uris": {"android": "https://dc.lft.to/lastmile_qr_scan", "ios": "https://dc.lft.to/lastmile_qr_scan"}, "type": "electric_scooter"}, {"bike_id": "1e8ead76a59a8d14d27bb2e2410efc42", "is_reserved": 0, "name": "1e8ead76a59a8d14d27bb2e2410efc42", "lat": 38.907445333333335, "fusion_lat": 0.0, "lon": -77.03643466666666, "is_disabled": 0, "fusion_lon": 0.0, "rental_uris": {"android": "https://dc.lft.to/lastmile_qr_scan", "ios": "https://dc.lft.to/lastmile_qr_scan"}, "type": "electric_bike"}, {"bike_id": "83c5f14ccc2da52715ad76411cac376f", "is_reserved": 0, "name": "83c5f14ccc2da52715ad76411cac376f", "lat": 38.9167305, "fusion_lat": 0.0, "lon": -77.02387633333333, "is_disabled": 0, "fusion_lon": 0.0, "rental_uris": {"android": "https://dc.lft.to/lastmile_qr_scan", "ios": "https://dc.lft.to/lastmile_qr_scan"}, "type": "electric_scooter"}, {"bike_id": "555b198b7915821edd2027322b94b25e", "is_reserved": 0, "name": "555b198b7915821edd2027322b94b25e", "lat": 38.87306983333333, "fusion_lat": 0.0, "lon": -77.0013515, "is_disabled": 0, "fusion_lon": 0.0, "rental_uris": {"android": "https://dc.lft.to/lastmile_qr_scan", "ios": "https://dc.lft.to/lastmile_qr_scan"}, "type": "electric_scooter"}, {"bike_id": "1c2e0fcef20c5590d675e027342ecf19", "is_reserved": 0, "name": "1c2e0fcef20c5590d675e027342ecf19", "lat": 38.88422383333333, "fusion_lat": 0.0, "lon": -77.00683516666666, "is_disabled": 0, "fusion_lon": 0.0, "rental_uris": {"android": "https://dc.lft.to/lastmile_qr_scan", "ios": "https://dc.lft.to/lastmile_qr_scan"}, "type": "electric_scooter"}, {"bike_id": "30a7b101eddc62a10d5d874cc3717646", "is_reserved": 0, "name": "30a7b101eddc62a10d5d874cc3717646", "lat": 38.915433666666665, "fusion_lat": 0.0, "lon": -77.03843666666667, "is_disabled": 0, "fusion_lon": 0.0, "rental_uris": {"android": "https://dc.lft.to/lastmile_qr_scan", "ios": "https://dc.lft.to/lastmile_qr_scan"}, "type": "electric_scooter"}, {"bike_id": "79a567a34c4316e29bcb8abf8549595d", "is_reserved": 0, "name": "79a567a34c4316e29bcb8abf8549595d", "lat": 38.91417283333333, "fusion_lat": 0.0, "lon": -77.02097983333333, "is_disabled": 0, "fusion_lon": 0.0, "rental_uris": {"android": "https://dc.lft.to/lastmile_qr_scan", "ios": "https://dc.lft.to/lastmile_qr_scan"}, "type": "electric_scooter"}, {"bike_id": "7c12f8b443393a2bc621f70070632b1e", "is_reserved": 0, "name": "7c12f8b443393a2bc621f70070632b1e", "lat": 38.89741016666667, "fusion_lat": 0.0, "lon": -77.01291066666667, "is_disabled": 0, "fusion_lon": 0.0, "rental_uris": {"android": "https://dc.lft.to/lastmile_qr_scan", "ios": "https://dc.lft.to/lastmile_qr_scan"}, "type": "electric_scooter"}, {"bike_id": "dba31e9dd84cb91c23807aed2c365c9b", "is_reserved": 0, "name": "dba31e9dd84cb91c23807aed2c365c9b", "lat": 38.839273, "fusion_lat": 0.0, "lon": -77.07894483333334, "is_disabled": 0, "fusion_lon": 0.0, "rental_uris": {"android": "https://dc.lft.to/lastmile_qr_scan", "ios": "https://dc.lft.to/lastmile_qr_scan"}, "type": "electric_bike"}, {"bike_id": "77ec8d4b6266001ad59dd3a7e0e7c864", "is_reserved": 0, "name": "77ec8d4b6266001ad59dd3a7e0e7c864", "lat": 38.924698666666664, "fusion_lat": 0.0, "lon": -77.02202616666666, "is_disabled": 0, "fusion_lon": 0.0, "rental_uris": {"android": "https://dc.lft.to/lastmile_qr_scan", "ios": "https://dc.lft.to/lastmile_qr_scan"}, "type": "electric_scooter"}, {"bike_id": "76dc33fd6974363f7de3b98484e391bc", "is_reserved": 0, "name": "76dc33fd6974363f7de3b98484e391bc", "lat": 38.900890833333335, "fusion_lat": 0.0, "lon": -77.0262045, "is_disabled": 0, "fusion_lon": 0.0, "rental_uris": {"android": "https://dc.lft.to/lastmile_qr_scan", "ios": "https://dc.lft.to/lastmile_qr_scan"}, "type": "electric_scooter"}, {"bike_id": "291e3b48abf8f287a445266995508de2", "is_reserved": 0, "name": "291e3b48abf8f287a445266995508de2", "lat": 38.9024645, "fusion_lat": 0.0, "lon": -77.04693766666666, "is_disabled": 0, "fusion_lon": 0.0, "rental_uris": {"android": "https://dc.lft.to/lastmile_qr_scan", "ios": "https://dc.lft.to/lastmile_qr_scan"}, "type": "electric_scooter"}, {"bike_id": "963a5b3335bbc695e8ed80edce3a1cb1", "is_reserved": 0, "name": "963a5b3335bbc695e8ed80edce3a1cb1", "lat": 38.91343233333333, "fusion_lat": 0.0, "lon": -77.027615, "is_disabled": 0, "fusion_lon": 0.0, "rental_uris": {"android": "https://dc.lft.to/lastmile_qr_scan", "ios": "https://dc.lft.to/lastmile_qr_scan"}, "type": "electric_scooter"}, {"bike_id": "8e21ac3c98d9098cb90935527ef91539", "is_reserved": 0, "name": "8e21ac3c98d9098cb90935527ef91539", "lat": 38.87027166666667, "fusion_lat": 0.0, "lon": -77.01045766666667, "is_disabled": 0, "fusion_lon": 0.0, "rental_uris": {"android": "https://dc.lft.to/lastmile_qr_scan", "ios": "https://dc.lft.to/lastmile_qr_scan"}, "type": "electric_scooter"}, {"bike_id": "177da1d396214cc7449989556417f3ef", "is_reserved": 0, "name": "177da1d396214cc7449989556417f3ef", "lat": 38.90077266666667, "fusion_lat": 0.0, "lon": -77.0271325, "is_disabled": 0, "fusion_lon": 0.0, "rental_uris": {"android": "https://dc.lft.to/lastmile_qr_scan", "ios": "https://dc.lft.to/lastmile_qr_scan"}, "type": "electric_scooter"}, {"bike_id": "5ba8f6475e5c907a1b15d4e005f7723c", "is_reserved": 0, "name": "5ba8f6475e5c907a1b15d4e005f7723c", "lat": 38.9309435, "fusion_lat": 0.0, "lon": -77.02471283333334, "is_disabled": 0, "fusion_lon": 0.0, "rental_uris": {"android": "https://dc.lft.to/lastmile_qr_scan", "ios": "https://dc.lft.to/lastmile_qr_scan"}, "type": "electric_scooter"}, {"bike_id": "e7ef1d7d8ca1b3d8c154f5944fdc9e50", "is_reserved": 0, "name": "e7ef1d7d8ca1b3d8c154f5944fdc9e50", "lat": 38.940847, "fusion_lat": 0.0, "lon": -77.02634733333333, "is_disabled": 0, "fusion_lon": 0.0, "rental_uris": {"android": "https://dc.lft.to/lastmile_qr_scan", "ios": "https://dc.lft.to/lastmile_qr_scan"}, "type": "electric_scooter"}, {"bike_id": "d767c48b75da02adfcbe2bd5ba8cbc30", "is_reserved": 0, "name": "d767c48b75da02adfcbe2bd5ba8cbc30", "lat": 38.9429495, "fusion_lat": 0.0, "lon": -77.02172266666666, "is_disabled": 0, "fusion_lon": 0.0, "rental_uris": {"android": "https://dc.lft.to/lastmile_qr_scan", "ios": "https://dc.lft.to/lastmile_qr_scan"}, "type": "electric_scooter"}, {"bike_id": "1c18e85fd885bd3e58f1997c41a0e979", "is_reserved": 0, "name": "1c18e85fd885bd3e58f1997c41a0e979", "lat": 38.86976083333333, "fusion_lat": 0.0, "lon": -77.0117075, "is_disabled": 0, "fusion_lon": 0.0, "rental_uris": {"android": "https://dc.lft.to/lastmile_qr_scan", "ios": "https://dc.lft.to/lastmile_qr_scan"}, "type": "electric_bike"}, {"bike_id": "1361c688353a48893fb1ed4726405d35", "is_reserved": 0, "name": "1361c688353a48893fb1ed4726405d35", "lat": 38.92737266666666, "fusion_lat": 0.0, "lon": -77.02246783333334, "is_disabled": 0, "fusion_lon": 0.0, "rental_uris": {"android": "https://dc.lft.to/lastmile_qr_scan", "ios": "https://dc.lft.to/lastmile_qr_scan"}, "type": "electric_scooter"}, {"bike_id": "dcd852a7046c4f7a3d86a3d96fe88142", "is_reserved": 0, "name": "dcd852a7046c4f7a3d86a3d96fe88142", "lat": 38.905568833333334, "fusion_lat": 0.0, "lon": -77.00187066666666, "is_disabled": 0, "fusion_lon": 0.0, "rental_uris": {"android": "https://dc.lft.to/lastmile_qr_scan", "ios": "https://dc.lft.to/lastmile_qr_scan"}, "type": "electric_scooter"}, {"bike_id": "6c46fbe4f8fb798104d7fd3f2cbbd11a", "is_reserved": 0, "name": "6c46fbe4f8fb798104d7fd3f2cbbd11a", "lat": 38.93080466666667, "fusion_lat": 0.0, "lon": -77.0278995, "is_disabled": 0, "fusion_lon": 0.0, "rental_uris": {"android": "https://dc.lft.to/lastmile_qr_scan", "ios": "https://dc.lft.to/lastmile_qr_scan"}, "type": "electric_scooter"}, {"bike_id": "ea73cb1090c7f4beb140331f020244ef", "is_reserved": 0, "name": "ea73cb1090c7f4beb140331f020244ef", "lat": 38.92042883333333, "fusion_lat": 0.0, "lon": -77.03392433333333, "is_disabled": 0, "fusion_lon": 0.0, "rental_uris": {"android": "https://dc.lft.to/lastmile_qr_scan", "ios": "https://dc.lft.to/lastmile_qr_scan"}, "type": "electric_scooter"}, {"bike_id": "86262e3b7f942acfdf68e6206497c6f7", "is_reserved": 0, "name": "86262e3b7f942acfdf68e6206497c6f7", "lat": 38.89060816666667, "fusion_lat": 0.0, "lon": -76.94447, "is_disabled": 0, "fusion_lon": 0.0, "rental_uris": {"android": "https://dc.lft.to/lastmile_qr_scan", "ios": "https://dc.lft.to/lastmile_qr_scan"}, "type": "electric_scooter"}, {"bike_id": "ea2b506f2e218a658881cee4e4fb0e02", "is_reserved": 0, "name": "ea2b506f2e218a658881cee4e4fb0e02", "lat": 38.8620205, "fusion_lat": 0.0, "lon": -76.99537266666667, "is_disabled": 0, "fusion_lon": 0.0, "rental_uris": {"android": "https://dc.lft.to/lastmile_qr_scan", "ios": "https://dc.lft.to/lastmile_qr_scan"}, "type": "electric_bike"}, {"bike_id": "cf0d91435c87085e991fd587bda08dae", "is_reserved": 0, "name": "cf0d91435c87085e991fd587bda08dae", "lat": 38.905953, "fusion_lat": 0.0, "lon": -77.0434475, "is_disabled": 0, "fusion_lon": 0.0, "rental_uris": {"android": "https://dc.lft.to/lastmile_qr_scan", "ios": "https://dc.lft.to/lastmile_qr_scan"}, "type": "electric_scooter"}, {"bike_id": "72a4350674d1016b0d4aa3d5cd444ba3", "is_reserved": 0, "name": "72a4350674d1016b0d4aa3d5cd444ba3", "lat": 38.880129333333336, "fusion_lat": 0.0, "lon": -76.9159055, "is_disabled": 0, "fusion_lon": 0.0, "rental_uris": {"android": "https://dc.lft.to/lastmile_qr_scan", "ios": "https://dc.lft.to/lastmile_qr_scan"}, "type": "electric_bike"}, {"bike_id": "986b8e84b9a7cacc986661ac2451599d", "is_reserved": 0, "name": "986b8e84b9a7cacc986661ac2451599d", "lat": 38.899770833333335, "fusion_lat": 0.0, "lon": -77.02367, "is_disabled": 0, "fusion_lon": 0.0, "rental_uris": {"android": "https://dc.lft.to/lastmile_qr_scan", "ios": "https://dc.lft.to/lastmile_qr_scan"}, "type": "electric_scooter"}, {"bike_id": "e77465bdb146abb5f9e2ebe35225b533", "is_reserved": 0, "name": "e77465bdb146abb5f9e2ebe35225b533", "lat": 38.929941, "fusion_lat": 0.0, "lon": -77.037973, "is_disabled": 0, "fusion_lon": 0.0, "rental_uris": {"android": "https://dc.lft.to/lastmile_qr_scan", "ios": "https://dc.lft.to/lastmile_qr_scan"}, "type": "electric_scooter"}, {"bike_id": "b314f7c6ecd99598878d9ca5d95f1de6", "is_reserved": 0, "name": "b314f7c6ecd99598878d9ca5d95f1de6", "lat": 38.90960783333333, "fusion_lat": 0.0, "lon": -77.03937416666666, "is_disabled": 0, "fusion_lon": 0.0, "rental_uris": {"android": "https://dc.lft.to/lastmile_qr_scan", "ios": "https://dc.lft.to/lastmile_qr_scan"}, "type": "electric_scooter"}, {"bike_id": "ba98f88e2af448ac3af857622d1b90f8", "is_reserved": 0, "name": "ba98f88e2af448ac3af857622d1b90f8", "lat": 38.930542833333334, "fusion_lat": 0.0, "lon": -77.02320166666667, "is_disabled": 0, "fusion_lon": 0.0, "rental_uris": {"android": "https://dc.lft.to/lastmile_qr_scan", "ios": "https://dc.lft.to/lastmile_qr_scan"}, "type": "electric_scooter"}, {"bike_id": "289b10e88348e17620ab81511ad41367", "is_reserved": 0, "name": "289b10e88348e17620ab81511ad41367", "lat": 38.883499666666665, "fusion_lat": 0.0, "lon": -76.99486333333333, "is_disabled": 0, "fusion_lon": 0.0, "rental_uris": {"android": "https://dc.lft.to/lastmile_qr_scan", "ios": "https://dc.lft.to/lastmile_qr_scan"}, "type": "electric_scooter"}, {"bike_id": "46ee4b5d319ea0190e4b8fb1abd25869", "is_reserved": 0, "name": "46ee4b5d319ea0190e4b8fb1abd25869", "lat": 38.934043833333334, "fusion_lat": 0.0, "lon": -77.0326075, "is_disabled": 0, "fusion_lon": 0.0, "rental_uris": {"android": "https://dc.lft.to/lastmile_qr_scan", "ios": "https://dc.lft.to/lastmile_qr_scan"}, "type": "electric_scooter"}, {"bike_id": "b830ea313bcbc0896d3d965bece1f0a9", "is_reserved": 0, "name": "b830ea313bcbc0896d3d965bece1f0a9", "lat": 38.92334866666667, "fusion_lat": 0.0, "lon": -77.02035033333334, "is_disabled": 0, "fusion_lon": 0.0, "rental_uris": {"android": "https://dc.lft.to/lastmile_qr_scan", "ios": "https://dc.lft.to/lastmile_qr_scan"}, "type": "electric_scooter"}, {"bike_id": "b99eeb379d9f61acbb88296a51d09f34", "is_reserved": 0, "name": "b99eeb379d9f61acbb88296a51d09f34", "lat": 38.9125605, "fusion_lat": 0.0, "lon": -76.97204716666667, "is_disabled": 0, "fusion_lon": 0.0, "rental_uris": {"android": "https://dc.lft.to/lastmile_qr_scan", "ios": "https://dc.lft.to/lastmile_qr_scan"}, "type": "electric_scooter"}, {"bike_id": "ecb2ebe0cea9bd248b440574225b6c3c", "is_reserved": 0, "name": "ecb2ebe0cea9bd248b440574225b6c3c", "lat": 38.94816566666667, "fusion_lat": 0.0, "lon": -77.10006583333333, "is_disabled": 0, "fusion_lon": 0.0, "rental_uris": {"android": "https://dc.lft.to/lastmile_qr_scan", "ios": "https://dc.lft.to/lastmile_qr_scan"}, "type": "electric_bike"}, {"bike_id": "dd14463916254139efbd1f1439463f20", "is_reserved": 0, "name": "dd14463916254139efbd1f1439463f20", "lat": 38.897271333333336, "fusion_lat": 0.0, "lon": -77.05521016666667, "is_disabled": 0, "fusion_lon": 0.0, "rental_uris": {"android": "https://dc.lft.to/lastmile_qr_scan", "ios": "https://dc.lft.to/lastmile_qr_scan"}, "type": "electric_scooter"}, {"bike_id": "d3612375cfa8abcda6e3a4062ac3b2ce", "is_reserved": 0, "name": "d3612375cfa8abcda6e3a4062ac3b2ce", "lat": 38.899354, "fusion_lat": 0.0, "lon": -77.054013, "is_disabled": 0, "fusion_lon": 0.0, "rental_uris": {"android": "https://dc.lft.to/lastmile_qr_scan", "ios": "https://dc.lft.to/lastmile_qr_scan"}, "type": "electric_scooter"}, {"bike_id": "28978c6a9e013cb2a247d667fa990aeb", "is_reserved": 0, "name": "28978c6a9e013cb2a247d667fa990aeb", "lat": 38.91598583333333, "fusion_lat": 0.0, "lon": -76.99356, "is_disabled": 0, "fusion_lon": 0.0, "rental_uris": {"android": "https://dc.lft.to/lastmile_qr_scan", "ios": "https://dc.lft.to/lastmile_qr_scan"}, "type": "electric_scooter"}, {"bike_id": "26fb27ce1350800c2a02b7d5e025e819", "is_reserved": 0, "name": "26fb27ce1350800c2a02b7d5e025e819", "lat": 38.9128795, "fusion_lat": 0.0, "lon": -77.02383016666667, "is_disabled": 0, "fusion_lon": 0.0, "rental_uris": {"android": "https://dc.lft.to/lastmile_qr_scan", "ios": "https://dc.lft.to/lastmile_qr_scan"}, "type": "electric_scooter"}, {"bike_id": "befa2eaac5ee02cc7674ffa32a8c0533", "is_reserved": 0, "name": "befa2eaac5ee02cc7674ffa32a8c0533", "lat": 38.918186666666664, "fusion_lat": 0.0, "lon": -77.0315315, "is_disabled": 0, "fusion_lon": 0.0, "rental_uris": {"android": "https://dc.lft.to/lastmile_qr_scan", "ios": "https://dc.lft.to/lastmile_qr_scan"}, "type": "electric_scooter"},