{"data": {"bikes": [{"fusion_lon": 0.0, "rental_uris": {"ios": "https://dc.lft.to/lastmile_qr_scan", "android": "https://dc.lft.to/lastmile_qr_scan"}, "type": "electric_scooter", "is_reserved": 0, "is_disabled": 0, "bike_id": "28798e3dd559f9196a4b9e415b617af0", "lat": 38.904660166666666, "lon": -77.02948633333334, "fusion_lat": 0.0, "name": "28798e3dd559f9196a4b9e415b617af0"}, {"fusion_lon": 0.0, "rental_uris": {"ios": "https://dc.lft.to/lastmile_qr_scan", "android": "https://dc.lft.to/lastmile_qr_scan"}, "type": "electric_scooter", "is_reserved": 0, "is_disabled": 0, "bike_id": "abd6ebd0d273eb8f6932cb9b3dbf5243", "lat": 38.9447085, "lon": -77.02339716666667, "fusion_lat": 0.0, "name": "abd6ebd0d273eb8f6932cb9b3dbf5243"}, {"fusion_lon": 0.0, "rental_uris": {"ios": "https://dc.lft.to/lastmile_qr_scan", "android": "https://dc.lft.to/lastmile_qr_scan"}, "type": "electric_scooter", "is_reserved": 0, "is_disabled": 0, "bike_id": "7e7ab24f617b03ce9a602639cda5260a", "lat": 38.87562633333334, "lon": -77.00596133333333, "fusion_lat": 0.0, "name": "7e7ab24f617b03ce9a602639cda5260a"}, {"fusion_lon": 0.0, "rental_uris": {"ios": "https://dc.lft.to/lastmile_qr_scan", "android": "https://dc.lft.to/lastmile_qr_scan"}, "type": "electric_scooter", "is_reserved": 0, "is_disabled": 0, "bike_id": "3388940d4dde136475ef330ee48b1dc9", "lat": 38.9127005, "lon": -77.022256, "fusion_lat": 0.0, "name": "3388940d4dde136475ef330ee48b1dc9"}, {"fusion_lon": 0.0, "rental_uris": {"ios": "https://dc.lft.to/lastmile_qr_scan", "android": "https://dc.lft.to/lastmile_qr_scan"}, "type": "electric_scooter", "is_reserved": 0, "is_disabled": 0, "bike_id": "af81f1074128c16fac8826db53be440d", "lat": 38.940945666666664, "lon": -77.02313933333333, "fusion_lat": 0.0, "name": "af81f1074128c16fac8826db53be440d"}, {"fusion_lon": 0.0, "rental_uris": {"ios": "https://dc.lft.to/lastmile_qr_scan", "android": "https://dc.lft.to/lastmile_qr_scan"}, "type": "electric_scooter", "is_reserved": 0, "is_disabled": 0, "bike_id": "247dd6f2e3cd5b4ba57e6a2fd8b3118c", "lat": 38.923320333333336, "lon": -77.00043566666666, "fusion_lat": 0.0, "name": "247dd6f2e3cd5b4ba57e6a2fd8b3118c"}, {"fusion_lon": 0.0, "rental_uris": {"ios": "https://dc.lft.to/lastmile_qr_scan", "android": "https://dc.lft.to/lastmile_qr_scan"}, "type": "electric_bike", "is_reserved": 0, "is_disabled": 0, "bike_id": "00d4afd90bb819d04eeef6dd339069c1", "lat": 38.941714, "lon": -76.953485, "fusion_lat": 0.0, "name": "00d4afd90bb819d04eeef6dd339069c1"}, {"fusion_lon": 0.0, "rental_uris": {"ios": "https://dc.lft.to/lastmile_qr_scan", "android": "https://dc.lft.to/lastmile_qr_scan"}, "type": "electric_scooter", "is_reserved": 0, "is_disabled": 0, "bike_id": "5651f417060c2a33f45670987609b643", "lat": 38.9232405, "lon": -77.019536, "fusion_lat": 0.0, "name": "5651f417060c2a33f45670987609b643"}, {"fusion_lon": 0.0, "rental_uris": {"ios": "https://dc.lft.to/lastmile_qr_scan", "android": "https://dc.lft.to/lastmile_qr_scan"}, "type": "electric_scooter", "is_reserved": 0, "is_disabled": 0, "bike_id": "76afaf337af1c3e1f1dd8293d164aa72", "lat": 38.90844416666667, "lon": -77.03560216666666, "fusion_lat": 0.0, "name": "76afaf337af1c3e1f1dd8293d164aa72"}, {"fusion_lon": 0.0, "rental_uris": {"ios": "https://dc.lft.to/lastmile_qr_scan", "android": "https://dc.lft.to/lastmile_qr_scan"}, "type": "electric_bike", "is_reserved": 0, "is_disabled": 0, "bike_id": "f9264b4d4940ee86695e23c0a10a8739", "lat": 38.97440616666667, "lon": -77.09615333333333, "fusion_lat": 0.0, "name": "f9264b4d4940ee86695e23c0a10a8739"}, {"fusion_lon": 0.0, "rental_uris": {"ios": "https://dc.lft.to/lastmile_qr_scan", "android": "https://dc.lft.to/lastmile_qr_scan"}, "type": "electric_scooter", "is_reserved": 0, "is_disabled": 0, "bike_id": "79b2b3b02a3d138d51bb43b686e6ce53", "lat": 38.934324, "lon": -77.0400305, "fusion_lat": 0.0, "name": "79b2b3b02a3d138d51bb43b686e6ce53"}, {"fusion_lon": 0.0, "rental_uris": {"ios": "https://dc.lft.to/lastmile_qr_scan", "android": "https://dc.lft.to/lastmile_qr_scan"}, "type": "electric_scooter", "is_reserved": 0, "is_disabled": 0, "bike_id": "a2582ff5456a99e89012f043c06fc393", "lat": 38.90136283333333, "lon": -77.04301166666667, "fusion_lat": 0.0, "name": "a2582ff5456a99e89012f043c06fc393"}, {"fusion_lon": 0.0, "rental_uris": {"ios": "https://dc.lft.to/lastmile_qr_scan", "android": "https://dc.lft.to/lastmile_qr_scan"}, "type": "electric_scooter", "is_reserved": 0, "is_disabled": 0, "bike_id": "7077c7bc52edf30139582c0cebe9c0ba", "lat": 38.91765316666667, "lon": -77.02710233333333, "fusion_lat": 0.0, "name": "7077c7bc52edf30139582c0cebe9c0ba"}, {"fusion_lon": 0.0, "rental_uris": {"ios": "https://dc.lft.to/lastmile_qr_scan", "android": "https://dc.lft.to/lastmile_qr_scan"}, "type": "electric_scooter", "is_reserved": 0, "is_disabled": 0, "bike_id": "7a39a2ceab0a8cc70ce33361b65ba29d", "lat": 38.9324465, "lon": -77.03272033333333, "fusion_lat": 0.0, "name": "7a39a2ceab0a8cc70ce33361b65ba29d"}, {"fusion_lon": 0.0, "rental_uris": {"ios": "https://dc.lft.to/lastmile_qr_scan", "android": "https://dc.lft.to/lastmile_qr_scan"}, "type": "electric_scooter", "is_reserved": 0, "is_disabled": 0, "bike_id": "613bb3cebc0c9734916021b0cbbf9751", "lat": 38.91879566666667, "lon": -77.00921016666666, "fusion_lat": 0.0, "name": "613bb3cebc0c9734916021b0cbbf9751"}, {"fusion_lon": 0.0, "rental_uris": {"ios": "https://dc.lft.to/lastmile_qr_scan", "android": "https://dc.lft.to/lastmile_qr_scan"}, "type": "electric_scooter", "is_reserved": 0, "is_disabled": 0, "bike_id": "6c855297d8ba05098b31d676918eb410", "lat": 38.884286333333336, "lon": -77.0304805, "fusion_lat": 0.0, "name": "6c855297d8ba05098b31d676918eb410"}, {"fusion_lon": 0.0, "rental_uris": {"ios": "https://dc.lft.to/lastmile_qr_scan", "android": "https://dc.lft.to/lastmile_qr_scan"}, "type": "electric_scooter", "is_reserved": 0, "is_disabled": 0, "bike_id": "8eb7b4ed2c6d7bb622aa942ae9b0e344", "lat": 38.89753533333333, "lon": -77.04076, "fusion_lat": 0.0, "name": "8eb7b4ed2c6d7bb622aa942ae9b0e344"}, {"fusion_lon": 0.0, "rental_uris": {"ios": "https://dc.lft.to/lastmile_qr_scan", "android": "https://dc.lft.to/lastmile_qr_scan"}, "type": "electric_scooter", "is_reserved": 0, "is_disabled": 0, "bike_id": "b58fcaeabfe91b579cc9657260621356", "lat": 38.9318215, "lon": -77.036986, "fusion_lat": 0.0, "name": "b58fcaeabfe91b579cc9657260621356"}, {"fusion_lon": 0.0, "rental_uris": {"ios": "https://dc.lft.to/lastmile_qr_scan", "android": "https://dc.lft.to/lastmile_qr_scan"}, "type": "electric_scooter", "is_reserved": 0, "is_disabled": 0, "bike_id": "df37ec29f89f974c121ed0179b6516a5", "lat": 38.89616616666667, "lon": -76.985633, "fusion_lat": 0.0, "name": "df37ec29f89f974c121ed0179b6516a5"}, {"fusion_lon": 0.0, "rental_uris": {"ios": "https://dc.lft.to/lastmile_qr_scan", "android": "https://dc.lft.to/lastmile_qr_scan"}, "type": "electric_scooter", "is_reserved": 0, "is_disabled": 0, "bike_id": "4931512ad3a97f294fd265b66b18f658", "lat": 38.9141145, "lon": -77.01012866666666, "fusion_lat": 0.0, "name": "4931512ad3a97f294fd265b66b18f658"}, {"fusion_lon": 0.0, "rental_uris": {"ios": "https://dc.lft.to/lastmile_qr_scan", "android": "https://dc.lft.to/lastmile_qr_scan"}, "type": "electric_scooter", "is_reserved": 0, "is_disabled": 0, "bike_id": "4f5938bd5845a9886e63d801b6b9fe22", "lat": 38.89200316666667, "lon": -77.02373383333334, "fusion_lat": 0.0, "name": "4f5938bd5845a9886e63d801b6b9fe22"}, {"fusion_lon": 0.0, "rental_uris": {"ios": "https://dc.lft.to/lastmile_qr_scan", "android": "https://dc.lft.to/lastmile_qr_scan"}, "type": "electric_scooter", "is_reserved": 0, "is_disabled": 0, "bike_id": "e49e35769a4ef935f789384ef94cba55", "lat": 38.923316166666666, "lon": -77.056809, "fusion_lat": 0.0, "name": "e49e35769a4ef935f789384ef94cba55"}, {"fusion_lon": 0.0, "rental_uris": {"ios": "https://dc.lft.to/lastmile_qr_scan", "android": "https://dc.lft.to/lastmile_qr_scan"}, "type": "electric_scooter", "is_reserved": 0, "is_disabled": 0, "bike_id": "3d4d5ccd203f0cfa3704377ddef49118", "lat": 38.906349666666664, "lon": -77.05154166666667, "fusion_lat": 0.0, "name": "3d4d5ccd203f0cfa3704377ddef49118"}, {"fusion_lon": 0.0, "rental_uris": {"ios": "https://dc.lft.to/lastmile_qr_scan", "android": "https://dc.lft.to/lastmile_qr_scan"}, "type": "electric_scooter", "is_reserved": 0, "is_disabled": 0, "bike_id": "09e84e9818db0302f644044ea1c67dab", "lat": 38.906466, "lon": -77.053382, "fusion_lat": 0.0, "name": "09e84e9818db0302f644044ea1c67dab"}, {"fusion_lon": 0.0, "rental_uris": {"ios": "https://dc.lft.to/lastmile_qr_scan", "android": "https://dc.lft.to/lastmile_qr_scan"}, "type": "electric_bike", "is_reserved": 0, "is_disabled": 0, "bike_id": "43d8537b18034dc9708271ead767f104", "lat": 38.852907, "lon": -77.04965183333333, "fusion_lat": 0.0, "name": "43d8537b18034dc9708271ead767f104"}, {"fusion_lon": 0.0, "rental_uris": {"ios": "https://dc.lft.to/lastmile_qr_scan", "android": "https://dc.lft.to/lastmile_qr_scan"}, "type": "electric_scooter", "is_reserved": 0, "is_disabled": 0, "bike_id": "be9de7195ca00642dd5d4fcc399f5f8f", "lat": 38.896361666666664, "lon": -77.02371283333333, "fusion_lat": 0.0, "name": "be9de7195ca00642dd5d4fcc399f5f8f"}, {"fusion_lon": 0.0, "rental_uris": {"ios": "https://dc.lft.to/lastmile_qr_scan", "android": "https://dc.lft.to/lastmile_qr_scan"}, "type": "electric_scooter", "is_reserved": 0, "is_disabled": 0, "bike_id": "a758408cb70507deb1798b7eaf4704ce", "lat": 38.892213, "lon": -77.02538333333334, "fusion_lat": 0.0, "name": "a758408cb70507deb1798b7eaf4704ce"}, {"fusion_lon": 0.0, "rental_uris": {"ios": "https://dc.lft.to/lastmile_qr_scan", "android": "https://dc.lft.to/lastmile_qr_scan"}, "type": "electric_scooter", "is_reserved": 0, "is_disabled": 0, "bike_id": "cee8b780941b79d2c7ac5c3107d23c5b", "lat": 38.8849555, "lon": -77.00710916666667, "fusion_lat": 0.0, "name": "cee8b780941b79d2c7ac5c3107d23c5b"}, {"fusion_lon": 0.0, "rental_uris": {"ios": "https://dc.lft.to/lastmile_qr_scan", "android": "https://dc.lft.to/lastmile_qr_scan"}, "type": "electric_scooter", "is_reserved": 0, "is_disabled": 0, "bike_id": "2c39b06b27cf8e0ddafbdcac3953ec81", "lat": 38.905878, "lon": -76.985489, "fusion_lat": 0.0, "name": "2c39b06b27cf8e0ddafbdcac3953ec81"}, {"fusion_lon": 0.0, "rental_uris": {"ios": "https://dc.lft.to/lastmile_qr_scan", "android": "https://dc.lft.to/lastmile_qr_scan"}, "type": "electric_scooter", "is_reserved": 0, "is_disabled": 0, "bike_id": "8c39b901660853ab3a395d38dfdc6371", "lat": 38.8973405, "lon": -77.03266, "fusion_lat": 0.0, "name": "8c39b901660853ab3a395d38dfdc6371"}, {"fusion_lon": 0.0, "rental_uris": {"ios": "https://dc.lft.to/lastmile_qr_scan", "android": "https://dc.lft.to/lastmile_qr_scan"}, "type": "electric_scooter", "is_reserved": 0, "is_disabled": 0, "bike_id": "29c6a914484a8b55d4032cfed796ff52", "lat": 38.89977533333333, "lon": -76.9914555, "fusion_lat": 0.0, "name": "29c6a914484a8b55d4032cfed796ff52"}, {"fusion_lon": 0.0, "rental_uris": {"ios": "https://dc.lft.to/lastmile_qr_scan", "android": "https://dc.lft.to/lastmile_qr_scan"}, "type": "electric_scooter", "is_reserved": 0, "is_disabled": 0, "bike_id": "9d99cccb06da219f2e736eea062bc307", "lat": 38.908142, "lon": -77.03583583333334, "fusion_lat": 0.0, "name": "9d99cccb06da219f2e736eea062bc307"}, {"fusion_lon": 0.0, "rental_uris": {"ios": "https://dc.lft.to/lastmile_qr_scan", "android": "https://dc.lft.to/lastmile_qr_scan"}, "type": "electric_scooter", "is_reserved": 0, "is_disabled": 0, "bike_id": "12310985e3a5c49c02a98d930811ae26", "lat": 38.92364, "lon": -77.072315, "fusion_lat": 0.0, "name": "12310985e3a5c49c02a98d930811ae26"}, {"fusion_lon": 0.0, "rental_uris": {"ios": "https://dc.lft.to/lastmile_qr_scan", "android": "https://dc.lft.to/lastmile_qr_scan"}, "type": "electric_scooter", "is_reserved": 0, "is_disabled": 0, "bike_id": "8e984528959aaf2efaf656387eb34933", "lat": 38.879001, "lon": -76.93523166666667, "fusion_lat": 0.0, "name": "8e984528959aaf2efaf656387eb34933"}, {"fusion_lon": 0.0, "rental_uris": {"ios": "https://dc.lft.to/lastmile_qr_scan", "android": "https://dc.lft.to/lastmile_qr_scan"}, "type": "electric_bike", "is_reserved": 0, "is_disabled": 0, "bike_id": "6c28a5030a280fa67eacd1bebcc08b8d", "lat": 38.82212366666667, "lon": -76.97700416666666, "fusion_lat": 0.0, "name": "6c28a5030a280fa67eacd1bebcc08b8d"}, {"fusion_lon": 0.0, "rental_uris": {"ios": "https://dc.lft.to/lastmile_qr_scan", "android": "https://dc.lft.to/lastmile_qr_scan"}, "type": "electric_scooter", "is_reserved": 0, "is_disabled": 0, "bike_id": "dec519c8b431ad310f8689705fb78753", "lat": 38.929132833333334, "lon": -77.034928, "fusion_lat": 0.0, "name": "dec519c8b431ad310f8689705fb78753"}, {"fusion_lon": 0.0, "rental_uris": {"ios": "https://dc.lft.to/lastmile_qr_scan", "android": "https://dc.lft.to/lastmile_qr_scan"}, "type": "electric_scooter", "is_reserved": 0, "is_disabled": 0, "bike_id": "54dda28333608e6480ea6c2b747bdcb7", "lat": 38.967323, "lon": -77.025252, "fusion_lat": 0.0, "name": "54dda28333608e6480ea6c2b747bdcb7"}, {"fusion_lon": 0.0, "rental_uris": {"ios": "https://dc.lft.to/lastmile_qr_scan", "android": "https://dc.lft.to/lastmile_qr_scan"}, "type": "electric_scooter", "is_reserved": 0, "is_disabled": 0, "bike_id": "c51b0a736d2b97cc6a1338053b870fd7", "lat": 38.911056, "lon": -77.00211966666667, "fusion_lat": 0.0, "name": "c51b0a736d2b97cc6a1338053b870fd7"}, {"fusion_lon": 0.0, "rental_uris": {"ios": "https://dc.lft.to/lastmile_qr_scan", "android": "https://dc.lft.to/lastmile_qr_scan"}, "type": "electric_scooter", "is_reserved": 0, "is_disabled": 0, "bike_id": "21037285e1552a8e7f53ffb2a0c976ea", "lat": 38.92107816666667, "lon": -77.04012633333333, "fusion_lat": 0.0, "name": "21037285e1552a8e7f53ffb2a0c976ea"}, {"fusion_lon": 0.0, "rental_uris": {"ios": "https://dc.lft.to/lastmile_qr_scan", "android": "https://dc.lft.to/lastmile_qr_scan"}, "type": "electric_scooter", "is_reserved": 0, "is_disabled": 0, "bike_id": "57f62a0779a8222053a2a76a1bcc75ed", "lat": 38.924712, "lon": -77.02200933333333, "fusion_lat": 0.0, "name": "57f62a0779a8222053a2a76a1bcc75ed"}, {"fusion_lon": 0.0, "rental_uris": {"ios": "https://dc.lft.to/lastmile_qr_scan", "android": "https://dc.lft.to/lastmile_qr_scan"}, "type": "electric_scooter", "is_reserved": 0, "is_disabled": 0, "bike_id": "2cb7af734de5d149595bf9b572514b8c", "lat": 38.916490833333334, "lon": -77.02251983333333, "fusion_lat": 0.0, "name": "2cb7af734de5d149595bf9b572514b8c"}, {"fusion_lon": 0.0, "rental_uris": {"ios": "https://dc.lft.to/lastmile_qr_scan", "android": "https://dc.lft.to/lastmile_qr_scan"}, "type": "electric_scooter", "is_reserved": 0, "is_disabled": 0, "bike_id": "76c03523483fea82455f200996d250b9", "lat": 38.926133166666666, "lon": -77.02160566666667, "fusion_lat": 0.0, "name": "76c03523483fea82455f200996d250b9"}, {"fusion_lon": 0.0, "rental_uris": {"ios": "https://dc.lft.to/lastmile_qr_scan", "android": "https://dc.lft.to/lastmile_qr_scan"}, "type": "electric_scooter", "is_reserved": 0, "is_disabled": 0, "bike_id": "b18733e9736b9ba2723fa085084f9926", "lat": 38.92893183333333, "lon": -77.01674766666666, "fusion_lat": 0.0, "name": "b18733e9736b9ba2723fa085084f9926"}, {"fusion_lon": 0.0, "rental_uris": {"ios": "https://dc.lft.to/lastmile_qr_scan", "android": "https://dc.lft.to/lastmile_qr_scan"}, "type": "electric_scooter", "is_reserved": 0, "is_disabled": 0, "bike_id": "449a4438afde63a6cc9704c596466c2f", "lat": 38.8843155, "lon": -76.99593, "fusion_lat": 0.0, "name": "449a4438afde63a6cc9704c596466c2f"}, {"fusion_lon": 0.0, "rental_uris": {"ios": "https://dc.lft.to/lastmile_qr_scan", "android": "https://dc.lft.to/lastmile_qr_scan"}, "type": "electric_bike", "is_reserved": 0, "is_disabled": 0, "bike_id": "0e0e8c34432aaaec50807fcc1e8a1acf", "lat": 38.90028216666666, "lon": -77.02977366666667, "fusion_lat": 0.0, "name": "0e0e8c34432aaaec50807fcc1e8a1acf"}, {"fusion_lon": 0.0, "rental_uris": {"ios": "https://dc.lft.to/lastmile_qr_scan", "android": "https://dc.lft.to/lastmile_qr_scan"}, "type": "electric_scooter", "is_reserved": 0, "is_disabled": 0, "bike_id": "77819bd1544ac93cd8e21a36872dc6ca", "lat": 38.91700733333333, "lon": -77.02297283333333, "fusion_lat": 0.0, "name": "77819bd1544ac93cd8e21a36872dc6ca"}, {"fusion_lon": 0.0, "rental_uris": {"ios": "https://dc.lft.to/lastmile_qr_scan", "android": "https://dc.lft.to/lastmile_qr_scan"}, "type": "electric_scooter", "is_reserved": 0, "is_disabled": 0, "bike_id": "3b5070d3c33d09befb98ef877edfb4fc", "lat": 38.920769, "lon": -77.02314566666666, "fusion_lat": 0.0, "name": "3b5070d3c33d09befb98ef877edfb4fc"}, {"fusion_lon": 0.0, "rental_uris": {"ios": "https://dc.lft.to/lastmile_qr_scan", "android": "https://dc.lft.to/lastmile_qr_scan"}, "type": "electric_scooter", "is_reserved": 0, "is_disabled": 0, "bike_id": "9dd5b910624eba7501635d4d0491d3ab", "lat": 38.919110833333335, "lon": -77.02136866666666, "fusion_lat": 0.0, "name": "9dd5b910624eba7501635d4d0491d3ab"}, {"fusion_lon": 0.0, "rental_uris": {"ios": "https://dc.lft.to/lastmile_qr_scan", "android": "https://dc.lft.to/lastmile_qr_scan"}, "type": "electric_scooter", "is_reserved": 0, "is_disabled": 0, "bike_id": "180510cfaae544c34e5e0063de300e35", "lat": 38.918109333333334, "lon": -77.027685, "fusion_lat": 0.0, "name": "180510cfaae544c34e5e0063de300e35"}, {"fusion_lon": 0.0, "rental_uris": {"ios": "https://dc.lft.to/lastmile_qr_scan", "android": "https://dc.lft.to/lastmile_qr_scan"}, "type": "electric_bike", "is_reserved": 0, "is_disabled": 0, "bike_id": "38db1f12f193c6eda28c65c267f1491c", "lat": 38.8506375, "lon": -76.95826783333334, "fusion_lat": 0.0, "name": "38db1f12f193c6eda28c65c267f1491c"}, {"fusion_lon": 0.0, "rental_uris": {"ios": "https://dc.lft.to/lastmile_qr_scan", "android": "https://dc.lft.to/lastmile_qr_scan"}, "type": "electric_scooter", "is_reserved": 0, "is_disabled": 0, "bike_id": "4637d3bad3ed9b5b40cb9019c1efcd2e", "lat": 38.90477666666666, "lon": -77.03461516666667, "fusion_lat": 0.0, "name": "4637d3bad3ed9b5b40cb9019c1efcd2e"}, {"fusion_lon": 0.0, "rental_uris": {"ios": "https://dc.lft.to/lastmile_qr_scan", "android": "https://dc.lft.to/lastmile_qr_scan"}, "type": "electric_scooter", "is_reserved": 0, "is_disabled": 0, "bike_id": "24c9b2c5c4a062a009dbc3292ad1d1e5", "lat": 38.9004565, "lon": -77.034188, "fusion_lat": 0.0, "name": "24c9b2c5c4a062a009dbc3292ad1d1e5"}, {"fusion_lon": 0.0, "rental_uris": {"ios": "https://dc.lft.to/lastmile_qr_scan", "android": "https://dc.lft.to/lastmile_qr_scan"}, "type": "electric_scooter", "is_reserved": 0, "is_disabled": 0, "bike_id": "534e0fad78a18324949cf026a6f97a20", "lat": 38.93291933333333, "lon": -77.03981616666667, "fusion_lat": 0.0, "name": "534e0fad78a18324949cf026a6f97a20"}, {"fusion_lon": 0.0, "rental_uris": {"ios": "https://dc.lft.to/lastmile_qr_scan", "android": "https://dc.lft.to/lastmile_qr_scan"}, "type": "electric_scooter", "is_reserved": 0, "is_disabled": 0, "bike_id": "a2e43e7f154b480781037164be830f85", "lat": 38.89904283333333, "lon": -77.041963, "fusion_lat": 0.0, "name": "a2e43e7f154b480781037164be830f85"}, {"fusion_lon": 0.0, "rental_uris": {"ios": "https://dc.lft.to/lastmile_qr_scan", "android": "https://dc.lft.to/lastmile_qr_scan"}, "type": "electric_scooter", "is_reserved": 0, "is_disabled": 0, "bike_id": "c3c2e0b9ca892638e90ba13c2aa6ae25", "lat": 38.904196666666664, "lon": -77.05339133333334, "fusion_lat": 0.0, "name": "c3c2e0b9ca892638e90ba13c2aa6ae25"}, {"fusion_lon": 0.0, "rental_uris": {"ios": "https://dc.lft.to/lastmile_qr_scan", "android": "https://dc.lft.to/lastmile_qr_scan"}, "type": "electric_bike", "is_reserved": 0, "is_disabled": 0, "bike_id": "27fed6800a81fa634dcbf8ef0cf408aa", "lat": 38.8447405, "lon": -76.987845, "fusion_lat": 0.0, "name": "27fed6800a81fa634dcbf8ef0cf408aa"}, {"fusion_lon": 0.0, "rental_uris": {"ios": "https://dc.lft.to/lastmile_qr_scan", "android": "https://dc.lft.to/lastmile_qr_scan"}, "type": "electric_scooter", "is_reserved": 0, "is_disabled": 0, "bike_id": "44c5994eb8a8e2f40fb72619659cefd9", "lat": 38.887304666666665, "lon": -76.9837435, "fusion_lat": 0.0, "name": "44c5994eb8a8e2f40fb72619659cefd9"}, {"fusion_lon": 0.0, "rental_uris": {"ios": "https://dc.lft.to/lastmile_qr_scan", "android": "https://dc.lft.to/lastmile_qr_scan"}, "type": "electric_scooter", "is_reserved": 0, "is_disabled": 0, "bike_id": "d2d71d83b029971d3e3035917b8458c1", "lat": 38.90309333333333, "lon": -77.05050883333334, "fusion_lat": 0.0, "name": "d2d71d83b029971d3e3035917b8458c1"}, {"fusion_lon": 0.0, "rental_uris": {"ios": "https://dc.lft.to/lastmile_qr_scan", "android": "https://dc.lft.to/lastmile_qr_scan"}, "type": "electric_scooter", "is_reserved": 0, "is_disabled": 0, "bike_id": "e306e4350aff6615da93700a400c0b75", "lat": 38.9041155, "lon": -77.06287866666666, "fusion_lat": 0.0, "name": "e306e4350aff6615da93700a400c0b75"}, {"fusion_lon": 0.0, "rental_uris": {"ios": "https://dc.lft.to/lastmile_qr_scan", "android": "https://dc.lft.to/lastmile_qr_scan"}, "type": "electric_scooter", "is_reserved": 0, "is_disabled": 0, "bike_id": "b622cf26a23075edc21235102508dc91", "lat": 38.902521166666666, "lon": -77.040097, "fusion_lat": 0.0, "name": "b622cf26a23075edc21235102508dc91"}, {"fusion_lon": 0.0, "rental_uris": {"ios": "https://dc.lft.to/lastmile_qr_scan", "android": "https://dc.lft.to/lastmile_qr_scan"}, "type": "electric_scooter", "is_reserved": 0, "is_disabled": 0, "bike_id": "a8cc9f83a7b25a6308f63e2cb34bc028", "lat": 38.91906, "lon": -77.02082433333334, "fusion_lat": 0.0, "name": "a8cc9f83a7b25a6308f63e2cb34bc028"}, {"fusion_lon": 0.0, "rental_uris": {"ios": "https://dc.lft.to/lastmile_qr_scan", "android": "https://dc.lft.to/lastmile_qr_scan"}, "type": "electric_bike", "is_reserved": 0, "is_disabled": 0, "bike_id": "f4a828b8bce80571c73431d7f7568b81", "lat": 38.89829666666667, "lon": -76.99062983333333, "fusion_lat": 0.0, "name": "f4a828b8bce80571c73431d7f7568b81"}, {"fusion_lon": 0.0, "rental_uris": {"ios": "https://dc.lft.to/lastmile_qr_scan", "android": "https://dc.lft.to/lastmile_qr_scan"}, "type": "electric_scooter", "is_reserved": 0, "is_disabled": 0, "bike_id": "83b4619b6cada95a3b7b5897d3b854c3", "lat": 38.924696, "lon": -77.03009633333333, "fusion_lat": 0.0, "name": "83b4619b6cada95a3b7b5897d3b854c3"}, {"fusion_lon": 0.0, "rental_uris": {"ios": "https://dc.lft.to/lastmile_qr_scan", "android": "https://dc.lft.to/lastmile_qr_scan"}, "type": "electric_scooter", "is_reserved": 0, "is_disabled": 0, "bike_id": "92ff1c0b7fe861b29858f299787aac08", "lat": 38.90143, "lon": -77.04166866666667, "fusion_lat": 0.0, "name": "92ff1c0b7fe861b29858f299787aac08"}, {"fusion_lon": 0.0, "rental_uris": {"ios": "https://dc.lft.to/lastmile_qr_scan", "android": "https://dc.lft.to/lastmile_qr_scan"}, "type": "electric_scooter", "is_reserved": 0, "is_disabled": 0, "bike_id": "aa3f1a1077fb4690f4bffce7e5a5edb9", "lat": 38.90300116666667, "lon": -77.02119216666667, "fusion_lat": 0.0, "name": "aa3f1a1077fb4690f4bffce7e5a5edb9"}, {"fusion_lon": 0.0, "rental_uris": {"ios": "https://dc.lft.to/lastmile_qr_scan", "android": "https://dc.lft.to/lastmile_qr_scan"}, "type": "electric_scooter", "is_reserved": 0, "is_disabled": 0, "bike_id": "8b252bd3c7dc89ef063ee020966269f3", "lat": 38.90636416666667, "lon": -77.00587133333333, "fusion_lat": 0.0, "name": "8b252bd3c7dc89ef063ee020966269f3"}, {"fusion_lon": 0.0, "rental_uris": {"ios": "https://dc.lft.to/lastmile_qr_scan", "android": "https://dc.lft.to/lastmile_qr_scan"}, "type": "electric_bike", "is_reserved": 0, "is_disabled": 0, "bike_id": "a9cf27e8a3e869349f9363e659e29169", "lat": 38.95075116666667, "lon": -76.99598633333333, "fusion_lat": 0.0, "name": "a9cf27e8a3e869349f9363e659e29169"}, {"fusion_lon": 0.0, "rental_uris": {"ios": "https://dc.lft.to/lastmile_qr_scan", "android": "https://dc.lft.to/lastmile_qr_scan"}, "type": "electric_scooter", "is_reserved": 0, "is_disabled": 0, "bike_id": "915bafe496ffff15a73020e12ed8bbaf", "lat": 38.916462333333335, "lon": -77.02878983333333, "fusion_lat": 0.0, "name": "915bafe496ffff15a73020e12ed8bbaf"}, {"fusion_lon": 0.0, "rental_uris": {"ios": "https://dc.lft.to/lastmile_qr_scan", "android": "https://dc.lft.to/lastmile_qr_scan"}, "type": "electric_scooter", "is_reserved": 0, "is_disabled": 0, "bike_id": "2e0a70aa44279364a794840a8f856402", "lat": 38.90825383333333, "lon": -76.99449633333333, "fusion_lat": 0.0, "name": "2e0a70aa44279364a794840a8f856402"}, {"fusion_lon": 0.0, "rental_uris": {"ios": "https://dc.lft.to/lastmile_qr_scan", "android": "https://dc.lft.to/lastmile_qr_scan"}, "type": "electric_scooter", "is_reserved": 0, "is_disabled": 0, "bike_id": "044b4f26c38fa842862357e541a9d050", "lat": 38.88755966666667, "lon": -77.031483, "fusion_lat": 0.0, "name": "044b4f26c38fa842862357e541a9d050"}, {"fusion_lon": 0.0, "rental_uris": {"ios": "https://dc.lft.to/lastmile_qr_scan", "android": "https://dc.lft.to/lastmile_qr_scan"}, "type": "electric_scooter", "is_reserved": 0, "is_disabled": 0, "bike_id": "e9dddb55cc2d6cce204f897300af7250", "lat": 38.941991, "lon": -77.03139433333334, "fusion_lat": 0.0, "name": "e9dddb55cc2d6cce204f897300af7250"}, {"fusion_lon": 0.0, "rental_uris": {"ios": "https://dc.lft.to/lastmile_qr_scan", "android": "https://dc.lft.to/lastmile_qr_scan"}, "type": "electric_bike", "is_reserved": 0, "is_disabled": 0, "bike_id": "62cf0d361d9be72e96c60ccef0e34226", "lat": 38.90584166666667, "lon": -77.02912883333333, "fusion_lat": 0.0, "name": "62cf0d361d9be72e96c60ccef0e34226"}, {"fusion_lon": 0.0, "rental_uris": {"ios": "https://dc.lft.to/lastmile_qr_scan", "android": "https://dc.lft.to/lastmile_qr_scan"}, "type": "electric_scooter", "is_reserved": 0, "is_disabled": 0, "bike_id": "103d5decd8c47bf11cc0b6c8d6263721", "lat": 38.89565, "lon": -77.04673066666666, "fusion_lat": 0.0, "name": "103d5decd8c47bf11cc0b6c8d6263721"}, {"fusion_lon": 0.0, "rental_uris": {"ios": "https://dc.lft.to/lastmile_qr_scan", "android": "https://dc.lft.to/lastmile_qr_scan"}, "type": "electric_scooter", "is_reserved": 0, "is_disabled": 0, "bike_id": "a5a532854ee6ced4ab4ab29dca4c1d22", "lat": 38.907006833333334, "lon": -77.02976783333334, "fusion_lat": 0.0, "name": "a5a532854ee6ced4ab4ab29dca4c1d22"}, {"fusion_lon": 0.0, "rental_uris": {"ios": "https://dc.lft.to/lastmile_qr_scan", "android": "https://dc.lft.to/lastmile_qr_scan"}, "type": "electric_scooter", "is_reserved": 0, "is_disabled": 0, "bike_id": "175796fb48ed176ae7cca43034692104", "lat": 38.89202483333333, "lon": -76.956995, "fusion_lat": 0.0, "name": "175796fb48ed176ae7cca43034692104"}, {"fusion_lon": 0.0, "rental_uris": {"ios": "https://dc.lft.to/lastmile_qr_scan", "android": "https://dc.lft.to/lastmile_qr_scan"}, "type": "electric_scooter", "is_reserved": 0, "is_disabled": 0, "bike_id": "a490def3294c303ea0337306b3c9154b", "lat": 38.923472333333336, "lon": -77.0517855, "fusion_lat": 0.0, "name": "a490def3294c303ea0337306b3c9154b"}, {"fusion_lon": 0.0, "rental_uris": {"ios": "https://dc.lft.to/lastmile_qr_scan", "android": "https://dc.lft.to/lastmile_qr_scan"}, "type": "electric_scooter", "is_reserved": 0, "is_disabled": 0, "bike_id": "083db7b4661e412dace068db737ab979", "lat": 38.925550666666666, "lon": -76.99999383333333, "fusion_lat": 0.0, "name": "083db7b4661e412dace068db737ab979"}, {"fusion_lon": 0.0, "rental_uris": {"ios": "https://dc.lft.to/lastmile_qr_scan", "android": "https://dc.lft.to/lastmile_qr_scan"}, "type": "electric_scooter", "is_reserved": 0, "is_disabled": 0, "bike_id": "f741e93d00b3b1355a5bc9fe3551c410", "lat": 38.900368666666665, "lon": -76.98906883333333, "fusion_lat": 0.0, "name": "f741e93d00b3b1355a5bc9fe3551c410"}, {"fusion_lon": 0.0, "rental_uris": {"ios": "https://dc.lft.to/lastmile_qr_scan", "android": "https://dc.lft.to/lastmile_qr_scan"}, "type": "electric_bike", "is_reserved": 0, "is_disabled": 0, "bike_id": "34d50c24c57be329cdc93f7f7c8b4873", "lat": 38.99505333333333, "lon": -77.00135433333334, "fusion_lat": 0.0, "name": "34d50c24c57be329cdc93f7f7c8b4873"}, {"fusion_lon": 0.0, "rental_uris": {"ios": "https://dc.lft.to/lastmile_qr_scan", "android": "https://dc.lft.to/lastmile_qr_scan"}, "type": "electric_scooter", "is_reserved": 0, "is_disabled": 0, "bike_id": "0211cbd682fe5efe5e35d5b2c6691634", "lat": 38.8766275, "lon": -77.00111483333333, "fusion_lat": 0.0, "name": "0211cbd682fe5efe5e35d5b2c6691634"}, {"fusion_lon": 0.0, "rental_uris": {"ios": "https://dc.lft.to/lastmile_qr_scan", "android": "https://dc.lft.to/lastmile_qr_scan"}, "type": "electric_scooter", "is_reserved": 0, "is_disabled": 0, "bike_id": "3ce63f19a47a861fa5e485f50f174241", "lat": 38.91833883333334, "lon": -77.032, "fusion_lat": 0.0, "name": "3ce63f19a47a861fa5e485f50f174241"}, {"fusion_lon": 0.0, "rental_uris": {"ios": "https://dc.lft.to/lastmile_qr_scan", "android": "https://dc.lft.to/lastmile_qr_scan"}, "type": "electric_scooter", "is_reserved": 0, "is_disabled": 0, "bike_id": "42d0b1acd2691ffb7c8e287fc8924a6a", "lat": 38.899990833333334, "lon": -77.0316835, "fusion_lat": 0.0, "name": "42d0b1acd2691ffb7c8e287fc8924a6a"}, {"fusion_lon": 0.0, "rental_uris": {"ios": "https://dc.lft.to/lastmile_qr_scan", "android": "https://dc.lft.to/lastmile_qr_scan"}, "type": "electric_scooter", "is_reserved": 0, "is_disabled": 0, "bike_id": "420f466c6b90b19cc4cc2f64376e7b1b", "lat": 38.873878833333336, "lon": -77.0011365, "fusion_lat": 0.0, "name": "420f466c6b90b19cc4cc2f64376e7b1b"}, {"fusion_lon": 0.0, "rental_uris": {"ios": "https://dc.lft.to/lastmile_qr_scan", "android": "https://dc.lft.to/lastmile_qr_scan"}, "type": "electric_scooter", "is_reserved": 0, "is_disabled": 0, "bike_id": "84b92518e1058b2881e5f5e715e823a9", "lat": 38.899035833333336, "lon": -77.039367, "fusion_lat": 0.0, "name": "84b92518e1058b2881e5f5e715e823a9"}, {"fusion_lon": 0.0, "rental_uris": {"ios": "https://dc.lft.to/lastmile_qr_scan", "android": "https://dc.lft.to/lastmile_qr_scan"}, "type": "electric_scooter", "is_reserved": 0, "is_disabled": 0, "bike_id": "7d3ecb8652c19a3a17cb7346b01892e3", "lat": 38.918908, "lon": -77.03831633333333, "fusion_lat": 0.0, "name": "7d3ecb8652c19a3a17cb7346b01892e3"}, {"fusion_lon": 0.0, "rental_uris": {"ios": "https://dc.lft.to/lastmile_qr_scan", "android": "https://dc.lft.to/lastmile_qr_scan"}, "type": "electric_bike", "is_reserved": 0, "is_disabled": 0, "bike_id": "49bad3d9660a18be2d3db9db6adbf3ec", "lat": 38.84920533333333, "lon": -77.079316, "fusion_lat": 0.0, "name": "49bad3d9660a18be2d3db9db6adbf3ec"}, {"fusion_lon": 0.0, "rental_uris": {"ios": "https://dc.lft.to/lastmile_qr_scan", "android": "https://dc.lft.to/lastmile_qr_scan"}, "type": "electric_scooter", "is_reserved": 0, "is_disabled": 0, "bike_id": "628bb12d4c270f1d9dfef0ae64458a02", "lat": 38.90575966666667, "lon": -77.0416395, "fusion_lat": 0.0, "name": "628bb12d4c270f1d9dfef0ae64458a02"}, {"fusion_lon": 0.0, "rental_uris": {"ios": "https://dc.lft.to/lastmile_qr_scan", "android": "https://dc.lft.to/lastmile_qr_scan"}, "type": "electric_scooter", "is_reserved": 0, "is_disabled": 0, "bike_id": "69ba19d22cbe95b5dbf985820b279b27", "lat": 38.9132905, "lon": -77.04531683333333, "fusion_lat": 0.0, "name": "69ba19d22cbe95b5dbf985820b279b27"}, {"fusion_lon": 0.0, "rental_uris": {"ios": "https://dc.lft.to/lastmile_qr_scan", "android": "https://dc.lft.to/lastmile_qr_scan"}, "type": "electric_scooter", "is_reserved": 0, "is_disabled": 0, "bike_id": "3e39ebeb78b5df68aeaa36b7c870de71", "lat": 38.94354, "lon": -77.029775, "fusion_lat": 0.0, "name": "3e39ebeb78b5df68aeaa36b7c870de71"}, {"fusion_lon": 0.0, "rental_uris": {"ios": "https://dc.lft.to/lastmile_qr_scan", "android": "https://dc.lft.to/lastmile_qr_scan"}, "type": "electric_scooter", "is_reserved": 0, "is_disabled": 0, "bike_id": "439c8cf870473ad9463fe99a59f14324", "lat": 38.913287, "lon": -77.01363366666666, "fusion_lat": 0.0, "name": "439c8cf870473ad9463fe99a59f14324"}, {"fusion_lon": 0.0, "rental_uris": {"ios": "https://dc.lft.to/lastmile_qr_scan", "android": "https://dc.lft.to/lastmile_qr_scan"}, "type": "electric_scooter", "is_reserved": 0, "is_disabled": 0, "bike_id": "4ee16a7de8519ea7466d624622989b14", "lat": 38.918497, "lon": -77.038793, "fusion_lat": 0.0, "name": "4ee16a7de8519ea7466d624622989b14"}, {"fusion_lon": 0.0, "rental_uris": {"ios": "https://dc.lft.to/lastmile_qr_scan", "android": "https://dc.lft.to/lastmile_qr_scan"}, "type": "electric_scooter", "is_reserved": 0, "is_disabled": 0, "bike_id": "e2a9e8527032f4c72a09ddd8d1423091", "lat": 38.877765333333336, "lon": -76.99622016666666, "fusion_lat": 0.0, "name": "e2a9e8527032f4c72a09ddd8d1423091"}, {"fusion_lon": 0.0, "rental_uris": {"ios": "https://dc.lft.to/lastmile_qr_scan", "android": "https://dc.lft.to/lastmile_qr_scan"}, "type": "electric_scooter", "is_reserved": 0, "is_disabled": 0, "bike_id": "39bab4f72bb8135aef2b30af5bf13104", "lat": 38.921519, "lon": -77.02096883333333, "fusion_lat": 0.0, "name": "39bab4f72bb8135aef2b30af5bf13104"}, {"fusion_lon": 0.0, "rental_uris": {"ios": "https://dc.lft.to/lastmile_qr_scan", "android": "https://dc.lft.to/lastmile_qr_scan"}, "type": "electric_scooter", "is_reserved": 0, "is_disabled": 0, "bike_id": "84f733fc86a06c0df7d6a909d5264d6d", "lat": 38.88709683333333, "lon": -77.01533533333334, "fusion_lat": 0.0, "name": "84f733fc86a06c0df7d6a909d5264d6d"}, {"fusion_lon": 0.0, "rental_uris": {"ios": "https://dc.lft.to/lastmile_qr_scan", "android": "https://dc.lft.to/lastmile_qr_scan"}, "type": "electric_scooter", "is_reserved": 0, "is_disabled": 0, "bike_id": "91259d11c93faf98a1869d0d6c86bf29", "lat": 38.907192, "lon": -77.047165, "fusion_lat": 0.0, "name": "91259d11c93faf98a1869d0d6c86bf29"}, {"fusion_lon": 0.0, "rental_uris": {"ios": "https://dc.lft.to/lastmile_qr_scan", "android": "https://dc.lft.to/lastmile_qr_scan"}, "type": "electric_scooter", "is_reserved": 0, "is_disabled": 0, "bike_id": "d6c998095255acc17ceda185c5c3d1ef", "lat": 38.9007035, "lon": -77.00910266666666, "fusion_lat": 0.0, "name": "d6c998095255acc17ceda185c5c3d1ef"}, {"fusion_lon": 0.0, "rental_uris": {"ios": "https://dc.lft.to/lastmile_qr_scan", "android": "https://dc.lft.to/lastmile_qr_scan"}, "type": "electric_scooter", "is_reserved": 0, "is_disabled": 0, "bike_id": "70906a1fa763ab6a9ec2d153f06c367e", "lat": 38.897484666666664, "lon": -77.01883033333333, "fusion_lat": 0.0, "name": "70906a1fa763ab6a9ec2d153f06c367e"}, {"fusion_lon": 0.0, "rental_uris": {"ios": "https://dc.lft.to/lastmile_qr_scan", "android": "https://dc.lft.to/lastmile_qr_scan"}, "type": "electric_scooter", "is_reserved": 0, "is_disabled": 0, "bike_id": "5fabc0f47ce53e6480f5ed4047428012", "lat": 38.8962455, "lon": -77.04596866666667, "fusion_lat": 0.0, "name": "5fabc0f47ce53e6480f5ed4047428012"}, {"fusion_lon": 0.0, "rental_uris": {"ios": "https://dc.lft.to/lastmile_qr_scan", "android": "https://dc.lft.to/lastmile_qr_scan"}, "type": "electric_scooter", "is_reserved": 0, "is_disabled": 0, "bike_id": "b0836d3a85284a96313675db1d6af08b", "lat": 38.9261175, "lon": -77.02158666666666, "fusion_lat": 0.0, "name": "b0836d3a85284a96313675db1d6af08b"}, {"fusion_lon": 0.0, "rental_uris": {"ios": "https://dc.lft.to/lastmile_qr_scan", "android": "https://dc.lft.to/lastmile_qr_scan"}, "type": "electric_scooter", "is_reserved": 0, "is_disabled": 0, "bike_id": "cc6798edac9206806219eccf2e718fac", "lat": 38.913233, "lon": -77.03178616666666, "fusion_lat": 0.0, "name": "cc6798edac9206806219eccf2e718fac"}, {"fusion_lon": 0.0, "rental_uris": {"ios": "https://dc.lft.to/lastmile_qr_scan", "android": "https://dc.lft.to/lastmile_qr_scan"}, "type": "electric_bike", "is_reserved": 0, "is_disabled": 0, "bike_id": "d7a8b1be1fdd08be4d94effac14a8db9", "lat": 38.8576425, "lon": -76.98760816666666, "fusion_lat": 0.0, "name": "d7a8b1be1fdd08be4d94effac14a8db9"}, {"fusion_lon": 0.0, "rental_uris": {"ios": "https://dc.lft.to/lastmile_qr_scan", "android": "https://dc.lft.to/lastmile_qr_scan"}, "type": "electric_scooter", "is_reserved": 0, "is_disabled": 0, "bike_id": "79ecc74782cfe553a0e3516cbfae33b2", "lat": 38.904116, "lon": -76.97332383333334, "fusion_lat": 0.0, "name": "79ecc74782cfe553a0e3516cbfae33b2"}, {"fusion_lon": 0.0, "rental_uris": {"ios": "https://dc.lft.to/lastmile_qr_scan", "android": "https://dc.lft.to/lastmile_qr_scan"}, "type": "electric_scooter", "is_reserved": 0, "is_disabled": 0, "bike_id": "41c75ddc3d6f864d39fc543436355f0c", "lat": 38.911206, "lon": -77.031347, "fusion_lat": 0.0, "name": "41c75ddc3d6f864d39fc543436355f0c"}, {"fusion_lon": 0.0, "rental_uris": {"ios": "https://dc.lft.to/lastmile_qr_scan", "android": "https://dc.lft.to/lastmile_qr_scan"}, "type": "electric_scooter", "is_reserved": 0, "is_disabled": 0, "bike_id": "69dd052904cba1edf354f7d0fbad1cfb", "lat": 38.91744966666667, "lon": -77.024047, "fusion_lat": 0.0, "name": "69dd052904cba1edf354f7d0fbad1cfb"}, {"fusion_lon": 0.0, "rental_uris": {"ios": "https://dc.lft.to/lastmile_qr_scan", "android": "https://dc.lft.to/lastmile_qr_scan"}, "type": "electric_scooter", "is_reserved": 0, "is_disabled": 0, "bike_id": "03825a33324f5ad34932bd04268598e9", "lat": 38.919129, "lon": -77.02081016666666, "fusion_lat": 0.0, "name": "03825a33324f5ad34932bd04268598e9"}, {"fusion_lon": 0.0, "rental_uris": {"ios": "https://dc.lft.to/lastmile_qr_scan", "android": "https://dc.lft.to/lastmile_qr_scan"}, "type": "electric_scooter", "is_reserved": 0, "is_disabled": 0, "bike_id": "7c22698b12f4c6f6dbb2e84c65cd20b2", "lat": 38.92436416666666, "lon": -77.02032883333334, "fusion_lat": 0.0, "name": "7c22698b12f4c6f6dbb2e84c65cd20b2"}, {"fusion_lon": 0.0, "rental_uris": {"ios": "https://dc.lft.to/lastmile_qr_scan", "android": "https://dc.lft.to/lastmile_qr_scan"}, "type": "electric_scooter", "is_reserved": 0, "is_disabled": 0, "bike_id": "00d921c9fd633c3496be454d19925839", "lat": 38.9355975, "lon": -77.08181816666666, "fusion_lat": 0.0, "name": "00d921c9fd633c3496be454d19925839"}, {"fusion_lon": 0.0, "rental_uris": {"ios": "https://dc.lft.to/lastmile_qr_scan", "android": "https://dc.lft.to/lastmile_qr_scan"}, "type": "electric_scooter", "is_reserved": 0, "is_disabled": 0, "bike_id": "9ca1818078bacaf89c77d3760e5a13c7", "lat": 38.87881816666667, "lon": -77.00053433333333, "fusion_lat": 0.0, "name": "9ca1818078bacaf89c77d3760e5a13c7"}, {"fusion_lon": 0.0, "rental_uris": {"ios": "https://dc.lft.to/lastmile_qr_scan", "android": "https://dc.lft.to/lastmile_qr_scan"}, "type": "electric_scooter", "is_reserved": 0, "is_disabled": 0, "bike_id": "8718f3efb4e84c2b4d01f5a2bc90bb0e", "lat": 38.921725, "lon": -77.02097583333334, "fusion_lat": 0.0, "name": "8718f3efb4e84c2b4d01f5a2bc90bb0e"}, {"fusion_lon": 0.0, "rental_uris": {"ios": "https://dc.lft.to/lastmile_qr_scan", "android": "https://dc.lft.to/lastmile_qr_scan"}, "type": "electric_bike", "is_reserved": 0, "is_disabled": 0, "bike_id": "01bc1b73e7699d694aa614cc22804601", "lat": 38.79986916666667, "lon": -77.12977683333334, "fusion_lat": 0.0, "name": "01bc1b73e7699d694aa614cc22804601"}, {"fusion_lon": 0.0, "rental_uris": {"ios": "https://dc.lft.to/lastmile_qr_scan", "android": "https://dc.lft.to/lastmile_qr_scan"}, "type": "electric_scooter", "is_reserved": 0, "is_disabled": 0, "bike_id": "a318dc4f6ad8b796a27c9ec2f8087a06", "lat": 38.88427433333333, "lon": -77.02798033333333, "fusion_lat": 0.0, "name": "a318dc4f6ad8b796a27c9ec2f8087a06"}, {"fusion_lon": 0.0, "rental_uris": {"ios": "https://dc.lft.to/lastmile_qr_scan", "android": "https://dc.lft.to/lastmile_qr_scan"}, "type": "electric_scooter", "is_reserved": 0, "is_disabled": 0, "bike_id": "e55caa0567e33de364c7580308251c9e", "lat": 38.92312016666666, "lon": -77.03803433333333, "fusion_lat": 0.0, "name": "e55caa0567e33de364c7580308251c9e"}, {"fusion_lon": 0.0, "rental_uris": {"ios": "https://dc.lft.to/lastmile_qr_scan", "android": "https://dc.lft.to/lastmile_qr_scan"}, "type": "electric_bike", "is_reserved": 0, "is_disabled": 0, "bike_id": "c88b323a86fdd4b9a76d628713b7ae52", "lat": 38.87279633333333, "lon": -77.23332383333333, "fusion_lat": 0.0, "name": "c88b323a86fdd4b9a76d628713b7ae52"}, {"fusion_lon": 0.0, "rental_uris": {"ios": "https://dc.lft.to/lastmile_qr_scan", "android": "https://dc.lft.to/lastmile_qr_scan"}, "type": "electric_bike", "is_reserved": 0, "is_disabled": 0, "bike_id": "fa2921c7d448a7a24ce8bdb0e4f7a629", "lat": 38.83793166666667, "lon": -77.09349733333333, "fusion_lat": 0.0, "name": "fa2921c7d448a7a24ce8bdb0e4f7a629"}, {"fusion_lon": 0.0, "rental_uris": {"ios": "https://dc.lft.to/lastmile_qr_scan", "android": "https://dc.lft.to/lastmile_qr_scan"}, "type": "electric_scooter", "is_reserved": 0, "is_disabled": 0, "bike_id": "26c96d0b6c457e447609290d6302114a", "lat": 38.89220866666667, "lon": -77.02766216666667, "fusion_lat": 0.0, "name": "26c96d0b6c457e447609290d6302114a"}, {"fusion_lon": 0.0, "rental_uris": {"ios": "https://dc.lft.to/lastmile_qr_scan", "android": "https://dc.lft.to/lastmile_qr_scan"}, "type": "electric_scooter", "is_reserved": 0, "is_disabled": 0, "bike_id": "04929575ac408194196208cda235cb20", "lat": 38.923137833333335, "lon": -77.02903033333334, "fusion_lat": 0.0, "name": "04929575ac408194196208cda235cb20"}, {"fusion_lon": 0.0, "rental_uris": {"ios": "https://dc.lft.to/lastmile_qr_scan", "android": "https://dc.lft.to/lastmile_qr_scan"}, "type": "electric_scooter", "is_reserved": 0, "is_disabled": 0, "bike_id": "4a6058feb5837ffe0e5b7303cdff9f4b", "lat": 38.89978116666666, "lon": -77.01996, "fusion_lat": 0.0, "name": "4a6058feb5837ffe0e5b7303cdff9f4b"}, {"fusion_lon": 0.0, "rental_uris": {"ios": "https://dc.lft.to/lastmile_qr_scan", "android": "https://dc.lft.to/lastmile_qr_scan"}, "type": "electric_scooter", "is_reserved": 0, "is_disabled": 0, "bike_id": "24c714223437778c116cae8873d62f5c", "lat": 38.88734433333333, "lon": -77.01532416666667, "fusion_lat": 0.0, "name": "24c714223437778c116cae8873d62f5c"}, {"fusion_lon": 0.0, "rental_uris": {"ios": "https://dc.lft.to/lastmile_qr_scan", "android": "https://dc.lft.to/lastmile_qr_scan"}, "type": "electric_scooter", "is_reserved": 0, "is_disabled": 0, "bike_id": "65ab852bb34dca13e99a6eba164513e9", "lat": 38.892350666666665, "lon": -77.027925, "fusion_lat": 0.0, "name": "65ab852bb34dca13e99a6eba164513e9"}, {"fusion_lon": 0.0, "rental_uris": {"ios": "https://dc.lft.to/lastmile_qr_scan", "android": "https://dc.lft.to/lastmile_qr_scan"}, "type": "electric_scooter", "is_reserved": 0, "is_disabled": 0, "bike_id": "9d9d8deece725ce56a38ee039376433f", "lat": 38.90469933333333, "lon": -77.04488766666667, "fusion_lat": 0.0, "name": "9d9d8deece725ce56a38ee039376433f"}, {"fusion_lon": 0.0, "rental_uris": {"ios": "https://dc.lft.to/lastmile_qr_scan", "android": "https://dc.lft.to/lastmile_qr_scan"}, "type": "electric_scooter", "is_reserved": 0, "is_disabled": 0, "bike_id": "0f5a1a636e34ec6e23400e06d49745c0", "lat": 38.92886983333333, "lon": -77.01366416666667, "fusion_lat": 0.0, "name": "0f5a1a636e34ec6e23400e06d49745c0"}, {"fusion_lon": 0.0, "rental_uris": {"ios": "https://dc.lft.to/lastmile_qr_scan", "android": "https://dc.lft.to/lastmile_qr_scan"}, "type": "electric_scooter", "is_reserved": 0, "is_disabled": 0, "bike_id": "8bdbab5a6be441ad66f65016cc9ccaf2", "lat": 38.924710833333336, "lon": -77.0221605, "fusion_lat": 0.0, "name": "8bdbab5a6be441ad66f65016cc9ccaf2"}, {"fusion_lon": 0.0, "rental_uris": {"ios": "https://dc.lft.to/lastmile_qr_scan", "android": "https://dc.lft.to/lastmile_qr_scan"}, "type": "electric_bike", "is_reserved": 0, "is_disabled": 0, "bike_id": "828481f3b47f3de363f65c906ba3a193", "lat": 38.865706833333334, "lon": -76.9735775, "fusion_lat": 0.0, "name": "828481f3b47f3de363f65c906ba3a193"}, {"fusion_lon": 0.0, "rental_uris": {"ios": "https://dc.lft.to/lastmile_qr_scan", "android": "https://dc.lft.to/lastmile_qr_scan"}, "type": "electric_scooter", "is_reserved": 0, "is_disabled": 0, "bike_id": "ff063182aabf1d8b98336c0b554a1ccd", "lat": 38.949231, "lon": -77.0185845, "fusion_lat": 0.0, "name": "ff063182aabf1d8b98336c0b554a1ccd"}, {"fusion_lon": 0.0, "rental_uris": {"ios": "https://dc.lft.to/lastmile_qr_scan", "android": "https://dc.lft.to/lastmile_qr_scan"}, "type": "electric_scooter", "is_reserved": 0, "is_disabled": 0, "bike_id": "b4cc146adacd17ba363e59044e022f0b", "lat": 38.90264066666667, "lon": -77.06016333333334, "fusion_lat": 0.0, "name": "b4cc146adacd17ba363e59044e022f0b"}, {"fusion_lon": 0.0, "rental_uris": {"ios": "https://dc.lft.to/lastmile_qr_scan", "android": "https://dc.lft.to/lastmile_qr_scan"}, "type": "electric_scooter", "is_reserved": 0, "is_disabled": 0, "bike_id": "b45f893aabdd574404c926d3e1bfd389", "lat": 38.874141, "lon": -77.0006635, "fusion_lat": 0.0, "name": "b45f893aabdd574404c926d3e1bfd389"}, {"fusion_lon": 0.0, "rental_uris": {"ios": "https://dc.lft.to/lastmile_qr_scan", "android": "https://dc.lft.to/lastmile_qr_scan"}, "type": "electric_scooter", "is_reserved": 0, "is_disabled": 0, "bike_id": "6ac8dea30df445fa4d70f4fa42e4e782", "lat": 38.88729133333333, "lon": -76.98341116666667, "fusion_lat": 0.0, "name": "6ac8dea30df445fa4d70f4fa42e4e782"}, {"fusion_lon": 0.0, "rental_uris": {"ios": "https://dc.lft.to/lastmile_qr_scan", "android": "https://dc.lft.to/lastmile_qr_scan"}, "type": "electric_scooter", "is_reserved": 0, "is_disabled": 0, "bike_id": "f37c028519bafb466a94375b81466e46", "lat": 38.903893833333335, "lon": -77.04746733333333, "fusion_lat": 0.0, "name": "f37c028519bafb466a94375b81466e46"}, {"fusion_lon": 0.0, "rental_uris": {"ios": "https://dc.lft.to/lastmile_qr_scan", "android": "https://dc.lft.to/lastmile_qr_scan"}, "type": "electric_scooter", "is_reserved": 0, "is_disabled": 0, "bike_id": "233027433d8ceff03069e2b80f4a31d9", "lat": 38.896217166666666, "lon": -76.98568683333333, "fusion_lat": 0.0, "name": "233027433d8ceff03069e2b80f4a31d9"}, {"fusion_lon": 0.0, "rental_uris": {"ios": "https://dc.lft.to/lastmile_qr_scan", "android": "https://dc.lft.to/lastmile_qr_scan"}, "type": "electric_scooter", "is_reserved": 0, "is_disabled": 0, "bike_id": "887f4570490202996ef6c5c6bf89ecaa", "lat": 38.9261965, "lon": -77.04325033333333, "fusion_lat": 0.0, "name": "887f4570490202996ef6c5c6bf89ecaa"}, {"fusion_lon": 0.0, "rental_uris": {"ios": "https://dc.lft.to/lastmile_qr_scan", "android": "https://dc.lft.to/lastmile_qr_scan"}, "type": "electric_scooter", "is_reserved": 0, "is_disabled": 0, "bike_id": "8ae9f6ecc5f85088ce9ecfaa8602c8a0", "lat": 38.921602166666666, "lon": -77.03320716666667, "fusion_lat": 0.0, "name": "8ae9f6ecc5f85088ce9ecfaa8602c8a0"}, {"fusion_lon": 0.0, "rental_uris": {"ios": "https://dc.lft.to/lastmile_qr_scan", "android": "https://dc.lft.to/lastmile_qr_scan"}, "type": "electric_scooter", "is_reserved": 0, "is_disabled": 0, "bike_id": "7cdb3ede907e30b9d2e473f0301e0a62", "lat": 38.9039285, "lon": -77.03483816666666, "fusion_lat": 0.0, "name": "7cdb3ede907e30b9d2e473f0301e0a62"}, {"fusion_lon": 0.0, "rental_uris": {"ios": "https://dc.lft.to/lastmile_qr_scan", "android": "https://dc.lft.to/lastmile_qr_scan"}, "type": "electric_scooter", "is_reserved": 0, "is_disabled": 0, "bike_id": "70dba56bff4e1fbbc0af6a6a5960daf3", "lat": 38.887631999999996, "lon": -77.0314155, "fusion_lat": 0.0, "name": "70dba56bff4e1fbbc0af6a6a5960daf3"}, {"fusion_lon": 0.0, "rental_uris": {"ios": "https://dc.lft.to/lastmile_qr_scan", "android": "https://dc.lft.to/lastmile_qr_scan"}, "type": "electric_scooter", "is_reserved": 0, "is_disabled": 0, "bike_id": "4ff7dabfaa62bc8481a3b15af0ac046b", "lat": 38.96799983333333, "lon": -77.024157, "fusion_lat": 0.0, "name": "4ff7dabfaa62bc8481a3b15af0ac046b"}, {"fusion_lon": 0.0, "rental_uris": {"ios": "https://dc.lft.to/lastmile_qr_scan", "android": "https://dc.lft.to/lastmile_qr_scan"}, "type": "electric_scooter", "is_reserved": 0, "is_disabled": 0, "bike_id": "b0753b13fedc60323e6f2ec27ac7b4f2", "lat": 38.88579716666667, "lon": -77.00052766666667, "fusion_lat": 0.0, "name": "b0753b13fedc60323e6f2ec27ac7b4f2"}, {"fusion_lon": 0.0, "rental_uris": {"ios": "https://dc.lft.to/lastmile_qr_scan", "android": "https://dc.lft.to/lastmile_qr_scan"}, "type": "electric_scooter", "is_reserved": 0, "is_disabled": 0, "bike_id": "a80e0965137167a9f7a342b1a52e782f", "lat": 38.884593333333335, "lon": -76.92955316666666, "fusion_lat": 0.0, "name": "a80e0965137167a9f7a342b1a52e782f"}, {"fusion_lon": 0.0, "rental_uris": {"ios": "https://dc.lft.to/lastmile_qr_scan", "android": "https://dc.lft.to/lastmile_qr_scan"}, "type": "electric_bike", "is_reserved": 0, "is_disabled": 0, "bike_id": "9e610d3af0b5da63beaf11ae95c4bdb7", "lat": 38.89566633333333, "lon": -77.12737783333333, "fusion_lat": 0.0, "name": "9e610d3af0b5da63beaf11ae95c4bdb7"}, {"fusion_lon": 0.0, "rental_uris": {"ios": "https://dc.lft.to/lastmile_qr_scan", "android": "https://dc.lft.to/lastmile_qr_scan"}, "type": "electric_bike", "is_reserved": 0, "is_disabled": 0, "bike_id": "1a2a72de4f86afb08ccbf9e15f82037d", "lat": 38.920624333333336, "lon": -76.97076816666667, "fusion_lat": 0.0, "name": "1a2a72de4f86afb08ccbf9e15f82037d"}, {"fusion_lon": 0.0, "rental_uris": {"ios": "https://dc.lft.to/lastmile_qr_scan", "android": "https://dc.lft.to/lastmile_qr_scan"}, "type": "electric_scooter", "is_reserved": 0, "is_disabled": 0, "bike_id": "201acd3c5dc165499548cc45d89086be", "lat": 38.91530916666667, "lon": -77.04466166666667, "fusion_lat": 0.0, "name": "201acd3c5dc165499548cc45d89086be"}, {"fusion_lon": 0.0, "rental_uris": {"ios": "https://dc.lft.to/lastmile_qr_scan", "android": "https://dc.lft.to/lastmile_qr_scan"}, "type": "electric_scooter", "is_reserved": 0, "is_disabled": 0, "bike_id": "24ea2694ad1996378a1aeee333f7db3b", "lat": 38.8993155, "lon": -76.94582866666667, "fusion_lat": 0.0, "name": "24ea2694ad1996378a1aeee333f7db3b"}, {"fusion_lon": 0.0, "rental_uris": {"ios": "https://dc.lft.to/lastmile_qr_scan", "android": "https://dc.lft.to/lastmile_qr_scan"}, "type": "electric_bike", "is_reserved": 0, "is_disabled": 0, "bike_id": "7b3b1de6c36eb6bc8bd8a696ad3baccd", "lat": 39.026231833333334, "lon": -77.03878983333334, "fusion_lat": 0.0, "name": "7b3b1de6c36eb6bc8bd8a696ad3baccd"}, {"fusion_lon": 0.0, "rental_uris": {"ios": "https://dc.lft.to/lastmile_qr_scan", "android": "https://dc.lft.to/lastmile_qr_scan"}, "type": "electric_scooter", "is_reserved": 0, "is_disabled": 0, "bike_id": "9cc8d374d51ac9151696758efe1ae970", "lat": 38.89198366666667, "lon": -77.02380033333333, "fusion_lat": 0.0, "name": "9cc8d374d51ac9151696758efe1ae970"}, {"fusion_lon": 0.0, "rental_uris": {"ios": "https://dc.lft.to/lastmile_qr_scan", "android": "https://dc.lft.to/lastmile_qr_scan"}, "type": "electric_scooter", "is_reserved": 0, "is_disabled": 0, "bike_id": "481c7b0b4d879cc0b829abc4ef4ccd4b", "lat": 38.9010795, "lon": -77.03393133333333, "fusion_lat": 0.0, "name": "481c7b0b4d879cc0b829abc4ef4ccd4b"}, {"fusion_lon": 0.0, "rental_uris": {"ios": "https://dc.lft.to/lastmile_qr_scan", "android": "https://dc.lft.to/lastmile_qr_scan"}, "type": "electric_scooter", "is_reserved": 0, "is_disabled": 0, "bike_id": "883636e3d4d359119b0f3e09cf161a98", "lat": 38.90139683333334, "lon": -77.04544333333334, "fusion_lat": 0.0, "name": "883636e3d4d359119b0f3e09cf161a98"}, {"fusion_lon": 0.0, "rental_uris": {"ios": "https://dc.lft.to/lastmile_qr_scan", "android": "https://dc.lft.to/lastmile_qr_scan"}, "type": "electric_scooter", "is_reserved": 0, "is_disabled": 0, "bike_id": "d0b7af13a6a9a06da399cdab64e27d52", "lat": 38.9233755, "lon": -77.04151666666667, "fusion_lat": 0.0, "name": "d0b7af13a6a9a06da399cdab64e27d52"}, {"fusion_lon": 0.0, "rental_uris": {"ios": "https://dc.lft.to/lastmile_qr_scan", "android": "https://dc.lft.to/lastmile_qr_scan"}, "type": "electric_bike", "is_reserved": 0, "is_disabled": 0, "bike_id": "eaf158d5d43ac135c7f7e642d360d39d", "lat": 38.9552945, "lon": -76.956712, "fusion_lat": 0.0, "name": "eaf158d5d43ac135c7f7e642d360d39d"}, {"fusion_lon": 0.0, "rental_uris": {"ios": "https://dc.lft.to/lastmile_qr_scan", "android": "https://dc.lft.to/lastmile_qr_scan"}, "type": "electric_scooter", "is_reserved": 0, "is_disabled": 0, "bike_id": "a5f9c5aab6345641361dfc2b56bb8e37", "lat": 38.90195083333333, "lon": -77.0484245, "fusion_lat": 0.0, "name": "a5f9c5aab6345641361dfc2b56bb8e37"}, {"fusion_lon": 0.0, "rental_uris": {"ios": "https://dc.lft.to/lastmile_qr_scan", "android": "https://dc.lft.to/lastmile_qr_scan"}, "type": "electric_scooter", "is_reserved": 0, "is_disabled": 0, "bike_id": "f544ec349a67a84102b5d0c14449fb2d", "lat": 38.918187833333334, "lon": -77.04180266666667, "fusion_lat": 0.0, "name": "f544ec349a67a84102b5d0c14449fb2d"}, {"fusion_lon": 0.0, "rental_uris": {"ios": "https://dc.lft.to/lastmile_qr_scan", "android": "https://dc.lft.to/lastmile_qr_scan"}, "type": "electric_scooter", "is_reserved": 0, "is_disabled": 0, "bike_id": "b429e56e29c2fe702a19dc159ad724ad", "lat": 38.898406333333334, "lon": -77.04555033333334, "fusion_lat": 0.0, "name": "b429e56e29c2fe702a19dc159ad724ad"}, {"fusion_lon": 0.0, "rental_uris": {"ios": "https://dc.lft.to/lastmile_qr_scan", "android": "https://dc.lft.to/lastmile_qr_scan"}, "type": "electric_scooter", "is_reserved": 0, "is_disabled": 0, "bike_id": "8ddde68b64d363f00c4271f44be7b837", "lat": 38.915405166666666, "lon": -77.0442825, "fusion_lat": 0.0, "name": "8ddde68b64d363f00c4271f44be7b837"}, {"fusion_lon": 0.0, "rental_uris": {"ios": "https://dc.lft.to/lastmile_qr_scan", "android": "https://dc.lft.to/lastmile_qr_scan"}, "type": "electric_scooter", "is_reserved": 0, "is_disabled": 0, "bike_id": "3ec57a9db6832535abe5339db7d65db5", "lat": 38.90656166666667, "lon": -77.0514805, "fusion_lat": 0.0, "name": "3ec57a9db6832535abe5339db7d65db5"}, {"fusion_lon": 0.0, "rental_uris": {"ios": "https://dc.lft.to/lastmile_qr_scan", "android": "https://dc.lft.to/lastmile_qr_scan"}, "type": "electric_scooter", "is_reserved": 0, "is_disabled": 0, "bike_id": "1d5d49aa2fa87e1d7721e5a017180245", "lat": 38.900383833333336, "lon": -76.99140416666667, "fusion_lat": 0.0, "name": "1d5d49aa2fa87e1d7721e5a017180245"}, {"fusion_lon": 0.0, "rental_uris": {"ios": "https://dc.lft.to/lastmile_qr_scan", "android": "https://dc.lft.to/lastmile_qr_scan"}, "type": "electric_scooter", "is_reserved": 0, "is_disabled": 0, "bike_id": "4a0519769f0cb287133f67b7c8e1ba96", "lat": 38.876996, "lon": -77.00290583333333, "fusion_lat": 0.0, "name": "4a0519769f0cb287133f67b7c8e1ba96"}, {"fusion_lon": 0.0, "rental_uris": {"ios": "https://dc.lft.to/lastmile_qr_scan", "android": "https://dc.lft.to/lastmile_qr_scan"}, "type": "electric_scooter", "is_reserved": 0, "is_disabled": 0, "bike_id": "82bbb26151350d520146baddba729d72", "lat": 38.860330833333336, "lon": -76.983789, "fusion_lat": 0.0, "name": "82bbb26151350d520146baddba729d72"}, {"fusion_lon": 0.0, "rental_uris": {"ios": "https://dc.lft.to/lastmile_qr_scan", "android": "https://dc.lft.to/lastmile_qr_scan"}, "type": "electric_scooter", "is_reserved": 0, "is_disabled": 0, "bike_id": "cdb26f7665ab57f22370ebb6b94d6d7c", "lat": 38.927502833333335, "lon": -77.02961183333333, "fusion_lat": 0.0, "name": "cdb26f7665ab57f22370ebb6b94d6d7c"}, {"fusion_lon": 0.0, "rental_uris": {"ios": "https://dc.lft.to/lastmile_qr_scan", "android": "https://dc.lft.to/lastmile_qr_scan"}, "type": "electric_bike", "is_reserved": 0, "is_disabled": 0, "bike_id": "3e6c5009f2bacf6395fd194218a4189a", "lat": 38.94511816666667, "lon": -77.00673233333333, "fusion_lat": 0.0, "name": "3e6c5009f2bacf6395fd194218a4189a"}, {"fusion_lon": 0.0, "rental_uris": {"ios": "https://dc.lft.to/lastmile_qr_scan", "android": "https://dc.lft.to/lastmile_qr_scan"}, "type": "electric_scooter", "is_reserved": 0, "is_disabled": 0, "bike_id": "bbfa36d35c6ffa372f5d6fc1f809bf25", "lat": 38.896275333333335, "lon": -76.997307, "fusion_lat": 0.0, "name": "bbfa36d35c6ffa372f5d6fc1f809bf25"}, {"fusion_lon": 0.0, "rental_uris": {"ios": "https://dc.lft.to/lastmile_qr_scan", "android": "https://dc.lft.to/lastmile_qr_scan"}, "type": "electric_scooter", "is_reserved": 0, "is_disabled": 0, "bike_id": "566892a38060ab20e19b7c56348ba9c0", "lat": 38.938567, "lon": -77.02461133333334, "fusion_lat": 0.0, "name": "566892a38060ab20e19b7c56348ba9c0"}, {"fusion_lon": 0.0, "rental_uris": {"ios": "https://dc.lft.to/lastmile_qr_scan", "android": "https://dc.lft.to/lastmile_qr_scan"}, "type": "electric_scooter", "is_reserved": 0, "is_disabled": 0, "bike_id": "af984ad7f28f21784bdb986123b8e754", "lat": 38.899640833333336, "lon": -77.03061233333334, "fusion_lat": 0.0, "name": "af984ad7f28f21784bdb986123b8e754"}, {"fusion_lon": 0.0, "rental_uris": {"ios": "https://dc.lft.to/lastmile_qr_scan", "android": "https://dc.lft.to/lastmile_qr_scan"}, "type": "electric_scooter", "is_reserved": 0, "is_disabled": 0, "bike_id": "fadc0a90c0b7e79df6f0a64664007ab1", "lat": 38.89806383333333, "lon": -77.01214433333334, "fusion_lat": 0.0, "name": "fadc0a90c0b7e79df6f0a64664007ab1"}, {"fusion_lon": 0.0, "rental_uris": {"ios": "https://dc.lft.to/lastmile_qr_scan", "android": "https://dc.lft.to/lastmile_qr_scan"}, "type": "electric_scooter", "is_reserved": 0, "is_disabled": 0, "bike_id": "6d859d01eb9335997905e67022649718", "lat": 38.93760016666667, "lon": -77.02487783333333, "fusion_lat": 0.0, "name": "6d859d01eb9335997905e67022649718"}, {"fusion_lon": 0.0, "rental_uris": {"ios": "https://dc.lft.to/lastmile_qr_scan", "android": "https://dc.lft.to/lastmile_qr_scan"}, "type": "electric_scooter", "is_reserved": 0, "is_disabled": 0, "bike_id": "ddcb2307d19535a5a2adda0f238fd1b8", "lat": 38.92212516666667, "lon": -77.02029016666667, "fusion_lat": 0.0, "name": "ddcb2307d19535a5a2adda0f238fd1b8"}, {"fusion_lon": 0.0, "rental_uris": {"ios": "https://dc.lft.to/lastmile_qr_scan", "android": "https://dc.lft.to/lastmile_qr_scan"}, "type": "electric_scooter", "is_reserved": 0, "is_disabled": 0, "bike_id": "fc59a41828b370069334c6f54ecdcfe2", "lat": 38.9159775, "lon": -77.0490425, "fusion_lat": 0.0, "name": "fc59a41828b370069334c6f54ecdcfe2"}, {"fusion_lon": 0.0, "rental_uris": {"ios": "https://dc.lft.to/lastmile_qr_scan", "android": "https://dc.lft.to/lastmile_qr_scan"}, "type": "electric_scooter", "is_reserved": 0, "is_disabled": 0, "bike_id": "662eee3673209970d6f39ca6ff1732b1", "lat": 38.893647333333334, "lon": -77.00332466666667, "fusion_lat": 0.0, "name": "662eee3673209970d6f39ca6ff1732b1"}, {"fusion_lon": 0.0, "rental_uris": {"ios": "https://dc.lft.to/lastmile_qr_scan", "android": "https://dc.lft.to/lastmile_qr_scan"}, "type": "electric_scooter", "is_reserved": 0, "is_disabled": 0, "bike_id": "a25c85f4d5ef6ac2920571d81b4ee38a", "lat": 38.896090666666666, "lon": -77.00925633333334, "fusion_lat": 0.0, "name": "a25c85f4d5ef6ac2920571d81b4ee38a"}, {"fusion_lon": 0.0, "rental_uris": {"ios": "https://dc.lft.to/lastmile_qr_scan", "android": "https://dc.lft.to/lastmile_qr_scan"}, "type": "electric_bike", "is_reserved": 0, "is_disabled": 0, "bike_id": "c154dc24c2c0a38eee26365299c490bf", "lat": 38.90363416666667, "lon": -76.98099333333333, "fusion_lat": 0.0, "name": "c154dc24c2c0a38eee26365299c490bf"}, {"fusion_lon": 0.0, "rental_uris": {"ios": "https://dc.lft.to/lastmile_qr_scan", "android": "https://dc.lft.to/lastmile_qr_scan"}, "type": "electric_scooter", "is_reserved": 0, "is_disabled": 0, "bike_id": "79439e583e8a84d52f8a4011904e4336", "lat": 38.903207333333334, "lon": -77.02364583333333, "fusion_lat": 0.0, "name": "79439e583e8a84d52f8a4011904e4336"}, {"fusion_lon": 0.0, "rental_uris": {"ios": "https://dc.lft.to/lastmile_qr_scan", "android": "https://dc.lft.to/lastmile_qr_scan"}, "type": "electric_scooter", "is_reserved": 0, "is_disabled": 0, "bike_id": "94560565937d6cdc759b7fa35e70e481", "lat": 38.91854083333333, "lon": -77.0319825, "fusion_lat": 0.0, "name": "94560565937d6cdc759b7fa35e70e481"}, {"fusion_lon": 0.0, "rental_uris": {"ios": "https://dc.lft.to/lastmile_qr_scan", "android": "https://dc.lft.to/lastmile_qr_scan"}, "type": "electric_scooter", "is_reserved": 0, "is_disabled": 0, "bike_id": "506e05d104df918418c3f68615c597f8", "lat": 38.897512166666665, "lon": -77.01885683333333, "fusion_lat": 0.0, "name": "506e05d104df918418c3f68615c597f8"}, {"fusion_lon": 0.0, "rental_uris": {"ios": "https://dc.lft.to/lastmile_qr_scan", "android": "https://dc.lft.to/lastmile_qr_scan"}, "type": "electric_scooter", "is_reserved": 0, "is_disabled": 0, "bike_id": "bb270b6195e40add8ffa4a41e620f25e", "lat": 38.9431585, "lon": -77.01725766666667, "fusion_lat": 0.0, "name": "bb270b6195e40add8ffa4a41e620f25e"}, {"fusion_lon": 0.0, "rental_uris": {"ios": "https://dc.lft.to/lastmile_qr_scan", "android": "https://dc.lft.to/lastmile_qr_scan"}, "type": "electric_scooter", "is_reserved": 0, "is_disabled": 0, "bike_id": "650246cc020288fcfc2edc2f478e33e7", "lat": 38.90634933333333, "lon": -77.03893433333333, "fusion_lat": 0.0, "name": "650246cc020288fcfc2edc2f478e33e7"}, {"fusion_lon": 0.0, "rental_uris": {"ios": "https://dc.lft.to/lastmile_qr_scan", "android": "https://dc.lft.to/lastmile_qr_scan"}, "type": "electric_scooter", "is_reserved": 0, "is_disabled": 0, "bike_id": "19153d1d6c6f72f5417e0a22fb45fe7f", "lat": 38.92669983333333, "lon": -77.01470183333333, "fusion_lat": 0.0, "name": "19153d1d6c6f72f5417e0a22fb45fe7f"}, {"fusion_lon": 0.0, "rental_uris": {"ios": "https://dc.lft.to/lastmile_qr_scan", "android": "https://dc.lft.to/lastmile_qr_scan"}, "type": "electric_scooter", "is_reserved": 0, "is_disabled": 0, "bike_id": "581f06bfb696ccc87ccea4dadfa9fcf2", "lat": 38.90615433333333, "lon": -77.0513485, "fusion_lat": 0.0, "name": "581f06bfb696ccc87ccea4dadfa9fcf2"}, {"fusion_lon": 0.0, "rental_uris": {"ios": "https://dc.lft.to/lastmile_qr_scan", "android": "https://dc.lft.to/lastmile_qr_scan"}, "type": "electric_scooter", "is_reserved": 0, "is_disabled": 0, "bike_id": "208747a7fb9a5741b5be043aed0b5f68", "lat": 38.91699883333333, "lon": -77.04084216666666, "fusion_lat": 0.0, "name": "208747a7fb9a5741b5be043aed0b5f68"}, {"fusion_lon": 0.0, "rental_uris": {"ios": "https://dc.lft.to/lastmile_qr_scan", "android": "https://dc.lft.to/lastmile_qr_scan"}, "type": "electric_bike", "is_reserved": 0, "is_disabled": 0, "bike_id": "d260ad57eedaf9a9a7e293b9edce2f46", "lat": 38.888793166666666, "lon": -76.95697816666667, "fusion_lat": 0.0, "name": "d260ad57eedaf9a9a7e293b9edce2f46"}, {"fusion_lon": 0.0, "rental_uris": {"ios": "https://dc.lft.to/lastmile_qr_scan", "android": "https://dc.lft.to/lastmile_qr_scan"}, "type": "electric_scooter", "is_reserved": 0, "is_disabled": 0, "bike_id": "211569ef4dbaf6124d5d969bf2d68208", "lat": 38.9052205, "lon": -77.06029083333334, "fusion_lat": 0.0, "name": "211569ef4dbaf6124d5d969bf2d68208"}, {"fusion_lon": 0.0, "rental_uris": {"ios": "https://dc.lft.to/lastmile_qr_scan", "android": "https://dc.lft.to/lastmile_qr_scan"}, "type": "electric_scooter", "is_reserved": 0, "is_disabled": 0, "bike_id": "499469d379169402a2b4576250717c7b", "lat": 38.905396, "lon": -77.0569395, "fusion_lat": 0.0, "name": "499469d379169402a2b4576250717c7b"}, {"fusion_lon": 0.0, "rental_uris": {"ios": "https://dc.lft.to/lastmile_qr_scan", "android": "https://dc.lft.to/lastmile_qr_scan"}, "type": "electric_scooter", "is_reserved": 0, "is_disabled": 0, "bike_id": "19336004f67aa922b58d39ffa488965a", "lat": 38.92220666666667, "lon": -77.0212375, "fusion_lat": 0.0, "name": "19336004f67aa922b58d39ffa488965a"}, {"fusion_lon": 0.0, "rental_uris": {"ios": "https://dc.lft.to/lastmile_qr_scan", "android": "https://dc.lft.to/lastmile_qr_scan"}, "type": "electric_scooter", "is_reserved": 0, "is_disabled": 0, "bike_id": "de7f7832510286d9d0c34bed075f7944", "lat": 38.915448833333336, "lon": -77.04465516666667, "fusion_lat": 0.0, "name": "de7f7832510286d9d0c34bed075f7944"}, {"fusion_lon": 0.0, "rental_uris": {"ios": "https://dc.lft.to/lastmile_qr_scan", "android": "https://dc.lft.to/lastmile_qr_scan"}, "type": "electric_scooter", "is_reserved": 0, "is_disabled": 0, "bike_id": "1a740eeffe79b622607bef2af124fb12", "lat": 38.927204333333336, "lon": -77.05988116666667, "fusion_lat": 0.0, "name": "1a740eeffe79b622607bef2af124fb12"}, {"fusion_lon": 0.0, "rental_uris": {"ios": "https://dc.lft.to/lastmile_qr_scan", "android": "https://dc.lft.to/lastmile_qr_scan"}, "type": "electric_scooter", "is_reserved": 0, "is_disabled": 0, "bike_id": "6d6770dbedfd6ac30e324e6721f43c10", "lat": 38.935441833333336, "lon": -77.0308805, "fusion_lat": 0.0, "name": "6d6770dbedfd6ac30e324e6721f43c10"}, {"fusion_lon": 0.0, "rental_uris": {"ios": "https://dc.lft.to/lastmile_qr_scan", "android": "https://dc.lft.to/lastmile_qr_scan"}, "type": "electric_scooter", "is_reserved": 0, "is_disabled": 0, "bike_id": "0aab8456b93bfc3c861df1bf71fa3532", "lat": 38.94445833333333, "lon": -77.02334433333333, "fusion_lat": 0.0, "name": "0aab8456b93bfc3c861df1bf71fa3532"}, {"fusion_lon": 0.0, "rental_uris": {"ios": "https://dc.lft.to/lastmile_qr_scan", "android": "https://dc.lft.to/lastmile_qr_scan"}, "type": "electric_scooter", "is_reserved": 0, "is_disabled": 0, "bike_id": "a4db87e274caefd4f6f8bc2d81490cc7", "lat": 38.893631666666664, "lon": -77.02803083333333, "fusion_lat": 0.0, "name": "a4db87e274caefd4f6f8bc2d81490cc7"}, {"fusion_lon": 0.0, "rental_uris": {"ios": "https://dc.lft.to/lastmile_qr_scan", "android": "https://dc.lft.to/lastmile_qr_scan"}, "type": "electric_scooter", "is_reserved": 0, "is_disabled": 0, "bike_id": "b31d50118e2f28ac76c1890ee59a3038", "lat": 38.898216833333336, "lon": -77.01204, "fusion_lat": 0.0, "name": "b31d50118e2f28ac76c1890ee59a3038"}, {"fusion_lon": 0.0, "rental_uris": {"ios": "https://dc.lft.to/lastmile_qr_scan", "android": "https://dc.lft.to/lastmile_qr_scan"}, "type": "electric_bike", "is_reserved": 0, "is_disabled": 0, "bike_id": "f2922ac1fc2723278313552e1571c2ef", "lat": 39.00379066666667, "lon": -77.0128755, "fusion_lat": 0.0, "name": "f2922ac1fc2723278313552e1571c2ef"}, {"fusion_lon": 0.0, "rental_uris": {"ios": "https://dc.lft.to/lastmile_qr_scan", "android": "https://dc.lft.to/lastmile_qr_scan"}, "type": "electric_bike", "is_reserved": 0, "is_disabled": 0, "bike_id": "7b84ef7d3e941959a7fc5090e23f847c", "lat": 38.89784316666667, "lon": -77.01358, "fusion_lat": 0.0, "name": "7b84ef7d3e941959a7fc5090e23f847c"}, {"fusion_lon": 0.0, "rental_uris": {"ios": "https://dc.lft.to/lastmile_qr_scan", "android": "https://dc.lft.to/lastmile_qr_scan"}, "type": "electric_bike", "is_reserved": 0, "is_disabled": 0, "bike_id": "4362040cd86c814b2c6311ac5aa8d48a", "lat": 38.9967115, "lon": -77.03806133333333, "fusion_lat": 0.0, "name": "4362040cd86c814b2c6311ac5aa8d48a"}, {"fusion_lon": 0.0, "rental_uris": {"ios": "https://dc.lft.to/lastmile_qr_scan", "android": "https://dc.lft.to/lastmile_qr_scan"}, "type": "electric_scooter", "is_reserved": 0, "is_disabled": 0, "bike_id": "69dd77ddea06dde8781f52d4b41cba32", "lat": 38.917138333333334, "lon": -77.03859883333334, "fusion_lat": 0.0, "name": "69dd77ddea06dde8781f52d4b41cba32"}, {"fusion_lon": 0.0, "rental_uris": {"ios": "https://dc.lft.to/lastmile_qr_scan", "android": "https://dc.lft.to/lastmile_qr_scan"}, "type": "electric_scooter", "is_reserved": 0, "is_disabled": 0, "bike_id": "6161ad95afb822ca1a01aceef7b8a497", "lat": 38.917399833333334, "lon": -77.02116866666667, "fusion_lat": 0.0, "name": "6161ad95afb822ca1a01aceef7b8a497"}, {"fusion_lon": 0.0, "rental_uris": {"ios": "https://dc.lft.to/lastmile_qr_scan", "android": "https://dc.lft.to/lastmile_qr_scan"}, "type": "electric_scooter", "is_reserved": 0, "is_disabled": 0, "bike_id": "4cf568b46fe549f439f7994f8421c352", "lat": 38.94282916666667, "lon": -77.029217, "fusion_lat": 0.0, "name": "4cf568b46fe549f439f7994f8421c352"}, {"fusion_lon": 0.0, "rental_uris": {"ios": "https://dc.lft.to/lastmile_qr_scan", "android": "https://dc.lft.to/lastmile_qr_scan"}, "type": "electric_scooter", "is_reserved": 0, "is_disabled": 0, "bike_id": "e28a3fc201d4dc87dc8082057bb8f8f6", "lat": 38.8763525, "lon": -77.009547, "fusion_lat": 0.0, "name": "e28a3fc201d4dc87dc8082057bb8f8f6"}, {"fusion_lon": 0.0, "rental_uris": {"ios": "https://dc.lft.to/lastmile_qr_scan", "android": "https://dc.lft.to/lastmile_qr_scan"}, "type": "electric_scooter", "is_reserved": 0, "is_disabled": 0, "bike_id": "7e7a03f253eed861f78a43277ad1c88f", "lat": 38.898512833333335, "lon": -77.0138165, "fusion_lat": 0.0, "name": "7e7a03f253eed861f78a43277ad1c88f"}, {"fusion_lon": 0.0, "rental_uris": {"ios": "https://dc.lft.to/lastmile_qr_scan", "android": "https://dc.lft.to/lastmile_qr_scan"}, "type": "electric_bike", "is_reserved": 0, "is_disabled": 0, "bike_id": "4451ca9a6fe8e565f042c71dd36dbd75", "lat": 38.924401833333334, "lon": -76.97161016666666, "fusion_lat": 0.0, "name": "4451ca9a6fe8e565f042c71dd36dbd75"}, {"fusion_lon": 0.0, "rental_uris": {"ios": "https://dc.lft.to/lastmile_qr_scan", "android": "https://dc.lft.to/lastmile_qr_scan"}, "type": "electric_scooter", "is_reserved": 0, "is_disabled": 0, "bike_id": "84860daad868162e494f5c9c82b9e541", "lat": 38.9119235, "lon": -77.00727716666667, "fusion_lat": 0.0, "name": "84860daad868162e494f5c9c82b9e541"}, {"fusion_lon": 0.0, "rental_uris": {"ios": "https://dc.lft.to/lastmile_qr_scan", "android": "https://dc.lft.to/lastmile_qr_scan"}, "type": "electric_scooter", "is_reserved": 0, "is_disabled": 0, "bike_id": "5c817d772601c19ee5634a8c2a01899c", "lat": 38.899465166666666, "lon": -76.98840166666666, "fusion_lat": 0.0, "name": "5c817d772601c19ee5634a8c2a01899c"}, {"fusion_lon": 0.0, "rental_uris": {"ios": "https://dc.lft.to/lastmile_qr_scan", "android": "https://dc.lft.to/lastmile_qr_scan"}, "type": "electric_scooter", "is_reserved": 0, "is_disabled": 0, "bike_id": "1dab5f5e5d2bd29b6440f3109277935a", "lat": 38.91590083333333, "lon": -77.04611333333334, "fusion_lat": 0.0, "name": "1dab5f5e5d2bd29b6440f3109277935a"}, {"fusion_lon": 0.0, "rental_uris": {"ios": "https://dc.lft.to/lastmile_qr_scan", "android": "https://dc.lft.to/lastmile_qr_scan"}, "type": "electric_scooter", "is_reserved": 0, "is_disabled": 0, "bike_id": "ef29f12d037f4206607b1847704ef32d", "lat": 38.9266725, "lon": -76.99554816666667, "fusion_lat": 0.0, "name": "ef29f12d037f4206607b1847704ef32d"}, {"fusion_lon": 0.0, "rental_uris": {"ios": "https://dc.lft.to/lastmile_qr_scan", "android": "https://dc.lft.to/lastmile_qr_scan"}, "type": "electric_scooter", "is_reserved": 0, "is_disabled": 0, "bike_id": "00faa157cf12479a792025dadc077afb", "lat": 38.914947833333336, "lon": -77.0457445, "fusion_lat": 0.0, "name": "00faa157cf12479a792025dadc077afb"}, {"fusion_lon": 0.0, "rental_uris": {"ios": "https://dc.lft.to/lastmile_qr_scan", "android": "https://dc.lft.to/lastmile_qr_scan"}, "type": "electric_scooter", "is_reserved": 0, "is_disabled": 0, "bike_id": "ddc45d0e83480b360de6359f0ca52685", "lat": 38.89267783333333, "lon": -77.003562, "fusion_lat": 0.0, "name": "ddc45d0e83480b360de6359f0ca52685"}, {"fusion_lon": 0.0, "rental_uris": {"ios": "https://dc.lft.to/lastmile_qr_scan", "android": "https://dc.lft.to/lastmile_qr_scan"}, "type": "electric_scooter", "is_reserved": 0, "is_disabled": 0, "bike_id": "7b22e42af030755529bc919bf58f4d68", "lat": 38.932018666666664, "lon": -77.03749783333333, "fusion_lat": 0.0, "name": "7b22e42af030755529bc919bf58f4d68"}, {"fusion_lon": 0.0, "rental_uris": {"ios": "https://dc.lft.to/lastmile_qr_scan", "android": "https://dc.lft.to/lastmile_qr_scan"}, "type": "electric_scooter", "is_reserved": 0, "is_disabled": 0, "bike_id": "a58899eaba5bb824712432f00d04b783", "lat": 38.9015625, "lon": -77.05923883333334, "fusion_lat": 0.0, "name": "a58899eaba5bb824712432f00d04b783"}, {"fusion_lon": 0.0, "rental_uris": {"ios": "https://dc.lft.to/lastmile_qr_scan", "android": "https://dc.lft.to/lastmile_qr_scan"}, "type": "electric_scooter", "is_reserved": 0, "is_disabled": 0, "bike_id": "a7622f80f69b74e381559e5551393cf8", "lat": 38.882915833333335, "lon": -76.98935966666667, "fusion_lat": 0.0, "name": "a7622f80f69b74e381559e5551393cf8"}, {"fusion_lon": 0.0, "rental_uris": {"ios": "https://dc.lft.to/lastmile_qr_scan", "android": "https://dc.lft.to/lastmile_qr_scan"}, "type": "electric_scooter", "is_reserved": 0, "is_disabled": 0, "bike_id": "c7fd4ad244fcf445b71f41a216346d49", "lat": 38.94090966666667, "lon": -77.02717883333334, "fusion_lat": 0.0, "name": "c7fd4ad244fcf445b71f41a216346d49"}, {"fusion_lon": 0.0, "rental_uris": {"ios": "https://dc.lft.to/lastmile_qr_scan", "android": "https://dc.lft.to/lastmile_qr_scan"}, "type": "electric_scooter", "is_reserved": 0, "is_disabled": 0, "bike_id": "1f710f844b5893a265339b57047f9aed", "lat": 38.89747333333333, "lon": -77.041512, "fusion_lat": 0.0, "name": "1f710f844b5893a265339b57047f9aed"}, {"fusion_lon": 0.0, "rental_uris": {"ios": "https://dc.lft.to/lastmile_qr_scan", "android": "https://dc.lft.to/lastmile_qr_scan"}, "type": "electric_scooter", "is_reserved": 0, "is_disabled": 0, "bike_id": "59c263dce45d1419e61b9c2648b43c47", "lat": 38.923186666666666, "lon": -77.04340083333334, "fusion_lat": 0.0, "name": "59c263dce45d1419e61b9c2648b43c47"}, {"fusion_lon": 0.0, "rental_uris": {"ios": "https://dc.lft.to/lastmile_qr_scan", "android": "https://dc.lft.to/lastmile_qr_scan"}, "type": "electric_scooter", "is_reserved": 0, "is_disabled": 0, "bike_id": "a2825897e215b742f8521f7d9dff84d6", "lat": 38.91392533333333, "lon": -77.045713, "fusion_lat": 0.0, "name": "a2825897e215b742f8521f7d9dff84d6"}, {"fusion_lon": 0.0, "rental_uris": {"ios": "https://dc.lft.to/lastmile_qr_scan", "android": "https://dc.lft.to/lastmile_qr_scan"}, "type": "electric_bike", "is_reserved": 0, "is_disabled": 0, "bike_id": "69378ef1ccfca694c6bf9abfbb965047", "lat": 38.8731765, "lon": -77.11412766666666, "fusion_lat": 0.0, "name": "69378ef1ccfca694c6bf9abfbb965047"}, {"fusion_lon": 0.0, "rental_uris": {"ios": "https://dc.lft.to/lastmile_qr_scan", "android": "https://dc.lft.to/lastmile_qr_scan"}, "type": "electric_scooter", "is_reserved": 0, "is_disabled": 0, "bike_id": "859c1560f0d9d43b198018f9fa3a9e07", "lat": 38.892187, "lon": -77.02761633333333, "fusion_lat": 0.0, "name": "859c1560f0d9d43b198018f9fa3a9e07"}, {"fusion_lon": 0.0, "rental_uris": {"ios": "https://dc.lft.to/lastmile_qr_scan", "android": "https://dc.lft.to/lastmile_qr_scan"}, "type": "electric_scooter", "is_reserved": 0, "is_disabled": 0, "bike_id": "616f539caeaf0fef6b768ff36153f351", "lat": 38.8920035, "lon": -77.00295, "fusion_lat": 0.0, "name": "616f539caeaf0fef6b768ff36153f351"}, {"fusion_lon": 0.0, "rental_uris": {"ios": "https://dc.lft.to/lastmile_qr_scan", "android": "https://dc.lft.to/lastmile_qr_scan"}, "type": "electric_scooter", "is_reserved": 0, "is_disabled": 0, "bike_id": "acd999f9fdbc3b82953c91f74e53c6fe", "lat": 38.89544716666666, "lon": -76.98336333333333, "fusion_lat": 0.0, "name": "acd999f9fdbc3b82953c91f74e53c6fe"}, {"fusion_lon": 0.0, "rental_uris": {"ios": "https://dc.lft.to/lastmile_qr_scan", "android": "https://dc.lft.to/lastmile_qr_scan"}, "type": "electric_scooter", "is_reserved": 0, "is_disabled": 0, "bike_id": "5946e19e9a1d1a6ce6d7c9e6ff3a0e7d", "lat": 38.902686333333335, "lon": -77.03827, "fusion_lat": 0.0, "name": "5946e19e9a1d1a6ce6d7c9e6ff3a0e7d"}, {"fusion_lon": 0.0, "rental_uris": {"ios": "https://dc.lft.to/lastmile_qr_scan", "android": "https://dc.lft.to/lastmile_qr_scan"}, "type": "electric_scooter", "is_reserved": 0, "is_disabled": 0, "bike_id": "d713f466ba948d0ca3caa5c03fabf535", "lat": 38.898687, "lon": -77.004512, "fusion_lat": 0.0, "name": "d713f466ba948d0ca3caa5c03fabf535"}, {"fusion_lon": 0.0, "rental_uris": {"ios": "https://dc.lft.to/lastmile_qr_scan", "android": "https://dc.lft.to/lastmile_qr_scan"}, "type": "electric_scooter", "is_reserved": 0, "is_disabled": 0, "bike_id": "ac78fe38043f3c5c0268a8d64f747b1a", "lat": 38.924383666666664, "lon": -77.02034183333333, "fusion_lat": 0.0, "name": "ac78fe38043f3c5c0268a8d64f747b1a"}, {"fusion_lon": 0.0, "rental_uris": {"ios": "https://dc.lft.to/lastmile_qr_scan", "android": "https://dc.lft.to/lastmile_qr_scan"}, "type": "electric_bike", "is_reserved": 0, "is_disabled": 0, "bike_id": "dcbd08a34a7ab05ef0078aec6edb38f5", "lat": 39.0019705, "lon": -76.901828, "fusion_lat": 0.0, "name": "dcbd08a34a7ab05ef0078aec6edb38f5"}, {"fusion_lon": 0.0, "rental_uris": {"ios": "https://dc.lft.to/lastmile_qr_scan", "android": "https://dc.lft.to/lastmile_qr_scan"}, "type": "electric_scooter", "is_reserved": 0, "is_disabled": 0, "bike_id": "332dc1bc1c7dedb37092cab96496f072", "lat": 38.913467, "lon": -77.00926933333334, "fusion_lat": 0.0, "name": "332dc1bc1c7dedb37092cab96496f072"}, {"fusion_lon": 0.0, "rental_uris": {"ios": "https://dc.lft.to/lastmile_qr_scan", "android": "https://dc.lft.to/lastmile_qr_scan"}, "type": "electric_scooter", "is_reserved": 0, "is_disabled": 0, "bike_id": "3c3e935d345bb4af830a37f7df065499", "lat": 38.89852066666667, "lon": -76.9903095, "fusion_lat": 0.0, "name": "3c3e935d345bb4af830a37f7df065499"}, {"fusion_lon": 0.0, "rental_uris": {"ios": "https://dc.lft.to/lastmile_qr_scan", "android": "https://dc.lft.to/lastmile_qr_scan"}, "type": "electric_scooter", "is_reserved": 0, "is_disabled": 0, "bike_id": "6fb1730ef442a327121232af397986f0", "lat": 38.922624666666664, "lon": -77.00347566666667, "fusion_lat": 0.0, "name": "6fb1730ef442a327121232af397986f0"}, {"fusion_lon": 0.0, "rental_uris": {"ios": "https://dc.lft.to/lastmile_qr_scan", "android": "https://dc.lft.to/lastmile_qr_scan"}, "type": "electric_scooter", "is_reserved": 0, "is_disabled": 0, "bike_id": "7d5ab27ab65c8ce2b3d36f99bae34de2", "lat": 38.88959833333333, "lon": -76.9312075, "fusion_lat": 0.0, "name": "7d5ab27ab65c8ce2b3d36f99bae34de2"}, {"fusion_lon": 0.0, "rental_uris": {"ios": "https://dc.lft.to/lastmile_qr_scan", "android": "https://dc.lft.to/lastmile_qr_scan"}, "type": "electric_scooter", "is_reserved": 0, "is_disabled": 0, "bike_id": "976b0b99878b0d8b53b4425a4df2a383", "lat": 38.944408333333335, "lon": -77.06407416666667, "fusion_lat": 0.0, "name": "976b0b99878b0d8b53b4425a4df2a383"}, {"fusion_lon": 0.0, "rental_uris": {"ios": "https://dc.lft.to/lastmile_qr_scan", "android": "https://dc.lft.to/lastmile_qr_scan"}, "type": "electric_scooter", "is_reserved": 0, "is_disabled": 0, "bike_id": "e99baa7a6f84b46c557c4cce7ba5c682", "lat": 38.893548833333334, "lon": -77.00332833333333, "fusion_lat": 0.0, "name": "e99baa7a6f84b46c557c4cce7ba5c682"}, {"fusion_lon": 0.0, "rental_uris": {"ios": "https://dc.lft.to/lastmile_qr_scan", "android": "https://dc.lft.to/lastmile_qr_scan"}, "type": "electric_scooter", "is_reserved": 0, "is_disabled": 0, "bike_id": "92244b531afa062f606fe844c40df36b", "lat": 38.917024833333336, "lon": -77.028964, "fusion_lat": 0.0, "name": "92244b531afa062f606fe844c40df36b"}, {"fusion_lon": 0.0, "rental_uris": {"ios": "https://dc.lft.to/lastmile_qr_scan", "android": "https://dc.lft.to/lastmile_qr_scan"}, "type": "electric_scooter", "is_reserved": 0, "is_disabled": 0, "bike_id": "d2877a9be59637933a1aee09c1c1c76c", "lat": 38.89806983333333, "lon": -77.048813, "fusion_lat": 0.0, "name": "d2877a9be59637933a1aee09c1c1c76c"}, {"fusion_lon": 0.0, "rental_uris": {"ios": "https://dc.lft.to/lastmile_qr_scan", "android": "https://dc.lft.to/lastmile_qr_scan"}, "type": "electric_scooter", "is_reserved": 0, "is_disabled": 0, "bike_id": "52e15369ebe2d1f988e002c64fb99e9c", "lat": 38.9236475, "lon": -77.043145, "fusion_lat": 0.0, "name": "52e15369ebe2d1f988e002c64fb99e9c"}, {"fusion_lon": 0.0, "rental_uris": {"ios": "https://dc.lft.to/lastmile_qr_scan", "android": "https://dc.lft.to/lastmile_qr_scan"}, "type": "electric_scooter", "is_reserved": 0, "is_disabled": 0, "bike_id": "a8d2123a85e45a5a26fd8476a9a1a775", "lat": 38.894047666666665, "lon": -77.02208, "fusion_lat": 0.0, "name": "a8d2123a85e45a5a26fd8476a9a1a775"}, {"fusion_lon": 0.0, "rental_uris": {"ios": "https://dc.lft.to/lastmile_qr_scan", "android": "https://dc.lft.to/lastmile_qr_scan"}, "type": "electric_scooter", "is_reserved": 0, "is_disabled": 0, "bike_id": "d14ba049ba4bc9ae32ead29171a12e9a", "lat": 38.91099116666667, "lon": -77.031826, "fusion_lat": 0.0, "name": "d14ba049ba4bc9ae32ead29171a12e9a"}, {"fusion_lon": 0.0, "rental_uris": {"ios": "https://dc.lft.to/lastmile_qr_scan", "android": "https://dc.lft.to/lastmile_qr_scan"}, "type": "electric_scooter", "is_reserved": 0, "is_disabled": 0, "bike_id": "7a52aaad4c5bcb306822ea7d3ebf12b8", "lat": 38.888594, "lon": -76.97905333333334, "fusion_lat": 0.0, "name": "7a52aaad4c5bcb306822ea7d3ebf12b8"}, {"fusion_lon": 0.0, "rental_uris": {"ios": "https://dc.lft.to/lastmile_qr_scan", "android": "https://dc.lft.to/lastmile_qr_scan"}, "type": "electric_scooter", "is_reserved": 0, "is_disabled": 0, "bike_id": "d9ee10c25d5ee598f0fc6a69ce89521c", "lat": 38.909792833333334, "lon": -77.00890883333334, "fusion_lat": 0.0, "name": "d9ee10c25d5ee598f0fc6a69ce89521c"}, {"fusion_lon": 0.0, "rental_uris": {"ios": "https://dc.lft.to/lastmile_qr_scan", "android": "https://dc.lft.to/lastmile_qr_scan"}, "type": "electric_scooter", "is_reserved": 0, "is_disabled": 0, "bike_id": "abc02574c1c986fbe880d1af1003685c", "lat": 38.89363483333333, "lon": -77.00334, "fusion_lat": 0.0, "name": "abc02574c1c986fbe880d1af1003685c"}, {"fusion_lon": 0.0, "rental_uris": {"ios": "https://dc.lft.to/lastmile_qr_scan", "android": "https://dc.lft.to/lastmile_qr_scan"}, "type": "electric_scooter", "is_reserved": 0, "is_disabled": 0, "bike_id": "8e5f2b72a581ebb76de1bcee589b888f", "lat": 38.89046333333334, "lon": -76.989781, "fusion_lat": 0.0, "name": "8e5f2b72a581ebb76de1bcee589b888f"}, {"fusion_lon": 0.0, "rental_uris": {"ios": "https://dc.lft.to/lastmile_qr_scan", "android": "https://dc.lft.to/lastmile_qr_scan"}, "type": "electric_scooter", "is_reserved": 0, "is_disabled": 0, "bike_id": "ee7421cdd66183bd64f46106ee22abd4", "lat": 38.884916833333335, "lon": -77.00713366666666, "fusion_lat": 0.0, "name": "ee7421cdd66183bd64f46106ee22abd4"}, {"fusion_lon": 0.0, "rental_uris": {"ios": "https://dc.lft.to/lastmile_qr_scan", "android": "https://dc.lft.to/lastmile_qr_scan"}, "type": "electric_scooter", "is_reserved": 0, "is_disabled": 0, "bike_id": "f08dc8bdc12bd2580bd79ad2dd169c0a", "lat": 38.878888333333336, "lon": -77.00053083333333, "fusion_lat": 0.0, "name": "f08dc8bdc12bd2580bd79ad2dd169c0a"}, {"fusion_lon": 0.0, "rental_uris": {"ios": "https://dc.lft.to/lastmile_qr_scan", "android": "https://dc.lft.to/lastmile_qr_scan"}, "type": "electric_scooter", "is_reserved": 0, "is_disabled": 0, "bike_id": "c82df9bad45e13d9a937b0175e7abc76", "lat": 38.909794, "lon": -77.048745, "fusion_lat": 0.0, "name": "c82df9bad45e13d9a937b0175e7abc76"}, {"fusion_lon": 0.0, "rental_uris": {"ios": "https://dc.lft.to/lastmile_qr_scan", "android": "https://dc.lft.to/lastmile_qr_scan"}, "type": "electric_scooter", "is_reserved": 0, "is_disabled": 0, "bike_id": "7043e12b22210005a3cefff7a44fb7d8", "lat": 38.8868895, "lon": -76.97638816666667, "fusion_lat": 0.0, "name": "7043e12b22210005a3cefff7a44fb7d8"}, {"fusion_lon": 0.0, "rental_uris": {"ios": "https://dc.lft.to/lastmile_qr_scan", "android": "https://dc.lft.to/lastmile_qr_scan"}, "type": "electric_scooter", "is_reserved": 0, "is_disabled": 0, "bike_id": "65113cc7a794b0ec45288b9a1f4a343c", "lat": 38.905744166666665, "lon": -77.0011495, "fusion_lat": 0.0, "name": "65113cc7a794b0ec45288b9a1f4a343c"}, {"fusion_lon": 0.0, "rental_uris": {"ios": "https://dc.lft.to/lastmile_qr_scan", "android": "https://dc.lft.to/lastmile_qr_scan"}, "type": "electric_scooter", "is_reserved": 0, "is_disabled": 0, "bike_id": "c86d0fda7c8bb24ec7852c6574b2b6f9", "lat": 38.9098935, "lon": -77.06477433333333, "fusion_lat": 0.0, "name": "c86d0fda7c8bb24ec7852c6574b2b6f9"}, {"fusion_lon": 0.0, "rental_uris": {"ios": "https://dc.lft.to/lastmile_qr_scan", "android": "https://dc.lft.to/lastmile_qr_scan"}, "type": "electric_scooter", "is_reserved": 0, "is_disabled": 0, "bike_id": "4f1c34e5f1295b44006ddfce8c937ec8", "lat": 38.901275, "lon": -77.04093183333333, "fusion_lat": 0.0, "name": "4f1c34e5f1295b44006ddfce8c937ec8"}, {"fusion_lon": 0.0, "rental_uris": {"ios": "https://dc.lft.to/lastmile_qr_scan", "android": "https://dc.lft.to/lastmile_qr_scan"}, "type": "electric_scooter", "is_reserved": 0, "is_disabled": 0, "bike_id": "70613b60673287507984867c6666425c", "lat": 38.84718616666667, "lon": -76.9681815, "fusion_lat": 0.0, "name": "70613b60673287507984867c6666425c"}, {"fusion_lon": 0.0, "rental_uris": {"ios": "https://dc.lft.to/lastmile_qr_scan", "android": "https://dc.lft.to/lastmile_qr_scan"}, "type": "electric_bike", "is_reserved": 0, "is_disabled": 0, "bike_id": "375130d7bb2ba9c891ca37447c0f6982", "lat": 38.875767, "lon": -77.2341215, "fusion_lat": 0.0, "name": "375130d7bb2ba9c891ca37447c0f6982"}, {"fusion_lon": 0.0, "rental_uris": {"ios": "https://dc.lft.to/lastmile_qr_scan", "android": "https://dc.lft.to/lastmile_qr_scan"}, "type": "electric_scooter", "is_reserved": 0, "is_disabled": 0, "bike_id": "c77c37feeb780e167d1c85f96f609172", "lat": 38.89540983333333, "lon": -76.94892, "fusion_lat": 0.0, "name": "c77c37feeb780e167d1c85f96f609172"}, {"fusion_lon": 0.0, "rental_uris": {"ios": "https://dc.lft.to/lastmile_qr_scan", "android": "https://dc.lft.to/lastmile_qr_scan"}, "type": "electric_scooter", "is_reserved": 0, "is_disabled": 0, "bike_id": "f7313696dc136dd5e87fa874c7429882", "lat": 38.92790983333333, "lon": -77.02719883333333, "fusion_lat": 0.0, "name": "f7313696dc136dd5e87fa874c7429882"}, {"fusion_lon": 0.0, "rental_uris": {"ios": "https://dc.lft.to/lastmile_qr_scan", "android": "https://dc.lft.to/lastmile_qr_scan"}, "type": "electric_scooter", "is_reserved": 0, "is_disabled": 0, "bike_id": "73cfc1bff4a7e1e3a6ecaad2908a0a27", "lat": 38.9431215, "lon": -77.02947483333334, "fusion_lat": 0.0, "name": "73cfc1bff4a7e1e3a6ecaad2908a0a27"}, {"fusion_lon": 0.0, "rental_uris": {"ios": "https://dc.lft.to/lastmile_qr_scan", "android": "https://dc.lft.to/lastmile_qr_scan"}, "type": "electric_scooter", "is_reserved": 0, "is_disabled": 0, "bike_id": "9626e90c514022195ad4fb9895ec6641", "lat": 38.929135, "lon": -77.018685, "fusion_lat": 0.0, "name": "9626e90c514022195ad4fb9895ec6641"}, {"fusion_lon": 0.0, "rental_uris": {"ios": "https://dc.lft.to/lastmile_qr_scan", "android": "https://dc.lft.to/lastmile_qr_scan"}, "type": "electric_bike", "is_reserved": 0, "is_disabled": 0, "bike_id": "140b3468d46cc2c3641aa797ecd7efbc", "lat": 38.89562033333333, "lon": -77.1273065, "fusion_lat": 0.0, "name": "140b3468d46cc2c3641aa797ecd7efbc"}, {"fusion_lon": 0.0, "rental_uris": {"ios": "https://dc.lft.to/lastmile_qr_scan", "android": "https://dc.lft.to/lastmile_qr_scan"}, "type": "electric_scooter", "is_reserved": 0, "is_disabled": 0, "bike_id": "137f2368e28f47c1a25ac14247ef9490", "lat": 38.910388, "lon": -77.04352, "fusion_lat": 0.0, "name": "137f2368e28f47c1a25ac14247ef9490"}, {"fusion_lon": 0.0, "rental_uris": {"ios": "https://dc.lft.to/lastmile_qr_scan", "android": "https://dc.lft.to/lastmile_qr_scan"}, "type": "electric_scooter", "is_reserved": 0, "is_disabled": 0, "bike_id": "865e885e9678c55d3818098ade0b141b", "lat": 38.90395183333333, "lon": -76.99047683333333, "fusion_lat": 0.0, "name": "865e885e9678c55d3818098ade0b141b"}, {"fusion_lon": 0.0, "rental_uris": {"ios": "https://dc.lft.to/lastmile_qr_scan", "android": "https://dc.lft.to/lastmile_qr_scan"}, "type": "electric_scooter", "is_reserved": 0, "is_disabled": 0, "bike_id": "ef6679c8b4f1a9c6e1fa1e0d744818f2", "lat": 38.92382516666667, "lon": -77.03057516666667, "fusion_lat": 0.0, "name": "ef6679c8b4f1a9c6e1fa1e0d744818f2"}, {"fusion_lon": 0.0, "rental_uris": {"ios": "https://dc.lft.to/lastmile_qr_scan", "android": "https://dc.lft.to/lastmile_qr_scan"}, "type": "electric_scooter", "is_reserved": 0, "is_disabled": 0, "bike_id": "de3d1bacc9a32cd6caf1d20399638003", "lat": 38.92252333333333, "lon": -77.04716366666666, "fusion_lat": 0.0, "name": "de3d1bacc9a32cd6caf1d20399638003"}, {"fusion_lon": 0.0, "rental_uris": {"ios": "https://dc.lft.to/lastmile_qr_scan", "android": "https://dc.lft.to/lastmile_qr_scan"}, "type": "electric_scooter", "is_reserved": 0, "is_disabled": 0, "bike_id": "0d0c60ff4745a4941142bebb92efa4b1", "lat": 38.924190833333334, "lon": -77.0194705, "fusion_lat": 0.0, "name": "0d0c60ff4745a4941142bebb92efa4b1"}, {"fusion_lon": 0.0, "rental_uris": {"ios": "https://dc.lft.to/lastmile_qr_scan", "android": "https://dc.lft.to/lastmile_qr_scan"}, "type": "electric_scooter", "is_reserved": 0, "is_disabled": 0, "bike_id": "523c54152fac527bdaeaac9ae0638f1c", "lat": 38.90777716666667, "lon": -77.06294283333334, "fusion_lat": 0.0, "name": "523c54152fac527bdaeaac9ae0638f1c"}, {"fusion_lon": 0.0, "rental_uris": {"ios": "https://dc.lft.to/lastmile_qr_scan", "android": "https://dc.lft.to/lastmile_qr_scan"}, "type": "electric_scooter", "is_reserved": 0, "is_disabled": 0, "bike_id": "c5f910dc61d403c370615d255c65fb5e", "lat": 38.949821166666666, "lon": -77.026977, "fusion_lat": 0.0, "name": "c5f910dc61d403c370615d255c65fb5e"}, {"fusion_lon": 0.0, "rental_uris": {"ios": "https://dc.lft.to/lastmile_qr_scan", "android": "https://dc.lft.to/lastmile_qr_scan"}, "type": "electric_scooter", "is_reserved": 0, "is_disabled": 0, "bike_id": "9082735a075f426d6b831e8818c19e02", "lat": 38.9203695, "lon": -77.02583616666666, "fusion_lat": 0.0, "name": "9082735a075f426d6b831e8818c19e02"}, {"fusion_lon": 0.0, "rental_uris": {"ios": "https://dc.lft.to/lastmile_qr_scan", "android": "https://dc.lft.to/lastmile_qr_scan"}, "type": "electric_scooter", "is_reserved": 0, "is_disabled": 0, "bike_id": "ed65c7fbfd4db54f498a613b5717b33a", "lat": 38.9063845, "lon": -77.051317, "fusion_lat": 0.0, "name": "ed65c7fbfd4db54f498a613b5717b33a"}, {"fusion_lon": 0.0, "rental_uris": {"ios": "https://dc.lft.to/lastmile_qr_scan", "android": "https://dc.lft.to/lastmile_qr_scan"}, "type": "electric_scooter", "is_reserved": 0, "is_disabled": 0, "bike_id": "dff99b460ed2b39ee42f3fbb4a74d077", "lat": 38.899257666666664, "lon": -77.039772, "fusion_lat": 0.0, "name": "dff99b460ed2b39ee42f3fbb4a74d077"}, {"fusion_lon": 0.0, "rental_uris": {"ios": "https://dc.lft.to/lastmile_qr_scan", "android": "https://dc.lft.to/lastmile_qr_scan"}, "type": "electric_scooter", "is_reserved": 0, "is_disabled": 0, "bike_id": "fad4ca9683750b417d0be32e8a701b32", "lat": 38.927158666666664, "lon": -77.02082033333333, "fusion_lat": 0.0, "name": "fad4ca9683750b417d0be32e8a701b32"}, {"fusion_lon": 0.0, "rental_uris": {"ios": "https://dc.lft.to/lastmile_qr_scan", "android": "https://dc.lft.to/lastmile_qr_scan"}, "type": "electric_scooter", "is_reserved": 0, "is_disabled": 0, "bike_id": "720b7712096173ac526d14848edf882d", "lat": 38.86270016666667, "lon": -76.99567966666666, "fusion_lat": 0.0, "name": "720b7712096173ac526d14848edf882d"}, {"fusion_lon": 0.0, "rental_uris": {"ios": "https://dc.lft.to/lastmile_qr_scan", "android": "https://dc.lft.to/lastmile_qr_scan"}, "type": "electric_scooter", "is_reserved": 0, "is_disabled": 0, "bike_id": "6522e5f395896e581041745a12298edc", "lat": 38.9047075, "lon": -77.02143716666667, "fusion_lat": 0.0, "name": "6522e5f395896e581041745a12298edc"}, {"fusion_lon": 0.0, "rental_uris": {"ios": "https://dc.lft.to/lastmile_qr_scan", "android": "https://dc.lft.to/lastmile_qr_scan"}, "type": "electric_scooter", "is_reserved": 0, "is_disabled": 0, "bike_id": "8818cd4ce6d311d92b17b6d492916efb", "lat": 38.92467283333333, "lon": -77.05236633333334, "fusion_lat": 0.0, "name": "8818cd4ce6d311d92b17b6d492916efb"}, {"fusion_lon": 0.0, "rental_uris": {"ios": "https://dc.lft.to/lastmile_qr_scan", "android": "https://dc.lft.to/lastmile_qr_scan"}, "type": "electric_scooter", "is_reserved": 0, "is_disabled": 0, "bike_id": "10bb254f33f4a57dae09868daa7dc526", "lat": 38.9161885, "lon": -77.041608, "fusion_lat": 0.0, "name": "10bb254f33f4a57dae09868daa7dc526"}, {"fusion_lon": 0.0, "rental_uris": {"ios": "https://dc.lft.to/lastmile_qr_scan", "android": "https://dc.lft.to/lastmile_qr_scan"}, "type": "electric_scooter", "is_reserved": 0, "is_disabled": 0, "bike_id": "13efdb139ba3340f032316524c21f49c", "lat": 38.885078666666665, "lon": -77.00568416666667, "fusion_lat": 0.0, "name": "13efdb139ba3340f032316524c21f49c"}, {"fusion_lon": 0.0, "rental_uris": {"ios": "https://dc.lft.to/lastmile_qr_scan", "android": "https://dc.lft.to/lastmile_qr_scan"}, "type": "electric_scooter", "is_reserved": 0, "is_disabled": 0, "bike_id": "6a318d71030d62ec34e121d60d846f7d", "lat": 38.90639516666667, "lon": -77.00608983333333, "fusion_lat": 0.0, "name": "6a318d71030d62ec34e121d60d846f7d"}, {"fusion_lon": 0.0, "rental_uris": {"ios": "https://dc.lft.to/lastmile_qr_scan", "android": "https://dc.lft.to/lastmile_qr_scan"}, "type": "electric_scooter", "is_reserved": 0, "is_disabled": 0, "bike_id": "9043d04a723c4db8eedf9c2c56aabeec", "lat": 38.91738633333333, "lon": -77.0364305, "fusion_lat": 0.0, "name": "9043d04a723c4db8eedf9c2c56aabeec"}, {"fusion_lon": 0.0, "rental_uris": {"ios": "https://dc.lft.to/lastmile_qr_scan", "android": "https://dc.lft.to/lastmile_qr_scan"}, "type": "electric_scooter", "is_reserved": 0, "is_disabled": 0, "bike_id": "569770ef9f7e744e72b158a3f3b26155", "lat": 38.90141283333333, "lon": -77.04182616666667, "fusion_lat": 0.0, "name": "569770ef9f7e744e72b158a3f3b26155"}, {"fusion_lon": 0.0, "rental_uris": {"ios": "https://dc.lft.to/lastmile_qr_scan", "android": "https://dc.lft.to/lastmile_qr_scan"}, "type": "electric_scooter", "is_reserved": 0, "is_disabled": 0, "bike_id": "50d3ce9ffa9b0e820e6bcdf83315509a", "lat": 38.88396983333333, "lon": -76.9950735, "fusion_lat": 0.0, "name": "50d3ce9ffa9b0e820e6bcdf83315509a"}, {"fusion_lon": 0.0, "rental_uris": {"ios": "https://dc.lft.to/lastmile_qr_scan", "android": "https://dc.lft.to/lastmile_qr_scan"}, "type": "electric_scooter", "is_reserved": 0, "is_disabled": 0, "bike_id": "cc4ef31682428450e0c791351cd0df5e", "lat": 38.90799833333333, "lon": -77.00006416666666, "fusion_lat": 0.0, "name": "cc4ef31682428450e0c791351cd0df5e"}, {"fusion_lon": 0.0, "rental_uris": {"ios": "https://dc.lft.to/lastmile_qr_scan", "android": "https://dc.lft.to/lastmile_qr_scan"}, "type": "electric_scooter", "is_reserved": 0, "is_disabled": 0, "bike_id": "0a33d6e2f774b59d64b751a619a17e94", "lat": 38.887330166666665, "lon": -77.031757, "fusion_lat": 0.0, "name": "0a33d6e2f774b59d64b751a619a17e94"}, {"fusion_lon": 0.0, "rental_uris": {"ios": "https://dc.lft.to/lastmile_qr_scan", "android": "https://dc.lft.to/lastmile_qr_scan"}, "type": "electric_scooter", "is_reserved": 0, "is_disabled": 0, "bike_id": "479bd403ac73f530a55f85d29ad50bda", "lat": 38.91657, "lon": -77.02197566666666, "fusion_lat": 0.0, "name": "479bd403ac73f530a55f85d29ad50bda"}, {"fusion_lon": 0.0, "rental_uris": {"ios": "https://dc.lft.to/lastmile_qr_scan", "android": "https://dc.lft.to/lastmile_qr_scan"}, "type": "electric_scooter", "is_reserved": 0, "is_disabled": 0, "bike_id": "b784661683991c9f72b841e57db71b66", "lat": 38.919874, "lon": -77.03810916666667, "fusion_lat": 0.0, "name": "b784661683991c9f72b841e57db71b66"}, {"fusion_lon": 0.0, "rental_uris": {"ios": "https://dc.lft.to/lastmile_qr_scan", "android": "https://dc.lft.to/lastmile_qr_scan"}, "type": "electric_scooter", "is_reserved": 0, "is_disabled": 0, "bike_id": "2fc67a7ef0a38c8cd264327f460c0960", "lat": 38.90543066666667, "lon": -77.05909366666667, "fusion_lat": 0.0, "name": "2fc67a7ef0a38c8cd264327f460c0960"}, {"fusion_lon": 0.0, "rental_uris": {"ios": "https://dc.lft.to/lastmile_qr_scan", "android": "https://dc.lft.to/lastmile_qr_scan"}, "type": "electric_scooter", "is_reserved": 0, "is_disabled": 0, "bike_id": "567d17848ec7f62801fbd67f786f5534", "lat": 38.901508166666666, "lon": -77.04387816666667, "fusion_lat": 0.0, "name": "567d17848ec7f62801fbd67f786f5534"}, {"fusion_lon": 0.0, "rental_uris": {"ios": "https://dc.lft.to/lastmile_qr_scan", "android": "https://dc.lft.to/lastmile_qr_scan"}, "type": "electric_scooter", "is_reserved": 0, "is_disabled": 0, "bike_id": "ebc175bb83ef16f08830420367f9bffa", "lat": 38.8992345, "lon": -77.039256, "fusion_lat": 0.0, "name": "ebc175bb83ef16f08830420367f9bffa"}, {"fusion_lon": 0.0, "rental_uris": {"ios": "https://dc.lft.to/lastmile_qr_scan", "android": "https://dc.lft.to/lastmile_qr_scan"}, "type": "electric_scooter", "is_reserved": 0, "is_disabled": 0, "bike_id": "bd761834d51765c8062fce9885065822", "lat": 38.905736166666664, "lon": -77.035597, "fusion_lat": 0.0, "name": "bd761834d51765c8062fce9885065822"}, {"fusion_lon": 0.0, "rental_uris": {"ios": "https://dc.lft.to/lastmile_qr_scan", "android": "https://dc.lft.to/lastmile_qr_scan"}, "type": "electric_scooter", "is_reserved": 0, "is_disabled": 0, "bike_id": "1896e90d09a40f423dccd989c53d72ca", "lat": 38.906698, "lon": -77.0269405, "fusion_lat": 0.0, "name": "1896e90d09a40f423dccd989c53d72ca"}, {"fusion_lon": 0.0, "rental_uris": {"ios": "https://dc.lft.to/lastmile_qr_scan", "android": "https://dc.lft.to/lastmile_qr_scan"}, "type": "electric_scooter", "is_reserved": 0, "is_disabled": 0, "bike_id": "26326b8f7e45e56d4a02757269710891", "lat": 38.90051166666667, "lon": -77.047253, "fusion_lat": 0.0, "name": "26326b8f7e45e56d4a02757269710891"}, {"fusion_lon": 0.0, "rental_uris": {"ios": "https://dc.lft.to/lastmile_qr_scan", "android": "https://dc.lft.to/lastmile_qr_scan"}, "type": "electric_scooter", "is_reserved": 0, "is_disabled": 0, "bike_id": "ebd02be40177f0e795dab0920b80bf1a", "lat": 38.872373, "lon": -76.9681325, "fusion_lat": 0.0, "name": "ebd02be40177f0e795dab0920b80bf1a"}, {"fusion_lon": 0.0, "rental_uris": {"ios": "https://dc.lft.to/lastmile_qr_scan", "android": "https://dc.lft.to/lastmile_qr_scan"}, "type": "electric_scooter", "is_reserved": 0, "is_disabled": 0, "bike_id": "868d02944bfd926647574059377adbcf", "lat": 38.904095, "lon": -77.065166, "fusion_lat": 0.0, "name": "868d02944bfd926647574059377adbcf"}, {"fusion_lon": 0.0, "rental_uris": {"ios": "https://dc.lft.to/lastmile_qr_scan", "android": "https://dc.lft.to/lastmile_qr_scan"}, "type": "electric_scooter", "is_reserved": 0, "is_disabled": 0, "bike_id": "4256030eb03299a4f5b6ff2d5c73ff9b", "lat": 38.93264933333333, "lon": -77.0327025, "fusion_lat": 0.0, "name": "4256030eb03299a4f5b6ff2d5c73ff9b"}, {"fusion_lon": 0.0, "rental_uris": {"ios": "https://dc.lft.to/lastmile_qr_scan", "android": "https://dc.lft.to/lastmile_qr_scan"}, "type": "electric_scooter", "is_reserved": 0, "is_disabled": 0, "bike_id": "e59061dbffbe888df83ef31d70b6e200", "lat": 38.91445266666667, "lon": -77.02293183333333, "fusion_lat": 0.0, "name": "e59061dbffbe888df83ef31d70b6e200"}, {"fusion_lon": 0.0, "rental_uris": {"ios": "https://dc.lft.to/lastmile_qr_scan", "android": "https://dc.lft.to/lastmile_qr_scan"}, "type": "electric_scooter", "is_reserved": 0, "is_disabled": 0, "bike_id": "a76f585c5297c488bb61024b978fa71a", "lat": 38.90070083333333, "lon": -77.00906216666667, "fusion_lat": 0.0, "name": "a76f585c5297c488bb61024b978fa71a"}, {"fusion_lon": 0.0, "rental_uris": {"ios": "https://dc.lft.to/lastmile_qr_scan", "android": "https://dc.lft.to/lastmile_qr_scan"}, "type": "electric_scooter", "is_reserved": 0, "is_disabled": 0, "bike_id": "77ceae78902ba1aefe921bb3f71dd9cd", "lat": 38.906031666666664, "lon": -77.02112466666667, "fusion_lat": 0.0, "name": "77ceae78902ba1aefe921bb3f71dd9cd"}, {"fusion_lon": 0.0, "rental_uris": {"ios": "https://dc.lft.to/lastmile_qr_scan", "android": "https://dc.lft.to/lastmile_qr_scan"}, "type": "electric_scooter", "is_reserved": 0, "is_disabled": 0, "bike_id": "d70e62955dfed9ac10a9f04a2815ed8f", "lat": 38.884865833333336, "lon": -77.03343666666666, "fusion_lat": 0.0, "name": "d70e62955dfed9ac10a9f04a2815ed8f"}, {"fusion_lon": 0.0, "rental_uris": {"ios": "https://dc.lft.to/lastmile_qr_scan", "android": "https://dc.lft.to/lastmile_qr_scan"}, "type": "electric_scooter", "is_reserved": 0, "is_disabled": 0, "bike_id": "c4b90087328fccd074008ec90de62419", "lat": 38.90126633333333, "lon": -77.03844483333333, "fusion_lat": 0.0, "name": "c4b90087328fccd074008ec90de62419"}, {"fusion_lon": 0.0, "rental_uris": {"ios": "https://dc.lft.to/lastmile_qr_scan", "android": "https://dc.lft.to/lastmile_qr_scan"}, "type": "electric_scooter", "is_reserved": 0, "is_disabled": 0, "bike_id": "33ee0d7d01d1824ae9823d5d6018488d", "lat": 38.940076, "lon": -77.0274365, "fusion_lat": 0.0, "name": "33ee0d7d01d1824ae9823d5d6018488d"}, {"fusion_lon": 0.0, "rental_uris": {"ios": "https://dc.lft.to/lastmile_qr_scan", "android": "https://dc.lft.to/lastmile_qr_scan"},