{"data": {"bikes": [{"fusion_lat": 0.0, "name": "157264b59eab70848fe19b03ab95a67b", "is_disabled": 0, "rental_uris": {"android": "https://dc.lft.to/lastmile_qr_scan", "ios": "https://dc.lft.to/lastmile_qr_scan"}, "fusion_lon": 0.0, "lat": 38.90795883333333, "bike_id": "157264b59eab70848fe19b03ab95a67b", "type": "electric_scooter", "is_reserved": 0, "lon": -77.0295745}, {"fusion_lat": 0.0, "name": "865bcb04f2fc00607776d6859a5fa53d", "is_disabled": 0, "rental_uris": {"android": "https://dc.lft.to/lastmile_qr_scan", "ios": "https://dc.lft.to/lastmile_qr_scan"}, "fusion_lon": 0.0, "lat": 38.8773685, "bike_id": "865bcb04f2fc00607776d6859a5fa53d", "type": "electric_scooter", "is_reserved": 0, "lon": -76.97027866666667}, {"fusion_lat": 0.0, "name": "1e2d445844b8b3d0944234ee04e7b99f", "is_disabled": 0, "rental_uris": {"android": "https://dc.lft.to/lastmile_qr_scan", "ios": "https://dc.lft.to/lastmile_qr_scan"}, "fusion_lon": 0.0, "lat": 38.926547166666666, "bike_id": "1e2d445844b8b3d0944234ee04e7b99f", "type": "electric_scooter", "is_reserved": 0, "lon": -77.02600116666666}, {"fusion_lat": 0.0, "name": "4c259a728d7f400e7a0f9c992fecfcc0", "is_disabled": 0, "rental_uris": {"android": "https://dc.lft.to/lastmile_qr_scan", "ios": "https://dc.lft.to/lastmile_qr_scan"}, "fusion_lon": 0.0, "lat": 38.9035215, "bike_id": "4c259a728d7f400e7a0f9c992fecfcc0", "type": "electric_scooter", "is_reserved": 0, "lon": -77.03650416666666}, {"fusion_lat": 0.0, "name": "652ef6942f872d6d052e3a41fdb93bb6", "is_disabled": 0, "rental_uris": {"android": "https://dc.lft.to/lastmile_qr_scan", "ios": "https://dc.lft.to/lastmile_qr_scan"}, "fusion_lon": 0.0, "lat": 38.98789883333333, "bike_id": "652ef6942f872d6d052e3a41fdb93bb6", "type": "electric_scooter", "is_reserved": 0, "lon": -77.0241605}, {"fusion_lat": 0.0, "name": "8c6ee48583f4e539e692b93299eb13d9", "is_disabled": 0, "rental_uris": {"android": "https://dc.lft.to/lastmile_qr_scan", "ios": "https://dc.lft.to/lastmile_qr_scan"}, "fusion_lon": 0.0, "lat": 38.90399583333333, "bike_id": "8c6ee48583f4e539e692b93299eb13d9", "type": "electric_scooter", "is_reserved": 0, "lon": -77.04875833333334}, {"fusion_lat": 0.0, "name": "af5325a73552f48046d3ba5e22d5f50b", "is_disabled": 0, "rental_uris": {"android": "https://dc.lft.to/lastmile_qr_scan", "ios": "https://dc.lft.to/lastmile_qr_scan"}, "fusion_lon": 0.0, "lat": 38.99222433333333, "bike_id": "af5325a73552f48046d3ba5e22d5f50b", "type": "electric_bike", "is_reserved": 0, "lon": -76.9443485}, {"fusion_lat": 0.0, "name": "f57307e80a6a1a564065fc40d0ff96e3", "is_disabled": 0, "rental_uris": {"android": "https://dc.lft.to/lastmile_qr_scan", "ios": "https://dc.lft.to/lastmile_qr_scan"}, "fusion_lon": 0.0, "lat": 38.8923465, "bike_id": "f57307e80a6a1a564065fc40d0ff96e3", "type": "electric_scooter", "is_reserved": 0, "lon": -77.04873483333333}, {"fusion_lat": 0.0, "name": "5e738c0ac4d27b5bc9fadda93c1ad8b6", "is_disabled": 0, "rental_uris": {"android": "https://dc.lft.to/lastmile_qr_scan", "ios": "https://dc.lft.to/lastmile_qr_scan"}, "fusion_lon": 0.0, "lat": 38.924425666666664, "bike_id": "5e738c0ac4d27b5bc9fadda93c1ad8b6", "type": "electric_scooter", "is_reserved": 0, "lon": -77.02022433333333}, {"fusion_lat": 0.0, "name": "6eb6a241b5532f9dd8206d53bee7d622", "is_disabled": 0, "rental_uris": {"android": "https://dc.lft.to/lastmile_qr_scan", "ios": "https://dc.lft.to/lastmile_qr_scan"}, "fusion_lon": 0.0, "lat": 38.91404766666667, "bike_id": "6eb6a241b5532f9dd8206d53bee7d622", "type": "electric_scooter", "is_reserved": 0, "lon": -77.02205366666666}, {"fusion_lat": 0.0, "name": "207d8f6f798ae01988f47745be9031a7", "is_disabled": 0, "rental_uris": {"android": "https://dc.lft.to/lastmile_qr_scan", "ios": "https://dc.lft.to/lastmile_qr_scan"}, "fusion_lon": 0.0, "lat": 38.921364833333335, "bike_id": "207d8f6f798ae01988f47745be9031a7", "type": "electric_scooter", "is_reserved": 0, "lon": -77.00401483333333}, {"fusion_lat": 0.0, "name": "ab3f8fc0442e87f1e2550c83d311d414", "is_disabled": 0, "rental_uris": {"android": "https://dc.lft.to/lastmile_qr_scan", "ios": "https://dc.lft.to/lastmile_qr_scan"}, "fusion_lon": 0.0, "lat": 38.91940133333333, "bike_id": "ab3f8fc0442e87f1e2550c83d311d414", "type": "electric_scooter", "is_reserved": 0, "lon": -77.04171566666666}, {"fusion_lat": 0.0, "name": "b03df344641cdd199534adc9a7dced6f", "is_disabled": 0, "rental_uris": {"android": "https://dc.lft.to/lastmile_qr_scan", "ios": "https://dc.lft.to/lastmile_qr_scan"}, "fusion_lon": 0.0, "lat": 38.91650833333333, "bike_id": "b03df344641cdd199534adc9a7dced6f", "type": "electric_scooter", "is_reserved": 0, "lon": -77.02178583333334}, {"fusion_lat": 0.0, "name": "4234f16cf1bbd5f9c03039c7950fda7b", "is_disabled": 0, "rental_uris": {"android": "https://dc.lft.to/lastmile_qr_scan", "ios": "https://dc.lft.to/lastmile_qr_scan"}, "fusion_lon": 0.0, "lat": 38.92613933333333, "bike_id": "4234f16cf1bbd5f9c03039c7950fda7b", "type": "electric_bike", "is_reserved": 0, "lon": -77.06422033333334}, {"fusion_lat": 0.0, "name": "7eb8d859ad5a37d635d26962bca50b9b", "is_disabled": 0, "rental_uris": {"android": "https://dc.lft.to/lastmile_qr_scan", "ios": "https://dc.lft.to/lastmile_qr_scan"}, "fusion_lon": 0.0, "lat": 38.90138783333333, "bike_id": "7eb8d859ad5a37d635d26962bca50b9b", "type": "electric_scooter", "is_reserved": 0, "lon": -77.04169416666667}, {"fusion_lat": 0.0, "name": "6c8e7ee958930109b5cfd1d9b494dcc4", "is_disabled": 0, "rental_uris": {"android": "https://dc.lft.to/lastmile_qr_scan", "ios": "https://dc.lft.to/lastmile_qr_scan"}, "fusion_lon": 0.0, "lat": 38.9007665, "bike_id": "6c8e7ee958930109b5cfd1d9b494dcc4", "type": "electric_scooter", "is_reserved": 0, "lon": -76.98334666666666}, {"fusion_lat": 0.0, "name": "75f4e0ba5a310d5c1e2bcf0dbe48b9f7", "is_disabled": 0, "rental_uris": {"android": "https://dc.lft.to/lastmile_qr_scan", "ios": "https://dc.lft.to/lastmile_qr_scan"}, "fusion_lon": 0.0, "lat": 38.88727083333333, "bike_id": "75f4e0ba5a310d5c1e2bcf0dbe48b9f7", "type": "electric_scooter", "is_reserved": 0, "lon": -76.98355966666666}, {"fusion_lat": 0.0, "name": "0162dc42313933c62f5ff810334ef110", "is_disabled": 0, "rental_uris": {"android": "https://dc.lft.to/lastmile_qr_scan", "ios": "https://dc.lft.to/lastmile_qr_scan"}, "fusion_lon": 0.0, "lat": 38.900409, "bike_id": "0162dc42313933c62f5ff810334ef110", "type": "electric_scooter", "is_reserved": 0, "lon": -77.02606683333333}, {"fusion_lat": 0.0, "name": "a10bd0ec5d88ec3071e15e9b39702366", "is_disabled": 0, "rental_uris": {"android": "https://dc.lft.to/lastmile_qr_scan", "ios": "https://dc.lft.to/lastmile_qr_scan"}, "fusion_lon": 0.0, "lat": 38.9053605, "bike_id": "a10bd0ec5d88ec3071e15e9b39702366", "type": "electric_scooter", "is_reserved": 0, "lon": -77.06518616666666}, {"fusion_lat": 0.0, "name": "aaac95b6b4f93adf239bceb2477b8a91", "is_disabled": 0, "rental_uris": {"android": "https://dc.lft.to/lastmile_qr_scan", "ios": "https://dc.lft.to/lastmile_qr_scan"}, "fusion_lon": 0.0, "lat": 38.94975266666667, "bike_id": "aaac95b6b4f93adf239bceb2477b8a91", "type": "electric_bike", "is_reserved": 0, "lon": -77.066412}, {"fusion_lat": 0.0, "name": "35247424ae9eb790a28634d33b618b2c", "is_disabled": 0, "rental_uris": {"android": "https://dc.lft.to/lastmile_qr_scan", "ios": "https://dc.lft.to/lastmile_qr_scan"}, "fusion_lon": 0.0, "lat": 38.87565516666667, "bike_id": "35247424ae9eb790a28634d33b618b2c", "type": "electric_scooter", "is_reserved": 0, "lon": -77.006087}, {"fusion_lat": 0.0, "name": "3c2b09d07ddfea3e1f1586f2734381a3", "is_disabled": 0, "rental_uris": {"android": "https://dc.lft.to/lastmile_qr_scan", "ios": "https://dc.lft.to/lastmile_qr_scan"}, "fusion_lon": 0.0, "lat": 38.92078633333333, "bike_id": "3c2b09d07ddfea3e1f1586f2734381a3", "type": "electric_scooter", "is_reserved": 0, "lon": -77.013957}, {"fusion_lat": 0.0, "name": "78e6faf534fa2cbdc8207afa37a3e0e7", "is_disabled": 0, "rental_uris": {"android": "https://dc.lft.to/lastmile_qr_scan", "ios": "https://dc.lft.to/lastmile_qr_scan"}, "fusion_lon": 0.0, "lat": 38.9155055, "bike_id": "78e6faf534fa2cbdc8207afa37a3e0e7", "type": "electric_scooter", "is_reserved": 0, "lon": -77.04156266666666}, {"fusion_lat": 0.0, "name": "3b73ac5985b06a3917a9e80e40fa04f0", "is_disabled": 0, "rental_uris": {"android": "https://dc.lft.to/lastmile_qr_scan", "ios": "https://dc.lft.to/lastmile_qr_scan"}, "fusion_lon": 0.0, "lat": 38.92350916666667, "bike_id": "3b73ac5985b06a3917a9e80e40fa04f0", "type": "electric_scooter", "is_reserved": 0, "lon": -77.0516705}, {"fusion_lat": 0.0, "name": "21750d89c7923c30e27d61b1647462e0", "is_disabled": 0, "rental_uris": {"android": "https://dc.lft.to/lastmile_qr_scan", "ios": "https://dc.lft.to/lastmile_qr_scan"}, "fusion_lon": 0.0, "lat": 38.892295833333336, "bike_id": "21750d89c7923c30e27d61b1647462e0", "type": "electric_scooter", "is_reserved": 0, "lon": -77.02658066666666}, {"fusion_lat": 0.0, "name": "6d0a6af25cc3b01a68cd65bb54492b4c", "is_disabled": 0, "rental_uris": {"android": "https://dc.lft.to/lastmile_qr_scan", "ios": "https://dc.lft.to/lastmile_qr_scan"}, "fusion_lon": 0.0, "lat": 38.89319883333334, "bike_id": "6d0a6af25cc3b01a68cd65bb54492b4c", "type": "electric_bike", "is_reserved": 0, "lon": -76.9512735}, {"fusion_lat": 0.0, "name": "8d473725445a8893f650a7f44bbee193", "is_disabled": 0, "rental_uris": {"android": "https://dc.lft.to/lastmile_qr_scan", "ios": "https://dc.lft.to/lastmile_qr_scan"}, "fusion_lon": 0.0, "lat": 38.908752166666666, "bike_id": "8d473725445a8893f650a7f44bbee193", "type": "electric_scooter", "is_reserved": 0, "lon": -77.04330783333333}, {"fusion_lat": 0.0, "name": "f6614a8e6db0d20d07d823497adc311e", "is_disabled": 0, "rental_uris": {"android": "https://dc.lft.to/lastmile_qr_scan", "ios": "https://dc.lft.to/lastmile_qr_scan"}, "fusion_lon": 0.0, "lat": 38.87496466666666, "bike_id": "f6614a8e6db0d20d07d823497adc311e", "type": "electric_scooter", "is_reserved": 0, "lon": -77.00071733333333}, {"fusion_lat": 0.0, "name": "bcd3e0de57cf1c55dac15a2b1a420865", "is_disabled": 0, "rental_uris": {"android": "https://dc.lft.to/lastmile_qr_scan", "ios": "https://dc.lft.to/lastmile_qr_scan"}, "fusion_lon": 0.0, "lat": 38.913271, "bike_id": "bcd3e0de57cf1c55dac15a2b1a420865", "type": "electric_scooter", "is_reserved": 0, "lon": -77.01971033333334}, {"fusion_lat": 0.0, "name": "d579ac879edf7ad7f83e29114ccc4934", "is_disabled": 0, "rental_uris": {"android": "https://dc.lft.to/lastmile_qr_scan", "ios": "https://dc.lft.to/lastmile_qr_scan"}, "fusion_lon": 0.0, "lat": 38.903344833333335, "bike_id": "d579ac879edf7ad7f83e29114ccc4934", "type": "electric_scooter", "is_reserved": 0, "lon": -77.010989}, {"fusion_lat": 0.0, "name": "a60c82b0fc4762aad018826e7f635310", "is_disabled": 0, "rental_uris": {"android": "https://dc.lft.to/lastmile_qr_scan", "ios": "https://dc.lft.to/lastmile_qr_scan"}, "fusion_lon": 0.0, "lat": 38.9095925, "bike_id": "a60c82b0fc4762aad018826e7f635310", "type": "electric_scooter", "is_reserved": 0, "lon": -77.04040566666667}, {"fusion_lat": 0.0, "name": "4e00e96b73a78ec66a7d09188db84965", "is_disabled": 0, "rental_uris": {"android": "https://dc.lft.to/lastmile_qr_scan", "ios": "https://dc.lft.to/lastmile_qr_scan"}, "fusion_lon": 0.0, "lat": 38.873929, "bike_id": "4e00e96b73a78ec66a7d09188db84965", "type": "electric_scooter", "is_reserved": 0, "lon": -77.01450216666667}, {"fusion_lat": 0.0, "name": "618ac72db01c246fbc47e6a258e1c708", "is_disabled": 0, "rental_uris": {"android": "https://dc.lft.to/lastmile_qr_scan", "ios": "https://dc.lft.to/lastmile_qr_scan"}, "fusion_lon": 0.0, "lat": 38.84499683333333, "bike_id": "618ac72db01c246fbc47e6a258e1c708", "type": "electric_scooter", "is_reserved": 0, "lon": -76.99596583333333}, {"fusion_lat": 0.0, "name": "0743b9106d6d1f1a752fa9c71a835830", "is_disabled": 0, "rental_uris": {"android": "https://dc.lft.to/lastmile_qr_scan", "ios": "https://dc.lft.to/lastmile_qr_scan"}, "fusion_lon": 0.0, "lat": 38.93964283333333, "bike_id": "0743b9106d6d1f1a752fa9c71a835830", "type": "electric_scooter", "is_reserved": 0, "lon": -77.032859}, {"fusion_lat": 0.0, "name": "d335b11e1e26abfc88316ec056f9dcb1", "is_disabled": 0, "rental_uris": {"android": "https://dc.lft.to/lastmile_qr_scan", "ios": "https://dc.lft.to/lastmile_qr_scan"}, "fusion_lon": 0.0, "lat": 38.9175, "bike_id": "d335b11e1e26abfc88316ec056f9dcb1", "type": "electric_scooter", "is_reserved": 0, "lon": -77.012119}, {"fusion_lat": 0.0, "name": "2551f340d75cbadb4568fa538912a7d9", "is_disabled": 0, "rental_uris": {"android": "https://dc.lft.to/lastmile_qr_scan", "ios": "https://dc.lft.to/lastmile_qr_scan"}, "fusion_lon": 0.0, "lat": 38.827932, "bike_id": "2551f340d75cbadb4568fa538912a7d9", "type": "electric_bike", "is_reserved": 0, "lon": -77.124878}, {"fusion_lat": 0.0, "name": "f47a48a97a3ae68a445ea5cfd495b4db", "is_disabled": 0, "rental_uris": {"android": "https://dc.lft.to/lastmile_qr_scan", "ios": "https://dc.lft.to/lastmile_qr_scan"}, "fusion_lon": 0.0, "lat": 38.88766733333333, "bike_id": "f47a48a97a3ae68a445ea5cfd495b4db", "type": "electric_scooter", "is_reserved": 0, "lon": -77.013034}, {"fusion_lat": 0.0, "name": "e6e41e809adbad43fd8853699b1db6f2", "is_disabled": 0, "rental_uris": {"android": "https://dc.lft.to/lastmile_qr_scan", "ios": "https://dc.lft.to/lastmile_qr_scan"}, "fusion_lon": 0.0, "lat": 38.91968883333333, "bike_id": "e6e41e809adbad43fd8853699b1db6f2", "type": "electric_scooter", "is_reserved": 0, "lon": -77.024897}, {"fusion_lat": 0.0, "name": "86837075d5bf9457be11e6eea5f529b3", "is_disabled": 0, "rental_uris": {"android": "https://dc.lft.to/lastmile_qr_scan", "ios": "https://dc.lft.to/lastmile_qr_scan"}, "fusion_lon": 0.0, "lat": 38.917769666666665, "bike_id": "86837075d5bf9457be11e6eea5f529b3", "type": "electric_scooter", "is_reserved": 0, "lon": -77.03853316666667}, {"fusion_lat": 0.0, "name": "3701ac609693e3c2e0510e9690c60b4b", "is_disabled": 0, "rental_uris": {"android": "https://dc.lft.to/lastmile_qr_scan", "ios": "https://dc.lft.to/lastmile_qr_scan"}, "fusion_lon": 0.0, "lat": 38.9062425, "bike_id": "3701ac609693e3c2e0510e9690c60b4b", "type": "electric_scooter", "is_reserved": 0, "lon": -77.02603066666667}, {"fusion_lat": 0.0, "name": "81c4f28d45f3dfc6bbad0eddf1c9fdb3", "is_disabled": 0, "rental_uris": {"android": "https://dc.lft.to/lastmile_qr_scan", "ios": "https://dc.lft.to/lastmile_qr_scan"}, "fusion_lon": 0.0, "lat": 38.93121883333333, "bike_id": "81c4f28d45f3dfc6bbad0eddf1c9fdb3", "type": "electric_scooter", "is_reserved": 0, "lon": -77.02085933333333}, {"fusion_lat": 0.0, "name": "03dd7761d091212fe769e689fb3542aa", "is_disabled": 0, "rental_uris": {"android": "https://dc.lft.to/lastmile_qr_scan", "ios": "https://dc.lft.to/lastmile_qr_scan"}, "fusion_lon": 0.0, "lat": 38.925956, "bike_id": "03dd7761d091212fe769e689fb3542aa", "type": "electric_bike", "is_reserved": 0, "lon": -77.21008366666666}, {"fusion_lat": 0.0, "name": "439dead1ef2f98530ca46c9d2405255b", "is_disabled": 0, "rental_uris": {"android": "https://dc.lft.to/lastmile_qr_scan", "ios": "https://dc.lft.to/lastmile_qr_scan"}, "fusion_lon": 0.0, "lat": 38.8974575, "bike_id": "439dead1ef2f98530ca46c9d2405255b", "type": "electric_scooter", "is_reserved": 0, "lon": -77.00366116666666}, {"fusion_lat": 0.0, "name": "d4b807961515a9cdaa16b9e65aac8162", "is_disabled": 0, "rental_uris": {"android": "https://dc.lft.to/lastmile_qr_scan", "ios": "https://dc.lft.to/lastmile_qr_scan"}, "fusion_lon": 0.0, "lat": 38.90854266666667, "bike_id": "d4b807961515a9cdaa16b9e65aac8162", "type": "electric_scooter", "is_reserved": 0, "lon": -77.02724833333333}, {"fusion_lat": 0.0, "name": "8dea73409c2345ba8aaada318035453a", "is_disabled": 0, "rental_uris": {"android": "https://dc.lft.to/lastmile_qr_scan", "ios": "https://dc.lft.to/lastmile_qr_scan"}, "fusion_lon": 0.0, "lat": 38.922492166666665, "bike_id": "8dea73409c2345ba8aaada318035453a", "type": "electric_scooter", "is_reserved": 0, "lon": -77.042552}, {"fusion_lat": 0.0, "name": "dbd979da34d05ad64d8f7e58f62cb6da", "is_disabled": 0, "rental_uris": {"android": "https://dc.lft.to/lastmile_qr_scan", "ios": "https://dc.lft.to/lastmile_qr_scan"}, "fusion_lon": 0.0, "lat": 38.91913616666667, "bike_id": "dbd979da34d05ad64d8f7e58f62cb6da", "type": "electric_scooter", "is_reserved": 0, "lon": -77.02734666666667}, {"fusion_lat": 0.0, "name": "ce3787cf9bd7b7f6a80154a4469b81bb", "is_disabled": 0, "rental_uris": {"android": "https://dc.lft.to/lastmile_qr_scan", "ios": "https://dc.lft.to/lastmile_qr_scan"}, "fusion_lon": 0.0, "lat": 38.9109515, "bike_id": "ce3787cf9bd7b7f6a80154a4469b81bb", "type": "electric_scooter", "is_reserved": 0, "lon": -77.021917}, {"fusion_lat": 0.0, "name": "33e505f1b4cd2df02c73e77655844b64", "is_disabled": 0, "rental_uris": {"android": "https://dc.lft.to/lastmile_qr_scan", "ios": "https://dc.lft.to/lastmile_qr_scan"}, "fusion_lon": 0.0, "lat": 38.917124333333334, "bike_id": "33e505f1b4cd2df02c73e77655844b64", "type": "electric_scooter", "is_reserved": 0, "lon": -77.038672}, {"fusion_lat": 0.0, "name": "d20b616bba6c2e879e18e3841feec9ef", "is_disabled": 0, "rental_uris": {"android": "https://dc.lft.to/lastmile_qr_scan", "ios": "https://dc.lft.to/lastmile_qr_scan"}, "fusion_lon": 0.0, "lat": 38.920648166666666, "bike_id": "d20b616bba6c2e879e18e3841feec9ef", "type": "electric_scooter", "is_reserved": 0, "lon": -77.03459383333333}, {"fusion_lat": 0.0, "name": "292ef581877450c6d1345b2c67c6849a", "is_disabled": 0, "rental_uris": {"android": "https://dc.lft.to/lastmile_qr_scan", "ios": "https://dc.lft.to/lastmile_qr_scan"}, "fusion_lon": 0.0, "lat": 38.91698016666667, "bike_id": "292ef581877450c6d1345b2c67c6849a", "type": "electric_scooter", "is_reserved": 0, "lon": -77.0303545}, {"fusion_lat": 0.0, "name": "b875d724df2453e8d9f11e832f297fab", "is_disabled": 0, "rental_uris": {"android": "https://dc.lft.to/lastmile_qr_scan", "ios": "https://dc.lft.to/lastmile_qr_scan"}, "fusion_lon": 0.0, "lat": 38.88297883333333, "bike_id": "b875d724df2453e8d9f11e832f297fab", "type": "electric_scooter", "is_reserved": 0, "lon": -77.01727666666666}, {"fusion_lat": 0.0, "name": "5643011b8f72a568a312328b14360dd6", "is_disabled": 0, "rental_uris": {"android": "https://dc.lft.to/lastmile_qr_scan", "ios": "https://dc.lft.to/lastmile_qr_scan"}, "fusion_lon": 0.0, "lat": 38.93354683333333, "bike_id": "5643011b8f72a568a312328b14360dd6", "type": "electric_scooter", "is_reserved": 0, "lon": -77.034177}, {"fusion_lat": 0.0, "name": "e5e093fdbfd03dc3d9bad8b4ee2d3c8a", "is_disabled": 0, "rental_uris": {"android": "https://dc.lft.to/lastmile_qr_scan", "ios": "https://dc.lft.to/lastmile_qr_scan"}, "fusion_lon": 0.0, "lat": 38.8748385, "bike_id": "e5e093fdbfd03dc3d9bad8b4ee2d3c8a", "type": "electric_scooter", "is_reserved": 0, "lon": -77.00581033333333}, {"fusion_lat": 0.0, "name": "065ca829f212d07a2b9476236144e250", "is_disabled": 0, "rental_uris": {"android": "https://dc.lft.to/lastmile_qr_scan", "ios": "https://dc.lft.to/lastmile_qr_scan"}, "fusion_lon": 0.0, "lat": 38.87729733333333, "bike_id": "065ca829f212d07a2b9476236144e250", "type": "electric_scooter", "is_reserved": 0, "lon": -76.99671533333333}, {"fusion_lat": 0.0, "name": "f8a6d412b8cdf95cdacdf1f4c9ec5b14", "is_disabled": 0, "rental_uris": {"android": "https://dc.lft.to/lastmile_qr_scan", "ios": "https://dc.lft.to/lastmile_qr_scan"}, "fusion_lon": 0.0, "lat": 38.8871955, "bike_id": "f8a6d412b8cdf95cdacdf1f4c9ec5b14", "type": "electric_scooter", "is_reserved": 0, "lon": -77.02580383333333}, {"fusion_lat": 0.0, "name": "5b9101241dc323caadedb2a20a0a4c0a", "is_disabled": 0, "rental_uris": {"android": "https://dc.lft.to/lastmile_qr_scan", "ios": "https://dc.lft.to/lastmile_qr_scan"}, "fusion_lon": 0.0, "lat": 38.923236833333334, "bike_id": "5b9101241dc323caadedb2a20a0a4c0a", "type": "electric_scooter", "is_reserved": 0, "lon": -77.0434975}, {"fusion_lat": 0.0, "name": "073e949fb261d73571150f9a5176e400", "is_disabled": 0, "rental_uris": {"android": "https://dc.lft.to/lastmile_qr_scan", "ios": "https://dc.lft.to/lastmile_qr_scan"}, "fusion_lon": 0.0, "lat": 38.92158466666667, "bike_id": "073e949fb261d73571150f9a5176e400", "type": "electric_scooter", "is_reserved": 0, "lon": -77.03432133333334}, {"fusion_lat": 0.0, "name": "8fa61338351cb508ebd7ea8c4d4e4684", "is_disabled": 0, "rental_uris": {"android": "https://dc.lft.to/lastmile_qr_scan", "ios": "https://dc.lft.to/lastmile_qr_scan"}, "fusion_lon": 0.0, "lat": 38.94307516666667, "bike_id": "8fa61338351cb508ebd7ea8c4d4e4684", "type": "electric_scooter", "is_reserved": 0, "lon": -77.061309}, {"fusion_lat": 0.0, "name": "f52a1968c81f2d5b5f8dd81cfdad2601", "is_disabled": 0, "rental_uris": {"android": "https://dc.lft.to/lastmile_qr_scan", "ios": "https://dc.lft.to/lastmile_qr_scan"}, "fusion_lon": 0.0, "lat": 39.03430733333333, "bike_id": "f52a1968c81f2d5b5f8dd81cfdad2601", "type": "electric_bike", "is_reserved": 0, "lon": -77.0430115}, {"fusion_lat": 0.0, "name": "877171cdfd0876e7b1445a37d2f1e189", "is_disabled": 0, "rental_uris": {"android": "https://dc.lft.to/lastmile_qr_scan", "ios": "https://dc.lft.to/lastmile_qr_scan"}, "fusion_lon": 0.0, "lat": 38.873821666666664, "bike_id": "877171cdfd0876e7b1445a37d2f1e189", "type": "electric_scooter", "is_reserved": 0, "lon": -77.000448}, {"fusion_lat": 0.0, "name": "4dc97ac080487fe5bec9a8d6c43a38c8", "is_disabled": 0, "rental_uris": {"android": "https://dc.lft.to/lastmile_qr_scan", "ios": "https://dc.lft.to/lastmile_qr_scan"}, "fusion_lon": 0.0, "lat": 38.89773133333333, "bike_id": "4dc97ac080487fe5bec9a8d6c43a38c8", "type": "electric_scooter", "is_reserved": 0, "lon": -76.98462133333334}, {"fusion_lat": 0.0, "name": "2b0091bc711e5e973e7085e7fc275889", "is_disabled": 0, "rental_uris": {"android": "https://dc.lft.to/lastmile_qr_scan", "ios": "https://dc.lft.to/lastmile_qr_scan"}, "fusion_lon": 0.0, "lat": 38.853604833333335, "bike_id": "2b0091bc711e5e973e7085e7fc275889", "type": "electric_bike", "is_reserved": 0, "lon": -77.11501966666667}, {"fusion_lat": 0.0, "name": "a8049a3121e4ca1a4add4238d6af7cd4", "is_disabled": 0, "rental_uris": {"android": "https://dc.lft.to/lastmile_qr_scan", "ios": "https://dc.lft.to/lastmile_qr_scan"}, "fusion_lon": 0.0, "lat": 38.900160166666666, "bike_id": "a8049a3121e4ca1a4add4238d6af7cd4", "type": "electric_scooter", "is_reserved": 0, "lon": -77.01177083333333}, {"fusion_lat": 0.0, "name": "bf6d22c35a9f31face4e392aa4a7cf1b", "is_disabled": 0, "rental_uris": {"android": "https://dc.lft.to/lastmile_qr_scan", "ios": "https://dc.lft.to/lastmile_qr_scan"}, "fusion_lon": 0.0, "lat": 38.90631466666667, "bike_id": "bf6d22c35a9f31face4e392aa4a7cf1b", "type": "electric_scooter", "is_reserved": 0, "lon": -77.025204}, {"fusion_lat": 0.0, "name": "634893504fe914917b81fa03d507bda2", "is_disabled": 0, "rental_uris": {"android": "https://dc.lft.to/lastmile_qr_scan", "ios": "https://dc.lft.to/lastmile_qr_scan"}, "fusion_lon": 0.0, "lat": 38.9093755, "bike_id": "634893504fe914917b81fa03d507bda2", "type": "electric_scooter", "is_reserved": 0, "lon": -77.03210916666667}, {"fusion_lat": 0.0, "name": "0ef24456dd9c6f3097ec51fe5c20b81d", "is_disabled": 0, "rental_uris": {"android": "https://dc.lft.to/lastmile_qr_scan", "ios": "https://dc.lft.to/lastmile_qr_scan"}, "fusion_lon": 0.0, "lat": 38.88319366666666, "bike_id": "0ef24456dd9c6f3097ec51fe5c20b81d", "type": "electric_scooter", "is_reserved": 0, "lon": -77.01382183333334}, {"fusion_lat": 0.0, "name": "c2bd281f99927e6e2ca0b68d6d89dee5", "is_disabled": 0, "rental_uris": {"android": "https://dc.lft.to/lastmile_qr_scan", "ios": "https://dc.lft.to/lastmile_qr_scan"}, "fusion_lon": 0.0, "lat": 38.92302133333333, "bike_id": "c2bd281f99927e6e2ca0b68d6d89dee5", "type": "electric_scooter", "is_reserved": 0, "lon": -77.02357316666667}, {"fusion_lat": 0.0, "name": "806f0bcf008acc3012af262d6120add0", "is_disabled": 0, "rental_uris": {"android": "https://dc.lft.to/lastmile_qr_scan", "ios": "https://dc.lft.to/lastmile_qr_scan"}, "fusion_lon": 0.0, "lat": 38.930919, "bike_id": "806f0bcf008acc3012af262d6120add0", "type": "electric_scooter", "is_reserved": 0, "lon": -77.034304}, {"fusion_lat": 0.0, "name": "7cc91028af063a1642d2b2fbdafb7308", "is_disabled": 0, "rental_uris": {"android": "https://dc.lft.to/lastmile_qr_scan", "ios": "https://dc.lft.to/lastmile_qr_scan"}, "fusion_lon": 0.0, "lat": 38.9100025, "bike_id": "7cc91028af063a1642d2b2fbdafb7308", "type": "electric_scooter", "is_reserved": 0, "lon": -77.03462633333334}, {"fusion_lat": 0.0, "name": "5ee7014926bfc2469f36417b99041248", "is_disabled": 0, "rental_uris": {"android": "https://dc.lft.to/lastmile_qr_scan", "ios": "https://dc.lft.to/lastmile_qr_scan"}, "fusion_lon": 0.0, "lat": 38.916879, "bike_id": "5ee7014926bfc2469f36417b99041248", "type": "electric_scooter", "is_reserved": 0, "lon": -77.02970216666667}, {"fusion_lat": 0.0, "name": "f1074f5787b48729ce0ab7ee53ba06db", "is_disabled": 0, "rental_uris": {"android": "https://dc.lft.to/lastmile_qr_scan", "ios": "https://dc.lft.to/lastmile_qr_scan"}, "fusion_lon": 0.0, "lat": 38.88537983333333, "bike_id": "f1074f5787b48729ce0ab7ee53ba06db", "type": "electric_scooter", "is_reserved": 0, "lon": -77.02191833333333}, {"fusion_lat": 0.0, "name": "4e43c6440a2b90b187b521f519c87d50", "is_disabled": 0, "rental_uris": {"android": "https://dc.lft.to/lastmile_qr_scan", "ios": "https://dc.lft.to/lastmile_qr_scan"}, "fusion_lon": 0.0, "lat": 38.897245166666664, "bike_id": "4e43c6440a2b90b187b521f519c87d50", "type": "electric_scooter", "is_reserved": 0, "lon": -77.00208266666667}, {"fusion_lat": 0.0, "name": "13be526a8dd871d43e27ca70e20d26b2", "is_disabled": 0, "rental_uris": {"android": "https://dc.lft.to/lastmile_qr_scan", "ios": "https://dc.lft.to/lastmile_qr_scan"}, "fusion_lon": 0.0, "lat": 38.92077666666667, "bike_id": "13be526a8dd871d43e27ca70e20d26b2", "type": "electric_scooter", "is_reserved": 0, "lon": -77.02315716666666}, {"fusion_lat": 0.0, "name": "28891bd30c4c28137b1cad44ee51df1d", "is_disabled": 0, "rental_uris": {"android": "https://dc.lft.to/lastmile_qr_scan", "ios": "https://dc.lft.to/lastmile_qr_scan"}, "fusion_lon": 0.0, "lat": 38.92346383333334, "bike_id": "28891bd30c4c28137b1cad44ee51df1d", "type": "electric_scooter", "is_reserved": 0, "lon": -77.0517895}, {"fusion_lat": 0.0, "name": "8c3086ffebaa385ac129620e2949826f", "is_disabled": 0, "rental_uris": {"android": "https://dc.lft.to/lastmile_qr_scan", "ios": "https://dc.lft.to/lastmile_qr_scan"}, "fusion_lon": 0.0, "lat": 38.897164833333335, "bike_id": "8c3086ffebaa385ac129620e2949826f", "type": "electric_scooter", "is_reserved": 0, "lon": -77.0471685}, {"fusion_lat": 0.0, "name": "219e8b4c33b2b1cb86ea2dd720a72b17", "is_disabled": 0, "rental_uris": {"android": "https://dc.lft.to/lastmile_qr_scan", "ios": "https://dc.lft.to/lastmile_qr_scan"}, "fusion_lon": 0.0, "lat": 38.836333, "bike_id": "219e8b4c33b2b1cb86ea2dd720a72b17", "type": "electric_bike", "is_reserved": 0, "lon": -77.06948183333333}, {"fusion_lat": 0.0, "name": "8094fc4ef32d2aa38b7de9968152e7f2", "is_disabled": 0, "rental_uris": {"android": "https://dc.lft.to/lastmile_qr_scan", "ios": "https://dc.lft.to/lastmile_qr_scan"}, "fusion_lon": 0.0, "lat": 38.907122, "bike_id": "8094fc4ef32d2aa38b7de9968152e7f2", "type": "electric_scooter", "is_reserved": 0, "lon": -77.02385016666666}, {"fusion_lat": 0.0, "name": "100616f11f5bfe94a66972faa8c95d1c", "is_disabled": 0, "rental_uris": {"android": "https://dc.lft.to/lastmile_qr_scan", "ios": "https://dc.lft.to/lastmile_qr_scan"}, "fusion_lon": 0.0, "lat": 38.917652833333335, "bike_id": "100616f11f5bfe94a66972faa8c95d1c", "type": "electric_scooter", "is_reserved": 0, "lon": -77.06951266666667}, {"fusion_lat": 0.0, "name": "6f55705357bb97600235454abc882c8c", "is_disabled": 0, "rental_uris": {"android": "https://dc.lft.to/lastmile_qr_scan", "ios": "https://dc.lft.to/lastmile_qr_scan"}, "fusion_lon": 0.0, "lat": 38.9202045, "bike_id": "6f55705357bb97600235454abc882c8c", "type": "electric_scooter", "is_reserved": 0, "lon": -77.044033}, {"fusion_lat": 0.0, "name": "3604cbcb38f620d6ef61b4ab3cae9a18", "is_disabled": 0, "rental_uris": {"android": "https://dc.lft.to/lastmile_qr_scan", "ios": "https://dc.lft.to/lastmile_qr_scan"}, "fusion_lon": 0.0, "lat": 38.91405183333333, "bike_id": "3604cbcb38f620d6ef61b4ab3cae9a18", "type": "electric_scooter", "is_reserved": 0, "lon": -77.03217216666667}, {"fusion_lat": 0.0, "name": "f2f1e9469681865dba84d86e3e0f811b", "is_disabled": 0, "rental_uris": {"android": "https://dc.lft.to/lastmile_qr_scan", "ios": "https://dc.lft.to/lastmile_qr_scan"}, "fusion_lon": 0.0, "lat": 38.93487316666667, "bike_id": "f2f1e9469681865dba84d86e3e0f811b", "type": "electric_scooter", "is_reserved": 0, "lon": -77.07272233333333}, {"fusion_lat": 0.0, "name": "c423a5df8a28efa60f7a536210f2a4ed", "is_disabled": 0, "rental_uris": {"android": "https://dc.lft.to/lastmile_qr_scan", "ios": "https://dc.lft.to/lastmile_qr_scan"}, "fusion_lon": 0.0, "lat": 38.90664816666666, "bike_id": "c423a5df8a28efa60f7a536210f2a4ed", "type": "electric_scooter", "is_reserved": 0, "lon": -77.00957083333333}, {"fusion_lat": 0.0, "name": "42afb4e300b56604fedb2e8c6df5d6a9", "is_disabled": 0, "rental_uris": {"android": "https://dc.lft.to/lastmile_qr_scan", "ios": "https://dc.lft.to/lastmile_qr_scan"}, "fusion_lon": 0.0, "lat": 38.92132083333333, "bike_id": "42afb4e300b56604fedb2e8c6df5d6a9", "type": "electric_scooter", "is_reserved": 0, "lon": -77.0423415}, {"fusion_lat": 0.0, "name": "8b1bafcf72316fa1d9ac02c1547e1339", "is_disabled": 0, "rental_uris": {"android": "https://dc.lft.to/lastmile_qr_scan", "ios": "https://dc.lft.to/lastmile_qr_scan"}, "fusion_lon": 0.0, "lat": 38.918580666666664, "bike_id": "8b1bafcf72316fa1d9ac02c1547e1339", "type": "electric_bike", "is_reserved": 0, "lon": -76.96086266666667}, {"fusion_lat": 0.0, "name": "53b321febe00794d0d118eb62cb43f06", "is_disabled": 0, "rental_uris": {"android": "https://dc.lft.to/lastmile_qr_scan", "ios": "https://dc.lft.to/lastmile_qr_scan"}, "fusion_lon": 0.0, "lat": 38.905618833333335, "bike_id": "53b321febe00794d0d118eb62cb43f06", "type": "electric_scooter", "is_reserved": 0, "lon": -77.02093983333333}, {"fusion_lat": 0.0, "name": "131075e2fdd5720e2ca994c60d688d1f", "is_disabled": 0, "rental_uris": {"android": "https://dc.lft.to/lastmile_qr_scan", "ios": "https://dc.lft.to/lastmile_qr_scan"}, "fusion_lon": 0.0, "lat": 38.92486866666667, "bike_id": "131075e2fdd5720e2ca994c60d688d1f", "type": "electric_scooter", "is_reserved": 0, "lon": -77.0213315}, {"fusion_lat": 0.0, "name": "1a3b28bc1ba021eed76cc1317604cc1f", "is_disabled": 0, "rental_uris": {"android": "https://dc.lft.to/lastmile_qr_scan", "ios": "https://dc.lft.to/lastmile_qr_scan"}, "fusion_lon": 0.0, "lat": 38.907142, "bike_id": "1a3b28bc1ba021eed76cc1317604cc1f", "type": "electric_scooter", "is_reserved": 0, "lon": -77.02714833333333}, {"fusion_lat": 0.0, "name": "7aeb406fa0de04666cf911ba0175f134", "is_disabled": 0, "rental_uris": {"android": "https://dc.lft.to/lastmile_qr_scan", "ios": "https://dc.lft.to/lastmile_qr_scan"}, "fusion_lon": 0.0, "lat": 38.87186966666667, "bike_id": "7aeb406fa0de04666cf911ba0175f134", "type": "electric_scooter", "is_reserved": 0, "lon": -77.00572533333333}, {"fusion_lat": 0.0, "name": "5588c4daa8ba000de5ac73e91c0a3dae", "is_disabled": 0, "rental_uris": {"android": "https://dc.lft.to/lastmile_qr_scan", "ios": "https://dc.lft.to/lastmile_qr_scan"}, "fusion_lon": 0.0, "lat": 38.906863666666666, "bike_id": "5588c4daa8ba000de5ac73e91c0a3dae", "type": "electric_scooter", "is_reserved": 0, "lon": -76.95191283333334}, {"fusion_lat": 0.0, "name": "7a1b730162a6363ca6bf737e41e2cfd7", "is_disabled": 0, "rental_uris": {"android": "https://dc.lft.to/lastmile_qr_scan", "ios": "https://dc.lft.to/lastmile_qr_scan"}, "fusion_lon": 0.0, "lat": 38.910513333333334, "bike_id": "7a1b730162a6363ca6bf737e41e2cfd7", "type": "electric_scooter", "is_reserved": 0, "lon": -77.04148216666667}, {"fusion_lat": 0.0, "name": "b3fc8420cec57c74a2130b52403ec360", "is_disabled": 0, "rental_uris": {"android": "https://dc.lft.to/lastmile_qr_scan", "ios": "https://dc.lft.to/lastmile_qr_scan"}, "fusion_lon": 0.0, "lat": 38.900664666666664, "bike_id": "b3fc8420cec57c74a2130b52403ec360", "type": "electric_scooter", "is_reserved": 0, "lon": -76.9338845}, {"fusion_lat": 0.0, "name": "74a5025641927f0c1a69ee6de4612b13", "is_disabled": 0, "rental_uris": {"android": "https://dc.lft.to/lastmile_qr_scan", "ios": "https://dc.lft.to/lastmile_qr_scan"}, "fusion_lon": 0.0, "lat": 38.90521016666667, "bike_id": "74a5025641927f0c1a69ee6de4612b13", "type": "electric_scooter", "is_reserved": 0, "lon": -77.04772666666666}, {"fusion_lat": 0.0, "name": "81a04b55c4b83a8e1e39b57f8d8c40bf", "is_disabled": 0, "rental_uris": {"android": "https://dc.lft.to/lastmile_qr_scan", "ios": "https://dc.lft.to/lastmile_qr_scan"}, "fusion_lon": 0.0, "lat": 38.92385816666667, "bike_id": "81a04b55c4b83a8e1e39b57f8d8c40bf", "type": "electric_scooter", "is_reserved": 0, "lon": -77.03545633333333}, {"fusion_lat": 0.0, "name": "a43a20f6eee14d0c5b0d26f51298a16e", "is_disabled": 0, "rental_uris": {"android": "https://dc.lft.to/lastmile_qr_scan", "ios": "https://dc.lft.to/lastmile_qr_scan"}, "fusion_lon": 0.0, "lat": 38.89834833333333, "bike_id": "a43a20f6eee14d0c5b0d26f51298a16e", "type": "electric_scooter", "is_reserved": 0, "lon": -76.94635266666667}, {"fusion_lat": 0.0, "name": "2951e999f7c20bf7590b5aa6d25c0c83", "is_disabled": 0, "rental_uris": {"android": "https://dc.lft.to/lastmile_qr_scan", "ios": "https://dc.lft.to/lastmile_qr_scan"}, "fusion_lon": 0.0, "lat": 38.87663233333333, "bike_id": "2951e999f7c20bf7590b5aa6d25c0c83", "type": "electric_scooter", "is_reserved": 0, "lon": -77.00077083333333}, {"fusion_lat": 0.0, "name": "222269adc9d452799805448f273a0596", "is_disabled": 0, "rental_uris": {"android": "https://dc.lft.to/lastmile_qr_scan", "ios": "https://dc.lft.to/lastmile_qr_scan"}, "fusion_lon": 0.0, "lat": 38.906263833333334, "bike_id": "222269adc9d452799805448f273a0596", "type": "electric_scooter", "is_reserved": 0, "lon": -77.02605616666666}, {"fusion_lat": 0.0, "name": "ba3116bf81d503053850967073ac0107", "is_disabled": 0, "rental_uris": {"android": "https://dc.lft.to/lastmile_qr_scan", "ios": "https://dc.lft.to/lastmile_qr_scan"}, "fusion_lon": 0.0, "lat": 38.88930666666667, "bike_id": "ba3116bf81d503053850967073ac0107", "type": "electric_bike", "is_reserved": 0, "lon": -76.99173883333333}, {"fusion_lat": 0.0, "name": "ed67ca2771ed90dbe6326ef15b912c98", "is_disabled": 0, "rental_uris": {"android": "https://dc.lft.to/lastmile_qr_scan", "ios": "https://dc.lft.to/lastmile_qr_scan"}, "fusion_lon": 0.0, "lat": 38.8774375, "bike_id": "ed67ca2771ed90dbe6326ef15b912c98", "type": "electric_scooter", "is_reserved": 0, "lon": -77.00582816666666}, {"fusion_lat": 0.0, "name": "5fc6da1cf923223e8c3cfcacfa5a6718", "is_disabled": 0, "rental_uris": {"android": "https://dc.lft.to/lastmile_qr_scan", "ios": "https://dc.lft.to/lastmile_qr_scan"}, "fusion_lon": 0.0, "lat": 38.90505316666667, "bike_id": "5fc6da1cf923223e8c3cfcacfa5a6718", "type": "electric_scooter", "is_reserved": 0, "lon": -77.048091}, {"fusion_lat": 0.0, "name": "d39725d2e95516932f0f58abe00e149a", "is_disabled": 0, "rental_uris": {"android": "https://dc.lft.to/lastmile_qr_scan", "ios": "https://dc.lft.to/lastmile_qr_scan"}, "fusion_lon": 0.0, "lat": 38.907321333333336, "bike_id": "d39725d2e95516932f0f58abe00e149a", "type": "electric_scooter", "is_reserved": 0, "lon": -77.0432705}, {"fusion_lat": 0.0, "name": "b5029fe081919622337e9ffe0fb301f3", "is_disabled": 0, "rental_uris": {"android": "https://dc.lft.to/lastmile_qr_scan", "ios": "https://dc.lft.to/lastmile_qr_scan"}, "fusion_lon": 0.0, "lat": 38.91018116666667, "bike_id": "b5029fe081919622337e9ffe0fb301f3", "type": "electric_scooter", "is_reserved": 0, "lon": -77.02208133333333}, {"fusion_lat": 0.0, "name": "8efe24741fee4a90cd1c9353ee98cb4b", "is_disabled": 0, "rental_uris": {"android": "https://dc.lft.to/lastmile_qr_scan", "ios": "https://dc.lft.to/lastmile_qr_scan"}, "fusion_lon": 0.0, "lat": 38.905070333333335, "bike_id": "8efe24741fee4a90cd1c9353ee98cb4b", "type": "electric_scooter", "is_reserved": 0, "lon": -77.03009066666667}, {"fusion_lat": 0.0, "name": "99081c419d9274d6037ae773c452abe7", "is_disabled": 0, "rental_uris": {"android": "https://dc.lft.to/lastmile_qr_scan", "ios": "https://dc.lft.to/lastmile_qr_scan"}, "fusion_lon": 0.0, "lat": 38.90679316666667, "bike_id": "99081c419d9274d6037ae773c452abe7", "type": "electric_scooter", "is_reserved": 0, "lon": -77.03661233333334}, {"fusion_lat": 0.0, "name": "0d14971c7fdfdb52cd23f60fcb113ffd", "is_disabled": 0, "rental_uris": {"android": "https://dc.lft.to/lastmile_qr_scan", "ios": "https://dc.lft.to/lastmile_qr_scan"}, "fusion_lon": 0.0, "lat": 38.900534, "bike_id": "0d14971c7fdfdb52cd23f60fcb113ffd", "type": "electric_scooter", "is_reserved": 0, "lon": -77.002164}, {"fusion_lat": 0.0, "name": "99742963b7288f4ca7bdfb521071e394", "is_disabled": 0, "rental_uris": {"android": "https://dc.lft.to/lastmile_qr_scan", "ios": "https://dc.lft.to/lastmile_qr_scan"}, "fusion_lon": 0.0, "lat": 38.911058833333335, "bike_id": "99742963b7288f4ca7bdfb521071e394", "type": "electric_scooter", "is_reserved": 0, "lon": -77.00215433333334}, {"fusion_lat": 0.0, "name": "8e37624cd10d3a4467c5b1ab3232b857", "is_disabled": 0, "rental_uris": {"android": "https://dc.lft.to/lastmile_qr_scan", "ios": "https://dc.lft.to/lastmile_qr_scan"}, "fusion_lon": 0.0, "lat": 38.904787666666664, "bike_id": "8e37624cd10d3a4467c5b1ab3232b857", "type": "electric_scooter", "is_reserved": 0, "lon": -77.02598683333333}, {"fusion_lat": 0.0, "name": "dd996ee1abac933bad343a418dd4d491", "is_disabled": 0, "rental_uris": {"android": "https://dc.lft.to/lastmile_qr_scan", "ios": "https://dc.lft.to/lastmile_qr_scan"}, "fusion_lon": 0.0, "lat": 38.90777883333333, "bike_id": "dd996ee1abac933bad343a418dd4d491", "type": "electric_scooter", "is_reserved": 0, "lon": -77.035175}, {"fusion_lat": 0.0, "name": "d738042020fbe7d6a28504017b1f4ce9", "is_disabled": 0, "rental_uris": {"android": "https://dc.lft.to/lastmile_qr_scan", "ios": "https://dc.lft.to/lastmile_qr_scan"}, "fusion_lon": 0.0, "lat": 38.909347333333336, "bike_id": "d738042020fbe7d6a28504017b1f4ce9", "type": "electric_scooter", "is_reserved": 0, "lon": -76.99973283333334}, {"fusion_lat": 0.0, "name": "66d23961ad21e57e5b40f11e85194cc0", "is_disabled": 0, "rental_uris": {"android": "https://dc.lft.to/lastmile_qr_scan", "ios": "https://dc.lft.to/lastmile_qr_scan"}, "fusion_lon": 0.0, "lat": 38.84818683333334, "bike_id": "66d23961ad21e57e5b40f11e85194cc0", "type": "electric_scooter", "is_reserved": 0, "lon": -76.97340566666666}, {"fusion_lat": 0.0, "name": "6292b279c86c94d1b231484ca9486017", "is_disabled": 0, "rental_uris": {"android": "https://dc.lft.to/lastmile_qr_scan", "ios": "https://dc.lft.to/lastmile_qr_scan"}, "fusion_lon": 0.0, "lat": 38.917285166666666, "bike_id": "6292b279c86c94d1b231484ca9486017", "type": "electric_scooter", "is_reserved": 0, "lon": -77.02696533333334}, {"fusion_lat": 0.0, "name": "e41c7e4662f35f3eb8b79919cd21ed1d", "is_disabled": 0, "rental_uris": {"android": "https://dc.lft.to/lastmile_qr_scan", "ios": "https://dc.lft.to/lastmile_qr_scan"}, "fusion_lon": 0.0, "lat": 38.909097833333334, "bike_id": "e41c7e4662f35f3eb8b79919cd21ed1d", "type": "electric_scooter", "is_reserved": 0, "lon": -77.042101}, {"fusion_lat": 0.0, "name": "e9d262f67b2dba6444aefd4172d4b1a8", "is_disabled": 0, "rental_uris": {"android": "https://dc.lft.to/lastmile_qr_scan", "ios": "https://dc.lft.to/lastmile_qr_scan"}, "fusion_lon": 0.0, "lat": 38.91187516666667, "bike_id": "e9d262f67b2dba6444aefd4172d4b1a8", "type": "electric_bike", "is_reserved": 0, "lon": -77.00268}, {"fusion_lat": 0.0, "name": "162445b10065df2892fb2cb10acf064d", "is_disabled": 0, "rental_uris": {"android": "https://dc.lft.to/lastmile_qr_scan", "ios": "https://dc.lft.to/lastmile_qr_scan"}, "fusion_lon": 0.0, "lat": 38.9383395, "bike_id": "162445b10065df2892fb2cb10acf064d", "type": "electric_scooter", "is_reserved": 0, "lon": -76.991899}, {"fusion_lat": 0.0, "name": "8878d974940de2308c05032e8895cde4", "is_disabled": 0, "rental_uris": {"android": "https://dc.lft.to/lastmile_qr_scan", "ios": "https://dc.lft.to/lastmile_qr_scan"}, "fusion_lon": 0.0, "lat": 38.8899325, "bike_id": "8878d974940de2308c05032e8895cde4", "type": "electric_bike", "is_reserved": 0, "lon": -77.07129716666667}, {"fusion_lat": 0.0, "name": "668cbf04fc83b0fed237768cc89b04eb", "is_disabled": 0, "rental_uris": {"android": "https://dc.lft.to/lastmile_qr_scan", "ios": "https://dc.lft.to/lastmile_qr_scan"}, "fusion_lon": 0.0, "lat": 38.9039055, "bike_id": "668cbf04fc83b0fed237768cc89b04eb", "type": "electric_scooter", "is_reserved": 0, "lon": -77.03836416666667}, {"fusion_lat": 0.0, "name": "570e3f0a511560f0fc6bfb3b493e6020", "is_disabled": 0, "rental_uris": {"android": "https://dc.lft.to/lastmile_qr_scan", "ios": "https://dc.lft.to/lastmile_qr_scan"}, "fusion_lon": 0.0, "lat": 38.935639333333334, "bike_id": "570e3f0a511560f0fc6bfb3b493e6020", "type": "electric_bike", "is_reserved": 0, "lon": -77.03701616666666}, {"fusion_lat": 0.0, "name": "78b5edfafd2e94bb01c8c1deba07f074", "is_disabled": 0, "rental_uris": {"android": "https://dc.lft.to/lastmile_qr_scan", "ios": "https://dc.lft.to/lastmile_qr_scan"}, "fusion_lon": 0.0, "lat": 38.90501883333334, "bike_id": "78b5edfafd2e94bb01c8c1deba07f074", "type": "electric_scooter", "is_reserved": 0, "lon": -77.04872483333334}, {"fusion_lat": 0.0, "name": "e09f65dbeef58c9845bc02d1980ebb6e", "is_disabled": 0, "rental_uris": {"android": "https://dc.lft.to/lastmile_qr_scan", "ios": "https://dc.lft.to/lastmile_qr_scan"}, "fusion_lon": 0.0, "lat": 38.9163255, "bike_id": "e09f65dbeef58c9845bc02d1980ebb6e", "type": "electric_scooter", "is_reserved": 0, "lon": -77.050679}, {"fusion_lat": 0.0, "name": "d9a523a8e014125bca61db1c5894fe8a", "is_disabled": 0, "rental_uris": {"android": "https://dc.lft.to/lastmile_qr_scan", "ios": "https://dc.lft.to/lastmile_qr_scan"}, "fusion_lon": 0.0, "lat": 38.9342765, "bike_id": "d9a523a8e014125bca61db1c5894fe8a", "type": "electric_scooter", "is_reserved": 0, "lon": -77.04276633333333}, {"fusion_lat": 0.0, "name": "e923baf32bb77ff68a187a322eea4dac", "is_disabled": 0, "rental_uris": {"android": "https://dc.lft.to/lastmile_qr_scan", "ios": "https://dc.lft.to/lastmile_qr_scan"}, "fusion_lon": 0.0, "lat": 38.934489, "bike_id": "e923baf32bb77ff68a187a322eea4dac", "type": "electric_scooter", "is_reserved": 0, "lon": -77.03263533333333}, {"fusion_lat": 0.0, "name": "cdd05cb0aac7bc5233b2fa5a3135b76f", "is_disabled": 0, "rental_uris": {"android": "https://dc.lft.to/lastmile_qr_scan", "ios": "https://dc.lft.to/lastmile_qr_scan"}, "fusion_lon": 0.0, "lat": 38.93001816666667, "bike_id": "cdd05cb0aac7bc5233b2fa5a3135b76f", "type": "electric_scooter", "is_reserved": 0, "lon": -77.0218125}, {"fusion_lat": 0.0, "name": "c1bb67a4a6b2f896fd6be6b01a1ab5d9", "is_disabled": 0, "rental_uris": {"android": "https://dc.lft.to/lastmile_qr_scan", "ios": "https://dc.lft.to/lastmile_qr_scan"}, "fusion_lon": 0.0, "lat": 38.90471816666667, "bike_id": "c1bb67a4a6b2f896fd6be6b01a1ab5d9", "type": "electric_scooter", "is_reserved": 0, "lon": -77.06277983333334}, {"fusion_lat": 0.0, "name": "eaf90819c5dbd6b867a639ddbdd7ea1d", "is_disabled": 0, "rental_uris": {"android": "https://dc.lft.to/lastmile_qr_scan", "ios": "https://dc.lft.to/lastmile_qr_scan"}, "fusion_lon": 0.0, "lat": 38.90813716666667, "bike_id": "eaf90819c5dbd6b867a639ddbdd7ea1d", "type": "electric_scooter", "is_reserved": 0, "lon": -77.04328816666667}, {"fusion_lat": 0.0, "name": "7eb2d2a15fd4e734ca7a40cc41df13a9", "is_disabled": 0, "rental_uris": {"android": "https://dc.lft.to/lastmile_qr_scan", "ios": "https://dc.lft.to/lastmile_qr_scan"}, "fusion_lon": 0.0, "lat": 38.88748183333333, "bike_id": "7eb2d2a15fd4e734ca7a40cc41df13a9", "type": "electric_scooter", "is_reserved": 0, "lon": -77.02776416666667}, {"fusion_lat": 0.0, "name": "a650a9dbd9b3e4b4f66019d9a768f161", "is_disabled": 0, "rental_uris": {"android": "https://dc.lft.to/lastmile_qr_scan", "ios": "https://dc.lft.to/lastmile_qr_scan"}, "fusion_lon": 0.0, "lat": 38.89987, "bike_id": "a650a9dbd9b3e4b4f66019d9a768f161", "type": "electric_scooter", "is_reserved": 0, "lon": -77.02452083333333}, {"fusion_lat": 0.0, "name": "052b183afcdd9534383082c7f48e429f", "is_disabled": 0, "rental_uris": {"android": "https://dc.lft.to/lastmile_qr_scan", "ios": "https://dc.lft.to/lastmile_qr_scan"}, "fusion_lon": 0.0, "lat": 38.8962805, "bike_id": "052b183afcdd9534383082c7f48e429f", "type": "electric_scooter", "is_reserved": 0, "lon": -77.0240395}, {"fusion_lat": 0.0, "name": "24b3b1eb08e21b477fa9ad051394c6f2", "is_disabled": 0, "rental_uris": {"android": "https://dc.lft.to/lastmile_qr_scan", "ios": "https://dc.lft.to/lastmile_qr_scan"}, "fusion_lon": 0.0, "lat": 38.92103566666667, "bike_id": "24b3b1eb08e21b477fa9ad051394c6f2", "type": "electric_scooter", "is_reserved": 0, "lon": -77.04698166666667}, {"fusion_lat": 0.0, "name": "7237178cd77eb2dfec09571e98f2e308", "is_disabled": 0, "rental_uris": {"android": "https://dc.lft.to/lastmile_qr_scan", "ios": "https://dc.lft.to/lastmile_qr_scan"}, "fusion_lon": 0.0, "lat": 38.92035333333333, "bike_id": "7237178cd77eb2dfec09571e98f2e308", "type": "electric_scooter", "is_reserved": 0, "lon": -77.08190633333334}, {"fusion_lat": 0.0, "name": "7cf069aee9561e514de2ec10ff658b8f", "is_disabled": 0, "rental_uris": {"android": "https://dc.lft.to/lastmile_qr_scan", "ios": "https://dc.lft.to/lastmile_qr_scan"}, "fusion_lon": 0.0, "lat": 38.902473, "bike_id": "7cf069aee9561e514de2ec10ff658b8f", "type": "electric_scooter", "is_reserved": 0, "lon": -77.01094466666666}, {"fusion_lat": 0.0, "name": "9a45d65b229aa5e47bf286810431df91", "is_disabled": 0, "rental_uris": {"android": "https://dc.lft.to/lastmile_qr_scan", "ios": "https://dc.lft.to/lastmile_qr_scan"}, "fusion_lon": 0.0, "lat": 38.90948083333333, "bike_id": "9a45d65b229aa5e47bf286810431df91", "type": "electric_scooter", "is_reserved": 0, "lon": -77.0344325}, {"fusion_lat": 0.0, "name": "960e18d783f1c76e6d436060c30d5c56", "is_disabled": 0, "rental_uris": {"android": "https://dc.lft.to/lastmile_qr_scan", "ios": "https://dc.lft.to/lastmile_qr_scan"}, "fusion_lon": 0.0, "lat": 38.91741183333333, "bike_id": "960e18d783f1c76e6d436060c30d5c56", "type": "electric_scooter", "is_reserved": 0, "lon": -77.03461133333333}, {"fusion_lat": 0.0, "name": "6508be2b2209baa36f18534bae8c5399", "is_disabled": 0, "rental_uris": {"android": "https://dc.lft.to/lastmile_qr_scan", "ios": "https://dc.lft.to/lastmile_qr_scan"}, "fusion_lon": 0.0, "lat": 38.909805666666664, "bike_id": "6508be2b2209baa36f18534bae8c5399", "type": "electric_scooter", "is_reserved": 0, "lon": -77.03447766666666}, {"fusion_lat": 0.0, "name": "fb95100e9e1ae65db5e9276c23f71039", "is_disabled": 0, "rental_uris": {"android": "https://dc.lft.to/lastmile_qr_scan", "ios": "https://dc.lft.to/lastmile_qr_scan"}, "fusion_lon": 0.0, "lat": 38.87855283333333, "bike_id": "fb95100e9e1ae65db5e9276c23f71039", "type": "electric_scooter", "is_reserved": 0, "lon": -77.0056035}, {"fusion_lat": 0.0, "name": "3da9b0860015a8120163c281c94959ab", "is_disabled": 0, "rental_uris": {"android": "https://dc.lft.to/lastmile_qr_scan", "ios": "https://dc.lft.to/lastmile_qr_scan"}, "fusion_lon": 0.0, "lat": 38.923657, "bike_id": "3da9b0860015a8120163c281c94959ab", "type": "electric_scooter", "is_reserved": 0, "lon": -77.0431325}, {"fusion_lat": 0.0, "name": "6cca3a9247565e5f89e79dfeb019ebe5", "is_disabled": 0, "rental_uris": {"android": "https://dc.lft.to/lastmile_qr_scan", "ios": "https://dc.lft.to/lastmile_qr_scan"}, "fusion_lon": 0.0, "lat": 38.90976333333333, "bike_id": "6cca3a9247565e5f89e79dfeb019ebe5", "type": "electric_scooter", "is_reserved": 0, "lon": -77.02686866666667}, {"fusion_lat": 0.0, "name": "19a248c00ca577641af84ac5a74bbf47", "is_disabled": 0, "rental_uris": {"android": "https://dc.lft.to/lastmile_qr_scan", "ios": "https://dc.lft.to/lastmile_qr_scan"}, "fusion_lon": 0.0, "lat": 38.88731633333333, "bike_id": "19a248c00ca577641af84ac5a74bbf47", "type": "electric_scooter", "is_reserved": 0, "lon": -77.01765683333333}, {"fusion_lat": 0.0, "name": "45511d1fbe6c56d948633a32e26d7cc4", "is_disabled": 0, "rental_uris": {"android": "https://dc.lft.to/lastmile_qr_scan", "ios": "https://dc.lft.to/lastmile_qr_scan"}, "fusion_lon": 0.0, "lat": 38.90420016666667, "bike_id": "45511d1fbe6c56d948633a32e26d7cc4", "type": "electric_scooter", "is_reserved": 0, "lon": -77.06792866666666}, {"fusion_lat": 0.0, "name": "01c8b3a8082880c30c1ef34c2bb7ad66", "is_disabled": 0, "rental_uris": {"android": "https://dc.lft.to/lastmile_qr_scan", "ios": "https://dc.lft.to/lastmile_qr_scan"}, "fusion_lon": 0.0, "lat": 38.9045695, "bike_id": "01c8b3a8082880c30c1ef34c2bb7ad66", "type": "electric_scooter", "is_reserved": 0, "lon": -77.00164383333333}, {"fusion_lat": 0.0, "name": "36ec07e282e79a83d9d8407d4c0a7a63", "is_disabled": 0, "rental_uris": {"android": "https://dc.lft.to/lastmile_qr_scan", "ios": "https://dc.lft.to/lastmile_qr_scan"}, "fusion_lon": 0.0, "lat": 38.904607666666664, "bike_id": "36ec07e282e79a83d9d8407d4c0a7a63", "type": "electric_scooter", "is_reserved": 0, "lon": -77.06284583333333}, {"fusion_lat": 0.0, "name": "31de74dbd61252de78f0bb4a12ede6e4", "is_disabled": 0, "rental_uris": {"android": "https://dc.lft.to/lastmile_qr_scan", "ios": "https://dc.lft.to/lastmile_qr_scan"}, "fusion_lon": 0.0, "lat": 38.95419733333333, "bike_id": "31de74dbd61252de78f0bb4a12ede6e4", "type": "electric_scooter", "is_reserved": 0, "lon": -77.02764016666667}, {"fusion_lat": 0.0, "name": "69e31b07d608d14339b4e16de1c768d3", "is_disabled": 0, "rental_uris": {"android": "https://dc.lft.to/lastmile_qr_scan", "ios": "https://dc.lft.to/lastmile_qr_scan"}, "fusion_lon": 0.0, "lat": 38.916747, "bike_id": "69e31b07d608d14339b4e16de1c768d3", "type": "electric_scooter", "is_reserved": 0, "lon": -77.02353816666667}, {"fusion_lat": 0.0, "name": "3349dd6055e758e3ae5625075e8b3898", "is_disabled": 0, "rental_uris": {"android": "https://dc.lft.to/lastmile_qr_scan", "ios": "https://dc.lft.to/lastmile_qr_scan"}, "fusion_lon": 0.0, "lat": 38.88538966666667, "bike_id": "3349dd6055e758e3ae5625075e8b3898", "type": "electric_scooter", "is_reserved": 0, "lon": -77.00061716666667}, {"fusion_lat": 0.0, "name": "6e7e550123f4145c72498f944c41878f", "is_disabled": 0, "rental_uris": {"android": "https://dc.lft.to/lastmile_qr_scan", "ios": "https://dc.lft.to/lastmile_qr_scan"}, "fusion_lon": 0.0, "lat": 38.91246116666667, "bike_id": "6e7e550123f4145c72498f944c41878f", "type": "electric_scooter", "is_reserved": 0, "lon": -77.04764883333333}, {"fusion_lat": 0.0, "name": "e89e49c82acbc713e7282d9610bd8b5a", "is_disabled": 0, "rental_uris": {"android": "https://dc.lft.to/lastmile_qr_scan", "ios": "https://dc.lft.to/lastmile_qr_scan"}, "fusion_lon": 0.0, "lat": 38.8853985, "bike_id": "e89e49c82acbc713e7282d9610bd8b5a", "type": "electric_scooter", "is_reserved": 0, "lon": -77.000615}, {"fusion_lat": 0.0, "name": "3962dcd7cad98bf9ad4ac5d7aabfc281", "is_disabled": 0, "rental_uris": {"android": "https://dc.lft.to/lastmile_qr_scan", "ios": "https://dc.lft.to/lastmile_qr_scan"}, "fusion_lon": 0.0, "lat": 38.91926766666667, "bike_id": "3962dcd7cad98bf9ad4ac5d7aabfc281", "type": "electric_scooter", "is_reserved": 0, "lon": -77.0321615}, {"fusion_lat": 0.0, "name": "ad3753ee8f01a8a38b3869caf3da3eb5", "is_disabled": 0, "rental_uris": {"android": "https://dc.lft.to/lastmile_qr_scan", "ios": "https://dc.lft.to/lastmile_qr_scan"}, "fusion_lon": 0.0, "lat": 38.96136033333333, "bike_id": "ad3753ee8f01a8a38b3869caf3da3eb5", "type": "electric_bike", "is_reserved": 0, "lon": -77.03330733333334}, {"fusion_lat": 0.0, "name": "ef0ced3a843158d5844d8754d0d6ec8a", "is_disabled": 0, "rental_uris": {"android": "https://dc.lft.to/lastmile_qr_scan", "ios": "https://dc.lft.to/lastmile_qr_scan"}, "fusion_lon": 0.0, "lat": 38.884591, "bike_id": "ef0ced3a843158d5844d8754d0d6ec8a", "type": "electric_scooter", "is_reserved": 0, "lon": -76.9262135}, {"fusion_lat": 0.0, "name": "03b6517ee42aa64cf5848d0145a3f494", "is_disabled": 0, "rental_uris": {"android": "https://dc.lft.to/lastmile_qr_scan", "ios": "https://dc.lft.to/lastmile_qr_scan"}, "fusion_lon": 0.0, "lat": 38.90972083333333, "bike_id": "03b6517ee42aa64cf5848d0145a3f494", "type": "electric_scooter", "is_reserved": 0, "lon": -77.04832466666667}, {"fusion_lat": 0.0, "name": "978414eee6a8b823577badd237ea0438", "is_disabled": 0, "rental_uris": {"android": "https://dc.lft.to/lastmile_qr_scan", "ios": "https://dc.lft.to/lastmile_qr_scan"}, "fusion_lon": 0.0, "lat": 38.906689, "bike_id": "978414eee6a8b823577badd237ea0438", "type": "electric_scooter", "is_reserved": 0, "lon": -77.01064933333333}, {"fusion_lat": 0.0, "name": "3d7e1011ab09f73f927bb5ad07442b09", "is_disabled": 0, "rental_uris": {"android": "https://dc.lft.to/lastmile_qr_scan", "ios": "https://dc.lft.to/lastmile_qr_scan"}, "fusion_lon": 0.0, "lat": 38.896065166666666, "bike_id": "3d7e1011ab09f73f927bb5ad07442b09", "type": "electric_scooter", "is_reserved": 0, "lon": -76.98107583333334}, {"fusion_lat": 0.0, "name": "7e9ab519a656a07a64dacfa109b84cb4", "is_disabled": 0, "rental_uris": {"android": "https://dc.lft.to/lastmile_qr_scan", "ios": "https://dc.lft.to/lastmile_qr_scan"}, "fusion_lon": 0.0, "lat": 38.905694, "bike_id": "7e9ab519a656a07a64dacfa109b84cb4", "type": "electric_scooter", "is_reserved": 0, "lon": -77.03069483333333}, {"fusion_lat": 0.0, "name": "3d5e577bf2e3b149a6ddc2afc894d82e", "is_disabled": 0, "rental_uris": {"android": "https://dc.lft.to/lastmile_qr_scan", "ios": "https://dc.lft.to/lastmile_qr_scan"}, "fusion_lon": 0.0, "lat": 38.91710116666667, "bike_id": "3d5e577bf2e3b149a6ddc2afc894d82e", "type": "electric_scooter", "is_reserved": 0, "lon": -77.03466316666666}, {"fusion_lat": 0.0, "name": "909d1455612b6ebe344afdf23e66178f", "is_disabled": 0, "rental_uris": {"android": "https://dc.lft.to/lastmile_qr_scan", "ios": "https://dc.lft.to/lastmile_qr_scan"}, "fusion_lon": 0.0, "lat": 38.93225983333333, "bike_id": "909d1455612b6ebe344afdf23e66178f", "type": "electric_scooter", "is_reserved": 0, "lon": -76.99491166666667}, {"fusion_lat": 0.0, "name": "a11a380b7b07fdcf3ec00df2ea110905", "is_disabled": 0, "rental_uris": {"android": "https://dc.lft.to/lastmile_qr_scan", "ios": "https://dc.lft.to/lastmile_qr_scan"}, "fusion_lon": 0.0, "lat": 38.923453, "bike_id": "a11a380b7b07fdcf3ec00df2ea110905", "type": "electric_scooter", "is_reserved": 0, "lon": -77.0517645}, {"fusion_lat": 0.0, "name": "6f65a181cc82e8d0790a16b232c8edc2", "is_disabled": 0, "rental_uris": {"android": "https://dc.lft.to/lastmile_qr_scan", "ios": "https://dc.lft.to/lastmile_qr_scan"}, "fusion_lon": 0.0, "lat": 38.896414166666666, "bike_id": "6f65a181cc82e8d0790a16b232c8edc2", "type": "electric_scooter", "is_reserved": 0, "lon": -77.00925433333333}, {"fusion_lat": 0.0, "name": "4ccc62e676bcc1c0ae8be7f9722562f3", "is_disabled": 0, "rental_uris": {"android": "https://dc.lft.to/lastmile_qr_scan", "ios": "https://dc.lft.to/lastmile_qr_scan"}, "fusion_lon": 0.0, "lat": 38.899118666666666, "bike_id": "4ccc62e676bcc1c0ae8be7f9722562f3", "type": "electric_scooter", "is_reserved": 0, "lon": -76.94586583333333}, {"fusion_lat": 0.0, "name": "9708a9e2f3e73cf3ae4bbeb21997178f", "is_disabled": 0, "rental_uris": {"android": "https://dc.lft.to/lastmile_qr_scan", "ios": "https://dc.lft.to/lastmile_qr_scan"}, "fusion_lon": 0.0, "lat": 38.875827, "bike_id": "9708a9e2f3e73cf3ae4bbeb21997178f", "type": "electric_bike", "is_reserved": 0, "lon": -77.23408733333333}, {"fusion_lat": 0.0, "name": "41ed818594017b4142b941bf79a8bf07", "is_disabled": 0, "rental_uris": {"android": "https://dc.lft.to/lastmile_qr_scan", "ios": "https://dc.lft.to/lastmile_qr_scan"}, "fusion_lon": 0.0, "lat": 38.90580583333333, "bike_id": "41ed818594017b4142b941bf79a8bf07", "type": "electric_scooter", "is_reserved": 0, "lon": -77.00895216666666}, {"fusion_lat": 0.0, "name": "8cf5339aa54811af6295a42a74f861c9", "is_disabled": 0, "rental_uris": {"android": "https://dc.lft.to/lastmile_qr_scan", "ios": "https://dc.lft.to/lastmile_qr_scan"}, "fusion_lon": 0.0, "lat": 38.91515366666667, "bike_id": "8cf5339aa54811af6295a42a74f861c9", "type": "electric_scooter", "is_reserved": 0, "lon": -77.01903883333334}, {"fusion_lat": 0.0, "name": "7e44fad7bc70b7036c4d7937fcb08af6", "is_disabled": 0, "rental_uris": {"android": "https://dc.lft.to/lastmile_qr_scan", "ios": "https://dc.lft.to/lastmile_qr_scan"}, "fusion_lon": 0.0, "lat": 38.935386, "bike_id": "7e44fad7bc70b7036c4d7937fcb08af6", "type": "electric_scooter", "is_reserved": 0, "lon": -77.05747166666667}, {"fusion_lat": 0.0, "name": "ea1798d3e861bd36b4e5de21b6543e13", "is_disabled": 0, "rental_uris": {"android": "https://dc.lft.to/lastmile_qr_scan", "ios": "https://dc.lft.to/lastmile_qr_scan"}, "fusion_lon": 0.0, "lat": 38.911037, "bike_id": "ea1798d3e861bd36b4e5de21b6543e13", "type": "electric_scooter", "is_reserved": 0, "lon": -77.04200533333334}, {"fusion_lat": 0.0, "name": "ab10c48377e1eb855a76ad1e6f108fcf", "is_disabled": 0, "rental_uris": {"android": "https://dc.lft.to/lastmile_qr_scan", "ios": "https://dc.lft.to/lastmile_qr_scan"}, "fusion_lon": 0.0, "lat": 38.91637016666667, "bike_id": "ab10c48377e1eb855a76ad1e6f108fcf", "type": "electric_scooter", "is_reserved": 0, "lon": -77.03201266666666}, {"fusion_lat": 0.0, "name": "1d2d2b943e3a9a0687ce578c5d8bbe1b", "is_disabled": 0, "rental_uris": {"android": "https://dc.lft.to/lastmile_qr_scan", "ios": "https://dc.lft.to/lastmile_qr_scan"}, "fusion_lon": 0.0, "lat": 38.91717366666666, "bike_id": "1d2d2b943e3a9a0687ce578c5d8bbe1b", "type": "electric_scooter", "is_reserved": 0, "lon": -77.02591566666666}, {"fusion_lat": 0.0, "name": "c3bd4704974340a36c2120f48927ac95", "is_disabled": 0, "rental_uris": {"android": "https://dc.lft.to/lastmile_qr_scan", "ios": "https://dc.lft.to/lastmile_qr_scan"}, "fusion_lon": 0.0, "lat": 38.90859733333333, "bike_id": "c3bd4704974340a36c2120f48927ac95", "type": "electric_scooter", "is_reserved": 0, "lon": -77.0329975}, {"fusion_lat": 0.0, "name": "c52f0a662b4bfcfc588b99a16d74e4b7", "is_disabled": 0, "rental_uris": {"android": "https://dc.lft.to/lastmile_qr_scan", "ios": "https://dc.lft.to/lastmile_qr_scan"}, "fusion_lon": 0.0, "lat": 38.9039935, "bike_id": "c52f0a662b4bfcfc588b99a16d74e4b7", "type": "electric_scooter", "is_reserved": 0, "lon": -76.9894145}, {"fusion_lat": 0.0, "name": "add19d0c2acc21090880b335fef171d7", "is_disabled": 0, "rental_uris": {"android": "https://dc.lft.to/lastmile_qr_scan", "ios": "https://dc.lft.to/lastmile_qr_scan"}, "fusion_lon": 0.0, "lat": 38.885285, "bike_id": "add19d0c2acc21090880b335fef171d7", "type": "electric_scooter", "is_reserved": 0, "lon": -76.92921566666666}, {"fusion_lat": 0.0, "name": "84e9821758b67a8a186918dbaaab8516", "is_disabled": 0, "rental_uris": {"android": "https://dc.lft.to/lastmile_qr_scan", "ios": "https://dc.lft.to/lastmile_qr_scan"}, "fusion_lon": 0.0, "lat": 38.899823, "bike_id": "84e9821758b67a8a186918dbaaab8516", "type": "electric_scooter", "is_reserved": 0, "lon": -77.027528}, {"fusion_lat": 0.0, "name": "811bbb50ea4b9611d1c987a935e3e9c8", "is_disabled": 0, "rental_uris": {"android": "https://dc.lft.to/lastmile_qr_scan", "ios": "https://dc.lft.to/lastmile_qr_scan"}, "fusion_lon": 0.0, "lat": 38.8968425, "bike_id": "811bbb50ea4b9611d1c987a935e3e9c8", "type": "electric_scooter", "is_reserved": 0, "lon": -76.93709633333333}, {"fusion_lat": 0.0, "name": "54aeaca4585bf496c5720bbf8d0b602e", "is_disabled": 0, "rental_uris": {"android": "https://dc.lft.to/lastmile_qr_scan", "ios": "https://dc.lft.to/lastmile_qr_scan"}, "fusion_lon": 0.0, "lat": 38.924126666666666, "bike_id": "54aeaca4585bf496c5720bbf8d0b602e", "type": "electric_scooter", "is_reserved": 0, "lon": -77.05255883333334}, {"fusion_lat": 0.0, "name": "a1e1843eb8f78d2ed31aebb85518728e", "is_disabled": 0, "rental_uris": {"android": "https://dc.lft.to/lastmile_qr_scan", "ios": "https://dc.lft.to/lastmile_qr_scan"}, "fusion_lon": 0.0, "lat": 38.95060083333333, "bike_id": "a1e1843eb8f78d2ed31aebb85518728e", "type": "electric_scooter", "is_reserved": 0, "lon": -77.08025733333334}, {"fusion_lat": 0.0, "name": "7b6d9cc6ce70d540141b7ebe5e84c122", "is_disabled": 0, "rental_uris": {"android": "https://dc.lft.to/lastmile_qr_scan", "ios": "https://dc.lft.to/lastmile_qr_scan"}, "fusion_lon": 0.0, "lat": 38.925849166666666, "bike_id": "7b6d9cc6ce70d540141b7ebe5e84c122", "type": "electric_scooter", "is_reserved": 0, "lon": -77.02977766666666}, {"fusion_lat": 0.0, "name": "6e168bfdb6a683bcce0d0ba5ee551458", "is_disabled": 0, "rental_uris": {"android": "https://dc.lft.to/lastmile_qr_scan", "ios": "https://dc.lft.to/lastmile_qr_scan"}, "fusion_lon": 0.0, "lat": 38.921277833333335, "bike_id": "6e168bfdb6a683bcce0d0ba5ee551458", "type": "electric_scooter", "is_reserved": 0, "lon": -77.04420616666667}, {"fusion_lat": 0.0, "name": "e19ddd7a704bfeb05e6a3755b27c468b", "is_disabled": 0, "rental_uris": {"android": "https://dc.lft.to/lastmile_qr_scan", "ios": "https://dc.lft.to/lastmile_qr_scan"}, "fusion_lon": 0.0, "lat": 38.90719166666667, "bike_id": "e19ddd7a704bfeb05e6a3755b27c468b", "type": "electric_scooter", "is_reserved": 0, "lon": -77.04553766666666}, {"fusion_lat": 0.0, "name": "42b30470297b88ff374facf461f20dcf", "is_disabled": 0, "rental_uris": {"android": "https://dc.lft.to/lastmile_qr_scan", "ios": "https://dc.lft.to/lastmile_qr_scan"}, "fusion_lon": 0.0, "lat": 38.91708833333333, "bike_id": "42b30470297b88ff374facf461f20dcf", "type": "electric_scooter", "is_reserved": 0, "lon": -77.023871}, {"fusion_lat": 0.0, "name": "0c8fcda72b59b202117168c4943e988f", "is_disabled": 0, "rental_uris": {"android": "https://dc.lft.to/lastmile_qr_scan", "ios": "https://dc.lft.to/lastmile_qr_scan"}, "fusion_lon": 0.0, "lat": 38.91535966666667, "bike_id": "0c8fcda72b59b202117168c4943e988f", "type": "electric_scooter", "is_reserved": 0, "lon": -77.03186}, {"fusion_lat": 0.0, "name": "2f0deab4501e165c4bee1c658a37056a", "is_disabled": 0, "rental_uris": {"android": "https://dc.lft.to/lastmile_qr_scan", "ios": "https://dc.lft.to/lastmile_qr_scan"}, "fusion_lon": 0.0, "lat": 38.92450616666667, "bike_id": "2f0deab4501e165c4bee1c658a37056a", "type": "electric_scooter", "is_reserved": 0, "lon": -77.03969616666667}, {"fusion_lat": 0.0, "name": "d0c20aa340217b05b1d90c0e8dbdc790", "is_disabled": 0, "rental_uris": {"android": "https://dc.lft.to/lastmile_qr_scan", "ios": "https://dc.lft.to/lastmile_qr_scan"}, "fusion_lon": 0.0, "lat": 38.8873895, "bike_id": "d0c20aa340217b05b1d90c0e8dbdc790", "type": "electric_scooter", "is_reserved": 0, "lon": -77.021292}, {"fusion_lat": 0.0, "name": "98c3b09d04074ae9816b3a22a83b7d00", "is_disabled": 0, "rental_uris": {"android": "https://dc.lft.to/lastmile_qr_scan", "ios": "https://dc.lft.to/lastmile_qr_scan"}, "fusion_lon": 0.0, "lat": 38.90959983333333, "bike_id": "98c3b09d04074ae9816b3a22a83b7d00", "type": "electric_scooter", "is_reserved": 0, "lon": -77.02378783333333}, {"fusion_lat": 0.0, "name": "c96afcd1d842c5e94b8eb8c043e51c53", "is_disabled": 0, "rental_uris": {"android": "https://dc.lft.to/lastmile_qr_scan", "ios": "https://dc.lft.to/lastmile_qr_scan"}, "fusion_lon": 0.0, "lat": 38.90297, "bike_id": "c96afcd1d842c5e94b8eb8c043e51c53", "type": "electric_scooter", "is_reserved": 0, "lon": -77.01621016666667}, {"fusion_lat": 0.0, "name": "60cc6ac665b7c4129f573c5ad0efa530", "is_disabled": 0, "rental_uris": {"android": "https://dc.lft.to/lastmile_qr_scan", "ios": "https://dc.lft.to/lastmile_qr_scan"}, "fusion_lon": 0.0, "lat": 38.91565083333333, "bike_id": "60cc6ac665b7c4129f573c5ad0efa530", "type": "electric_bike", "is_reserved": 0, "lon": -77.005847}, {"fusion_lat": 0.0, "name": "300b7ee8221f8c521d980a6513cdc4c2", "is_disabled": 0, "rental_uris": {"android": "https://dc.lft.to/lastmile_qr_scan", "ios": "https://dc.lft.to/lastmile_qr_scan"}, "fusion_lon": 0.0, "lat": 38.895481, "bike_id": "300b7ee8221f8c521d980a6513cdc4c2", "type": "electric_scooter", "is_reserved": 0, "lon": -76.98336333333333}, {"fusion_lat": 0.0, "name": "9d49ba93450e46bc5e148f123fe93f20", "is_disabled": 0, "rental_uris": {"android": "https://dc.lft.to/lastmile_qr_scan", "ios": "https://dc.lft.to/lastmile_qr_scan"}, "fusion_lon": 0.0, "lat": 38.92147766666667, "bike_id": "9d49ba93450e46bc5e148f123fe93f20", "type": "electric_scooter", "is_reserved": 0, "lon": -77.04004366666666}, {"fusion_lat": 0.0, "name": "29be8d60815d0b8ed4f29b57aa4eee5c", "is_disabled": 0, "rental_uris": {"android": "https://dc.lft.to/lastmile_qr_scan", "ios": "https://dc.lft.to/lastmile_qr_scan"}, "fusion_lon": 0.0, "lat": 38.896069, "bike_id": "29be8d60815d0b8ed4f29b57aa4eee5c", "type": "electric_scooter", "is_reserved": 0, "lon": -77.00928066666667}, {"fusion_lat": 0.0, "name": "101fccf5c1caba5ab95dadc3708bdaa5", "is_disabled": 0, "rental_uris": {"android": "https://dc.lft.to/lastmile_qr_scan", "ios": "https://dc.lft.to/lastmile_qr_scan"}, "fusion_lon": 0.0, "lat": 38.8838555, "bike_id": "101fccf5c1caba5ab95dadc3708bdaa5", "type": "electric_scooter", "is_reserved": 0, "lon": -77.0198375}, {"fusion_lat": 0.0, "name": "eadfe8e567e2c3c0061a6553196ab48b", "is_disabled": 0, "rental_uris": {"android": "https://dc.lft.to/lastmile_qr_scan", "ios": "https://dc.lft.to/lastmile_qr_scan"}, "fusion_lon": 0.0, "lat": 38.91717966666667, "bike_id": "eadfe8e567e2c3c0061a6553196ab48b", "type": "electric_scooter", "is_reserved": 0, "lon": -77.00833316666667}, {"fusion_lat": 0.0, "name": "fa05249e0fb1b1fe8444fb5ce20c5158", "is_disabled": 0, "rental_uris": {"android": "https://dc.lft.to/lastmile_qr_scan", "ios": "https://dc.lft.to/lastmile_qr_scan"}, "fusion_lon": 0.0, "lat": 38.89223366666667, "bike_id": "fa05249e0fb1b1fe8444fb5ce20c5158", "type": "electric_scooter", "is_reserved": 0, "lon": -77.02630366666666}, {"fusion_lat": 0.0, "name": "5cdd2e62ef650bb9713e33cb3e9f65aa", "is_disabled": 0, "rental_uris": {"android": "https://dc.lft.to/lastmile_qr_scan", "ios": "https://dc.lft.to/lastmile_qr_scan"}, "fusion_lon": 0.0, "lat": 38.9418195, "bike_id": "5cdd2e62ef650bb9713e33cb3e9f65aa", "type": "electric_scooter", "is_reserved": 0, "lon": -77.03652916666667}, {"fusion_lat": 0.0, "name": "515ae6111b37bbd2d29a753a4708c793", "is_disabled": 0, "rental_uris": {"android": "https://dc.lft.to/lastmile_qr_scan", "ios": "https://dc.lft.to/lastmile_qr_scan"}, "fusion_lon": 0.0, "lat": 38.862545833333336, "bike_id": "515ae6111b37bbd2d29a753a4708c793", "type": "electric_bike", "is_reserved": 0, "lon": -76.98330666666666}, {"fusion_lat": 0.0, "name": "eee8ab852145866e5ec869d63382608d", "is_disabled": 0, "rental_uris": {"android": "https://dc.lft.to/lastmile_qr_scan", "ios": "https://dc.lft.to/lastmile_qr_scan"}, "fusion_lon": 0.0, "lat": 38.9218655, "bike_id": "eee8ab852145866e5ec869d63382608d", "type": "electric_scooter", "is_reserved": 0, "lon": -76.99695483333333}, {"fusion_lat": 0.0, "name": "76a735fcef3e3a59e3aded55905a6a91", "is_disabled": 0, "rental_uris": {"android": "https://dc.lft.to/lastmile_qr_scan", "ios": "https://dc.lft.to/lastmile_qr_scan"}, "fusion_lon": 0.0, "lat": 38.900984666666666, "bike_id": "76a735fcef3e3a59e3aded55905a6a91", "type": "electric_scooter", "is_reserved": 0, "lon": -77.01975933333334}, {"fusion_lat": 0.0, "name": "db0d5fa06722565b318997bc05a66898", "is_disabled": 0, "rental_uris": {"android": "https://dc.lft.to/lastmile_qr_scan", "ios": "https://dc.lft.to/lastmile_qr_scan"}, "fusion_lon": 0.0, "lat": 38.91824833333333, "bike_id": "db0d5fa06722565b318997bc05a66898", "type": "electric_scooter", "is_reserved": 0, "lon": -77.03994633333333}, {"fusion_lat": 0.0, "name": "6454262c94dc82ee664d44934dc52002", "is_disabled": 0, "rental_uris": {"android": "https://dc.lft.to/lastmile_qr_scan", "ios": "https://dc.lft.to/lastmile_qr_scan"}, "fusion_lon": 0.0, "lat": 38.85806566666667, "bike_id": "6454262c94dc82ee664d44934dc52002", "type": "electric_bike", "is_reserved": 0, "lon": -76.987501}, {"fusion_lat": 0.0, "name": "cae0c5695f2695a692660c41cea91455", "is_disabled": 0, "rental_uris": {"android": "https://dc.lft.to/lastmile_qr_scan", "ios": "https://dc.lft.to/lastmile_qr_scan"}, "fusion_lon": 0.0, "lat": 38.9238155, "bike_id": "cae0c5695f2695a692660c41cea91455", "type": "electric_scooter", "is_reserved": 0, "lon": -77.03651833333333}, {"fusion_lat": 0.0, "name": "3fe4d5becd724b24886b706790f0bf4b", "is_disabled": 0, "rental_uris": {"android": "https://dc.lft.to/lastmile_qr_scan", "ios": "https://dc.lft.to/lastmile_qr_scan"}, "fusion_lon": 0.0, "lat": 38.920631166666666, "bike_id": "3fe4d5becd724b24886b706790f0bf4b", "type": "electric_scooter", "is_reserved": 0, "lon": -77.032313}, {"fusion_lat": 0.0, "name": "45810d49b6f43c88dab9f4e5dd13a48a", "is_disabled": 0, "rental_uris": {"android": "https://dc.lft.to/lastmile_qr_scan", "ios": "https://dc.lft.to/lastmile_qr_scan"}, "fusion_lon": 0.0, "lat": 38.934018333333334, "bike_id": "45810d49b6f43c88dab9f4e5dd13a48a", "type": "electric_bike", "is_reserved": 0, "lon": -77.03538466666667}, {"fusion_lat": 0.0, "name": "ea5e474f70ef6a58f28999004d1dee03", "is_disabled": 0, "rental_uris": {"android": "https://dc.lft.to/lastmile_qr_scan", "ios": "https://dc.lft.to/lastmile_qr_scan"}, "fusion_lon": 0.0, "lat": 38.885435, "bike_id": "ea5e474f70ef6a58f28999004d1dee03", "type": "electric_scooter", "is_reserved": 0, "lon": -76.97892116666667}, {"fusion_lat": 0.0, "name": "f3cc3485c1d3ea00db3bdfa287255dea", "is_disabled": 0, "rental_uris": {"android": "https://dc.lft.to/lastmile_qr_scan", "ios": "https://dc.lft.to/lastmile_qr_scan"}, "fusion_lon": 0.0, "lat": 38.915636, "bike_id": "f3cc3485c1d3ea00db3bdfa287255dea", "type": "electric_scooter", "is_reserved": 0, "lon": -77.01053766666666}, {"fusion_lat": 0.0, "name": "887fbc2873c455c19785da6bfb2902b4", "is_disabled": 0, "rental_uris": {"android": "https://dc.lft.to/lastmile_qr_scan", "ios": "https://dc.lft.to/lastmile_qr_scan"}, "fusion_lon": 0.0, "lat": 38.909743166666665, "bike_id": "887fbc2873c455c19785da6bfb2902b4", "type": "electric_scooter", "is_reserved": 0, "lon": -77.02687166666666}, {"fusion_lat": 0.0, "name": "5b7e9d63f4303b1ae811149939393211", "is_disabled": 0, "rental_uris": {"android": "https://dc.lft.to/lastmile_qr_scan", "ios": "https://dc.lft.to/lastmile_qr_scan"}, "fusion_lon": 0.0, "lat": 38.88731466666667, "bike_id": "5b7e9d63f4303b1ae811149939393211", "type": "electric_scooter", "is_reserved": 0, "lon": -77.00321416666667}, {"fusion_lat": 0.0, "name": "c620f28a69ecd62644948be007074af7", "is_disabled": 0, "rental_uris": {"android": "https://dc.lft.to/lastmile_qr_scan", "ios": "https://dc.lft.to/lastmile_qr_scan"}, "fusion_lon": 0.0, "lat": 38.8708625, "bike_id": "c620f28a69ecd62644948be007074af7", "type": "electric_scooter", "is_reserved": 0, "lon": -77.01380083333333}, {"fusion_lat": 0.0, "name": "c8958040704a29288964baec3b854401", "is_disabled": 0, "rental_uris": {"android": "https://dc.lft.to/lastmile_qr_scan", "ios": "https://dc.lft.to/lastmile_qr_scan"}, "fusion_lon": 0.0, "lat": 38.90766216666667, "bike_id": "c8958040704a29288964baec3b854401", "type": "electric_scooter", "is_reserved": 0, "lon": -77.03204233333334}, {"fusion_lat": 0.0, "name": "3ff4616699846591cca47de04abeedbd", "is_disabled": 0, "rental_uris": {"android": "https://dc.lft.to/lastmile_qr_scan", "ios": "https://dc.lft.to/lastmile_qr_scan"}, "fusion_lon": 0.0, "lat": 38.90375016666667, "bike_id": "3ff4616699846591cca47de04abeedbd", "type": "electric_scooter", "is_reserved": 0, "lon": -77.01632333333333}, {"fusion_lat": 0.0, "name": "a4d144059ffb6f4869354c755decc39c", "is_disabled": 0, "rental_uris": {"android": "https://dc.lft.to/lastmile_qr_scan", "ios": "https://dc.lft.to/lastmile_qr_scan"}, "fusion_lon": 0.0, "lat": 38.89969983333334, "bike_id": "a4d144059ffb6f4869354c755decc39c", "type": "electric_scooter", "is_reserved": 0, "lon": -76.987038}, {"fusion_lat": 0.0, "name": "7951fbd6ea535906db98210d2a310b75", "is_disabled": 0, "rental_uris": {"android": "https://dc.lft.to/lastmile_qr_scan", "ios": "https://dc.lft.to/lastmile_qr_scan"}, "fusion_lon": 0.0, "lat": 38.88746833333333, "bike_id": "7951fbd6ea535906db98210d2a310b75", "type": "electric_scooter", "is_reserved": 0, "lon": -77.0178485}, {"fusion_lat": 0.0, "name": "33809c6d7c72be9a4136460d149deaa1", "is_disabled": 0, "rental_uris": {"android": "https://dc.lft.to/lastmile_qr_scan", "ios": "https://dc.lft.to/lastmile_qr_scan"}, "fusion_lon": 0.0, "lat": 38.93768216666667, "bike_id": "33809c6d7c72be9a4136460d149deaa1", "type": "electric_scooter", "is_reserved": 0, "lon": -77.02378116666667}, {"fusion_lat": 0.0, "name": "099cab8360af1b7626ee2eb8d4ea2473", "is_disabled": 0, "rental_uris": {"android": "https://dc.lft.to/lastmile_qr_scan", "ios": "https://dc.lft.to/lastmile_qr_scan"}, "fusion_lon": 0.0, "lat": 38.902889333333334, "bike_id": "099cab8360af1b7626ee2eb8d4ea2473", "type": "electric_scooter", "is_reserved": 0, "lon": -77.00603133333334}, {"fusion_lat": 0.0, "name": "f50e3f26681a2ddfe2c3549c490825b1", "is_disabled": 0, "rental_uris": {"android": "https://dc.lft.to/lastmile_qr_scan", "ios": "https://dc.lft.to/lastmile_qr_scan"}, "fusion_lon": 0.0, "lat": 38.915510166666664, "bike_id": "f50e3f26681a2ddfe2c3549c490825b1", "type": "electric_scooter", "is_reserved": 0, "lon": -77.03854316666667}, {"fusion_lat": 0.0, "name": "b2cd620e101cf4c60674eb629cc896e6", "is_disabled": 0, "rental_uris": {"android": "https://dc.lft.to/lastmile_qr_scan", "ios": "https://dc.lft.to/lastmile_qr_scan"}, "fusion_lon": 0.0, "lat": 38.902627, "bike_id": "b2cd620e101cf4c60674eb629cc896e6", "type": "electric_scooter", "is_reserved": 0, "lon": -77.04150983333334}, {"fusion_lat": 0.0, "name": "4931af5b423f089b167128c0e892a176", "is_disabled": 0, "rental_uris": {"android": "https://dc.lft.to/lastmile_qr_scan", "ios": "https://dc.lft.to/lastmile_qr_scan"}, "fusion_lon": 0.0, "lat": 38.920810333333336, "bike_id": "4931af5b423f089b167128c0e892a176", "type": "electric_scooter", "is_reserved": 0, "lon": -77.0254795}, {"fusion_lat": 0.0, "name": "4cdf15c00973ee3d746f9c325520908d", "is_disabled": 0, "rental_uris": {"android": "https://dc.lft.to/lastmile_qr_scan", "ios": "https://dc.lft.to/lastmile_qr_scan"}, "fusion_lon": 0.0, "lat": 38.8982835, "bike_id": "4cdf15c00973ee3d746f9c325520908d", "type": "electric_scooter", "is_reserved": 0, "lon": -76.9877635}, {"fusion_lat": 0.0, "name": "e6753a55c4690197b02105e53d1e4dde", "is_disabled": 0, "rental_uris": {"android": "https://dc.lft.to/lastmile_qr_scan", "ios": "https://dc.lft.to/lastmile_qr_scan"}, "fusion_lon": 0.0, "lat": 38.9267795, "bike_id": "e6753a55c4690197b02105e53d1e4dde", "type": "electric_scooter", "is_reserved": 0, "lon": -77.02991516666667}, {"fusion_lat": 0.0, "name": "5dbbbd39feda8ce96d9c987efade5aab", "is_disabled": 0, "rental_uris": {"android": "https://dc.lft.to/lastmile_qr_scan", "ios": "https://dc.lft.to/lastmile_qr_scan"}, "fusion_lon": 0.0, "lat": 38.90034133333333, "bike_id": "5dbbbd39feda8ce96d9c987efade5aab", "type": "electric_scooter", "is_reserved": 0, "lon": -77.0118355}, {"fusion_lat": 0.0, "name": "bd5b659ae97f93769cd2e4efc485e40e", "is_disabled": 0, "rental_uris": {"android": "https://dc.lft.to/lastmile_qr_scan", "ios": "https://dc.lft.to/lastmile_qr_scan"}, "fusion_lon": 0.0, "lat": 38.919922, "bike_id": "bd5b659ae97f93769cd2e4efc485e40e", "type": "electric_scooter", "is_reserved": 0, "lon": -77.0327885}, {"fusion_lat": 0.0, "name": "c8891cc9c89e03a1e7a93776f7b45557", "is_disabled": 0, "rental_uris": {"android": "https://dc.lft.to/lastmile_qr_scan", "ios": "https://dc.lft.to/lastmile_qr_scan"}, "fusion_lon": 0.0, "lat": 38.920768333333335, "bike_id": "c8891cc9c89e03a1e7a93776f7b45557", "type": "electric_bike", "is_reserved": 0, "lon": -76.9894375}, {"fusion_lat": 0.0, "name": "2f144b731fbd5022e84adb9b75cc52eb", "is_disabled": 0, "rental_uris": {"android": "https://dc.lft.to/lastmile_qr_scan", "ios": "https://dc.lft.to/lastmile_qr_scan"}, "fusion_lon": 0.0, "lat": 38.90534066666667, "bike_id": "2f144b731fbd5022e84adb9b75cc52eb", "type": "electric_bike", "is_reserved": 0, "lon": -76.99802}, {"fusion_lat": 0.0, "name": "da32d5e9b86e7e4442c118503f8fec77", "is_disabled": 0, "rental_uris": {"android": "https://dc.lft.to/lastmile_qr_scan", "ios": "https://dc.lft.to/lastmile_qr_scan"}, "fusion_lon": 0.0, "lat": 38.92323583333334, "bike_id": "da32d5e9b86e7e4442c118503f8fec77", "type": "electric_scooter", "is_reserved": 0, "lon": -77.04021333333333}, {"fusion_lat": 0.0, "name": "739c6ff53931abe1f72cb446ddfbc22b", "is_disabled": 0, "rental_uris": {"android": "https://dc.lft.to/lastmile_qr_scan", "ios": "https://dc.lft.to/lastmile_qr_scan"}, "fusion_lon": 0.0, "lat": 38.91729316666667, "bike_id": "739c6ff53931abe1f72cb446ddfbc22b", "type": "electric_scooter", "is_reserved": 0, "lon": -77.02294916666666}, {"fusion_lat": 0.0, "name": "3a957a3eb052ec35dda89775771b9f0e", "is_disabled": 0, "rental_uris": {"android": "https://dc.lft.to/lastmile_qr_scan", "ios": "https://dc.lft.to/lastmile_qr_scan"}, "fusion_lon": 0.0, "lat": 38.90935366666667, "bike_id": "3a957a3eb052ec35dda89775771b9f0e", "type": "electric_scooter", "is_reserved": 0, "lon": -77.02817216666666}, {"fusion_lat": 0.0, "name": "b53084142bdef6fc6aacb95a67d8c52a", "is_disabled": 0, "rental_uris": {"android": "https://dc.lft.to/lastmile_qr_scan", "ios": "https://dc.lft.to/lastmile_qr_scan"}, "fusion_lon": 0.0, "lat": 38.877517, "bike_id": "b53084142bdef6fc6aacb95a67d8c52a", "type": "electric_scooter", "is_reserved": 0, "lon": -77.00342783333333}, {"fusion_lat": 0.0, "name": "004ca00d9494f5827eacb50e96151bc3", "is_disabled": 0, "rental_uris": {"android": "https://dc.lft.to/lastmile_qr_scan", "ios": "https://dc.lft.to/lastmile_qr_scan"}, "fusion_lon": 0.0, "lat": 38.89728183333333, "bike_id": "004ca00d9494f5827eacb50e96151bc3", "type": "electric_scooter", "is_reserved": 0, "lon": -77.0191125}, {"fusion_lat": 0.0, "name": "523d0feeb513c268cc956ed956224fc5", "is_disabled": 0, "rental_uris": {"android": "https://dc.lft.to/lastmile_qr_scan", "ios": "https://dc.lft.to/lastmile_qr_scan"}, "fusion_lon": 0.0, "lat": 38.9097725, "bike_id": "523d0feeb513c268cc956ed956224fc5", "type": "electric_scooter", "is_reserved": 0, "lon": -77.032082}, {"fusion_lat": 0.0, "name": "e6feee2e65a2bf4c1a5e760c1a1d82be", "is_disabled": 0, "rental_uris": {"android": "https://dc.lft.to/lastmile_qr_scan", "ios": "https://dc.lft.to/lastmile_qr_scan"}, "fusion_lon": 0.0, "lat": 38.90805683333333, "bike_id": "e6feee2e65a2bf4c1a5e760c1a1d82be", "type": "electric_scooter", "is_reserved": 0, "lon": -77.0297385}, {"fusion_lat": 0.0, "name": "9b59952d9eb5abca5479438c4e101a67", "is_disabled": 0, "rental_uris": {"android": "https://dc.lft.to/lastmile_qr_scan", "ios": "https://dc.lft.to/lastmile_qr_scan"}, "fusion_lon": 0.0, "lat": 38.90348516666667, "bike_id": "9b59952d9eb5abca5479438c4e101a67", "type": "electric_scooter", "is_reserved": 0, "lon": -77.04506483333333}, {"fusion_lat": 0.0, "name": "d53167fd77a676141903a5e7443566ee", "is_disabled": 0, "rental_uris": {"android": "https://dc.lft.to/lastmile_qr_scan", "ios": "https://dc.lft.to/lastmile_qr_scan"}, "fusion_lon": 0.0, "lat": 38.9125675, "bike_id": "d53167fd77a676141903a5e7443566ee", "type": "electric_scooter", "is_reserved": 0, "lon": -77.028137}, {"fusion_lat": 0.0, "name": "f8099596f5b7a4627d6c6da62380b6cc", "is_disabled": 0, "rental_uris": {"android": "https://dc.lft.to/lastmile_qr_scan", "ios": "https://dc.lft.to/lastmile_qr_scan"}, "fusion_lon": 0.0, "lat": 38.89556783333333, "bike_id": "f8099596f5b7a4627d6c6da62380b6cc", "type": "electric_scooter", "is_reserved": 0, "lon": -76.948732}, {"fusion_lat": 0.0, "name": "060d6088d46e4ab27b146e6cd6b0d179", "is_disabled": 0, "rental_uris": {"android": "https://dc.lft.to/lastmile_qr_scan", "ios": "https://dc.lft.to/lastmile_qr_scan"}, "fusion_lon": 0.0, "lat": 38.8995515, "bike_id": "060d6088d46e4ab27b146e6cd6b0d179", "type": "electric_bike", "is_reserved": 0, "lon": -77.01858716666666}, {"fusion_lat": 0.0, "name": "a0c16e570485b1bfe404222e8a091bcb", "is_disabled": 0, "rental_uris": {"android": "https://dc.lft.to/lastmile_qr_scan", "ios": "https://dc.lft.to/lastmile_qr_scan"}, "fusion_lon": 0.0, "lat": 38.91155833333333, "bike_id": "a0c16e570485b1bfe404222e8a091bcb", "type": "electric_scooter", "is_reserved": 0, "lon": -77.01078083333333}, {"fusion_lat": 0.0, "name": "4f99f9235fd13ba814a1282ff949cb29", "is_disabled": 0, "rental_uris": {"android": "https://dc.lft.to/lastmile_qr_scan", "ios": "https://dc.lft.to/lastmile_qr_scan"}, "fusion_lon": 0.0, "lat": 38.928755833333334, "bike_id": "4f99f9235fd13ba814a1282ff949cb29", "type": "electric_scooter", "is_reserved": 0, "lon": -77.01350233333334}, {"fusion_lat": 0.0, "name": "a5a247ba61636f8757e5209bf11ed77d", "is_disabled": 0, "rental_uris": {"android": "https://dc.lft.to/lastmile_qr_scan", "ios": "https://dc.lft.to/lastmile_qr_scan"}, "fusion_lon": 0.0, "lat": 38.9036945, "bike_id": "a5a247ba61636f8757e5209bf11ed77d", "type": "electric_scooter", "is_reserved": 0, "lon": -77.04006016666666}, {"fusion_lat": 0.0, "name": "fa27667a74b3d99df80ca16dae668dd3", "is_disabled": 0, "rental_uris": {"android": "https://dc.lft.to/lastmile_qr_scan", "ios": "https://dc.lft.to/lastmile_qr_scan"}, "fusion_lon": 0.0, "lat": 38.903873, "bike_id": "fa27667a74b3d99df80ca16dae668dd3", "type": "electric_scooter", "is_reserved": 0, "lon": -77.03437833333334}, {"fusion_lat": 0.0, "name": "78b6a87412f47358671cb2a4633fa1df", "is_disabled": 0, "rental_uris": {"android": "https://dc.lft.to/lastmile_qr_scan", "ios": "https://dc.lft.to/lastmile_qr_scan"}, "fusion_lon": 0.0, "lat": 38.8899585, "bike_id": "78b6a87412f47358671cb2a4633fa1df", "type": "electric_scooter", "is_reserved": 0, "lon": -76.983661}, {"fusion_lat": 0.0, "name": "7130a34bda87268618837e075be48eba", "is_disabled": 0, "rental_uris": {"android": "https://dc.lft.to/lastmile_qr_scan", "ios": "https://dc.lft.to/lastmile_qr_scan"}, "fusion_lon": 0.0, "lat": 38.91315383333333, "bike_id": "7130a34bda87268618837e075be48eba", "type": "electric_scooter", "is_reserved": 0, "lon": -77.041608}, {"fusion_lat": 0.0, "name": "bae2579340f9f93684d64b3a0eb43616", "is_disabled": 0, "rental_uris": {"android": "https://dc.lft.to/lastmile_qr_scan", "ios": "https://dc.lft.to/lastmile_qr_scan"}, "fusion_lon": 0.0, "lat": 38.911947, "bike_id": "bae2579340f9f93684d64b3a0eb43616", "type": "electric_scooter", "is_reserved": 0, "lon": -77.0021995}, {"fusion_lat": 0.0, "name": "c82cb6131bc3a225072b3bc8f1132081", "is_disabled": 0, "rental_uris": {"android": "https://dc.lft.to/lastmile_qr_scan", "ios": "https://dc.lft.to/lastmile_qr_scan"}, "fusion_lon": 0.0, "lat": 38.9273065, "bike_id": "c82cb6131bc3a225072b3bc8f1132081", "type": "electric_scooter", "is_reserved": 0, "lon": -77.023054}, {"fusion_lat": 0.0, "name": "ca7ac00e91d210ad26cf70b8cc19921f", "is_disabled": 0, "rental_uris": {"android": "https://dc.lft.to/lastmile_qr_scan", "ios": "https://dc.lft.to/lastmile_qr_scan"}, "fusion_lon": 0.0, "lat": 38.9026405, "bike_id": "ca7ac00e91d210ad26cf70b8cc19921f", "type": "electric_scooter", "is_reserved": 0, "lon": -77.00538883333333}, {"fusion_lat": 0.0, "name": "e69351256208853bae2ee14b71d2d9d6", "is_disabled": 0, "rental_uris": {"android": "https://dc.lft.to/lastmile_qr_scan", "ios": "https://dc.lft.to/lastmile_qr_scan"}, "fusion_lon": 0.0, "lat": 38.87849416666667, "bike_id": "e69351256208853bae2ee14b71d2d9d6", "type": "electric_scooter", "is_reserved": 0, "lon": -77.0010975}, {"fusion_lat": 0.0, "name": "b10cc0625498ba875b23e1bc34a1b227", "is_disabled": 0, "rental_uris": {"android": "https://dc.lft.to/lastmile_qr_scan", "ios": "https://dc.lft.to/lastmile_qr_scan"}, "fusion_lon": 0.0, "lat": 38.90737883333333, "bike_id": "b10cc0625498ba875b23e1bc34a1b227", "type": "electric_scooter", "is_reserved": 0, "lon": -77.04153983333333}, {"fusion_lat": 0.0, "name": "390fa8ee45c54aa9815f20062a8463a7", "is_disabled": 0, "rental_uris": {"android": "https://dc.lft.to/lastmile_qr_scan", "ios": "https://dc.lft.to/lastmile_qr_scan"}, "fusion_lon": 0.0, "lat": 38.87469883333333, "bike_id": "390fa8ee45c54aa9815f20062a8463a7", "type": "electric_scooter", "is_reserved": 0, "lon": -77.004705}, {"fusion_lat": 0.0, "name": "e7366001f3b1d4e18fda06d2d23b6218", "is_disabled": 0, "rental_uris": {"android": "https://dc.lft.to/lastmile_qr_scan", "ios": "https://dc.lft.to/lastmile_qr_scan"}, "fusion_lon": 0.0, "lat": 38.90854933333333, "bike_id": "e7366001f3b1d4e18fda06d2d23b6218", "type": "electric_scooter", "is_reserved": 0, "lon": -77.03828683333333}, {"fusion_lat": 0.0, "name": "805ebdf89375d28e40b346a59c94e546", "is_disabled": 0, "rental_uris": {"android": "https://dc.lft.to/lastmile_qr_scan", "ios": "https://dc.lft.to/lastmile_qr_scan"}, "fusion_lon": 0.0, "lat": 38.90714333333333, "bike_id": "805ebdf89375d28e40b346a59c94e546", "type": "electric_scooter", "is_reserved": 0, "lon": -77.03260966666667}, {"fusion_lat": 0.0, "name": "49c8bf9c0cc0daa572a2ee560f0b1b14", "is_disabled": 0, "rental_uris": {"android": "https://dc.lft.to/lastmile_qr_scan", "ios": "https://dc.lft.to/lastmile_qr_scan"}, "fusion_lon": 0.0, "lat": 38.920936833333336, "bike_id": "49c8bf9c0cc0daa572a2ee560f0b1b14", "type": "electric_scooter", "is_reserved": 0, "lon": -77.02424433333333}, {"fusion_lat": 0.0, "name": "e50a2a25f9bb0f287f0d263b90346d62", "is_disabled": 0, "rental_uris": {"android": "https://dc.lft.to/lastmile_qr_scan", "ios": "https://dc.lft.to/lastmile_qr_scan"}, "fusion_lon": 0.0, "lat": 38.921250666666666, "bike_id": "e50a2a25f9bb0f287f0d263b90346d62", "type": "electric_scooter", "is_reserved": 0, "lon": -77.02534683333333}, {"fusion_lat": 0.0, "name": "b31028476f30b33970238f58101b1459", "is_disabled": 0, "rental_uris": {"android": "https://dc.lft.to/lastmile_qr_scan", "ios": "https://dc.lft.to/lastmile_qr_scan"}, "fusion_lon": 0.0, "lat": 38.93710383333333, "bike_id": "b31028476f30b33970238f58101b1459", "type": "electric_scooter", "is_reserved": 0, "lon": -77.0242995}, {"fusion_lat": 0.0, "name": "30a541025903c0bab89fd1642bfc71df", "is_disabled": 0, "rental_uris": {"android": "https://dc.lft.to/lastmile_qr_scan", "ios": "https://dc.lft.to/lastmile_qr_scan"}, "fusion_lon": 0.0, "lat": 38.912582666666665, "bike_id": "30a541025903c0bab89fd1642bfc71df", "type": "electric_scooter", "is_reserved": 0, "lon": -77.0350165}, {"fusion_lat": 0.0, "name": "012d24fb590252164c8eb0c7b1b50acc", "is_disabled": 0, "rental_uris": {"android": "https://dc.lft.to/lastmile_qr_scan", "ios": "https://dc.lft.to/lastmile_qr_scan"}, "fusion_lon": 0.0, "lat": 38.919348166666666, "bike_id": "012d24fb590252164c8eb0c7b1b50acc", "type": "electric_scooter", "is_reserved": 0, "lon": -77.03037866666666}, {"fusion_lat": 0.0, "name": "037cc1c16c9ca7cbbf2c5155065b0dd0", "is_disabled": 0, "rental_uris": {"android": "https://dc.lft.to/lastmile_qr_scan", "ios": "https://dc.lft.to/lastmile_qr_scan"}, "fusion_lon": 0.0, "lat": 38.91669533333334, "bike_id": "037cc1c16c9ca7cbbf2c5155065b0dd0", "type": "electric_scooter", "is_reserved": 0, "lon": -77.02411683333334}, {"fusion_lat": 0.0, "name": "e265c983f2666a0b2b409a0d94fda4f2", "is_disabled": 0, "rental_uris": {"android": "https://dc.lft.to/lastmile_qr_scan", "ios": "https://dc.lft.to/lastmile_qr_scan"}, "fusion_lon": 0.0, "lat": 38.879059, "bike_id": "e265c983f2666a0b2b409a0d94fda4f2", "type": "electric_scooter", "is_reserved": 0, "lon": -77.00574116666667}, {"fusion_lat": 0.0, "name": "09d63a011def8b297718611340f033a0", "is_disabled": 0, "rental_uris": {"android": "https://dc.lft.to/lastmile_qr_scan", "ios": "https://dc.lft.to/lastmile_qr_scan"}, "fusion_lon": 0.0, "lat": 38.93282633333333, "bike_id": "09d63a011def8b297718611340f033a0", "type": "electric_scooter", "is_reserved": 0, "lon": -77.04080516666667}, {"fusion_lat": 0.0, "name": "5ed96d61285b4044d432a6d769f6d9d9", "is_disabled": 0, "rental_uris": {"android": "https://dc.lft.to/lastmile_qr_scan", "ios": "https://dc.lft.to/lastmile_qr_scan"}, "fusion_lon": 0.0, "lat": 38.909622166666665, "bike_id": "5ed96d61285b4044d432a6d769f6d9d9", "type": "electric_scooter", "is_reserved": 0, "lon": -77.01440033333333}, {"fusion_lat": 0.0, "name": "f05f94bb0b6aa8213d5d9fa9d2a2319d", "is_disabled": 0, "rental_uris": {"android": "https://dc.lft.to/lastmile_qr_scan", "ios": "https://dc.lft.to/lastmile_qr_scan"}, "fusion_lon": 0.0, "lat": 38.9147475, "bike_id": "f05f94bb0b6aa8213d5d9fa9d2a2319d", "type": "electric_scooter", "is_reserved": 0, "lon": -77.03847716666667}, {"fusion_lat": 0.0, "name": "591228e61bf2de5b41c2e77739aa0147", "is_disabled": 0, "rental_uris": {"android": "https://dc.lft.to/lastmile_qr_scan", "ios": "https://dc.lft.to/lastmile_qr_scan"}, "fusion_lon": 0.0, "lat": 38.9055575, "bike_id": "591228e61bf2de5b41c2e77739aa0147", "type": "electric_scooter", "is_reserved": 0, "lon": -77.00591516666667}, {"fusion_lat": 0.0, "name": "4d505984f6bd122644f66431fc0887b7", "is_disabled": 0, "rental_uris": {"android": "https://dc.lft.to/lastmile_qr_scan", "ios": "https://dc.lft.to/lastmile_qr_scan"}, "fusion_lon": 0.0, "lat": 38.899936, "bike_id": "4d505984f6bd122644f66431fc0887b7", "type": "electric_scooter", "is_reserved": 0, "lon": -76.98369133333334}, {"fusion_lat": 0.0, "name": "517634f1a810c13c1734ecc5afd68120", "is_disabled": 0, "rental_uris": {"android": "https://dc.lft.to/lastmile_qr_scan", "ios": "https://dc.lft.to/lastmile_qr_scan"}, "fusion_lon": 0.0, "lat": 38.92317933333333, "bike_id": "517634f1a810c13c1734ecc5afd68120", "type": "electric_scooter", "is_reserved": 0, "lon": -77.04518083333333}, {"fusion_lat": 0.0, "name": "bfb63f4c6a6f72f3e5f4d825f958e14e", "is_disabled": 0, "rental_uris": {"android": "https://dc.lft.to/lastmile_qr_scan", "ios": "https://dc.lft.to/lastmile_qr_scan"}, "fusion_lon": 0.0, "lat": 38.907385166666664, "bike_id": "bfb63f4c6a6f72f3e5f4d825f958e14e", "type": "electric_scooter", "is_reserved": 0, "lon": -77.04163266666667}, {"fusion_lat": 0.0, "name": "f2ac813ccb3faa222d48429ace979520", "is_disabled": 0, "rental_uris": {"android": "https://dc.lft.to/lastmile_qr_scan", "ios": "https://dc.lft.to/lastmile_qr_scan"}, "fusion_lon": 0.0, "lat": 38.91848233333333, "bike_id": "f2ac813ccb3faa222d48429ace979520", "type": "electric_scooter", "is_reserved": 0, "lon": -76.96541033333334}, {"fusion_lat": 0.0, "name": "e75a3bbf2e4638eaef06cb7ce9d2d7d8", "is_disabled": 0, "rental_uris": {"android": "https://dc.lft.to/lastmile_qr_scan", "ios": "https://dc.lft.to/lastmile_qr_scan"}, "fusion_lon": 0.0, "lat": 38.907123166666665, "bike_id": "e75a3bbf2e4638eaef06cb7ce9d2d7d8", "type": "electric_scooter", "is_reserved": 0, "lon": -77.03194133333334}, {"fusion_lat": 0.0, "name": "bc796566649a2433cf21fbae912a064c", "is_disabled": 0, "rental_uris": {"android": "https://dc.lft.to/lastmile_qr_scan", "ios": "https://dc.lft.to/lastmile_qr_scan"}, "fusion_lon": 0.0, "lat": 38.924446833333334, "bike_id": "bc796566649a2433cf21fbae912a064c", "type": "electric_scooter", "is_reserved": 0, "lon": -77.03332866666666}, {"fusion_lat": 0.0, "name": "3b48c39db873aa92005ccef8eb3cbd7b", "is_disabled": 0, "rental_uris": {"android": "https://dc.lft.to/lastmile_qr_scan", "ios": "https://dc.lft.to/lastmile_qr_scan"}, "fusion_lon": 0.0, "lat": 38.920694166666664, "bike_id": "3b48c39db873aa92005ccef8eb3cbd7b", "type": "electric_scooter", "is_reserved": 0, "lon": -77.0222445}, {"fusion_lat": 0.0, "name": "2ada140b9f00019c4a264aecbb8e9481", "is_disabled": 0, "rental_uris": {"android": "https://dc.lft.to/lastmile_qr_scan", "ios": "https://dc.lft.to/lastmile_qr_scan"}, "fusion_lon": 0.0, "lat": 38.91405916666667, "bike_id": "2ada140b9f00019c4a264aecbb8e9481", "type": "electric_scooter", "is_reserved": 0, "lon": -77.03220433333334}, {"fusion_lat": 0.0, "name": "4ef6ff8bb0362de3f68fe0dcb546ff27", "is_disabled": 0, "rental_uris": {"android": "https://dc.lft.to/lastmile_qr_scan", "ios": "https://dc.lft.to/lastmile_qr_scan"}, "fusion_lon": 0.0, "lat": 38.835025, "bike_id": "4ef6ff8bb0362de3f68fe0dcb546ff27", "type": "electric_bike", "is_reserved": 0, "lon": -77.09018}, {"fusion_lat": 0.0, "name": "19e2e31ecd852328b656af551401eaf5", "is_disabled": 0, "rental_uris": {"android": "https://dc.lft.to/lastmile_qr_scan", "ios": "https://dc.lft.to/lastmile_qr_scan"}, "fusion_lon": 0.0, "lat": 38.88722766666667, "bike_id": "19e2e31ecd852328b656af551401eaf5", "type": "electric_scooter", "is_reserved": 0, "lon": -76.99640866666667}, {"fusion_lat": 0.0, "name": "c2fdb2b2331ddd4d1020c5c96df71b1f", "is_disabled": 0, "rental_uris": {"android": "https://dc.lft.to/lastmile_qr_scan", "ios": "https://dc.lft.to/lastmile_qr_scan"}, "fusion_lon": 0.0, "lat": 38.89934183333333, "bike_id": "c2fdb2b2331ddd4d1020c5c96df71b1f", "type": "electric_scooter", "is_reserved": 0, "lon": -77.0404025}, {"fusion_lat": 0.0, "name": "dcf7401498bb84968409f4884ec94611", "is_disabled": 0, "rental_uris": {"android": "https://dc.lft.to/lastmile_qr_scan", "ios": "https://dc.lft.to/lastmile_qr_scan"}, "fusion_lon": 0.0, "lat": 38.87669666666667, "bike_id": "dcf7401498bb84968409f4884ec94611", "type": "electric_scooter", "is_reserved": 0, "lon": -77.00348}, {"fusion_lat": 0.0, "name": "fcc0fd743206525c8b5f19515bc70ebb", "is_disabled": 0, "rental_uris": {"android": "https://dc.lft.to/lastmile_qr_scan", "ios": "https://dc.lft.to/lastmile_qr_scan"}, "fusion_lon": 0.0, "lat": 38.911964166666664, "bike_id": "fcc0fd743206525c8b5f19515bc70ebb", "type": "electric_scooter", "is_reserved": 0, "lon": -77.03212233333333}, {"fusion_lat": 0.0, "name": "55cc58ef994fa81874b9cea71159166e", "is_disabled": 0, "rental_uris": {"android": "https://dc.lft.to/lastmile_qr_scan", "ios": "https://dc.lft.to/lastmile_qr_scan"}, "fusion_lon": 0.0, "lat": 38.89844, "bike_id": "55cc58ef994fa81874b9cea71159166e", "type": "electric_scooter", "is_reserved": 0, "lon": -76.9503275}, {"fusion_lat": 0.0, "name": "7e95b4a46aa4c82acc1603f219de8a25", "is_disabled": 0, "rental_uris": {"android": "https://dc.lft.to/lastmile_qr_scan", "ios": "https://dc.lft.to/lastmile_qr_scan"}, "fusion_lon": 0.0, "lat": 38.945070666666666, "bike_id": "7e95b4a46aa4c82acc1603f219de8a25", "type": "electric_scooter", "is_reserved": 0, "lon": -77.03863366666667}, {"fusion_lat": 0.0, "name": "65906d5f9e6057007c9ccf54c5759ede", "is_disabled": 0, "rental_uris": {"android": "https://dc.lft.to/lastmile_qr_scan", "ios": "https://dc.lft.to/lastmile_qr_scan"}, "fusion_lon": 0.0, "lat": 38.931795, "bike_id": "65906d5f9e6057007c9ccf54c5759ede", "type": "electric_scooter", "is_reserved": 0, "lon": -77.02349966666667}, {"fusion_lat": 0.0, "name": "2966bbcf11f6da7b6131b605ccc05200", "is_disabled": 0, "rental_uris": {"android": "https://dc.lft.to/lastmile_qr_scan", "ios": "https://dc.lft.to/lastmile_qr_scan"}, "fusion_lon": 0.0, "lat": 38.920603166666666, "bike_id": "2966bbcf11f6da7b6131b605ccc05200", "type": "electric_bike", "is_reserved": 0, "lon": -77.2413425}, {"fusion_lat": 0.0, "name": "134613cc88a32fd6e24be4dde562f6a9", "is_disabled": 0, "rental_uris": {"android": "https://dc.lft.to/lastmile_qr_scan", "ios": "https://dc.lft.to/lastmile_qr_scan"}, "fusion_lon": 0.0, "lat": 38.9070845, "bike_id": "134613cc88a32fd6e24be4dde562f6a9", "type": "electric_scooter", "is_reserved": 0, "lon": -77.03206566666667}, {"fusion_lat": 0.0, "name": "fc7ec70440d8cf28966ffd0f73b0a8f0", "is_disabled": 0, "rental_uris": {"android": "https://dc.lft.to/lastmile_qr_scan", "ios": "https://dc.lft.to/lastmile_qr_scan"}, "fusion_lon": 0.0, "lat": 38.906023833333336, "bike_id": "fc7ec70440d8cf28966ffd0f73b0a8f0", "type": "electric_scooter", "is_reserved": 0, "lon": -77.046821}, {"fusion_lat": 0.0, "name": "171ab53dd3a065e7310907d580fbf5f7", "is_disabled": 0, "rental_uris": {"android": "https://dc.lft.to/lastmile_qr_scan", "ios": "https://dc.lft.to/lastmile_qr_scan"}, "fusion_lon": 0.0, "lat": 38.91123066666667, "bike_id": "171ab53dd3a065e7310907d580fbf5f7", "type": "electric_scooter", "is_reserved": 0, "lon": -77.029763}, {"fusion_lat": 0.0, "name": "04b0d13a281382a1b6b170ac70639c97", "is_disabled": 0, "rental_uris": {"android": "https://dc.lft.to/lastmile_qr_scan", "ios": "https://dc.lft.to/lastmile_qr_scan"}, "fusion_lon": 0.0, "lat": 38.89904416666667, "bike_id": "04b0d13a281382a1b6b170ac70639c97", "type": "electric_scooter", "is_reserved": 0, "lon": -77.02715716666667}, {"fusion_lat": 0.0, "name": "801d9e3572646a655dd0aecc27948d91", "is_disabled": 0, "rental_uris": {"android": "https://dc.lft.to/lastmile_qr_scan", "ios": "https://dc.lft.to/lastmile_qr_scan"}, "fusion_lon": 0.0, "lat": 38.9371615, "bike_id": "801d9e3572646a655dd0aecc27948d91", "type": "electric_scooter", "is_reserved": 0, "lon": -77.0241835}, {"fusion_lat": 0.0, "name": "2d75df041ac7176dbf20e43b5aa1f96b", "is_disabled": 0, "rental_uris": {"android": "https://dc.lft.to/lastmile_qr_scan", "ios": "https://dc.lft.to/lastmile_qr_scan"}, "fusion_lon": 0.0, "lat": 38.88742383333334, "bike_id": "2d75df041ac7176dbf20e43b5aa1f96b", "type": "electric_scooter", "is_reserved": 0, "lon": -77.02124133333334}, {"fusion_lat": 0.0, "name": "e7bc4927cf7dde72672846159969b3d8", "is_disabled": 0, "rental_uris": {"android": "https://dc.lft.to/lastmile_qr_scan", "ios": "https://dc.lft.to/lastmile_qr_scan"}, "fusion_lon": 0.0, "lat": 38.91229883333333, "bike_id": "e7bc4927cf7dde72672846159969b3d8", "type": "electric_scooter", "is_reserved": 0, "lon": -77.06596083333334}, {"fusion_lat": 0.0, "name": "db54078102f8332eed5f61a0559a130c", "is_disabled": 0, "rental_uris": {"android": "https://dc.lft.to/lastmile_qr_scan", "ios": "https://dc.lft.to/lastmile_qr_scan"}, "fusion_lon": 0.0, "lat": 38.966710666666664, "bike_id": "db54078102f8332eed5f61a0559a130c", "type": "electric_scooter", "is_reserved": 0, "lon": -77.02547983333334}, {"fusion_lat": 0.0, "name": "2534183220c2acbf813bf4469ec75cac", "is_disabled": 0, "rental_uris": {"android": "https://dc.lft.to/lastmile_qr_scan", "ios": "https://dc.lft.to/lastmile_qr_scan"}, "fusion_lon": 0.0, "lat": 38.906037166666664, "bike_id": "2534183220c2acbf813bf4469ec75cac", "type": "electric_scooter", "is_reserved": 0, "lon": -77.02599366666666}, {"fusion_lat": 0.0, "name": "4ed5bf0f5065b132dd7f5aa5e0689b0c", "is_disabled": 0, "rental_uris": {"android": "https://dc.lft.to/lastmile_qr_scan", "ios": "https://dc.lft.to/lastmile_qr_scan"}, "fusion_lon": 0.0, "lat": 38.90139116666667, "bike_id": "4ed5bf0f5065b132dd7f5aa5e0689b0c", "type": "electric_scooter", "is_reserved": 0, "lon": -77.04170283333333}, {"fusion_lat": 0.0, "name": "517b2f8f3098d2fa52fd656d89b4d009", "is_disabled": 0, "rental_uris": {"android": "https://dc.lft.to/lastmile_qr_scan", "ios": "https://dc.lft.to/lastmile_qr_scan"}, "fusion_lon": 0.0, "lat": 38.9087745, "bike_id": "517b2f8f3098d2fa52fd656d89b4d009", "type": "electric_scooter", "is_reserved": 0, "lon": -77.00236}, {"fusion_lat": 0.0, "name": "88a1c68e66debed7868e6fb655431d7b", "is_disabled": 0, "rental_uris": {"android": "https://dc.lft.to/lastmile_qr_scan", "ios": "https://dc.lft.to/lastmile_qr_scan"}, "fusion_lon": 0.0, "lat": 38.91791666666667, "bike_id": "88a1c68e66debed7868e6fb655431d7b", "type": "electric_scooter", "is_reserved": 0, "lon": -77.02288316666667}, {"fusion_lat": 0.0, "name": "4efdac570200a313ed53e83338e846f6", "is_disabled": 0, "rental_uris": {"android": "https://dc.lft.to/lastmile_qr_scan", "ios": "https://dc.lft.to/lastmile_qr_scan"}, "fusion_lon": 0.0, "lat": 38.884442, "bike_id": "4efdac570200a313ed53e83338e846f6", "type": "electric_scooter", "is_reserved": 0, "lon": -77.02321266666667}, {"fusion_lat": 0.0, "name": "a898464cce909297a7dbdb3353173932", "is_disabled": 0, "rental_uris": {"android": "https://dc.lft.to/lastmile_qr_scan", "ios": "https://dc.lft.to/lastmile_qr_scan"}, "fusion_lon": 0.0, "lat": 38.857176833333334, "bike_id": "a898464cce909297a7dbdb3353173932", "type": "electric_bike", "is_reserved": 0, "lon": -76.98096116666666},