{"data": {"bikes": [{"bike_id": "5fc61cb17a95237b996910db561d942a", "is_reserved": 0, "fusion_lon": 0.0, "lat": 38.9057675, "is_disabled": 0, "name": "5fc61cb17a95237b996910db561d942a", "fusion_lat": 0.0, "rental_uris": {"ios": "https://dc.lft.to/lastmile_qr_scan", "android": "https://dc.lft.to/lastmile_qr_scan"}, "lon": -77.04359683333334, "type": "electric_scooter"}, {"bike_id": "9f122a96948e7d5609ac8df57a5393ff", "is_reserved": 0, "fusion_lon": 0.0, "lat": 38.90392216666667, "is_disabled": 0, "name": "9f122a96948e7d5609ac8df57a5393ff", "fusion_lat": 0.0, "rental_uris": {"ios": "https://dc.lft.to/lastmile_qr_scan", "android": "https://dc.lft.to/lastmile_qr_scan"}, "lon": -77.03014933333333, "type": "electric_scooter"}, {"bike_id": "bf10a7d6abe45c16e883cad84e67257e", "is_reserved": 0, "fusion_lon": 0.0, "lat": 38.8443, "is_disabled": 0, "name": "bf10a7d6abe45c16e883cad84e67257e", "fusion_lat": 0.0, "rental_uris": {"ios": "https://dc.lft.to/lastmile_qr_scan", "android": "https://dc.lft.to/lastmile_qr_scan"}, "lon": -76.9977735, "type": "electric_scooter"}, {"bike_id": "0db1f9b7a1a479772e9b4c9a7352d4fd", "is_reserved": 0, "fusion_lon": 0.0, "lat": 38.90967666666667, "is_disabled": 0, "name": "0db1f9b7a1a479772e9b4c9a7352d4fd", "fusion_lat": 0.0, "rental_uris": {"ios": "https://dc.lft.to/lastmile_qr_scan", "android": "https://dc.lft.to/lastmile_qr_scan"}, "lon": -77.03277116666666, "type": "electric_scooter"}, {"bike_id": "28c3dbf3290bc9c49d26dfeddef8f39c", "is_reserved": 0, "fusion_lon": 0.0, "lat": 38.8720025, "is_disabled": 0, "name": "28c3dbf3290bc9c49d26dfeddef8f39c", "fusion_lat": 0.0, "rental_uris": {"ios": "https://dc.lft.to/lastmile_qr_scan", "android": "https://dc.lft.to/lastmile_qr_scan"}, "lon": -77.00577383333334, "type": "electric_scooter"}, {"bike_id": "251c501137b787185d9dc090cf310b32", "is_reserved": 0, "fusion_lon": 0.0, "lat": 38.89488516666667, "is_disabled": 0, "name": "251c501137b787185d9dc090cf310b32", "fusion_lat": 0.0, "rental_uris": {"ios": "https://dc.lft.to/lastmile_qr_scan", "android": "https://dc.lft.to/lastmile_qr_scan"}, "lon": -77.002249, "type": "electric_scooter"}, {"bike_id": "f333dd806d025c4c1a36eda5265c83a2", "is_reserved": 0, "fusion_lon": 0.0, "lat": 38.866618333333335, "is_disabled": 0, "name": "f333dd806d025c4c1a36eda5265c83a2", "fusion_lat": 0.0, "rental_uris": {"ios": "https://dc.lft.to/lastmile_qr_scan", "android": "https://dc.lft.to/lastmile_qr_scan"}, "lon": -76.98888533333333, "type": "electric_scooter"}, {"bike_id": "5f3c634a67526eea27ade65ff4fc3335", "is_reserved": 0, "fusion_lon": 0.0, "lat": 38.88505116666666, "is_disabled": 0, "name": "5f3c634a67526eea27ade65ff4fc3335", "fusion_lat": 0.0, "rental_uris": {"ios": "https://dc.lft.to/lastmile_qr_scan", "android": "https://dc.lft.to/lastmile_qr_scan"}, "lon": -77.00564516666667, "type": "electric_scooter"}, {"bike_id": "69acab74216e9435b6d3158e7de97ab2", "is_reserved": 0, "fusion_lon": 0.0, "lat": 38.869172166666665, "is_disabled": 0, "name": "69acab74216e9435b6d3158e7de97ab2", "fusion_lat": 0.0, "rental_uris": {"ios": "https://dc.lft.to/lastmile_qr_scan", "android": "https://dc.lft.to/lastmile_qr_scan"}, "lon": -76.98303283333334, "type": "electric_scooter"}, {"bike_id": "f5ba7ad785bf55de11cecf47633eb1d3", "is_reserved": 0, "fusion_lon": 0.0, "lat": 38.903248, "is_disabled": 0, "name": "f5ba7ad785bf55de11cecf47633eb1d3", "fusion_lat": 0.0, "rental_uris": {"ios": "https://dc.lft.to/lastmile_qr_scan", "android": "https://dc.lft.to/lastmile_qr_scan"}, "lon": -77.043322, "type": "electric_scooter"}, {"bike_id": "30baafd62779bea275dd1d082a3ff74a", "is_reserved": 0, "fusion_lon": 0.0, "lat": 38.92381, "is_disabled": 0, "name": "30baafd62779bea275dd1d082a3ff74a", "fusion_lat": 0.0, "rental_uris": {"ios": "https://dc.lft.to/lastmile_qr_scan", "android": "https://dc.lft.to/lastmile_qr_scan"}, "lon": -77.03543183333333, "type": "electric_scooter"}, {"bike_id": "7eac06e602908004dd8eabe37d2c9ec4", "is_reserved": 0, "fusion_lon": 0.0, "lat": 38.921252333333335, "is_disabled": 0, "name": "7eac06e602908004dd8eabe37d2c9ec4", "fusion_lat": 0.0, "rental_uris": {"ios": "https://dc.lft.to/lastmile_qr_scan", "android": "https://dc.lft.to/lastmile_qr_scan"}, "lon": -77.04589866666667, "type": "electric_scooter"}, {"bike_id": "2df576d03b251af2147d59fda6c3344c", "is_reserved": 0, "fusion_lon": 0.0, "lat": 38.9246605, "is_disabled": 0, "name": "2df576d03b251af2147d59fda6c3344c", "fusion_lat": 0.0, "rental_uris": {"ios": "https://dc.lft.to/lastmile_qr_scan", "android": "https://dc.lft.to/lastmile_qr_scan"}, "lon": -77.05203966666667, "type": "electric_scooter"}, {"bike_id": "2ec78a0901dbe580def3325c6fcfce6e", "is_reserved": 0, "fusion_lon": 0.0, "lat": 38.934502333333334, "is_disabled": 0, "name": "2ec78a0901dbe580def3325c6fcfce6e", "fusion_lat": 0.0, "rental_uris": {"ios": "https://dc.lft.to/lastmile_qr_scan", "android": "https://dc.lft.to/lastmile_qr_scan"}, "lon": -77.02847966666667, "type": "electric_scooter"}, {"bike_id": "84bb64539c585b4c63d841dff631ad28", "is_reserved": 0, "fusion_lon": 0.0, "lat": 38.8740085, "is_disabled": 0, "name": "84bb64539c585b4c63d841dff631ad28", "fusion_lat": 0.0, "rental_uris": {"ios": "https://dc.lft.to/lastmile_qr_scan", "android": "https://dc.lft.to/lastmile_qr_scan"}, "lon": -77.00060766666667, "type": "electric_scooter"}, {"bike_id": "61417d084eb47b0514c8842f2194adab", "is_reserved": 0, "fusion_lon": 0.0, "lat": 38.90973316666667, "is_disabled": 0, "name": "61417d084eb47b0514c8842f2194adab", "fusion_lat": 0.0, "rental_uris": {"ios": "https://dc.lft.to/lastmile_qr_scan", "android": "https://dc.lft.to/lastmile_qr_scan"}, "lon": -77.04462483333333, "type": "electric_scooter"}, {"bike_id": "5fa69d412fdc55ee488c8450adbca2ad", "is_reserved": 0, "fusion_lon": 0.0, "lat": 38.956415, "is_disabled": 0, "name": "5fa69d412fdc55ee488c8450adbca2ad", "fusion_lat": 0.0, "rental_uris": {"ios": "https://dc.lft.to/lastmile_qr_scan", "android": "https://dc.lft.to/lastmile_qr_scan"}, "lon": -76.9388745, "type": "electric_bike"}, {"bike_id": "f0a2f265f558603274d0ebe8248b4d35", "is_reserved": 0, "fusion_lon": 0.0, "lat": 38.91840916666666, "is_disabled": 0, "name": "f0a2f265f558603274d0ebe8248b4d35", "fusion_lat": 0.0, "rental_uris": {"ios": "https://dc.lft.to/lastmile_qr_scan", "android": "https://dc.lft.to/lastmile_qr_scan"}, "lon": -77.0389465, "type": "electric_scooter"}, {"bike_id": "032f0fbad51d39e479ec6caa063916c6", "is_reserved": 0, "fusion_lon": 0.0, "lat": 38.921017166666665, "is_disabled": 0, "name": "032f0fbad51d39e479ec6caa063916c6", "fusion_lat": 0.0, "rental_uris": {"ios": "https://dc.lft.to/lastmile_qr_scan", "android": "https://dc.lft.to/lastmile_qr_scan"}, "lon": -77.02962883333333, "type": "electric_scooter"}, {"bike_id": "2100150351347705cca1fe940b5b38f7", "is_reserved": 0, "fusion_lon": 0.0, "lat": 38.897820833333334, "is_disabled": 0, "name": "2100150351347705cca1fe940b5b38f7", "fusion_lat": 0.0, "rental_uris": {"ios": "https://dc.lft.to/lastmile_qr_scan", "android": "https://dc.lft.to/lastmile_qr_scan"}, "lon": -76.90442166666666, "type": "electric_bike"}, {"bike_id": "17b518e4ba65b023794fe4feeb687341", "is_reserved": 0, "fusion_lon": 0.0, "lat": 38.924441, "is_disabled": 0, "name": "17b518e4ba65b023794fe4feeb687341", "fusion_lat": 0.0, "rental_uris": {"ios": "https://dc.lft.to/lastmile_qr_scan", "android": "https://dc.lft.to/lastmile_qr_scan"}, "lon": -77.04030783333333, "type": "electric_scooter"}, {"bike_id": "024b95960bddce79d7cb6dd5a81115d1", "is_reserved": 0, "fusion_lon": 0.0, "lat": 38.867409, "is_disabled": 0, "name": "024b95960bddce79d7cb6dd5a81115d1", "fusion_lat": 0.0, "rental_uris": {"ios": "https://dc.lft.to/lastmile_qr_scan", "android": "https://dc.lft.to/lastmile_qr_scan"}, "lon": -76.9878935, "type": "electric_scooter"}, {"bike_id": "0b84f94e6090827c255828419002f34a", "is_reserved": 0, "fusion_lon": 0.0, "lat": 38.88501933333333, "is_disabled": 0, "name": "0b84f94e6090827c255828419002f34a", "fusion_lat": 0.0, "rental_uris": {"ios": "https://dc.lft.to/lastmile_qr_scan", "android": "https://dc.lft.to/lastmile_qr_scan"}, "lon": -77.00567233333334, "type": "electric_scooter"}, {"bike_id": "0cd9c0c9578fd93f9ef21552ea1a8bf7", "is_reserved": 0, "fusion_lon": 0.0, "lat": 38.86630916666667, "is_disabled": 0, "name": "0cd9c0c9578fd93f9ef21552ea1a8bf7", "fusion_lat": 0.0, "rental_uris": {"ios": "https://dc.lft.to/lastmile_qr_scan", "android": "https://dc.lft.to/lastmile_qr_scan"}, "lon": -76.98714966666667, "type": "electric_scooter"}, {"bike_id": "903adbf9f5d890e933ef0dcdb0840bd8", "is_reserved": 0, "fusion_lon": 0.0, "lat": 38.8963405, "is_disabled": 0, "name": "903adbf9f5d890e933ef0dcdb0840bd8", "fusion_lat": 0.0, "rental_uris": {"ios": "https://dc.lft.to/lastmile_qr_scan", "android": "https://dc.lft.to/lastmile_qr_scan"}, "lon": -77.00896366666667, "type": "electric_scooter"}, {"bike_id": "26abdb565438179aa3ce7995102fb184", "is_reserved": 0, "fusion_lon": 0.0, "lat": 38.89012066666667, "is_disabled": 0, "name": "26abdb565438179aa3ce7995102fb184", "fusion_lat": 0.0, "rental_uris": {"ios": "https://dc.lft.to/lastmile_qr_scan", "android": "https://dc.lft.to/lastmile_qr_scan"}, "lon": -76.93746016666667, "type": "electric_scooter"}, {"bike_id": "36921abbe56fb95ea8f69e3d9b8ebd53", "is_reserved": 0, "fusion_lon": 0.0, "lat": 38.880416, "is_disabled": 0, "name": "36921abbe56fb95ea8f69e3d9b8ebd53", "fusion_lat": 0.0, "rental_uris": {"ios": "https://dc.lft.to/lastmile_qr_scan", "android": "https://dc.lft.to/lastmile_qr_scan"}, "lon": -77.02514183333334, "type": "electric_scooter"}, {"bike_id": "5d043f7be64c22245ece8c744085d6a2", "is_reserved": 0, "fusion_lon": 0.0, "lat": 38.9184825, "is_disabled": 0, "name": "5d043f7be64c22245ece8c744085d6a2", "fusion_lat": 0.0, "rental_uris": {"ios": "https://dc.lft.to/lastmile_qr_scan", "android": "https://dc.lft.to/lastmile_qr_scan"}, "lon": -77.03900116666667, "type": "electric_scooter"}, {"bike_id": "b298d5006c6a520b7f62b47f5a75a078", "is_reserved": 0, "fusion_lon": 0.0, "lat": 38.93428133333333, "is_disabled": 0, "name": "b298d5006c6a520b7f62b47f5a75a078", "fusion_lat": 0.0, "rental_uris": {"ios": "https://dc.lft.to/lastmile_qr_scan", "android": "https://dc.lft.to/lastmile_qr_scan"}, "lon": -76.96507516666667, "type": "electric_scooter"}, {"bike_id": "2afe8c88796a34f9cb4d3f7979f94c74", "is_reserved": 0, "fusion_lon": 0.0, "lat": 38.90577066666667, "is_disabled": 0, "name": "2afe8c88796a34f9cb4d3f7979f94c74", "fusion_lat": 0.0, "rental_uris": {"ios": "https://dc.lft.to/lastmile_qr_scan", "android": "https://dc.lft.to/lastmile_qr_scan"}, "lon": -77.02505566666666, "type": "electric_scooter"}, {"bike_id": "390e9280b45d4268109c97260d2a7a66", "is_reserved": 0, "fusion_lon": 0.0, "lat": 38.907098833333336, "is_disabled": 0, "name": "390e9280b45d4268109c97260d2a7a66", "fusion_lat": 0.0, "rental_uris": {"ios": "https://dc.lft.to/lastmile_qr_scan", "android": "https://dc.lft.to/lastmile_qr_scan"}, "lon": -77.02389066666667, "type": "electric_scooter"}, {"bike_id": "743a70fc1a4d073443411d9396f3b98e", "is_reserved": 0, "fusion_lon": 0.0, "lat": 38.884912, "is_disabled": 0, "name": "743a70fc1a4d073443411d9396f3b98e", "fusion_lat": 0.0, "rental_uris": {"ios": "https://dc.lft.to/lastmile_qr_scan", "android": "https://dc.lft.to/lastmile_qr_scan"}, "lon": -77.0071285, "type": "electric_scooter"}, {"bike_id": "d036cfcd6db8f99b58640d8defa9dcee", "is_reserved": 0, "fusion_lon": 0.0, "lat": 38.89169033333334, "is_disabled": 0, "name": "d036cfcd6db8f99b58640d8defa9dcee", "fusion_lat": 0.0, "rental_uris": {"ios": "https://dc.lft.to/lastmile_qr_scan", "android": "https://dc.lft.to/lastmile_qr_scan"}, "lon": -77.01545066666667, "type": "electric_scooter"}, {"bike_id": "00f024b71a9eefb946f293cada95f248", "is_reserved": 0, "fusion_lon": 0.0, "lat": 38.922144333333335, "is_disabled": 0, "name": "00f024b71a9eefb946f293cada95f248", "fusion_lat": 0.0, "rental_uris": {"ios": "https://dc.lft.to/lastmile_qr_scan", "android": "https://dc.lft.to/lastmile_qr_scan"}, "lon": -77.03660233333333, "type": "electric_scooter"}, {"bike_id": "bb505c81930a8fa43e983c89b31e7944", "is_reserved": 0, "fusion_lon": 0.0, "lat": 38.99671466666667, "is_disabled": 0, "name": "bb505c81930a8fa43e983c89b31e7944", "fusion_lat": 0.0, "rental_uris": {"ios": "https://dc.lft.to/lastmile_qr_scan", "android": "https://dc.lft.to/lastmile_qr_scan"}, "lon": -77.0378885, "type": "electric_bike"}, {"bike_id": "de1772d537163f4c399532b1e36156f8", "is_reserved": 0, "fusion_lon": 0.0, "lat": 38.876379166666666, "is_disabled": 0, "name": "de1772d537163f4c399532b1e36156f8", "fusion_lat": 0.0, "rental_uris": {"ios": "https://dc.lft.to/lastmile_qr_scan", "android": "https://dc.lft.to/lastmile_qr_scan"}, "lon": -76.995885, "type": "electric_scooter"}, {"bike_id": "2549c148e2924a1a03b9c91f3bfd7b36", "is_reserved": 0, "fusion_lon": 0.0, "lat": 38.898469, "is_disabled": 0, "name": "2549c148e2924a1a03b9c91f3bfd7b36", "fusion_lat": 0.0, "rental_uris": {"ios": "https://dc.lft.to/lastmile_qr_scan", "android": "https://dc.lft.to/lastmile_qr_scan"}, "lon": -77.0333135, "type": "electric_scooter"}, {"bike_id": "9404e12d326c24cbbc55023d1ff114e9", "is_reserved": 0, "fusion_lon": 0.0, "lat": 38.9168645, "is_disabled": 0, "name": "9404e12d326c24cbbc55023d1ff114e9", "fusion_lat": 0.0, "rental_uris": {"ios": "https://dc.lft.to/lastmile_qr_scan", "android": "https://dc.lft.to/lastmile_qr_scan"}, "lon": -77.02952283333333, "type": "electric_scooter"}, {"bike_id": "fdaae803e38c78b82c14e94e3ec1904b", "is_reserved": 0, "fusion_lon": 0.0, "lat": 38.923376, "is_disabled": 0, "name": "fdaae803e38c78b82c14e94e3ec1904b", "fusion_lat": 0.0, "rental_uris": {"ios": "https://dc.lft.to/lastmile_qr_scan", "android": "https://dc.lft.to/lastmile_qr_scan"}, "lon": -77.03781083333334, "type": "electric_scooter"}, {"bike_id": "0e26c08214a2903e192b3493d39637b9", "is_reserved": 0, "fusion_lon": 0.0, "lat": 38.898974833333334, "is_disabled": 0, "name": "0e26c08214a2903e192b3493d39637b9", "fusion_lat": 0.0, "rental_uris": {"ios": "https://dc.lft.to/lastmile_qr_scan", "android": "https://dc.lft.to/lastmile_qr_scan"}, "lon": -77.04073366666667, "type": "electric_scooter"}, {"bike_id": "d09614630023179ae69e83658bb95f98", "is_reserved": 0, "fusion_lon": 0.0, "lat": 38.91596, "is_disabled": 0, "name": "d09614630023179ae69e83658bb95f98", "fusion_lat": 0.0, "rental_uris": {"ios": "https://dc.lft.to/lastmile_qr_scan", "android": "https://dc.lft.to/lastmile_qr_scan"}, "lon": -77.040303, "type": "electric_scooter"}, {"bike_id": "db3e78ee57e145a25ef8dfaeb2ae97fb", "is_reserved": 0, "fusion_lon": 0.0, "lat": 38.92419316666667, "is_disabled": 0, "name": "db3e78ee57e145a25ef8dfaeb2ae97fb", "fusion_lat": 0.0, "rental_uris": {"ios": "https://dc.lft.to/lastmile_qr_scan", "android": "https://dc.lft.to/lastmile_qr_scan"}, "lon": -77.02213733333333, "type": "electric_scooter"}, {"bike_id": "28ed26dbfaa9e3d6df1cf20c01e0f4e4", "is_reserved": 0, "fusion_lon": 0.0, "lat": 38.918903, "is_disabled": 0, "name": "28ed26dbfaa9e3d6df1cf20c01e0f4e4", "fusion_lat": 0.0, "rental_uris": {"ios": "https://dc.lft.to/lastmile_qr_scan", "android": "https://dc.lft.to/lastmile_qr_scan"}, "lon": -77.03904533333333, "type": "electric_scooter"}, {"bike_id": "8a3e4a1f76e16c2d99dea7203c2e1c12", "is_reserved": 0, "fusion_lon": 0.0, "lat": 38.903925, "is_disabled": 0, "name": "8a3e4a1f76e16c2d99dea7203c2e1c12", "fusion_lat": 0.0, "rental_uris": {"ios": "https://dc.lft.to/lastmile_qr_scan", "android": "https://dc.lft.to/lastmile_qr_scan"}, "lon": -77.04461366666666, "type": "electric_scooter"}, {"bike_id": "1f470603a02b60308bc14cd827aa8f33", "is_reserved": 0, "fusion_lon": 0.0, "lat": 38.8739165, "is_disabled": 0, "name": "1f470603a02b60308bc14cd827aa8f33", "fusion_lat": 0.0, "rental_uris": {"ios": "https://dc.lft.to/lastmile_qr_scan", "android": "https://dc.lft.to/lastmile_qr_scan"}, "lon": -77.000247, "type": "electric_scooter"}, {"bike_id": "4f07eb8f377ae410ea3a2a03851bbad7", "is_reserved": 0, "fusion_lon": 0.0, "lat": 38.9039585, "is_disabled": 0, "name": "4f07eb8f377ae410ea3a2a03851bbad7", "fusion_lat": 0.0, "rental_uris": {"ios": "https://dc.lft.to/lastmile_qr_scan", "android": "https://dc.lft.to/lastmile_qr_scan"}, "lon": -77.06293033333333, "type": "electric_scooter"}, {"bike_id": "48b439a83cfd80ce5b404687d0a0270d", "is_reserved": 0, "fusion_lon": 0.0, "lat": 38.89624116666667, "is_disabled": 0, "name": "48b439a83cfd80ce5b404687d0a0270d", "fusion_lat": 0.0, "rental_uris": {"ios": "https://dc.lft.to/lastmile_qr_scan", "android": "https://dc.lft.to/lastmile_qr_scan"}, "lon": -76.95586616666667, "type": "electric_scooter"}, {"bike_id": "e7ee012dd66a8df433f3c4c52a47353f", "is_reserved": 0, "fusion_lon": 0.0, "lat": 38.90243816666667, "is_disabled": 0, "name": "e7ee012dd66a8df433f3c4c52a47353f", "fusion_lat": 0.0, "rental_uris": {"ios": "https://dc.lft.to/lastmile_qr_scan", "android": "https://dc.lft.to/lastmile_qr_scan"}, "lon": -77.02694033333333, "type": "electric_scooter"}, {"bike_id": "fb48ee032e5ed9f4953e7500504d46ec", "is_reserved": 0, "fusion_lon": 0.0, "lat": 38.9193925, "is_disabled": 0, "name": "fb48ee032e5ed9f4953e7500504d46ec", "fusion_lat": 0.0, "rental_uris": {"ios": "https://dc.lft.to/lastmile_qr_scan", "android": "https://dc.lft.to/lastmile_qr_scan"}, "lon": -77.0449505, "type": "electric_scooter"}, {"bike_id": "7218838520f9dca6db3320ffc32c66fe", "is_reserved": 0, "fusion_lon": 0.0, "lat": 38.899974666666665, "is_disabled": 0, "name": "7218838520f9dca6db3320ffc32c66fe", "fusion_lat": 0.0, "rental_uris": {"ios": "https://dc.lft.to/lastmile_qr_scan", "android": "https://dc.lft.to/lastmile_qr_scan"}, "lon": -77.02721883333334, "type": "electric_scooter"}, {"bike_id": "f05b9865d26721c0bf88fa2a38fd7f7b", "is_reserved": 0, "fusion_lon": 0.0, "lat": 38.923366666666666, "is_disabled": 0, "name": "f05b9865d26721c0bf88fa2a38fd7f7b", "fusion_lat": 0.0, "rental_uris": {"ios": "https://dc.lft.to/lastmile_qr_scan", "android": "https://dc.lft.to/lastmile_qr_scan"}, "lon": -77.036194, "type": "electric_scooter"}, {"bike_id": "a283bbeeda3121d9057f3414aecfa2f7", "is_reserved": 0, "fusion_lon": 0.0, "lat": 38.900316833333335, "is_disabled": 0, "name": "a283bbeeda3121d9057f3414aecfa2f7", "fusion_lat": 0.0, "rental_uris": {"ios": "https://dc.lft.to/lastmile_qr_scan", "android": "https://dc.lft.to/lastmile_qr_scan"}, "lon": -77.04043916666667, "type": "electric_scooter"}, {"bike_id": "b48edb3a6ee8f1fe65e90c97c81e0ba1", "is_reserved": 0, "fusion_lon": 0.0, "lat": 38.90967166666667, "is_disabled": 0, "name": "b48edb3a6ee8f1fe65e90c97c81e0ba1", "fusion_lat": 0.0, "rental_uris": {"ios": "https://dc.lft.to/lastmile_qr_scan", "android": "https://dc.lft.to/lastmile_qr_scan"}, "lon": -77.0342955, "type": "electric_scooter"}, {"bike_id": "74943e48e768223ef393ac84030afaaf", "is_reserved": 0, "fusion_lon": 0.0, "lat": 38.9028305, "is_disabled": 0, "name": "74943e48e768223ef393ac84030afaaf", "fusion_lat": 0.0, "rental_uris": {"ios": "https://dc.lft.to/lastmile_qr_scan", "android": "https://dc.lft.to/lastmile_qr_scan"}, "lon": -77.04033933333334, "type": "electric_scooter"}, {"bike_id": "7c796be746914cbf107bd1df7496eb93", "is_reserved": 0, "fusion_lon": 0.0, "lat": 38.844275, "is_disabled": 0, "name": "7c796be746914cbf107bd1df7496eb93", "fusion_lat": 0.0, "rental_uris": {"ios": "https://dc.lft.to/lastmile_qr_scan", "android": "https://dc.lft.to/lastmile_qr_scan"}, "lon": -76.99782033333334, "type": "electric_scooter"}, {"bike_id": "67be5e32c82c61471e752660b0af4004", "is_reserved": 0, "fusion_lon": 0.0, "lat": 38.891087666666664, "is_disabled": 0, "name": "67be5e32c82c61471e752660b0af4004", "fusion_lat": 0.0, "rental_uris": {"ios": "https://dc.lft.to/lastmile_qr_scan", "android": "https://dc.lft.to/lastmile_qr_scan"}, "lon": -76.98704816666667, "type": "electric_scooter"}, {"bike_id": "08c0d1270635484b4837b1a0abcfc2a9", "is_reserved": 0, "fusion_lon": 0.0, "lat": 38.89536233333333, "is_disabled": 0, "name": "08c0d1270635484b4837b1a0abcfc2a9", "fusion_lat": 0.0, "rental_uris": {"ios": "https://dc.lft.to/lastmile_qr_scan", "android": "https://dc.lft.to/lastmile_qr_scan"}, "lon": -77.01902966666667, "type": "electric_scooter"}, {"bike_id": "b7a4e8c1d7dc440dde7c7327075ccee8", "is_reserved": 0, "fusion_lon": 0.0, "lat": 38.9286225, "is_disabled": 0, "name": "b7a4e8c1d7dc440dde7c7327075ccee8", "fusion_lat": 0.0, "rental_uris": {"ios": "https://dc.lft.to/lastmile_qr_scan", "android": "https://dc.lft.to/lastmile_qr_scan"}, "lon": -77.0138855, "type": "electric_scooter"}, {"bike_id": "1d656175595569c27a717270f11461ee", "is_reserved": 0, "fusion_lon": 0.0, "lat": 38.908333999999996, "is_disabled": 0, "name": "1d656175595569c27a717270f11461ee", "fusion_lat": 0.0, "rental_uris": {"ios": "https://dc.lft.to/lastmile_qr_scan", "android": "https://dc.lft.to/lastmile_qr_scan"}, "lon": -77.03949616666667, "type": "electric_scooter"}, {"bike_id": "f7b920965255bd161fa146a0d034f81b", "is_reserved": 0, "fusion_lon": 0.0, "lat": 38.911713166666665, "is_disabled": 0, "name": "f7b920965255bd161fa146a0d034f81b", "fusion_lat": 0.0, "rental_uris": {"ios": "https://dc.lft.to/lastmile_qr_scan", "android": "https://dc.lft.to/lastmile_qr_scan"}, "lon": -77.0296305, "type": "electric_scooter"}, {"bike_id": "cf02c97a2d7001d97ea2a4cd07f5d549", "is_reserved": 0, "fusion_lon": 0.0, "lat": 38.893702833333336, "is_disabled": 0, "name": "cf02c97a2d7001d97ea2a4cd07f5d549", "fusion_lat": 0.0, "rental_uris": {"ios": "https://dc.lft.to/lastmile_qr_scan", "android": "https://dc.lft.to/lastmile_qr_scan"}, "lon": -76.94962266666667, "type": "electric_scooter"}, {"bike_id": "6932ae1ec94bfc08fdcb34c8340886dd", "is_reserved": 0, "fusion_lon": 0.0, "lat": 38.90264533333333, "is_disabled": 0, "name": "6932ae1ec94bfc08fdcb34c8340886dd", "fusion_lat": 0.0, "rental_uris": {"ios": "https://dc.lft.to/lastmile_qr_scan", "android": "https://dc.lft.to/lastmile_qr_scan"}, "lon": -77.04356533333333, "type": "electric_scooter"}, {"bike_id": "f9c97524d44bcafe7dbbc55c1e6c0f7e", "is_reserved": 0, "fusion_lon": 0.0, "lat": 38.896766, "is_disabled": 0, "name": "f9c97524d44bcafe7dbbc55c1e6c0f7e", "fusion_lat": 0.0, "rental_uris": {"ios": "https://dc.lft.to/lastmile_qr_scan", "android": "https://dc.lft.to/lastmile_qr_scan"}, "lon": -76.99617133333334, "type": "electric_scooter"}, {"bike_id": "2fea33b84253a4a9dd7925d3370f0d27", "is_reserved": 0, "fusion_lon": 0.0, "lat": 38.90537366666667, "is_disabled": 0, "name": "2fea33b84253a4a9dd7925d3370f0d27", "fusion_lat": 0.0, "rental_uris": {"ios": "https://dc.lft.to/lastmile_qr_scan", "android": "https://dc.lft.to/lastmile_qr_scan"}, "lon": -77.043487, "type": "electric_scooter"}, {"bike_id": "22efb453eef4ce7def86bae96d112c90", "is_reserved": 0, "fusion_lon": 0.0, "lat": 38.87916766666667, "is_disabled": 0, "name": "22efb453eef4ce7def86bae96d112c90", "fusion_lat": 0.0, "rental_uris": {"ios": "https://dc.lft.to/lastmile_qr_scan", "android": "https://dc.lft.to/lastmile_qr_scan"}, "lon": -76.99507816666667, "type": "electric_scooter"}, {"bike_id": "44125eb8f524fd772743a5d6a3d9cd67", "is_reserved": 0, "fusion_lon": 0.0, "lat": 38.89218283333334, "is_disabled": 0, "name": "44125eb8f524fd772743a5d6a3d9cd67", "fusion_lat": 0.0, "rental_uris": {"ios": "https://dc.lft.to/lastmile_qr_scan", "android": "https://dc.lft.to/lastmile_qr_scan"}, "lon": -77.0419825, "type": "electric_scooter"}, {"bike_id": "407ffc580113639cdbac455c25240fc1", "is_reserved": 0, "fusion_lon": 0.0, "lat": 38.9592585, "is_disabled": 0, "name": "407ffc580113639cdbac455c25240fc1", "fusion_lat": 0.0, "rental_uris": {"ios": "https://dc.lft.to/lastmile_qr_scan", "android": "https://dc.lft.to/lastmile_qr_scan"}, "lon": -77.03120683333333, "type": "electric_bike"}, {"bike_id": "be476474ee36dea54be8789946726d5d", "is_reserved": 0, "fusion_lon": 0.0, "lat": 38.964766833333336, "is_disabled": 0, "name": "be476474ee36dea54be8789946726d5d", "fusion_lat": 0.0, "rental_uris": {"ios": "https://dc.lft.to/lastmile_qr_scan", "android": "https://dc.lft.to/lastmile_qr_scan"}, "lon": -77.03565233333333, "type": "electric_bike"}, {"bike_id": "1090e0b637f5c0703d6d0bb480f8d51c", "is_reserved": 0, "fusion_lon": 0.0, "lat": 38.91689616666667, "is_disabled": 0, "name": "1090e0b637f5c0703d6d0bb480f8d51c", "fusion_lat": 0.0, "rental_uris": {"ios": "https://dc.lft.to/lastmile_qr_scan", "android": "https://dc.lft.to/lastmile_qr_scan"}, "lon": -77.0348525, "type": "electric_scooter"}, {"bike_id": "928433665714ccdc8c72733620163a85", "is_reserved": 0, "fusion_lon": 0.0, "lat": 38.90400733333333, "is_disabled": 0, "name": "928433665714ccdc8c72733620163a85", "fusion_lat": 0.0, "rental_uris": {"ios": "https://dc.lft.to/lastmile_qr_scan", "android": "https://dc.lft.to/lastmile_qr_scan"}, "lon": -77.0398455, "type": "electric_scooter"}, {"bike_id": "2d87b121cdfec9728f25750f4328fe33", "is_reserved": 0, "fusion_lon": 0.0, "lat": 38.9041725, "is_disabled": 0, "name": "2d87b121cdfec9728f25750f4328fe33", "fusion_lat": 0.0, "rental_uris": {"ios": "https://dc.lft.to/lastmile_qr_scan", "android": "https://dc.lft.to/lastmile_qr_scan"}, "lon": -77.04652433333334, "type": "electric_scooter"}, {"bike_id": "dee02fb492aaf680d9b36e640a557e59", "is_reserved": 0, "fusion_lon": 0.0, "lat": 38.904885, "is_disabled": 0, "name": "dee02fb492aaf680d9b36e640a557e59", "fusion_lat": 0.0, "rental_uris": {"ios": "https://dc.lft.to/lastmile_qr_scan", "android": "https://dc.lft.to/lastmile_qr_scan"}, "lon": -77.0601015, "type": "electric_scooter"}, {"bike_id": "ba46cdb1ded01fdc1390dddc371bfb10", "is_reserved": 0, "fusion_lon": 0.0, "lat": 38.90797833333333, "is_disabled": 0, "name": "ba46cdb1ded01fdc1390dddc371bfb10", "fusion_lat": 0.0, "rental_uris": {"ios": "https://dc.lft.to/lastmile_qr_scan", "android": "https://dc.lft.to/lastmile_qr_scan"}, "lon": -77.0110975, "type": "electric_scooter"}, {"bike_id": "e451705a4287dfeb51c6a15f2cae044b", "is_reserved": 0, "fusion_lon": 0.0, "lat": 38.91692583333333, "is_disabled": 0, "name": "e451705a4287dfeb51c6a15f2cae044b", "fusion_lat": 0.0, "rental_uris": {"ios": "https://dc.lft.to/lastmile_qr_scan", "android": "https://dc.lft.to/lastmile_qr_scan"}, "lon": -77.02888066666667, "type": "electric_scooter"}, {"bike_id": "8471e404fede3ea2218829a5fdbff0c8", "is_reserved": 0, "fusion_lon": 0.0, "lat": 38.92451066666667, "is_disabled": 0, "name": "8471e404fede3ea2218829a5fdbff0c8", "fusion_lat": 0.0, "rental_uris": {"ios": "https://dc.lft.to/lastmile_qr_scan", "android": "https://dc.lft.to/lastmile_qr_scan"}, "lon": -77.033824, "type": "electric_scooter"}, {"bike_id": "de58288f0f664c56db241da0cae69cbc", "is_reserved": 0, "fusion_lon": 0.0, "lat": 38.8955615, "is_disabled": 0, "name": "de58288f0f664c56db241da0cae69cbc", "fusion_lat": 0.0, "rental_uris": {"ios": "https://dc.lft.to/lastmile_qr_scan", "android": "https://dc.lft.to/lastmile_qr_scan"}, "lon": -77.02952866666666, "type": "electric_scooter"}, {"bike_id": "15930cb71791ba76237e448cdb9613fd", "is_reserved": 0, "fusion_lon": 0.0, "lat": 38.89738, "is_disabled": 0, "name": "15930cb71791ba76237e448cdb9613fd", "fusion_lat": 0.0, "rental_uris": {"ios": "https://dc.lft.to/lastmile_qr_scan", "android": "https://dc.lft.to/lastmile_qr_scan"}, "lon": -76.94724616666667, "type": "electric_scooter"}, {"bike_id": "1a3feab2e6c7ef1066cf52541bc7731f", "is_reserved": 0, "fusion_lon": 0.0, "lat": 38.910036, "is_disabled": 0, "name": "1a3feab2e6c7ef1066cf52541bc7731f", "fusion_lat": 0.0, "rental_uris": {"ios": "https://dc.lft.to/lastmile_qr_scan", "android": "https://dc.lft.to/lastmile_qr_scan"}, "lon": -77.0209855, "type": "electric_scooter"}, {"bike_id": "ce59d569c8faac0059e6ab3df2b7800b", "is_reserved": 0, "fusion_lon": 0.0, "lat": 38.874815, "is_disabled": 0, "name": "ce59d569c8faac0059e6ab3df2b7800b", "fusion_lat": 0.0, "rental_uris": {"ios": "https://dc.lft.to/lastmile_qr_scan", "android": "https://dc.lft.to/lastmile_qr_scan"}, "lon": -76.96520183333334, "type": "electric_bike"}, {"bike_id": "11d558d8835cf7d210dd6ddf5a5847e3", "is_reserved": 0, "fusion_lon": 0.0, "lat": 38.923913166666665, "is_disabled": 0, "name": "11d558d8835cf7d210dd6ddf5a5847e3", "fusion_lat": 0.0, "rental_uris": {"ios": "https://dc.lft.to/lastmile_qr_scan", "android": "https://dc.lft.to/lastmile_qr_scan"}, "lon": -77.03535416666666, "type": "electric_scooter"}, {"bike_id": "f219fec9166389165c8e3fb7549a20da", "is_reserved": 0, "fusion_lon": 0.0, "lat": 38.9018855, "is_disabled": 0, "name": "f219fec9166389165c8e3fb7549a20da", "fusion_lat": 0.0, "rental_uris": {"ios": "https://dc.lft.to/lastmile_qr_scan", "android": "https://dc.lft.to/lastmile_qr_scan"}, "lon": -77.039409, "type": "electric_scooter"}, {"bike_id": "dceb8b13aaa387c4a0709227ffd3f4c2", "is_reserved": 0, "fusion_lon": 0.0, "lat": 38.88383183333333, "is_disabled": 0, "name": "dceb8b13aaa387c4a0709227ffd3f4c2", "fusion_lat": 0.0, "rental_uris": {"ios": "https://dc.lft.to/lastmile_qr_scan", "android": "https://dc.lft.to/lastmile_qr_scan"}, "lon": -76.94923783333333, "type": "electric_scooter"}, {"bike_id": "b34d300d97447546598467515736f9ef", "is_reserved": 0, "fusion_lon": 0.0, "lat": 38.887298333333334, "is_disabled": 0, "name": "b34d300d97447546598467515736f9ef", "fusion_lat": 0.0, "rental_uris": {"ios": "https://dc.lft.to/lastmile_qr_scan", "android": "https://dc.lft.to/lastmile_qr_scan"}, "lon": -77.13315466666667, "type": "electric_bike"}, {"bike_id": "627237a21b64c11c1429643a6585eb59", "is_reserved": 0, "fusion_lon": 0.0, "lat": 38.82448983333333, "is_disabled": 0, "name": "627237a21b64c11c1429643a6585eb59", "fusion_lat": 0.0, "rental_uris": {"ios": "https://dc.lft.to/lastmile_qr_scan", "android": "https://dc.lft.to/lastmile_qr_scan"}, "lon": -77.07044716666667, "type": "electric_bike"}, {"bike_id": "b48f56a0873d9a9f502b3303f7115de5", "is_reserved": 0, "fusion_lon": 0.0, "lat": 38.92664966666667, "is_disabled": 0, "name": "b48f56a0873d9a9f502b3303f7115de5", "fusion_lat": 0.0, "rental_uris": {"ios": "https://dc.lft.to/lastmile_qr_scan", "android": "https://dc.lft.to/lastmile_qr_scan"}, "lon": -77.0147305, "type": "electric_scooter"}, {"bike_id": "3c54bfebf91fbe21ecb81b400a32255c", "is_reserved": 0, "fusion_lon": 0.0, "lat": 38.9555195, "is_disabled": 0, "name": "3c54bfebf91fbe21ecb81b400a32255c", "fusion_lat": 0.0, "rental_uris": {"ios": "https://dc.lft.to/lastmile_qr_scan", "android": "https://dc.lft.to/lastmile_qr_scan"}, "lon": -76.94011533333334, "type": "electric_bike"}, {"bike_id": "ad2780cac8b1af12585f2bb7f65a339d", "is_reserved": 0, "fusion_lon": 0.0, "lat": 38.892325166666666, "is_disabled": 0, "name": "ad2780cac8b1af12585f2bb7f65a339d", "fusion_lat": 0.0, "rental_uris": {"ios": "https://dc.lft.to/lastmile_qr_scan", "android": "https://dc.lft.to/lastmile_qr_scan"}, "lon": -77.03204566666666, "type": "electric_scooter"}, {"bike_id": "77db343d5f2b723f2e8f1fcd356478c6", "is_reserved": 0, "fusion_lon": 0.0, "lat": 38.90663516666667, "is_disabled": 0, "name": "77db343d5f2b723f2e8f1fcd356478c6", "fusion_lat": 0.0, "rental_uris": {"ios": "https://dc.lft.to/lastmile_qr_scan", "android": "https://dc.lft.to/lastmile_qr_scan"}, "lon": -77.04488083333334, "type": "electric_scooter"}, {"bike_id": "ec642df505cc42563243a54ca164e2e2", "is_reserved": 0, "fusion_lon": 0.0, "lat": 38.90650683333333, "is_disabled": 0, "name": "ec642df505cc42563243a54ca164e2e2", "fusion_lat": 0.0, "rental_uris": {"ios": "https://dc.lft.to/lastmile_qr_scan", "android": "https://dc.lft.to/lastmile_qr_scan"}, "lon": -77.04500666666667, "type": "electric_scooter"}, {"bike_id": "2e6390443785a7690dcba5c9c9af5463", "is_reserved": 0, "fusion_lon": 0.0, "lat": 38.917881, "is_disabled": 0, "name": "2e6390443785a7690dcba5c9c9af5463", "fusion_lat": 0.0, "rental_uris": {"ios": "https://dc.lft.to/lastmile_qr_scan", "android": "https://dc.lft.to/lastmile_qr_scan"}, "lon": -77.02320316666666, "type": "electric_scooter"}, {"bike_id": "a7da834f1e344e94391468827616942c", "is_reserved": 0, "fusion_lon": 0.0, "lat": 38.88008766666667, "is_disabled": 0, "name": "a7da834f1e344e94391468827616942c", "fusion_lat": 0.0, "rental_uris": {"ios": "https://dc.lft.to/lastmile_qr_scan", "android": "https://dc.lft.to/lastmile_qr_scan"}, "lon": -76.91597566666667, "type": "electric_bike"}, {"bike_id": "557588dab1c72cd53919bfb2c3d20c98", "is_reserved": 0, "fusion_lon": 0.0, "lat": 38.905737, "is_disabled": 0, "name": "557588dab1c72cd53919bfb2c3d20c98", "fusion_lat": 0.0, "rental_uris": {"ios": "https://dc.lft.to/lastmile_qr_scan", "android": "https://dc.lft.to/lastmile_qr_scan"}, "lon": -77.01863833333333, "type": "electric_scooter"}, {"bike_id": "b79841a34fe354d3c866e74aa5fa027c", "is_reserved": 0, "fusion_lon": 0.0, "lat": 38.903991166666664, "is_disabled": 0, "name": "b79841a34fe354d3c866e74aa5fa027c", "fusion_lat": 0.0, "rental_uris": {"ios": "https://dc.lft.to/lastmile_qr_scan", "android": "https://dc.lft.to/lastmile_qr_scan"}, "lon": -77.0294575, "type": "electric_scooter"}, {"bike_id": "a84ee7ddd451ca8a51afcc457f197131", "is_reserved": 0, "fusion_lon": 0.0, "lat": 38.923601833333336, "is_disabled": 0, "name": "a84ee7ddd451ca8a51afcc457f197131", "fusion_lat": 0.0, "rental_uris": {"ios": "https://dc.lft.to/lastmile_qr_scan", "android": "https://dc.lft.to/lastmile_qr_scan"}, "lon": -77.041579, "type": "electric_scooter"}, {"bike_id": "2781f4b169dc8bcbc5c3cafb7e688009", "is_reserved": 0, "fusion_lon": 0.0, "lat": 38.90794283333334, "is_disabled": 0, "name": "2781f4b169dc8bcbc5c3cafb7e688009", "fusion_lat": 0.0, "rental_uris": {"ios": "https://dc.lft.to/lastmile_qr_scan", "android": "https://dc.lft.to/lastmile_qr_scan"}, "lon": -77.03660966666666, "type": "electric_scooter"}, {"bike_id": "20c84768ee9d65f409f0e356afffd467", "is_reserved": 0, "fusion_lon": 0.0, "lat": 38.93251133333333, "is_disabled": 0, "name": "20c84768ee9d65f409f0e356afffd467", "fusion_lat": 0.0, "rental_uris": {"ios": "https://dc.lft.to/lastmile_qr_scan", "android": "https://dc.lft.to/lastmile_qr_scan"}, "lon": -77.03277183333333, "type": "electric_scooter"}, {"bike_id": "fcd7d964e7e41ad970987323eca0bf3f", "is_reserved": 0, "fusion_lon": 0.0, "lat": 38.9120025, "is_disabled": 0, "name": "fcd7d964e7e41ad970987323eca0bf3f", "fusion_lat": 0.0, "rental_uris": {"ios": "https://dc.lft.to/lastmile_qr_scan", "android": "https://dc.lft.to/lastmile_qr_scan"}, "lon": -77.048731, "type": "electric_scooter"}, {"bike_id": "eefd534554907c66eb78de0835b89ec6", "is_reserved": 0, "fusion_lon": 0.0, "lat": 38.908994166666666, "is_disabled": 0, "name": "eefd534554907c66eb78de0835b89ec6", "fusion_lat": 0.0, "rental_uris": {"ios": "https://dc.lft.to/lastmile_qr_scan", "android": "https://dc.lft.to/lastmile_qr_scan"}, "lon": -77.086282, "type": "electric_scooter"}, {"bike_id": "3bc956a87cc968fc4c723e572138d721", "is_reserved": 0, "fusion_lon": 0.0, "lat": 38.90287333333333, "is_disabled": 0, "name": "3bc956a87cc968fc4c723e572138d721", "fusion_lat": 0.0, "rental_uris": {"ios": "https://dc.lft.to/lastmile_qr_scan", "android": "https://dc.lft.to/lastmile_qr_scan"}, "lon": -77.03668183333333, "type": "electric_scooter"}, {"bike_id": "94c10af1844bb3f9c25dfea584dc476a", "is_reserved": 0, "fusion_lon": 0.0, "lat": 38.898341333333335, "is_disabled": 0, "name": "94c10af1844bb3f9c25dfea584dc476a", "fusion_lat": 0.0, "rental_uris": {"ios": "https://dc.lft.to/lastmile_qr_scan", "android": "https://dc.lft.to/lastmile_qr_scan"}, "lon": -77.03279516666667, "type": "electric_scooter"}, {"bike_id": "b29b4d0e10313fe8b0bd28c5f30c6a8b", "is_reserved": 0, "fusion_lon": 0.0, "lat": 38.9038825, "is_disabled": 0, "name": "b29b4d0e10313fe8b0bd28c5f30c6a8b", "fusion_lat": 0.0, "rental_uris": {"ios": "https://dc.lft.to/lastmile_qr_scan", "android": "https://dc.lft.to/lastmile_qr_scan"}, "lon": -77.0435465, "type": "electric_scooter"}, {"bike_id": "6927cdd1c0017c82ff61c0d4bc5d021b", "is_reserved": 0, "fusion_lon": 0.0, "lat": 38.902558, "is_disabled": 0, "name": "6927cdd1c0017c82ff61c0d4bc5d021b", "fusion_lat": 0.0, "rental_uris": {"ios": "https://dc.lft.to/lastmile_qr_scan", "android": "https://dc.lft.to/lastmile_qr_scan"}, "lon": -77.06101683333333, "type": "electric_scooter"}, {"bike_id": "9832ec15cd145c494de7aac726a8a2f7", "is_reserved": 0, "fusion_lon": 0.0, "lat": 38.90029216666667, "is_disabled": 0, "name": "9832ec15cd145c494de7aac726a8a2f7", "fusion_lat": 0.0, "rental_uris": {"ios": "https://dc.lft.to/lastmile_qr_scan", "android": "https://dc.lft.to/lastmile_qr_scan"}, "lon": -76.98788816666666, "type": "electric_scooter"}, {"bike_id": "b14e923f80d3159698ae529f85fe48e5", "is_reserved": 0, "fusion_lon": 0.0, "lat": 38.933578, "is_disabled": 0, "name": "b14e923f80d3159698ae529f85fe48e5", "fusion_lat": 0.0, "rental_uris": {"ios": "https://dc.lft.to/lastmile_qr_scan", "android": "https://dc.lft.to/lastmile_qr_scan"}, "lon": -77.057248, "type": "electric_scooter"}, {"bike_id": "8c9890d3c39880385e1cd82296b360c3", "is_reserved": 0, "fusion_lon": 0.0, "lat": 38.92085016666667, "is_disabled": 0, "name": "8c9890d3c39880385e1cd82296b360c3", "fusion_lat": 0.0, "rental_uris": {"ios": "https://dc.lft.to/lastmile_qr_scan", "android": "https://dc.lft.to/lastmile_qr_scan"}, "lon": -77.02546483333333, "type": "electric_scooter"}, {"bike_id": "d0bd69521a99b0012f741091603aab99", "is_reserved": 0, "fusion_lon": 0.0, "lat": 38.88024433333333, "is_disabled": 0, "name": "d0bd69521a99b0012f741091603aab99", "fusion_lat": 0.0, "rental_uris": {"ios": "https://dc.lft.to/lastmile_qr_scan", "android": "https://dc.lft.to/lastmile_qr_scan"}, "lon": -76.99504316666666, "type": "electric_scooter"}, {"bike_id": "51bd0f6487d86420d27ea857d0341150", "is_reserved": 0, "fusion_lon": 0.0, "lat": 38.903683, "is_disabled": 0, "name": "51bd0f6487d86420d27ea857d0341150", "fusion_lat": 0.0, "rental_uris": {"ios": "https://dc.lft.to/lastmile_qr_scan", "android": "https://dc.lft.to/lastmile_qr_scan"}, "lon": -77.05412583333333, "type": "electric_scooter"}, {"bike_id": "9e18c6aa873f5ef98a3dd23aab1909fa", "is_reserved": 0, "fusion_lon": 0.0, "lat": 38.904883166666664, "is_disabled": 0, "name": "9e18c6aa873f5ef98a3dd23aab1909fa", "fusion_lat": 0.0, "rental_uris": {"ios": "https://dc.lft.to/lastmile_qr_scan", "android": "https://dc.lft.to/lastmile_qr_scan"}, "lon": -77.067869, "type": "electric_scooter"}, {"bike_id": "8917384e19b9bfd61f4776395a175a87", "is_reserved": 0, "fusion_lon": 0.0, "lat": 38.918020166666665, "is_disabled": 0, "name": "8917384e19b9bfd61f4776395a175a87", "fusion_lat": 0.0, "rental_uris": {"ios": "https://dc.lft.to/lastmile_qr_scan", "android": "https://dc.lft.to/lastmile_qr_scan"}, "lon": -77.03443583333333, "type": "electric_scooter"}, {"bike_id": "a925c686544adb60fe8df2344036adf7", "is_reserved": 0, "fusion_lon": 0.0, "lat": 38.90154416666667, "is_disabled": 0, "name": "a925c686544adb60fe8df2344036adf7", "fusion_lat": 0.0, "rental_uris": {"ios": "https://dc.lft.to/lastmile_qr_scan", "android": "https://dc.lft.to/lastmile_qr_scan"}, "lon": -77.0259235, "type": "electric_scooter"}, {"bike_id": "e838d4721791f1ce2f8ac14d5ef7481f", "is_reserved": 0, "fusion_lon": 0.0, "lat": 38.920107, "is_disabled": 0, "name": "e838d4721791f1ce2f8ac14d5ef7481f", "fusion_lat": 0.0, "rental_uris": {"ios": "https://dc.lft.to/lastmile_qr_scan", "android": "https://dc.lft.to/lastmile_qr_scan"}, "lon": -77.03243433333333, "type": "electric_scooter"}, {"bike_id": "536d58a900ccc7bc0b4c3cc2e3167533", "is_reserved": 0, "fusion_lon": 0.0, "lat": 38.9994125, "is_disabled": 0, "name": "536d58a900ccc7bc0b4c3cc2e3167533", "fusion_lat": 0.0, "rental_uris": {"ios": "https://dc.lft.to/lastmile_qr_scan", "android": "https://dc.lft.to/lastmile_qr_scan"}, "lon": -77.017687, "type": "electric_bike"}, {"bike_id": "fce55daabaf8300666a62c6a11001fd9", "is_reserved": 0, "fusion_lon": 0.0, "lat": 38.92448533333334, "is_disabled": 0, "name": "fce55daabaf8300666a62c6a11001fd9", "fusion_lat": 0.0, "rental_uris": {"ios": "https://dc.lft.to/lastmile_qr_scan", "android": "https://dc.lft.to/lastmile_qr_scan"}, "lon": -77.03406933333333, "type": "electric_scooter"}, {"bike_id": "21a5733a1d33e83f477e049aac18dcea", "is_reserved": 0, "fusion_lon": 0.0, "lat": 38.89948783333333, "is_disabled": 0, "name": "21a5733a1d33e83f477e049aac18dcea", "fusion_lat": 0.0, "rental_uris": {"ios": "https://dc.lft.to/lastmile_qr_scan", "android": "https://dc.lft.to/lastmile_qr_scan"}, "lon": -77.03175833333333, "type": "electric_scooter"}, {"bike_id": "2c9f520320543ecc9f0a555ec5d5435a", "is_reserved": 0, "fusion_lon": 0.0, "lat": 38.907735833333334, "is_disabled": 0, "name": "2c9f520320543ecc9f0a555ec5d5435a", "fusion_lat": 0.0, "rental_uris": {"ios": "https://dc.lft.to/lastmile_qr_scan", "android": "https://dc.lft.to/lastmile_qr_scan"}, "lon": -77.06921466666667, "type": "electric_scooter"}, {"bike_id": "8023a19bc0f88e7ab2f25e68015bc011", "is_reserved": 0, "fusion_lon": 0.0, "lat": 38.88769633333333, "is_disabled": 0, "name": "8023a19bc0f88e7ab2f25e68015bc011", "fusion_lat": 0.0, "rental_uris": {"ios": "https://dc.lft.to/lastmile_qr_scan", "android": "https://dc.lft.to/lastmile_qr_scan"}, "lon": -77.02231216666667, "type": "electric_scooter"}, {"bike_id": "55e0b6731f7adebb468094fdba7c1505", "is_reserved": 0, "fusion_lon": 0.0, "lat": 38.92160283333333, "is_disabled": 0, "name": "55e0b6731f7adebb468094fdba7c1505", "fusion_lat": 0.0, "rental_uris": {"ios": "https://dc.lft.to/lastmile_qr_scan", "android": "https://dc.lft.to/lastmile_qr_scan"}, "lon": -77.03444733333333, "type": "electric_scooter"}, {"bike_id": "9b79f61cec3b83cac17a39e451a3a9b4", "is_reserved": 0, "fusion_lon": 0.0, "lat": 38.9027175, "is_disabled": 0, "name": "9b79f61cec3b83cac17a39e451a3a9b4", "fusion_lat": 0.0, "rental_uris": {"ios": "https://dc.lft.to/lastmile_qr_scan", "android": "https://dc.lft.to/lastmile_qr_scan"}, "lon": -77.04153766666667, "type": "electric_scooter"}, {"bike_id": "cf8023990ae01fdabe4bc81e3801d049", "is_reserved": 0, "fusion_lon": 0.0, "lat": 38.92558983333333, "is_disabled": 0, "name": "cf8023990ae01fdabe4bc81e3801d049", "fusion_lat": 0.0, "rental_uris": {"ios": "https://dc.lft.to/lastmile_qr_scan", "android": "https://dc.lft.to/lastmile_qr_scan"}, "lon": -77.07333033333333, "type": "electric_bike"}, {"bike_id": "3abd91aaea4a85b6da8487b0a7e26932", "is_reserved": 0, "fusion_lon": 0.0, "lat": 38.852912, "is_disabled": 0, "name": "3abd91aaea4a85b6da8487b0a7e26932", "fusion_lat": 0.0, "rental_uris": {"ios": "https://dc.lft.to/lastmile_qr_scan", "android": "https://dc.lft.to/lastmile_qr_scan"}, "lon": -77.052774, "type": "electric_bike"}, {"bike_id": "c04bae01bfa17abb0be1ef28e5b59d8d", "is_reserved": 0, "fusion_lon": 0.0, "lat": 38.85683383333333, "is_disabled": 0, "name": "c04bae01bfa17abb0be1ef28e5b59d8d", "fusion_lat": 0.0, "rental_uris": {"ios": "https://dc.lft.to/lastmile_qr_scan", "android": "https://dc.lft.to/lastmile_qr_scan"}, "lon": -77.0856965, "type": "electric_bike"}, {"bike_id": "a010c66dc6038a7b64398fd6ced18444", "is_reserved": 0, "fusion_lon": 0.0, "lat": 38.87112833333333, "is_disabled": 0, "name": "a010c66dc6038a7b64398fd6ced18444", "fusion_lat": 0.0, "rental_uris": {"ios": "https://dc.lft.to/lastmile_qr_scan", "android": "https://dc.lft.to/lastmile_qr_scan"}, "lon": -76.9774865, "type": "electric_scooter"}, {"bike_id": "58e2f5417e1b800cba2bc54cded760a4", "is_reserved": 0, "fusion_lon": 0.0, "lat": 38.863787333333335, "is_disabled": 0, "name": "58e2f5417e1b800cba2bc54cded760a4", "fusion_lat": 0.0, "rental_uris": {"ios": "https://dc.lft.to/lastmile_qr_scan", "android": "https://dc.lft.to/lastmile_qr_scan"}, "lon": -76.9905695, "type": "electric_scooter"}, {"bike_id": "897aeeb3a28922e127d2fab756568be1", "is_reserved": 0, "fusion_lon": 0.0, "lat": 38.865221166666664, "is_disabled": 0, "name": "897aeeb3a28922e127d2fab756568be1", "fusion_lat": 0.0, "rental_uris": {"ios": "https://dc.lft.to/lastmile_qr_scan", "android": "https://dc.lft.to/lastmile_qr_scan"}, "lon": -76.99040316666667, "type": "electric_scooter"}, {"bike_id": "2926e928a53f4cd6a46cba43de94ea4e", "is_reserved": 0, "fusion_lon": 0.0, "lat": 38.90027633333333, "is_disabled": 0, "name": "2926e928a53f4cd6a46cba43de94ea4e", "fusion_lat": 0.0, "rental_uris": {"ios": "https://dc.lft.to/lastmile_qr_scan", "android": "https://dc.lft.to/lastmile_qr_scan"}, "lon": -76.99838766666667, "type": "electric_scooter"}, {"bike_id": "dfb84e9b8385995cf2492581a1a3266d", "is_reserved": 0, "fusion_lon": 0.0, "lat": 38.918255333333335, "is_disabled": 0, "name": "dfb84e9b8385995cf2492581a1a3266d", "fusion_lat": 0.0, "rental_uris": {"ios": "https://dc.lft.to/lastmile_qr_scan", "android": "https://dc.lft.to/lastmile_qr_scan"}, "lon": -77.03199483333333, "type": "electric_scooter"}, {"bike_id": "988719c95a8ba71174b0a5af2520ac51", "is_reserved": 0, "fusion_lon": 0.0, "lat": 38.91028033333333, "is_disabled": 0, "name": "988719c95a8ba71174b0a5af2520ac51", "fusion_lat": 0.0, "rental_uris": {"ios": "https://dc.lft.to/lastmile_qr_scan", "android": "https://dc.lft.to/lastmile_qr_scan"}, "lon": -77.03852183333333, "type": "electric_scooter"}, {"bike_id": "66cbf704e8f45bf6826fad86d45b07cb", "is_reserved": 0, "fusion_lon": 0.0, "lat": 38.883743, "is_disabled": 0, "name": "66cbf704e8f45bf6826fad86d45b07cb", "fusion_lat": 0.0, "rental_uris": {"ios": "https://dc.lft.to/lastmile_qr_scan", "android": "https://dc.lft.to/lastmile_qr_scan"}, "lon": -76.99520416666667, "type": "electric_scooter"}, {"bike_id": "c2314984dc98438b517143f7c94cebc0", "is_reserved": 0, "fusion_lon": 0.0, "lat": 38.956453333333336, "is_disabled": 0, "name": "c2314984dc98438b517143f7c94cebc0", "fusion_lat": 0.0, "rental_uris": {"ios": "https://dc.lft.to/lastmile_qr_scan", "android": "https://dc.lft.to/lastmile_qr_scan"}, "lon": -77.02258633333334, "type": "electric_scooter"}, {"bike_id": "e69deda364aa799a1d2ed8258c11d83b", "is_reserved": 0, "fusion_lon": 0.0, "lat": 38.92484233333333, "is_disabled": 0, "name": "e69deda364aa799a1d2ed8258c11d83b", "fusion_lat": 0.0, "rental_uris": {"ios": "https://dc.lft.to/lastmile_qr_scan", "android": "https://dc.lft.to/lastmile_qr_scan"}, "lon": -77.05210566666666, "type": "electric_scooter"}, {"bike_id": "603ed515d18988e5ae6dce47e4d6d5cb", "is_reserved": 0, "fusion_lon": 0.0, "lat": 39.0388495, "is_disabled": 0, "name": "603ed515d18988e5ae6dce47e4d6d5cb", "fusion_lat": 0.0, "rental_uris": {"ios": "https://dc.lft.to/lastmile_qr_scan", "android": "https://dc.lft.to/lastmile_qr_scan"}, "lon": -76.99042816666666, "type": "electric_bike"}, {"bike_id": "ab1c4d287c5860263d53b3a1b0386f1d", "is_reserved": 0, "fusion_lon": 0.0, "lat": 38.887690166666665, "is_disabled": 0, "name": "ab1c4d287c5860263d53b3a1b0386f1d", "fusion_lat": 0.0, "rental_uris": {"ios": "https://dc.lft.to/lastmile_qr_scan", "android": "https://dc.lft.to/lastmile_qr_scan"}, "lon": -77.0302275, "type": "electric_scooter"}, {"bike_id": "8266362968f828305786f078025b68a4", "is_reserved": 0, "fusion_lon": 0.0, "lat": 38.89228516666667, "is_disabled": 0, "name": "8266362968f828305786f078025b68a4", "fusion_lat": 0.0, "rental_uris": {"ios": "https://dc.lft.to/lastmile_qr_scan", "android": "https://dc.lft.to/lastmile_qr_scan"}, "lon": -77.02449283333333, "type": "electric_scooter"}, {"bike_id": "b2cba7e2872dc3daca6b7bdd69b366ef", "is_reserved": 0, "fusion_lon": 0.0, "lat": 38.905940333333334, "is_disabled": 0, "name": "b2cba7e2872dc3daca6b7bdd69b366ef", "fusion_lat": 0.0, "rental_uris": {"ios": "https://dc.lft.to/lastmile_qr_scan", "android": "https://dc.lft.to/lastmile_qr_scan"}, "lon": -77.06290683333333, "type": "electric_scooter"}, {"bike_id": "5309f4bb6ea06b36945d6b47a1f4922a", "is_reserved": 0, "fusion_lon": 0.0, "lat": 38.937163, "is_disabled": 0, "name": "5309f4bb6ea06b36945d6b47a1f4922a", "fusion_lat": 0.0, "rental_uris": {"ios": "https://dc.lft.to/lastmile_qr_scan", "android": "https://dc.lft.to/lastmile_qr_scan"}, "lon": -77.0326365, "type": "electric_scooter"}, {"bike_id": "7852ba69401c23b2a0d0a08d1e33ce3e", "is_reserved": 0, "fusion_lon": 0.0, "lat": 38.85808166666666, "is_disabled": 0, "name": "7852ba69401c23b2a0d0a08d1e33ce3e", "fusion_lat": 0.0, "rental_uris": {"ios": "https://dc.lft.to/lastmile_qr_scan", "android": "https://dc.lft.to/lastmile_qr_scan"}, "lon": -76.98652616666666, "type": "electric_scooter"}, {"bike_id": "c0247370ff10b85ad0b31e1532fcbcc1", "is_reserved": 0, "fusion_lon": 0.0, "lat": 38.90958116666667, "is_disabled": 0, "name": "c0247370ff10b85ad0b31e1532fcbcc1", "fusion_lat": 0.0, "rental_uris": {"ios": "https://dc.lft.to/lastmile_qr_scan", "android": "https://dc.lft.to/lastmile_qr_scan"}, "lon": -77.048654, "type": "electric_scooter"}, {"bike_id": "e44102eda7513fac7dc2a2f510fa85a6", "is_reserved": 0, "fusion_lon": 0.0, "lat": 38.90486383333333, "is_disabled": 0, "name": "e44102eda7513fac7dc2a2f510fa85a6", "fusion_lat": 0.0, "rental_uris": {"ios": "https://dc.lft.to/lastmile_qr_scan", "android": "https://dc.lft.to/lastmile_qr_scan"}, "lon": -77.06010666666667, "type": "electric_scooter"}, {"bike_id": "4010853af290949c52efdadbb7a732af", "is_reserved": 0, "fusion_lon": 0.0, "lat": 38.888334, "is_disabled": 0, "name": "4010853af290949c52efdadbb7a732af", "fusion_lat": 0.0, "rental_uris": {"ios": "https://dc.lft.to/lastmile_qr_scan", "android": "https://dc.lft.to/lastmile_qr_scan"}, "lon": -76.97734333333334, "type": "electric_scooter"}, {"bike_id": "c090b0d1ec9bcb70ee896d8177883674", "is_reserved": 0, "fusion_lon": 0.0, "lat": 38.91268016666667, "is_disabled": 0, "name": "c090b0d1ec9bcb70ee896d8177883674", "fusion_lat": 0.0, "rental_uris": {"ios": "https://dc.lft.to/lastmile_qr_scan", "android": "https://dc.lft.to/lastmile_qr_scan"}, "lon": -77.0363135, "type": "electric_scooter"}, {"bike_id": "c035c1e2f8ed1180adb931f9ccd84cee", "is_reserved": 0, "fusion_lon": 0.0, "lat": 38.885822833333336, "is_disabled": 0, "name": "c035c1e2f8ed1180adb931f9ccd84cee", "fusion_lat": 0.0, "rental_uris": {"ios": "https://dc.lft.to/lastmile_qr_scan", "android": "https://dc.lft.to/lastmile_qr_scan"}, "lon": -77.0177605, "type": "electric_scooter"}, {"bike_id": "602ccea98fb23848d378bea6743cb4cc", "is_reserved": 0, "fusion_lon": 0.0, "lat": 38.86369416666667, "is_disabled": 0, "name": "602ccea98fb23848d378bea6743cb4cc", "fusion_lat": 0.0, "rental_uris": {"ios": "https://dc.lft.to/lastmile_qr_scan", "android": "https://dc.lft.to/lastmile_qr_scan"}, "lon": -76.990481, "type": "electric_scooter"}, {"bike_id": "7919e7c5f50c34d4ee6471260d756ad5", "is_reserved": 0, "fusion_lon": 0.0, "lat": 38.951842666666664, "is_disabled": 0, "name": "7919e7c5f50c34d4ee6471260d756ad5", "fusion_lat": 0.0, "rental_uris": {"ios": "https://dc.lft.to/lastmile_qr_scan", "android": "https://dc.lft.to/lastmile_qr_scan"}, "lon": -76.935447, "type": "electric_bike"}, {"bike_id": "93e58049ee67b1e601d81b793d317ff1", "is_reserved": 0, "fusion_lon": 0.0, "lat": 38.9192185, "is_disabled": 0, "name": "93e58049ee67b1e601d81b793d317ff1", "fusion_lat": 0.0, "rental_uris": {"ios": "https://dc.lft.to/lastmile_qr_scan", "android": "https://dc.lft.to/lastmile_qr_scan"}, "lon": -77.03120733333333, "type": "electric_scooter"}, {"bike_id": "36cd2fa74e96b896dbd2a9a9e317b52e", "is_reserved": 0, "fusion_lon": 0.0, "lat": 38.90371066666667, "is_disabled": 0, "name": "36cd2fa74e96b896dbd2a9a9e317b52e", "fusion_lat": 0.0, "rental_uris": {"ios": "https://dc.lft.to/lastmile_qr_scan", "android": "https://dc.lft.to/lastmile_qr_scan"}, "lon": -77.03218033333333, "type": "electric_scooter"}, {"bike_id": "6302e6478ea6a66d7107cccedf609ac8", "is_reserved": 0, "fusion_lon": 0.0, "lat": 38.884048666666665, "is_disabled": 0, "name": "6302e6478ea6a66d7107cccedf609ac8", "fusion_lat": 0.0, "rental_uris": {"ios": "https://dc.lft.to/lastmile_qr_scan", "android": "https://dc.lft.to/lastmile_qr_scan"}, "lon": -76.96066666666667, "type": "electric_bike"}, {"bike_id": "842e76f33541db8829482c4a46f37fc2", "is_reserved": 0, "fusion_lon": 0.0, "lat": 38.88360483333334, "is_disabled": 0, "name": "842e76f33541db8829482c4a46f37fc2", "fusion_lat": 0.0, "rental_uris": {"ios": "https://dc.lft.to/lastmile_qr_scan", "android": "https://dc.lft.to/lastmile_qr_scan"}, "lon": -77.03176316666666, "type": "electric_scooter"}, {"bike_id": "c32ca5463e5727141557bf001fdabd3e", "is_reserved": 0, "fusion_lon": 0.0, "lat": 38.8923585, "is_disabled": 0, "name": "c32ca5463e5727141557bf001fdabd3e", "fusion_lat": 0.0, "rental_uris": {"ios": "https://dc.lft.to/lastmile_qr_scan", "android": "https://dc.lft.to/lastmile_qr_scan"}, "lon": -77.02801133333334, "type": "electric_scooter"}, {"bike_id": "fee7ccc1c93a68f4e96a723ca089b2f3", "is_reserved": 0, "fusion_lon": 0.0, "lat": 38.917835333333336, "is_disabled": 0, "name": "fee7ccc1c93a68f4e96a723ca089b2f3", "fusion_lat": 0.0, "rental_uris": {"ios": "https://dc.lft.to/lastmile_qr_scan", "android": "https://dc.lft.to/lastmile_qr_scan"}, "lon": -77.023217, "type": "electric_scooter"}, {"bike_id": "7fcc8f8c218a53317b0cd34be21e5cff", "is_reserved": 0, "fusion_lon": 0.0, "lat": 38.927482499999996, "is_disabled": 0, "name": "7fcc8f8c218a53317b0cd34be21e5cff", "fusion_lat": 0.0, "rental_uris": {"ios": "https://dc.lft.to/lastmile_qr_scan", "android": "https://dc.lft.to/lastmile_qr_scan"}, "lon": -77.02540383333333, "type": "electric_scooter"}, {"bike_id": "c9f0b8d560d6ef1ebb4ec65d1af7b1ec", "is_reserved": 0, "fusion_lon": 0.0, "lat": 38.89878316666667, "is_disabled": 0, "name": "c9f0b8d560d6ef1ebb4ec65d1af7b1ec", "fusion_lat": 0.0, "rental_uris": {"ios": "https://dc.lft.to/lastmile_qr_scan", "android": "https://dc.lft.to/lastmile_qr_scan"}, "lon": -76.93187466666667, "type": "electric_scooter"}, {"bike_id": "edf7b1fa3f2251461a3658f604bd788f", "is_reserved": 0, "fusion_lon": 0.0, "lat": 38.917048, "is_disabled": 0, "name": "edf7b1fa3f2251461a3658f604bd788f", "fusion_lat": 0.0, "rental_uris": {"ios": "https://dc.lft.to/lastmile_qr_scan", "android": "https://dc.lft.to/lastmile_qr_scan"}, "lon": -77.03447933333334, "type": "electric_scooter"}, {"bike_id": "f55db9fd7e819682fbc1b7aeaa3b72cf", "is_reserved": 0, "fusion_lon": 0.0, "lat": 38.92063483333333, "is_disabled": 0, "name": "f55db9fd7e819682fbc1b7aeaa3b72cf", "fusion_lat": 0.0, "rental_uris": {"ios": "https://dc.lft.to/lastmile_qr_scan", "android": "https://dc.lft.to/lastmile_qr_scan"}, "lon": -77.0419355, "type": "electric_scooter"}, {"bike_id": "bcaf3dc894471271b469ac50f203e7b1", "is_reserved": 0, "fusion_lon": 0.0, "lat": 38.933823833333335, "is_disabled": 0, "name": "bcaf3dc894471271b469ac50f203e7b1", "fusion_lat": 0.0, "rental_uris": {"ios": "https://dc.lft.to/lastmile_qr_scan", "android": "https://dc.lft.to/lastmile_qr_scan"}, "lon": -77.02904116666667, "type": "electric_scooter"}, {"bike_id": "666126a1b98db052fc72fdd8a39ccc75", "is_reserved": 0, "fusion_lon": 0.0, "lat": 38.908499, "is_disabled": 0, "name": "666126a1b98db052fc72fdd8a39ccc75", "fusion_lat": 0.0, "rental_uris": {"ios": "https://dc.lft.to/lastmile_qr_scan", "android": "https://dc.lft.to/lastmile_qr_scan"}, "lon": -77.085329, "type": "electric_scooter"}, {"bike_id": "485b174ddbcd343b62f70d6959d5d4d5", "is_reserved": 0, "fusion_lon": 0.0, "lat": 38.89234116666667, "is_disabled": 0, "name": "485b174ddbcd343b62f70d6959d5d4d5", "fusion_lat": 0.0, "rental_uris": {"ios": "https://dc.lft.to/lastmile_qr_scan", "android": "https://dc.lft.to/lastmile_qr_scan"}, "lon": -77.0500255, "type": "electric_scooter"}, {"bike_id": "c72e7c0406ad2f2c40b3d34e34ddd7e4", "is_reserved": 0, "fusion_lon": 0.0, "lat": 38.87071866666667, "is_disabled": 0, "name": "c72e7c0406ad2f2c40b3d34e34ddd7e4", "fusion_lat": 0.0, "rental_uris": {"ios": "https://dc.lft.to/lastmile_qr_scan", "android": "https://dc.lft.to/lastmile_qr_scan"}, "lon": -76.98239083333333, "type": "electric_scooter"}, {"bike_id": "654ff68fcab39fc0ff147eb8f138cf97", "is_reserved": 0, "fusion_lon": 0.0, "lat": 38.92473533333333, "is_disabled": 0, "name": "654ff68fcab39fc0ff147eb8f138cf97", "fusion_lat": 0.0, "rental_uris": {"ios": "https://dc.lft.to/lastmile_qr_scan", "android": "https://dc.lft.to/lastmile_qr_scan"}, "lon": -77.022687, "type": "electric_scooter"}, {"bike_id": "4be4fcfe0c07617935b5be75d53daf21", "is_reserved": 0, "fusion_lon": 0.0, "lat": 38.89223583333333, "is_disabled": 0, "name": "4be4fcfe0c07617935b5be75d53daf21", "fusion_lat": 0.0, "rental_uris": {"ios": "https://dc.lft.to/lastmile_qr_scan", "android": "https://dc.lft.to/lastmile_qr_scan"}, "lon": -77.043672, "type": "electric_scooter"}, {"bike_id": "4618bf363c2c05a7b92b0b729a19c914", "is_reserved": 0, "fusion_lon": 0.0, "lat": 38.95880566666666, "is_disabled": 0, "name": "4618bf363c2c05a7b92b0b729a19c914", "fusion_lat": 0.0, "rental_uris": {"ios": "https://dc.lft.to/lastmile_qr_scan", "android": "https://dc.lft.to/lastmile_qr_scan"}, "lon": -76.92474366666667, "type": "electric_bike"}, {"bike_id": "68ad9ccf94c280a8fd3f145144f8e4f8", "is_reserved": 0, "fusion_lon": 0.0, "lat": 38.92885, "is_disabled": 0, "name": "68ad9ccf94c280a8fd3f145144f8e4f8", "fusion_lat": 0.0, "rental_uris": {"ios": "https://dc.lft.to/lastmile_qr_scan", "android": "https://dc.lft.to/lastmile_qr_scan"}, "lon": -77.03325416666667, "type": "electric_scooter"}, {"bike_id": "ce9f2966bef2dc2b08e40738ff1375b5", "is_reserved": 0, "fusion_lon": 0.0, "lat": 38.932019, "is_disabled": 0, "name": "ce9f2966bef2dc2b08e40738ff1375b5", "fusion_lat": 0.0, "rental_uris": {"ios": "https://dc.lft.to/lastmile_qr_scan", "android": "https://dc.lft.to/lastmile_qr_scan"}, "lon": -77.03870883333333, "type": "electric_scooter"}, {"bike_id": "32baa6e41bfd35dc4154941c90058f6b", "is_reserved": 0, "fusion_lon": 0.0, "lat": 38.90853883333333, "is_disabled": 0, "name": "32baa6e41bfd35dc4154941c90058f6b", "fusion_lat": 0.0, "rental_uris": {"ios": "https://dc.lft.to/lastmile_qr_scan", "android": "https://dc.lft.to/lastmile_qr_scan"}, "lon": -77.04494583333333, "type": "electric_scooter"}, {"bike_id": "26b46f7088b6a1c6467057833d747226", "is_reserved": 0, "fusion_lon": 0.0, "lat": 38.90503566666667, "is_disabled": 0, "name": "26b46f7088b6a1c6467057833d747226", "fusion_lat": 0.0, "rental_uris": {"ios": "https://dc.lft.to/lastmile_qr_scan", "android": "https://dc.lft.to/lastmile_qr_scan"}, "lon": -76.97927416666667, "type": "electric_scooter"}, {"bike_id": "9d7b1ed7381218a09199d30531bb1623", "is_reserved": 0, "fusion_lon": 0.0, "lat": 38.894829, "is_disabled": 0, "name": "9d7b1ed7381218a09199d30531bb1623", "fusion_lat": 0.0, "rental_uris": {"ios": "https://dc.lft.to/lastmile_qr_scan", "android": "https://dc.lft.to/lastmile_qr_scan"}, "lon": -76.94872816666667, "type": "electric_scooter"}, {"bike_id": "766118b137c09e98ebef05516da575a2", "is_reserved": 0, "fusion_lon": 0.0, "lat": 38.87558816666667, "is_disabled": 0, "name": "766118b137c09e98ebef05516da575a2", "fusion_lat": 0.0, "rental_uris": {"ios": "https://dc.lft.to/lastmile_qr_scan", "android": "https://dc.lft.to/lastmile_qr_scan"}, "lon": -76.96494, "type": "electric_scooter"}, {"bike_id": "0d54fce70bedadcc8a29825f35bcedd5", "is_reserved": 0, "fusion_lon": 0.0, "lat": 38.8922105, "is_disabled": 0, "name": "0d54fce70bedadcc8a29825f35bcedd5", "fusion_lat": 0.0, "rental_uris": {"ios": "https://dc.lft.to/lastmile_qr_scan", "android": "https://dc.lft.to/lastmile_qr_scan"}, "lon": -77.02631816666667, "type": "electric_scooter"}, {"bike_id": "2535e628ebfbbe0ae84d117a8b99d5e9", "is_reserved": 0, "fusion_lon": 0.0, "lat": 38.906719333333335, "is_disabled": 0, "name": "2535e628ebfbbe0ae84d117a8b99d5e9", "fusion_lat": 0.0, "rental_uris": {"ios": "https://dc.lft.to/lastmile_qr_scan", "android": "https://dc.lft.to/lastmile_qr_scan"}, "lon": -76.98784616666667, "type": "electric_scooter"}, {"bike_id": "14db90e3b2cf3eb96330b139a603b3c5", "is_reserved": 0, "fusion_lon": 0.0, "lat": 38.89734516666667, "is_disabled": 0, "name": "14db90e3b2cf3eb96330b139a603b3c5", "fusion_lat": 0.0, "rental_uris": {"ios": "https://dc.lft.to/lastmile_qr_scan", "android": "https://dc.lft.to/lastmile_qr_scan"}, "lon": -77.00343733333334, "type": "electric_bike"}, {"bike_id": "e7aee3ac90a54daeb9029fbc80987061", "is_reserved": 0, "fusion_lon": 0.0, "lat": 38.861999, "is_disabled": 0, "name": "e7aee3ac90a54daeb9029fbc80987061", "fusion_lat": 0.0, "rental_uris": {"ios": "https://dc.lft.to/lastmile_qr_scan", "android": "https://dc.lft.to/lastmile_qr_scan"}, "lon": -76.99465233333333, "type": "electric_scooter"}, {"bike_id": "f5814393174db3ac8312e726c326853a", "is_reserved": 0, "fusion_lon": 0.0, "lat": 38.9028275, "is_disabled": 0, "name": "f5814393174db3ac8312e726c326853a", "fusion_lat": 0.0, "rental_uris": {"ios": "https://dc.lft.to/lastmile_qr_scan", "android": "https://dc.lft.to/lastmile_qr_scan"}, "lon": -77.0327735, "type": "electric_scooter"}, {"bike_id": "c06f7ee94513e7d870129cc399df7c27", "is_reserved": 0, "fusion_lon": 0.0, "lat": 38.910348166666665, "is_disabled": 0, "name": "c06f7ee94513e7d870129cc399df7c27", "fusion_lat": 0.0, "rental_uris": {"ios": "https://dc.lft.to/lastmile_qr_scan", "android": "https://dc.lft.to/lastmile_qr_scan"}, "lon": -77.043888, "type": "electric_scooter"}, {"bike_id": "99ba37cf07fa75fa00949c2a2ca36be9", "is_reserved": 0, "fusion_lon": 0.0, "lat": 38.895342, "is_disabled": 0, "name": "99ba37cf07fa75fa00949c2a2ca36be9", "fusion_lat": 0.0, "rental_uris": {"ios": "https://dc.lft.to/lastmile_qr_scan", "android": "https://dc.lft.to/lastmile_qr_scan"}, "lon": -77.04841383333333, "type": "electric_scooter"}, {"bike_id": "d7455f1eaaa7731de461ddfa9d8f6bfe", "is_reserved": 0, "fusion_lon": 0.0, "lat": 38.89999016666667, "is_disabled": 0, "name": "d7455f1eaaa7731de461ddfa9d8f6bfe", "fusion_lat": 0.0, "rental_uris": {"ios": "https://dc.lft.to/lastmile_qr_scan", "android": "https://dc.lft.to/lastmile_qr_scan"}, "lon": -77.05235533333334, "type": "electric_scooter"}, {"bike_id": "c47c1cfa25fd6e4606b33a9a49dd3e60", "is_reserved": 0, "fusion_lon": 0.0, "lat": 38.905702166666664, "is_disabled": 0, "name": "c47c1cfa25fd6e4606b33a9a49dd3e60", "fusion_lat": 0.0, "rental_uris": {"ios": "https://dc.lft.to/lastmile_qr_scan", "android": "https://dc.lft.to/lastmile_qr_scan"}, "lon": -77.03829216666666, "type": "electric_scooter"}, {"bike_id": "bd328f2276c5fa472b95af464f44fd12", "is_reserved": 0, "fusion_lon": 0.0, "lat": 38.9186465, "is_disabled": 0, "name": "bd328f2276c5fa472b95af464f44fd12", "fusion_lat": 0.0, "rental_uris": {"ios": "https://dc.lft.to/lastmile_qr_scan", "android": "https://dc.lft.to/lastmile_qr_scan"}, "lon": -77.04379383333334, "type": "electric_scooter"}, {"bike_id": "f70844821102d03efbceb4cc5a301334", "is_reserved": 0, "fusion_lon": 0.0, "lat": 38.91565633333333, "is_disabled": 0, "name": "f70844821102d03efbceb4cc5a301334", "fusion_lat": 0.0, "rental_uris": {"ios": "https://dc.lft.to/lastmile_qr_scan", "android": "https://dc.lft.to/lastmile_qr_scan"}, "lon": -77.03846933333334, "type": "electric_scooter"}, {"bike_id": "cd30e07c690bd0b193a71f9a37e76a0f", "is_reserved": 0, "fusion_lon": 0.0, "lat": 38.908615, "is_disabled": 0, "name": "cd30e07c690bd0b193a71f9a37e76a0f", "fusion_lat": 0.0, "rental_uris": {"ios": "https://dc.lft.to/lastmile_qr_scan", "android": "https://dc.lft.to/lastmile_qr_scan"}, "lon": -76.9401105, "type": "electric_bike"}, {"bike_id": "5ca6b901a34477aa70750f52bbd3418b", "is_reserved": 0, "fusion_lon": 0.0, "lat": 38.88202583333333, "is_disabled": 0, "name": "5ca6b901a34477aa70750f52bbd3418b", "fusion_lat": 0.0, "rental_uris": {"ios": "https://dc.lft.to/lastmile_qr_scan", "android": "https://dc.lft.to/lastmile_qr_scan"}, "lon": -77.006059, "type": "electric_scooter"}, {"bike_id": "60b1a5695b08fc074a7ab2ec4985cf04", "is_reserved": 0, "fusion_lon": 0.0, "lat": 38.9361605, "is_disabled": 0, "name": "60b1a5695b08fc074a7ab2ec4985cf04", "fusion_lat": 0.0, "rental_uris": {"ios": "https://dc.lft.to/lastmile_qr_scan", "android": "https://dc.lft.to/lastmile_qr_scan"}, "lon": -77.05588233333333, "type": "electric_scooter"}, {"bike_id": "a852a3e0a71a6d2dc355ec48dc9e6343", "is_reserved": 0, "fusion_lon": 0.0, "lat": 38.921013, "is_disabled": 0, "name": "a852a3e0a71a6d2dc355ec48dc9e6343", "fusion_lat": 0.0, "rental_uris": {"ios": "https://dc.lft.to/lastmile_qr_scan", "android": "https://dc.lft.to/lastmile_qr_scan"}, "lon": -77.02502683333333, "type": "electric_scooter"}, {"bike_id": "a6ec8e1e2a8c1664149e1dabca4be990", "is_reserved": 0, "fusion_lon": 0.0, "lat": 38.9014875, "is_disabled": 0, "name": "a6ec8e1e2a8c1664149e1dabca4be990", "fusion_lat": 0.0, "rental_uris": {"ios": "https://dc.lft.to/lastmile_qr_scan", "android": "https://dc.lft.to/lastmile_qr_scan"}, "lon": -77.03980466666667, "type": "electric_scooter"}, {"bike_id": "1180aeb5a812feec1fb582ff739dc823", "is_reserved": 0, "fusion_lon": 0.0, "lat": 38.891981, "is_disabled": 0, "name": "1180aeb5a812feec1fb582ff739dc823", "fusion_lat": 0.0, "rental_uris": {"ios": "https://dc.lft.to/lastmile_qr_scan", "android": "https://dc.lft.to/lastmile_qr_scan"}, "lon": -77.02387583333334, "type": "electric_scooter"}, {"bike_id": "fe735e126b035c55c0781b25b9729f77", "is_reserved": 0, "fusion_lon": 0.0, "lat": 38.8983955, "is_disabled": 0, "name": "fe735e126b035c55c0781b25b9729f77", "fusion_lat": 0.0, "rental_uris": {"ios": "https://dc.lft.to/lastmile_qr_scan", "android": "https://dc.lft.to/lastmile_qr_scan"}, "lon": -77.043414, "type": "electric_scooter"}, {"bike_id": "e52f4234419efef96473556b13260b72", "is_reserved": 0, "fusion_lon": 0.0, "lat": 38.940713333333335, "is_disabled": 0, "name": "e52f4234419efef96473556b13260b72", "fusion_lat": 0.0, "rental_uris": {"ios": "https://dc.lft.to/lastmile_qr_scan", "android": "https://dc.lft.to/lastmile_qr_scan"}, "lon": -76.99463816666666, "type": "electric_scooter"}, {"bike_id": "99e5c7590b75ed8f3d76ac350cc72093", "is_reserved": 0, "fusion_lon": 0.0, "lat": 38.92231666666667, "is_disabled": 0, "name": "99e5c7590b75ed8f3d76ac350cc72093", "fusion_lat": 0.0, "rental_uris": {"ios": "https://dc.lft.to/lastmile_qr_scan", "android": "https://dc.lft.to/lastmile_qr_scan"}, "lon": -77.03349016666667, "type": "electric_scooter"}, {"bike_id": "c8127e9a74b28b686fb365a135af2c05", "is_reserved": 0, "fusion_lon": 0.0, "lat": 38.903979166666666, "is_disabled": 0, "name": "c8127e9a74b28b686fb365a135af2c05", "fusion_lat": 0.0, "rental_uris": {"ios": "https://dc.lft.to/lastmile_qr_scan", "android": "https://dc.lft.to/lastmile_qr_scan"}, "lon": -77.0379945, "type": "electric_scooter"}, {"bike_id": "7fa4e64c68f3d725d4970e7ad3f4a54b", "is_reserved": 0, "fusion_lon": 0.0, "lat": 38.92695533333333, "is_disabled": 0, "name": "7fa4e64c68f3d725d4970e7ad3f4a54b", "fusion_lat": 0.0, "rental_uris": {"ios": "https://dc.lft.to/lastmile_qr_scan", "android": "https://dc.lft.to/lastmile_qr_scan"}, "lon": -77.09578883333333, "type": "electric_scooter"}, {"bike_id": "aa794b1f577789b33734800d87335065", "is_reserved": 0, "fusion_lon": 0.0, "lat": 38.90961516666667, "is_disabled": 0, "name": "aa794b1f577789b33734800d87335065", "fusion_lat": 0.0, "rental_uris": {"ios": "https://dc.lft.to/lastmile_qr_scan", "android": "https://dc.lft.to/lastmile_qr_scan"}, "lon": -77.03169733333333, "type": "electric_scooter"}, {"bike_id": "46fafe6dcb6d5b42a134f45f6be0e5ba", "is_reserved": 0, "fusion_lon": 0.0, "lat": 38.92297666666666, "is_disabled": 0, "name": "46fafe6dcb6d5b42a134f45f6be0e5ba", "fusion_lat": 0.0, "rental_uris": {"ios": "https://dc.lft.to/lastmile_qr_scan", "android": "https://dc.lft.to/lastmile_qr_scan"}, "lon": -77.04147333333333, "type": "electric_scooter"}, {"bike_id": "bf707153ff0cb69347c065fbf777fa2f", "is_reserved": 0, "fusion_lon": 0.0, "lat": 38.91684466666667, "is_disabled": 0, "name": "bf707153ff0cb69347c065fbf777fa2f", "fusion_lat": 0.0, "rental_uris": {"ios": "https://dc.lft.to/lastmile_qr_scan", "android": "https://dc.lft.to/lastmile_qr_scan"}, "lon": -77.02289133333333, "type": "electric_scooter"}, {"bike_id": "5d183245f5e87a8f09c208ed68283dda", "is_reserved": 0, "fusion_lon": 0.0, "lat": 38.92368616666667, "is_disabled": 0, "name": "5d183245f5e87a8f09c208ed68283dda", "fusion_lat": 0.0, "rental_uris": {"ios": "https://dc.lft.to/lastmile_qr_scan", "android": "https://dc.lft.to/lastmile_qr_scan"}, "lon": -77.05029933333333, "type": "electric_scooter"}, {"bike_id": "e760d12ec73aff41f75a3a511b43a2b5", "is_reserved": 0, "fusion_lon": 0.0, "lat": 38.890077166666664, "is_disabled": 0, "name": "e760d12ec73aff41f75a3a511b43a2b5", "fusion_lat": 0.0, "rental_uris": {"ios": "https://dc.lft.to/lastmile_qr_scan", "android": "https://dc.lft.to/lastmile_qr_scan"}, "lon": -76.93744783333334, "type": "electric_scooter"}, {"bike_id": "1288a66ae780c6d5d87bf81803c528b0", "is_reserved": 0, "fusion_lon": 0.0, "lat": 38.900276, "is_disabled": 0, "name": "1288a66ae780c6d5d87bf81803c528b0", "fusion_lat": 0.0, "rental_uris": {"ios": "https://dc.lft.to/lastmile_qr_scan", "android": "https://dc.lft.to/lastmile_qr_scan"}, "lon": -77.04683533333333, "type": "electric_scooter"}, {"bike_id": "abc3f8224850c711ba45b9e8f0636f89", "is_reserved": 0, "fusion_lon": 0.0, "lat": 38.905916166666664, "is_disabled": 0, "name": "abc3f8224850c711ba45b9e8f0636f89", "fusion_lat": 0.0, "rental_uris": {"ios": "https://dc.lft.to/lastmile_qr_scan", "android": "https://dc.lft.to/lastmile_qr_scan"}, "lon": -77.00288683333333, "type": "electric_scooter"}, {"bike_id": "13e9a5fd90f7ab4df21ad2d0d71792bf", "is_reserved": 0, "fusion_lon": 0.0, "lat": 38.87920033333333, "is_disabled": 0, "name": "13e9a5fd90f7ab4df21ad2d0d71792bf", "fusion_lat": 0.0, "rental_uris": {"ios": "https://dc.lft.to/lastmile_qr_scan", "android": "https://dc.lft.to/lastmile_qr_scan"}, "lon": -77.00576066666666, "type": "electric_scooter"}, {"bike_id": "12997b2f3db4042d37fdf733208639a3", "is_reserved": 0, "fusion_lon": 0.0, "lat": 38.954908, "is_disabled": 0, "name": "12997b2f3db4042d37fdf733208639a3", "fusion_lat": 0.0, "rental_uris": {"ios": "https://dc.lft.to/lastmile_qr_scan", "android": "https://dc.lft.to/lastmile_qr_scan"}, "lon": -77.06566133333334, "type": "electric_scooter"}, {"bike_id": "f5099730b4e0a898dc23ffc56c08bdd5", "is_reserved": 0, "fusion_lon": 0.0, "lat": 38.924087, "is_disabled": 0, "name": "f5099730b4e0a898dc23ffc56c08bdd5", "fusion_lat": 0.0, "rental_uris": {"ios": "https://dc.lft.to/lastmile_qr_scan", "android": "https://dc.lft.to/lastmile_qr_scan"}, "lon": -77.02542016666666, "type": "electric_scooter"}, {"bike_id": "628ca8d2ab57291e45a3b957b9beccb7", "is_reserved": 0, "fusion_lon": 0.0, "lat": 38.86654983333333, "is_disabled": 0, "name": "628ca8d2ab57291e45a3b957b9beccb7", "fusion_lat": 0.0, "rental_uris": {"ios": "https://dc.lft.to/lastmile_qr_scan", "android": "https://dc.lft.to/lastmile_qr_scan"}, "lon": -76.98884783333334, "type": "electric_scooter"}, {"bike_id": "8f3d02a758cfeb5762cd68f748527abf", "is_reserved": 0, "fusion_lon": 0.0, "lat": 38.896481, "is_disabled": 0, "name": "8f3d02a758cfeb5762cd68f748527abf", "fusion_lat": 0.0, "rental_uris": {"ios": "https://dc.lft.to/lastmile_qr_scan", "android": "https://dc.lft.to/lastmile_qr_scan"}, "lon": -77.03225866666666, "type": "electric_scooter"}, {"bike_id": "03a3f05ca8858b0633f9f8f7650b9fdb", "is_reserved": 0, "fusion_lon": 0.0, "lat": 38.86537166666667, "is_disabled": 0, "name": "03a3f05ca8858b0633f9f8f7650b9fdb", "fusion_lat": 0.0, "rental_uris": {"ios": "https://dc.lft.to/lastmile_qr_scan", "android": "https://dc.lft.to/lastmile_qr_scan"}, "lon": -76.987041, "type": "electric_scooter"}, {"bike_id": "5a5da983f2ed755d774a2160930eede8", "is_reserved": 0, "fusion_lon": 0.0, "lat": 38.8922435, "is_disabled": 0, "name": "5a5da983f2ed755d774a2160930eede8", "fusion_lat": 0.0, "rental_uris": {"ios": "https://dc.lft.to/lastmile_qr_scan", "android": "https://dc.lft.to/lastmile_qr_scan"}, "lon": -77.031643, "type": "electric_scooter"}, {"bike_id": "c4e4c22e33c7afec074574ce3a89ab46", "is_reserved": 0, "fusion_lon": 0.0, "lat": 38.9039145, "is_disabled": 0, "name": "c4e4c22e33c7afec074574ce3a89ab46", "fusion_lat": 0.0, "rental_uris": {"ios": "https://dc.lft.to/lastmile_qr_scan", "android": "https://dc.lft.to/lastmile_qr_scan"}, "lon": -77.04318816666667, "type": "electric_scooter"}, {"bike_id": "3f77737d75273f9b6a70d214aeebfc2e", "is_reserved": 0, "fusion_lon": 0.0, "lat": 38.89950283333334, "is_disabled": 0, "name": "3f77737d75273f9b6a70d214aeebfc2e", "fusion_lat": 0.0, "rental_uris": {"ios": "https://dc.lft.to/lastmile_qr_scan", "android": "https://dc.lft.to/lastmile_qr_scan"}, "lon": -77.02208433333334, "type": "electric_scooter"}, {"bike_id": "36b193a3d34619497c74e37d0fa9abb4", "is_reserved": 0, "fusion_lon": 0.0, "lat": 38.9022715, "is_disabled": 0, "name": "36b193a3d34619497c74e37d0fa9abb4", "fusion_lat": 0.0, "rental_uris": {"ios": "https://dc.lft.to/lastmile_qr_scan", "android": "https://dc.lft.to/lastmile_qr_scan"}, "lon": -77.04641366666667, "type": "electric_scooter"}, {"bike_id": "126718b961a7b668f1ed094c018f7c4e", "is_reserved": 0, "fusion_lon": 0.0, "lat": 38.9041515, "is_disabled": 0, "name": "126718b961a7b668f1ed094c018f7c4e", "fusion_lat": 0.0, "rental_uris": {"ios": "https://dc.lft.to/lastmile_qr_scan", "android": "https://dc.lft.to/lastmile_qr_scan"}, "lon": -77.0453095, "type": "electric_scooter"}, {"bike_id": "90092e3bf77d6116fad24a67b57217c8", "is_reserved": 0, "fusion_lon": 0.0, "lat": 38.92067866666667, "is_disabled": 0, "name": "90092e3bf77d6116fad24a67b57217c8", "fusion_lat": 0.0, "rental_uris": {"ios": "https://dc.lft.to/lastmile_qr_scan", "android": "https://dc.lft.to/lastmile_qr_scan"}, "lon": -77.04376783333333, "type": "electric_scooter"}, {"bike_id": "a172335b615c265d4ef21c4c3e0584d3", "is_reserved": 0, "fusion_lon": 0.0, "lat": 38.95108483333333, "is_disabled": 0, "name": "a172335b615c265d4ef21c4c3e0584d3", "fusion_lat": 0.0, "rental_uris": {"ios": "https://dc.lft.to/lastmile_qr_scan", "android": "https://dc.lft.to/lastmile_qr_scan"}, "lon": -77.01580433333334, "type": "electric_scooter"}, {"bike_id": "e6e79c31c26ccfe995e66a8932aa9365", "is_reserved": 0, "fusion_lon": 0.0, "lat": 38.936788166666666, "is_disabled": 0, "name": "e6e79c31c26ccfe995e66a8932aa9365", "fusion_lat": 0.0, "rental_uris": {"ios": "https://dc.lft.to/lastmile_qr_scan", "android": "https://dc.lft.to/lastmile_qr_scan"}, "lon": -77.0362515, "type": "electric_scooter"}, {"bike_id": "fa25e1a9f4d86bb2d8995125b7da6da9", "is_reserved": 0, "fusion_lon": 0.0, "lat": 38.898078, "is_disabled": 0, "name": "fa25e1a9f4d86bb2d8995125b7da6da9", "fusion_lat": 0.0, "rental_uris": {"ios": "https://dc.lft.to/lastmile_qr_scan", "android": "https://dc.lft.to/lastmile_qr_scan"}, "lon": -77.00606233333333, "type": "electric_bike"}, {"bike_id": "ac59d56e65d7b563a283fb302ecd0ea1", "is_reserved": 0, "fusion_lon": 0.0, "lat": 38.90964066666667, "is_disabled": 0, "name": "ac59d56e65d7b563a283fb302ecd0ea1", "fusion_lat": 0.0, "rental_uris": {"ios": "https://dc.lft.to/lastmile_qr_scan", "android": "https://dc.lft.to/lastmile_qr_scan"}, "lon": -77.0377095, "type": "electric_scooter"}, {"bike_id": "29099da235482773016818e791539509", "is_reserved": 0, "fusion_lon": 0.0, "lat": 38.89621066666667, "is_disabled": 0, "name": "29099da235482773016818e791539509", "fusion_lat": 0.0, "rental_uris": {"ios": "https://dc.lft.to/lastmile_qr_scan", "android": "https://dc.lft.to/lastmile_qr_scan"}, "lon": -77.044992, "type": "electric_scooter"}, {"bike_id": "409a6f7c4fb1af6b9368c97b8307b650", "is_reserved": 0, "fusion_lon": 0.0, "lat": 38.94018166666667, "is_disabled": 0, "name": "409a6f7c4fb1af6b9368c97b8307b650", "fusion_lat": 0.0, "rental_uris": {"ios": "https://dc.lft.to/lastmile_qr_scan", "android": "https://dc.lft.to/lastmile_qr_scan"}, "lon": -77.07177366666667, "type": "electric_scooter"}, {"bike_id": "f34f5a2ce661e77c1c657833cc52d7f6", "is_reserved": 0, "fusion_lon": 0.0, "lat": 38.850685166666665, "is_disabled": 0, "name": "f34f5a2ce661e77c1c657833cc52d7f6", "fusion_lat": 0.0, "rental_uris": {"ios": "https://dc.lft.to/lastmile_qr_scan", "android": "https://dc.lft.to/lastmile_qr_scan"}, "lon": -76.97330683333334, "type": "electric_bike"}, {"bike_id": "7ae8b6a1306d4822974f0d5dc1d26b8a", "is_reserved": 0, "fusion_lon": 0.0, "lat": 38.89826933333333, "is_disabled": 0, "name": "7ae8b6a1306d4822974f0d5dc1d26b8a", "fusion_lat": 0.0, "rental_uris": {"ios": "https://dc.lft.to/lastmile_qr_scan", "android": "https://dc.lft.to/lastmile_qr_scan"}, "lon": -77.03348716666666, "type": "electric_scooter"}, {"bike_id": "f472db5982337985928694e84e964389", "is_reserved": 0, "fusion_lon": 0.0, "lat": 38.892261, "is_disabled": 0, "name": "f472db5982337985928694e84e964389", "fusion_lat": 0.0, "rental_uris": {"ios": "https://dc.lft.to/lastmile_qr_scan", "android": "https://dc.lft.to/lastmile_qr_scan"}, "lon": -77.00304083333333, "type": "electric_scooter"}, {"bike_id": "87fd4372fb7ffa305dac524967b06fd3", "is_reserved": 0, "fusion_lon": 0.0, "lat": 38.90525516666666, "is_disabled": 0, "name": "87fd4372fb7ffa305dac524967b06fd3", "fusion_lat": 0.0, "rental_uris": {"ios": "https://dc.lft.to/lastmile_qr_scan", "android": "https://dc.lft.to/lastmile_qr_scan"}, "lon": -77.06537366666667, "type": "electric_scooter"}, {"bike_id": "9f1b9f4458154e55b7ba360a9642ac66", "is_reserved": 0, "fusion_lon": 0.0, "lat": 38.908282, "is_disabled": 0, "name": "9f1b9f4458154e55b7ba360a9642ac66", "fusion_lat": 0.0, "rental_uris": {"ios": "https://dc.lft.to/lastmile_qr_scan", "android": "https://dc.lft.to/lastmile_qr_scan"}, "lon": -76.9968785, "type": "electric_scooter"}, {"bike_id": "d11ff5a6d21bcc8a818445310d32cb8d", "is_reserved": 0, "fusion_lon": 0.0, "lat": 38.889641, "is_disabled": 0, "name": "d11ff5a6d21bcc8a818445310d32cb8d", "fusion_lat": 0.0, "rental_uris": {"ios": "https://dc.lft.to/lastmile_qr_scan", "android": "https://dc.lft.to/lastmile_qr_scan"}, "lon": -76.98038016666666, "type": "electric_scooter"}, {"bike_id": "5198304330e6d3ef9982f8c752006f7f", "is_reserved": 0, "fusion_lon": 0.0, "lat": 38.89621066666667, "is_disabled": 0, "name": "5198304330e6d3ef9982f8c752006f7f", "fusion_lat": 0.0, "rental_uris": {"ios": "https://dc.lft.to/lastmile_qr_scan", "android": "https://dc.lft.to/lastmile_qr_scan"}, "lon": -77.00264983333334, "type": "electric_scooter"}, {"bike_id": "d765dacaf7c53faca6436bd5c29cd5f5", "is_reserved": 0, "fusion_lon": 0.0, "lat": 38.898302, "is_disabled": 0, "name": "d765dacaf7c53faca6436bd5c29cd5f5", "fusion_lat": 0.0, "rental_uris": {"ios": "https://dc.lft.to/lastmile_qr_scan", "android": "https://dc.lft.to/lastmile_qr_scan"}, "lon": -76.98035966666667, "type": "electric_scooter"}, {"bike_id": "e1fd0273136a670e462c9220f9734cb3", "is_reserved": 0, "fusion_lon": 0.0, "lat": 38.92309566666667, "is_disabled": 0, "name": "e1fd0273136a670e462c9220f9734cb3", "fusion_lat": 0.0, "rental_uris": {"ios": "https://dc.lft.to/lastmile_qr_scan", "android": "https://dc.lft.to/lastmile_qr_scan"}, "lon": -77.02119116666667, "type": "electric_scooter"}, {"bike_id": "9d2b7fd28afea113ec1d9706531bf364", "is_reserved": 0, "fusion_lon": 0.0, "lat": 38.91549366666667, "is_disabled": 0, "name": "9d2b7fd28afea113ec1d9706531bf364", "fusion_lat": 0.0, "rental_uris": {"ios": "https://dc.lft.to/lastmile_qr_scan", "android": "https://dc.lft.to/lastmile_qr_scan"}, "lon": -77.035137, "type": "electric_scooter"}, {"bike_id": "6bd1a204c67a3daa73a5b2c1583fece5", "is_reserved": 0, "fusion_lon": 0.0, "lat": 38.933481666666665, "is_disabled": 0, "name": "6bd1a204c67a3daa73a5b2c1583fece5", "fusion_lat": 0.0, "rental_uris": {"ios": "https://dc.lft.to/lastmile_qr_scan", "android": "https://dc.lft.to/lastmile_qr_scan"}, "lon": -77.057142, "type": "electric_scooter"}, {"bike_id": "8087c6731f747300bf48c931a6f5e288", "is_reserved": 0, "fusion_lon": 0.0, "lat": 38.93006533333333, "is_disabled": 0, "name": "8087c6731f747300bf48c931a6f5e288", "fusion_lat": 0.0, "rental_uris": {"ios": "https://dc.lft.to/lastmile_qr_scan", "android": "https://dc.lft.to/lastmile_qr_scan"}, "lon": -77.03786983333333, "type": "electric_scooter"}, {"bike_id": "0b40a3963d18fc8234a4cfe6084bf0b0", "is_reserved": 0, "fusion_lon": 0.0, "lat": 38.901622, "is_disabled": 0, "name": "0b40a3963d18fc8234a4cfe6084bf0b0", "fusion_lat": 0.0, "rental_uris": {"ios": "https://dc.lft.to/lastmile_qr_scan", "android": "https://dc.lft.to/lastmile_qr_scan"}, "lon": -77.0332415, "type": "electric_scooter"}, {"bike_id": "7fc1cf8bac76c7bf08e6fbbc0736affb", "is_reserved": 0, "fusion_lon": 0.0, "lat": 38.88707866666667, "is_disabled": 0, "name": "7fc1cf8bac76c7bf08e6fbbc0736affb", "fusion_lat": 0.0, "rental_uris": {"ios": "https://dc.lft.to/lastmile_qr_scan", "android": "https://dc.lft.to/lastmile_qr_scan"}, "lon": -77.001508, "type": "electric_scooter"}, {"bike_id": "d35608e7ac11117666348c32d92ef263", "is_reserved": 0, "fusion_lon": 0.0, "lat": 39.03050066666667, "is_disabled": 0, "name": "d35608e7ac11117666348c32d92ef263", "fusion_lat": 0.0, "rental_uris": {"ios": "https://dc.lft.to/lastmile_qr_scan", "android": "https://dc.lft.to/lastmile_qr_scan"}, "lon": -77.0948835, "type": "electric_bike"}, {"bike_id": "1f7574965045e7a7d638114d2486166a", "is_reserved": 0, "fusion_lon": 0.0, "lat": 38.917751333333335, "is_disabled": 0, "name": "1f7574965045e7a7d638114d2486166a", "fusion_lat": 0.0, "rental_uris": {"ios": "https://dc.lft.to/lastmile_qr_scan", "android": "https://dc.lft.to/lastmile_qr_scan"}, "lon": -76.97329433333333, "type": "electric_scooter"}, {"bike_id": "9e512da8bd85ee2ab475f114aa19c86a", "is_reserved": 0, "fusion_lon": 0.0, "lat": 38.8983465, "is_disabled": 0, "name": "9e512da8bd85ee2ab475f114aa19c86a", "fusion_lat": 0.0, "rental_uris": {"ios": "https://dc.lft.to/lastmile_qr_scan", "android": "https://dc.lft.to/lastmile_qr_scan"}, "lon": -77.02916783333333, "type": "electric_scooter"}, {"bike_id": "3ebf8cfa8c82b961bfa6e68b07d90c37", "is_reserved": 0, "fusion_lon": 0.0, "lat": 38.900984666666666, "is_disabled": 0, "name": "3ebf8cfa8c82b961bfa6e68b07d90c37", "fusion_lat": 0.0, "rental_uris": {"ios": "https://dc.lft.to/lastmile_qr_scan", "android": "https://dc.lft.to/lastmile_qr_scan"}, "lon": -77.050633, "type": "electric_scooter"}, {"bike_id": "1d7e84c91a4f2e8fe8c7870023f099b5", "is_reserved": 0, "fusion_lon": 0.0, "lat": 38.8903975, "is_disabled": 0, "name": "1d7e84c91a4f2e8fe8c7870023f099b5", "fusion_lat": 0.0, "rental_uris": {"ios": "https://dc.lft.to/lastmile_qr_scan", "android": "https://dc.lft.to/lastmile_qr_scan"}, "lon": -77.0265925, "type": "electric_scooter"}, {"bike_id": "af1e556aa1402266e269c6007bae5cbb", "is_reserved": 0, "fusion_lon": 0.0, "lat": 38.9014125, "is_disabled": 0, "name": "af1e556aa1402266e269c6007bae5cbb", "fusion_lat": 0.0, "rental_uris": {"ios": "https://dc.lft.to/lastmile_qr_scan", "android": "https://dc.lft.to/lastmile_qr_scan"}, "lon": -77.041935, "type": "electric_scooter"}, {"bike_id": "ce9d1b41f8f12839502917d40380baaf", "is_reserved": 0, "fusion_lon": 0.0, "lat": 38.928975666666666, "is_disabled": 0, "name": "ce9d1b41f8f12839502917d40380baaf", "fusion_lat": 0.0, "rental_uris": {"ios": "https://dc.lft.to/lastmile_qr_scan", "android": "https://dc.lft.to/lastmile_qr_scan"}, "lon": -77.005241, "type": "electric_scooter"}, {"bike_id": "badd7a5ce7143063e8d1441634df0383", "is_reserved": 0, "fusion_lon": 0.0, "lat": 38.92160616666666, "is_disabled": 0, "name": "badd7a5ce7143063e8d1441634df0383", "fusion_lat": 0.0, "rental_uris": {"ios": "https://dc.lft.to/lastmile_qr_scan", "android": "https://dc.lft.to/lastmile_qr_scan"}, "lon": -77.04697733333333, "type": "electric_scooter"}, {"bike_id": "3445a4e4d6f4e11748f8d7f656258b6b", "is_reserved": 0, "fusion_lon": 0.0, "lat": 38.904395, "is_disabled": 0, "name": "3445a4e4d6f4e11748f8d7f656258b6b", "fusion_lat": 0.0, "rental_uris": {"ios": "https://dc.lft.to/lastmile_qr_scan", "android": "https://dc.lft.to/lastmile_qr_scan"}, "lon": -77.061065, "type": "electric_scooter"}, {"bike_id": "84b24546c8d68c5c13ae1a340ae6b7a3", "is_reserved": 0, "fusion_lon": 0.0, "lat": 38.90876266666667, "is_disabled": 0, "name": "84b24546c8d68c5c13ae1a340ae6b7a3", "fusion_lat": 0.0, "rental_uris": {"ios": "https://dc.lft.to/lastmile_qr_scan", "android": "https://dc.lft.to/lastmile_qr_scan"}, "lon": -77.03288866666666, "type": "electric_scooter"}, {"bike_id": "3c28ad65f405adf1861f4b809a176131", "is_reserved": 0, "fusion_lon": 0.0, "lat": 38.90526216666667, "is_disabled": 0, "name": "3c28ad65f405adf1861f4b809a176131", "fusion_lat": 0.0, "rental_uris": {"ios": "https://dc.lft.to/lastmile_qr_scan", "android": "https://dc.lft.to/lastmile_qr_scan"}, "lon": -77.065374, "type": "electric_scooter"}, {"bike_id": "f2e92bb9f0557344a13e911bf4d9ebe7", "is_reserved": 0, "fusion_lon": 0.0, "lat": 38.8457425, "is_disabled": 0, "name": "f2e92bb9f0557344a13e911bf4d9ebe7", "fusion_lat": 0.0, "rental_uris": {"ios": "https://dc.lft.to/lastmile_qr_scan", "android": "https://dc.lft.to/lastmile_qr_scan"}, "lon": -77.096244, "type": "electric_bike"}, {"bike_id": "1406de731cc437e07c3a42935986116a", "is_reserved": 0, "fusion_lon": 0.0, "lat": 38.93718166666667, "is_disabled": 0, "name": "1406de731cc437e07c3a42935986116a", "fusion_lat": 0.0, "rental_uris": {"ios": "https://dc.lft.to/lastmile_qr_scan", "android": "https://dc.lft.to/lastmile_qr_scan"}, "lon": -77.0326095, "type": "electric_scooter"}, {"bike_id": "9a62c8987129a97ed9a6cb9fcec069dd", "is_reserved": 0, "fusion_lon": 0.0, "lat": 38.86343316666667, "is_disabled": 0, "name": "9a62c8987129a97ed9a6cb9fcec069dd", "fusion_lat": 0.0, "rental_uris": {"ios": "https://dc.lft.to/lastmile_qr_scan", "android": "https://dc.lft.to/lastmile_qr_scan"}, "lon": -76.99006233333333, "type": "electric_scooter"}, {"bike_id": "558a5452fb1251d6ac201b18568190ba", "is_reserved": 0, "fusion_lon": 0.0, "lat": 38.903307, "is_disabled": 0, "name": "558a5452fb1251d6ac201b18568190ba", "fusion_lat": 0.0, "rental_uris": {"ios": "https://dc.lft.to/lastmile_qr_scan", "android": "https://dc.lft.to/lastmile_qr_scan"}, "lon": -77.06601566666667, "type": "electric_scooter"}, {"bike_id": "e4036877210614def495bba6aafd822c", "is_reserved": 0, "fusion_lon": 0.0, "lat": 38.955546, "is_disabled": 0, "name": "e4036877210614def495bba6aafd822c", "fusion_lat": 0.0, "rental_uris": {"ios": "https://dc.lft.to/lastmile_qr_scan", "android": "https://dc.lft.to/lastmile_qr_scan"}, "lon": -76.93544266666666, "type": "electric_bike"}, {"bike_id": "5f01da71ad09754f6d723b94cdc62cd8", "is_reserved": 0, "fusion_lon": 0.0, "lat": 38.898029333333334, "is_disabled": 0, "name": "5f01da71ad09754f6d723b94cdc62cd8", "fusion_lat": 0.0, "rental_uris": {"ios": "https://dc.lft.to/lastmile_qr_scan", "android": "https://dc.lft.to/lastmile_qr_scan"}, "lon": -77.03292383333333, "type": "electric_scooter"}, {"bike_id": "a3314305006d705aa6a34f4f1920d706", "is_reserved": 0, "fusion_lon": 0.0, "lat": 38.92020683333333, "is_disabled": 0, "name": "a3314305006d705aa6a34f4f1920d706", "fusion_lat": 0.0, "rental_uris": {"ios": "https://dc.lft.to/lastmile_qr_scan", "android": "https://dc.lft.to/lastmile_qr_scan"}, "lon": -77.03973533333334, "type": "electric_scooter"}, {"bike_id": "9c7087729e5f8cc46a91c7a78d48df24", "is_reserved": 0, "fusion_lon": 0.0, "lat": 38.91581983333333, "is_disabled": 0, "name": "9c7087729e5f8cc46a91c7a78d48df24", "fusion_lat": 0.0, "rental_uris": {"ios": "https://dc.lft.to/lastmile_qr_scan", "android": "https://dc.lft.to/lastmile_qr_scan"}, "lon": -77.0460805, "type": "electric_scooter"}, {"bike_id": "510d25ac0e90ed168b43dc9c0759ee35", "is_reserved": 0, "fusion_lon": 0.0, "lat": 38.842953666666666, "is_disabled": 0, "name": "510d25ac0e90ed168b43dc9c0759ee35", "fusion_lat": 0.0, "rental_uris": {"ios": "https://dc.lft.to/lastmile_qr_scan", "android": "https://dc.lft.to/lastmile_qr_scan"}, "lon": -76.9995055, "type": "electric_scooter"}, {"bike_id": "dc955515c055ae48f449bba0edfc53bf", "is_reserved": 0, "fusion_lon": 0.0, "lat": 38.899917, "is_disabled": 0, "name": "dc955515c055ae48f449bba0edfc53bf", "fusion_lat": 0.0, "rental_uris": {"ios": "https://dc.lft.to/lastmile_qr_scan", "android": "https://dc.lft.to/lastmile_qr_scan"}, "lon": -77.04643716666666, "type": "electric_bike"}, {"bike_id": "96b081666648cc3365e6d2c69675f82d", "is_reserved": 0, "fusion_lon": 0.0, "lat": 38.9216415, "is_disabled": 0, "name": "96b081666648cc3365e6d2c69675f82d", "fusion_lat": 0.0, "rental_uris": {"ios": "https://dc.lft.to/lastmile_qr_scan", "android": "https://dc.lft.to/lastmile_qr_scan"}, "lon": -77.03336766666666, "type": "electric_scooter"}, {"bike_id": "9201cc1cf26b9be01ba7e668b94d20d4", "is_reserved": 0, "fusion_lon": 0.0, "lat": 38.872435833333334, "is_disabled": 0, "name": "9201cc1cf26b9be01ba7e668b94d20d4", "fusion_lat": 0.0, "rental_uris": {"ios": "https://dc.lft.to/lastmile_qr_scan", "android": "https://dc.lft.to/lastmile_qr_scan"}, "lon": -77.01178433333334, "type": "electric_bike"}, {"bike_id": "b330d1e5b8c0f3f5a3ceea4c7f4abd04", "is_reserved": 0, "fusion_lon": 0.0, "lat": 38.896252833333335, "is_disabled": 0, "name": "b330d1e5b8c0f3f5a3ceea4c7f4abd04", "fusion_lat": 0.0, "rental_uris": {"ios": "https://dc.lft.to/lastmile_qr_scan", "android": "https://dc.lft.to/lastmile_qr_scan"}, "lon": -76.981275, "type": "electric_scooter"}, {"bike_id": "b9b0444fe2f1f63007ea99417defbbdb", "is_reserved": 0, "fusion_lon": 0.0, "lat": 38.894791166666664, "is_disabled": 0, "name": "b9b0444fe2f1f63007ea99417defbbdb", "fusion_lat": 0.0, "rental_uris": {"ios": "https://dc.lft.to/lastmile_qr_scan", "android": "https://dc.lft.to/lastmile_qr_scan"}, "lon": -76.984049, "type": "electric_scooter"}, {"bike_id": "0a509800f9b4af750aa38440fea12fde", "is_reserved": 0, "fusion_lon": 0.0, "lat": 38.902551833333334, "is_disabled": 0, "name": "0a509800f9b4af750aa38440fea12fde", "fusion_lat": 0.0, "rental_uris": {"ios": "https://dc.lft.to/lastmile_qr_scan", "android": "https://dc.lft.to/lastmile_qr_scan"}, "lon": -77.04603133333333, "type": "electric_scooter"}, {"bike_id": "85bbd058e3f049a9818af19c99c33b14", "is_reserved": 0, "fusion_lon": 0.0, "lat": 38.95095416666667, "is_disabled": 0, "name": "85bbd058e3f049a9818af19c99c33b14", "fusion_lat": 0.0, "rental_uris": {"ios": "https://dc.lft.to/lastmile_qr_scan", "android": "https://dc.lft.to/lastmile_qr_scan"}, "lon": -77.02336833333334, "type": "electric_scooter"}, {"bike_id": "d52cacd47a78423e40afe980d7c4e18a", "is_reserved": 0, "fusion_lon": 0.0, "lat": 38.89728183333333, "is_disabled": 0, "name": "d52cacd47a78423e40afe980d7c4e18a", "fusion_lat": 0.0, "rental_uris": {"ios": "https://dc.lft.to/lastmile_qr_scan", "android": "https://dc.lft.to/lastmile_qr_scan"}, "lon": -76.925949, "type": "electric_scooter"}, {"bike_id": "757f4c18ea47b0d40c0fe140347bfcda", "is_reserved": 0, "fusion_lon": 0.0, "lat": 38.90513816666667, "is_disabled": 0, "name": "757f4c18ea47b0d40c0fe140347bfcda", "fusion_lat": 0.0, "rental_uris": {"ios": "https://dc.lft.to/lastmile_qr_scan", "android": "https://dc.lft.to/lastmile_qr_scan"}, "lon": -77.05689116666667, "type": "electric_scooter"}, {"bike_id": "65ce00fc0a165269ad3ed4d48d7d5426", "is_reserved": 0, "fusion_lon": 0.0, "lat": 38.893406166666665, "is_disabled": 0, "name": "65ce00fc0a165269ad3ed4d48d7d5426", "fusion_lat": 0.0, "rental_uris": {"ios": "https://dc.lft.to/lastmile_qr_scan", "android": "https://dc.lft.to/lastmile_qr_scan"}, "lon": -77.0020355, "type": "electric_scooter"}, {"bike_id": "da72c07f0b1c133141af812f23dadd69", "is_reserved": 0, "fusion_lon": 0.0, "lat": 38.85158066666666, "is_disabled": 0, "name": "da72c07f0b1c133141af812f23dadd69", "fusion_lat": 0.0, "rental_uris": {"ios": "https://dc.lft.to/lastmile_qr_scan", "android": "https://dc.lft.to/lastmile_qr_scan"}, "lon": -77.12880533333333, "type": "electric_bike"}, {"bike_id": "944c7942b29bd8860bb13e7f31761411", "is_reserved": 0, "fusion_lon": 0.0, "lat": 38.966230833333334, "is_disabled": 0, "name": "944c7942b29bd8860bb13e7f31761411", "fusion_lat": 0.0, "rental_uris": {"ios": "https://dc.lft.to/lastmile_qr_scan", "android": "https://dc.lft.to/lastmile_qr_scan"}, "lon": -77.03431983333333, "type": "electric_bike"}, {"bike_id": "4bbe4292d49fa2f407b33802a19615ae", "is_reserved": 0, "fusion_lon": 0.0, "lat": 38.865726333333335, "is_disabled": 0, "name": "4bbe4292d49fa2f407b33802a19615ae", "fusion_lat": 0.0, "rental_uris": {"ios": "https://dc.lft.to/lastmile_qr_scan", "android": "https://dc.lft.to/lastmile_qr_scan"}, "lon": -76.98952933333334, "type": "electric_scooter"}, {"bike_id": "f05ff50f1560dca40dc52dff71529858", "is_reserved": 0, "fusion_lon": 0.0, "lat": 38.91481183333333, "is_disabled": 0, "name": "f05ff50f1560dca40dc52dff71529858", "fusion_lat": 0.0, "rental_uris": {"ios": "https://dc.lft.to/lastmile_qr_scan", "android": "https://dc.lft.to/lastmile_qr_scan"}, "lon": -77.0219075, "type": "electric_scooter"}, {"bike_id": "e6d150af99180d6763cf2ce449d66035", "is_reserved": 0, "fusion_lon": 0.0, "lat": 38.91246783333333, "is_disabled": 0, "name": "e6d150af99180d6763cf2ce449d66035", "fusion_lat": 0.0, "rental_uris": {"ios": "https://dc.lft.to/lastmile_qr_scan", "android": "https://dc.lft.to/lastmile_qr_scan"}, "lon": -77.01622583333334, "type": "electric_scooter"}, {"bike_id": "ec0fc56693f7e71a121399c5c7412d22", "is_reserved": 0, "fusion_lon": 0.0, "lat": 38.91204316666666, "is_disabled": 0, "name": "ec0fc56693f7e71a121399c5c7412d22", "fusion_lat": 0.0, "rental_uris": {"ios": "https://dc.lft.to/lastmile_qr_scan", "android": "https://dc.lft.to/lastmile_qr_scan"}, "lon": -77.04874583333333, "type": "electric_scooter"}, {"bike_id": "2e02ef12634da0f9c5cc9705933f38d7", "is_reserved": 0, "fusion_lon": 0.0, "lat": 38.900959, "is_disabled": 0, "name": "2e02ef12634da0f9c5cc9705933f38d7", "fusion_lat": 0.0, "rental_uris": {"ios": "https://dc.lft.to/lastmile_qr_scan", "android": "https://dc.lft.to/lastmile_qr_scan"}, "lon": -77.0437555, "type": "electric_scooter"}, {"bike_id": "08d319416da5fa0a23f1b11d68681214", "is_reserved": 0, "fusion_lon": 0.0, "lat": 38.9121535, "is_disabled": 0, "name": "08d319416da5fa0a23f1b11d68681214", "fusion_lat": 0.0, "rental_uris": {"ios": "https://dc.lft.to/lastmile_qr_scan", "android": "https://dc.lft.to/lastmile_qr_scan"}, "lon": -77.00462066666667, "type": "electric_scooter"}, {"bike_id": "385b1dd392bf1f77ce2fee3d08834e29", "is_reserved": 0, "fusion_lon": 0.0, "lat": 38.92164616666667, "is_disabled": 0, "name": "385b1dd392bf1f77ce2fee3d08834e29", "fusion_lat": 0.0, "rental_uris": {"ios": "https://dc.lft.to/lastmile_qr_scan", "android": "https://dc.lft.to/lastmile_qr_scan"}, "lon": -77.0329085, "type": "electric_scooter"}, {"bike_id": "87b4309f46d1ab8cb3aaa0b56710f4dd", "is_reserved": 0, "fusion_lon": 0.0, "lat": 38.921159833333334, "is_disabled": 0, "name": "87b4309f46d1ab8cb3aaa0b56710f4dd", "fusion_lat": 0.0, "rental_uris": {"ios": "https://dc.lft.to/lastmile_qr_scan", "android": "https://dc.lft.to/lastmile_qr_scan"}, "lon": -77.017846, "type": "electric_scooter"}, {"bike_id": "576ce0beeebb3821d9175dcfa3892cd9", "is_reserved": 0, "fusion_lon": 0.0, "lat": 38.90860983333334, "is_disabled": 0, "name": "576ce0beeebb3821d9175dcfa3892cd9", "fusion_lat": 0.0, "rental_uris": {"ios": "https://dc.lft.to/lastmile_qr_scan", "android": "https://dc.lft.to/lastmile_qr_scan"}, "lon": -77.04485916666667, "type": "electric_scooter"}, {"bike_id": "5fdde3eda24d3d259c53f51e740509bb", "is_reserved": 0, "fusion_lon": 0.0, "lat": 38.943962, "is_disabled": 0, "name": "5fdde3eda24d3d259c53f51e740509bb", "fusion_lat": 0.0, "rental_uris": {"ios": "https://dc.lft.to/lastmile_qr_scan", "android": "https://dc.lft.to/lastmile_qr_scan"}, "lon": -77.03893366666667, "type": "electric_scooter"}, {"bike_id": "40c1e8cda0a4cd4f26c40041c2544d96", "is_reserved": 0, "fusion_lon": 0.0, "lat": 38.881495, "is_disabled": 0, "name": "40c1e8cda0a4cd4f26c40041c2544d96", "fusion_lat": 0.0, "rental_uris": {"ios": "https://dc.lft.to/lastmile_qr_scan", "android": "https://dc.lft.to/lastmile_qr_scan"}, "lon": -77.02735933333334, "type": "electric_scooter"}, {"bike_id": "82572b2d19543a97396c61905d8f1784", "is_reserved": 0, "fusion_lon": 0.0, "lat": 38.90551983333334, "is_disabled": 0, "name": "82572b2d19543a97396c61905d8f1784", "fusion_lat": 0.0, "rental_uris": {"ios": "https://dc.lft.to/lastmile_qr_scan", "android": "https://dc.lft.to/lastmile_qr_scan"}, "lon": -77.03993733333333, "type": "electric_scooter"}, {"bike_id": "06429634109ee9b0222781e0d2026d55", "is_reserved": 0, "fusion_lon": 0.0, "lat": 38.904553666666665, "is_disabled": 0, "name": "06429634109ee9b0222781e0d2026d55", "fusion_lat": 0.0, "rental_uris": {"ios": "https://dc.lft.to/lastmile_qr_scan", "android": "https://dc.lft.to/lastmile_qr_scan"}, "lon": -77.038575, "type": "electric_scooter"}, {"bike_id": "d39a16ab583613cda75a21f227c7862a", "is_reserved": 0, "fusion_lon": 0.0, "lat": 38.91693466666667, "is_disabled": 0, "name": "d39a16ab583613cda75a21f227c7862a", "fusion_lat": 0.0, "rental_uris": {"ios": "https://dc.lft.to/lastmile_qr_scan", "android": "https://dc.lft.to/lastmile_qr_scan"}, "lon": -77.03769816666667, "type": "electric_scooter"}, {"bike_id": "b25d51152586dcd1f1f6c71a43bbe127", "is_reserved": 0, "fusion_lon": 0.0, "lat": 38.89878316666667, "is_disabled": 0, "name": "b25d51152586dcd1f1f6c71a43bbe127", "fusion_lat": 0.0, "rental_uris": {"ios": "https://dc.lft.to/lastmile_qr_scan", "android": "https://dc.lft.to/lastmile_qr_scan"}, "lon": -76.93159983333334, "type": "electric_scooter"}, {"bike_id": "83e40f19aee5fa5a3d819ef76e1a6bca", "is_reserved": 0, "fusion_lon": 0.0, "lat": 38.9059735, "is_disabled": 0, "name": "83e40f19aee5fa5a3d819ef76e1a6bca", "fusion_lat": 0.0, "rental_uris": {"ios": "https://dc.lft.to/lastmile_qr_scan", "android": "https://dc.lft.to/lastmile_qr_scan"}, "lon": -77.03981416666667, "type": "electric_scooter"}, {"bike_id": "d07d7477fc26a0e06ef7a02d1f4881bb", "is_reserved": 0, "fusion_lon": 0.0, "lat": 38.8795285, "is_disabled": 0, "name": "d07d7477fc26a0e06ef7a02d1f4881bb", "fusion_lat": 0.0, "rental_uris": {"ios": "https://dc.lft.to/lastmile_qr_scan", "android": "https://dc.lft.to/lastmile_qr_scan"}, "lon": -77.00794066666667, "type": "electric_scooter"}, {"bike_id": "70ff061f5ee8aafae02af3d5f3372827", "is_reserved": 0, "fusion_lon": 0.0, "lat": 38.9096115, "is_disabled": 0, "name": "70ff061f5ee8aafae02af3d5f3372827", "fusion_lat": 0.0, "rental_uris": {"ios": "https://dc.lft.to/lastmile_qr_scan", "android": "https://dc.lft.to/lastmile_qr_scan"}, "lon": -77.02725816666667, "type": "electric_scooter"}, {"bike_id": "bb25821dfd40c9e6d148c72125673e4e", "is_reserved": 0, "fusion_lon": 0.0, "lat": 38.90379133333333, "is_disabled": 0, "name": "bb25821dfd40c9e6d148c72125673e4e", "fusion_lat": 0.0, "rental_uris": {"ios": "https://dc.lft.to/lastmile_qr_scan", "android": "https://dc.lft.to/lastmile_qr_scan"}, "lon": -77.02005683333333, "type": "electric_scooter"}, {"bike_id": "014dbaf2966e92ab3e0ade7ef70a2e18", "is_reserved": 0, "fusion_lon": 0.0, "lat": 38.90135766666667, "is_disabled": 0, "name": "014dbaf2966e92ab3e0ade7ef70a2e18", "fusion_lat": 0.0, "rental_uris": {"ios": "https://dc.lft.to/lastmile_qr_scan", "android": "https://dc.lft.to/lastmile_qr_scan"}, "lon": -77.04331816666667, "type": "electric_scooter"}, {"bike_id": "67e74aa18bee862e82430570899ce9e7", "is_reserved": 0, "fusion_lon": 0.0, "lat": 38.901083166666666, "is_disabled": 0, "name": "67e74aa18bee862e82430570899ce9e7", "fusion_lat": 0.0, "rental_uris": {"ios": "https://dc.lft.to/lastmile_qr_scan", "android": "https://dc.lft.to/lastmile_qr_scan"}, "lon": -77.03178333333334, "type": "electric_scooter"}, {"bike_id": "6c37ac3dd6b371ac6e2fe023dca8c212", "is_reserved": 0, "fusion_lon": 0.0, "lat": 38.902071666666664, "is_disabled": 0, "name": "6c37ac3dd6b371ac6e2fe023dca8c212", "fusion_lat": 0.0, "rental_uris": {"ios": "https://dc.lft.to/lastmile_qr_scan", "android": "https://dc.lft.to/lastmile_qr_scan"}, "lon": -77.005495, "type": "electric_scooter"}, {"bike_id": "cf36188cddcb0c21f463a1caf73f52b9", "is_reserved": 0, "fusion_lon": 0.0, "lat": 38.950864, "is_disabled": 0, "name": "cf36188cddcb0c21f463a1caf73f52b9", "fusion_lat": 0.0, "rental_uris": {"ios": "https://dc.lft.to/lastmile_qr_scan", "android": "https://dc.lft.to/lastmile_qr_scan"}, "lon": -77.02832683333334, "type": "electric_scooter"},