{"data": {"bikes": [{"bike_id": "fe69271b2ecb35a357b9982041d797ef", "type": "electric_scooter", "is_disabled": 0, "lat": 38.90490783333333, "rental_uris": {"ios": "https://dc.lft.to/lastmile_qr_scan", "android": "https://dc.lft.to/lastmile_qr_scan"}, "is_reserved": 0, "fusion_lon": 0.0, "fusion_lat": 0.0, "lon": -76.94950983333334, "name": "fe69271b2ecb35a357b9982041d797ef"}, {"bike_id": "139a69c075094bc1fc9dc625c82adbc9", "type": "electric_scooter", "is_disabled": 0, "lat": 38.910456833333335, "rental_uris": {"ios": "https://dc.lft.to/lastmile_qr_scan", "android": "https://dc.lft.to/lastmile_qr_scan"}, "is_reserved": 0, "fusion_lon": 0.0, "fusion_lat": 0.0, "lon": -77.04355333333334, "name": "139a69c075094bc1fc9dc625c82adbc9"}, {"bike_id": "fbf8808125b886a67efc2f8b1a24dfa7", "type": "electric_scooter", "is_disabled": 0, "lat": 38.921101, "rental_uris": {"ios": "https://dc.lft.to/lastmile_qr_scan", "android": "https://dc.lft.to/lastmile_qr_scan"}, "is_reserved": 0, "fusion_lon": 0.0, "fusion_lat": 0.0, "lon": -77.03170383333334, "name": "fbf8808125b886a67efc2f8b1a24dfa7"}, {"bike_id": "1e4861afc750745188a0f90a869efa11", "type": "electric_scooter", "is_disabled": 0, "lat": 38.9105145, "rental_uris": {"ios": "https://dc.lft.to/lastmile_qr_scan", "android": "https://dc.lft.to/lastmile_qr_scan"}, "is_reserved": 0, "fusion_lon": 0.0, "fusion_lat": 0.0, "lon": -77.04346, "name": "1e4861afc750745188a0f90a869efa11"}, {"bike_id": "a4f7af043bbf670b9ff12dd317a99e3d", "type": "electric_scooter", "is_disabled": 0, "lat": 38.91095133333334, "rental_uris": {"ios": "https://dc.lft.to/lastmile_qr_scan", "android": "https://dc.lft.to/lastmile_qr_scan"}, "is_reserved": 0, "fusion_lon": 0.0, "fusion_lat": 0.0, "lon": -77.03840533333333, "name": "a4f7af043bbf670b9ff12dd317a99e3d"}, {"bike_id": "458c49636faf3d49b38bcdfc4b02aa24", "type": "electric_scooter", "is_disabled": 0, "lat": 38.8638055, "rental_uris": {"ios": "https://dc.lft.to/lastmile_qr_scan", "android": "https://dc.lft.to/lastmile_qr_scan"}, "is_reserved": 0, "fusion_lon": 0.0, "fusion_lat": 0.0, "lon": -76.99064066666666, "name": "458c49636faf3d49b38bcdfc4b02aa24"}, {"bike_id": "688c832371e0d67d45caf3f46e402e4b", "type": "electric_scooter", "is_disabled": 0, "lat": 38.9247735, "rental_uris": {"ios": "https://dc.lft.to/lastmile_qr_scan", "android": "https://dc.lft.to/lastmile_qr_scan"}, "is_reserved": 0, "fusion_lon": 0.0, "fusion_lat": 0.0, "lon": -77.02835, "name": "688c832371e0d67d45caf3f46e402e4b"}, {"bike_id": "e40064069d3ab2d6a57fb9338df89a0f", "type": "electric_scooter", "is_disabled": 0, "lat": 38.866871, "rental_uris": {"ios": "https://dc.lft.to/lastmile_qr_scan", "android": "https://dc.lft.to/lastmile_qr_scan"}, "is_reserved": 0, "fusion_lon": 0.0, "fusion_lat": 0.0, "lon": -76.98558316666667, "name": "e40064069d3ab2d6a57fb9338df89a0f"}, {"bike_id": "2e9aa97b453cd4b2ad1ce385fef1deca", "type": "electric_scooter", "is_disabled": 0, "lat": 38.86696516666667, "rental_uris": {"ios": "https://dc.lft.to/lastmile_qr_scan", "android": "https://dc.lft.to/lastmile_qr_scan"}, "is_reserved": 0, "fusion_lon": 0.0, "fusion_lat": 0.0, "lon": -76.98709, "name": "2e9aa97b453cd4b2ad1ce385fef1deca"}, {"bike_id": "461f15bfeddb533e9c7219dfa00d78dc", "type": "electric_scooter", "is_disabled": 0, "lat": 38.909562666666666, "rental_uris": {"ios": "https://dc.lft.to/lastmile_qr_scan", "android": "https://dc.lft.to/lastmile_qr_scan"}, "is_reserved": 0, "fusion_lon": 0.0, "fusion_lat": 0.0, "lon": -77.02121766666667, "name": "461f15bfeddb533e9c7219dfa00d78dc"}, {"bike_id": "5d7f584f54809959ee168e04c2a58d74", "type": "electric_scooter", "is_disabled": 0, "lat": 38.909761833333334, "rental_uris": {"ios": "https://dc.lft.to/lastmile_qr_scan", "android": "https://dc.lft.to/lastmile_qr_scan"}, "is_reserved": 0, "fusion_lon": 0.0, "fusion_lat": 0.0, "lon": -77.032788, "name": "5d7f584f54809959ee168e04c2a58d74"}, {"bike_id": "85aab03f79c1cd9da9d1804cfa43bc36", "type": "electric_scooter", "is_disabled": 0, "lat": 38.908727, "rental_uris": {"ios": "https://dc.lft.to/lastmile_qr_scan", "android": "https://dc.lft.to/lastmile_qr_scan"}, "is_reserved": 0, "fusion_lon": 0.0, "fusion_lat": 0.0, "lon": -77.034706, "name": "85aab03f79c1cd9da9d1804cfa43bc36"}, {"bike_id": "602a1bd6e07cc6c777e738d38e1d28a7", "type": "electric_scooter", "is_disabled": 0, "lat": 38.91701483333333, "rental_uris": {"ios": "https://dc.lft.to/lastmile_qr_scan", "android": "https://dc.lft.to/lastmile_qr_scan"}, "is_reserved": 0, "fusion_lon": 0.0, "fusion_lat": 0.0, "lon": -77.02871116666667, "name": "602a1bd6e07cc6c777e738d38e1d28a7"}, {"bike_id": "9f8216f6112c4134ac70751c7e678afb", "type": "electric_scooter", "is_disabled": 0, "lat": 38.91695433333334, "rental_uris": {"ios": "https://dc.lft.to/lastmile_qr_scan", "android": "https://dc.lft.to/lastmile_qr_scan"}, "is_reserved": 0, "fusion_lon": 0.0, "fusion_lat": 0.0, "lon": -77.03210916666667, "name": "9f8216f6112c4134ac70751c7e678afb"}, {"bike_id": "cd1c4d6b7faca3ccbe67d3762dc7dc2e", "type": "electric_scooter", "is_disabled": 0, "lat": 38.91422466666667, "rental_uris": {"ios": "https://dc.lft.to/lastmile_qr_scan", "android": "https://dc.lft.to/lastmile_qr_scan"}, "is_reserved": 0, "fusion_lon": 0.0, "fusion_lat": 0.0, "lon": -77.02130516666666, "name": "cd1c4d6b7faca3ccbe67d3762dc7dc2e"}, {"bike_id": "1e75b22814093ccc393257d31dce01dd", "type": "electric_scooter", "is_disabled": 0, "lat": 38.93461033333333, "rental_uris": {"ios": "https://dc.lft.to/lastmile_qr_scan", "android": "https://dc.lft.to/lastmile_qr_scan"}, "is_reserved": 0, "fusion_lon": 0.0, "fusion_lat": 0.0, "lon": -76.964349, "name": "1e75b22814093ccc393257d31dce01dd"}, {"bike_id": "8bba591af55f61e2bf6626b6081ee865", "type": "electric_bike", "is_disabled": 0, "lat": 38.87901766666667, "rental_uris": {"ios": "https://dc.lft.to/lastmile_qr_scan", "android": "https://dc.lft.to/lastmile_qr_scan"}, "is_reserved": 0, "fusion_lon": 0.0, "fusion_lat": 0.0, "lon": -77.01945983333333, "name": "8bba591af55f61e2bf6626b6081ee865"}, {"bike_id": "d63e86fe1c554140d142a2b2ce89084d", "type": "electric_scooter", "is_disabled": 0, "lat": 38.92287683333333, "rental_uris": {"ios": "https://dc.lft.to/lastmile_qr_scan", "android": "https://dc.lft.to/lastmile_qr_scan"}, "is_reserved": 0, "fusion_lon": 0.0, "fusion_lat": 0.0, "lon": -76.99777266666666, "name": "d63e86fe1c554140d142a2b2ce89084d"}, {"bike_id": "e5b1d56e8dd9c437c15cc523e71ee54f", "type": "electric_scooter", "is_disabled": 0, "lat": 38.931495166666664, "rental_uris": {"ios": "https://dc.lft.to/lastmile_qr_scan", "android": "https://dc.lft.to/lastmile_qr_scan"}, "is_reserved": 0, "fusion_lon": 0.0, "fusion_lat": 0.0, "lon": -77.04517066666666, "name": "e5b1d56e8dd9c437c15cc523e71ee54f"}, {"bike_id": "995ab22ffef7188ba47cfa00943899f5", "type": "electric_scooter", "is_disabled": 0, "lat": 38.89220433333333, "rental_uris": {"ios": "https://dc.lft.to/lastmile_qr_scan", "android": "https://dc.lft.to/lastmile_qr_scan"}, "is_reserved": 0, "fusion_lon": 0.0, "fusion_lat": 0.0, "lon": -77.02622033333333, "name": "995ab22ffef7188ba47cfa00943899f5"}, {"bike_id": "2bb6390ec5231cb70f98c021f41d562c", "type": "electric_bike", "is_disabled": 0, "lat": 39.024365833333334, "rental_uris": {"ios": "https://dc.lft.to/lastmile_qr_scan", "android": "https://dc.lft.to/lastmile_qr_scan"}, "is_reserved": 0, "fusion_lon": 0.0, "fusion_lat": 0.0, "lon": -77.1309775, "name": "2bb6390ec5231cb70f98c021f41d562c"}, {"bike_id": "1308f9185a6cbf8b5e06427f4f1e11ec", "type": "electric_scooter", "is_disabled": 0, "lat": 38.92124316666667, "rental_uris": {"ios": "https://dc.lft.to/lastmile_qr_scan", "android": "https://dc.lft.to/lastmile_qr_scan"}, "is_reserved": 0, "fusion_lon": 0.0, "fusion_lat": 0.0, "lon": -77.03660933333333, "name": "1308f9185a6cbf8b5e06427f4f1e11ec"}, {"bike_id": "502303ae15b8bb57a48634e392a4b30a", "type": "electric_bike", "is_disabled": 0, "lat": 38.89848533333333, "rental_uris": {"ios": "https://dc.lft.to/lastmile_qr_scan", "android": "https://dc.lft.to/lastmile_qr_scan"}, "is_reserved": 0, "fusion_lon": 0.0, "fusion_lat": 0.0, "lon": -77.05302066666667, "name": "502303ae15b8bb57a48634e392a4b30a"}, {"bike_id": "714e08422f0ac4a3a2b15f76a32d70b8", "type": "electric_scooter", "is_disabled": 0, "lat": 38.904567166666666, "rental_uris": {"ios": "https://dc.lft.to/lastmile_qr_scan", "android": "https://dc.lft.to/lastmile_qr_scan"}, "is_reserved": 0, "fusion_lon": 0.0, "fusion_lat": 0.0, "lon": -77.0288965, "name": "714e08422f0ac4a3a2b15f76a32d70b8"}, {"bike_id": "b678d2dff92346a04315f551d4b877ed", "type": "electric_scooter", "is_disabled": 0, "lat": 38.908227333333336, "rental_uris": {"ios": "https://dc.lft.to/lastmile_qr_scan", "android": "https://dc.lft.to/lastmile_qr_scan"}, "is_reserved": 0, "fusion_lon": 0.0, "fusion_lat": 0.0, "lon": -77.03452366666667, "name": "b678d2dff92346a04315f551d4b877ed"}, {"bike_id": "2d6f4ddbc1560bdbfc234716bd5e13c9", "type": "electric_bike", "is_disabled": 0, "lat": 38.947995666666664, "rental_uris": {"ios": "https://dc.lft.to/lastmile_qr_scan", "android": "https://dc.lft.to/lastmile_qr_scan"}, "is_reserved": 0, "fusion_lon": 0.0, "fusion_lat": 0.0, "lon": -76.95537633333333, "name": "2d6f4ddbc1560bdbfc234716bd5e13c9"}, {"bike_id": "0ca11cf5e206f5d3fdcd4190c6aa4b93", "type": "electric_scooter", "is_disabled": 0, "lat": 38.89534283333333, "rental_uris": {"ios": "https://dc.lft.to/lastmile_qr_scan", "android": "https://dc.lft.to/lastmile_qr_scan"}, "is_reserved": 0, "fusion_lon": 0.0, "fusion_lat": 0.0, "lon": -76.98854183333333, "name": "0ca11cf5e206f5d3fdcd4190c6aa4b93"}, {"bike_id": "c270bae5b16472529eb47284e3a14ea1", "type": "electric_scooter", "is_disabled": 0, "lat": 38.845409, "rental_uris": {"ios": "https://dc.lft.to/lastmile_qr_scan", "android": "https://dc.lft.to/lastmile_qr_scan"}, "is_reserved": 0, "fusion_lon": 0.0, "fusion_lat": 0.0, "lon": -76.98545066666667, "name": "c270bae5b16472529eb47284e3a14ea1"}, {"bike_id": "6b153233b1b7a15e8051b497b1d86b93", "type": "electric_scooter", "is_disabled": 0, "lat": 38.84315683333333, "rental_uris": {"ios": "https://dc.lft.to/lastmile_qr_scan", "android": "https://dc.lft.to/lastmile_qr_scan"}, "is_reserved": 0, "fusion_lon": 0.0, "fusion_lat": 0.0, "lon": -76.99921866666666, "name": "6b153233b1b7a15e8051b497b1d86b93"}, {"bike_id": "a39227385951c709a5f2c615246b7a5a", "type": "electric_scooter", "is_disabled": 0, "lat": 38.91819866666667, "rental_uris": {"ios": "https://dc.lft.to/lastmile_qr_scan", "android": "https://dc.lft.to/lastmile_qr_scan"}, "is_reserved": 0, "fusion_lon": 0.0, "fusion_lat": 0.0, "lon": -77.03193316666666, "name": "a39227385951c709a5f2c615246b7a5a"}, {"bike_id": "23d0264d2e6bc294a591cb8a34dcba72", "type": "electric_scooter", "is_disabled": 0, "lat": 38.914488, "rental_uris": {"ios": "https://dc.lft.to/lastmile_qr_scan", "android": "https://dc.lft.to/lastmile_qr_scan"}, "is_reserved": 0, "fusion_lon": 0.0, "fusion_lat": 0.0, "lon": -77.0459115, "name": "23d0264d2e6bc294a591cb8a34dcba72"}, {"bike_id": "2d0505cbdf247b2d2d0ae765f0f03419", "type": "electric_scooter", "is_disabled": 0, "lat": 38.92323183333333, "rental_uris": {"ios": "https://dc.lft.to/lastmile_qr_scan", "android": "https://dc.lft.to/lastmile_qr_scan"}, "is_reserved": 0, "fusion_lon": 0.0, "fusion_lat": 0.0, "lon": -77.0464305, "name": "2d0505cbdf247b2d2d0ae765f0f03419"}, {"bike_id": "a07be05b9dc78dc2c1e34a7fb45d277a", "type": "electric_scooter", "is_disabled": 0, "lat": 38.916961666666666, "rental_uris": {"ios": "https://dc.lft.to/lastmile_qr_scan", "android": "https://dc.lft.to/lastmile_qr_scan"}, "is_reserved": 0, "fusion_lon": 0.0, "fusion_lat": 0.0, "lon": -77.0418235, "name": "a07be05b9dc78dc2c1e34a7fb45d277a"}, {"bike_id": "e24434955a55523dba2b2a91e19c3dc0", "type": "electric_scooter", "is_disabled": 0, "lat": 38.908469833333335, "rental_uris": {"ios": "https://dc.lft.to/lastmile_qr_scan", "android": "https://dc.lft.to/lastmile_qr_scan"}, "is_reserved": 0, "fusion_lon": 0.0, "fusion_lat": 0.0, "lon": -77.02711133333334, "name": "e24434955a55523dba2b2a91e19c3dc0"}, {"bike_id": "c1adc1b640e458f64e59bac56a062431", "type": "electric_scooter", "is_disabled": 0, "lat": 38.907335333333336, "rental_uris": {"ios": "https://dc.lft.to/lastmile_qr_scan", "android": "https://dc.lft.to/lastmile_qr_scan"}, "is_reserved": 0, "fusion_lon": 0.0, "fusion_lat": 0.0, "lon": -77.02246866666667, "name": "c1adc1b640e458f64e59bac56a062431"}, {"bike_id": "017030beef16c890be8ffe30cd7f4333", "type": "electric_bike", "is_disabled": 0, "lat": 38.86511383333333, "rental_uris": {"ios": "https://dc.lft.to/lastmile_qr_scan", "android": "https://dc.lft.to/lastmile_qr_scan"}, "is_reserved": 0, "fusion_lon": 0.0, "fusion_lat": 0.0, "lon": -76.97337933333333, "name": "017030beef16c890be8ffe30cd7f4333"}, {"bike_id": "58b0f31cf3121b555aed2059aa821ec2", "type": "electric_scooter", "is_disabled": 0, "lat": 38.922189833333334, "rental_uris": {"ios": "https://dc.lft.to/lastmile_qr_scan", "android": "https://dc.lft.to/lastmile_qr_scan"}, "is_reserved": 0, "fusion_lon": 0.0, "fusion_lat": 0.0, "lon": -77.0237375, "name": "58b0f31cf3121b555aed2059aa821ec2"}, {"bike_id": "8263c6dd3386573607c30db1573d3dc8", "type": "electric_scooter", "is_disabled": 0, "lat": 38.91110783333333, "rental_uris": {"ios": "https://dc.lft.to/lastmile_qr_scan", "android": "https://dc.lft.to/lastmile_qr_scan"}, "is_reserved": 0, "fusion_lon": 0.0, "fusion_lat": 0.0, "lon": -77.048902, "name": "8263c6dd3386573607c30db1573d3dc8"}, {"bike_id": "cf9fd8841cd4ad802bc68caac72f9863", "type": "electric_scooter", "is_disabled": 0, "lat": 38.90711066666667, "rental_uris": {"ios": "https://dc.lft.to/lastmile_qr_scan", "android": "https://dc.lft.to/lastmile_qr_scan"}, "is_reserved": 0, "fusion_lon": 0.0, "fusion_lat": 0.0, "lon": -77.0239425, "name": "cf9fd8841cd4ad802bc68caac72f9863"}, {"bike_id": "db9711f85fdc65580acfff7f17b775e4", "type": "electric_scooter", "is_disabled": 0, "lat": 38.918428666666664, "rental_uris": {"ios": "https://dc.lft.to/lastmile_qr_scan", "android": "https://dc.lft.to/lastmile_qr_scan"}, "is_reserved": 0, "fusion_lon": 0.0, "fusion_lat": 0.0, "lon": -77.03183733333333, "name": "db9711f85fdc65580acfff7f17b775e4"}, {"bike_id": "56b85e2bcc38ff207b21270410b93c5e", "type": "electric_scooter", "is_disabled": 0, "lat": 38.91718, "rental_uris": {"ios": "https://dc.lft.to/lastmile_qr_scan", "android": "https://dc.lft.to/lastmile_qr_scan"}, "is_reserved": 0, "fusion_lon": 0.0, "fusion_lat": 0.0, "lon": -77.01202533333333, "name": "56b85e2bcc38ff207b21270410b93c5e"}, {"bike_id": "127a785cf087c7c1e5da78901eb5f3b2", "type": "electric_scooter", "is_disabled": 0, "lat": 38.90598766666667, "rental_uris": {"ios": "https://dc.lft.to/lastmile_qr_scan", "android": "https://dc.lft.to/lastmile_qr_scan"}, "is_reserved": 0, "fusion_lon": 0.0, "fusion_lat": 0.0, "lon": -77.027048, "name": "127a785cf087c7c1e5da78901eb5f3b2"}, {"bike_id": "4cdf5f692436410202dbcb473464269e", "type": "electric_scooter", "is_disabled": 0, "lat": 38.897319, "rental_uris": {"ios": "https://dc.lft.to/lastmile_qr_scan", "android": "https://dc.lft.to/lastmile_qr_scan"}, "is_reserved": 0, "fusion_lon": 0.0, "fusion_lat": 0.0, "lon": -77.0547405, "name": "4cdf5f692436410202dbcb473464269e"}, {"bike_id": "ef721bb80d409f993f293a4d33a5cc00", "type": "electric_scooter", "is_disabled": 0, "lat": 38.9122635, "rental_uris": {"ios": "https://dc.lft.to/lastmile_qr_scan", "android": "https://dc.lft.to/lastmile_qr_scan"}, "is_reserved": 0, "fusion_lon": 0.0, "fusion_lat": 0.0, "lon": -76.98788883333333, "name": "ef721bb80d409f993f293a4d33a5cc00"}, {"bike_id": "d62efb7cc5910a3390bcef199c5623e5", "type": "electric_scooter", "is_disabled": 0, "lat": 38.91503866666667, "rental_uris": {"ios": "https://dc.lft.to/lastmile_qr_scan", "android": "https://dc.lft.to/lastmile_qr_scan"}, "is_reserved": 0, "fusion_lon": 0.0, "fusion_lat": 0.0, "lon": -77.01777583333333, "name": "d62efb7cc5910a3390bcef199c5623e5"}, {"bike_id": "2dcab84f78b8b65de39a63d7228b479d", "type": "electric_bike", "is_disabled": 0, "lat": 38.944763, "rental_uris": {"ios": "https://dc.lft.to/lastmile_qr_scan", "android": "https://dc.lft.to/lastmile_qr_scan"}, "is_reserved": 0, "fusion_lon": 0.0, "fusion_lat": 0.0, "lon": -76.98687483333333, "name": "2dcab84f78b8b65de39a63d7228b479d"}, {"bike_id": "dd569fffd68237a778d2bde1f08c25e8", "type": "electric_scooter", "is_disabled": 0, "lat": 38.922399166666665, "rental_uris": {"ios": "https://dc.lft.to/lastmile_qr_scan", "android": "https://dc.lft.to/lastmile_qr_scan"}, "is_reserved": 0, "fusion_lon": 0.0, "fusion_lat": 0.0, "lon": -77.03715216666667, "name": "dd569fffd68237a778d2bde1f08c25e8"}, {"bike_id": "19881646d03b0570e0970b3fc54519f2", "type": "electric_scooter", "is_disabled": 0, "lat": 38.904105666666666, "rental_uris": {"ios": "https://dc.lft.to/lastmile_qr_scan", "android": "https://dc.lft.to/lastmile_qr_scan"}, "is_reserved": 0, "fusion_lon": 0.0, "fusion_lat": 0.0, "lon": -76.97332733333333, "name": "19881646d03b0570e0970b3fc54519f2"}, {"bike_id": "a4ba65752a85595253d756ad5cec8df1", "type": "electric_scooter", "is_disabled": 0, "lat": 38.86658883333333, "rental_uris": {"ios": "https://dc.lft.to/lastmile_qr_scan", "android": "https://dc.lft.to/lastmile_qr_scan"}, "is_reserved": 0, "fusion_lon": 0.0, "fusion_lat": 0.0, "lon": -76.988858, "name": "a4ba65752a85595253d756ad5cec8df1"}, {"bike_id": "d9392e8b3546110caeb351470c9e2f9c", "type": "electric_scooter", "is_disabled": 0, "lat": 38.90417733333334, "rental_uris": {"ios": "https://dc.lft.to/lastmile_qr_scan", "android": "https://dc.lft.to/lastmile_qr_scan"}, "is_reserved": 0, "fusion_lon": 0.0, "fusion_lat": 0.0, "lon": -77.06884566666666, "name": "d9392e8b3546110caeb351470c9e2f9c"}, {"bike_id": "7cbf1782336f8f7ee528972016938bec", "type": "electric_scooter", "is_disabled": 0, "lat": 38.903732833333336, "rental_uris": {"ios": "https://dc.lft.to/lastmile_qr_scan", "android": "https://dc.lft.to/lastmile_qr_scan"}, "is_reserved": 0, "fusion_lon": 0.0, "fusion_lat": 0.0, "lon": -77.02207333333334, "name": "7cbf1782336f8f7ee528972016938bec"}, {"bike_id": "1ea5ddd7f38bb307e829d38b0ad798c9", "type": "electric_bike", "is_disabled": 0, "lat": 38.849694, "rental_uris": {"ios": "https://dc.lft.to/lastmile_qr_scan", "android": "https://dc.lft.to/lastmile_qr_scan"}, "is_reserved": 0, "fusion_lon": 0.0, "fusion_lat": 0.0, "lon": -77.07760233333333, "name": "1ea5ddd7f38bb307e829d38b0ad798c9"}, {"bike_id": "25bf3a2c402eef7b75c52c038002f83c", "type": "electric_scooter", "is_disabled": 0, "lat": 38.916981, "rental_uris": {"ios": "https://dc.lft.to/lastmile_qr_scan", "android": "https://dc.lft.to/lastmile_qr_scan"}, "is_reserved": 0, "fusion_lon": 0.0, "fusion_lat": 0.0, "lon": -77.03154583333334, "name": "25bf3a2c402eef7b75c52c038002f83c"}, {"bike_id": "dc4498ca95baaf17c360dc32b4a87843", "type": "electric_scooter", "is_disabled": 0, "lat": 38.90009333333333, "rental_uris": {"ios": "https://dc.lft.to/lastmile_qr_scan", "android": "https://dc.lft.to/lastmile_qr_scan"}, "is_reserved": 0, "fusion_lon": 0.0, "fusion_lat": 0.0, "lon": -76.985331, "name": "dc4498ca95baaf17c360dc32b4a87843"}, {"bike_id": "8a859ff17008626beafa746880b20eee", "type": "electric_scooter", "is_disabled": 0, "lat": 38.965522, "rental_uris": {"ios": "https://dc.lft.to/lastmile_qr_scan", "android": "https://dc.lft.to/lastmile_qr_scan"}, "is_reserved": 0, "fusion_lon": 0.0, "fusion_lat": 0.0, "lon": -77.03616583333333, "name": "8a859ff17008626beafa746880b20eee"}, {"bike_id": "6ce228d2f919c8739bc3203bbec72d3b", "type": "electric_scooter", "is_disabled": 0, "lat": 38.9005345, "rental_uris": {"ios": "https://dc.lft.to/lastmile_qr_scan", "android": "https://dc.lft.to/lastmile_qr_scan"}, "is_reserved": 0, "fusion_lon": 0.0, "fusion_lat": 0.0, "lon": -77.04175433333333, "name": "6ce228d2f919c8739bc3203bbec72d3b"}, {"bike_id": "4802ffaa0d01ea541ed1a33839eb24e2", "type": "electric_scooter", "is_disabled": 0, "lat": 38.919170333333334, "rental_uris": {"ios": "https://dc.lft.to/lastmile_qr_scan", "android": "https://dc.lft.to/lastmile_qr_scan"}, "is_reserved": 0, "fusion_lon": 0.0, "fusion_lat": 0.0, "lon": -77.0311655, "name": "4802ffaa0d01ea541ed1a33839eb24e2"}, {"bike_id": "d1ff6aa9918d31224e1113d6d7fa1f38", "type": "electric_scooter", "is_disabled": 0, "lat": 38.91552033333333, "rental_uris": {"ios": "https://dc.lft.to/lastmile_qr_scan", "android": "https://dc.lft.to/lastmile_qr_scan"}, "is_reserved": 0, "fusion_lon": 0.0, "fusion_lat": 0.0, "lon": -77.02194516666667, "name": "d1ff6aa9918d31224e1113d6d7fa1f38"}, {"bike_id": "4e79433e1f6d6603bb6bc085eb274b8c", "type": "electric_scooter", "is_disabled": 0, "lat": 38.87652533333333, "rental_uris": {"ios": "https://dc.lft.to/lastmile_qr_scan", "android": "https://dc.lft.to/lastmile_qr_scan"}, "is_reserved": 0, "fusion_lon": 0.0, "fusion_lat": 0.0, "lon": -77.00437333333333, "name": "4e79433e1f6d6603bb6bc085eb274b8c"}, {"bike_id": "9911a74427496323cb6bc4e4853f1644", "type": "electric_scooter", "is_disabled": 0, "lat": 38.9022615, "rental_uris": {"ios": "https://dc.lft.to/lastmile_qr_scan", "android": "https://dc.lft.to/lastmile_qr_scan"}, "is_reserved": 0, "fusion_lon": 0.0, "fusion_lat": 0.0, "lon": -77.04067566666667, "name": "9911a74427496323cb6bc4e4853f1644"}, {"bike_id": "42d37f42ff6f7e69cd2dbd2f84040002", "type": "electric_scooter", "is_disabled": 0, "lat": 38.916651333333334, "rental_uris": {"ios": "https://dc.lft.to/lastmile_qr_scan", "android": "https://dc.lft.to/lastmile_qr_scan"}, "is_reserved": 0, "fusion_lon": 0.0, "fusion_lat": 0.0, "lon": -77.0239105, "name": "42d37f42ff6f7e69cd2dbd2f84040002"}, {"bike_id": "4cea3e97e757ad5e5124042ad8355625", "type": "electric_scooter", "is_disabled": 0, "lat": 38.907884, "rental_uris": {"ios": "https://dc.lft.to/lastmile_qr_scan", "android": "https://dc.lft.to/lastmile_qr_scan"}, "is_reserved": 0, "fusion_lon": 0.0, "fusion_lat": 0.0, "lon": -77.01081083333334, "name": "4cea3e97e757ad5e5124042ad8355625"}, {"bike_id": "1527640a7535422474d6dc5b404e88d9", "type": "electric_scooter", "is_disabled": 0, "lat": 38.8778855, "rental_uris": {"ios": "https://dc.lft.to/lastmile_qr_scan", "android": "https://dc.lft.to/lastmile_qr_scan"}, "is_reserved": 0, "fusion_lon": 0.0, "fusion_lat": 0.0, "lon": -77.00114366666666, "name": "1527640a7535422474d6dc5b404e88d9"}, {"bike_id": "7c215d22d24ddb7e35ad5e44e47c4e5f", "type": "electric_scooter", "is_disabled": 0, "lat": 38.9194655, "rental_uris": {"ios": "https://dc.lft.to/lastmile_qr_scan", "android": "https://dc.lft.to/lastmile_qr_scan"}, "is_reserved": 0, "fusion_lon": 0.0, "fusion_lat": 0.0, "lon": -77.04506283333333, "name": "7c215d22d24ddb7e35ad5e44e47c4e5f"}, {"bike_id": "90b558824da7076be780cc89e3a18956", "type": "electric_scooter", "is_disabled": 0, "lat": 38.928317666666665, "rental_uris": {"ios": "https://dc.lft.to/lastmile_qr_scan", "android": "https://dc.lft.to/lastmile_qr_scan"}, "is_reserved": 0, "fusion_lon": 0.0, "fusion_lat": 0.0, "lon": -77.02972266666667, "name": "90b558824da7076be780cc89e3a18956"}, {"bike_id": "654c8a1381da7cf5ceb9b35c4586cdb7", "type": "electric_bike", "is_disabled": 0, "lat": 38.878827666666666, "rental_uris": {"ios": "https://dc.lft.to/lastmile_qr_scan", "android": "https://dc.lft.to/lastmile_qr_scan"}, "is_reserved": 0, "fusion_lon": 0.0, "fusion_lat": 0.0, "lon": -77.0961205, "name": "654c8a1381da7cf5ceb9b35c4586cdb7"}, {"bike_id": "9b48455d4b37317d2a9c9ca55cef8991", "type": "electric_scooter", "is_disabled": 0, "lat": 38.900364, "rental_uris": {"ios": "https://dc.lft.to/lastmile_qr_scan", "android": "https://dc.lft.to/lastmile_qr_scan"}, "is_reserved": 0, "fusion_lon": 0.0, "fusion_lat": 0.0, "lon": -76.99749616666666, "name": "9b48455d4b37317d2a9c9ca55cef8991"}, {"bike_id": "cae5a3b8cda56f5bb58636ecf0c8f437", "type": "electric_scooter", "is_disabled": 0, "lat": 38.91270433333333, "rental_uris": {"ios": "https://dc.lft.to/lastmile_qr_scan", "android": "https://dc.lft.to/lastmile_qr_scan"}, "is_reserved": 0, "fusion_lon": 0.0, "fusion_lat": 0.0, "lon": -77.04703533333333, "name": "cae5a3b8cda56f5bb58636ecf0c8f437"}, {"bike_id": "17325fd7685c8aa3cff4ed21accb1ae0", "type": "electric_scooter", "is_disabled": 0, "lat": 38.907572333333334, "rental_uris": {"ios": "https://dc.lft.to/lastmile_qr_scan", "android": "https://dc.lft.to/lastmile_qr_scan"}, "is_reserved": 0, "fusion_lon": 0.0, "fusion_lat": 0.0, "lon": -77.04175766666667, "name": "17325fd7685c8aa3cff4ed21accb1ae0"}, {"bike_id": "1d2577e02630faea2748e75403564581", "type": "electric_scooter", "is_disabled": 0, "lat": 38.967408, "rental_uris": {"ios": "https://dc.lft.to/lastmile_qr_scan", "android": "https://dc.lft.to/lastmile_qr_scan"}, "is_reserved": 0, "fusion_lon": 0.0, "fusion_lat": 0.0, "lon": -77.05514883333333, "name": "1d2577e02630faea2748e75403564581"}, {"bike_id": "c83a55a74821a256ad137300df06f8b9", "type": "electric_scooter", "is_disabled": 0, "lat": 38.86690683333333, "rental_uris": {"ios": "https://dc.lft.to/lastmile_qr_scan", "android": "https://dc.lft.to/lastmile_qr_scan"}, "is_reserved": 0, "fusion_lon": 0.0, "fusion_lat": 0.0, "lon": -76.98559516666667, "name": "c83a55a74821a256ad137300df06f8b9"}, {"bike_id": "3f5255623ac75e20f0278029fd8d4f50", "type": "electric_bike", "is_disabled": 0, "lat": 38.942614, "rental_uris": {"ios": "https://dc.lft.to/lastmile_qr_scan", "android": "https://dc.lft.to/lastmile_qr_scan"}, "is_reserved": 0, "fusion_lon": 0.0, "fusion_lat": 0.0, "lon": -76.99069583333333, "name": "3f5255623ac75e20f0278029fd8d4f50"}, {"bike_id": "5e1b0e2076e5b66dcd852dad6052e44e", "type": "electric_scooter", "is_disabled": 0, "lat": 38.92540916666667, "rental_uris": {"ios": "https://dc.lft.to/lastmile_qr_scan", "android": "https://dc.lft.to/lastmile_qr_scan"}, "is_reserved": 0, "fusion_lon": 0.0, "fusion_lat": 0.0, "lon": -77.03361066666666, "name": "5e1b0e2076e5b66dcd852dad6052e44e"}, {"bike_id": "48971df036e23745e0008b3725a5be49", "type": "electric_scooter", "is_disabled": 0, "lat": 38.898834666666666, "rental_uris": {"ios": "https://dc.lft.to/lastmile_qr_scan", "android": "https://dc.lft.to/lastmile_qr_scan"}, "is_reserved": 0, "fusion_lon": 0.0, "fusion_lat": 0.0, "lon": -76.93177933333334, "name": "48971df036e23745e0008b3725a5be49"}, {"bike_id": "ae89cdb8c0dbde5baa459f8dad7b95fb", "type": "electric_scooter", "is_disabled": 0, "lat": 38.951159833333335, "rental_uris": {"ios": "https://dc.lft.to/lastmile_qr_scan", "android": "https://dc.lft.to/lastmile_qr_scan"}, "is_reserved": 0, "fusion_lon": 0.0, "fusion_lat": 0.0, "lon": -77.01433083333333, "name": "ae89cdb8c0dbde5baa459f8dad7b95fb"}, {"bike_id": "cb64ea2264d5801f5ee37d6cb6717cb0", "type": "electric_scooter", "is_disabled": 0, "lat": 38.928622833333336, "rental_uris": {"ios": "https://dc.lft.to/lastmile_qr_scan", "android": "https://dc.lft.to/lastmile_qr_scan"}, "is_reserved": 0, "fusion_lon": 0.0, "fusion_lat": 0.0, "lon": -77.03709, "name": "cb64ea2264d5801f5ee37d6cb6717cb0"}, {"bike_id": "e547ecd64029e549a0f3d7c2e7dcde10", "type": "electric_scooter", "is_disabled": 0, "lat": 38.9493125, "rental_uris": {"ios": "https://dc.lft.to/lastmile_qr_scan", "android": "https://dc.lft.to/lastmile_qr_scan"}, "is_reserved": 0, "fusion_lon": 0.0, "fusion_lat": 0.0, "lon": -77.06529316666666, "name": "e547ecd64029e549a0f3d7c2e7dcde10"}, {"bike_id": "b9c0e46c50227470c1dc5a1c4a0f245a", "type": "electric_scooter", "is_disabled": 0, "lat": 38.89499266666667, "rental_uris": {"ios": "https://dc.lft.to/lastmile_qr_scan", "android": "https://dc.lft.to/lastmile_qr_scan"}, "is_reserved": 0, "fusion_lon": 0.0, "fusion_lat": 0.0, "lon": -76.9348405, "name": "b9c0e46c50227470c1dc5a1c4a0f245a"}, {"bike_id": "87334d3255f949c16211f5552010f4fa", "type": "electric_bike", "is_disabled": 0, "lat": 38.848377666666664, "rental_uris": {"ios": "https://dc.lft.to/lastmile_qr_scan", "android": "https://dc.lft.to/lastmile_qr_scan"}, "is_reserved": 0, "fusion_lon": 0.0, "fusion_lat": 0.0, "lon": -77.07920333333334, "name": "87334d3255f949c16211f5552010f4fa"}, {"bike_id": "8802ad101714bcd436a7514c04c3d9c7", "type": "electric_scooter", "is_disabled": 0, "lat": 38.93133383333333, "rental_uris": {"ios": "https://dc.lft.to/lastmile_qr_scan", "android": "https://dc.lft.to/lastmile_qr_scan"}, "is_reserved": 0, "fusion_lon": 0.0, "fusion_lat": 0.0, "lon": -76.99576466666667, "name": "8802ad101714bcd436a7514c04c3d9c7"}, {"bike_id": "d06d4ed99e24352a005db4adcb586d86", "type": "electric_scooter", "is_disabled": 0, "lat": 38.8813355, "rental_uris": {"ios": "https://dc.lft.to/lastmile_qr_scan", "android": "https://dc.lft.to/lastmile_qr_scan"}, "is_reserved": 0, "fusion_lon": 0.0, "fusion_lat": 0.0, "lon": -76.98350066666667, "name": "d06d4ed99e24352a005db4adcb586d86"}, {"bike_id": "0b01d84ab58958d06b79f7766a5cf315", "type": "electric_scooter", "is_disabled": 0, "lat": 38.898459333333335, "rental_uris": {"ios": "https://dc.lft.to/lastmile_qr_scan", "android": "https://dc.lft.to/lastmile_qr_scan"}, "is_reserved": 0, "fusion_lon": 0.0, "fusion_lat": 0.0, "lon": -77.0285835, "name": "0b01d84ab58958d06b79f7766a5cf315"}, {"bike_id": "3a5da74f231f6f70f3106a65b98dd33a", "type": "electric_scooter", "is_disabled": 0, "lat": 38.907113833333334, "rental_uris": {"ios": "https://dc.lft.to/lastmile_qr_scan", "android": "https://dc.lft.to/lastmile_qr_scan"}, "is_reserved": 0, "fusion_lon": 0.0, "fusion_lat": 0.0, "lon": -77.0239195, "name": "3a5da74f231f6f70f3106a65b98dd33a"}, {"bike_id": "8dce83ed067981145421453f33ddf516", "type": "electric_scooter", "is_disabled": 0, "lat": 38.933405666666665, "rental_uris": {"ios": "https://dc.lft.to/lastmile_qr_scan", "android": "https://dc.lft.to/lastmile_qr_scan"}, "is_reserved": 0, "fusion_lon": 0.0, "fusion_lat": 0.0, "lon": -77.020569, "name": "8dce83ed067981145421453f33ddf516"}, {"bike_id": "ca36ab0bfbb420403bdce673999eaf2a", "type": "electric_scooter", "is_disabled": 0, "lat": 38.94750283333333, "rental_uris": {"ios": "https://dc.lft.to/lastmile_qr_scan", "android": "https://dc.lft.to/lastmile_qr_scan"}, "is_reserved": 0, "fusion_lon": 0.0, "fusion_lat": 0.0, "lon": -77.07587133333334, "name": "ca36ab0bfbb420403bdce673999eaf2a"}, {"bike_id": "de13d45ca26c7484c1b0bf59f114b493", "type": "electric_scooter", "is_disabled": 0, "lat": 38.91276916666666, "rental_uris": {"ios": "https://dc.lft.to/lastmile_qr_scan", "android": "https://dc.lft.to/lastmile_qr_scan"}, "is_reserved": 0, "fusion_lon": 0.0, "fusion_lat": 0.0, "lon": -77.02264233333334, "name": "de13d45ca26c7484c1b0bf59f114b493"}, {"bike_id": "c338e8789b06367db47d2ab9cedf0078", "type": "electric_bike", "is_disabled": 0, "lat": 39.0528125, "rental_uris": {"ios": "https://dc.lft.to/lastmile_qr_scan", "android": "https://dc.lft.to/lastmile_qr_scan"}, "is_reserved": 0, "fusion_lon": 0.0, "fusion_lat": 0.0, "lon": -77.0806935, "name": "c338e8789b06367db47d2ab9cedf0078"}, {"bike_id": "a654a1f6b0348a8a9fc7e8aea030091d", "type": "electric_scooter", "is_disabled": 0, "lat": 38.909759, "rental_uris": {"ios": "https://dc.lft.to/lastmile_qr_scan", "android": "https://dc.lft.to/lastmile_qr_scan"}, "is_reserved": 0, "fusion_lon": 0.0, "fusion_lat": 0.0, "lon": -77.04643983333334, "name": "a654a1f6b0348a8a9fc7e8aea030091d"}, {"bike_id": "89b7f939c37ed182f8a0c676a8284a88", "type": "electric_scooter", "is_disabled": 0, "lat": 38.91705683333333, "rental_uris": {"ios": "https://dc.lft.to/lastmile_qr_scan", "android": "https://dc.lft.to/lastmile_qr_scan"}, "is_reserved": 0, "fusion_lon": 0.0, "fusion_lat": 0.0, "lon": -77.0065545, "name": "89b7f939c37ed182f8a0c676a8284a88"}, {"bike_id": "4576a27750478de13867561049842267", "type": "electric_scooter", "is_disabled": 0, "lat": 38.901684333333336, "rental_uris": {"ios": "https://dc.lft.to/lastmile_qr_scan", "android": "https://dc.lft.to/lastmile_qr_scan"}, "is_reserved": 0, "fusion_lon": 0.0, "fusion_lat": 0.0, "lon": -76.98082283333333, "name": "4576a27750478de13867561049842267"}, {"bike_id": "5e6117af0d94b0d5fde7537f327b1551", "type": "electric_scooter", "is_disabled": 0, "lat": 38.931005666666664, "rental_uris": {"ios": "https://dc.lft.to/lastmile_qr_scan", "android": "https://dc.lft.to/lastmile_qr_scan"}, "is_reserved": 0, "fusion_lon": 0.0, "fusion_lat": 0.0, "lon": -77.02477566666667, "name": "5e6117af0d94b0d5fde7537f327b1551"}, {"bike_id": "2b2e19121405dfcfbc79b24cdd640296", "type": "electric_scooter", "is_disabled": 0, "lat": 38.918282833333336, "rental_uris": {"ios": "https://dc.lft.to/lastmile_qr_scan", "android": "https://dc.lft.to/lastmile_qr_scan"}, "is_reserved": 0, "fusion_lon": 0.0, "fusion_lat": 0.0, "lon": -77.049421, "name": "2b2e19121405dfcfbc79b24cdd640296"}, {"bike_id": "99b7f11f778e4045fa9a3976b518a94e", "type": "electric_scooter", "is_disabled": 0, "lat": 38.86695483333333, "rental_uris": {"ios": "https://dc.lft.to/lastmile_qr_scan", "android": "https://dc.lft.to/lastmile_qr_scan"}, "is_reserved": 0, "fusion_lon": 0.0, "fusion_lat": 0.0, "lon": -76.987162, "name": "99b7f11f778e4045fa9a3976b518a94e"}, {"bike_id": "4b7aa106c4970e16729585a1be69f942", "type": "electric_scooter", "is_disabled": 0, "lat": 38.918329, "rental_uris": {"ios": "https://dc.lft.to/lastmile_qr_scan", "android": "https://dc.lft.to/lastmile_qr_scan"}, "is_reserved": 0, "fusion_lon": 0.0, "fusion_lat": 0.0, "lon": -76.96564116666667, "name": "4b7aa106c4970e16729585a1be69f942"}, {"bike_id": "21110a858ecb8e44d11ef055b614ef81", "type": "electric_scooter", "is_disabled": 0, "lat": 38.9223405, "rental_uris": {"ios": "https://dc.lft.to/lastmile_qr_scan", "android": "https://dc.lft.to/lastmile_qr_scan"}, "is_reserved": 0, "fusion_lon": 0.0, "fusion_lat": 0.0, "lon": -77.04268916666666, "name": "21110a858ecb8e44d11ef055b614ef81"}, {"bike_id": "65b2cbf73b19cf95178ec1fce5c62c8f", "type": "electric_scooter", "is_disabled": 0, "lat": 38.91413766666667, "rental_uris": {"ios": "https://dc.lft.to/lastmile_qr_scan", "android": "https://dc.lft.to/lastmile_qr_scan"}, "is_reserved": 0, "fusion_lon": 0.0, "fusion_lat": 0.0, "lon": -77.0225275, "name": "65b2cbf73b19cf95178ec1fce5c62c8f"}, {"bike_id": "203f71aaeaa7ab190ec0b3abe9abe8d6", "type": "electric_scooter", "is_disabled": 0, "lat": 38.89240866666667, "rental_uris": {"ios": "https://dc.lft.to/lastmile_qr_scan", "android": "https://dc.lft.to/lastmile_qr_scan"}, "is_reserved": 0, "fusion_lon": 0.0, "fusion_lat": 0.0, "lon": -77.0261215, "name": "203f71aaeaa7ab190ec0b3abe9abe8d6"}, {"bike_id": "7febdbcb60c89705be7e93ebfb13f141", "type": "electric_scooter", "is_disabled": 0, "lat": 38.918957166666665, "rental_uris": {"ios": "https://dc.lft.to/lastmile_qr_scan", "android": "https://dc.lft.to/lastmile_qr_scan"}, "is_reserved": 0, "fusion_lon": 0.0, "fusion_lat": 0.0, "lon": -77.03181033333334, "name": "7febdbcb60c89705be7e93ebfb13f141"}, {"bike_id": "03c13c996f649292b90915a4214d5ad8", "type": "electric_scooter", "is_disabled": 0, "lat": 38.89291033333333, "rental_uris": {"ios": "https://dc.lft.to/lastmile_qr_scan", "android": "https://dc.lft.to/lastmile_qr_scan"}, "is_reserved": 0, "fusion_lon": 0.0, "fusion_lat": 0.0, "lon": -77.044853, "name": "03c13c996f649292b90915a4214d5ad8"}, {"bike_id": "dae5e79e1dc9f72a704b1fd0a6fd9dee", "type": "electric_scooter", "is_disabled": 0, "lat": 38.933443833333335, "rental_uris": {"ios": "https://dc.lft.to/lastmile_qr_scan", "android": "https://dc.lft.to/lastmile_qr_scan"}, "is_reserved": 0, "fusion_lon": 0.0, "fusion_lat": 0.0, "lon": -77.03988283333334, "name": "dae5e79e1dc9f72a704b1fd0a6fd9dee"}, {"bike_id": "3909b932c48e437a9c5023efed4873ec", "type": "electric_scooter", "is_disabled": 0, "lat": 38.92053583333333, "rental_uris": {"ios": "https://dc.lft.to/lastmile_qr_scan", "android": "https://dc.lft.to/lastmile_qr_scan"}, "is_reserved": 0, "fusion_lon": 0.0, "fusion_lat": 0.0, "lon": -77.033918, "name": "3909b932c48e437a9c5023efed4873ec"}, {"bike_id": "e9623218a8dd6a690a573abeb82d9aab", "type": "electric_scooter", "is_disabled": 0, "lat": 38.9003135, "rental_uris": {"ios": "https://dc.lft.to/lastmile_qr_scan", "android": "https://dc.lft.to/lastmile_qr_scan"}, "is_reserved": 0, "fusion_lon": 0.0, "fusion_lat": 0.0, "lon": -77.00184966666667, "name": "e9623218a8dd6a690a573abeb82d9aab"}, {"bike_id": "eb57fa53ab4a2bc2fe20ff91fbad20d7", "type": "electric_scooter", "is_disabled": 0, "lat": 38.942940166666666, "rental_uris": {"ios": "https://dc.lft.to/lastmile_qr_scan", "android": "https://dc.lft.to/lastmile_qr_scan"}, "is_reserved": 0, "fusion_lon": 0.0, "fusion_lat": 0.0, "lon": -77.02171583333333, "name": "eb57fa53ab4a2bc2fe20ff91fbad20d7"}, {"bike_id": "08a68ff69030aea54290851dae34cf22", "type": "electric_scooter", "is_disabled": 0, "lat": 38.892364, "rental_uris": {"ios": "https://dc.lft.to/lastmile_qr_scan", "android": "https://dc.lft.to/lastmile_qr_scan"}, "is_reserved": 0, "fusion_lon": 0.0, "fusion_lat": 0.0, "lon": -77.04671066666667, "name": "08a68ff69030aea54290851dae34cf22"}, {"bike_id": "c2d0477ddbba400459e37d809ecd9143", "type": "electric_scooter", "is_disabled": 0, "lat": 38.92346383333334, "rental_uris": {"ios": "https://dc.lft.to/lastmile_qr_scan", "android": "https://dc.lft.to/lastmile_qr_scan"}, "is_reserved": 0, "fusion_lon": 0.0, "fusion_lat": 0.0, "lon": -77.0511835, "name": "c2d0477ddbba400459e37d809ecd9143"}, {"bike_id": "bb748c56e0ee1d8a4c019dd1a3301270", "type": "electric_bike", "is_disabled": 0, "lat": 38.87295616666667, "rental_uris": {"ios": "https://dc.lft.to/lastmile_qr_scan", "android": "https://dc.lft.to/lastmile_qr_scan"}, "is_reserved": 0, "fusion_lon": 0.0, "fusion_lat": 0.0, "lon": -77.13932583333333, "name": "bb748c56e0ee1d8a4c019dd1a3301270"}, {"bike_id": "8a3c70e1ae086150c93fdc03ccc091ab", "type": "electric_scooter", "is_disabled": 0, "lat": 38.8847595, "rental_uris": {"ios": "https://dc.lft.to/lastmile_qr_scan", "android": "https://dc.lft.to/lastmile_qr_scan"}, "is_reserved": 0, "fusion_lon": 0.0, "fusion_lat": 0.0, "lon": -76.98213466666667, "name": "8a3c70e1ae086150c93fdc03ccc091ab"}, {"bike_id": "2d49d49717e5c1343680d830833412f3", "type": "electric_scooter", "is_disabled": 0, "lat": 38.920279666666666, "rental_uris": {"ios": "https://dc.lft.to/lastmile_qr_scan", "android": "https://dc.lft.to/lastmile_qr_scan"}, "is_reserved": 0, "fusion_lon": 0.0, "fusion_lat": 0.0, "lon": -77.01313866666666, "name": "2d49d49717e5c1343680d830833412f3"}, {"bike_id": "964d09ef69a43bfe101d3964eb736b05", "type": "electric_scooter", "is_disabled": 0, "lat": 38.9184825, "rental_uris": {"ios": "https://dc.lft.to/lastmile_qr_scan", "android": "https://dc.lft.to/lastmile_qr_scan"}, "is_reserved": 0, "fusion_lon": 0.0, "fusion_lat": 0.0, "lon": -76.96556466666667, "name": "964d09ef69a43bfe101d3964eb736b05"}, {"bike_id": "3d83d18b8e7e980faae6ed60e0fb5741", "type": "electric_scooter", "is_disabled": 0, "lat": 38.920646166666664, "rental_uris": {"ios": "https://dc.lft.to/lastmile_qr_scan", "android": "https://dc.lft.to/lastmile_qr_scan"}, "is_reserved": 0, "fusion_lon": 0.0, "fusion_lat": 0.0, "lon": -77.02709866666666, "name": "3d83d18b8e7e980faae6ed60e0fb5741"}, {"bike_id": "8673e484b89e31def96457d0cc7b500c", "type": "electric_scooter", "is_disabled": 0, "lat": 38.933251, "rental_uris": {"ios": "https://dc.lft.to/lastmile_qr_scan", "android": "https://dc.lft.to/lastmile_qr_scan"}, "is_reserved": 0, "fusion_lon": 0.0, "fusion_lat": 0.0, "lon": -77.02389933333333, "name": "8673e484b89e31def96457d0cc7b500c"}, {"bike_id": "5f4dfc1f37fa60b7b0b40bc1b0bc95fe", "type": "electric_scooter", "is_disabled": 0, "lat": 38.92075466666667, "rental_uris": {"ios": "https://dc.lft.to/lastmile_qr_scan", "android": "https://dc.lft.to/lastmile_qr_scan"}, "is_reserved": 0, "fusion_lon": 0.0, "fusion_lat": 0.0, "lon": -77.028396, "name": "5f4dfc1f37fa60b7b0b40bc1b0bc95fe"}, {"bike_id": "dec16254879b8e8dd928eb2586c62389", "type": "electric_scooter", "is_disabled": 0, "lat": 38.90581983333333, "rental_uris": {"ios": "https://dc.lft.to/lastmile_qr_scan", "android": "https://dc.lft.to/lastmile_qr_scan"}, "is_reserved": 0, "fusion_lon": 0.0, "fusion_lat": 0.0, "lon": -76.98429983333334, "name": "dec16254879b8e8dd928eb2586c62389"}, {"bike_id": "1da0bb6aaccce91966a00458848c9f71", "type": "electric_scooter", "is_disabled": 0, "lat": 38.92782583333333, "rental_uris": {"ios": "https://dc.lft.to/lastmile_qr_scan", "android": "https://dc.lft.to/lastmile_qr_scan"}, "is_reserved": 0, "fusion_lon": 0.0, "fusion_lat": 0.0, "lon": -77.0271095, "name": "1da0bb6aaccce91966a00458848c9f71"}, {"bike_id": "557019b6be38b507c55760669e501ff6", "type": "electric_scooter", "is_disabled": 0, "lat": 38.916362, "rental_uris": {"ios": "https://dc.lft.to/lastmile_qr_scan", "android": "https://dc.lft.to/lastmile_qr_scan"}, "is_reserved": 0, "fusion_lon": 0.0, "fusion_lat": 0.0, "lon": -77.04010533333333, "name": "557019b6be38b507c55760669e501ff6"}, {"bike_id": "00f9b860d974e73db37f2d4cae963c05", "type": "electric_scooter", "is_disabled": 0, "lat": 38.919321833333335, "rental_uris": {"ios": "https://dc.lft.to/lastmile_qr_scan", "android": "https://dc.lft.to/lastmile_qr_scan"}, "is_reserved": 0, "fusion_lon": 0.0, "fusion_lat": 0.0, "lon": -77.0249545, "name": "00f9b860d974e73db37f2d4cae963c05"}, {"bike_id": "813d1e42fd818e1e34d56d77b8e1e655", "type": "electric_scooter", "is_disabled": 0, "lat": 38.90111866666667, "rental_uris": {"ios": "https://dc.lft.to/lastmile_qr_scan", "android": "https://dc.lft.to/lastmile_qr_scan"}, "is_reserved": 0, "fusion_lon": 0.0, "fusion_lat": 0.0, "lon": -77.05021116666667, "name": "813d1e42fd818e1e34d56d77b8e1e655"}, {"bike_id": "88c6e931663ae5a74f3e6ad2f8f57966", "type": "electric_scooter", "is_disabled": 0, "lat": 38.907870833333334, "rental_uris": {"ios": "https://dc.lft.to/lastmile_qr_scan", "android": "https://dc.lft.to/lastmile_qr_scan"}, "is_reserved": 0, "fusion_lon": 0.0, "fusion_lat": 0.0, "lon": -77.063756, "name": "88c6e931663ae5a74f3e6ad2f8f57966"}, {"bike_id": "6726cb82274a38fe842f68cbd0df09ed", "type": "electric_scooter", "is_disabled": 0, "lat": 38.91716, "rental_uris": {"ios": "https://dc.lft.to/lastmile_qr_scan", "android": "https://dc.lft.to/lastmile_qr_scan"}, "is_reserved": 0, "fusion_lon": 0.0, "fusion_lat": 0.0, "lon": -77.02866616666667, "name": "6726cb82274a38fe842f68cbd0df09ed"}, {"bike_id": "79ffc24be296d520d6d7bd8c79929641", "type": "electric_scooter", "is_disabled": 0, "lat": 38.93922933333333, "rental_uris": {"ios": "https://dc.lft.to/lastmile_qr_scan", "android": "https://dc.lft.to/lastmile_qr_scan"}, "is_reserved": 0, "fusion_lon": 0.0, "fusion_lat": 0.0, "lon": -77.0604945, "name": "79ffc24be296d520d6d7bd8c79929641"}, {"bike_id": "06900b21b994802f72f7045d7af00554", "type": "electric_scooter", "is_disabled": 0, "lat": 38.9402095, "rental_uris": {"ios": "https://dc.lft.to/lastmile_qr_scan", "android": "https://dc.lft.to/lastmile_qr_scan"}, "is_reserved": 0, "fusion_lon": 0.0, "fusion_lat": 0.0, "lon": -76.97609666666666, "name": "06900b21b994802f72f7045d7af00554"}, {"bike_id": "d1b6094761c0aa76e4933b9fdf03cadf", "type": "electric_scooter", "is_disabled": 0, "lat": 38.892444833333336, "rental_uris": {"ios": "https://dc.lft.to/lastmile_qr_scan", "android": "https://dc.lft.to/lastmile_qr_scan"}, "is_reserved": 0, "fusion_lon": 0.0, "fusion_lat": 0.0, "lon": -77.02609766666667, "name": "d1b6094761c0aa76e4933b9fdf03cadf"}, {"bike_id": "27b64738965afb3e8bce666912379e09", "type": "electric_scooter", "is_disabled": 0, "lat": 38.91840833333333, "rental_uris": {"ios": "https://dc.lft.to/lastmile_qr_scan", "android": "https://dc.lft.to/lastmile_qr_scan"}, "is_reserved": 0, "fusion_lon": 0.0, "fusion_lat": 0.0, "lon": -76.9655115, "name": "27b64738965afb3e8bce666912379e09"}, {"bike_id": "6b2a08ce0fb50acce29c28a12cd36318", "type": "electric_bike", "is_disabled": 0, "lat": 38.9788425, "rental_uris": {"ios": "https://dc.lft.to/lastmile_qr_scan", "android": "https://dc.lft.to/lastmile_qr_scan"}, "is_reserved": 0, "fusion_lon": 0.0, "fusion_lat": 0.0, "lon": -77.06028166666667, "name": "6b2a08ce0fb50acce29c28a12cd36318"}, {"bike_id": "c22bf4ffaf6bd5a5f01af6278e7f1856", "type": "electric_scooter", "is_disabled": 0, "lat": 38.894817833333335, "rental_uris": {"ios": "https://dc.lft.to/lastmile_qr_scan", "android": "https://dc.lft.to/lastmile_qr_scan"}, "is_reserved": 0, "fusion_lon": 0.0, "fusion_lat": 0.0, "lon": -76.94860333333334, "name": "c22bf4ffaf6bd5a5f01af6278e7f1856"}, {"bike_id": "17eb94da204dc698b3a0f8f071f980ff", "type": "electric_scooter", "is_disabled": 0, "lat": 38.87653183333333, "rental_uris": {"ios": "https://dc.lft.to/lastmile_qr_scan", "android": "https://dc.lft.to/lastmile_qr_scan"}, "is_reserved": 0, "fusion_lon": 0.0, "fusion_lat": 0.0, "lon": -77.00420466666667, "name": "17eb94da204dc698b3a0f8f071f980ff"}, {"bike_id": "507cd790a8978166d27332b0fe4cd683", "type": "electric_bike", "is_disabled": 0, "lat": 38.93345033333333, "rental_uris": {"ios": "https://dc.lft.to/lastmile_qr_scan", "android": "https://dc.lft.to/lastmile_qr_scan"}, "is_reserved": 0, "fusion_lon": 0.0, "fusion_lat": 0.0, "lon": -77.03962516666667, "name": "507cd790a8978166d27332b0fe4cd683"}, {"bike_id": "0c89af63df90d0453c899fcb0715d501", "type": "electric_scooter", "is_disabled": 0, "lat": 38.93149283333333, "rental_uris": {"ios": "https://dc.lft.to/lastmile_qr_scan", "android": "https://dc.lft.to/lastmile_qr_scan"}, "is_reserved": 0, "fusion_lon": 0.0, "fusion_lat": 0.0, "lon": -77.0335185, "name": "0c89af63df90d0453c899fcb0715d501"}, {"bike_id": "d7e876f56aeb4d368153244d9b3f1a37", "type": "electric_scooter", "is_disabled": 0, "lat": 38.92763933333333, "rental_uris": {"ios": "https://dc.lft.to/lastmile_qr_scan", "android": "https://dc.lft.to/lastmile_qr_scan"}, "is_reserved": 0, "fusion_lon": 0.0, "fusion_lat": 0.0, "lon": -76.9609065, "name": "d7e876f56aeb4d368153244d9b3f1a37"}, {"bike_id": "0f637c7ed9ab3c8c6eb56fd63eb5440a", "type": "electric_scooter", "is_disabled": 0, "lat": 38.96630016666667, "rental_uris": {"ios": "https://dc.lft.to/lastmile_qr_scan", "android": "https://dc.lft.to/lastmile_qr_scan"}, "is_reserved": 0, "fusion_lon": 0.0, "fusion_lat": 0.0, "lon": -77.0199565, "name": "0f637c7ed9ab3c8c6eb56fd63eb5440a"}, {"bike_id": "108140ce0970a3b1e7d7be67fbe13925", "type": "electric_scooter", "is_disabled": 0, "lat": 38.923139666666664, "rental_uris": {"ios": "https://dc.lft.to/lastmile_qr_scan", "android": "https://dc.lft.to/lastmile_qr_scan"}, "is_reserved": 0, "fusion_lon": 0.0, "fusion_lat": 0.0, "lon": -77.03807633333334, "name": "108140ce0970a3b1e7d7be67fbe13925"}, {"bike_id": "7ca12c8a8e5d6fb867dcf63dfbcc0938", "type": "electric_scooter", "is_disabled": 0, "lat": 38.867344333333335, "rental_uris": {"ios": "https://dc.lft.to/lastmile_qr_scan", "android": "https://dc.lft.to/lastmile_qr_scan"}, "is_reserved": 0, "fusion_lon": 0.0, "fusion_lat": 0.0, "lon": -76.978611, "name": "7ca12c8a8e5d6fb867dcf63dfbcc0938"}, {"bike_id": "5bef8f68194da6f052531e03785a5a07", "type": "electric_scooter", "is_disabled": 0, "lat": 38.836219166666666, "rental_uris": {"ios": "https://dc.lft.to/lastmile_qr_scan", "android": "https://dc.lft.to/lastmile_qr_scan"}, "is_reserved": 0, "fusion_lon": 0.0, "fusion_lat": 0.0, "lon": -77.051146, "name": "5bef8f68194da6f052531e03785a5a07"}, {"bike_id": "b85926c5ba3348192f90fb883ec214dc", "type": "electric_scooter", "is_disabled": 0, "lat": 38.92607483333333, "rental_uris": {"ios": "https://dc.lft.to/lastmile_qr_scan", "android": "https://dc.lft.to/lastmile_qr_scan"}, "is_reserved": 0, "fusion_lon": 0.0, "fusion_lat": 0.0, "lon": -77.02390116666666, "name": "b85926c5ba3348192f90fb883ec214dc"}, {"bike_id": "30ad35c0fb0a93c697f384ac2f77d3e8", "type": "electric_scooter", "is_disabled": 0, "lat": 38.90941466666666, "rental_uris": {"ios": "https://dc.lft.to/lastmile_qr_scan", "android": "https://dc.lft.to/lastmile_qr_scan"}, "is_reserved": 0, "fusion_lon": 0.0, "fusion_lat": 0.0, "lon": -77.05563383333333, "name": "30ad35c0fb0a93c697f384ac2f77d3e8"}, {"bike_id": "0dd2fd02405e848ead6967b834d22234", "type": "electric_scooter", "is_disabled": 0, "lat": 38.90102783333333, "rental_uris": {"ios": "https://dc.lft.to/lastmile_qr_scan", "android": "https://dc.lft.to/lastmile_qr_scan"}, "is_reserved": 0, "fusion_lon": 0.0, "fusion_lat": 0.0, "lon": -77.02521466666667, "name": "0dd2fd02405e848ead6967b834d22234"}, {"bike_id": "6f6982866630493449dd5c1941b479d9", "type": "electric_scooter", "is_disabled": 0, "lat": 38.91420466666667, "rental_uris": {"ios": "https://dc.lft.to/lastmile_qr_scan", "android": "https://dc.lft.to/lastmile_qr_scan"}, "is_reserved": 0, "fusion_lon": 0.0, "fusion_lat": 0.0, "lon": -77.0210045, "name": "6f6982866630493449dd5c1941b479d9"}, {"bike_id": "ae63e915319b890e398c1611787b4098", "type": "electric_scooter", "is_disabled": 0, "lat": 38.914188, "rental_uris": {"ios": "https://dc.lft.to/lastmile_qr_scan", "android": "https://dc.lft.to/lastmile_qr_scan"}, "is_reserved": 0, "fusion_lon": 0.0, "fusion_lat": 0.0, "lon": -77.022131, "name": "ae63e915319b890e398c1611787b4098"}, {"bike_id": "57f14bec0af8dc13d5f995d3cb0c4865", "type": "electric_scooter", "is_disabled": 0, "lat": 38.9184355, "rental_uris": {"ios": "https://dc.lft.to/lastmile_qr_scan", "android": "https://dc.lft.to/lastmile_qr_scan"}, "is_reserved": 0, "fusion_lon": 0.0, "fusion_lat": 0.0, "lon": -77.02508766666666, "name": "57f14bec0af8dc13d5f995d3cb0c4865"}, {"bike_id": "ee029d31344a5e812c4014af9a4ac11b", "type": "electric_scooter", "is_disabled": 0, "lat": 38.9083, "rental_uris": {"ios": "https://dc.lft.to/lastmile_qr_scan", "android": "https://dc.lft.to/lastmile_qr_scan"}, "is_reserved": 0, "fusion_lon": 0.0, "fusion_lat": 0.0, "lon": -77.02713083333333, "name": "ee029d31344a5e812c4014af9a4ac11b"}, {"bike_id": "47f10d7bda2624947315a589068eaab1", "type": "electric_scooter", "is_disabled": 0, "lat": 38.91638916666667, "rental_uris": {"ios": "https://dc.lft.to/lastmile_qr_scan", "android": "https://dc.lft.to/lastmile_qr_scan"}, "is_reserved": 0, "fusion_lon": 0.0, "fusion_lat": 0.0, "lon": -77.00044483333333, "name": "47f10d7bda2624947315a589068eaab1"}, {"bike_id": "0125e39c16425fdcd483c4e666cde9b5", "type": "electric_scooter", "is_disabled": 0, "lat": 38.88124466666667, "rental_uris": {"ios": "https://dc.lft.to/lastmile_qr_scan", "android": "https://dc.lft.to/lastmile_qr_scan"}, "is_reserved": 0, "fusion_lon": 0.0, "fusion_lat": 0.0, "lon": -76.99516533333333, "name": "0125e39c16425fdcd483c4e666cde9b5"}, {"bike_id": "830e90d84aab5ccc5e78c936399d8de2", "type": "electric_scooter", "is_disabled": 0, "lat": 38.918641666666666, "rental_uris": {"ios": "https://dc.lft.to/lastmile_qr_scan", "android": "https://dc.lft.to/lastmile_qr_scan"}, "is_reserved": 0, "fusion_lon": 0.0, "fusion_lat": 0.0, "lon": -77.03660633333334, "name": "830e90d84aab5ccc5e78c936399d8de2"}, {"bike_id": "75171f6bb933c6bc1c86bff9bd15ae3e", "type": "electric_scooter", "is_disabled": 0, "lat": 38.911381166666665, "rental_uris": {"ios": "https://dc.lft.to/lastmile_qr_scan", "android": "https://dc.lft.to/lastmile_qr_scan"}, "is_reserved": 0, "fusion_lon": 0.0, "fusion_lat": 0.0, "lon": -77.02813166666667, "name": "75171f6bb933c6bc1c86bff9bd15ae3e"}, {"bike_id": "d6112d13950c16df934c6a081e3c4249", "type": "electric_scooter", "is_disabled": 0, "lat": 38.86210116666667, "rental_uris": {"ios": "https://dc.lft.to/lastmile_qr_scan", "android": "https://dc.lft.to/lastmile_qr_scan"}, "is_reserved": 0, "fusion_lon": 0.0, "fusion_lat": 0.0, "lon": -76.9947005, "name": "d6112d13950c16df934c6a081e3c4249"}, {"bike_id": "8198f22532b2b39a4475b54b22aedbf0", "type": "electric_scooter", "is_disabled": 0, "lat": 38.919036166666665, "rental_uris": {"ios": "https://dc.lft.to/lastmile_qr_scan", "android": "https://dc.lft.to/lastmile_qr_scan"}, "is_reserved": 0, "fusion_lon": 0.0, "fusion_lat": 0.0, "lon": -77.031861, "name": "8198f22532b2b39a4475b54b22aedbf0"}, {"bike_id": "d9921fe8c2e7f66643568149011e2616", "type": "electric_scooter", "is_disabled": 0, "lat": 38.905892333333334, "rental_uris": {"ios": "https://dc.lft.to/lastmile_qr_scan", "android": "https://dc.lft.to/lastmile_qr_scan"}, "is_reserved": 0, "fusion_lon": 0.0, "fusion_lat": 0.0, "lon": -77.041873, "name": "d9921fe8c2e7f66643568149011e2616"}, {"bike_id": "c0cda9381dc2d33366b051bdbca320e4", "type": "electric_scooter", "is_disabled": 0, "lat": 38.9096585, "rental_uris": {"ios": "https://dc.lft.to/lastmile_qr_scan", "android": "https://dc.lft.to/lastmile_qr_scan"}, "is_reserved": 0, "fusion_lon": 0.0, "fusion_lat": 0.0, "lon": -77.032407, "name": "c0cda9381dc2d33366b051bdbca320e4"}, {"bike_id": "f8aec65c31c4952779d147dbe521631a", "type": "electric_scooter", "is_disabled": 0, "lat": 38.91313683333333, "rental_uris": {"ios": "https://dc.lft.to/lastmile_qr_scan", "android": "https://dc.lft.to/lastmile_qr_scan"}, "is_reserved": 0, "fusion_lon": 0.0, "fusion_lat": 0.0, "lon": -76.98653783333333, "name": "f8aec65c31c4952779d147dbe521631a"}, {"bike_id": "d6517db6bd8de8d35491f0c7b8e95f36", "type": "electric_scooter", "is_disabled": 0, "lat": 38.9042145, "rental_uris": {"ios": "https://dc.lft.to/lastmile_qr_scan", "android": "https://dc.lft.to/lastmile_qr_scan"}, "is_reserved": 0, "fusion_lon": 0.0, "fusion_lat": 0.0, "lon": -76.99069, "name": "d6517db6bd8de8d35491f0c7b8e95f36"}, {"bike_id": "9efd72ead65cb3f55403c5bc73969f66", "type": "electric_scooter", "is_disabled": 0, "lat": 38.8903355, "rental_uris": {"ios": "https://dc.lft.to/lastmile_qr_scan", "android": "https://dc.lft.to/lastmile_qr_scan"}, "is_reserved": 0, "fusion_lon": 0.0, "fusion_lat": 0.0, "lon": -76.9375575, "name": "9efd72ead65cb3f55403c5bc73969f66"}, {"bike_id": "0dc10404d7191c2cca866df607e69f3b", "type": "electric_scooter", "is_disabled": 0, "lat": 38.89801333333333, "rental_uris": {"ios": "https://dc.lft.to/lastmile_qr_scan", "android": "https://dc.lft.to/lastmile_qr_scan"}, "is_reserved": 0, "fusion_lon": 0.0, "fusion_lat": 0.0, "lon": -77.02474383333333, "name": "0dc10404d7191c2cca866df607e69f3b"}, {"bike_id": "b99f0636c27e52f9b86c5b224ec0d3b1", "type": "electric_scooter", "is_disabled": 0, "lat": 38.9211025, "rental_uris": {"ios": "https://dc.lft.to/lastmile_qr_scan", "android": "https://dc.lft.to/lastmile_qr_scan"}, "is_reserved": 0, "fusion_lon": 0.0, "fusion_lat": 0.0, "lon": -77.036456, "name": "b99f0636c27e52f9b86c5b224ec0d3b1"}, {"bike_id": "2527b4eab5212e1f0771bcb5b2a32433", "type": "electric_scooter", "is_disabled": 0, "lat": 38.9039765, "rental_uris": {"ios": "https://dc.lft.to/lastmile_qr_scan", "android": "https://dc.lft.to/lastmile_qr_scan"}, "is_reserved": 0, "fusion_lon": 0.0, "fusion_lat": 0.0, "lon": -77.06774516666667, "name": "2527b4eab5212e1f0771bcb5b2a32433"}, {"bike_id": "459c2dee363f097f7ec3c6c6f83cf208", "type": "electric_scooter", "is_disabled": 0, "lat": 38.956545166666665, "rental_uris": {"ios": "https://dc.lft.to/lastmile_qr_scan", "android": "https://dc.lft.to/lastmile_qr_scan"}, "is_reserved": 0, "fusion_lon": 0.0, "fusion_lat": 0.0, "lon": -77.01963216666667, "name": "459c2dee363f097f7ec3c6c6f83cf208"}, {"bike_id": "dc7102b885f5039ebf3feff4836ab71b", "type": "electric_scooter", "is_disabled": 0, "lat": 38.9089745, "rental_uris": {"ios": "https://dc.lft.to/lastmile_qr_scan", "android": "https://dc.lft.to/lastmile_qr_scan"}, "is_reserved": 0, "fusion_lon": 0.0, "fusion_lat": 0.0, "lon": -77.04346933333333, "name": "dc7102b885f5039ebf3feff4836ab71b"}, {"bike_id": "44ac9b8426e449d242798d731341ba52", "type": "electric_scooter", "is_disabled": 0, "lat": 38.927671833333335, "rental_uris": {"ios": "https://dc.lft.to/lastmile_qr_scan", "android": "https://dc.lft.to/lastmile_qr_scan"}, "is_reserved": 0, "fusion_lon": 0.0, "fusion_lat": 0.0, "lon": -77.05643433333333, "name": "44ac9b8426e449d242798d731341ba52"}, {"bike_id": "345c98cec8106190453dfbdc996db3ae", "type": "electric_scooter", "is_disabled": 0, "lat": 38.936547, "rental_uris": {"ios": "https://dc.lft.to/lastmile_qr_scan", "android": "https://dc.lft.to/lastmile_qr_scan"}, "is_reserved": 0, "fusion_lon": 0.0, "fusion_lat": 0.0, "lon": -77.02639133333334, "name": "345c98cec8106190453dfbdc996db3ae"}, {"bike_id": "049873c6c37ce263a4aa3109bd7edf37", "type": "electric_scooter", "is_disabled": 0, "lat": 38.88739783333333, "rental_uris": {"ios": "https://dc.lft.to/lastmile_qr_scan", "android": "https://dc.lft.to/lastmile_qr_scan"}, "is_reserved": 0, "fusion_lon": 0.0, "fusion_lat": 0.0, "lon": -77.01531933333334, "name": "049873c6c37ce263a4aa3109bd7edf37"}, {"bike_id": "43d6f342ae3857dbc71ba9671d056673", "type": "electric_scooter", "is_disabled": 0, "lat": 38.909788666666664, "rental_uris": {"ios": "https://dc.lft.to/lastmile_qr_scan", "android": "https://dc.lft.to/lastmile_qr_scan"}, "is_reserved": 0, "fusion_lon": 0.0, "fusion_lat": 0.0, "lon": -77.028113, "name": "43d6f342ae3857dbc71ba9671d056673"}, {"bike_id": "4d3f26c49169a4b5e9e0b7ff3390f34e", "type": "electric_bike", "is_disabled": 0, "lat": 38.83849683333333, "rental_uris": {"ios": "https://dc.lft.to/lastmile_qr_scan", "android": "https://dc.lft.to/lastmile_qr_scan"}, "is_reserved": 0, "fusion_lon": 0.0, "fusion_lat": 0.0, "lon": -77.05021816666667, "name": "4d3f26c49169a4b5e9e0b7ff3390f34e"}, {"bike_id": "ffda4053ae07bba3065d3a5cf6ad7c46", "type": "electric_scooter", "is_disabled": 0, "lat": 38.92841516666667, "rental_uris": {"ios": "https://dc.lft.to/lastmile_qr_scan", "android": "https://dc.lft.to/lastmile_qr_scan"}, "is_reserved": 0, "fusion_lon": 0.0, "fusion_lat": 0.0, "lon": -77.055078, "name": "ffda4053ae07bba3065d3a5cf6ad7c46"}, {"bike_id": "a02f7cf998a8e4f7ce8439a47c077397", "type": "electric_scooter", "is_disabled": 0, "lat": 38.884336, "rental_uris": {"ios": "https://dc.lft.to/lastmile_qr_scan", "android": "https://dc.lft.to/lastmile_qr_scan"}, "is_reserved": 0, "fusion_lon": 0.0, "fusion_lat": 0.0, "lon": -76.957499, "name": "a02f7cf998a8e4f7ce8439a47c077397"}, {"bike_id": "47c2206c4caa94593448c583f69839b5", "type": "electric_scooter", "is_disabled": 0, "lat": 38.911040666666665, "rental_uris": {"ios": "https://dc.lft.to/lastmile_qr_scan", "android": "https://dc.lft.to/lastmile_qr_scan"}, "is_reserved": 0, "fusion_lon": 0.0, "fusion_lat": 0.0, "lon": -77.00216516666667, "name": "47c2206c4caa94593448c583f69839b5"}, {"bike_id": "4fa9ab8c4e2685f1a517432d19c0c4a2", "type": "electric_scooter", "is_disabled": 0, "lat": 38.874757, "rental_uris": {"ios": "https://dc.lft.to/lastmile_qr_scan", "android": "https://dc.lft.to/lastmile_qr_scan"}, "is_reserved": 0, "fusion_lon": 0.0, "fusion_lat": 0.0, "lon": -77.01066016666667, "name": "4fa9ab8c4e2685f1a517432d19c0c4a2"}, {"bike_id": "c64d89952b21f67a260d41eb57c394bc", "type": "electric_scooter", "is_disabled": 0, "lat": 38.91424883333333, "rental_uris": {"ios": "https://dc.lft.to/lastmile_qr_scan", "android": "https://dc.lft.to/lastmile_qr_scan"}, "is_reserved": 0, "fusion_lon": 0.0, "fusion_lat": 0.0, "lon": -77.02203133333333, "name": "c64d89952b21f67a260d41eb57c394bc"}, {"bike_id": "829e8fcada9d13eceb73b6c451c38579", "type": "electric_scooter", "is_disabled": 0, "lat": 38.91820766666667, "rental_uris": {"ios": "https://dc.lft.to/lastmile_qr_scan", "android": "https://dc.lft.to/lastmile_qr_scan"}, "is_reserved": 0, "fusion_lon": 0.0, "fusion_lat": 0.0, "lon": -77.0316565, "name": "829e8fcada9d13eceb73b6c451c38579"}, {"bike_id": "80413c65dad530af23851274b8dfe905", "type": "electric_scooter", "is_disabled": 0, "lat": 38.90248533333333, "rental_uris": {"ios": "https://dc.lft.to/lastmile_qr_scan", "android": "https://dc.lft.to/lastmile_qr_scan"}, "is_reserved": 0, "fusion_lon": 0.0, "fusion_lat": 0.0, "lon": -77.01781983333333, "name": "80413c65dad530af23851274b8dfe905"}, {"bike_id": "d7c5a591e6b0352e708e979531ce1593", "type": "electric_scooter", "is_disabled": 0, "lat": 38.92862183333333, "rental_uris": {"ios": "https://dc.lft.to/lastmile_qr_scan", "android": "https://dc.lft.to/lastmile_qr_scan"}, "is_reserved": 0, "fusion_lon": 0.0, "fusion_lat": 0.0, "lon": -77.0230485, "name": "d7c5a591e6b0352e708e979531ce1593"}, {"bike_id": "748e1bdf1f080af4dd789f1764ebb534", "type": "electric_scooter", "is_disabled": 0, "lat": 38.937606, "rental_uris": {"ios": "https://dc.lft.to/lastmile_qr_scan", "android": "https://dc.lft.to/lastmile_qr_scan"}, "is_reserved": 0, "fusion_lon": 0.0, "fusion_lat": 0.0, "lon": -77.024759, "name": "748e1bdf1f080af4dd789f1764ebb534"}, {"bike_id": "829ae5f6279703f76a5cf363c01a2c56", "type": "electric_scooter", "is_disabled": 0, "lat": 38.91929783333333, "rental_uris": {"ios": "https://dc.lft.to/lastmile_qr_scan", "android": "https://dc.lft.to/lastmile_qr_scan"}, "is_reserved": 0, "fusion_lon": 0.0, "fusion_lat": 0.0, "lon": -77.00233366666667, "name": "829ae5f6279703f76a5cf363c01a2c56"}, {"bike_id": "a0a8bc451c282e5893e88c5a29b26c74", "type": "electric_scooter", "is_disabled": 0, "lat": 38.903858, "rental_uris": {"ios": "https://dc.lft.to/lastmile_qr_scan", "android": "https://dc.lft.to/lastmile_qr_scan"}, "is_reserved": 0, "fusion_lon": 0.0, "fusion_lat": 0.0, "lon": -76.98205033333333, "name": "a0a8bc451c282e5893e88c5a29b26c74"}, {"bike_id": "1b052fddb0be26f803f37063a4f56e6c", "type": "electric_scooter", "is_disabled": 0, "lat": 38.902441333333336, "rental_uris": {"ios": "https://dc.lft.to/lastmile_qr_scan", "android": "https://dc.lft.to/lastmile_qr_scan"}, "is_reserved": 0, "fusion_lon": 0.0, "fusion_lat": 0.0, "lon": -77.01779666666667, "name": "1b052fddb0be26f803f37063a4f56e6c"}, {"bike_id": "5a535cabb411ca6c02e633b2281fad34", "type": "electric_scooter", "is_disabled": 0, "lat": 38.932346, "rental_uris": {"ios": "https://dc.lft.to/lastmile_qr_scan", "android": "https://dc.lft.to/lastmile_qr_scan"}, "is_reserved": 0, "fusion_lon": 0.0, "fusion_lat": 0.0, "lon": -77.03878466666667, "name": "5a535cabb411ca6c02e633b2281fad34"}, {"bike_id": "84c6e09dbe3cbb99ff70ca5ce1de63f3", "type": "electric_scooter", "is_disabled": 0, "lat": 38.91940683333333, "rental_uris": {"ios": "https://dc.lft.to/lastmile_qr_scan", "android": "https://dc.lft.to/lastmile_qr_scan"}, "is_reserved": 0, "fusion_lon": 0.0, "fusion_lat": 0.0, "lon": -77.04172483333333, "name": "84c6e09dbe3cbb99ff70ca5ce1de63f3"}, {"bike_id": "c3f68a20dd8bb72b1e23a6e9bb8512e0", "type": "electric_scooter", "is_disabled": 0, "lat": 38.900619, "rental_uris": {"ios": "https://dc.lft.to/lastmile_qr_scan", "android": "https://dc.lft.to/lastmile_qr_scan"}, "is_reserved": 0, "fusion_lon": 0.0, "fusion_lat": 0.0, "lon": -76.93474316666666, "name": "c3f68a20dd8bb72b1e23a6e9bb8512e0"}, {"bike_id": "1cdd32c2a383750f46499c69d16d907c", "type": "electric_scooter", "is_disabled": 0, "lat": 38.904171166666664, "rental_uris": {"ios": "https://dc.lft.to/lastmile_qr_scan", "android": "https://dc.lft.to/lastmile_qr_scan"}, "is_reserved": 0, "fusion_lon": 0.0, "fusion_lat": 0.0, "lon": -77.04862983333334, "name": "1cdd32c2a383750f46499c69d16d907c"}, {"bike_id": "bd36afe9e9a5565279dab49ab03954fd", "type": "electric_scooter", "is_disabled": 0, "lat": 38.902165, "rental_uris": {"ios": "https://dc.lft.to/lastmile_qr_scan", "android": "https://dc.lft.to/lastmile_qr_scan"}, "is_reserved": 0, "fusion_lon": 0.0, "fusion_lat": 0.0, "lon": -77.02317516666666, "name": "bd36afe9e9a5565279dab49ab03954fd"}, {"bike_id": "7b7d93755968e81eb51ccd2bba75675e", "type": "electric_bike", "is_disabled": 0, "lat": 39.05783516666666, "rental_uris": {"ios": "https://dc.lft.to/lastmile_qr_scan", "android": "https://dc.lft.to/lastmile_qr_scan"}, "is_reserved": 0, "fusion_lon": 0.0, "fusion_lat": 0.0, "lon": -77.15020233333334, "name": "7b7d93755968e81eb51ccd2bba75675e"}, {"bike_id": "7989b5be1ade2609e7a85c2b8b02b459", "type": "electric_scooter", "is_disabled": 0, "lat": 38.918169166666665, "rental_uris": {"ios": "https://dc.lft.to/lastmile_qr_scan", "android": "https://dc.lft.to/lastmile_qr_scan"}, "is_reserved": 0, "fusion_lon": 0.0, "fusion_lat": 0.0, "lon": -77.0248115, "name": "7989b5be1ade2609e7a85c2b8b02b459"}, {"bike_id": "0e2c307a5f044bc09f70b452da71f1a1", "type": "electric_bike", "is_disabled": 0, "lat": 38.88716933333333, "rental_uris": {"ios": "https://dc.lft.to/lastmile_qr_scan", "android": "https://dc.lft.to/lastmile_qr_scan"}, "is_reserved": 0, "fusion_lon": 0.0, "fusion_lat": 0.0, "lon": -76.9961345, "name": "0e2c307a5f044bc09f70b452da71f1a1"}, {"bike_id": "ad90ef758f2f8da14e88226d0ad31077", "type": "electric_scooter", "is_disabled": 0, "lat": 38.91634916666667, "rental_uris": {"ios": "https://dc.lft.to/lastmile_qr_scan", "android": "https://dc.lft.to/lastmile_qr_scan"}, "is_reserved": 0, "fusion_lon": 0.0, "fusion_lat": 0.0, "lon": -77.02413416666667, "name": "ad90ef758f2f8da14e88226d0ad31077"}, {"bike_id": "c49ffb613060ff08b508e927dcb069e5", "type": "electric_scooter", "is_disabled": 0, "lat": 38.907903833333336, "rental_uris": {"ios": "https://dc.lft.to/lastmile_qr_scan", "android": "https://dc.lft.to/lastmile_qr_scan"}, "is_reserved": 0, "fusion_lon": 0.0, "fusion_lat": 0.0, "lon": -77.01858066666667, "name": "c49ffb613060ff08b508e927dcb069e5"}, {"bike_id": "5e542a7f255d752049dea1efc0013395", "type": "electric_scooter", "is_disabled": 0, "lat": 38.8924355, "rental_uris": {"ios": "https://dc.lft.to/lastmile_qr_scan", "android": "https://dc.lft.to/lastmile_qr_scan"}, "is_reserved": 0, "fusion_lon": 0.0, "fusion_lat": 0.0, "lon": -77.0334905, "name": "5e542a7f255d752049dea1efc0013395"}, {"bike_id": "15766ff9990e543d56c508af331158d7", "type": "electric_scooter", "is_disabled": 0, "lat": 38.85699533333333, "rental_uris": {"ios": "https://dc.lft.to/lastmile_qr_scan", "android": "https://dc.lft.to/lastmile_qr_scan"}, "is_reserved": 0, "fusion_lon": 0.0, "fusion_lat": 0.0, "lon": -76.98968933333333, "name": "15766ff9990e543d56c508af331158d7"}, {"bike_id": "bc4b30d61457ce54e67a2fd6e804d8d1", "type": "electric_scooter", "is_disabled": 0, "lat": 38.905364166666665, "rental_uris": {"ios": "https://dc.lft.to/lastmile_qr_scan", "android": "https://dc.lft.to/lastmile_qr_scan"}, "is_reserved": 0, "fusion_lon": 0.0, "fusion_lat": 0.0, "lon": -77.04996866666667, "name": "bc4b30d61457ce54e67a2fd6e804d8d1"}, {"bike_id": "ab11ccea601e66877b54521d3e3ae46b", "type": "electric_scooter", "is_disabled": 0, "lat": 38.90559616666667, "rental_uris": {"ios": "https://dc.lft.to/lastmile_qr_scan", "android": "https://dc.lft.to/lastmile_qr_scan"}, "is_reserved": 0, "fusion_lon": 0.0, "fusion_lat": 0.0, "lon": -77.00576533333333, "name": "ab11ccea601e66877b54521d3e3ae46b"}, {"bike_id": "448fd88d76ba3786d8852d140e714659", "type": "electric_scooter", "is_disabled": 0, "lat": 38.87120133333333, "rental_uris": {"ios": "https://dc.lft.to/lastmile_qr_scan", "android": "https://dc.lft.to/lastmile_qr_scan"}, "is_reserved": 0, "fusion_lon": 0.0, "fusion_lat": 0.0, "lon": -76.98238166666667, "name": "448fd88d76ba3786d8852d140e714659"}, {"bike_id": "cdfe4c21fa9d04d53459cb3645dd353a", "type": "electric_bike", "is_disabled": 0, "lat": 38.819835166666664, "rental_uris": {"ios": "https://dc.lft.to/lastmile_qr_scan", "android": "https://dc.lft.to/lastmile_qr_scan"}, "is_reserved": 0, "fusion_lon": 0.0, "fusion_lat": 0.0, "lon": -76.99816666666666, "name": "cdfe4c21fa9d04d53459cb3645dd353a"}, {"bike_id": "33cc7b7e25d4139a7a94f36ba1c5eff9", "type": "electric_scooter", "is_disabled": 0, "lat": 38.852028833333335, "rental_uris": {"ios": "https://dc.lft.to/lastmile_qr_scan", "android": "https://dc.lft.to/lastmile_qr_scan"}, "is_reserved": 0, "fusion_lon": 0.0, "fusion_lat": 0.0, "lon": -76.98555983333333, "name": "33cc7b7e25d4139a7a94f36ba1c5eff9"}, {"bike_id": "03afb6969fd7b5986d02d1a6b4793ca8", "type": "electric_scooter", "is_disabled": 0, "lat": 38.914416833333334, "rental_uris": {"ios": "https://dc.lft.to/lastmile_qr_scan", "android": "https://dc.lft.to/lastmile_qr_scan"}, "is_reserved": 0, "fusion_lon": 0.0, "fusion_lat": 0.0, "lon": -77.02591316666667, "name": "03afb6969fd7b5986d02d1a6b4793ca8"}, {"bike_id": "9df67554878627b4833907457676f9e6", "type": "electric_scooter", "is_disabled": 0, "lat": 38.938056333333336, "rental_uris": {"ios": "https://dc.lft.to/lastmile_qr_scan", "android": "https://dc.lft.to/lastmile_qr_scan"}, "is_reserved": 0, "fusion_lon": 0.0, "fusion_lat": 0.0, "lon": -77.02455933333333, "name": "9df67554878627b4833907457676f9e6"}, {"bike_id": "ec812257f5ce586e0efcaf99040ea93b", "type": "electric_scooter", "is_disabled": 0, "lat": 38.92541816666667, "rental_uris": {"ios": "https://dc.lft.to/lastmile_qr_scan", "android": "https://dc.lft.to/lastmile_qr_scan"}, "is_reserved": 0, "fusion_lon": 0.0, "fusion_lat": 0.0, "lon": -77.03825533333334, "name": "ec812257f5ce586e0efcaf99040ea93b"}, {"bike_id": "269f607c0e463eccff945de02883b4e9", "type": "electric_scooter", "is_disabled": 0, "lat": 38.925515, "rental_uris": {"ios": "https://dc.lft.to/lastmile_qr_scan", "android": "https://dc.lft.to/lastmile_qr_scan"}, "is_reserved": 0, "fusion_lon": 0.0, "fusion_lat": 0.0, "lon": -77.02283033333333, "name": "269f607c0e463eccff945de02883b4e9"}, {"bike_id": "7f654770d65c5104ab8ada3481d5a134", "type": "electric_scooter", "is_disabled": 0, "lat": 38.88425216666667, "rental_uris": {"ios": "https://dc.lft.to/lastmile_qr_scan", "android": "https://dc.lft.to/lastmile_qr_scan"}, "is_reserved": 0, "fusion_lon": 0.0, "fusion_lat": 0.0, "lon": -76.95756583333333, "name": "7f654770d65c5104ab8ada3481d5a134"}, {"bike_id": "ffb9204c668aec29bc7b508cb3db8eac", "type": "electric_scooter", "is_disabled": 0, "lat": 38.8970145, "rental_uris": {"ios": "https://dc.lft.to/lastmile_qr_scan", "android": "https://dc.lft.to/lastmile_qr_scan"}, "is_reserved": 0, "fusion_lon": 0.0, "fusion_lat": 0.0, "lon": -77.03359616666667, "name": "ffb9204c668aec29bc7b508cb3db8eac"}, {"bike_id": "03cc6d725f3c477b028d7cf267d859b3", "type": "electric_scooter", "is_disabled": 0, "lat": 38.9183155, "rental_uris": {"ios": "https://dc.lft.to/lastmile_qr_scan", "android": "https://dc.lft.to/lastmile_qr_scan"}, "is_reserved": 0, "fusion_lon": 0.0, "fusion_lat": 0.0, "lon": -77.0451115, "name": "03cc6d725f3c477b028d7cf267d859b3"}, {"bike_id": "6059b14103a59cf7addb862af1788052", "type": "electric_scooter", "is_disabled": 0, "lat": 38.9170455, "rental_uris": {"ios": "https://dc.lft.to/lastmile_qr_scan", "android": "https://dc.lft.to/lastmile_qr_scan"}, "is_reserved": 0, "fusion_lon": 0.0, "fusion_lat": 0.0, "lon": -77.0237805, "name": "6059b14103a59cf7addb862af1788052"}, {"bike_id": "78b79593bc5724b104f462b5f8087ea5", "type": "electric_scooter", "is_disabled": 0, "lat": 38.90270016666667, "rental_uris": {"ios": "https://dc.lft.to/lastmile_qr_scan", "android": "https://dc.lft.to/lastmile_qr_scan"}, "is_reserved": 0, "fusion_lon": 0.0, "fusion_lat": 0.0, "lon": -77.003434, "name": "78b79593bc5724b104f462b5f8087ea5"}, {"bike_id": "74bb49f3db60606c4d03b0cfbc9121c0", "type": "electric_scooter", "is_disabled": 0, "lat": 38.918479833333336, "rental_uris": {"ios": "https://dc.lft.to/lastmile_qr_scan", "android": "https://dc.lft.to/lastmile_qr_scan"}, "is_reserved": 0, "fusion_lon": 0.0, "fusion_lat": 0.0, "lon": -77.02298216666667, "name": "74bb49f3db60606c4d03b0cfbc9121c0"}, {"bike_id": "c71a5ae61460a618dba4a4ce0a3b08c5", "type": "electric_scooter", "is_disabled": 0, "lat": 38.89006033333333, "rental_uris": {"ios": "https://dc.lft.to/lastmile_qr_scan", "android": "https://dc.lft.to/lastmile_qr_scan"}, "is_reserved": 0, "fusion_lon": 0.0, "fusion_lat": 0.0, "lon": -76.93746216666666, "name": "c71a5ae61460a618dba4a4ce0a3b08c5"}, {"bike_id": "dbdbcaa3b7619fc9b7b2061630413c4f", "type": "electric_scooter", "is_disabled": 0, "lat": 38.917928, "rental_uris": {"ios": "https://dc.lft.to/lastmile_qr_scan", "android": "https://dc.lft.to/lastmile_qr_scan"}, "is_reserved": 0, "fusion_lon": 0.0, "fusion_lat": 0.0, "lon": -77.022996, "name": "dbdbcaa3b7619fc9b7b2061630413c4f"}, {"bike_id": "b4cff4289e0d169fdf8efcd43cb6822c", "type": "electric_scooter", "is_disabled": 0, "lat": 38.89234616666667, "rental_uris": {"ios": "https://dc.lft.to/lastmile_qr_scan", "android": "https://dc.lft.to/lastmile_qr_scan"}, "is_reserved": 0, "fusion_lon": 0.0, "fusion_lat": 0.0, "lon": -77.0337335, "name": "b4cff4289e0d169fdf8efcd43cb6822c"}, {"bike_id": "c406824e913bebaacc93044ae9c710a1", "type": "electric_scooter", "is_disabled": 0, "lat": 38.897390333333334, "rental_uris": {"ios": "https://dc.lft.to/lastmile_qr_scan", "android": "https://dc.lft.to/lastmile_qr_scan"}, "is_reserved": 0, "fusion_lon": 0.0, "fusion_lat": 0.0, "lon": -76.94726033333333, "name": "c406824e913bebaacc93044ae9c710a1"}, {"bike_id": "7c0ebd674234828198d64fedfebdfbb3", "type": "electric_scooter", "is_disabled": 0, "lat": 38.90539883333334, "rental_uris": {"ios": "https://dc.lft.to/lastmile_qr_scan", "android": "https://dc.lft.to/lastmile_qr_scan"}, "is_reserved": 0, "fusion_lon": 0.0, "fusion_lat": 0.0, "lon": -77.05014316666667, "name": "7c0ebd674234828198d64fedfebdfbb3"}, {"bike_id": "32947c5501d4f383795b6778b736562e", "type": "electric_scooter", "is_disabled": 0, "lat": 38.91970033333333, "rental_uris": {"ios": "https://dc.lft.to/lastmile_qr_scan", "android": "https://dc.lft.to/lastmile_qr_scan"}, "is_reserved": 0, "fusion_lon": 0.0, "fusion_lat": 0.0, "lon": -77.03943816666667, "name": "32947c5501d4f383795b6778b736562e"}, {"bike_id": "35bffe3a499573266179527675ba0237", "type": "electric_scooter", "is_disabled": 0, "lat": 38.91563816666667, "rental_uris": {"ios": "https://dc.lft.to/lastmile_qr_scan", "android": "https://dc.lft.to/lastmile_qr_scan"}, "is_reserved": 0, "fusion_lon": 0.0, "fusion_lat": 0.0, "lon": -77.0255245, "name": "35bffe3a499573266179527675ba0237"}, {"bike_id": "4c41508bc9994db9c49634365706e315", "type": "electric_scooter", "is_disabled": 0, "lat": 38.903027, "rental_uris": {"ios": "https://dc.lft.to/lastmile_qr_scan", "android": "https://dc.lft.to/lastmile_qr_scan"}, "is_reserved": 0, "fusion_lon": 0.0, "fusion_lat": 0.0, "lon": -77.05054233333334, "name": "4c41508bc9994db9c49634365706e315"}, {"bike_id": "ddd43b0fbe392310122cb6c219c03a5d", "type": "electric_scooter", "is_disabled": 0, "lat": 38.928642833333335, "rental_uris": {"ios": "https://dc.lft.to/lastmile_qr_scan", "android": "https://dc.lft.to/lastmile_qr_scan"}, "is_reserved": 0, "fusion_lon": 0.0, "fusion_lat": 0.0, "lon": -77.03287016666667, "name": "ddd43b0fbe392310122cb6c219c03a5d"}, {"bike_id": "5ac23c647c0a9f1598277fe57c8ff7ce", "type": "electric_scooter", "is_disabled": 0, "lat": 38.892173166666666, "rental_uris": {"ios": "https://dc.lft.to/lastmile_qr_scan", "android": "https://dc.lft.to/lastmile_qr_scan"}, "is_reserved": 0, "fusion_lon": 0.0, "fusion_lat": 0.0, "lon": -77.03164166666667, "name": "5ac23c647c0a9f1598277fe57c8ff7ce"}, {"bike_id": "af688c7ec6f6a2ddf61fa3b38dd0b4de", "type": "electric_scooter", "is_disabled": 0, "lat": 38.92876183333333, "rental_uris": {"ios": "https://dc.lft.to/lastmile_qr_scan", "android": "https://dc.lft.to/lastmile_qr_scan"}, "is_reserved": 0, "fusion_lon": 0.0, "fusion_lat": 0.0, "lon": -77.0323765, "name": "af688c7ec6f6a2ddf61fa3b38dd0b4de"}, {"bike_id": "9a6ff0457e41413a417196ffa41677b0", "type": "electric_bike", "is_disabled": 0, "lat": 38.8892905, "rental_uris": {"ios": "https://dc.lft.to/lastmile_qr_scan", "android": "https://dc.lft.to/lastmile_qr_scan"}, "is_reserved": 0, "fusion_lon": 0.0, "fusion_lat": 0.0, "lon": -76.99173566666667, "name": "9a6ff0457e41413a417196ffa41677b0"}, {"bike_id": "847b4b6e7ed848490095a2b708934e3c", "type": "electric_scooter", "is_disabled": 0, "lat": 38.881860833333334, "rental_uris": {"ios": "https://dc.lft.to/lastmile_qr_scan", "android": "https://dc.lft.to/lastmile_qr_scan"}, "is_reserved": 0, "fusion_lon": 0.0, "fusion_lat": 0.0, "lon": -77.02811933333334, "name": "847b4b6e7ed848490095a2b708934e3c"}, {"bike_id": "055f782734d5e6964d6d5a1341c36c9e", "type": "electric_scooter", "is_disabled": 0, "lat": 38.90728883333333, "rental_uris": {"ios": "https://dc.lft.to/lastmile_qr_scan", "android": "https://dc.lft.to/lastmile_qr_scan"}, "is_reserved": 0, "fusion_lon": 0.0, "fusion_lat": 0.0, "lon": -77.03197516666667, "name": "055f782734d5e6964d6d5a1341c36c9e"}, {"bike_id": "2339177a74a97efc620aa5b59574049b", "type": "electric_scooter", "is_disabled": 0, "lat": 38.875728, "rental_uris": {"ios": "https://dc.lft.to/lastmile_qr_scan", "android": "https://dc.lft.to/lastmile_qr_scan"}, "is_reserved": 0, "fusion_lon": 0.0, "fusion_lat": 0.0, "lon": -77.012724, "name": "2339177a74a97efc620aa5b59574049b"}, {"bike_id": "23773556b9f19a08105eea6a2c1c5306", "type": "electric_bike", "is_disabled": 0, "lat": 39.03410516666667, "rental_uris": {"ios": "https://dc.lft.to/lastmile_qr_scan", "android": "https://dc.lft.to/lastmile_qr_scan"}, "is_reserved": 0, "fusion_lon": 0.0, "fusion_lat": 0.0, "lon": -77.0415665, "name": "23773556b9f19a08105eea6a2c1c5306"}, {"bike_id": "412a1d1a7149fe338e62dc4e35a43b09", "type": "electric_scooter", "is_disabled": 0, "lat": 38.915387833333334, "rental_uris": {"ios": "https://dc.lft.to/lastmile_qr_scan", "android": "https://dc.lft.to/lastmile_qr_scan"}, "is_reserved": 0, "fusion_lon": 0.0, "fusion_lat": 0.0, "lon": -77.03201533333333, "name": "412a1d1a7149fe338e62dc4e35a43b09"}, {"bike_id": "fcfcb2f2ed759b21eb5a4cf6df6dc39e", "type": "electric_scooter", "is_disabled": 0, "lat": 38.892233, "rental_uris": {"ios": "https://dc.lft.to/lastmile_qr_scan", "android": "https://dc.lft.to/lastmile_qr_scan"}, "is_reserved": 0, "fusion_lon": 0.0, "fusion_lat": 0.0, "lon": -77.045135, "name": "fcfcb2f2ed759b21eb5a4cf6df6dc39e"}, {"bike_id": "448c40ae8330b4b7906db1569f7fe14d", "type": "electric_scooter", "is_disabled": 0, "lat": 38.9237865, "rental_uris": {"ios": "https://dc.lft.to/lastmile_qr_scan", "android": "https://dc.lft.to/lastmile_qr_scan"}, "is_reserved": 0, "fusion_lon": 0.0, "fusion_lat": 0.0, "lon": -77.02824216666667, "name": "448c40ae8330b4b7906db1569f7fe14d"}, {"bike_id": "8df898de73f58a84b25a667c8f10d88d", "type": "electric_scooter", "is_disabled": 0, "lat": 38.91590466666667, "rental_uris": {"ios": "https://dc.lft.to/lastmile_qr_scan", "android": "https://dc.lft.to/lastmile_qr_scan"}, "is_reserved": 0, "fusion_lon": 0.0, "fusion_lat": 0.0, "lon": -77.00198183333333, "name": "8df898de73f58a84b25a667c8f10d88d"}, {"bike_id": "5390c53f8baab5aa7cc7703aaf1c79d8", "type": "electric_scooter", "is_disabled": 0, "lat": 38.91694366666667, "rental_uris": {"ios": "https://dc.lft.to/lastmile_qr_scan", "android": "https://dc.lft.to/lastmile_qr_scan"}, "is_reserved": 0, "fusion_lon": 0.0, "fusion_lat": 0.0, "lon": -77.0288365, "name": "5390c53f8baab5aa7cc7703aaf1c79d8"}, {"bike_id": "2ef9c8fe015b77022806fa7013a2fe77", "type": "electric_scooter", "is_disabled": 0, "lat": 38.899708833333335, "rental_uris": {"ios": "https://dc.lft.to/lastmile_qr_scan", "android": "https://dc.lft.to/lastmile_qr_scan"}, "is_reserved": 0, "fusion_lon": 0.0, "fusion_lat": 0.0, "lon": -76.98309083333334, "name": "2ef9c8fe015b77022806fa7013a2fe77"}, {"bike_id": "ea5e40732caeaee8065e1873d23078cc", "type": "electric_scooter", "is_disabled": 0, "lat": 38.904105, "rental_uris": {"ios": "https://dc.lft.to/lastmile_qr_scan", "android": "https://dc.lft.to/lastmile_qr_scan"}, "is_reserved": 0, "fusion_lon": 0.0, "fusion_lat": 0.0, "lon": -76.97328533333334, "name": "ea5e40732caeaee8065e1873d23078cc"}, {"bike_id": "1d94091f644b600c32b3b09a2c578c6b", "type": "electric_bike", "is_disabled": 0, "lat": 38.858942, "rental_uris": {"ios": "https://dc.lft.to/lastmile_qr_scan", "android": "https://dc.lft.to/lastmile_qr_scan"}, "is_reserved": 0, "fusion_lon": 0.0, "fusion_lat": 0.0, "lon": -77.11861416666666, "name": "1d94091f644b600c32b3b09a2c578c6b"}, {"bike_id": "ce0a83e059e6957f6ca67204aa110c41", "type": "electric_scooter", "is_disabled": 0, "lat": 38.9155655, "rental_uris": {"ios": "https://dc.lft.to/lastmile_qr_scan", "android": "https://dc.lft.to/lastmile_qr_scan"}, "is_reserved": 0, "fusion_lon": 0.0, "fusion_lat": 0.0, "lon": -77.03205566666666, "name": "ce0a83e059e6957f6ca67204aa110c41"}, {"bike_id": "f149fdb5c028f4140a90db7eb1881820", "type": "electric_scooter", "is_disabled": 0, "lat": 38.90472333333334, "rental_uris": {"ios": "https://dc.lft.to/lastmile_qr_scan", "android": "https://dc.lft.to/lastmile_qr_scan"}, "is_reserved": 0, "fusion_lon": 0.0, "fusion_lat": 0.0, "lon": -77.00918533333333, "name": "f149fdb5c028f4140a90db7eb1881820"}, {"bike_id": "20d0a2158dda1e84aa541652ac8b4d68", "type": "electric_scooter", "is_disabled": 0, "lat": 38.9456065, "rental_uris": {"ios": "https://dc.lft.to/lastmile_qr_scan", "android": "https://dc.lft.to/lastmile_qr_scan"}, "is_reserved": 0, "fusion_lon": 0.0, "fusion_lat": 0.0, "lon": -77.07124583333334, "name": "20d0a2158dda1e84aa541652ac8b4d68"}, {"bike_id": "1d2c3845d3d6b1082e2f183aa2fd61c1", "type": "electric_bike", "is_disabled": 0, "lat": 38.9170765, "rental_uris": {"ios": "https://dc.lft.to/lastmile_qr_scan", "android": "https://dc.lft.to/lastmile_qr_scan"}, "is_reserved": 0, "fusion_lon": 0.0, "fusion_lat": 0.0, "lon": -77.03540183333334, "name": "1d2c3845d3d6b1082e2f183aa2fd61c1"}, {"bike_id": "f7463cc8763d847037d76c5268314842", "type": "electric_scooter", "is_disabled": 0, "lat": 38.88450983333333, "rental_uris": {"ios": "https://dc.lft.to/lastmile_qr_scan", "android": "https://dc.lft.to/lastmile_qr_scan"}, "is_reserved": 0, "fusion_lon": 0.0, "fusion_lat": 0.0, "lon": -76.95095116666667, "name": "f7463cc8763d847037d76c5268314842"}, {"bike_id": "2026880f939f0373752bcdb5491f7cad", "type": "electric_bike", "is_disabled": 0, "lat": 38.957875666666666, "rental_uris": {"ios": "https://dc.lft.to/lastmile_qr_scan", "android": "https://dc.lft.to/lastmile_qr_scan"}, "is_reserved": 0, "fusion_lon": 0.0, "fusion_lat": 0.0, "lon": -77.02000266666667, "name": "2026880f939f0373752bcdb5491f7cad"}, {"bike_id": "88e643edf93b4e20a28046aba136c63f", "type": "electric_scooter", "is_disabled": 0, "lat": 38.95707766666666, "rental_uris": {"ios": "https://dc.lft.to/lastmile_qr_scan", "android": "https://dc.lft.to/lastmile_qr_scan"}, "is_reserved": 0, "fusion_lon": 0.0, "fusion_lat": 0.0, "lon": -77.077433, "name": "88e643edf93b4e20a28046aba136c63f"}, {"bike_id": "49b8c5780a6c2f38f1073185c17752a7", "type": "electric_bike", "is_disabled": 0, "lat": 39.05494383333333, "rental_uris": {"ios": "https://dc.lft.to/lastmile_qr_scan", "android": "https://dc.lft.to/lastmile_qr_scan"}, "is_reserved": 0, "fusion_lon": 0.0, "fusion_lat": 0.0, "lon": -77.1179075, "name": "49b8c5780a6c2f38f1073185c17752a7"}, {"bike_id": "ab06b59cf3eb20116db17b3830d0637d", "type": "electric_scooter", "is_disabled": 0, "lat": 38.90835033333333, "rental_uris": {"ios": "https://dc.lft.to/lastmile_qr_scan", "android": "https://dc.lft.to/lastmile_qr_scan"}, "is_reserved": 0, "fusion_lon": 0.0, "fusion_lat": 0.0, "lon": -77.02202516666667, "name": "ab06b59cf3eb20116db17b3830d0637d"}, {"bike_id": "d3eec31f4285e6d971421f0ae18a6fd4", "type": "electric_scooter", "is_disabled": 0, "lat": 38.92018616666667, "rental_uris": {"ios": "https://dc.lft.to/lastmile_qr_scan", "android": "https://dc.lft.to/lastmile_qr_scan"}, "is_reserved": 0, "fusion_lon": 0.0, "fusion_lat": 0.0, "lon": -77.04193183333334, "name": "d3eec31f4285e6d971421f0ae18a6fd4"}, {"bike_id": "dbf6cf53f183bbf2d53bed47c7dbc680", "type": "electric_scooter", "is_disabled": 0, "lat": 38.909626, "rental_uris": {"ios": "https://dc.lft.to/lastmile_qr_scan", "android": "https://dc.lft.to/lastmile_qr_scan"}, "is_reserved": 0, "fusion_lon": 0.0, "fusion_lat": 0.0, "lon": -77.03223383333334, "name": "dbf6cf53f183bbf2d53bed47c7dbc680"}, {"bike_id": "384408721211c323cd5dac0afc089908", "type": "electric_scooter", "is_disabled": 0, "lat": 38.893466833333335, "rental_uris": {"ios": "https://dc.lft.to/lastmile_qr_scan", "android": "https://dc.lft.to/lastmile_qr_scan"}, "is_reserved": 0, "fusion_lon": 0.0, "fusion_lat": 0.0, "lon": -76.9927075, "name": "384408721211c323cd5dac0afc089908"}, {"bike_id": "caad5d744f0aa2acb62be5faaa8bdbc3", "type": "electric_scooter", "is_disabled": 0, "lat": 38.868309333333336, "rental_uris": {"ios": "https://dc.lft.to/lastmile_qr_scan", "android": "https://dc.lft.to/lastmile_qr_scan"}, "is_reserved": 0, "fusion_lon": 0.0, "fusion_lat": 0.0, "lon": -77.01147866666666, "name": "caad5d744f0aa2acb62be5faaa8bdbc3"}, {"bike_id": "0e21f0a74b3cca5f3c5aa3c713aecc95", "type": "electric_bike", "is_disabled": 0, "lat": 38.908292333333335, "rental_uris": {"ios": "https://dc.lft.to/lastmile_qr_scan", "android": "https://dc.lft.to/lastmile_qr_scan"}, "is_reserved": 0, "fusion_lon": 0.0, "fusion_lat": 0.0, "lon": -76.94153833333333, "name": "0e21f0a74b3cca5f3c5aa3c713aecc95"}, {"bike_id": "40c57c951bab003a643168d0a5319376", "type": "electric_scooter", "is_disabled": 0, "lat": 38.8775145, "rental_uris": {"ios": "https://dc.lft.to/lastmile_qr_scan", "android": "https://dc.lft.to/lastmile_qr_scan"}, "is_reserved": 0, "fusion_lon": 0.0, "fusion_lat": 0.0, "lon": -76.997185, "name": "40c57c951bab003a643168d0a5319376"}, {"bike_id": "9ab910e0ec58615811b79dfd92dd8f04", "type": "electric_bike", "is_disabled": 0, "lat": 38.88131516666667, "rental_uris": {"ios": "https://dc.lft.to/lastmile_qr_scan", "android": "https://dc.lft.to/lastmile_qr_scan"}, "is_reserved": 0, "fusion_lon": 0.0, "fusion_lat": 0.0, "lon": -77.093509, "name": "9ab910e0ec58615811b79dfd92dd8f04"}, {"bike_id": "64da8dc109285ff9777e9cbcbac53721", "type": "electric_scooter", "is_disabled": 0, "lat": 38.916957333333336, "rental_uris": {"ios": "https://dc.lft.to/lastmile_qr_scan", "android": "https://dc.lft.to/lastmile_qr_scan"}, "is_reserved": 0, "fusion_lon": 0.0, "fusion_lat": 0.0, "lon": -77.02344316666667, "name": "64da8dc109285ff9777e9cbcbac53721"}, {"bike_id": "f15795341ea94dd0800fa1dfb67e4eac", "type": "electric_bike", "is_disabled": 0, "lat": 39.03736033333333, "rental_uris": {"ios": "https://dc.lft.to/lastmile_qr_scan", "android": "https://dc.lft.to/lastmile_qr_scan"}, "is_reserved": 0, "fusion_lon": 0.0, "fusion_lat": 0.0, "lon": -77.05486383333333, "name": "f15795341ea94dd0800fa1dfb67e4eac"}, {"bike_id": "47f8c9c43ff89aadef3712b1030c9d8c", "type": "electric_scooter", "is_disabled": 0, "lat": 38.877596, "rental_uris": {"ios": "https://dc.lft.to/lastmile_qr_scan", "android": "https://dc.lft.to/lastmile_qr_scan"}, "is_reserved": 0, "fusion_lon": 0.0, "fusion_lat": 0.0, "lon": -76.9868515, "name": "47f8c9c43ff89aadef3712b1030c9d8c"}, {"bike_id": "dceca46affcd927e016e41435d2c770b", "type": "electric_scooter", "is_disabled": 0, "lat": 38.905702833333336, "rental_uris": {"ios": "https://dc.lft.to/lastmile_qr_scan", "android": "https://dc.lft.to/lastmile_qr_scan"}, "is_reserved": 0, "fusion_lon": 0.0, "fusion_lat": 0.0, "lon": -76.977823, "name": "dceca46affcd927e016e41435d2c770b"}, {"bike_id": "09e28402738a0f8f38812521bba3cb7c", "type": "electric_bike", "is_disabled": 0, "lat": 38.83248433333333, "rental_uris": {"ios": "https://dc.lft.to/lastmile_qr_scan", "android": "https://dc.lft.to/lastmile_qr_scan"}, "is_reserved": 0, "fusion_lon": 0.0, "fusion_lat": 0.0, "lon": -76.94626516666666, "name": "09e28402738a0f8f38812521bba3cb7c"}, {"bike_id": "9679595b73c88f88066c08402ae118e8", "type": "electric_scooter", "is_disabled": 0, "lat": 38.9191085, "rental_uris": {"ios": "https://dc.lft.to/lastmile_qr_scan", "android": "https://dc.lft.to/lastmile_qr_scan"}, "is_reserved": 0, "fusion_lon": 0.0, "fusion_lat": 0.0, "lon": -77.0319245, "name": "9679595b73c88f88066c08402ae118e8"}, {"bike_id": "089aa6894724a6fab71551b6de7073df", "type": "electric_scooter", "is_disabled": 0, "lat": 38.90701516666667, "rental_uris": {"ios": "https://dc.lft.to/lastmile_qr_scan", "android": "https://dc.lft.to/lastmile_qr_scan"}, "is_reserved": 0, "fusion_lon": 0.0, "fusion_lat": 0.0, "lon": -77.04165316666666, "name": "089aa6894724a6fab71551b6de7073df"}, {"bike_id": "35000f8c55de28bee354fa8eda764ebc", "type": "electric_scooter", "is_disabled": 0, "lat": 38.8957195, "rental_uris": {"ios": "https://dc.lft.to/lastmile_qr_scan", "android": "https://dc.lft.to/lastmile_qr_scan"}, "is_reserved": 0, "fusion_lon": 0.0, "fusion_lat": 0.0, "lon": -76.93025533333333, "name": "35000f8c55de28bee354fa8eda764ebc"}, {"bike_id": "9e1999cc82a11c844f46e4c7b1cb20ad", "type": "electric_scooter", "is_disabled": 0, "lat": 38.907801, "rental_uris": {"ios": "https://dc.lft.to/lastmile_qr_scan", "android": "https://dc.lft.to/lastmile_qr_scan"}, "is_reserved": 0, "fusion_lon": 0.0, "fusion_lat": 0.0, "lon": -77.00225483333334, "name": "9e1999cc82a11c844f46e4c7b1cb20ad"}, {"bike_id": "8b44d4708a1969411e8a91ec37de8ce6", "type": "electric_scooter", "is_disabled": 0, "lat": 38.912752833333336, "rental_uris": {"ios": "https://dc.lft.to/lastmile_qr_scan", "android": "https://dc.lft.to/lastmile_qr_scan"}, "is_reserved": 0, "fusion_lon": 0.0, "fusion_lat": 0.0, "lon": -77.02261066666667, "name": "8b44d4708a1969411e8a91ec37de8ce6"}, {"bike_id": "552d566a4d191e033c85563bd5bab9ba", "type": "electric_scooter", "is_disabled": 0, "lat": 38.911900333333335, "rental_uris": {"ios": "https://dc.lft.to/lastmile_qr_scan", "android": "https://dc.lft.to/lastmile_qr_scan"}, "is_reserved": 0, "fusion_lon": 0.0, "fusion_lat": 0.0, "lon": -77.03833833333333, "name": "552d566a4d191e033c85563bd5bab9ba"}, {"bike_id": "c4a8aa1ef72fe8830d8e6bdefcb22993", "type": "electric_scooter", "is_disabled": 0, "lat": 38.89645733333333, "rental_uris": {"ios": "https://dc.lft.to/lastmile_qr_scan", "android": "https://dc.lft.to/lastmile_qr_scan"}, "is_reserved": 0, "fusion_lon": 0.0, "fusion_lat": 0.0, "lon": -77.009155, "name": "c4a8aa1ef72fe8830d8e6bdefcb22993"}, {"bike_id": "bee18a81647313275728ae1c370e15bf", "type": "electric_scooter", "is_disabled": 0, "lat": 38.91602183333333, "rental_uris": {"ios": "https://dc.lft.to/lastmile_qr_scan", "android": "https://dc.lft.to/lastmile_qr_scan"}, "is_reserved": 0, "fusion_lon": 0.0, "fusion_lat": 0.0, "lon": -77.02399333333334, "name": "bee18a81647313275728ae1c370e15bf"}, {"bike_id": "c85724be3a7b0e53f9e5c7eeedfce033", "type": "electric_bike", "is_disabled": 0, "lat": 39.050572, "rental_uris": {"ios": "https://dc.lft.to/lastmile_qr_scan", "android": "https://dc.lft.to/lastmile_qr_scan"}, "is_reserved": 0, "fusion_lon": 0.0, "fusion_lat": 0.0, "lon": -77.05146366666666, "name": "c85724be3a7b0e53f9e5c7eeedfce033"}, {"bike_id": "2bf2868d8593ad2f9a2b287fac035778", "type": "electric_scooter", "is_disabled": 0, "lat": 38.9399305, "rental_uris": {"ios": "https://dc.lft.to/lastmile_qr_scan", "android": "https://dc.lft.to/lastmile_qr_scan"}, "is_reserved": 0, "fusion_lon": 0.0, "fusion_lat": 0.0, "lon": -77.01695916666667, "name": "2bf2868d8593ad2f9a2b287fac035778"}, {"bike_id": "7acefcee8563daab492b0d7ff84c1879", "type": "electric_scooter", "is_disabled": 0, "lat": 38.91118383333333, "rental_uris": {"ios": "https://dc.lft.to/lastmile_qr_scan", "android": "https://dc.lft.to/lastmile_qr_scan"}, "is_reserved": 0, "fusion_lon": 0.0, "fusion_lat": 0.0, "lon": -77.03251833333333, "name": "7acefcee8563daab492b0d7ff84c1879"}, {"bike_id": "7fbaf2b95aa0cc09aaab3c19ed26d824", "type": "electric_scooter", "is_disabled": 0, "lat": 38.9403165, "rental_uris": {"ios": "https://dc.lft.to/lastmile_qr_scan", "android": "https://dc.lft.to/lastmile_qr_scan"}, "is_reserved": 0, "fusion_lon": 0.0, "fusion_lat": 0.0, "lon": -77.027968, "name": "7fbaf2b95aa0cc09aaab3c19ed26d824"}, {"bike_id": "cb9c2ef4cc3af8fc88af8ee392546752", "type": "electric_scooter", "is_disabled": 0, "lat": 38.907029666666666, "rental_uris": {"ios": "https://dc.lft.to/lastmile_qr_scan", "android": "https://dc.lft.to/lastmile_qr_scan"}, "is_reserved": 0, "fusion_lon": 0.0, "fusion_lat": 0.0, "lon": -77.02370783333333, "name": "cb9c2ef4cc3af8fc88af8ee392546752"}, {"bike_id": "09d3774dce2200650ef0874171665ddc", "type": "electric_scooter", "is_disabled": 0, "lat": 38.912663, "rental_uris": {"ios": "https://dc.lft.to/lastmile_qr_scan", "android": "https://dc.lft.to/lastmile_qr_scan"}, "is_reserved": 0, "fusion_lon": 0.0, "fusion_lat": 0.0, "lon": -77.03860966666667, "name": "09d3774dce2200650ef0874171665ddc"}, {"bike_id": "9b8ec40f5680e73dcdd25e24e3793403", "type": "electric_scooter", "is_disabled": 0, "lat": 38.91519483333333, "rental_uris": {"ios": "https://dc.lft.to/lastmile_qr_scan", "android": "https://dc.lft.to/lastmile_qr_scan"}, "is_reserved": 0, "fusion_lon": 0.0, "fusion_lat": 0.0, "lon": -77.01220466666666, "name": "9b8ec40f5680e73dcdd25e24e3793403"}, {"bike_id": "aa770190d8cf80158132915e1c2e1e23", "type": "electric_bike", "is_disabled": 0, "lat": 39.039915, "rental_uris": {"ios": "https://dc.lft.to/lastmile_qr_scan", "android": "https://dc.lft.to/lastmile_qr_scan"}, "is_reserved": 0, "fusion_lon": 0.0, "fusion_lat": 0.0, "lon": -76.99922166666667, "name": "aa770190d8cf80158132915e1c2e1e23"}, {"bike_id": "c4e51b80a050483cdb01d2f244951545", "type": "electric_scooter", "is_disabled": 0, "lat": 38.922236833333336, "rental_uris": {"ios": "https://dc.lft.to/lastmile_qr_scan", "android": "https://dc.lft.to/lastmile_qr_scan"}, "is_reserved": 0, "fusion_lon": 0.0, "fusion_lat": 0.0, "lon": -77.03456383333334, "name": "c4e51b80a050483cdb01d2f244951545"}, {"bike_id": "99f0c4b422d5b8c9b7dd70fee305c661", "type": "electric_scooter", "is_disabled": 0, "lat": 38.9081645, "rental_uris": {"ios": "https://dc.lft.to/lastmile_qr_scan", "android": "https://dc.lft.to/lastmile_qr_scan"}, "is_reserved": 0, "fusion_lon": 0.0, "fusion_lat": 0.0, "lon": -77.03440583333334, "name": "99f0c4b422d5b8c9b7dd70fee305c661"}, {"bike_id": "53d4db0adaa0cfde1bfaeb13c828638b", "type": "electric_scooter", "is_disabled": 0, "lat": 38.90969033333333, "rental_uris": {"ios": "https://dc.lft.to/lastmile_qr_scan", "android": "https://dc.lft.to/lastmile_qr_scan"}, "is_reserved": 0, "fusion_lon": 0.0, "fusion_lat": 0.0, "lon": -77.0329625, "name": "53d4db0adaa0cfde1bfaeb13c828638b"}, {"bike_id": "6ce2f3ebcc6d901e0f2aef1546812eae", "type": "electric_scooter", "is_disabled": 0, "lat": 38.91871483333333, "rental_uris": {"ios": "https://dc.lft.to/lastmile_qr_scan", "android": "https://dc.lft.to/lastmile_qr_scan"}, "is_reserved": 0, "fusion_lon": 0.0, "fusion_lat": 0.0, "lon": -77.024546, "name": "6ce2f3ebcc6d901e0f2aef1546812eae"}, {"bike_id": "adaed9d3a6269f7d8393f5a2ed27d8a5", "type": "electric_scooter", "is_disabled": 0, "lat": 38.89294266666667, "rental_uris": {"ios": "https://dc.lft.to/lastmile_qr_scan", "android": "https://dc.lft.to/lastmile_qr_scan"}, "is_reserved": 0, "fusion_lon": 0.0, "fusion_lat": 0.0, "lon": -77.04872966666667, "name": "adaed9d3a6269f7d8393f5a2ed27d8a5"}, {"bike_id": "f7f111015f8c0454e48d90095c48f212", "type": "electric_scooter", "is_disabled": 0, "lat": 38.9038765, "rental_uris": {"ios": "https://dc.lft.to/lastmile_qr_scan", "android": "https://dc.lft.to/lastmile_qr_scan"}, "is_reserved": 0, "fusion_lon": 0.0, "fusion_lat": 0.0, "lon": -77.03819783333333, "name": "f7f111015f8c0454e48d90095c48f212"}, {"bike_id": "0bb63edd20eba6d03245f2808f1e0dba", "type": "electric_scooter", "is_disabled": 0, "lat": 38.892442833333334, "rental_uris": {"ios": "https://dc.lft.to/lastmile_qr_scan", "android": "https://dc.lft.to/lastmile_qr_scan"}, "is_reserved": 0, "fusion_lon": 0.0, "fusion_lat": 0.0, "lon": -77.02202583333333, "name": "0bb63edd20eba6d03245f2808f1e0dba"}, {"bike_id": "20d3e6768ce74e57ee54e6e376c241fb", "type": "electric_scooter", "is_disabled": 0, "lat": 38.91705283333334, "rental_uris": {"ios": "https://dc.lft.to/lastmile_qr_scan", "android": "https://dc.lft.to/lastmile_qr_scan"}, "is_reserved": 0, "fusion_lon": 0.0, "fusion_lat": 0.0, "lon": -77.046158, "name": "20d3e6768ce74e57ee54e6e376c241fb"}, {"bike_id": "11ffbfaac2174a51cd9cadd437f4c6b9", "type": "electric_scooter", "is_disabled": 0, "lat": 38.91932583333333, "rental_uris": {"ios": "https://dc.lft.to/lastmile_qr_scan", "android": "https://dc.lft.to/lastmile_qr_scan"}, "is_reserved": 0, "fusion_lon": 0.0, "fusion_lat": 0.0, "lon": -77.0318505, "name": "11ffbfaac2174a51cd9cadd437f4c6b9"}, {"bike_id": "fc1389d10a5abe2d02db05ee1f8a6864", "type": "electric_scooter", "is_disabled": 0, "lat": 38.917019333333336, "rental_uris": {"ios": "https://dc.lft.to/lastmile_qr_scan", "android": "https://dc.lft.to/lastmile_qr_scan"}, "is_reserved": 0, "fusion_lon": 0.0, "fusion_lat": 0.0, "lon": -77.031612, "name": "fc1389d10a5abe2d02db05ee1f8a6864"}, {"bike_id": "779174dd9dbf6ff27110dac45ca9254a", "type": "electric_scooter", "is_disabled": 0, "lat": 38.912830666666665, "rental_uris": {"ios": "https://dc.lft.to/lastmile_qr_scan", "android": "https://dc.lft.to/lastmile_qr_scan"}, "is_reserved": 0, "fusion_lon": 0.0, "fusion_lat": 0.0, "lon": -77.0385455, "name": "779174dd9dbf6ff27110dac45ca9254a"}, {"bike_id": "d1b8cde544d20200c5c50ea9c322c896", "type": "electric_scooter", "is_disabled": 0, "lat": 38.917035, "rental_uris": {"ios": "https://dc.lft.to/lastmile_qr_scan", "android": "https://dc.lft.to/lastmile_qr_scan"}, "is_reserved": 0, "fusion_lon": 0.0, "fusion_lat": 0.0, "lon": -77.0242065, "name": "d1b8cde544d20200c5c50ea9c322c896"}, {"bike_id": "1a32f79f71a7a6a30139504c18076b72", "type": "electric_scooter", "is_disabled": 0, "lat": 38.90534566666667, "rental_uris": {"ios": "https://dc.lft.to/lastmile_qr_scan", "android": "https://dc.lft.to/lastmile_qr_scan"}, "is_reserved": 0, "fusion_lon": 0.0, "fusion_lat": 0.0, "lon": -77.05013766666667, "name": "1a32f79f71a7a6a30139504c18076b72"}, {"bike_id": "38378d15cbaf7bc5bbbefae105dca245", "type": "electric_scooter", "is_disabled": 0, "lat": 38.86378766666667, "rental_uris": {"ios": "https://dc.lft.to/lastmile_qr_scan", "android": "https://dc.lft.to/lastmile_qr_scan"}, "is_reserved": 0, "fusion_lon": 0.0, "fusion_lat": 0.0, "lon": -76.9905575, "name": "38378d15cbaf7bc5bbbefae105dca245"}, {"bike_id": "0b59690dbe5d5fde71d7780a7e649468", "type": "electric_scooter", "is_disabled": 0, "lat": 38.865065, "rental_uris": {"ios": "https://dc.lft.to/lastmile_qr_scan", "android": "https://dc.lft.to/lastmile_qr_scan"}, "is_reserved": 0, "fusion_lon": 0.0, "fusion_lat": 0.0, "lon": -76.9900275, "name": "0b59690dbe5d5fde71d7780a7e649468"}, {"bike_id": "6d56bc4abd7c9fe8d9e369797c1959b7", "type": "electric_scooter", "is_disabled": 0, "lat": 38.927092, "rental_uris": {"ios": "https://dc.lft.to/lastmile_qr_scan", "android": "https://dc.lft.to/lastmile_qr_scan"}, "is_reserved": 0, "fusion_lon": 0.0, "fusion_lat": 0.0, "lon": -77.02093033333334, "name": "6d56bc4abd7c9fe8d9e369797c1959b7"}, {"bike_id": "1f02c8ed6ba6b4e5446ffcea744522b5", "type": "electric_scooter", "is_disabled": 0, "lat": 38.907266, "rental_uris": {"ios": "https://dc.lft.to/lastmile_qr_scan", "android": "https://dc.lft.to/lastmile_qr_scan"}, "is_reserved": 0, "fusion_lon": 0.0, "fusion_lat": 0.0, "lon": -77.02536733333334, "name": "1f02c8ed6ba6b4e5446ffcea744522b5"}, {"bike_id": "50af853b53fd28ab1e0d127f48cf2cf9", "type": "electric_scooter", "is_disabled": 0, "lat": 38.9163685, "rental_uris": {"ios": "https://dc.lft.to/lastmile_qr_scan", "android": "https://dc.lft.to/lastmile_qr_scan"}, "is_reserved": 0, "fusion_lon": 0.0, "fusion_lat": 0.0, "lon": -77.048163, "name": "50af853b53fd28ab1e0d127f48cf2cf9"}, {"bike_id": "0d108c02eca8ddfb1e0e7b0e11caef55", "type": "electric_scooter", "is_disabled": 0, "lat": 38.905673166666666, "rental_uris": {"ios": "https://dc.lft.to/lastmile_qr_scan", "android": "https://dc.lft.to/lastmile_qr_scan"}, "is_reserved": 0, "fusion_lon": 0.0, "fusion_lat": 0.0, "lon": -77.0055245, "name": "0d108c02eca8ddfb1e0e7b0e11caef55"}, {"bike_id": "10ad6997d6996bfd5d4d95d1ec1565b7", "type": "electric_scooter", "is_disabled": 0, "lat": 38.88704666666667, "rental_uris": {"ios": "https://dc.lft.to/lastmile_qr_scan", "android": "https://dc.lft.to/lastmile_qr_scan"}, "is_reserved": 0, "fusion_lon": 0.0, "fusion_lat": 0.0, "lon": -77.01373116666667, "name": "10ad6997d6996bfd5d4d95d1ec1565b7"}, {"bike_id": "106ea5a9ef0e49c962bc012a9e48003f", "type": "electric_scooter", "is_disabled": 0, "lat": 38.923539166666664, "rental_uris": {"ios": "https://dc.lft.to/lastmile_qr_scan", "android": "https://dc.lft.to/lastmile_qr_scan"}, "is_reserved": 0, "fusion_lon": 0.0, "fusion_lat": 0.0, "lon": -77.035271, "name": "106ea5a9ef0e49c962bc012a9e48003f"},