{"data": {"bikes": [{"fusion_lat": 0.0, "name": "a7522a74f3101c356a04ddd25e015ca2", "is_disabled": 0, "rental_uris": {"android": "https://dc.lft.to/lastmile_qr_scan", "ios": "https://dc.lft.to/lastmile_qr_scan"}, "fusion_lon": 0.0, "lat": 38.89221883333333, "bike_id": "a7522a74f3101c356a04ddd25e015ca2", "type": "electric_scooter", "is_reserved": 0, "lon": -77.0262175}, {"fusion_lat": 0.0, "name": "06f29dbb4c04324015fd5917564369fa", "is_disabled": 0, "rental_uris": {"android": "https://dc.lft.to/lastmile_qr_scan", "ios": "https://dc.lft.to/lastmile_qr_scan"}, "fusion_lon": 0.0, "lat": 38.88756266666667, "bike_id": "06f29dbb4c04324015fd5917564369fa", "type": "electric_scooter", "is_reserved": 0, "lon": -77.02460233333333}, {"fusion_lat": 0.0, "name": "d4618ebf11d7c4b36b912a5d97af0f51", "is_disabled": 0, "rental_uris": {"android": "https://dc.lft.to/lastmile_qr_scan", "ios": "https://dc.lft.to/lastmile_qr_scan"}, "fusion_lon": 0.0, "lat": 38.888477, "bike_id": "d4618ebf11d7c4b36b912a5d97af0f51", "type": "electric_scooter", "is_reserved": 0, "lon": -76.92678883333333}, {"fusion_lat": 0.0, "name": "1424f80b531aeca00c1249879de84216", "is_disabled": 0, "rental_uris": {"android": "https://dc.lft.to/lastmile_qr_scan", "ios": "https://dc.lft.to/lastmile_qr_scan"}, "fusion_lon": 0.0, "lat": 38.9083845, "bike_id": "1424f80b531aeca00c1249879de84216", "type": "electric_scooter", "is_reserved": 0, "lon": -77.04350016666666}, {"fusion_lat": 0.0, "name": "2d2db6f25e91336f4ea1a4eba636dcca", "is_disabled": 0, "rental_uris": {"android": "https://dc.lft.to/lastmile_qr_scan", "ios": "https://dc.lft.to/lastmile_qr_scan"}, "fusion_lon": 0.0, "lat": 38.91515283333333, "bike_id": "2d2db6f25e91336f4ea1a4eba636dcca", "type": "electric_scooter", "is_reserved": 0, "lon": -77.046067}, {"fusion_lat": 0.0, "name": "c960262ef2021a70d8b913417a7c82b4", "is_disabled": 0, "rental_uris": {"android": "https://dc.lft.to/lastmile_qr_scan", "ios": "https://dc.lft.to/lastmile_qr_scan"}, "fusion_lon": 0.0, "lat": 38.913344333333335, "bike_id": "c960262ef2021a70d8b913417a7c82b4", "type": "electric_scooter", "is_reserved": 0, "lon": -77.0213515}, {"fusion_lat": 0.0, "name": "88ea32cf83a9b657d1afb778c0a8d6c5", "is_disabled": 0, "rental_uris": {"android": "https://dc.lft.to/lastmile_qr_scan", "ios": "https://dc.lft.to/lastmile_qr_scan"}, "fusion_lon": 0.0, "lat": 38.91063466666667, "bike_id": "88ea32cf83a9b657d1afb778c0a8d6c5", "type": "electric_scooter", "is_reserved": 0, "lon": -77.03201033333333}, {"fusion_lat": 0.0, "name": "3aeed8dc459015fd0ce137c1d6d45e5a", "is_disabled": 0, "rental_uris": {"android": "https://dc.lft.to/lastmile_qr_scan", "ios": "https://dc.lft.to/lastmile_qr_scan"}, "fusion_lon": 0.0, "lat": 38.89733433333333, "bike_id": "3aeed8dc459015fd0ce137c1d6d45e5a", "type": "electric_scooter", "is_reserved": 0, "lon": -77.00753616666667}, {"fusion_lat": 0.0, "name": "7b54b8e3264ab9ea3ab8df7ba3ddfed2", "is_disabled": 0, "rental_uris": {"android": "https://dc.lft.to/lastmile_qr_scan", "ios": "https://dc.lft.to/lastmile_qr_scan"}, "fusion_lon": 0.0, "lat": 38.89726733333333, "bike_id": "7b54b8e3264ab9ea3ab8df7ba3ddfed2", "type": "electric_scooter", "is_reserved": 0, "lon": -77.022506}, {"fusion_lat": 0.0, "name": "d7c82bb7ad6cab3580cebcd2a2869b9a", "is_disabled": 0, "rental_uris": {"android": "https://dc.lft.to/lastmile_qr_scan", "ios": "https://dc.lft.to/lastmile_qr_scan"}, "fusion_lon": 0.0, "lat": 38.905243, "bike_id": "d7c82bb7ad6cab3580cebcd2a2869b9a", "type": "electric_scooter", "is_reserved": 0, "lon": -77.067802}, {"fusion_lat": 0.0, "name": "b328136864083ca321d08adaa90a2035", "is_disabled": 0, "rental_uris": {"android": "https://dc.lft.to/lastmile_qr_scan", "ios": "https://dc.lft.to/lastmile_qr_scan"}, "fusion_lon": 0.0, "lat": 38.884927166666664, "bike_id": "b328136864083ca321d08adaa90a2035", "type": "electric_scooter", "is_reserved": 0, "lon": -77.010863}, {"fusion_lat": 0.0, "name": "ca3d33979b9e8a354f231fd8f6ec66c6", "is_disabled": 0, "rental_uris": {"android": "https://dc.lft.to/lastmile_qr_scan", "ios": "https://dc.lft.to/lastmile_qr_scan"}, "fusion_lon": 0.0, "lat": 38.915934, "bike_id": "ca3d33979b9e8a354f231fd8f6ec66c6", "type": "electric_scooter", "is_reserved": 0, "lon": -77.01113366666667}, {"fusion_lat": 0.0, "name": "650d4e2a900b718856f4bce86bfdb779", "is_disabled": 0, "rental_uris": {"android": "https://dc.lft.to/lastmile_qr_scan", "ios": "https://dc.lft.to/lastmile_qr_scan"}, "fusion_lon": 0.0, "lat": 38.941589666666665, "bike_id": "650d4e2a900b718856f4bce86bfdb779", "type": "electric_bike", "is_reserved": 0, "lon": -76.96643683333333}, {"fusion_lat": 0.0, "name": "90393be4654d4e142cf57f180ff5e848", "is_disabled": 0, "rental_uris": {"android": "https://dc.lft.to/lastmile_qr_scan", "ios": "https://dc.lft.to/lastmile_qr_scan"}, "fusion_lon": 0.0, "lat": 38.88505166666667, "bike_id": "90393be4654d4e142cf57f180ff5e848", "type": "electric_scooter", "is_reserved": 0, "lon": -76.99770233333334}, {"fusion_lat": 0.0, "name": "2f32c767ef1149f35d5c789262b0d291", "is_disabled": 0, "rental_uris": {"android": "https://dc.lft.to/lastmile_qr_scan", "ios": "https://dc.lft.to/lastmile_qr_scan"}, "fusion_lon": 0.0, "lat": 38.907178333333334, "bike_id": "2f32c767ef1149f35d5c789262b0d291", "type": "electric_scooter", "is_reserved": 0, "lon": -77.02505366666666}, {"fusion_lat": 0.0, "name": "773189369a822e264de665d94b4faad5", "is_disabled": 0, "rental_uris": {"android": "https://dc.lft.to/lastmile_qr_scan", "ios": "https://dc.lft.to/lastmile_qr_scan"}, "fusion_lon": 0.0, "lat": 38.941481833333334, "bike_id": "773189369a822e264de665d94b4faad5", "type": "electric_bike", "is_reserved": 0, "lon": -77.00188616666667}, {"fusion_lat": 0.0, "name": "8e221b6f43e2f30d5c90e215cf80b1b8", "is_disabled": 0, "rental_uris": {"android": "https://dc.lft.to/lastmile_qr_scan", "ios": "https://dc.lft.to/lastmile_qr_scan"}, "fusion_lon": 0.0, "lat": 38.9877935, "bike_id": "8e221b6f43e2f30d5c90e215cf80b1b8", "type": "electric_bike", "is_reserved": 0, "lon": -77.14093183333334}, {"fusion_lat": 0.0, "name": "2087a3aafdbbe71e38a51ce005ca5510", "is_disabled": 0, "rental_uris": {"android": "https://dc.lft.to/lastmile_qr_scan", "ios": "https://dc.lft.to/lastmile_qr_scan"}, "fusion_lon": 0.0, "lat": 38.929658833333335, "bike_id": "2087a3aafdbbe71e38a51ce005ca5510", "type": "electric_scooter", "is_reserved": 0, "lon": -77.0314045}, {"fusion_lat": 0.0, "name": "5d39ced0755ef4b8cdd8c075d49be0c3", "is_disabled": 0, "rental_uris": {"android": "https://dc.lft.to/lastmile_qr_scan", "ios": "https://dc.lft.to/lastmile_qr_scan"}, "fusion_lon": 0.0, "lat": 38.90214116666667, "bike_id": "5d39ced0755ef4b8cdd8c075d49be0c3", "type": "electric_scooter", "is_reserved": 0, "lon": -77.05985766666667}, {"fusion_lat": 0.0, "name": "2c06833b040249e8724664262606b0cf", "is_disabled": 0, "rental_uris": {"android": "https://dc.lft.to/lastmile_qr_scan", "ios": "https://dc.lft.to/lastmile_qr_scan"}, "fusion_lon": 0.0, "lat": 38.8921835, "bike_id": "2c06833b040249e8724664262606b0cf", "type": "electric_scooter", "is_reserved": 0, "lon": -77.02414433333334}, {"fusion_lat": 0.0, "name": "df9b11cbe9c4dee81be2a1ebfeeba922", "is_disabled": 0, "rental_uris": {"android": "https://dc.lft.to/lastmile_qr_scan", "ios": "https://dc.lft.to/lastmile_qr_scan"}, "fusion_lon": 0.0, "lat": 38.917024166666664, "bike_id": "df9b11cbe9c4dee81be2a1ebfeeba922", "type": "electric_scooter", "is_reserved": 0, "lon": -77.00870933333333}, {"fusion_lat": 0.0, "name": "df8147bb8107294c9d323d19b5701978", "is_disabled": 0, "rental_uris": {"android": "https://dc.lft.to/lastmile_qr_scan", "ios": "https://dc.lft.to/lastmile_qr_scan"}, "fusion_lon": 0.0, "lat": 38.921552, "bike_id": "df8147bb8107294c9d323d19b5701978", "type": "electric_scooter", "is_reserved": 0, "lon": -77.02093416666666}, {"fusion_lat": 0.0, "name": "19b4748118d55ac15340e7a58645adc3", "is_disabled": 0, "rental_uris": {"android": "https://dc.lft.to/lastmile_qr_scan", "ios": "https://dc.lft.to/lastmile_qr_scan"}, "fusion_lon": 0.0, "lat": 39.01417, "bike_id": "19b4748118d55ac15340e7a58645adc3", "type": "electric_bike", "is_reserved": 0, "lon": -77.0449925}, {"fusion_lat": 0.0, "name": "7eeeaf5bd63dae5786636ec340840eae", "is_disabled": 0, "rental_uris": {"android": "https://dc.lft.to/lastmile_qr_scan", "ios": "https://dc.lft.to/lastmile_qr_scan"}, "fusion_lon": 0.0, "lat": 38.89690383333333, "bike_id": "7eeeaf5bd63dae5786636ec340840eae", "type": "electric_scooter", "is_reserved": 0, "lon": -77.0238745}, {"fusion_lat": 0.0, "name": "6a7af4a5f6630f179a4b81a9fbc08c21", "is_disabled": 0, "rental_uris": {"android": "https://dc.lft.to/lastmile_qr_scan", "ios": "https://dc.lft.to/lastmile_qr_scan"}, "fusion_lon": 0.0, "lat": 38.895594333333335, "bike_id": "6a7af4a5f6630f179a4b81a9fbc08c21", "type": "electric_scooter", "is_reserved": 0, "lon": -76.99432183333333}, {"fusion_lat": 0.0, "name": "26e3652431a1e227aaf30a8cc962e9a3", "is_disabled": 0, "rental_uris": {"android": "https://dc.lft.to/lastmile_qr_scan", "ios": "https://dc.lft.to/lastmile_qr_scan"}, "fusion_lon": 0.0, "lat": 38.90803233333333, "bike_id": "26e3652431a1e227aaf30a8cc962e9a3", "type": "electric_scooter", "is_reserved": 0, "lon": -77.04325283333333}, {"fusion_lat": 0.0, "name": "9a6dc1aaca9b305f0a04954f4c2493ae", "is_disabled": 0, "rental_uris": {"android": "https://dc.lft.to/lastmile_qr_scan", "ios": "https://dc.lft.to/lastmile_qr_scan"}, "fusion_lon": 0.0, "lat": 38.919139, "bike_id": "9a6dc1aaca9b305f0a04954f4c2493ae", "type": "electric_bike", "is_reserved": 0, "lon": -77.03140816666667}, {"fusion_lat": 0.0, "name": "34eb0b12d74c313c2938317013cfbfe6", "is_disabled": 0, "rental_uris": {"android": "https://dc.lft.to/lastmile_qr_scan", "ios": "https://dc.lft.to/lastmile_qr_scan"}, "fusion_lon": 0.0, "lat": 38.88498833333333, "bike_id": "34eb0b12d74c313c2938317013cfbfe6", "type": "electric_scooter", "is_reserved": 0, "lon": -76.99756883333333}, {"fusion_lat": 0.0, "name": "f4f4e978814922d335bff6fda40db7b3", "is_disabled": 0, "rental_uris": {"android": "https://dc.lft.to/lastmile_qr_scan", "ios": "https://dc.lft.to/lastmile_qr_scan"}, "fusion_lon": 0.0, "lat": 38.917166333333334, "bike_id": "f4f4e978814922d335bff6fda40db7b3", "type": "electric_scooter", "is_reserved": 0, "lon": -77.02798183333333}, {"fusion_lat": 0.0, "name": "24e0fd9ca101454a47b2a7ff7f023c56", "is_disabled": 0, "rental_uris": {"android": "https://dc.lft.to/lastmile_qr_scan", "ios": "https://dc.lft.to/lastmile_qr_scan"}, "fusion_lon": 0.0, "lat": 38.89846466666667, "bike_id": "24e0fd9ca101454a47b2a7ff7f023c56", "type": "electric_scooter", "is_reserved": 0, "lon": -76.9903275}, {"fusion_lat": 0.0, "name": "69ace3f7a3ae5f43112af6b1837c51d5", "is_disabled": 0, "rental_uris": {"android": "https://dc.lft.to/lastmile_qr_scan", "ios": "https://dc.lft.to/lastmile_qr_scan"}, "fusion_lon": 0.0, "lat": 38.913546333333336, "bike_id": "69ace3f7a3ae5f43112af6b1837c51d5", "type": "electric_scooter", "is_reserved": 0, "lon": -77.04590516666667}, {"fusion_lat": 0.0, "name": "79eed2a7b2966e88202cc461523d1517", "is_disabled": 0, "rental_uris": {"android": "https://dc.lft.to/lastmile_qr_scan", "ios": "https://dc.lft.to/lastmile_qr_scan"}, "fusion_lon": 0.0, "lat": 38.84754483333333, "bike_id": "79eed2a7b2966e88202cc461523d1517", "type": "electric_scooter", "is_reserved": 0, "lon": -76.99499333333333}, {"fusion_lat": 0.0, "name": "0d0c0d9584e0f0d536b31a371081668f", "is_disabled": 0, "rental_uris": {"android": "https://dc.lft.to/lastmile_qr_scan", "ios": "https://dc.lft.to/lastmile_qr_scan"}, "fusion_lon": 0.0, "lat": 38.90809683333333, "bike_id": "0d0c0d9584e0f0d536b31a371081668f", "type": "electric_scooter", "is_reserved": 0, "lon": -77.03436033333334}, {"fusion_lat": 0.0, "name": "d2913c6748ee06b61f717cbf1bf17445", "is_disabled": 0, "rental_uris": {"android": "https://dc.lft.to/lastmile_qr_scan", "ios": "https://dc.lft.to/lastmile_qr_scan"}, "fusion_lon": 0.0, "lat": 39.052548, "bike_id": "d2913c6748ee06b61f717cbf1bf17445", "type": "electric_bike", "is_reserved": 0, "lon": -77.08067583333333}, {"fusion_lat": 0.0, "name": "69d067ae5d20a517732dd2a77d2828f9", "is_disabled": 0, "rental_uris": {"android": "https://dc.lft.to/lastmile_qr_scan", "ios": "https://dc.lft.to/lastmile_qr_scan"}, "fusion_lon": 0.0, "lat": 38.89873933333333, "bike_id": "69d067ae5d20a517732dd2a77d2828f9", "type": "electric_scooter", "is_reserved": 0, "lon": -76.9318425}, {"fusion_lat": 0.0, "name": "723d0e9433e340cdd916a54e45f9155e", "is_disabled": 0, "rental_uris": {"android": "https://dc.lft.to/lastmile_qr_scan", "ios": "https://dc.lft.to/lastmile_qr_scan"}, "fusion_lon": 0.0, "lat": 38.89218966666667, "bike_id": "723d0e9433e340cdd916a54e45f9155e", "type": "electric_scooter", "is_reserved": 0, "lon": -77.02776933333334}, {"fusion_lat": 0.0, "name": "aa62700a522bb2e1d58ec45c2e5c2e2d", "is_disabled": 0, "rental_uris": {"android": "https://dc.lft.to/lastmile_qr_scan", "ios": "https://dc.lft.to/lastmile_qr_scan"}, "fusion_lon": 0.0, "lat": 38.933475, "bike_id": "aa62700a522bb2e1d58ec45c2e5c2e2d", "type": "electric_scooter", "is_reserved": 0, "lon": -77.02421083333333}, {"fusion_lat": 0.0, "name": "5c229373779707dcf0904c9df2427b30", "is_disabled": 0, "rental_uris": {"android": "https://dc.lft.to/lastmile_qr_scan", "ios": "https://dc.lft.to/lastmile_qr_scan"}, "fusion_lon": 0.0, "lat": 38.897224666666666, "bike_id": "5c229373779707dcf0904c9df2427b30", "type": "electric_scooter", "is_reserved": 0, "lon": -77.02711116666667}, {"fusion_lat": 0.0, "name": "0dff7f7c8abbfd305982b1245df0ccd8", "is_disabled": 0, "rental_uris": {"android": "https://dc.lft.to/lastmile_qr_scan", "ios": "https://dc.lft.to/lastmile_qr_scan"}, "fusion_lon": 0.0, "lat": 38.9352085, "bike_id": "0dff7f7c8abbfd305982b1245df0ccd8", "type": "electric_scooter", "is_reserved": 0, "lon": -77.07264983333333}, {"fusion_lat": 0.0, "name": "1390b7f2e6f5dd98b012cd73467a429a", "is_disabled": 0, "rental_uris": {"android": "https://dc.lft.to/lastmile_qr_scan", "ios": "https://dc.lft.to/lastmile_qr_scan"}, "fusion_lon": 0.0, "lat": 38.892256333333336, "bike_id": "1390b7f2e6f5dd98b012cd73467a429a", "type": "electric_scooter", "is_reserved": 0, "lon": -77.0283605}, {"fusion_lat": 0.0, "name": "43d57c5d2dc7d8773070eca1dcec189d", "is_disabled": 0, "rental_uris": {"android": "https://dc.lft.to/lastmile_qr_scan", "ios": "https://dc.lft.to/lastmile_qr_scan"}, "fusion_lon": 0.0, "lat": 38.915642, "bike_id": "43d57c5d2dc7d8773070eca1dcec189d", "type": "electric_scooter", "is_reserved": 0, "lon": -77.03860566666667}, {"fusion_lat": 0.0, "name": "ad41afbd19866c8231236ec25a0ab682", "is_disabled": 0, "rental_uris": {"android": "https://dc.lft.to/lastmile_qr_scan", "ios": "https://dc.lft.to/lastmile_qr_scan"}, "fusion_lon": 0.0, "lat": 38.894417833333335, "bike_id": "ad41afbd19866c8231236ec25a0ab682", "type": "electric_scooter", "is_reserved": 0, "lon": -76.936766}, {"fusion_lat": 0.0, "name": "4d7216e338b04a733cad8a02b577840f", "is_disabled": 0, "rental_uris": {"android": "https://dc.lft.to/lastmile_qr_scan", "ios": "https://dc.lft.to/lastmile_qr_scan"}, "fusion_lon": 0.0, "lat": 38.907745166666665, "bike_id": "4d7216e338b04a733cad8a02b577840f", "type": "electric_scooter", "is_reserved": 0, "lon": -77.03210983333334}, {"fusion_lat": 0.0, "name": "29705bb1dfca5a6dfbf00ca35775925c", "is_disabled": 0, "rental_uris": {"android": "https://dc.lft.to/lastmile_qr_scan", "ios": "https://dc.lft.to/lastmile_qr_scan"}, "fusion_lon": 0.0, "lat": 38.90596083333333, "bike_id": "29705bb1dfca5a6dfbf00ca35775925c", "type": "electric_scooter", "is_reserved": 0, "lon": -77.0648505}, {"fusion_lat": 0.0, "name": "9c553fb9039e2fbc9541e413fb0da968", "is_disabled": 0, "rental_uris": {"android": "https://dc.lft.to/lastmile_qr_scan", "ios": "https://dc.lft.to/lastmile_qr_scan"}, "fusion_lon": 0.0, "lat": 38.9266605, "bike_id": "9c553fb9039e2fbc9541e413fb0da968", "type": "electric_scooter", "is_reserved": 0, "lon": -77.03049366666667}, {"fusion_lat": 0.0, "name": "e9976ca4181c40dccd082b3a5ec9b0aa", "is_disabled": 0, "rental_uris": {"android": "https://dc.lft.to/lastmile_qr_scan", "ios": "https://dc.lft.to/lastmile_qr_scan"}, "fusion_lon": 0.0, "lat": 38.8908485, "bike_id": "e9976ca4181c40dccd082b3a5ec9b0aa", "type": "electric_scooter", "is_reserved": 0, "lon": -76.91931566666666}, {"fusion_lat": 0.0, "name": "7c36336492aa52a7cbb0432d0a30d4d2", "is_disabled": 0, "rental_uris": {"android": "https://dc.lft.to/lastmile_qr_scan", "ios": "https://dc.lft.to/lastmile_qr_scan"}, "fusion_lon": 0.0, "lat": 38.88743866666667, "bike_id": "7c36336492aa52a7cbb0432d0a30d4d2", "type": "electric_scooter", "is_reserved": 0, "lon": -77.0315465}, {"fusion_lat": 0.0, "name": "2c346d67f3f425fe6c2189d978be6917", "is_disabled": 0, "rental_uris": {"android": "https://dc.lft.to/lastmile_qr_scan", "ios": "https://dc.lft.to/lastmile_qr_scan"}, "fusion_lon": 0.0, "lat": 38.93593, "bike_id": "2c346d67f3f425fe6c2189d978be6917", "type": "electric_scooter", "is_reserved": 0, "lon": -77.02298533333334}, {"fusion_lat": 0.0, "name": "c22a7e2c8d2dd96ad34bef8a471762ac", "is_disabled": 0, "rental_uris": {"android": "https://dc.lft.to/lastmile_qr_scan", "ios": "https://dc.lft.to/lastmile_qr_scan"}, "fusion_lon": 0.0, "lat": 38.91840083333334, "bike_id": "c22a7e2c8d2dd96ad34bef8a471762ac", "type": "electric_scooter", "is_reserved": 0, "lon": -77.02428433333333}, {"fusion_lat": 0.0, "name": "ae416e1bbbb46eaa8e83dd8bc87e6741", "is_disabled": 0, "rental_uris": {"android": "https://dc.lft.to/lastmile_qr_scan", "ios": "https://dc.lft.to/lastmile_qr_scan"}, "fusion_lon": 0.0, "lat": 38.892207, "bike_id": "ae416e1bbbb46eaa8e83dd8bc87e6741", "type": "electric_scooter", "is_reserved": 0, "lon": -77.04378333333334}, {"fusion_lat": 0.0, "name": "77af337991cf6b0b0965ed41c0ed72e2", "is_disabled": 0, "rental_uris": {"android": "https://dc.lft.to/lastmile_qr_scan", "ios": "https://dc.lft.to/lastmile_qr_scan"}, "fusion_lon": 0.0, "lat": 38.89487033333333, "bike_id": "77af337991cf6b0b0965ed41c0ed72e2", "type": "electric_scooter", "is_reserved": 0, "lon": -77.02181466666667}, {"fusion_lat": 0.0, "name": "df611a048dca6847e635e04a1251d3ed", "is_disabled": 0, "rental_uris": {"android": "https://dc.lft.to/lastmile_qr_scan", "ios": "https://dc.lft.to/lastmile_qr_scan"}, "fusion_lon": 0.0, "lat": 38.917977, "bike_id": "df611a048dca6847e635e04a1251d3ed", "type": "electric_scooter", "is_reserved": 0, "lon": -77.03301883333333}, {"fusion_lat": 0.0, "name": "b4016b0fac9fc9e032d4d7cc61f60299", "is_disabled": 0, "rental_uris": {"android": "https://dc.lft.to/lastmile_qr_scan", "ios": "https://dc.lft.to/lastmile_qr_scan"}, "fusion_lon": 0.0, "lat": 38.79020966666667, "bike_id": "b4016b0fac9fc9e032d4d7cc61f60299", "type": "electric_bike", "is_reserved": 0, "lon": -77.01547866666667}, {"fusion_lat": 0.0, "name": "bed537b9eaa914fe630c98a1c8e71d11", "is_disabled": 0, "rental_uris": {"android": "https://dc.lft.to/lastmile_qr_scan", "ios": "https://dc.lft.to/lastmile_qr_scan"}, "fusion_lon": 0.0, "lat": 38.90123916666667, "bike_id": "bed537b9eaa914fe630c98a1c8e71d11", "type": "electric_scooter", "is_reserved": 0, "lon": -77.02190966666667}, {"fusion_lat": 0.0, "name": "7301688078a82beb03e5267a291543c1", "is_disabled": 0, "rental_uris": {"android": "https://dc.lft.to/lastmile_qr_scan", "ios": "https://dc.lft.to/lastmile_qr_scan"}, "fusion_lon": 0.0, "lat": 38.88577433333333, "bike_id": "7301688078a82beb03e5267a291543c1", "type": "electric_scooter", "is_reserved": 0, "lon": -77.01212233333334}, {"fusion_lat": 0.0, "name": "fa00f6d9ed073f695ab77e83dd3701a2", "is_disabled": 0, "rental_uris": {"android": "https://dc.lft.to/lastmile_qr_scan", "ios": "https://dc.lft.to/lastmile_qr_scan"}, "fusion_lon": 0.0, "lat": 38.92123733333333, "bike_id": "fa00f6d9ed073f695ab77e83dd3701a2", "type": "electric_scooter", "is_reserved": 0, "lon": -77.04697683333333}, {"fusion_lat": 0.0, "name": "ac250514d2dd9e363b21a5241f27b41f", "is_disabled": 0, "rental_uris": {"android": "https://dc.lft.to/lastmile_qr_scan", "ios": "https://dc.lft.to/lastmile_qr_scan"}, "fusion_lon": 0.0, "lat": 38.90559533333333, "bike_id": "ac250514d2dd9e363b21a5241f27b41f", "type": "electric_scooter", "is_reserved": 0, "lon": -76.9819995}, {"fusion_lat": 0.0, "name": "f087d4184578ce5247e174837077292d", "is_disabled": 0, "rental_uris": {"android": "https://dc.lft.to/lastmile_qr_scan", "ios": "https://dc.lft.to/lastmile_qr_scan"}, "fusion_lon": 0.0, "lat": 38.90796066666667, "bike_id": "f087d4184578ce5247e174837077292d", "type": "electric_scooter", "is_reserved": 0, "lon": -76.99422083333333}, {"fusion_lat": 0.0, "name": "048eb2d26e6e14e1934b03a8f23ab583", "is_disabled": 0, "rental_uris": {"android": "https://dc.lft.to/lastmile_qr_scan", "ios": "https://dc.lft.to/lastmile_qr_scan"}, "fusion_lon": 0.0, "lat": 38.888208666666664, "bike_id": "048eb2d26e6e14e1934b03a8f23ab583", "type": "electric_scooter", "is_reserved": 0, "lon": -76.986639}, {"fusion_lat": 0.0, "name": "5a0ec57aea10e81c28852f32be66049e", "is_disabled": 0, "rental_uris": {"android": "https://dc.lft.to/lastmile_qr_scan", "ios": "https://dc.lft.to/lastmile_qr_scan"}, "fusion_lon": 0.0, "lat": 38.905503, "bike_id": "5a0ec57aea10e81c28852f32be66049e", "type": "electric_scooter", "is_reserved": 0, "lon": -77.06523183333333}, {"fusion_lat": 0.0, "name": "69f41ba435573f54dc71f60a7b040c36", "is_disabled": 0, "rental_uris": {"android": "https://dc.lft.to/lastmile_qr_scan", "ios": "https://dc.lft.to/lastmile_qr_scan"}, "fusion_lon": 0.0, "lat": 38.92252083333333, "bike_id": "69f41ba435573f54dc71f60a7b040c36", "type": "electric_scooter", "is_reserved": 0, "lon": -77.07452883333333}, {"fusion_lat": 0.0, "name": "f0d8aa2f566e11ee0c07598c4ca2853a", "is_disabled": 0, "rental_uris": {"android": "https://dc.lft.to/lastmile_qr_scan", "ios": "https://dc.lft.to/lastmile_qr_scan"}, "fusion_lon": 0.0, "lat": 38.914963166666666, "bike_id": "f0d8aa2f566e11ee0c07598c4ca2853a", "type": "electric_scooter", "is_reserved": 0, "lon": -76.983601}, {"fusion_lat": 0.0, "name": "292030675d0c2cd5afb5fa7adc4d9f29", "is_disabled": 0, "rental_uris": {"android": "https://dc.lft.to/lastmile_qr_scan", "ios": "https://dc.lft.to/lastmile_qr_scan"}, "fusion_lon": 0.0, "lat": 38.80752233333333, "bike_id": "292030675d0c2cd5afb5fa7adc4d9f29", "type": "electric_bike", "is_reserved": 0, "lon": -77.09452133333333}, {"fusion_lat": 0.0, "name": "6974285b3f01afe94c1895ccc03fcd79", "is_disabled": 0, "rental_uris": {"android": "https://dc.lft.to/lastmile_qr_scan", "ios": "https://dc.lft.to/lastmile_qr_scan"}, "fusion_lon": 0.0, "lat": 38.8828395, "bike_id": "6974285b3f01afe94c1895ccc03fcd79", "type": "electric_bike", "is_reserved": 0, "lon": -76.98616833333334}, {"fusion_lat": 0.0, "name": "33e85b43b8b75fa893046d814b372cc4", "is_disabled": 0, "rental_uris": {"android": "https://dc.lft.to/lastmile_qr_scan", "ios": "https://dc.lft.to/lastmile_qr_scan"}, "fusion_lon": 0.0, "lat": 38.905589666666664, "bike_id": "33e85b43b8b75fa893046d814b372cc4", "type": "electric_scooter", "is_reserved": 0, "lon": -76.99793366666667}, {"fusion_lat": 0.0, "name": "632a742fc768f158428d33b9e1217c8c", "is_disabled": 0, "rental_uris": {"android": "https://dc.lft.to/lastmile_qr_scan", "ios": "https://dc.lft.to/lastmile_qr_scan"}, "fusion_lon": 0.0, "lat": 38.91639266666667, "bike_id": "632a742fc768f158428d33b9e1217c8c", "type": "electric_scooter", "is_reserved": 0, "lon": -77.03158983333333}, {"fusion_lat": 0.0, "name": "d95137e16cf7fe0ae42a99163b6e785c", "is_disabled": 0, "rental_uris": {"android": "https://dc.lft.to/lastmile_qr_scan", "ios": "https://dc.lft.to/lastmile_qr_scan"}, "fusion_lon": 0.0, "lat": 38.887441333333335, "bike_id": "d95137e16cf7fe0ae42a99163b6e785c", "type": "electric_scooter", "is_reserved": 0, "lon": -77.0257205}, {"fusion_lat": 0.0, "name": "dee10768f607c91457899291639075e5", "is_disabled": 0, "rental_uris": {"android": "https://dc.lft.to/lastmile_qr_scan", "ios": "https://dc.lft.to/lastmile_qr_scan"}, "fusion_lon": 0.0, "lat": 38.807637666666665, "bike_id": "dee10768f607c91457899291639075e5", "type": "electric_bike", "is_reserved": 0, "lon": -77.094686}, {"fusion_lat": 0.0, "name": "38d8707aea68db283605d2f6ec46aeac", "is_disabled": 0, "rental_uris": {"android": "https://dc.lft.to/lastmile_qr_scan", "ios": "https://dc.lft.to/lastmile_qr_scan"}, "fusion_lon": 0.0, "lat": 38.924118, "bike_id": "38d8707aea68db283605d2f6ec46aeac", "type": "electric_scooter", "is_reserved": 0, "lon": -77.02107083333334}, {"fusion_lat": 0.0, "name": "27c73e899f360d3fca39292b7cb73438", "is_disabled": 0, "rental_uris": {"android": "https://dc.lft.to/lastmile_qr_scan", "ios": "https://dc.lft.to/lastmile_qr_scan"}, "fusion_lon": 0.0, "lat": 38.926443166666665, "bike_id": "27c73e899f360d3fca39292b7cb73438", "type": "electric_scooter", "is_reserved": 0, "lon": -77.03243216666667}, {"fusion_lat": 0.0, "name": "c45d7899afbae0024ea1712b3cf99349", "is_disabled": 0, "rental_uris": {"android": "https://dc.lft.to/lastmile_qr_scan", "ios": "https://dc.lft.to/lastmile_qr_scan"}, "fusion_lon": 0.0, "lat": 38.892205833333335, "bike_id": "c45d7899afbae0024ea1712b3cf99349", "type": "electric_scooter", "is_reserved": 0, "lon": -77.04372983333333}, {"fusion_lat": 0.0, "name": "948c232ce0e5c4d1af19f0ad97a40b84", "is_disabled": 0, "rental_uris": {"android": "https://dc.lft.to/lastmile_qr_scan", "ios": "https://dc.lft.to/lastmile_qr_scan"}, "fusion_lon": 0.0, "lat": 38.92174033333333, "bike_id": "948c232ce0e5c4d1af19f0ad97a40b84", "type": "electric_scooter", "is_reserved": 0, "lon": -77.040132}, {"fusion_lat": 0.0, "name": "813f71d284f8a17affa8aa9955026568", "is_disabled": 0, "rental_uris": {"android": "https://dc.lft.to/lastmile_qr_scan", "ios": "https://dc.lft.to/lastmile_qr_scan"}, "fusion_lon": 0.0, "lat": 38.99774266666667, "bike_id": "813f71d284f8a17affa8aa9955026568", "type": "electric_bike", "is_reserved": 0, "lon": -77.047167}, {"fusion_lat": 0.0, "name": "2f139bba816d0b274930667f698fc02e", "is_disabled": 0, "rental_uris": {"android": "https://dc.lft.to/lastmile_qr_scan", "ios": "https://dc.lft.to/lastmile_qr_scan"}, "fusion_lon": 0.0, "lat": 38.905659, "bike_id": "2f139bba816d0b274930667f698fc02e", "type": "electric_scooter", "is_reserved": 0, "lon": -77.00594333333333}, {"fusion_lat": 0.0, "name": "2f259da3c65eaf76a10579953e5a1cd0", "is_disabled": 0, "rental_uris": {"android": "https://dc.lft.to/lastmile_qr_scan", "ios": "https://dc.lft.to/lastmile_qr_scan"}, "fusion_lon": 0.0, "lat": 38.907621166666665, "bike_id": "2f259da3c65eaf76a10579953e5a1cd0", "type": "electric_scooter", "is_reserved": 0, "lon": -77.07107166666667}, {"fusion_lat": 0.0, "name": "fc296d5dc693249024ad7504bf94ca5a", "is_disabled": 0, "rental_uris": {"android": "https://dc.lft.to/lastmile_qr_scan", "ios": "https://dc.lft.to/lastmile_qr_scan"}, "fusion_lon": 0.0, "lat": 38.94123416666667, "bike_id": "fc296d5dc693249024ad7504bf94ca5a", "type": "electric_scooter", "is_reserved": 0, "lon": -77.02646266666666}, {"fusion_lat": 0.0, "name": "10f91c10b6ea319eae713ee3f5cc998b", "is_disabled": 0, "rental_uris": {"android": "https://dc.lft.to/lastmile_qr_scan", "ios": "https://dc.lft.to/lastmile_qr_scan"}, "fusion_lon": 0.0, "lat": 38.91109566666667, "bike_id": "10f91c10b6ea319eae713ee3f5cc998b", "type": "electric_scooter", "is_reserved": 0, "lon": -77.02232716666667}, {"fusion_lat": 0.0, "name": "b5f9c741707d275f0e3569ea34001542", "is_disabled": 0, "rental_uris": {"android": "https://dc.lft.to/lastmile_qr_scan", "ios": "https://dc.lft.to/lastmile_qr_scan"}, "fusion_lon": 0.0, "lat": 38.88116433333333, "bike_id": "b5f9c741707d275f0e3569ea34001542", "type": "electric_scooter", "is_reserved": 0, "lon": -77.016463}, {"fusion_lat": 0.0, "name": "8cf6140ab91730255c2138db90ed0ed1", "is_disabled": 0, "rental_uris": {"android": "https://dc.lft.to/lastmile_qr_scan", "ios": "https://dc.lft.to/lastmile_qr_scan"}, "fusion_lon": 0.0, "lat": 38.92071466666667, "bike_id": "8cf6140ab91730255c2138db90ed0ed1", "type": "electric_scooter", "is_reserved": 0, "lon": -77.02214983333333}, {"fusion_lat": 0.0, "name": "b01fc331ee3f82d3dbc79738f87e177e", "is_disabled": 0, "rental_uris": {"android": "https://dc.lft.to/lastmile_qr_scan", "ios": "https://dc.lft.to/lastmile_qr_scan"}, "fusion_lon": 0.0, "lat": 38.90133433333333, "bike_id": "b01fc331ee3f82d3dbc79738f87e177e", "type": "electric_scooter", "is_reserved": 0, "lon": -77.03051233333333}, {"fusion_lat": 0.0, "name": "409c8a8ba3fbd1a9907ab1514fc098f2", "is_disabled": 0, "rental_uris": {"android": "https://dc.lft.to/lastmile_qr_scan", "ios": "https://dc.lft.to/lastmile_qr_scan"}, "fusion_lon": 0.0, "lat": 38.9029145, "bike_id": "409c8a8ba3fbd1a9907ab1514fc098f2", "type": "electric_scooter", "is_reserved": 0, "lon": -76.97637066666667}, {"fusion_lat": 0.0, "name": "3e595b0d01514e169035be33b1df0eaa", "is_disabled": 0, "rental_uris": {"android": "https://dc.lft.to/lastmile_qr_scan", "ios": "https://dc.lft.to/lastmile_qr_scan"}, "fusion_lon": 0.0, "lat": 38.901610833333336, "bike_id": "3e595b0d01514e169035be33b1df0eaa", "type": "electric_scooter", "is_reserved": 0, "lon": -77.025815}, {"fusion_lat": 0.0, "name": "b98d81888586eef57ae32b442f617fa4", "is_disabled": 0, "rental_uris": {"android": "https://dc.lft.to/lastmile_qr_scan", "ios": "https://dc.lft.to/lastmile_qr_scan"}, "fusion_lon": 0.0, "lat": 38.921384333333336, "bike_id": "b98d81888586eef57ae32b442f617fa4", "type": "electric_scooter", "is_reserved": 0, "lon": -77.01798466666666}, {"fusion_lat": 0.0, "name": "4d2da325c0509d7d45128b28a5b71a1c", "is_disabled": 0, "rental_uris": {"android": "https://dc.lft.to/lastmile_qr_scan", "ios": "https://dc.lft.to/lastmile_qr_scan"}, "fusion_lon": 0.0, "lat": 38.916588833333336, "bike_id": "4d2da325c0509d7d45128b28a5b71a1c", "type": "electric_scooter", "is_reserved": 0, "lon": -77.028223}, {"fusion_lat": 0.0, "name": "250fe994f7d05ad740375600526a0cca", "is_disabled": 0, "rental_uris": {"android": "https://dc.lft.to/lastmile_qr_scan", "ios": "https://dc.lft.to/lastmile_qr_scan"}, "fusion_lon": 0.0, "lat": 38.887684, "bike_id": "250fe994f7d05ad740375600526a0cca", "type": "electric_scooter", "is_reserved": 0, "lon": -76.9947015}, {"fusion_lat": 0.0, "name": "0eeffa559692257b43f99efdca3caf66", "is_disabled": 0, "rental_uris": {"android": "https://dc.lft.to/lastmile_qr_scan", "ios": "https://dc.lft.to/lastmile_qr_scan"}, "fusion_lon": 0.0, "lat": 38.926522166666665, "bike_id": "0eeffa559692257b43f99efdca3caf66", "type": "electric_scooter", "is_reserved": 0, "lon": -77.03714883333333}, {"fusion_lat": 0.0, "name": "7956e449fb6bf16f70312a2684e93fd8", "is_disabled": 0, "rental_uris": {"android": "https://dc.lft.to/lastmile_qr_scan", "ios": "https://dc.lft.to/lastmile_qr_scan"}, "fusion_lon": 0.0, "lat": 38.908010833333336, "bike_id": "7956e449fb6bf16f70312a2684e93fd8", "type": "electric_scooter", "is_reserved": 0, "lon": -77.04339616666667}, {"fusion_lat": 0.0, "name": "9f22ab356f6ed74b07f9d6ad07b853f9", "is_disabled": 0, "rental_uris": {"android": "https://dc.lft.to/lastmile_qr_scan", "ios": "https://dc.lft.to/lastmile_qr_scan"}, "fusion_lon": 0.0, "lat": 38.921704166666665, "bike_id": "9f22ab356f6ed74b07f9d6ad07b853f9", "type": "electric_scooter", "is_reserved": 0, "lon": -77.0365}, {"fusion_lat": 0.0, "name": "7c0220796adf41d548f318ada30f6410", "is_disabled": 0, "rental_uris": {"android": "https://dc.lft.to/lastmile_qr_scan", "ios": "https://dc.lft.to/lastmile_qr_scan"}, "fusion_lon": 0.0, "lat": 38.924804, "bike_id": "7c0220796adf41d548f318ada30f6410", "type": "electric_scooter", "is_reserved": 0, "lon": -77.02839866666666}, {"fusion_lat": 0.0, "name": "eb0656e129945edcc153eb7c8d164140", "is_disabled": 0, "rental_uris": {"android": "https://dc.lft.to/lastmile_qr_scan", "ios": "https://dc.lft.to/lastmile_qr_scan"}, "fusion_lon": 0.0, "lat": 38.93699066666667, "bike_id": "eb0656e129945edcc153eb7c8d164140", "type": "electric_scooter", "is_reserved": 0, "lon": -77.0240795}, {"fusion_lat": 0.0, "name": "7bf02bdfaf9d3963c899927e21d06de1", "is_disabled": 0, "rental_uris": {"android": "https://dc.lft.to/lastmile_qr_scan", "ios": "https://dc.lft.to/lastmile_qr_scan"}, "fusion_lon": 0.0, "lat": 38.900711, "bike_id": "7bf02bdfaf9d3963c899927e21d06de1", "type": "electric_scooter", "is_reserved": 0, "lon": -77.0244485}, {"fusion_lat": 0.0, "name": "4eabe98dc9ce63bf8be58ba8c013a36e", "is_disabled": 0, "rental_uris": {"android": "https://dc.lft.to/lastmile_qr_scan", "ios": "https://dc.lft.to/lastmile_qr_scan"}, "fusion_lon": 0.0, "lat": 38.90123166666667, "bike_id": "4eabe98dc9ce63bf8be58ba8c013a36e", "type": "electric_scooter", "is_reserved": 0, "lon": -77.00285133333334}, {"fusion_lat": 0.0, "name": "38a85d14cf22de280b90f7f8c766673d", "is_disabled": 0, "rental_uris": {"android": "https://dc.lft.to/lastmile_qr_scan", "ios": "https://dc.lft.to/lastmile_qr_scan"}, "fusion_lon": 0.0, "lat": 38.9002515, "bike_id": "38a85d14cf22de280b90f7f8c766673d", "type": "electric_scooter", "is_reserved": 0, "lon": -76.99765616666667}, {"fusion_lat": 0.0, "name": "318cc98abe6c7ee45525393405ed39d2", "is_disabled": 0, "rental_uris": {"android": "https://dc.lft.to/lastmile_qr_scan", "ios": "https://dc.lft.to/lastmile_qr_scan"}, "fusion_lon": 0.0, "lat": 38.918551, "bike_id": "318cc98abe6c7ee45525393405ed39d2", "type": "electric_scooter", "is_reserved": 0, "lon": -76.965353}, {"fusion_lat": 0.0, "name": "61023da7ded0d5f6a12da062cb7debf4", "is_disabled": 0, "rental_uris": {"android": "https://dc.lft.to/lastmile_qr_scan", "ios": "https://dc.lft.to/lastmile_qr_scan"}, "fusion_lon": 0.0, "lat": 38.913543833333335, "bike_id": "61023da7ded0d5f6a12da062cb7debf4", "type": "electric_scooter", "is_reserved": 0, "lon": -77.03326216666666}, {"fusion_lat": 0.0, "name": "41ad90f5a7b211d3194c771aa533be6b", "is_disabled": 0, "rental_uris": {"android": "https://dc.lft.to/lastmile_qr_scan", "ios": "https://dc.lft.to/lastmile_qr_scan"}, "fusion_lon": 0.0, "lat": 38.984727166666666, "bike_id": "41ad90f5a7b211d3194c771aa533be6b", "type": "electric_scooter", "is_reserved": 0, "lon": -77.02646966666667}, {"fusion_lat": 0.0, "name": "d46a277c112980a5173fb315beebe545", "is_disabled": 0, "rental_uris": {"android": "https://dc.lft.to/lastmile_qr_scan", "ios": "https://dc.lft.to/lastmile_qr_scan"}, "fusion_lon": 0.0, "lat": 38.926499666666665, "bike_id": "d46a277c112980a5173fb315beebe545", "type": "electric_scooter", "is_reserved": 0, "lon": -77.03712066666667}, {"fusion_lat": 0.0, "name": "60fc24900b1744ef9b18cc8175def3a7", "is_disabled": 0, "rental_uris": {"android": "https://dc.lft.to/lastmile_qr_scan", "ios": "https://dc.lft.to/lastmile_qr_scan"}, "fusion_lon": 0.0, "lat": 38.983914666666664, "bike_id": "60fc24900b1744ef9b18cc8175def3a7", "type": "electric_scooter", "is_reserved": 0, "lon": -77.02631383333333}, {"fusion_lat": 0.0, "name": "2b6c8dc7bd3672a6043dd6771de7b2ec", "is_disabled": 0, "rental_uris": {"android": "https://dc.lft.to/lastmile_qr_scan", "ios": "https://dc.lft.to/lastmile_qr_scan"}, "fusion_lon": 0.0, "lat": 38.89193366666667, "bike_id": "2b6c8dc7bd3672a6043dd6771de7b2ec", "type": "electric_scooter", "is_reserved": 0, "lon": -77.02227366666666}, {"fusion_lat": 0.0, "name": "2008e01e72fe6e2a1575bedaa8e22288", "is_disabled": 0, "rental_uris": {"android": "https://dc.lft.to/lastmile_qr_scan", "ios": "https://dc.lft.to/lastmile_qr_scan"}, "fusion_lon": 0.0, "lat": 38.917245666666666, "bike_id": "2008e01e72fe6e2a1575bedaa8e22288", "type": "electric_scooter", "is_reserved": 0, "lon": -77.0372095}, {"fusion_lat": 0.0, "name": "b7d606e9bbb6e7783a076ea16b036166", "is_disabled": 0, "rental_uris": {"android": "https://dc.lft.to/lastmile_qr_scan", "ios": "https://dc.lft.to/lastmile_qr_scan"}, "fusion_lon": 0.0, "lat": 38.919030166666666, "bike_id": "b7d606e9bbb6e7783a076ea16b036166", "type": "electric_scooter", "is_reserved": 0, "lon": -77.0121995}, {"fusion_lat": 0.0, "name": "b506c5d9344a8f66f8441c19569894b5", "is_disabled": 0, "rental_uris": {"android": "https://dc.lft.to/lastmile_qr_scan", "ios": "https://dc.lft.to/lastmile_qr_scan"}, "fusion_lon": 0.0, "lat": 38.912695166666666, "bike_id": "b506c5d9344a8f66f8441c19569894b5", "type": "electric_scooter", "is_reserved": 0, "lon": -77.04651216666667}, {"fusion_lat": 0.0, "name": "04e081f1d1759ded7cf62b0407c6fd4d", "is_disabled": 0, "rental_uris": {"android": "https://dc.lft.to/lastmile_qr_scan", "ios": "https://dc.lft.to/lastmile_qr_scan"}, "fusion_lon": 0.0, "lat": 38.89510833333333, "bike_id": "04e081f1d1759ded7cf62b0407c6fd4d", "type": "electric_scooter", "is_reserved": 0, "lon": -76.94885433333333}, {"fusion_lat": 0.0, "name": "9f0b64bbef13e2843c6bcf2bc98dd2d9", "is_disabled": 0, "rental_uris": {"android": "https://dc.lft.to/lastmile_qr_scan", "ios": "https://dc.lft.to/lastmile_qr_scan"}, "fusion_lon": 0.0, "lat": 38.915146, "bike_id": "9f0b64bbef13e2843c6bcf2bc98dd2d9", "type": "electric_scooter", "is_reserved": 0, "lon": -77.026969}, {"fusion_lat": 0.0, "name": "2b76205bb9951bff3832c2601020e6cc", "is_disabled": 0, "rental_uris": {"android": "https://dc.lft.to/lastmile_qr_scan", "ios": "https://dc.lft.to/lastmile_qr_scan"}, "fusion_lon": 0.0, "lat": 38.92179133333333, "bike_id": "2b76205bb9951bff3832c2601020e6cc", "type": "electric_scooter", "is_reserved": 0, "lon": -77.042269}, {"fusion_lat": 0.0, "name": "92effc86b002f37056f96f24812e40f1", "is_disabled": 0, "rental_uris": {"android": "https://dc.lft.to/lastmile_qr_scan", "ios": "https://dc.lft.to/lastmile_qr_scan"}, "fusion_lon": 0.0, "lat": 38.94520816666667, "bike_id": "92effc86b002f37056f96f24812e40f1", "type": "electric_scooter", "is_reserved": 0, "lon": -77.02271266666666}, {"fusion_lat": 0.0, "name": "3c4fd23e389e5a4ea2ad6b08a007db2a", "is_disabled": 0, "rental_uris": {"android": "https://dc.lft.to/lastmile_qr_scan", "ios": "https://dc.lft.to/lastmile_qr_scan"}, "fusion_lon": 0.0, "lat": 38.87709183333333, "bike_id": "3c4fd23e389e5a4ea2ad6b08a007db2a", "type": "electric_scooter", "is_reserved": 0, "lon": -76.99384633333334}, {"fusion_lat": 0.0, "name": "5cb8d9935b9db4bd832a4c41012b1f96", "is_disabled": 0, "rental_uris": {"android": "https://dc.lft.to/lastmile_qr_scan", "ios": "https://dc.lft.to/lastmile_qr_scan"}, "fusion_lon": 0.0, "lat": 38.935048333333334, "bike_id": "5cb8d9935b9db4bd832a4c41012b1f96", "type": "electric_scooter", "is_reserved": 0, "lon": -77.073678}, {"fusion_lat": 0.0, "name": "e30db2be9ab639f4a253ee69a1ee7c12", "is_disabled": 0, "rental_uris": {"android": "https://dc.lft.to/lastmile_qr_scan", "ios": "https://dc.lft.to/lastmile_qr_scan"}, "fusion_lon": 0.0, "lat": 38.923656333333334, "bike_id": "e30db2be9ab639f4a253ee69a1ee7c12", "type": "electric_scooter", "is_reserved": 0, "lon": -77.081499}, {"fusion_lat": 0.0, "name": "7964a30814c6145acf9df0886c2b54ea", "is_disabled": 0, "rental_uris": {"android": "https://dc.lft.to/lastmile_qr_scan", "ios": "https://dc.lft.to/lastmile_qr_scan"}, "fusion_lon": 0.0, "lat": 38.91122516666667, "bike_id": "7964a30814c6145acf9df0886c2b54ea", "type": "electric_scooter", "is_reserved": 0, "lon": -77.02202816666667}, {"fusion_lat": 0.0, "name": "ccdf2d8548e9ae3a0af7cbccaf52abd6", "is_disabled": 0, "rental_uris": {"android": "https://dc.lft.to/lastmile_qr_scan", "ios": "https://dc.lft.to/lastmile_qr_scan"}, "fusion_lon": 0.0, "lat": 38.90027583333333, "bike_id": "ccdf2d8548e9ae3a0af7cbccaf52abd6", "type": "electric_scooter", "is_reserved": 0, "lon": -76.9913405}, {"fusion_lat": 0.0, "name": "aa1ac9d18abbf8606a38cc30fcb17de8", "is_disabled": 0, "rental_uris": {"android": "https://dc.lft.to/lastmile_qr_scan", "ios": "https://dc.lft.to/lastmile_qr_scan"}, "fusion_lon": 0.0, "lat": 38.96988316666667, "bike_id": "aa1ac9d18abbf8606a38cc30fcb17de8", "type": "electric_scooter", "is_reserved": 0, "lon": -77.011616}, {"fusion_lat": 0.0, "name": "5f4e3352e6b866df88803d463a01fb5c", "is_disabled": 0, "rental_uris": {"android": "https://dc.lft.to/lastmile_qr_scan", "ios": "https://dc.lft.to/lastmile_qr_scan"}, "fusion_lon": 0.0, "lat": 38.92295816666667, "bike_id": "5f4e3352e6b866df88803d463a01fb5c", "type": "electric_scooter", "is_reserved": 0, "lon": -76.99399266666667}, {"fusion_lat": 0.0, "name": "431e0abf82459975032cf7a0a8bee910", "is_disabled": 0, "rental_uris": {"android": "https://dc.lft.to/lastmile_qr_scan", "ios": "https://dc.lft.to/lastmile_qr_scan"}, "fusion_lon": 0.0, "lat": 38.890244833333334, "bike_id": "431e0abf82459975032cf7a0a8bee910", "type": "electric_scooter", "is_reserved": 0, "lon": -76.93734933333333}, {"fusion_lat": 0.0, "name": "c70f64ff5c97a09e5b36b03d0068c7e0", "is_disabled": 0, "rental_uris": {"android": "https://dc.lft.to/lastmile_qr_scan", "ios": "https://dc.lft.to/lastmile_qr_scan"}, "fusion_lon": 0.0, "lat": 38.91548183333333, "bike_id": "c70f64ff5c97a09e5b36b03d0068c7e0", "type": "electric_scooter", "is_reserved": 0, "lon": -77.032421}, {"fusion_lat": 0.0, "name": "bc5d2e2b5039c519ad2ed71b9d4602e3", "is_disabled": 0, "rental_uris": {"android": "https://dc.lft.to/lastmile_qr_scan", "ios": "https://dc.lft.to/lastmile_qr_scan"}, "fusion_lon": 0.0, "lat": 38.9052835, "bike_id": "bc5d2e2b5039c519ad2ed71b9d4602e3", "type": "electric_scooter", "is_reserved": 0, "lon": -77.03484116666667}, {"fusion_lat": 0.0, "name": "a92b4c0846c6e16e6e16ce6d750f842a", "is_disabled": 0, "rental_uris": {"android": "https://dc.lft.to/lastmile_qr_scan", "ios": "https://dc.lft.to/lastmile_qr_scan"}, "fusion_lon": 0.0, "lat": 38.90763033333333, "bike_id": "a92b4c0846c6e16e6e16ce6d750f842a", "type": "electric_scooter", "is_reserved": 0, "lon": -77.00089583333333}, {"fusion_lat": 0.0, "name": "20c913ed99cd7cfa436b6ed71f0f7fc4", "is_disabled": 0, "rental_uris": {"android": "https://dc.lft.to/lastmile_qr_scan", "ios": "https://dc.lft.to/lastmile_qr_scan"}, "fusion_lon": 0.0, "lat": 38.892199166666664, "bike_id": "20c913ed99cd7cfa436b6ed71f0f7fc4", "type": "electric_scooter", "is_reserved": 0, "lon": -77.043677}, {"fusion_lat": 0.0, "name": "c9e1eb2b23ec683c313c6493b3765dcd", "is_disabled": 0, "rental_uris": {"android": "https://dc.lft.to/lastmile_qr_scan", "ios": "https://dc.lft.to/lastmile_qr_scan"}, "fusion_lon": 0.0, "lat": 38.913439833333335, "bike_id": "c9e1eb2b23ec683c313c6493b3765dcd", "type": "electric_scooter", "is_reserved": 0, "lon": -77.00346233333333}, {"fusion_lat": 0.0, "name": "2bf34ebecd85e7b0ab808e3145ce953a", "is_disabled": 0, "rental_uris": {"android": "https://dc.lft.to/lastmile_qr_scan", "ios": "https://dc.lft.to/lastmile_qr_scan"}, "fusion_lon": 0.0, "lat": 38.88471933333334, "bike_id": "2bf34ebecd85e7b0ab808e3145ce953a", "type": "electric_scooter", "is_reserved": 0, "lon": -77.02416066666666}, {"fusion_lat": 0.0, "name": "793fefc3e552c0aa3febb18c3e13a292", "is_disabled": 0, "rental_uris": {"android": "https://dc.lft.to/lastmile_qr_scan", "ios": "https://dc.lft.to/lastmile_qr_scan"}, "fusion_lon": 0.0, "lat": 38.90379633333333, "bike_id": "793fefc3e552c0aa3febb18c3e13a292", "type": "electric_scooter", "is_reserved": 0, "lon": -76.9848185}, {"fusion_lat": 0.0, "name": "223ee81163b3cb3b93e06b018c026ca5", "is_disabled": 0, "rental_uris": {"android": "https://dc.lft.to/lastmile_qr_scan", "ios": "https://dc.lft.to/lastmile_qr_scan"}, "fusion_lon": 0.0, "lat": 38.87474733333333, "bike_id": "223ee81163b3cb3b93e06b018c026ca5", "type": "electric_scooter", "is_reserved": 0, "lon": -77.01900983333333}, {"fusion_lat": 0.0, "name": "4e5c1f9d4e5304bdf9b20b0554784f34", "is_disabled": 0, "rental_uris": {"android": "https://dc.lft.to/lastmile_qr_scan", "ios": "https://dc.lft.to/lastmile_qr_scan"}, "fusion_lon": 0.0, "lat": 38.92993333333333, "bike_id": "4e5c1f9d4e5304bdf9b20b0554784f34", "type": "electric_scooter", "is_reserved": 0, "lon": -77.03236566666666}, {"fusion_lat": 0.0, "name": "0a61875a2fb93ebda2378848e4d4bde0", "is_disabled": 0, "rental_uris": {"android": "https://dc.lft.to/lastmile_qr_scan", "ios": "https://dc.lft.to/lastmile_qr_scan"}, "fusion_lon": 0.0, "lat": 38.924574, "bike_id": "0a61875a2fb93ebda2378848e4d4bde0", "type": "electric_scooter", "is_reserved": 0, "lon": -77.02401666666667}, {"fusion_lat": 0.0, "name": "c9c61e2de06964f0d61966796b96d179", "is_disabled": 0, "rental_uris": {"android": "https://dc.lft.to/lastmile_qr_scan", "ios": "https://dc.lft.to/lastmile_qr_scan"}, "fusion_lon": 0.0, "lat": 38.88961483333333, "bike_id": "c9c61e2de06964f0d61966796b96d179", "type": "electric_scooter", "is_reserved": 0, "lon": -77.0150295}, {"fusion_lat": 0.0, "name": "2ac30f84d7c57f6e667c57a48a145ff5", "is_disabled": 0, "rental_uris": {"android": "https://dc.lft.to/lastmile_qr_scan", "ios": "https://dc.lft.to/lastmile_qr_scan"}, "fusion_lon": 0.0, "lat": 38.920626, "bike_id": "2ac30f84d7c57f6e667c57a48a145ff5", "type": "electric_scooter", "is_reserved": 0, "lon": -77.02718216666666}, {"fusion_lat": 0.0, "name": "b0284bf62a09baf61f65cbd341c48221", "is_disabled": 0, "rental_uris": {"android": "https://dc.lft.to/lastmile_qr_scan", "ios": "https://dc.lft.to/lastmile_qr_scan"}, "fusion_lon": 0.0, "lat": 38.901895833333334, "bike_id": "b0284bf62a09baf61f65cbd341c48221", "type": "electric_scooter", "is_reserved": 0, "lon": -77.05908683333334}, {"fusion_lat": 0.0, "name": "399e3dd5377ce824555ea85d3d19b5bf", "is_disabled": 0, "rental_uris": {"android": "https://dc.lft.to/lastmile_qr_scan", "ios": "https://dc.lft.to/lastmile_qr_scan"}, "fusion_lon": 0.0, "lat": 38.89216183333333, "bike_id": "399e3dd5377ce824555ea85d3d19b5bf", "type": "electric_scooter", "is_reserved": 0, "lon": -77.02415333333333}, {"fusion_lat": 0.0, "name": "1487fecfc8d246ec6489f44c91b0312c", "is_disabled": 0, "rental_uris": {"android": "https://dc.lft.to/lastmile_qr_scan", "ios": "https://dc.lft.to/lastmile_qr_scan"}, "fusion_lon": 0.0, "lat": 38.925813, "bike_id": "1487fecfc8d246ec6489f44c91b0312c", "type": "electric_scooter", "is_reserved": 0, "lon": -77.027305}, {"fusion_lat": 0.0, "name": "43b62fda1b557dfda0fb06f5d33645c1", "is_disabled": 0, "rental_uris": {"android": "https://dc.lft.to/lastmile_qr_scan", "ios": "https://dc.lft.to/lastmile_qr_scan"}, "fusion_lon": 0.0, "lat": 38.934585166666665, "bike_id": "43b62fda1b557dfda0fb06f5d33645c1", "type": "electric_scooter", "is_reserved": 0, "lon": -77.02247066666666}, {"fusion_lat": 0.0, "name": "f46c2173321ed5013114c394ff792111", "is_disabled": 0, "rental_uris": {"android": "https://dc.lft.to/lastmile_qr_scan", "ios": "https://dc.lft.to/lastmile_qr_scan"}, "fusion_lon": 0.0, "lat": 38.911719, "bike_id": "f46c2173321ed5013114c394ff792111", "type": "electric_scooter", "is_reserved": 0, "lon": -77.06860916666666}, {"fusion_lat": 0.0, "name": "9b37bb76974f99e7dd742c958fb0ae21", "is_disabled": 0, "rental_uris": {"android": "https://dc.lft.to/lastmile_qr_scan", "ios": "https://dc.lft.to/lastmile_qr_scan"}, "fusion_lon": 0.0, "lat": 38.90452716666667, "bike_id": "9b37bb76974f99e7dd742c958fb0ae21", "type": "electric_scooter", "is_reserved": 0, "lon": -76.9826065}, {"fusion_lat": 0.0, "name": "a7dff66745bc1b634f311a7fde60312f", "is_disabled": 0, "rental_uris": {"android": "https://dc.lft.to/lastmile_qr_scan", "ios": "https://dc.lft.to/lastmile_qr_scan"}, "fusion_lon": 0.0, "lat": 38.926964, "bike_id": "a7dff66745bc1b634f311a7fde60312f", "type": "electric_scooter", "is_reserved": 0, "lon": -77.02129616666667}, {"fusion_lat": 0.0, "name": "89c56320cb91524f4cfb5d0c1544b765", "is_disabled": 0, "rental_uris": {"android": "https://dc.lft.to/lastmile_qr_scan", "ios": "https://dc.lft.to/lastmile_qr_scan"}, "fusion_lon": 0.0, "lat": 38.89247666666667, "bike_id": "89c56320cb91524f4cfb5d0c1544b765", "type": "electric_scooter", "is_reserved": 0, "lon": -77.03956133333334}, {"fusion_lat": 0.0, "name": "c21a246a3564dfccce9d0873d6b917c4", "is_disabled": 0, "rental_uris": {"android": "https://dc.lft.to/lastmile_qr_scan", "ios": "https://dc.lft.to/lastmile_qr_scan"}, "fusion_lon": 0.0, "lat": 38.893049, "bike_id": "c21a246a3564dfccce9d0873d6b917c4", "type": "electric_scooter", "is_reserved": 0, "lon": -77.0558815}, {"fusion_lat": 0.0, "name": "101aaada0b88cbf4bdd69ad7c4f1e1a9", "is_disabled": 0, "rental_uris": {"android": "https://dc.lft.to/lastmile_qr_scan", "ios": "https://dc.lft.to/lastmile_qr_scan"}, "fusion_lon": 0.0, "lat": 38.861388166666664, "bike_id": "101aaada0b88cbf4bdd69ad7c4f1e1a9", "type": "electric_bike", "is_reserved": 0, "lon": -76.9716925}, {"fusion_lat": 0.0, "name": "fefcf5aca31ced3d59944628d71ea0ff", "is_disabled": 0, "rental_uris": {"android": "https://dc.lft.to/lastmile_qr_scan", "ios": "https://dc.lft.to/lastmile_qr_scan"}, "fusion_lon": 0.0, "lat": 38.919923, "bike_id": "fefcf5aca31ced3d59944628d71ea0ff", "type": "electric_scooter", "is_reserved": 0, "lon": -77.03269433333334}, {"fusion_lat": 0.0, "name": "4dc00cd4880bf11205a547278726a68f", "is_disabled": 0, "rental_uris": {"android": "https://dc.lft.to/lastmile_qr_scan", "ios": "https://dc.lft.to/lastmile_qr_scan"}, "fusion_lon": 0.0, "lat": 38.94976466666667, "bike_id": "4dc00cd4880bf11205a547278726a68f", "type": "electric_scooter", "is_reserved": 0, "lon": -77.02701283333333}, {"fusion_lat": 0.0, "name": "a7f210ebb5ecffa3901732d7ed034117", "is_disabled": 0, "rental_uris": {"android": "https://dc.lft.to/lastmile_qr_scan", "ios": "https://dc.lft.to/lastmile_qr_scan"}, "fusion_lon": 0.0, "lat": 38.901651666666666, "bike_id": "a7f210ebb5ecffa3901732d7ed034117", "type": "electric_scooter", "is_reserved": 0, "lon": -77.02483483333333}, {"fusion_lat": 0.0, "name": "7335f3cc1124fe38799aec78a5484bf7", "is_disabled": 0, "rental_uris": {"android": "https://dc.lft.to/lastmile_qr_scan", "ios": "https://dc.lft.to/lastmile_qr_scan"}, "fusion_lon": 0.0, "lat": 38.91852866666667, "bike_id": "7335f3cc1124fe38799aec78a5484bf7", "type": "electric_scooter", "is_reserved": 0, "lon": -77.0457505}, {"fusion_lat": 0.0, "name": "25109469862cfb29f4927eca111ea850", "is_disabled": 0, "rental_uris": {"android": "https://dc.lft.to/lastmile_qr_scan", "ios": "https://dc.lft.to/lastmile_qr_scan"}, "fusion_lon": 0.0, "lat": 38.94224366666667, "bike_id": "25109469862cfb29f4927eca111ea850", "type": "electric_scooter", "is_reserved": 0, "lon": -77.01412416666666}, {"fusion_lat": 0.0, "name": "e7950461701c1e2ebf8f78ab936f88d8", "is_disabled": 0, "rental_uris": {"android": "https://dc.lft.to/lastmile_qr_scan", "ios": "https://dc.lft.to/lastmile_qr_scan"}, "fusion_lon": 0.0, "lat": 38.9204945, "bike_id": "e7950461701c1e2ebf8f78ab936f88d8", "type": "electric_scooter", "is_reserved": 0, "lon": -77.02376033333333}, {"fusion_lat": 0.0, "name": "583793ae65e9c5b29df4cdb5b170e949", "is_disabled": 0, "rental_uris": {"android": "https://dc.lft.to/lastmile_qr_scan", "ios": "https://dc.lft.to/lastmile_qr_scan"}, "fusion_lon": 0.0, "lat": 38.898632666666664, "bike_id": "583793ae65e9c5b29df4cdb5b170e949", "type": "electric_scooter", "is_reserved": 0, "lon": -77.02708916666667}, {"fusion_lat": 0.0, "name": "c97dc05b2ce182552cc2834221453029", "is_disabled": 0, "rental_uris": {"android": "https://dc.lft.to/lastmile_qr_scan", "ios": "https://dc.lft.to/lastmile_qr_scan"}, "fusion_lon": 0.0, "lat": 38.9300625, "bike_id": "c97dc05b2ce182552cc2834221453029", "type": "electric_scooter", "is_reserved": 0, "lon": -77.02080016666666}, {"fusion_lat": 0.0, "name": "7ed52f456135b2470e945cc3310ade28", "is_disabled": 0, "rental_uris": {"android": "https://dc.lft.to/lastmile_qr_scan", "ios": "https://dc.lft.to/lastmile_qr_scan"}, "fusion_lon": 0.0, "lat": 38.91794633333333, "bike_id": "7ed52f456135b2470e945cc3310ade28", "type": "electric_scooter", "is_reserved": 0, "lon": -77.0269915}, {"fusion_lat": 0.0, "name": "946bd95207067ff926752703c5a64b71", "is_disabled": 0, "rental_uris": {"android": "https://dc.lft.to/lastmile_qr_scan", "ios": "https://dc.lft.to/lastmile_qr_scan"}, "fusion_lon": 0.0, "lat": 38.909512166666666, "bike_id": "946bd95207067ff926752703c5a64b71", "type": "electric_scooter", "is_reserved": 0, "lon": -77.04728316666667}, {"fusion_lat": 0.0, "name": "83e8400fa13ecb35c27fd76a2b6828da", "is_disabled": 0, "rental_uris": {"android": "https://dc.lft.to/lastmile_qr_scan", "ios": "https://dc.lft.to/lastmile_qr_scan"}, "fusion_lon": 0.0, "lat": 38.900072, "bike_id": "83e8400fa13ecb35c27fd76a2b6828da", "type": "electric_scooter", "is_reserved": 0, "lon": -76.99851366666667}, {"fusion_lat": 0.0, "name": "97174fdfdbc345fd91d327a04944bf96", "is_disabled": 0, "rental_uris": {"android": "https://dc.lft.to/lastmile_qr_scan", "ios": "https://dc.lft.to/lastmile_qr_scan"}, "fusion_lon": 0.0, "lat": 38.907305, "bike_id": "97174fdfdbc345fd91d327a04944bf96", "type": "electric_scooter", "is_reserved": 0, "lon": -77.026067}, {"fusion_lat": 0.0, "name": "af7f76106f409717eb8a21dde26f5804", "is_disabled": 0, "rental_uris": {"android": "https://dc.lft.to/lastmile_qr_scan", "ios": "https://dc.lft.to/lastmile_qr_scan"}, "fusion_lon": 0.0, "lat": 38.914284, "bike_id": "af7f76106f409717eb8a21dde26f5804", "type": "electric_scooter", "is_reserved": 0, "lon": -76.98438183333333}, {"fusion_lat": 0.0, "name": "f4afb8ed67d3c90e3ec93b0f7fc32b9c", "is_disabled": 0, "rental_uris": {"android": "https://dc.lft.to/lastmile_qr_scan", "ios": "https://dc.lft.to/lastmile_qr_scan"}, "fusion_lon": 0.0, "lat": 38.904605833333335, "bike_id": "f4afb8ed67d3c90e3ec93b0f7fc32b9c", "type": "electric_scooter", "is_reserved": 0, "lon": -77.00358533333333}, {"fusion_lat": 0.0, "name": "2baf31089a9127883dbda794904844fe", "is_disabled": 0, "rental_uris": {"android": "https://dc.lft.to/lastmile_qr_scan", "ios": "https://dc.lft.to/lastmile_qr_scan"}, "fusion_lon": 0.0, "lat": 38.924783833333336, "bike_id": "2baf31089a9127883dbda794904844fe", "type": "electric_scooter", "is_reserved": 0, "lon": -77.02715316666666}, {"fusion_lat": 0.0, "name": "87684a95d44ab282c4fe9e2b7991142e", "is_disabled": 0, "rental_uris": {"android": "https://dc.lft.to/lastmile_qr_scan", "ios": "https://dc.lft.to/lastmile_qr_scan"}, "fusion_lon": 0.0, "lat": 38.9098185, "bike_id": "87684a95d44ab282c4fe9e2b7991142e", "type": "electric_scooter", "is_reserved": 0, "lon": -77.0318355}, {"fusion_lat": 0.0, "name": "d9ae9a4645060e2f106eed287d052caf", "is_disabled": 0, "rental_uris": {"android": "https://dc.lft.to/lastmile_qr_scan", "ios": "https://dc.lft.to/lastmile_qr_scan"}, "fusion_lon": 0.0, "lat": 38.8535655, "bike_id": "d9ae9a4645060e2f106eed287d052caf", "type": "electric_bike", "is_reserved": 0, "lon": -77.1150165}, {"fusion_lat": 0.0, "name": "6288a227d6f100ba5176676f497abce7", "is_disabled": 0, "rental_uris": {"android": "https://dc.lft.to/lastmile_qr_scan", "ios": "https://dc.lft.to/lastmile_qr_scan"}, "fusion_lon": 0.0, "lat": 38.9386495, "bike_id": "6288a227d6f100ba5176676f497abce7", "type": "electric_scooter", "is_reserved": 0, "lon": -77.03211716666667}, {"fusion_lat": 0.0, "name": "8359aaf49c603743a61028c407bd2cec", "is_disabled": 0, "rental_uris": {"android": "https://dc.lft.to/lastmile_qr_scan", "ios": "https://dc.lft.to/lastmile_qr_scan"}, "fusion_lon": 0.0, "lat": 38.90041383333333, "bike_id": "8359aaf49c603743a61028c407bd2cec", "type": "electric_scooter", "is_reserved": 0, "lon": -77.0447825}, {"fusion_lat": 0.0, "name": "d32779bc8ccfa60ab8f237ecbb386b11", "is_disabled": 0, "rental_uris": {"android": "https://dc.lft.to/lastmile_qr_scan", "ios": "https://dc.lft.to/lastmile_qr_scan"}, "fusion_lon": 0.0, "lat": 38.916978666666665, "bike_id": "d32779bc8ccfa60ab8f237ecbb386b11", "type": "electric_scooter", "is_reserved": 0, "lon": -77.0375185}, {"fusion_lat": 0.0, "name": "60a87268dbe49d7d9aef6539a510cc48", "is_disabled": 0, "rental_uris": {"android": "https://dc.lft.to/lastmile_qr_scan", "ios": "https://dc.lft.to/lastmile_qr_scan"}, "fusion_lon": 0.0, "lat": 38.878231666666665, "bike_id": "60a87268dbe49d7d9aef6539a510cc48", "type": "electric_scooter", "is_reserved": 0, "lon": -76.99013366666667}, {"fusion_lat": 0.0, "name": "c839aea9c8a833dbcf56f454412301a8", "is_disabled": 0, "rental_uris": {"android": "https://dc.lft.to/lastmile_qr_scan", "ios": "https://dc.lft.to/lastmile_qr_scan"}, "fusion_lon": 0.0, "lat": 39.038896333333334, "bike_id": "c839aea9c8a833dbcf56f454412301a8", "type": "electric_bike", "is_reserved": 0, "lon": -77.05021166666667}, {"fusion_lat": 0.0, "name": "d5912a316863aafdd3a4a432655b5ead", "is_disabled": 0, "rental_uris": {"android": "https://dc.lft.to/lastmile_qr_scan", "ios": "https://dc.lft.to/lastmile_qr_scan"}, "fusion_lon": 0.0, "lat": 38.905083833333336, "bike_id": "d5912a316863aafdd3a4a432655b5ead", "type": "electric_scooter", "is_reserved": 0, "lon": -77.01711233333333}, {"fusion_lat": 0.0, "name": "0fbb99e79fbedcdc647edb60fc02ac50", "is_disabled": 0, "rental_uris": {"android": "https://dc.lft.to/lastmile_qr_scan", "ios": "https://dc.lft.to/lastmile_qr_scan"}, "fusion_lon": 0.0, "lat": 38.9011705, "bike_id": "0fbb99e79fbedcdc647edb60fc02ac50", "type": "electric_scooter", "is_reserved": 0, "lon": -77.0511805}, {"fusion_lat": 0.0, "name": "9b945d10422192b3c23350738e4da72f", "is_disabled": 0, "rental_uris": {"android": "https://dc.lft.to/lastmile_qr_scan", "ios": "https://dc.lft.to/lastmile_qr_scan"}, "fusion_lon": 0.0, "lat": 38.8918015, "bike_id": "9b945d10422192b3c23350738e4da72f", "type": "electric_scooter", "is_reserved": 0, "lon": -77.02174166666667}, {"fusion_lat": 0.0, "name": "96c0d06d1aaf29adc88388fc902719f2", "is_disabled": 0, "rental_uris": {"android": "https://dc.lft.to/lastmile_qr_scan", "ios": "https://dc.lft.to/lastmile_qr_scan"}, "fusion_lon": 0.0, "lat": 38.924246333333336, "bike_id": "96c0d06d1aaf29adc88388fc902719f2", "type": "electric_scooter", "is_reserved": 0, "lon": -76.98595466666667}, {"fusion_lat": 0.0, "name": "192e8aaba1e91df5d228900cdd1cf3f1", "is_disabled": 0, "rental_uris": {"android": "https://dc.lft.to/lastmile_qr_scan", "ios": "https://dc.lft.to/lastmile_qr_scan"}, "fusion_lon": 0.0, "lat": 38.882549166666664, "bike_id": "192e8aaba1e91df5d228900cdd1cf3f1", "type": "electric_scooter", "is_reserved": 0, "lon": -76.99034216666666}, {"fusion_lat": 0.0, "name": "5771d09c448dc7114e89801a13a1ab12", "is_disabled": 0, "rental_uris": {"android": "https://dc.lft.to/lastmile_qr_scan", "ios": "https://dc.lft.to/lastmile_qr_scan"}, "fusion_lon": 0.0, "lat": 38.88872516666667, "bike_id": "5771d09c448dc7114e89801a13a1ab12", "type": "electric_scooter", "is_reserved": 0, "lon": -76.98450666666666}, {"fusion_lat": 0.0, "name": "335240ec23fbec2d045a727788b5162d", "is_disabled": 0, "rental_uris": {"android": "https://dc.lft.to/lastmile_qr_scan", "ios": "https://dc.lft.to/lastmile_qr_scan"}, "fusion_lon": 0.0, "lat": 38.8922635, "bike_id": "335240ec23fbec2d045a727788b5162d", "type": "electric_scooter", "is_reserved": 0, "lon": -77.04637616666666}, {"fusion_lat": 0.0, "name": "a439b41b9a112c6bba79b3e4f967b00a", "is_disabled": 0, "rental_uris": {"android": "https://dc.lft.to/lastmile_qr_scan", "ios": "https://dc.lft.to/lastmile_qr_scan"}, "fusion_lon": 0.0, "lat": 38.8947855, "bike_id": "a439b41b9a112c6bba79b3e4f967b00a", "type": "electric_scooter", "is_reserved": 0, "lon": -76.9974025}, {"fusion_lat": 0.0, "name": "f96228af76c2a8440c2e2e2320cf40a3", "is_disabled": 0, "rental_uris": {"android": "https://dc.lft.to/lastmile_qr_scan", "ios": "https://dc.lft.to/lastmile_qr_scan"}, "fusion_lon": 0.0, "lat": 38.8765605, "bike_id": "f96228af76c2a8440c2e2e2320cf40a3", "type": "electric_scooter", "is_reserved": 0, "lon": -77.00909916666667}, {"fusion_lat": 0.0, "name": "356b63786791d93bb6985625005730c0", "is_disabled": 0, "rental_uris": {"android": "https://dc.lft.to/lastmile_qr_scan", "ios": "https://dc.lft.to/lastmile_qr_scan"}, "fusion_lon": 0.0, "lat": 38.914775666666664, "bike_id": "356b63786791d93bb6985625005730c0", "type": "electric_scooter", "is_reserved": 0, "lon": -77.0319485}, {"fusion_lat": 0.0, "name": "30b12ae13bc44ebf72f036481973ce6a", "is_disabled": 0, "rental_uris": {"android": "https://dc.lft.to/lastmile_qr_scan", "ios": "https://dc.lft.to/lastmile_qr_scan"}, "fusion_lon": 0.0, "lat": 38.887450333333334, "bike_id": "30b12ae13bc44ebf72f036481973ce6a", "type": "electric_scooter", "is_reserved": 0, "lon": -77.03149666666667}, {"fusion_lat": 0.0, "name": "1b1c39601f973bf71067b52c39c016fe", "is_disabled": 0, "rental_uris": {"android": "https://dc.lft.to/lastmile_qr_scan", "ios": "https://dc.lft.to/lastmile_qr_scan"}, "fusion_lon": 0.0, "lat": 38.907767166666666, "bike_id": "1b1c39601f973bf71067b52c39c016fe", "type": "electric_scooter", "is_reserved": 0, "lon": -77.01862883333334}, {"fusion_lat": 0.0, "name": "0f92fadd83c4d64a5a9d202f39d876da", "is_disabled": 0, "rental_uris": {"android": "https://dc.lft.to/lastmile_qr_scan", "ios": "https://dc.lft.to/lastmile_qr_scan"}, "fusion_lon": 0.0, "lat": 38.9133505, "bike_id": "0f92fadd83c4d64a5a9d202f39d876da", "type": "electric_scooter", "is_reserved": 0, "lon": -77.04285}, {"fusion_lat": 0.0, "name": "b56d3562ecfc0ecaa5388c967adea246", "is_disabled": 0, "rental_uris": {"android": "https://dc.lft.to/lastmile_qr_scan", "ios": "https://dc.lft.to/lastmile_qr_scan"}, "fusion_lon": 0.0, "lat": 38.9171045, "bike_id": "b56d3562ecfc0ecaa5388c967adea246", "type": "electric_scooter", "is_reserved": 0, "lon": -77.030163}, {"fusion_lat": 0.0, "name": "b49ca315708ac78c4d1a0b550c2b3a3b", "is_disabled": 0, "rental_uris": {"android": "https://dc.lft.to/lastmile_qr_scan", "ios": "https://dc.lft.to/lastmile_qr_scan"}, "fusion_lon": 0.0, "lat": 38.922586833333334, "bike_id": "b49ca315708ac78c4d1a0b550c2b3a3b", "type": "electric_scooter", "is_reserved": 0, "lon": -77.03658666666666}, {"fusion_lat": 0.0, "name": "700c03ec473890abd00784a561f3a61c", "is_disabled": 0, "rental_uris": {"android": "https://dc.lft.to/lastmile_qr_scan", "ios": "https://dc.lft.to/lastmile_qr_scan"}, "fusion_lon": 0.0, "lat": 38.95879933333333, "bike_id": "700c03ec473890abd00784a561f3a61c", "type": "electric_scooter", "is_reserved": 0, "lon": -77.011688}, {"fusion_lat": 0.0, "name": "4b2c16d5373e94fa79aa6e8e5367fb0a", "is_disabled": 0, "rental_uris": {"android": "https://dc.lft.to/lastmile_qr_scan", "ios": "https://dc.lft.to/lastmile_qr_scan"}, "fusion_lon": 0.0, "lat": 38.91495, "bike_id": "4b2c16d5373e94fa79aa6e8e5367fb0a", "type": "electric_scooter", "is_reserved": 0, "lon": -77.04157333333333}, {"fusion_lat": 0.0, "name": "e5b1622e18ff7958a015283c29ca1204", "is_disabled": 0, "rental_uris": {"android": "https://dc.lft.to/lastmile_qr_scan", "ios": "https://dc.lft.to/lastmile_qr_scan"}, "fusion_lon": 0.0, "lat": 38.907137, "bike_id": "e5b1622e18ff7958a015283c29ca1204", "type": "electric_scooter", "is_reserved": 0, "lon": -77.02889816666666}, {"fusion_lat": 0.0, "name": "f21241fdbe36a227f60e0c3b8099a7c5", "is_disabled": 0, "rental_uris": {"android": "https://dc.lft.to/lastmile_qr_scan", "ios": "https://dc.lft.to/lastmile_qr_scan"}, "fusion_lon": 0.0, "lat": 38.92315766666667, "bike_id": "f21241fdbe36a227f60e0c3b8099a7c5", "type": "electric_scooter", "is_reserved": 0, "lon": -77.0203825}, {"fusion_lat": 0.0, "name": "29b86f3cf57bfbfbbd032ed0c0dedcf4", "is_disabled": 0, "rental_uris": {"android": "https://dc.lft.to/lastmile_qr_scan", "ios": "https://dc.lft.to/lastmile_qr_scan"}, "fusion_lon": 0.0, "lat": 38.91817366666667, "bike_id": "29b86f3cf57bfbfbbd032ed0c0dedcf4", "type": "electric_scooter", "is_reserved": 0, "lon": -77.02488716666667}, {"fusion_lat": 0.0, "name": "044b998dc72bcd36899acb6c4d10b384", "is_disabled": 0, "rental_uris": {"android": "https://dc.lft.to/lastmile_qr_scan", "ios": "https://dc.lft.to/lastmile_qr_scan"}, "fusion_lon": 0.0, "lat": 38.929274666666664, "bike_id": "044b998dc72bcd36899acb6c4d10b384", "type": "electric_scooter", "is_reserved": 0, "lon": -77.02337933333334}, {"fusion_lat": 0.0, "name": "638f8e54a066e9e4459ad1074a3a2501", "is_disabled": 0, "rental_uris": {"android": "https://dc.lft.to/lastmile_qr_scan", "ios": "https://dc.lft.to/lastmile_qr_scan"}, "fusion_lon": 0.0, "lat": 38.86013466666667, "bike_id": "638f8e54a066e9e4459ad1074a3a2501", "type": "electric_bike", "is_reserved": 0, "lon": -77.12809183333333}, {"fusion_lat": 0.0, "name": "4fb18cb3de837c6359310f98f470d2b7", "is_disabled": 0, "rental_uris": {"android": "https://dc.lft.to/lastmile_qr_scan", "ios": "https://dc.lft.to/lastmile_qr_scan"}, "fusion_lon": 0.0, "lat": 38.93076933333333, "bike_id": "4fb18cb3de837c6359310f98f470d2b7", "type": "electric_scooter", "is_reserved": 0, "lon": -77.07767483333333}, {"fusion_lat": 0.0, "name": "309a0de60d3a5df52495060769acbca0", "is_disabled": 0, "rental_uris": {"android": "https://dc.lft.to/lastmile_qr_scan", "ios": "https://dc.lft.to/lastmile_qr_scan"}, "fusion_lon": 0.0, "lat": 38.90808533333333, "bike_id": "309a0de60d3a5df52495060769acbca0", "type": "electric_scooter", "is_reserved": 0, "lon": -77.03433716666666}, {"fusion_lat": 0.0, "name": "d5a458b238c7ef3a30d0f920859a77de", "is_disabled": 0, "rental_uris": {"android": "https://dc.lft.to/lastmile_qr_scan", "ios": "https://dc.lft.to/lastmile_qr_scan"}, "fusion_lon": 0.0, "lat": 38.903931666666665, "bike_id": "d5a458b238c7ef3a30d0f920859a77de", "type": "electric_scooter", "is_reserved": 0, "lon": -76.9900995}, {"fusion_lat": 0.0, "name": "622f8d09086c10593d045f894b57ad0d", "is_disabled": 0, "rental_uris": {"android": "https://dc.lft.to/lastmile_qr_scan", "ios": "https://dc.lft.to/lastmile_qr_scan"}, "fusion_lon": 0.0, "lat": 38.90724266666667, "bike_id": "622f8d09086c10593d045f894b57ad0d", "type": "electric_scooter", "is_reserved": 0, "lon": -77.01228933333333}, {"fusion_lat": 0.0, "name": "b1fbef60c7c72c7295f857a6cf586eab", "is_disabled": 0, "rental_uris": {"android": "https://dc.lft.to/lastmile_qr_scan", "ios": "https://dc.lft.to/lastmile_qr_scan"}, "fusion_lon": 0.0, "lat": 38.95231733333333, "bike_id": "b1fbef60c7c72c7295f857a6cf586eab", "type": "electric_scooter", "is_reserved": 0, "lon": -76.99011533333334}, {"fusion_lat": 0.0, "name": "a9c5e755723ac557a0c1b9ae06fb151e", "is_disabled": 0, "rental_uris": {"android": "https://dc.lft.to/lastmile_qr_scan", "ios": "https://dc.lft.to/lastmile_qr_scan"}, "fusion_lon": 0.0, "lat": 38.9260075, "bike_id": "a9c5e755723ac557a0c1b9ae06fb151e", "type": "electric_scooter", "is_reserved": 0, "lon": -77.02155466666666}, {"fusion_lat": 0.0, "name": "7f5f6ce0b0c19f42d6924901d0b47e45", "is_disabled": 0, "rental_uris": {"android": "https://dc.lft.to/lastmile_qr_scan", "ios": "https://dc.lft.to/lastmile_qr_scan"}, "fusion_lon": 0.0, "lat": 38.921464666666665, "bike_id": "7f5f6ce0b0c19f42d6924901d0b47e45", "type": "electric_scooter", "is_reserved": 0, "lon": -77.033577}, {"fusion_lat": 0.0, "name": "46839e7b089a480d367842b616d53717", "is_disabled": 0, "rental_uris": {"android": "https://dc.lft.to/lastmile_qr_scan", "ios": "https://dc.lft.to/lastmile_qr_scan"}, "fusion_lon": 0.0, "lat": 38.9352075, "bike_id": "46839e7b089a480d367842b616d53717", "type": "electric_scooter", "is_reserved": 0, "lon": -77.03263333333334}, {"fusion_lat": 0.0, "name": "e30e12698b6c2dab7860c79808fa4660", "is_disabled": 0, "rental_uris": {"android": "https://dc.lft.to/lastmile_qr_scan", "ios": "https://dc.lft.to/lastmile_qr_scan"}, "fusion_lon": 0.0, "lat": 38.90408566666667, "bike_id": "e30e12698b6c2dab7860c79808fa4660", "type": "electric_scooter", "is_reserved": 0, "lon": -76.973323}, {"fusion_lat": 0.0, "name": "8ef8bbbcc605f6411fc2321951a376ef", "is_disabled": 0, "rental_uris": {"android": "https://dc.lft.to/lastmile_qr_scan", "ios": "https://dc.lft.to/lastmile_qr_scan"}, "fusion_lon": 0.0, "lat": 38.902538166666666, "bike_id": "8ef8bbbcc605f6411fc2321951a376ef", "type": "electric_scooter", "is_reserved": 0, "lon": -76.974562}, {"fusion_lat": 0.0, "name": "a8208b5ee32b7fa9d95edd6210b2e699", "is_disabled": 0, "rental_uris": {"android": "https://dc.lft.to/lastmile_qr_scan", "ios": "https://dc.lft.to/lastmile_qr_scan"}, "fusion_lon": 0.0, "lat": 38.96628066666667, "bike_id": "a8208b5ee32b7fa9d95edd6210b2e699", "type": "electric_scooter", "is_reserved": 0, "lon": -77.0199675}, {"fusion_lat": 0.0, "name": "8ebd02dcc12c029256394f7eb8e480d1", "is_disabled": 0, "rental_uris": {"android": "https://dc.lft.to/lastmile_qr_scan", "ios": "https://dc.lft.to/lastmile_qr_scan"}, "fusion_lon": 0.0, "lat": 38.896905833333335, "bike_id": "8ebd02dcc12c029256394f7eb8e480d1", "type": "electric_scooter", "is_reserved": 0, "lon": -77.043291}, {"fusion_lat": 0.0, "name": "367a8cc53b629ddd8cc13e72076a8e75", "is_disabled": 0, "rental_uris": {"android": "https://dc.lft.to/lastmile_qr_scan", "ios": "https://dc.lft.to/lastmile_qr_scan"}, "fusion_lon": 0.0, "lat": 38.8811465, "bike_id": "367a8cc53b629ddd8cc13e72076a8e75", "type": "electric_scooter", "is_reserved": 0, "lon": -77.01654166666667}, {"fusion_lat": 0.0, "name": "c575a87b22a4d62e1503a2958c4c5562", "is_disabled": 0, "rental_uris": {"android": "https://dc.lft.to/lastmile_qr_scan", "ios": "https://dc.lft.to/lastmile_qr_scan"}, "fusion_lon": 0.0, "lat": 38.900181, "bike_id": "c575a87b22a4d62e1503a2958c4c5562", "type": "electric_scooter", "is_reserved": 0, "lon": -76.98852316666667}, {"fusion_lat": 0.0, "name": "7691a7a585132e50605029627f415dc6", "is_disabled": 0, "rental_uris": {"android": "https://dc.lft.to/lastmile_qr_scan", "ios": "https://dc.lft.to/lastmile_qr_scan"}, "fusion_lon": 0.0, "lat": 38.920752666666665, "bike_id": "7691a7a585132e50605029627f415dc6", "type": "electric_scooter", "is_reserved": 0, "lon": -77.00446166666667}, {"fusion_lat": 0.0, "name": "bd9c57df6d1bebabeb2f597f7d43fa1e", "is_disabled": 0, "rental_uris": {"android": "https://dc.lft.to/lastmile_qr_scan", "ios": "https://dc.lft.to/lastmile_qr_scan"}, "fusion_lon": 0.0, "lat": 38.933798, "bike_id": "bd9c57df6d1bebabeb2f597f7d43fa1e", "type": "electric_scooter", "is_reserved": 0, "lon": -77.03883333333333}, {"fusion_lat": 0.0, "name": "d7bfaf113cff80339b15a28593dffbd9", "is_disabled": 0, "rental_uris": {"android": "https://dc.lft.to/lastmile_qr_scan", "ios": "https://dc.lft.to/lastmile_qr_scan"}, "fusion_lon": 0.0, "lat": 38.916175333333335, "bike_id": "d7bfaf113cff80339b15a28593dffbd9", "type": "electric_scooter", "is_reserved": 0, "lon": -77.03647916666667}, {"fusion_lat": 0.0, "name": "da6a9add1fec538ec8b095aa5861d8b4", "is_disabled": 0, "rental_uris": {"android": "https://dc.lft.to/lastmile_qr_scan", "ios": "https://dc.lft.to/lastmile_qr_scan"}, "fusion_lon": 0.0, "lat": 38.90384733333333, "bike_id": "da6a9add1fec538ec8b095aa5861d8b4", "type": "electric_scooter", "is_reserved": 0, "lon": -77.04591733333334}, {"fusion_lat": 0.0, "name": "8ff589afc6db974dde3f6415ebe6645a", "is_disabled": 0, "rental_uris": {"android": "https://dc.lft.to/lastmile_qr_scan", "ios": "https://dc.lft.to/lastmile_qr_scan"}, "fusion_lon": 0.0, "lat": 38.91953083333333, "bike_id": "8ff589afc6db974dde3f6415ebe6645a", "type": "electric_scooter", "is_reserved": 0, "lon": -77.03196683333333}, {"fusion_lat": 0.0, "name": "1cac2913be6de972b14c72436c5dedab", "is_disabled": 0, "rental_uris": {"android": "https://dc.lft.to/lastmile_qr_scan", "ios": "https://dc.lft.to/lastmile_qr_scan"}, "fusion_lon": 0.0, "lat": 38.87482333333333, "bike_id": "1cac2913be6de972b14c72436c5dedab", "type": "electric_scooter", "is_reserved": 0, "lon": -77.00047016666667}, {"fusion_lat": 0.0, "name": "f927bf81dc9eece58978460166f3fd33", "is_disabled": 0, "rental_uris": {"android": "https://dc.lft.to/lastmile_qr_scan", "ios": "https://dc.lft.to/lastmile_qr_scan"}, "fusion_lon": 0.0, "lat": 38.88306933333333, "bike_id": "f927bf81dc9eece58978460166f3fd33", "type": "electric_scooter", "is_reserved": 0, "lon": -76.99487716666667}, {"fusion_lat": 0.0, "name": "4e8d98251e09c451d56a46a93a7ff62a", "is_disabled": 0, "rental_uris": {"android": "https://dc.lft.to/lastmile_qr_scan", "ios": "https://dc.lft.to/lastmile_qr_scan"}, "fusion_lon": 0.0, "lat": 38.898802333333336, "bike_id": "4e8d98251e09c451d56a46a93a7ff62a", "type": "electric_scooter", "is_reserved": 0, "lon": -77.026025}, {"fusion_lat": 0.0, "name": "fbd0faaefdffa4cdedf0287c3dd807e1", "is_disabled": 0, "rental_uris": {"android": "https://dc.lft.to/lastmile_qr_scan", "ios": "https://dc.lft.to/lastmile_qr_scan"}, "fusion_lon": 0.0, "lat": 38.9022215, "bike_id": "fbd0faaefdffa4cdedf0287c3dd807e1", "type": "electric_scooter", "is_reserved": 0, "lon": -77.02306766666666}, {"fusion_lat": 0.0, "name": "6758bf80be3657b2564752e8b590ee63", "is_disabled": 0, "rental_uris": {"android": "https://dc.lft.to/lastmile_qr_scan", "ios": "https://dc.lft.to/lastmile_qr_scan"}, "fusion_lon": 0.0, "lat": 38.93857783333333, "bike_id": "6758bf80be3657b2564752e8b590ee63", "type": "electric_scooter", "is_reserved": 0, "lon": -77.0245795}, {"fusion_lat": 0.0, "name": "d158a4e02f400627ef774620550262da", "is_disabled": 0, "rental_uris": {"android": "https://dc.lft.to/lastmile_qr_scan", "ios": "https://dc.lft.to/lastmile_qr_scan"}, "fusion_lon": 0.0, "lat": 38.93810083333334, "bike_id": "d158a4e02f400627ef774620550262da", "type": "electric_scooter", "is_reserved": 0, "lon": -77.06021933333334}, {"fusion_lat": 0.0, "name": "10d0bb6299d6bafba36b29f504568d78", "is_disabled": 0, "rental_uris": {"android": "https://dc.lft.to/lastmile_qr_scan", "ios": "https://dc.lft.to/lastmile_qr_scan"}, "fusion_lon": 0.0, "lat": 38.923178666666665, "bike_id": "10d0bb6299d6bafba36b29f504568d78", "type": "electric_scooter", "is_reserved": 0, "lon": -77.05609783333334}, {"fusion_lat": 0.0, "name": "30d68cc8b6d40d315b7b5bc375e4f8ee", "is_disabled": 0, "rental_uris": {"android": "https://dc.lft.to/lastmile_qr_scan", "ios": "https://dc.lft.to/lastmile_qr_scan"}, "fusion_lon": 0.0, "lat": 38.94065166666667, "bike_id": "30d68cc8b6d40d315b7b5bc375e4f8ee", "type": "electric_bike", "is_reserved": 0, "lon": -76.9946205}, {"fusion_lat": 0.0, "name": "23288bb249fabebc3e0ff7174247236d", "is_disabled": 0, "rental_uris": {"android": "https://dc.lft.to/lastmile_qr_scan", "ios": "https://dc.lft.to/lastmile_qr_scan"}, "fusion_lon": 0.0, "lat": 38.93093316666667, "bike_id": "23288bb249fabebc3e0ff7174247236d", "type": "electric_scooter", "is_reserved": 0, "lon": -77.02548433333334}, {"fusion_lat": 0.0, "name": "8ab7587bd6a7376da43a36321d893ddf", "is_disabled": 0, "rental_uris": {"android": "https://dc.lft.to/lastmile_qr_scan", "ios": "https://dc.lft.to/lastmile_qr_scan"}, "fusion_lon": 0.0, "lat": 38.92234116666667, "bike_id": "8ab7587bd6a7376da43a36321d893ddf", "type": "electric_scooter", "is_reserved": 0, "lon": -77.04253516666667}, {"fusion_lat": 0.0, "name": "dff5b58915deb635aae9a0d6e056e982", "is_disabled": 0, "rental_uris": {"android": "https://dc.lft.to/lastmile_qr_scan", "ios": "https://dc.lft.to/lastmile_qr_scan"}, "fusion_lon": 0.0, "lat": 38.887260166666664, "bike_id": "dff5b58915deb635aae9a0d6e056e982", "type": "electric_scooter", "is_reserved": 0, "lon": -77.017534}, {"fusion_lat": 0.0, "name": "6ce5afaa911f5985530091733a0e3bbc", "is_disabled": 0, "rental_uris": {"android": "https://dc.lft.to/lastmile_qr_scan", "ios": "https://dc.lft.to/lastmile_qr_scan"}, "fusion_lon": 0.0, "lat": 38.897482333333336, "bike_id": "6ce5afaa911f5985530091733a0e3bbc", "type": "electric_scooter", "is_reserved": 0, "lon": -77.02717933333334}, {"fusion_lat": 0.0, "name": "51c138c2d1407d3d6be283fc63d2dfab", "is_disabled": 0, "rental_uris": {"android": "https://dc.lft.to/lastmile_qr_scan", "ios": "https://dc.lft.to/lastmile_qr_scan"}, "fusion_lon": 0.0, "lat": 38.8651585, "bike_id": "51c138c2d1407d3d6be283fc63d2dfab", "type": "electric_bike", "is_reserved": 0, "lon": -77.12941733333334}, {"fusion_lat": 0.0, "name": "d1ec5cdf912f7a988e354f3e5b14cba7", "is_disabled": 0, "rental_uris": {"android": "https://dc.lft.to/lastmile_qr_scan", "ios": "https://dc.lft.to/lastmile_qr_scan"}, "fusion_lon": 0.0, "lat": 38.9049845, "bike_id": "d1ec5cdf912f7a988e354f3e5b14cba7", "type": "electric_scooter", "is_reserved": 0, "lon": -76.996825}, {"fusion_lat": 0.0, "name": "50c42a4c4ec8d2b1cbd4f9364e2d9919", "is_disabled": 0, "rental_uris": {"android": "https://dc.lft.to/lastmile_qr_scan", "ios": "https://dc.lft.to/lastmile_qr_scan"}, "fusion_lon": 0.0, "lat": 38.90206383333334, "bike_id": "50c42a4c4ec8d2b1cbd4f9364e2d9919", "type": "electric_scooter", "is_reserved": 0, "lon": -76.99508616666667}, {"fusion_lat": 0.0, "name": "386dc4c97394da8c03709196063cf3bc", "is_disabled": 0, "rental_uris": {"android": "https://dc.lft.to/lastmile_qr_scan", "ios": "https://dc.lft.to/lastmile_qr_scan"}, "fusion_lon": 0.0, "lat": 38.932441, "bike_id": "386dc4c97394da8c03709196063cf3bc", "type": "electric_scooter", "is_reserved": 0, "lon": -77.03882416666667}, {"fusion_lat": 0.0, "name": "f9d92714fe5d33d1c5a52504840973ba", "is_disabled": 0, "rental_uris": {"android": "https://dc.lft.to/lastmile_qr_scan", "ios": "https://dc.lft.to/lastmile_qr_scan"}, "fusion_lon": 0.0, "lat": 38.8746555, "bike_id": "f9d92714fe5d33d1c5a52504840973ba", "type": "electric_scooter", "is_reserved": 0, "lon": -77.016981}, {"fusion_lat": 0.0, "name": "91b44a9c02a3f1f406649cf627cb1668", "is_disabled": 0, "rental_uris": {"android": "https://dc.lft.to/lastmile_qr_scan", "ios": "https://dc.lft.to/lastmile_qr_scan"}, "fusion_lon": 0.0, "lat": 38.9090305, "bike_id": "91b44a9c02a3f1f406649cf627cb1668", "type": "electric_scooter", "is_reserved": 0, "lon": -77.04206216666667}, {"fusion_lat": 0.0, "name": "296415b14252259e95111fec06c20612", "is_disabled": 0, "rental_uris": {"android": "https://dc.lft.to/lastmile_qr_scan", "ios": "https://dc.lft.to/lastmile_qr_scan"}, "fusion_lon": 0.0, "lat": 38.92734766666667, "bike_id": "296415b14252259e95111fec06c20612", "type": "electric_scooter", "is_reserved": 0, "lon": -77.02711933333333}, {"fusion_lat": 0.0, "name": "89bc2888c6d87af6e9228c480818db03", "is_disabled": 0, "rental_uris": {"android": "https://dc.lft.to/lastmile_qr_scan", "ios": "https://dc.lft.to/lastmile_qr_scan"}, "fusion_lon": 0.0, "lat": 38.94616166666667, "bike_id": "89bc2888c6d87af6e9228c480818db03", "type": "electric_scooter", "is_reserved": 0, "lon": -77.0802275}, {"fusion_lat": 0.0, "name": "23c998d2b6e645b68389729f616846e3", "is_disabled": 0, "rental_uris": {"android": "https://dc.lft.to/lastmile_qr_scan", "ios": "https://dc.lft.to/lastmile_qr_scan"}, "fusion_lon": 0.0, "lat": 38.90532483333333, "bike_id": "23c998d2b6e645b68389729f616846e3", "type": "electric_scooter", "is_reserved": 0, "lon": -77.0596985}, {"fusion_lat": 0.0, "name": "a85a83cafec0452726c0baf26102cf83", "is_disabled": 0, "rental_uris": {"android": "https://dc.lft.to/lastmile_qr_scan", "ios": "https://dc.lft.to/lastmile_qr_scan"}, "fusion_lon": 0.0, "lat": 38.843553166666666, "bike_id": "a85a83cafec0452726c0baf26102cf83", "type": "electric_bike", "is_reserved": 0, "lon": -76.978265}, {"fusion_lat": 0.0, "name": "93338e5ad4365822e6348d34d5e4e2d2", "is_disabled": 0, "rental_uris": {"android": "https://dc.lft.to/lastmile_qr_scan", "ios": "https://dc.lft.to/lastmile_qr_scan"}, "fusion_lon": 0.0, "lat": 38.911723, "bike_id": "93338e5ad4365822e6348d34d5e4e2d2", "type": "electric_bike", "is_reserved": 0, "lon": -77.00261783333333}, {"fusion_lat": 0.0, "name": "67f56a847c791090d5f9b3532bfba2df", "is_disabled": 0, "rental_uris": {"android": "https://dc.lft.to/lastmile_qr_scan", "ios": "https://dc.lft.to/lastmile_qr_scan"}, "fusion_lon": 0.0, "lat": 38.921339333333336, "bike_id": "67f56a847c791090d5f9b3532bfba2df", "type": "electric_bike", "is_reserved": 0, "lon": -77.01218733333333}, {"fusion_lat": 0.0, "name": "4cc9c254c956274d0a850634d9d1e3aa", "is_disabled": 0, "rental_uris": {"android": "https://dc.lft.to/lastmile_qr_scan", "ios": "https://dc.lft.to/lastmile_qr_scan"}, "fusion_lon": 0.0, "lat": 38.91249666666667, "bike_id": "4cc9c254c956274d0a850634d9d1e3aa", "type": "electric_scooter", "is_reserved": 0, "lon": -77.038653}, {"fusion_lat": 0.0, "name": "abd2909575630521bb71cf56560af478", "is_disabled": 0, "rental_uris": {"android": "https://dc.lft.to/lastmile_qr_scan", "ios": "https://dc.lft.to/lastmile_qr_scan"}, "fusion_lon": 0.0, "lat": 38.8836235, "bike_id": "abd2909575630521bb71cf56560af478", "type": "electric_scooter", "is_reserved": 0, "lon": -76.94154283333333}, {"fusion_lat": 0.0, "name": "56aacb51b1efd49812907f2f1ac7018e", "is_disabled": 0, "rental_uris": {"android": "https://dc.lft.to/lastmile_qr_scan", "ios": "https://dc.lft.to/lastmile_qr_scan"}, "fusion_lon": 0.0, "lat": 38.91258666666667, "bike_id": "56aacb51b1efd49812907f2f1ac7018e", "type": "electric_scooter", "is_reserved": 0, "lon": -77.022587}, {"fusion_lat": 0.0, "name": "2c6bd1389cd34a62b45b3d55dee9695b", "is_disabled": 0, "rental_uris": {"android": "https://dc.lft.to/lastmile_qr_scan", "ios": "https://dc.lft.to/lastmile_qr_scan"}, "fusion_lon": 0.0, "lat": 38.94498566666667, "bike_id": "2c6bd1389cd34a62b45b3d55dee9695b", "type": "electric_scooter", "is_reserved": 0, "lon": -77.03145266666667}, {"fusion_lat": 0.0, "name": "3d24776bb803e37c17f12886953daea2", "is_disabled": 0, "rental_uris": {"android": "https://dc.lft.to/lastmile_qr_scan", "ios": "https://dc.lft.to/lastmile_qr_scan"}, "fusion_lon": 0.0, "lat": 38.877025833333335, "bike_id": "3d24776bb803e37c17f12886953daea2", "type": "electric_scooter", "is_reserved": 0, "lon": -77.00342433333333}, {"fusion_lat": 0.0, "name": "98aa742fb9be3a5b05c3fc5baca431d9", "is_disabled": 0, "rental_uris": {"android": "https://dc.lft.to/lastmile_qr_scan", "ios": "https://dc.lft.to/lastmile_qr_scan"}, "fusion_lon": 0.0, "lat": 38.91933733333333, "bike_id": "98aa742fb9be3a5b05c3fc5baca431d9", "type": "electric_scooter", "is_reserved": 0, "lon": -77.023099}, {"fusion_lat": 0.0, "name": "527ebf4a62508ecedec191f0c8b079ba", "is_disabled": 0, "rental_uris": {"android": "https://dc.lft.to/lastmile_qr_scan", "ios": "https://dc.lft.to/lastmile_qr_scan"}, "fusion_lon": 0.0, "lat": 38.962247, "bike_id": "527ebf4a62508ecedec191f0c8b079ba", "type": "electric_bike", "is_reserved": 0, "lon": -77.0262395}, {"fusion_lat": 0.0, "name": "65d68e5d58b5a0f833ad9a0259036f24", "is_disabled": 0, "rental_uris": {"android": "https://dc.lft.to/lastmile_qr_scan", "ios": "https://dc.lft.to/lastmile_qr_scan"}, "fusion_lon": 0.0, "lat": 38.925392, "bike_id": "65d68e5d58b5a0f833ad9a0259036f24", "type": "electric_scooter", "is_reserved": 0, "lon": -77.05118083333333}, {"fusion_lat": 0.0, "name": "63b77d4e0a8aad499dba08d028fac464", "is_disabled": 0, "rental_uris": {"android": "https://dc.lft.to/lastmile_qr_scan", "ios": "https://dc.lft.to/lastmile_qr_scan"}, "fusion_lon": 0.0, "lat": 38.865140833333335, "bike_id": "63b77d4e0a8aad499dba08d028fac464", "type": "electric_bike", "is_reserved": 0, "lon": -76.97332183333333}, {"fusion_lat": 0.0, "name": "cb59933571cd402935624d5a23efbbfa", "is_disabled": 0, "rental_uris": {"android": "https://dc.lft.to/lastmile_qr_scan", "ios": "https://dc.lft.to/lastmile_qr_scan"}, "fusion_lon": 0.0, "lat": 38.93363166666666, "bike_id": "cb59933571cd402935624d5a23efbbfa", "type": "electric_scooter", "is_reserved": 0, "lon": -77.032652}, {"fusion_lat": 0.0, "name": "4b38d2f042c45d1384ead17f4022fa77", "is_disabled": 0, "rental_uris": {"android": "https://dc.lft.to/lastmile_qr_scan", "ios": "https://dc.lft.to/lastmile_qr_scan"}, "fusion_lon": 0.0, "lat": 38.92649383333333, "bike_id": "4b38d2f042c45d1384ead17f4022fa77", "type": "electric_scooter", "is_reserved": 0, "lon": -77.03715483333333}, {"fusion_lat": 0.0, "name": "6b2d65a0466d6832b90e0231c31fd6bc", "is_disabled": 0, "rental_uris": {"android": "https://dc.lft.to/lastmile_qr_scan", "ios": "https://dc.lft.to/lastmile_qr_scan"}, "fusion_lon": 0.0, "lat": 38.928659333333336, "bike_id": "6b2d65a0466d6832b90e0231c31fd6bc", "type": "electric_scooter", "is_reserved": 0, "lon": -77.034764}, {"fusion_lat": 0.0, "name": "5273637b4fb7642272d6087a135b3970", "is_disabled": 0, "rental_uris": {"android": "https://dc.lft.to/lastmile_qr_scan", "ios": "https://dc.lft.to/lastmile_qr_scan"}, "fusion_lon": 0.0, "lat": 38.903585166666666, "bike_id": "5273637b4fb7642272d6087a135b3970", "type": "electric_scooter", "is_reserved": 0, "lon": -77.06268633333333}, {"fusion_lat": 0.0, "name": "125dada06d0430d6579d8e94d2087718", "is_disabled": 0, "rental_uris": {"android": "https://dc.lft.to/lastmile_qr_scan", "ios": "https://dc.lft.to/lastmile_qr_scan"}, "fusion_lon": 0.0, "lat": 38.914064, "bike_id": "125dada06d0430d6579d8e94d2087718", "type": "electric_scooter", "is_reserved": 0, "lon": -77.03144183333333}, {"fusion_lat": 0.0, "name": "7ed90b6ffc3e024e40a4bf644eff6171", "is_disabled": 0, "rental_uris": {"android": "https://dc.lft.to/lastmile_qr_scan", "ios": "https://dc.lft.to/lastmile_qr_scan"}, "fusion_lon": 0.0, "lat": 38.938788833333334, "bike_id": "7ed90b6ffc3e024e40a4bf644eff6171", "type": "electric_scooter", "is_reserved": 0, "lon": -77.02470266666667}, {"fusion_lat": 0.0, "name": "5c1ca9bef2a6af44f0fa41f54b2548f6", "is_disabled": 0, "rental_uris": {"android": "https://dc.lft.to/lastmile_qr_scan", "ios": "https://dc.lft.to/lastmile_qr_scan"}, "fusion_lon": 0.0, "lat": 38.9674745, "bike_id": "5c1ca9bef2a6af44f0fa41f54b2548f6", "type": "electric_bike", "is_reserved": 0, "lon": -77.03357983333333}, {"fusion_lat": 0.0, "name": "a680e31b72de6e4a7c0f98765ebd50d0", "is_disabled": 0, "rental_uris": {"android": "https://dc.lft.to/lastmile_qr_scan", "ios": "https://dc.lft.to/lastmile_qr_scan"}, "fusion_lon": 0.0, "lat": 38.915582, "bike_id": "a680e31b72de6e4a7c0f98765ebd50d0", "type": "electric_scooter", "is_reserved": 0, "lon": -77.0317315}, {"fusion_lat": 0.0, "name": "5e3052f7b65fc44d38f61576bccf59e6", "is_disabled": 0, "rental_uris": {"android": "https://dc.lft.to/lastmile_qr_scan", "ios": "https://dc.lft.to/lastmile_qr_scan"}, "fusion_lon": 0.0, "lat": 38.893388333333334, "bike_id": "5e3052f7b65fc44d38f61576bccf59e6", "type": "electric_scooter", "is_reserved": 0, "lon": -76.99376166666667}, {"fusion_lat": 0.0, "name": "42b3543346dfb7a531951b207d7093c9", "is_disabled": 0, "rental_uris": {"android": "https://dc.lft.to/lastmile_qr_scan", "ios": "https://dc.lft.to/lastmile_qr_scan"}, "fusion_lon": 0.0, "lat": 38.84907233333333, "bike_id": "42b3543346dfb7a531951b207d7093c9", "type": "electric_bike", "is_reserved": 0, "lon": -77.099773}, {"fusion_lat": 0.0, "name": "89bdeb051ee78ae4963063265be1bebc", "is_disabled": 0, "rental_uris": {"android": "https://dc.lft.to/lastmile_qr_scan", "ios": "https://dc.lft.to/lastmile_qr_scan"}, "fusion_lon": 0.0, "lat": 38.876932, "bike_id": "89bdeb051ee78ae4963063265be1bebc", "type": "electric_scooter", "is_reserved": 0, "lon": -77.00752566666667}, {"fusion_lat": 0.0, "name": "11f59e52a1000b67d0fb283032e5901d", "is_disabled": 0, "rental_uris": {"android": "https://dc.lft.to/lastmile_qr_scan", "ios": "https://dc.lft.to/lastmile_qr_scan"}, "fusion_lon": 0.0, "lat": 38.91569283333333, "bike_id": "11f59e52a1000b67d0fb283032e5901d", "type": "electric_scooter", "is_reserved": 0, "lon": -77.038521}, {"fusion_lat": 0.0, "name": "f4c149565fbb324e1d4ebfeaa50ef82e", "is_disabled": 0, "rental_uris": {"android": "https://dc.lft.to/lastmile_qr_scan", "ios": "https://dc.lft.to/lastmile_qr_scan"}, "fusion_lon": 0.0, "lat": 38.904248, "bike_id": "f4c149565fbb324e1d4ebfeaa50ef82e", "type": "electric_scooter", "is_reserved": 0, "lon": -77.01885683333333}, {"fusion_lat": 0.0, "name": "3c34cf1f7b909f63a0008d1b427be2c8", "is_disabled": 0, "rental_uris": {"android": "https://dc.lft.to/lastmile_qr_scan", "ios": "https://dc.lft.to/lastmile_qr_scan"}, "fusion_lon": 0.0, "lat": 38.91107316666667, "bike_id": "3c34cf1f7b909f63a0008d1b427be2c8", "type": "electric_scooter", "is_reserved": 0, "lon": -77.02925116666667}, {"fusion_lat": 0.0, "name": "7dff2280ef6c369308c49a520d84a726", "is_disabled": 0, "rental_uris": {"android": "https://dc.lft.to/lastmile_qr_scan", "ios": "https://dc.lft.to/lastmile_qr_scan"}, "fusion_lon": 0.0, "lat": 38.910988333333336, "bike_id": "7dff2280ef6c369308c49a520d84a726", "type": "electric_scooter", "is_reserved": 0, "lon": -77.036145}, {"fusion_lat": 0.0, "name": "d3c8318138654b053ac219cd46d23525", "is_disabled": 0, "rental_uris": {"android": "https://dc.lft.to/lastmile_qr_scan", "ios": "https://dc.lft.to/lastmile_qr_scan"}, "fusion_lon": 0.0, "lat": 38.897391, "bike_id": "d3c8318138654b053ac219cd46d23525", "type": "electric_scooter", "is_reserved": 0, "lon": -77.02482516666667}, {"fusion_lat": 0.0, "name": "0f1239a6d72cb93c5f81e20a2378e5a8", "is_disabled": 0, "rental_uris": {"android": "https://dc.lft.to/lastmile_qr_scan", "ios": "https://dc.lft.to/lastmile_qr_scan"}, "fusion_lon": 0.0, "lat": 38.96182966666667, "bike_id": "0f1239a6d72cb93c5f81e20a2378e5a8", "type": "electric_bike", "is_reserved": 0, "lon": -77.0526725}, {"fusion_lat": 0.0, "name": "525232e806163c076db08ca7aed4cd87", "is_disabled": 0, "rental_uris": {"android": "https://dc.lft.to/lastmile_qr_scan", "ios": "https://dc.lft.to/lastmile_qr_scan"}, "fusion_lon": 0.0, "lat": 38.9243855, "bike_id": "525232e806163c076db08ca7aed4cd87", "type": "electric_scooter", "is_reserved": 0, "lon": -77.04461633333334}, {"fusion_lat": 0.0, "name": "c97e69710821ec70c06811bf3ec9e484", "is_disabled": 0, "rental_uris": {"android": "https://dc.lft.to/lastmile_qr_scan", "ios": "https://dc.lft.to/lastmile_qr_scan"}, "fusion_lon": 0.0, "lat": 38.9737685, "bike_id": "c97e69710821ec70c06811bf3ec9e484", "type": "electric_scooter", "is_reserved": 0, "lon": -77.012825}, {"fusion_lat": 0.0, "name": "333aed952bbee9770ec7ed728c5f63dc", "is_disabled": 0, "rental_uris": {"android": "https://dc.lft.to/lastmile_qr_scan", "ios": "https://dc.lft.to/lastmile_qr_scan"}, "fusion_lon": 0.0, "lat": 38.911914333333335, "bike_id": "333aed952bbee9770ec7ed728c5f63dc", "type": "electric_scooter", "is_reserved": 0, "lon": -77.01199533333333}, {"fusion_lat": 0.0, "name": "cd0440286a679b50605367a8136fd995", "is_disabled": 0, "rental_uris": {"android": "https://dc.lft.to/lastmile_qr_scan", "ios": "https://dc.lft.to/lastmile_qr_scan"}, "fusion_lon": 0.0, "lat": 38.8911255, "bike_id": "cd0440286a679b50605367a8136fd995", "type": "electric_scooter", "is_reserved": 0, "lon": -76.94382366666666}, {"fusion_lat": 0.0, "name": "41d45e2754d9891e5617df6603b2ae4a", "is_disabled": 0, "rental_uris": {"android": "https://dc.lft.to/lastmile_qr_scan", "ios": "https://dc.lft.to/lastmile_qr_scan"}, "fusion_lon": 0.0, "lat": 38.86624316666666, "bike_id": "41d45e2754d9891e5617df6603b2ae4a", "type": "electric_scooter", "is_reserved": 0, "lon": -76.98715416666667}, {"fusion_lat": 0.0, "name": "a2b52dce4e6a63b900882b9b4d33748e", "is_disabled": 0, "rental_uris": {"android": "https://dc.lft.to/lastmile_qr_scan", "ios": "https://dc.lft.to/lastmile_qr_scan"}, "fusion_lon": 0.0, "lat": 38.9104995, "bike_id": "a2b52dce4e6a63b900882b9b4d33748e", "type": "electric_scooter", "is_reserved": 0, "lon": -77.02180866666667}, {"fusion_lat": 0.0, "name": "24e374f8e3d34e7ba74e73deadf7a611", "is_disabled": 0, "rental_uris": {"android": "https://dc.lft.to/lastmile_qr_scan", "ios": "https://dc.lft.to/lastmile_qr_scan"}, "fusion_lon": 0.0, "lat": 38.87447266666667, "bike_id": "24e374f8e3d34e7ba74e73deadf7a611", "type": "electric_bike", "is_reserved": 0, "lon": -76.9995325}, {"fusion_lat": 0.0, "name": "d9460a187da019a02f409f874cdfc188", "is_disabled": 0, "rental_uris": {"android": "https://dc.lft.to/lastmile_qr_scan", "ios": "https://dc.lft.to/lastmile_qr_scan"}, "fusion_lon": 0.0, "lat": 38.91170866666667, "bike_id": "d9460a187da019a02f409f874cdfc188", "type": "electric_scooter", "is_reserved": 0, "lon": -77.036594}, {"fusion_lat": 0.0, "name": "26b34f6c885ffbd66f98512e6f4e5145", "is_disabled": 0, "rental_uris": {"android": "https://dc.lft.to/lastmile_qr_scan", "ios": "https://dc.lft.to/lastmile_qr_scan"}, "fusion_lon": 0.0, "lat": 38.892167666666666, "bike_id": "26b34f6c885ffbd66f98512e6f4e5145", "type": "electric_scooter", "is_reserved": 0, "lon": -77.02777066666667}, {"fusion_lat": 0.0, "name": "b123a8c01fad66f977b453c1e3e6e5c3", "is_disabled": 0, "rental_uris": {"android": "https://dc.lft.to/lastmile_qr_scan", "ios": "https://dc.lft.to/lastmile_qr_scan"}, "fusion_lon": 0.0, "lat": 38.92133883333333, "bike_id": "b123a8c01fad66f977b453c1e3e6e5c3", "type": "electric_bike", "is_reserved": 0, "lon": -77.04351916666667}, {"fusion_lat": 0.0, "name": "b391a7b80cf2af429e4c96e360b570e1", "is_disabled": 0, "rental_uris": {"android": "https://dc.lft.to/lastmile_qr_scan", "ios": "https://dc.lft.to/lastmile_qr_scan"}, "fusion_lon": 0.0, "lat": 38.932307333333334, "bike_id": "b391a7b80cf2af429e4c96e360b570e1", "type": "electric_bike", "is_reserved": 0, "lon": -76.974237}, {"fusion_lat": 0.0, "name": "430fa801b7f616d65581179411effb4b", "is_disabled": 0, "rental_uris": {"android": "https://dc.lft.to/lastmile_qr_scan", "ios": "https://dc.lft.to/lastmile_qr_scan"}, "fusion_lon": 0.0, "lat": 38.951052833333335, "bike_id": "430fa801b7f616d65581179411effb4b", "type": "electric_scooter", "is_reserved": 0, "lon": -77.05862666666667}, {"fusion_lat": 0.0, "name": "189f92f629da12111122f2022f829085", "is_disabled": 0, "rental_uris": {"android": "https://dc.lft.to/lastmile_qr_scan", "ios": "https://dc.lft.to/lastmile_qr_scan"}, "fusion_lon": 0.0, "lat": 38.91693766666667, "bike_id": "189f92f629da12111122f2022f829085", "type": "electric_scooter", "is_reserved": 0, "lon": -77.03717866666666}, {"fusion_lat": 0.0, "name": "b1419dcc99b55d8b8a0d55793f4a21e7", "is_disabled": 0, "rental_uris": {"android": "https://dc.lft.to/lastmile_qr_scan", "ios": "https://dc.lft.to/lastmile_qr_scan"}, "fusion_lon": 0.0, "lat": 38.954748333333335, "bike_id": "b1419dcc99b55d8b8a0d55793f4a21e7", "type": "electric_scooter", "is_reserved": 0, "lon": -77.07774916666666}, {"fusion_lat": 0.0, "name": "03f2ed35816eb535c54e0ed49b10fd74", "is_disabled": 0, "rental_uris": {"android": "https://dc.lft.to/lastmile_qr_scan", "ios": "https://dc.lft.to/lastmile_qr_scan"}, "fusion_lon": 0.0, "lat": 38.91506316666667, "bike_id": "03f2ed35816eb535c54e0ed49b10fd74", "type": "electric_scooter", "is_reserved": 0, "lon": -77.0326755}, {"fusion_lat": 0.0, "name": "7c6bbe8850dc1101702b439c12fb1a4f", "is_disabled": 0, "rental_uris": {"android": "https://dc.lft.to/lastmile_qr_scan", "ios": "https://dc.lft.to/lastmile_qr_scan"}, "fusion_lon": 0.0, "lat": 38.918153, "bike_id": "7c6bbe8850dc1101702b439c12fb1a4f", "type": "electric_scooter", "is_reserved": 0, "lon": -77.02494966666667}, {"fusion_lat": 0.0, "name": "9ffa270d2ab29335702aef695017ec37", "is_disabled": 0, "rental_uris": {"android": "https://dc.lft.to/lastmile_qr_scan", "ios": "https://dc.lft.to/lastmile_qr_scan"}, "fusion_lon": 0.0, "lat": 38.98816133333333, "bike_id": "9ffa270d2ab29335702aef695017ec37", "type": "electric_bike", "is_reserved": 0, "lon": -77.02649433333333}, {"fusion_lat": 0.0, "name": "239bf4e249faf1d01fada38c0852379f", "is_disabled": 0, "rental_uris": {"android": "https://dc.lft.to/lastmile_qr_scan", "ios": "https://dc.lft.to/lastmile_qr_scan"}, "fusion_lon": 0.0, "lat": 38.9492255, "bike_id": "239bf4e249faf1d01fada38c0852379f", "type": "electric_scooter", "is_reserved": 0, "lon": -77.01861383333333}, {"fusion_lat": 0.0, "name": "3ac8ce7eb81aa0f29f3fbe6f50cf906d", "is_disabled": 0, "rental_uris": {"android": "https://dc.lft.to/lastmile_qr_scan", "ios": "https://dc.lft.to/lastmile_qr_scan"}, "fusion_lon": 0.0, "lat": 38.900893333333336, "bike_id": "3ac8ce7eb81aa0f29f3fbe6f50cf906d", "type": "electric_bike", "is_reserved": 0, "lon": -77.059032}, {"fusion_lat": 0.0, "name": "2f702931a84ac4873f70cafd5a5c3fd2", "is_disabled": 0, "rental_uris": {"android": "https://dc.lft.to/lastmile_qr_scan", "ios": "https://dc.lft.to/lastmile_qr_scan"}, "fusion_lon": 0.0, "lat": 38.927893, "bike_id": "2f702931a84ac4873f70cafd5a5c3fd2", "type": "electric_scooter", "is_reserved": 0, "lon": -76.95556566666667}, {"fusion_lat": 0.0, "name": "e7e3112540c754a749780ad92ae2d1b3", "is_disabled": 0, "rental_uris": {"android": "https://dc.lft.to/lastmile_qr_scan", "ios": "https://dc.lft.to/lastmile_qr_scan"}, "fusion_lon": 0.0, "lat": 38.917921166666666, "bike_id": "e7e3112540c754a749780ad92ae2d1b3", "type": "electric_scooter", "is_reserved": 0, "lon": -77.036441}, {"fusion_lat": 0.0, "name": "ffc1671aaa1f210ea6a0d6a4d02a1f24", "is_disabled": 0, "rental_uris": {"android": "https://dc.lft.to/lastmile_qr_scan", "ios": "https://dc.lft.to/lastmile_qr_scan"}, "fusion_lon": 0.0, "lat": 38.904862, "bike_id": "ffc1671aaa1f210ea6a0d6a4d02a1f24", "type": "electric_scooter", "is_reserved": 0, "lon": -76.94956133333334}, {"fusion_lat": 0.0, "name": "f78bbf5226426e190f9dc008eabc094d", "is_disabled": 0, "rental_uris": {"android": "https://dc.lft.to/lastmile_qr_scan", "ios": "https://dc.lft.to/lastmile_qr_scan"}, "fusion_lon": 0.0, "lat": 38.924073, "bike_id": "f78bbf5226426e190f9dc008eabc094d", "type": "electric_scooter", "is_reserved": 0, "lon": -77.04278}, {"fusion_lat": 0.0, "name": "ecda7d5624c47a01d09d9f38e325f9c3", "is_disabled": 0, "rental_uris": {"android": "https://dc.lft.to/lastmile_qr_scan", "ios": "https://dc.lft.to/lastmile_qr_scan"}, "fusion_lon": 0.0, "lat": 38.930531333333334, "bike_id": "ecda7d5624c47a01d09d9f38e325f9c3", "type": "electric_scooter", "is_reserved": 0, "lon": -77.03941166666667}, {"fusion_lat": 0.0, "name": "30350ea66026cd730d9ed9012bb22d7c", "is_disabled": 0, "rental_uris": {"android": "https://dc.lft.to/lastmile_qr_scan", "ios": "https://dc.lft.to/lastmile_qr_scan"}, "fusion_lon": 0.0, "lat": 38.90768516666667, "bike_id": "30350ea66026cd730d9ed9012bb22d7c", "type": "electric_scooter", "is_reserved": 0, "lon": -77.06233666666667}, {"fusion_lat": 0.0, "name": "b87a2eac77c18c28d830cfeb7a19543d", "is_disabled": 0, "rental_uris": {"android": "https://dc.lft.to/lastmile_qr_scan", "ios": "https://dc.lft.to/lastmile_qr_scan"}, "fusion_lon": 0.0, "lat": 38.900434, "bike_id": "b87a2eac77c18c28d830cfeb7a19543d", "type": "electric_scooter", "is_reserved": 0, "lon": -77.012015}, {"fusion_lat": 0.0, "name": "a08911262cbda6fa39a1dd1a2203c977", "is_disabled": 0, "rental_uris": {"android": "https://dc.lft.to/lastmile_qr_scan", "ios": "https://dc.lft.to/lastmile_qr_scan"}, "fusion_lon": 0.0, "lat": 38.92598916666667, "bike_id": "a08911262cbda6fa39a1dd1a2203c977", "type": "electric_scooter", "is_reserved": 0, "lon": -77.02156583333333}, {"fusion_lat": 0.0, "name": "78c9da9b8b3ec213e5311e831ea37043", "is_disabled": 0, "rental_uris": {"android": "https://dc.lft.to/lastmile_qr_scan", "ios": "https://dc.lft.to/lastmile_qr_scan"}, "fusion_lon": 0.0, "lat": 38.91555533333333, "bike_id": "78c9da9b8b3ec213e5311e831ea37043", "type": "electric_scooter", "is_reserved": 0, "lon": -77.03831783333334}, {"fusion_lat": 0.0, "name": "501a56dbb50b7941cb371c7ad82ffc20", "is_disabled": 0, "rental_uris": {"android": "https://dc.lft.to/lastmile_qr_scan", "ios": "https://dc.lft.to/lastmile_qr_scan"}, "fusion_lon": 0.0, "lat": 38.914582333333335, "bike_id": "501a56dbb50b7941cb371c7ad82ffc20", "type": "electric_scooter", "is_reserved": 0, "lon": -77.03891716666666}, {"fusion_lat": 0.0, "name": "0fbc2180b899c90c98d427c84110017a", "is_disabled": 0, "rental_uris": {"android": "https://dc.lft.to/lastmile_qr_scan", "ios": "https://dc.lft.to/lastmile_qr_scan"}, "fusion_lon": 0.0, "lat": 38.91501816666667, "bike_id": "0fbc2180b899c90c98d427c84110017a", "type": "electric_scooter", "is_reserved": 0, "lon": -77.00917016666666}, {"fusion_lat": 0.0, "name": "9d869034a9493c795502c9a768e41022", "is_disabled": 0, "rental_uris": {"android": "https://dc.lft.to/lastmile_qr_scan", "ios": "https://dc.lft.to/lastmile_qr_scan"}, "fusion_lon": 0.0, "lat": 38.9210405, "bike_id": "9d869034a9493c795502c9a768e41022", "type": "electric_scooter", "is_reserved": 0, "lon": -77.07477983333334}, {"fusion_lat": 0.0, "name": "900fb32de08e46a10376a0334726f4d3", "is_disabled": 0, "rental_uris": {"android": "https://dc.lft.to/lastmile_qr_scan", "ios": "https://dc.lft.to/lastmile_qr_scan"}, "fusion_lon": 0.0, "lat": 38.92931733333333, "bike_id": "900fb32de08e46a10376a0334726f4d3", "type": "electric_scooter", "is_reserved": 0, "lon": -77.03289116666667}, {"fusion_lat": 0.0, "name": "64b486bf2deab3037f0306664f256d2a", "is_disabled": 0, "rental_uris": {"android": "https://dc.lft.to/lastmile_qr_scan", "ios": "https://dc.lft.to/lastmile_qr_scan"}, "fusion_lon": 0.0, "lat": 38.898662333333334, "bike_id": "64b486bf2deab3037f0306664f256d2a", "type": "electric_scooter", "is_reserved": 0, "lon": -77.02015716666666},