{"data": {"bikes": [{"lat": 38.9304035, "fusion_lat": 0.0, "type": "electric_scooter", "bike_id": "8b1d51324ce3cd00ace1f1f04e107a6c", "rental_uris": {"ios": "https://dc.lft.to/lastmile_qr_scan", "android": "https://dc.lft.to/lastmile_qr_scan"}, "fusion_lon": 0.0, "lon": -77.034796, "name": "8b1d51324ce3cd00ace1f1f04e107a6c", "is_reserved": 0, "is_disabled": 0}, {"lat": 38.924201, "fusion_lat": 0.0, "type": "electric_scooter", "bike_id": "70f0a2570e5576197e8f7848d0151eb0", "rental_uris": {"ios": "https://dc.lft.to/lastmile_qr_scan", "android": "https://dc.lft.to/lastmile_qr_scan"}, "fusion_lon": 0.0, "lon": -77.057528, "name": "70f0a2570e5576197e8f7848d0151eb0", "is_reserved": 0, "is_disabled": 0}, {"lat": 38.90067416666667, "fusion_lat": 0.0, "type": "electric_scooter", "bike_id": "35a379de609426310ff072ef2fc801fd", "rental_uris": {"ios": "https://dc.lft.to/lastmile_qr_scan", "android": "https://dc.lft.to/lastmile_qr_scan"}, "fusion_lon": 0.0, "lon": -77.045369, "name": "35a379de609426310ff072ef2fc801fd", "is_reserved": 0, "is_disabled": 0}, {"lat": 38.84860833333333, "fusion_lat": 0.0, "type": "electric_bike", "bike_id": "e9e6abbca66907aecc058d74512707e7", "rental_uris": {"ios": "https://dc.lft.to/lastmile_qr_scan", "android": "https://dc.lft.to/lastmile_qr_scan"}, "fusion_lon": 0.0, "lon": -77.099009, "name": "e9e6abbca66907aecc058d74512707e7", "is_reserved": 0, "is_disabled": 0}, {"lat": 38.863372, "fusion_lat": 0.0, "type": "electric_bike", "bike_id": "f6026a4a4a640549afe8098ae6e13084", "rental_uris": {"ios": "https://dc.lft.to/lastmile_qr_scan", "android": "https://dc.lft.to/lastmile_qr_scan"}, "fusion_lon": 0.0, "lon": -76.98730133333333, "name": "f6026a4a4a640549afe8098ae6e13084", "is_reserved": 0, "is_disabled": 0}, {"lat": 38.88655816666667, "fusion_lat": 0.0, "type": "electric_scooter", "bike_id": "531d50d5430157aff17c7cb591a59db3", "rental_uris": {"ios": "https://dc.lft.to/lastmile_qr_scan", "android": "https://dc.lft.to/lastmile_qr_scan"}, "fusion_lon": 0.0, "lon": -77.02008816666667, "name": "531d50d5430157aff17c7cb591a59db3", "is_reserved": 0, "is_disabled": 0}, {"lat": 38.929844, "fusion_lat": 0.0, "type": "electric_scooter", "bike_id": "a83386881d5373ff452cb177b0229060", "rental_uris": {"ios": "https://dc.lft.to/lastmile_qr_scan", "android": "https://dc.lft.to/lastmile_qr_scan"}, "fusion_lon": 0.0, "lon": -77.07945116666667, "name": "a83386881d5373ff452cb177b0229060", "is_reserved": 0, "is_disabled": 0}, {"lat": 38.9167715, "fusion_lat": 0.0, "type": "electric_scooter", "bike_id": "74481d0149cc6e3b1e930b230f71c676", "rental_uris": {"ios": "https://dc.lft.to/lastmile_qr_scan", "android": "https://dc.lft.to/lastmile_qr_scan"}, "fusion_lon": 0.0, "lon": -76.98036366666666, "name": "74481d0149cc6e3b1e930b230f71c676", "is_reserved": 0, "is_disabled": 0}, {"lat": 38.902294166666664, "fusion_lat": 0.0, "type": "electric_scooter", "bike_id": "d40207c508b3c6ba56d0aecd9e986594", "rental_uris": {"ios": "https://dc.lft.to/lastmile_qr_scan", "android": "https://dc.lft.to/lastmile_qr_scan"}, "fusion_lon": 0.0, "lon": -77.03187766666667, "name": "d40207c508b3c6ba56d0aecd9e986594", "is_reserved": 0, "is_disabled": 0}, {"lat": 38.9218775, "fusion_lat": 0.0, "type": "electric_scooter", "bike_id": "ecc802e19bea9bc9304b13a445f41e56", "rental_uris": {"ios": "https://dc.lft.to/lastmile_qr_scan", "android": "https://dc.lft.to/lastmile_qr_scan"}, "fusion_lon": 0.0, "lon": -77.04188433333333, "name": "ecc802e19bea9bc9304b13a445f41e56", "is_reserved": 0, "is_disabled": 0}, {"lat": 38.9167465, "fusion_lat": 0.0, "type": "electric_scooter", "bike_id": "4c9f6540c4d32316d57ddf33e4440cdc", "rental_uris": {"ios": "https://dc.lft.to/lastmile_qr_scan", "android": "https://dc.lft.to/lastmile_qr_scan"}, "fusion_lon": 0.0, "lon": -77.02726333333334, "name": "4c9f6540c4d32316d57ddf33e4440cdc", "is_reserved": 0, "is_disabled": 0}, {"lat": 38.899685833333336, "fusion_lat": 0.0, "type": "electric_bike", "bike_id": "d42f636992e9a0c80b109401ddb9b01e", "rental_uris": {"ios": "https://dc.lft.to/lastmile_qr_scan", "android": "https://dc.lft.to/lastmile_qr_scan"}, "fusion_lon": 0.0, "lon": -76.9868515, "name": "d42f636992e9a0c80b109401ddb9b01e", "is_reserved": 0, "is_disabled": 0}, {"lat": 38.90123583333333, "fusion_lat": 0.0, "type": "electric_scooter", "bike_id": "7902d9125084e0c4a4fb3b689fe5fa3b", "rental_uris": {"ios": "https://dc.lft.to/lastmile_qr_scan", "android": "https://dc.lft.to/lastmile_qr_scan"}, "fusion_lon": 0.0, "lon": -77.05003966666666, "name": "7902d9125084e0c4a4fb3b689fe5fa3b", "is_reserved": 0, "is_disabled": 0}, {"lat": 38.90808, "fusion_lat": 0.0, "type": "electric_scooter", "bike_id": "d4ea56080433812d3f52856931ebbf6f", "rental_uris": {"ios": "https://dc.lft.to/lastmile_qr_scan", "android": "https://dc.lft.to/lastmile_qr_scan"}, "fusion_lon": 0.0, "lon": -77.04334966666667, "name": "d4ea56080433812d3f52856931ebbf6f", "is_reserved": 0, "is_disabled": 0}, {"lat": 38.9316075, "fusion_lat": 0.0, "type": "electric_scooter", "bike_id": "c7e49d59ebb934332693e58b58d54904", "rental_uris": {"ios": "https://dc.lft.to/lastmile_qr_scan", "android": "https://dc.lft.to/lastmile_qr_scan"}, "fusion_lon": 0.0, "lon": -77.03500316666667, "name": "c7e49d59ebb934332693e58b58d54904", "is_reserved": 0, "is_disabled": 0}, {"lat": 38.932074166666666, "fusion_lat": 0.0, "type": "electric_scooter", "bike_id": "da0c4574baf86806015251fa4e763808", "rental_uris": {"ios": "https://dc.lft.to/lastmile_qr_scan", "android": "https://dc.lft.to/lastmile_qr_scan"}, "fusion_lon": 0.0, "lon": -77.03503483333333, "name": "da0c4574baf86806015251fa4e763808", "is_reserved": 0, "is_disabled": 0}, {"lat": 38.7998815, "fusion_lat": 0.0, "type": "electric_bike", "bike_id": "56a12b977f34817255e5536546b1cb10", "rental_uris": {"ios": "https://dc.lft.to/lastmile_qr_scan", "android": "https://dc.lft.to/lastmile_qr_scan"}, "fusion_lon": 0.0, "lon": -77.1297825, "name": "56a12b977f34817255e5536546b1cb10", "is_reserved": 0, "is_disabled": 0}, {"lat": 38.912601333333335, "fusion_lat": 0.0, "type": "electric_scooter", "bike_id": "a80b90f0a25010a07908523d7a529aa1", "rental_uris": {"ios": "https://dc.lft.to/lastmile_qr_scan", "android": "https://dc.lft.to/lastmile_qr_scan"}, "fusion_lon": 0.0, "lon": -77.04469966666667, "name": "a80b90f0a25010a07908523d7a529aa1", "is_reserved": 0, "is_disabled": 0}, {"lat": 38.910637666666666, "fusion_lat": 0.0, "type": "electric_scooter", "bike_id": "d24b34c5f31c6692c5ccad8a4e59a5e5", "rental_uris": {"ios": "https://dc.lft.to/lastmile_qr_scan", "android": "https://dc.lft.to/lastmile_qr_scan"}, "fusion_lon": 0.0, "lon": -77.05284183333333, "name": "d24b34c5f31c6692c5ccad8a4e59a5e5", "is_reserved": 0, "is_disabled": 0}, {"lat": 38.86015533333333, "fusion_lat": 0.0, "type": "electric_scooter", "bike_id": "ed7442ef4e185c65f04a67445d5bc89b", "rental_uris": {"ios": "https://dc.lft.to/lastmile_qr_scan", "android": "https://dc.lft.to/lastmile_qr_scan"}, "fusion_lon": 0.0, "lon": -76.96707333333333, "name": "ed7442ef4e185c65f04a67445d5bc89b", "is_reserved": 0, "is_disabled": 0}, {"lat": 38.9083495, "fusion_lat": 0.0, "type": "electric_scooter", "bike_id": "6ce01c1cea4cc9dba58685241f17871b", "rental_uris": {"ios": "https://dc.lft.to/lastmile_qr_scan", "android": "https://dc.lft.to/lastmile_qr_scan"}, "fusion_lon": 0.0, "lon": -77.032174, "name": "6ce01c1cea4cc9dba58685241f17871b", "is_reserved": 0, "is_disabled": 0}, {"lat": 38.90104, "fusion_lat": 0.0, "type": "electric_scooter", "bike_id": "3b82e710d4f8d1a3b034755c7a0f6a72", "rental_uris": {"ios": "https://dc.lft.to/lastmile_qr_scan", "android": "https://dc.lft.to/lastmile_qr_scan"}, "fusion_lon": 0.0, "lon": -76.9304585, "name": "3b82e710d4f8d1a3b034755c7a0f6a72", "is_reserved": 0, "is_disabled": 0}, {"lat": 38.911261, "fusion_lat": 0.0, "type": "electric_scooter", "bike_id": "16b9feb4fd61f918c201481de37ad766", "rental_uris": {"ios": "https://dc.lft.to/lastmile_qr_scan", "android": "https://dc.lft.to/lastmile_qr_scan"}, "fusion_lon": 0.0, "lon": -77.031876, "name": "16b9feb4fd61f918c201481de37ad766", "is_reserved": 0, "is_disabled": 0}, {"lat": 38.918268, "fusion_lat": 0.0, "type": "electric_scooter", "bike_id": "bc2cf4d1f0600d5bdeae3118be49ee5e", "rental_uris": {"ios": "https://dc.lft.to/lastmile_qr_scan", "android": "https://dc.lft.to/lastmile_qr_scan"}, "fusion_lon": 0.0, "lon": -77.0253275, "name": "bc2cf4d1f0600d5bdeae3118be49ee5e", "is_reserved": 0, "is_disabled": 0}, {"lat": 38.89496316666666, "fusion_lat": 0.0, "type": "electric_scooter", "bike_id": "6e5cfcd39a743118276654da8ea2d306", "rental_uris": {"ios": "https://dc.lft.to/lastmile_qr_scan", "android": "https://dc.lft.to/lastmile_qr_scan"}, "fusion_lon": 0.0, "lon": -77.01091283333334, "name": "6e5cfcd39a743118276654da8ea2d306", "is_reserved": 0, "is_disabled": 0}, {"lat": 38.9183645, "fusion_lat": 0.0, "type": "electric_scooter", "bike_id": "6b12f5e6886ed18f27a1545587900e21", "rental_uris": {"ios": "https://dc.lft.to/lastmile_qr_scan", "android": "https://dc.lft.to/lastmile_qr_scan"}, "fusion_lon": 0.0, "lon": -77.02281083333334, "name": "6b12f5e6886ed18f27a1545587900e21", "is_reserved": 0, "is_disabled": 0}, {"lat": 38.89756033333333, "fusion_lat": 0.0, "type": "electric_scooter", "bike_id": "54f83cbd446e4536a5a56137c7e72e5f", "rental_uris": {"ios": "https://dc.lft.to/lastmile_qr_scan", "android": "https://dc.lft.to/lastmile_qr_scan"}, "fusion_lon": 0.0, "lon": -77.02405533333334, "name": "54f83cbd446e4536a5a56137c7e72e5f", "is_reserved": 0, "is_disabled": 0}, {"lat": 38.936294333333336, "fusion_lat": 0.0, "type": "electric_scooter", "bike_id": "d94696496ebf49f522bb75e6d55ceffd", "rental_uris": {"ios": "https://dc.lft.to/lastmile_qr_scan", "android": "https://dc.lft.to/lastmile_qr_scan"}, "fusion_lon": 0.0, "lon": -77.05881233333334, "name": "d94696496ebf49f522bb75e6d55ceffd", "is_reserved": 0, "is_disabled": 0}, {"lat": 38.90215466666667, "fusion_lat": 0.0, "type": "electric_scooter", "bike_id": "cdfbaf4c92644c1917222b3329d65881", "rental_uris": {"ios": "https://dc.lft.to/lastmile_qr_scan", "android": "https://dc.lft.to/lastmile_qr_scan"}, "fusion_lon": 0.0, "lon": -77.0215405, "name": "cdfbaf4c92644c1917222b3329d65881", "is_reserved": 0, "is_disabled": 0}, {"lat": 38.909402, "fusion_lat": 0.0, "type": "electric_scooter", "bike_id": "af72f0ecf4f714194b4021a8ddf17512", "rental_uris": {"ios": "https://dc.lft.to/lastmile_qr_scan", "android": "https://dc.lft.to/lastmile_qr_scan"}, "fusion_lon": 0.0, "lon": -77.03056633333334, "name": "af72f0ecf4f714194b4021a8ddf17512", "is_reserved": 0, "is_disabled": 0}, {"lat": 38.915684666666664, "fusion_lat": 0.0, "type": "electric_scooter", "bike_id": "13b1ce400af6d6ba5fbc75cea8f2cfa3", "rental_uris": {"ios": "https://dc.lft.to/lastmile_qr_scan", "android": "https://dc.lft.to/lastmile_qr_scan"}, "fusion_lon": 0.0, "lon": -77.020587, "name": "13b1ce400af6d6ba5fbc75cea8f2cfa3", "is_reserved": 0, "is_disabled": 0}, {"lat": 38.90198083333333, "fusion_lat": 0.0, "type": "electric_scooter", "bike_id": "7a0a4f2e0101b044d1bd51058e1a8916", "rental_uris": {"ios": "https://dc.lft.to/lastmile_qr_scan", "android": "https://dc.lft.to/lastmile_qr_scan"}, "fusion_lon": 0.0, "lon": -77.02372416666667, "name": "7a0a4f2e0101b044d1bd51058e1a8916", "is_reserved": 0, "is_disabled": 0}, {"lat": 38.90639933333333, "fusion_lat": 0.0, "type": "electric_scooter", "bike_id": "bf3063d5f4555ee1f01b24891b59c418", "rental_uris": {"ios": "https://dc.lft.to/lastmile_qr_scan", "android": "https://dc.lft.to/lastmile_qr_scan"}, "fusion_lon": 0.0, "lon": -77.0058075, "name": "bf3063d5f4555ee1f01b24891b59c418", "is_reserved": 0, "is_disabled": 0}, {"lat": 38.91716916666667, "fusion_lat": 0.0, "type": "electric_scooter", "bike_id": "f0f98c8e3cef0c1b0f8e72b8975b1f9b", "rental_uris": {"ios": "https://dc.lft.to/lastmile_qr_scan", "android": "https://dc.lft.to/lastmile_qr_scan"}, "fusion_lon": 0.0, "lon": -77.03862366666667, "name": "f0f98c8e3cef0c1b0f8e72b8975b1f9b", "is_reserved": 0, "is_disabled": 0}, {"lat": 38.930892, "fusion_lat": 0.0, "type": "electric_scooter", "bike_id": "33facb7e856099e1afe57f38c567ba69", "rental_uris": {"ios": "https://dc.lft.to/lastmile_qr_scan", "android": "https://dc.lft.to/lastmile_qr_scan"}, "fusion_lon": 0.0, "lon": -77.03659733333333, "name": "33facb7e856099e1afe57f38c567ba69", "is_reserved": 0, "is_disabled": 0}, {"lat": 38.94503666666667, "fusion_lat": 0.0, "type": "electric_scooter", "bike_id": "03d3f1739d6312aabc109a9f428de1b4", "rental_uris": {"ios": "https://dc.lft.to/lastmile_qr_scan", "android": "https://dc.lft.to/lastmile_qr_scan"}, "fusion_lon": 0.0, "lon": -77.038361, "name": "03d3f1739d6312aabc109a9f428de1b4", "is_reserved": 0, "is_disabled": 0}, {"lat": 38.94333316666667, "fusion_lat": 0.0, "type": "electric_scooter", "bike_id": "e0964c8cc67cf04dd277cb7b56efdb59", "rental_uris": {"ios": "https://dc.lft.to/lastmile_qr_scan", "android": "https://dc.lft.to/lastmile_qr_scan"}, "fusion_lon": 0.0, "lon": -77.07636266666667, "name": "e0964c8cc67cf04dd277cb7b56efdb59", "is_reserved": 0, "is_disabled": 0}, {"lat": 38.908432, "fusion_lat": 0.0, "type": "electric_scooter", "bike_id": "9a70a2e3bfae3c00436c58b7c7e1b5e8", "rental_uris": {"ios": "https://dc.lft.to/lastmile_qr_scan", "android": "https://dc.lft.to/lastmile_qr_scan"}, "fusion_lon": 0.0, "lon": -77.06388633333333, "name": "9a70a2e3bfae3c00436c58b7c7e1b5e8", "is_reserved": 0, "is_disabled": 0}, {"lat": 38.92462733333333, "fusion_lat": 0.0, "type": "electric_scooter", "bike_id": "77bd1149fb448dda00315677db0d4ec2", "rental_uris": {"ios": "https://dc.lft.to/lastmile_qr_scan", "android": "https://dc.lft.to/lastmile_qr_scan"}, "fusion_lon": 0.0, "lon": -77.02157733333334, "name": "77bd1149fb448dda00315677db0d4ec2", "is_reserved": 0, "is_disabled": 0}, {"lat": 38.973527, "fusion_lat": 0.0, "type": "electric_scooter", "bike_id": "3b8326ae08238660356ff28c87b31614", "rental_uris": {"ios": "https://dc.lft.to/lastmile_qr_scan", "android": "https://dc.lft.to/lastmile_qr_scan"}, "fusion_lon": 0.0, "lon": -77.02786683333333, "name": "3b8326ae08238660356ff28c87b31614", "is_reserved": 0, "is_disabled": 0}, {"lat": 38.897170333333335, "fusion_lat": 0.0, "type": "electric_scooter", "bike_id": "371ac5d4ff724921ff1dcf77d517750f", "rental_uris": {"ios": "https://dc.lft.to/lastmile_qr_scan", "android": "https://dc.lft.to/lastmile_qr_scan"}, "fusion_lon": 0.0, "lon": -77.00794566666667, "name": "371ac5d4ff724921ff1dcf77d517750f", "is_reserved": 0, "is_disabled": 0}, {"lat": 38.91766916666667, "fusion_lat": 0.0, "type": "electric_scooter", "bike_id": "78a6c3399557679b5d9e0983160d134c", "rental_uris": {"ios": "https://dc.lft.to/lastmile_qr_scan", "android": "https://dc.lft.to/lastmile_qr_scan"}, "fusion_lon": 0.0, "lon": -77.02717466666667, "name": "78a6c3399557679b5d9e0983160d134c", "is_reserved": 0, "is_disabled": 0}, {"lat": 38.91177166666667, "fusion_lat": 0.0, "type": "electric_scooter", "bike_id": "036dc16cc78cab22bef212515109e991", "rental_uris": {"ios": "https://dc.lft.to/lastmile_qr_scan", "android": "https://dc.lft.to/lastmile_qr_scan"}, "fusion_lon": 0.0, "lon": -77.03188883333333, "name": "036dc16cc78cab22bef212515109e991", "is_reserved": 0, "is_disabled": 0}, {"lat": 38.907334, "fusion_lat": 0.0, "type": "electric_scooter", "bike_id": "c6beac107e38f20d8ac4e6690c89f7bb", "rental_uris": {"ios": "https://dc.lft.to/lastmile_qr_scan", "android": "https://dc.lft.to/lastmile_qr_scan"}, "fusion_lon": 0.0, "lon": -77.04286866666666, "name": "c6beac107e38f20d8ac4e6690c89f7bb", "is_reserved": 0, "is_disabled": 0}, {"lat": 38.9179645, "fusion_lat": 0.0, "type": "electric_scooter", "bike_id": "633acdd403ef5e683a946e30b21cf804", "rental_uris": {"ios": "https://dc.lft.to/lastmile_qr_scan", "android": "https://dc.lft.to/lastmile_qr_scan"}, "fusion_lon": 0.0, "lon": -77.032112, "name": "633acdd403ef5e683a946e30b21cf804", "is_reserved": 0, "is_disabled": 0}, {"lat": 38.90965033333333, "fusion_lat": 0.0, "type": "electric_scooter", "bike_id": "d9136385d7d5075186ae396b7babaa03", "rental_uris": {"ios": "https://dc.lft.to/lastmile_qr_scan", "android": "https://dc.lft.to/lastmile_qr_scan"}, "fusion_lon": 0.0, "lon": -77.03858383333333, "name": "d9136385d7d5075186ae396b7babaa03", "is_reserved": 0, "is_disabled": 0}, {"lat": 38.89969116666666, "fusion_lat": 0.0, "type": "electric_scooter", "bike_id": "55fb28d4514b7c72f23225620d2095de", "rental_uris": {"ios": "https://dc.lft.to/lastmile_qr_scan", "android": "https://dc.lft.to/lastmile_qr_scan"}, "fusion_lon": 0.0, "lon": -77.04722266666667, "name": "55fb28d4514b7c72f23225620d2095de", "is_reserved": 0, "is_disabled": 0}, {"lat": 38.9170705, "fusion_lat": 0.0, "type": "electric_scooter", "bike_id": "1ff58e1f42fe6495c3c0e0cea0559d53", "rental_uris": {"ios": "https://dc.lft.to/lastmile_qr_scan", "android": "https://dc.lft.to/lastmile_qr_scan"}, "fusion_lon": 0.0, "lon": -77.02998083333334, "name": "1ff58e1f42fe6495c3c0e0cea0559d53", "is_reserved": 0, "is_disabled": 0}, {"lat": 38.90616966666666, "fusion_lat": 0.0, "type": "electric_scooter", "bike_id": "e130bcc524a49937291c0c64c9cc30c3", "rental_uris": {"ios": "https://dc.lft.to/lastmile_qr_scan", "android": "https://dc.lft.to/lastmile_qr_scan"}, "fusion_lon": 0.0, "lon": -77.00695266666666, "name": "e130bcc524a49937291c0c64c9cc30c3", "is_reserved": 0, "is_disabled": 0}, {"lat": 38.8981895, "fusion_lat": 0.0, "type": "electric_scooter", "bike_id": "59a036d4a079ff11f059dca7c7f612e4", "rental_uris": {"ios": "https://dc.lft.to/lastmile_qr_scan", "android": "https://dc.lft.to/lastmile_qr_scan"}, "fusion_lon": 0.0, "lon": -77.0319175, "name": "59a036d4a079ff11f059dca7c7f612e4", "is_reserved": 0, "is_disabled": 0}, {"lat": 38.89650566666667, "fusion_lat": 0.0, "type": "electric_bike", "bike_id": "f710af38b1e5f95b76f1ac5cad994e91", "rental_uris": {"ios": "https://dc.lft.to/lastmile_qr_scan", "android": "https://dc.lft.to/lastmile_qr_scan"}, "fusion_lon": 0.0, "lon": -76.99035966666666, "name": "f710af38b1e5f95b76f1ac5cad994e91", "is_reserved": 0, "is_disabled": 0}, {"lat": 38.93774966666667, "fusion_lat": 0.0, "type": "electric_scooter", "bike_id": "878ce242942862a4bf13f350946c059f", "rental_uris": {"ios": "https://dc.lft.to/lastmile_qr_scan", "android": "https://dc.lft.to/lastmile_qr_scan"}, "fusion_lon": 0.0, "lon": -77.02350666666666, "name": "878ce242942862a4bf13f350946c059f", "is_reserved": 0, "is_disabled": 0}, {"lat": 38.91744816666667, "fusion_lat": 0.0, "type": "electric_scooter", "bike_id": "294a18b99d555cccf1f5d40d2ccfb3c7", "rental_uris": {"ios": "https://dc.lft.to/lastmile_qr_scan", "android": "https://dc.lft.to/lastmile_qr_scan"}, "fusion_lon": 0.0, "lon": -77.0319055, "name": "294a18b99d555cccf1f5d40d2ccfb3c7", "is_reserved": 0, "is_disabled": 0}, {"lat": 38.9365975, "fusion_lat": 0.0, "type": "electric_scooter", "bike_id": "9a3714c3dcce275c6f9c245b55cfefb1", "rental_uris": {"ios": "https://dc.lft.to/lastmile_qr_scan", "android": "https://dc.lft.to/lastmile_qr_scan"}, "fusion_lon": 0.0, "lon": -77.03672516666667, "name": "9a3714c3dcce275c6f9c245b55cfefb1", "is_reserved": 0, "is_disabled": 0}, {"lat": 38.9028475, "fusion_lat": 0.0, "type": "electric_scooter", "bike_id": "cae35599cf4347bbe23edfc1ba5f08f2", "rental_uris": {"ios": "https://dc.lft.to/lastmile_qr_scan", "android": "https://dc.lft.to/lastmile_qr_scan"}, "fusion_lon": 0.0, "lon": -77.04587866666667, "name": "cae35599cf4347bbe23edfc1ba5f08f2", "is_reserved": 0, "is_disabled": 0}, {"lat": 38.87021416666666, "fusion_lat": 0.0, "type": "electric_bike", "bike_id": "d5062e1a6d165c93fd9b038d21c18261", "rental_uris": {"ios": "https://dc.lft.to/lastmile_qr_scan", "android": "https://dc.lft.to/lastmile_qr_scan"}, "fusion_lon": 0.0, "lon": -77.22883483333334, "name": "d5062e1a6d165c93fd9b038d21c18261", "is_reserved": 0, "is_disabled": 0}, {"lat": 38.915521, "fusion_lat": 0.0, "type": "electric_scooter", "bike_id": "947cba4a10b6a9778757fe2a7a572ea4", "rental_uris": {"ios": "https://dc.lft.to/lastmile_qr_scan", "android": "https://dc.lft.to/lastmile_qr_scan"}, "fusion_lon": 0.0, "lon": -77.03259266666667, "name": "947cba4a10b6a9778757fe2a7a572ea4", "is_reserved": 0, "is_disabled": 0}, {"lat": 38.9213535, "fusion_lat": 0.0, "type": "electric_bike", "bike_id": "b6faf8bc7bed5831974e39b680f4ec39", "rental_uris": {"ios": "https://dc.lft.to/lastmile_qr_scan", "android": "https://dc.lft.to/lastmile_qr_scan"}, "fusion_lon": 0.0, "lon": -76.988822, "name": "b6faf8bc7bed5831974e39b680f4ec39", "is_reserved": 0, "is_disabled": 0}, {"lat": 38.93626583333333, "fusion_lat": 0.0, "type": "electric_scooter", "bike_id": "1d0d4ab25b4ebaeb7c35b2600f1386a4", "rental_uris": {"ios": "https://dc.lft.to/lastmile_qr_scan", "android": "https://dc.lft.to/lastmile_qr_scan"}, "fusion_lon": 0.0, "lon": -77.0588285, "name": "1d0d4ab25b4ebaeb7c35b2600f1386a4", "is_reserved": 0, "is_disabled": 0}, {"lat": 38.9567615, "fusion_lat": 0.0, "type": "electric_scooter", "bike_id": "b55e53620c000a1685a35c8c8a8513fa", "rental_uris": {"ios": "https://dc.lft.to/lastmile_qr_scan", "android": "https://dc.lft.to/lastmile_qr_scan"}, "fusion_lon": 0.0, "lon": -77.0135905, "name": "b55e53620c000a1685a35c8c8a8513fa", "is_reserved": 0, "is_disabled": 0}, {"lat": 38.923539166666664, "fusion_lat": 0.0, "type": "electric_scooter", "bike_id": "6f30459fdd7789895784a1ca8fc3d6fb", "rental_uris": {"ios": "https://dc.lft.to/lastmile_qr_scan", "android": "https://dc.lft.to/lastmile_qr_scan"}, "fusion_lon": 0.0, "lon": -77.0415295, "name": "6f30459fdd7789895784a1ca8fc3d6fb", "is_reserved": 0, "is_disabled": 0}, {"lat": 38.895968833333335, "fusion_lat": 0.0, "type": "electric_scooter", "bike_id": "e4f9b4420095d4e80c01afe37838f171", "rental_uris": {"ios": "https://dc.lft.to/lastmile_qr_scan", "android": "https://dc.lft.to/lastmile_qr_scan"}, "fusion_lon": 0.0, "lon": -77.0234895, "name": "e4f9b4420095d4e80c01afe37838f171", "is_reserved": 0, "is_disabled": 0}, {"lat": 38.928587, "fusion_lat": 0.0, "type": "electric_scooter", "bike_id": "e1f7425136ab2902c35a9cac492cd654", "rental_uris": {"ios": "https://dc.lft.to/lastmile_qr_scan", "android": "https://dc.lft.to/lastmile_qr_scan"}, "fusion_lon": 0.0, "lon": -77.0374585, "name": "e1f7425136ab2902c35a9cac492cd654", "is_reserved": 0, "is_disabled": 0}, {"lat": 38.90156416666667, "fusion_lat": 0.0, "type": "electric_scooter", "bike_id": "285624e1118a3537dfc1ffb4330e6b6d", "rental_uris": {"ios": "https://dc.lft.to/lastmile_qr_scan", "android": "https://dc.lft.to/lastmile_qr_scan"}, "fusion_lon": 0.0, "lon": -77.03494466666666, "name": "285624e1118a3537dfc1ffb4330e6b6d", "is_reserved": 0, "is_disabled": 0}, {"lat": 38.87377216666667, "fusion_lat": 0.0, "type": "electric_scooter", "bike_id": "a6a9719fa61047bf6f6aa1376f3e198f", "rental_uris": {"ios": "https://dc.lft.to/lastmile_qr_scan", "android": "https://dc.lft.to/lastmile_qr_scan"}, "fusion_lon": 0.0, "lon": -77.0003535, "name": "a6a9719fa61047bf6f6aa1376f3e198f", "is_reserved": 0, "is_disabled": 0}, {"lat": 38.926971333333334, "fusion_lat": 0.0, "type": "electric_scooter", "bike_id": "2e9cb0450cf20e1545cb79edeadf9362", "rental_uris": {"ios": "https://dc.lft.to/lastmile_qr_scan", "android": "https://dc.lft.to/lastmile_qr_scan"}, "fusion_lon": 0.0, "lon": -77.02279983333334, "name": "2e9cb0450cf20e1545cb79edeadf9362", "is_reserved": 0, "is_disabled": 0}, {"lat": 38.91704283333333, "fusion_lat": 0.0, "type": "electric_scooter", "bike_id": "550cb4be15e2f688a7e51d404666dab9", "rental_uris": {"ios": "https://dc.lft.to/lastmile_qr_scan", "android": "https://dc.lft.to/lastmile_qr_scan"}, "fusion_lon": 0.0, "lon": -77.041731, "name": "550cb4be15e2f688a7e51d404666dab9", "is_reserved": 0, "is_disabled": 0}, {"lat": 38.91667833333333, "fusion_lat": 0.0, "type": "electric_scooter", "bike_id": "72951b7da85bf6aa30e12b1eb4825791", "rental_uris": {"ios": "https://dc.lft.to/lastmile_qr_scan", "android": "https://dc.lft.to/lastmile_qr_scan"}, "fusion_lon": 0.0, "lon": -77.043831, "name": "72951b7da85bf6aa30e12b1eb4825791", "is_reserved": 0, "is_disabled": 0}, {"lat": 38.915546666666664, "fusion_lat": 0.0, "type": "electric_scooter", "bike_id": "6071ec98de754a69ed0414a4b48846ea", "rental_uris": {"ios": "https://dc.lft.to/lastmile_qr_scan", "android": "https://dc.lft.to/lastmile_qr_scan"}, "fusion_lon": 0.0, "lon": -77.03213433333333, "name": "6071ec98de754a69ed0414a4b48846ea", "is_reserved": 0, "is_disabled": 0}, {"lat": 38.927975833333335, "fusion_lat": 0.0, "type": "electric_scooter", "bike_id": "ae7a738c3390ac7cab78a0d45cf9cbc8", "rental_uris": {"ios": "https://dc.lft.to/lastmile_qr_scan", "android": "https://dc.lft.to/lastmile_qr_scan"}, "fusion_lon": 0.0, "lon": -77.0406065, "name": "ae7a738c3390ac7cab78a0d45cf9cbc8", "is_reserved": 0, "is_disabled": 0}, {"lat": 38.897972833333334, "fusion_lat": 0.0, "type": "electric_scooter", "bike_id": "6b7e5e273e3ec993ff3cacb2b44130c4", "rental_uris": {"ios": "https://dc.lft.to/lastmile_qr_scan", "android": "https://dc.lft.to/lastmile_qr_scan"}, "fusion_lon": 0.0, "lon": -77.011985, "name": "6b7e5e273e3ec993ff3cacb2b44130c4", "is_reserved": 0, "is_disabled": 0}, {"lat": 38.913058166666666, "fusion_lat": 0.0, "type": "electric_scooter", "bike_id": "75407762733eaf3faf01da7538e4ae97", "rental_uris": {"ios": "https://dc.lft.to/lastmile_qr_scan", "android": "https://dc.lft.to/lastmile_qr_scan"}, "fusion_lon": 0.0, "lon": -77.04338533333333, "name": "75407762733eaf3faf01da7538e4ae97", "is_reserved": 0, "is_disabled": 0}, {"lat": 38.89487883333334, "fusion_lat": 0.0, "type": "electric_scooter", "bike_id": "b0197bdae347c5bc0af75acb430a0746", "rental_uris": {"ios": "https://dc.lft.to/lastmile_qr_scan", "android": "https://dc.lft.to/lastmile_qr_scan"}, "fusion_lon": 0.0, "lon": -77.0108135, "name": "b0197bdae347c5bc0af75acb430a0746", "is_reserved": 0, "is_disabled": 0}, {"lat": 38.93105416666667, "fusion_lat": 0.0, "type": "electric_scooter", "bike_id": "f6a0047751828feca7200ffd148dc9de", "rental_uris": {"ios": "https://dc.lft.to/lastmile_qr_scan", "android": "https://dc.lft.to/lastmile_qr_scan"}, "fusion_lon": 0.0, "lon": -77.0245685, "name": "f6a0047751828feca7200ffd148dc9de", "is_reserved": 0, "is_disabled": 0}, {"lat": 38.913649166666666, "fusion_lat": 0.0, "type": "electric_scooter", "bike_id": "e18b08016d979ee3deab5d7026cb80f5", "rental_uris": {"ios": "https://dc.lft.to/lastmile_qr_scan", "android": "https://dc.lft.to/lastmile_qr_scan"}, "fusion_lon": 0.0, "lon": -77.0200185, "name": "e18b08016d979ee3deab5d7026cb80f5", "is_reserved": 0, "is_disabled": 0}, {"lat": 38.9206315, "fusion_lat": 0.0, "type": "electric_scooter", "bike_id": "ac2a6af065926642f8f85d9ac7e119d6", "rental_uris": {"ios": "https://dc.lft.to/lastmile_qr_scan", "android": "https://dc.lft.to/lastmile_qr_scan"}, "fusion_lon": 0.0, "lon": -77.00058116666666, "name": "ac2a6af065926642f8f85d9ac7e119d6", "is_reserved": 0, "is_disabled": 0}, {"lat": 38.91034333333333, "fusion_lat": 0.0, "type": "electric_scooter", "bike_id": "fec827393eaa7652ffa2e96c39a6f1b7", "rental_uris": {"ios": "https://dc.lft.to/lastmile_qr_scan", "android": "https://dc.lft.to/lastmile_qr_scan"}, "fusion_lon": 0.0, "lon": -77.02692433333333, "name": "fec827393eaa7652ffa2e96c39a6f1b7", "is_reserved": 0, "is_disabled": 0}, {"lat": 38.905792, "fusion_lat": 0.0, "type": "electric_scooter", "bike_id": "395ce6dd921191f70f9d9bf0da2f2d95", "rental_uris": {"ios": "https://dc.lft.to/lastmile_qr_scan", "android": "https://dc.lft.to/lastmile_qr_scan"}, "fusion_lon": 0.0, "lon": -77.01854466666667, "name": "395ce6dd921191f70f9d9bf0da2f2d95", "is_reserved": 0, "is_disabled": 0}, {"lat": 38.92223283333333, "fusion_lat": 0.0, "type": "electric_scooter", "bike_id": "9de699befd400d324da6e4a614dd5071", "rental_uris": {"ios": "https://dc.lft.to/lastmile_qr_scan", "android": "https://dc.lft.to/lastmile_qr_scan"}, "fusion_lon": 0.0, "lon": -77.0212445, "name": "9de699befd400d324da6e4a614dd5071", "is_reserved": 0, "is_disabled": 0}, {"lat": 38.89387583333333, "fusion_lat": 0.0, "type": "electric_scooter", "bike_id": "756086e725e90647957dabe3b0fccd13", "rental_uris": {"ios": "https://dc.lft.to/lastmile_qr_scan", "android": "https://dc.lft.to/lastmile_qr_scan"}, "fusion_lon": 0.0, "lon": -76.9231895, "name": "756086e725e90647957dabe3b0fccd13", "is_reserved": 0, "is_disabled": 0}, {"lat": 38.8930305, "fusion_lat": 0.0, "type": "electric_scooter", "bike_id": "49c1c007a473d118b2a6f65720291424", "rental_uris": {"ios": "https://dc.lft.to/lastmile_qr_scan", "android": "https://dc.lft.to/lastmile_qr_scan"}, "fusion_lon": 0.0, "lon": -77.07865383333333, "name": "49c1c007a473d118b2a6f65720291424", "is_reserved": 0, "is_disabled": 0}, {"lat": 38.8924805, "fusion_lat": 0.0, "type": "electric_scooter", "bike_id": "a993f44245a47deeed1ec4d3055c3c37", "rental_uris": {"ios": "https://dc.lft.to/lastmile_qr_scan", "android": "https://dc.lft.to/lastmile_qr_scan"}, "fusion_lon": 0.0, "lon": -77.046599, "name": "a993f44245a47deeed1ec4d3055c3c37", "is_reserved": 0, "is_disabled": 0}, {"lat": 38.99436516666667, "fusion_lat": 0.0, "type": "electric_bike", "bike_id": "a844befc500c0d2f17335b10a8ae4748", "rental_uris": {"ios": "https://dc.lft.to/lastmile_qr_scan", "android": "https://dc.lft.to/lastmile_qr_scan"}, "fusion_lon": 0.0, "lon": -77.02664133333333, "name": "a844befc500c0d2f17335b10a8ae4748", "is_reserved": 0, "is_disabled": 0}, {"lat": 38.950103666666664, "fusion_lat": 0.0, "type": "electric_scooter", "bike_id": "027042c351344c2c124eafef3245f00a", "rental_uris": {"ios": "https://dc.lft.to/lastmile_qr_scan", "android": "https://dc.lft.to/lastmile_qr_scan"}, "fusion_lon": 0.0, "lon": -77.080631, "name": "027042c351344c2c124eafef3245f00a", "is_reserved": 0, "is_disabled": 0}, {"lat": 38.86891716666667, "fusion_lat": 0.0, "type": "electric_bike", "bike_id": "081a588a4b7003a69257a2eec75545cc", "rental_uris": {"ios": "https://dc.lft.to/lastmile_qr_scan", "android": "https://dc.lft.to/lastmile_qr_scan"}, "fusion_lon": 0.0, "lon": -76.985224, "name": "081a588a4b7003a69257a2eec75545cc", "is_reserved": 0, "is_disabled": 0}, {"lat": 39.05254133333333, "fusion_lat": 0.0, "type": "electric_bike", "bike_id": "5070761d52789e430e0e2e51101e18ed", "rental_uris": {"ios": "https://dc.lft.to/lastmile_qr_scan", "android": "https://dc.lft.to/lastmile_qr_scan"}, "fusion_lon": 0.0, "lon": -77.0807035, "name": "5070761d52789e430e0e2e51101e18ed", "is_reserved": 0, "is_disabled": 0}, {"lat": 38.847561666666664, "fusion_lat": 0.0, "type": "electric_scooter", "bike_id": "25a734a8b38cf7d4dc92dd84ab0dd3f9", "rental_uris": {"ios": "https://dc.lft.to/lastmile_qr_scan", "android": "https://dc.lft.to/lastmile_qr_scan"}, "fusion_lon": 0.0, "lon": -76.99498866666667, "name": "25a734a8b38cf7d4dc92dd84ab0dd3f9", "is_reserved": 0, "is_disabled": 0}, {"lat": 38.89650966666667, "fusion_lat": 0.0, "type": "electric_scooter", "bike_id": "4b01d85ae34fd9c734f15f81738128e1", "rental_uris": {"ios": "https://dc.lft.to/lastmile_qr_scan", "android": "https://dc.lft.to/lastmile_qr_scan"}, "fusion_lon": 0.0, "lon": -77.02394166666667, "name": "4b01d85ae34fd9c734f15f81738128e1", "is_reserved": 0, "is_disabled": 0}, {"lat": 38.912767333333335, "fusion_lat": 0.0, "type": "electric_scooter", "bike_id": "5ec4073e8229a43aa857b849c6dc4bbf", "rental_uris": {"ios": "https://dc.lft.to/lastmile_qr_scan", "android": "https://dc.lft.to/lastmile_qr_scan"}, "fusion_lon": 0.0, "lon": -77.03855083333333, "name": "5ec4073e8229a43aa857b849c6dc4bbf", "is_reserved": 0, "is_disabled": 0}, {"lat": 38.87888183333333, "fusion_lat": 0.0, "type": "electric_scooter", "bike_id": "1510692c13ee9c79050bc668536f1adb", "rental_uris": {"ios": "https://dc.lft.to/lastmile_qr_scan", "android": "https://dc.lft.to/lastmile_qr_scan"}, "fusion_lon": 0.0, "lon": -77.023137, "name": "1510692c13ee9c79050bc668536f1adb", "is_reserved": 0, "is_disabled": 0}, {"lat": 38.915714333333334, "fusion_lat": 0.0, "type": "electric_scooter", "bike_id": "f417b9aae01c6de39ce8228db15e5b9b", "rental_uris": {"ios": "https://dc.lft.to/lastmile_qr_scan", "android": "https://dc.lft.to/lastmile_qr_scan"}, "fusion_lon": 0.0, "lon": -77.01908533333334, "name": "f417b9aae01c6de39ce8228db15e5b9b", "is_reserved": 0, "is_disabled": 0}, {"lat": 38.899776833333334, "fusion_lat": 0.0, "type": "electric_scooter", "bike_id": "dddcf6826ea9c377391ac0723c1d7ae5", "rental_uris": {"ios": "https://dc.lft.to/lastmile_qr_scan", "android": "https://dc.lft.to/lastmile_qr_scan"}, "fusion_lon": 0.0, "lon": -76.98559316666666, "name": "dddcf6826ea9c377391ac0723c1d7ae5", "is_reserved": 0, "is_disabled": 0}, {"lat": 38.87398233333333, "fusion_lat": 0.0, "type": "electric_scooter", "bike_id": "4a6942778ca2f9946ea24f8cffa605dc", "rental_uris": {"ios": "https://dc.lft.to/lastmile_qr_scan", "android": "https://dc.lft.to/lastmile_qr_scan"}, "fusion_lon": 0.0, "lon": -77.01451366666667, "name": "4a6942778ca2f9946ea24f8cffa605dc", "is_reserved": 0, "is_disabled": 0}, {"lat": 38.92666366666667, "fusion_lat": 0.0, "type": "electric_scooter", "bike_id": "59463cdd91a6937bc4c4810fcb83da81", "rental_uris": {"ios": "https://dc.lft.to/lastmile_qr_scan", "android": "https://dc.lft.to/lastmile_qr_scan"}, "fusion_lon": 0.0, "lon": -77.02591466666667, "name": "59463cdd91a6937bc4c4810fcb83da81", "is_reserved": 0, "is_disabled": 0}, {"lat": 38.919739666666665, "fusion_lat": 0.0, "type": "electric_scooter", "bike_id": "55cf2e1a46a2e63d9d51eff7d8e216eb", "rental_uris": {"ios": "https://dc.lft.to/lastmile_qr_scan", "android": "https://dc.lft.to/lastmile_qr_scan"}, "fusion_lon": 0.0, "lon": -77.0709485, "name": "55cf2e1a46a2e63d9d51eff7d8e216eb", "is_reserved": 0, "is_disabled": 0}, {"lat": 38.900399, "fusion_lat": 0.0, "type": "electric_scooter", "bike_id": "dff2e862879f8220c263694764afee5e", "rental_uris": {"ios": "https://dc.lft.to/lastmile_qr_scan", "android": "https://dc.lft.to/lastmile_qr_scan"}, "fusion_lon": 0.0, "lon": -77.01164466666667, "name": "dff2e862879f8220c263694764afee5e", "is_reserved": 0, "is_disabled": 0}, {"lat": 38.92657083333334, "fusion_lat": 0.0, "type": "electric_scooter", "bike_id": "683b910feb2993e5062d1d3c558ca2e1", "rental_uris": {"ios": "https://dc.lft.to/lastmile_qr_scan", "android": "https://dc.lft.to/lastmile_qr_scan"}, "fusion_lon": 0.0, "lon": -77.0242465, "name": "683b910feb2993e5062d1d3c558ca2e1", "is_reserved": 0, "is_disabled": 0}, {"lat": 38.83606733333333, "fusion_lat": 0.0, "type": "electric_bike", "bike_id": "ca2f6f6f42e26d5f30b6e3074408c94b", "rental_uris": {"ios": "https://dc.lft.to/lastmile_qr_scan", "android": "https://dc.lft.to/lastmile_qr_scan"}, "fusion_lon": 0.0, "lon": -77.00391, "name": "ca2f6f6f42e26d5f30b6e3074408c94b", "is_reserved": 0, "is_disabled": 0}, {"lat": 38.913215666666666, "fusion_lat": 0.0, "type": "electric_scooter", "bike_id": "3b161999a15a6834d9cc1de476934a96", "rental_uris": {"ios": "https://dc.lft.to/lastmile_qr_scan", "android": "https://dc.lft.to/lastmile_qr_scan"}, "fusion_lon": 0.0, "lon": -77.04562033333333, "name": "3b161999a15a6834d9cc1de476934a96", "is_reserved": 0, "is_disabled": 0}, {"lat": 38.92127766666667, "fusion_lat": 0.0, "type": "electric_scooter", "bike_id": "54c42adadd2244d278270b3a7d18a334", "rental_uris": {"ios": "https://dc.lft.to/lastmile_qr_scan", "android": "https://dc.lft.to/lastmile_qr_scan"}, "fusion_lon": 0.0, "lon": -77.02980966666667, "name": "54c42adadd2244d278270b3a7d18a334", "is_reserved": 0, "is_disabled": 0}, {"lat": 38.898357, "fusion_lat": 0.0, "type": "electric_scooter", "bike_id": "c5baa952ac1bcc9d781bd8a5cb049e16", "rental_uris": {"ios": "https://dc.lft.to/lastmile_qr_scan", "android": "https://dc.lft.to/lastmile_qr_scan"}, "fusion_lon": 0.0, "lon": -76.94618833333334, "name": "c5baa952ac1bcc9d781bd8a5cb049e16", "is_reserved": 0, "is_disabled": 0}, {"lat": 38.895391833333335, "fusion_lat": 0.0, "type": "electric_scooter", "bike_id": "b54971798455bd776e3eacdcd7f39fce", "rental_uris": {"ios": "https://dc.lft.to/lastmile_qr_scan", "android": "https://dc.lft.to/lastmile_qr_scan"}, "fusion_lon": 0.0, "lon": -77.02819683333334, "name": "b54971798455bd776e3eacdcd7f39fce", "is_reserved": 0, "is_disabled": 0}, {"lat": 38.8899765, "fusion_lat": 0.0, "type": "electric_scooter", "bike_id": "0e8f18ca8884e74f360a16659d221028", "rental_uris": {"ios": "https://dc.lft.to/lastmile_qr_scan", "android": "https://dc.lft.to/lastmile_qr_scan"}, "fusion_lon": 0.0, "lon": -76.983836, "name": "0e8f18ca8884e74f360a16659d221028", "is_reserved": 0, "is_disabled": 0}, {"lat": 38.87467983333333, "fusion_lat": 0.0, "type": "electric_scooter", "bike_id": "eca5c33e03e60822124e8aeefd2465b0", "rental_uris": {"ios": "https://dc.lft.to/lastmile_qr_scan", "android": "https://dc.lft.to/lastmile_qr_scan"}, "fusion_lon": 0.0, "lon": -77.0046955, "name": "eca5c33e03e60822124e8aeefd2465b0", "is_reserved": 0, "is_disabled": 0}, {"lat": 38.9047595, "fusion_lat": 0.0, "type": "electric_scooter", "bike_id": "b4615813c611a17e65eecdac2cd8e7cb", "rental_uris": {"ios": "https://dc.lft.to/lastmile_qr_scan", "android": "https://dc.lft.to/lastmile_qr_scan"}, "fusion_lon": 0.0, "lon": -77.026965, "name": "b4615813c611a17e65eecdac2cd8e7cb", "is_reserved": 0, "is_disabled": 0}, {"lat": 38.89176333333333, "fusion_lat": 0.0, "type": "electric_scooter", "bike_id": "f2cccc958c474f5a23d29340de5b9fde", "rental_uris": {"ios": "https://dc.lft.to/lastmile_qr_scan", "android": "https://dc.lft.to/lastmile_qr_scan"}, "fusion_lon": 0.0, "lon": -77.01556183333334, "name": "f2cccc958c474f5a23d29340de5b9fde", "is_reserved": 0, "is_disabled": 0}, {"lat": 38.9094735, "fusion_lat": 0.0, "type": "electric_scooter", "bike_id": "dcff0ba801b55e27c0a66fdd0d4303e3", "rental_uris": {"ios": "https://dc.lft.to/lastmile_qr_scan", "android": "https://dc.lft.to/lastmile_qr_scan"}, "fusion_lon": 0.0, "lon": -77.02692316666666, "name": "dcff0ba801b55e27c0a66fdd0d4303e3", "is_reserved": 0, "is_disabled": 0}, {"lat": 38.902116, "fusion_lat": 0.0, "type": "electric_scooter", "bike_id": "22822ac08805cd1e95a029507373b6c2", "rental_uris": {"ios": "https://dc.lft.to/lastmile_qr_scan", "android": "https://dc.lft.to/lastmile_qr_scan"}, "fusion_lon": 0.0, "lon": -77.02173116666667, "name": "22822ac08805cd1e95a029507373b6c2", "is_reserved": 0, "is_disabled": 0}, {"lat": 38.89674433333333, "fusion_lat": 0.0, "type": "electric_scooter", "bike_id": "6a63faa5c8d82a1bcb2187612a7216db", "rental_uris": {"ios": "https://dc.lft.to/lastmile_qr_scan", "android": "https://dc.lft.to/lastmile_qr_scan"}, "fusion_lon": 0.0, "lon": -76.93212633333333, "name": "6a63faa5c8d82a1bcb2187612a7216db", "is_reserved": 0, "is_disabled": 0}, {"lat": 38.906781333333335, "fusion_lat": 0.0, "type": "electric_scooter", "bike_id": "757096e0a7ad3e416b5268d490076930", "rental_uris": {"ios": "https://dc.lft.to/lastmile_qr_scan", "android": "https://dc.lft.to/lastmile_qr_scan"}, "fusion_lon": 0.0, "lon": -77.02724466666666, "name": "757096e0a7ad3e416b5268d490076930", "is_reserved": 0, "is_disabled": 0}, {"lat": 38.90159283333333, "fusion_lat": 0.0, "type": "electric_scooter", "bike_id": "95d8712fe15fcf157428c262dca98485", "rental_uris": {"ios": "https://dc.lft.to/lastmile_qr_scan", "android": "https://dc.lft.to/lastmile_qr_scan"}, "fusion_lon": 0.0, "lon": -77.0269975, "name": "95d8712fe15fcf157428c262dca98485", "is_reserved": 0, "is_disabled": 0}, {"lat": 38.908409166666665, "fusion_lat": 0.0, "type": "electric_scooter", "bike_id": "f14a734c7e39d2fc894cffa1782e73a7", "rental_uris": {"ios": "https://dc.lft.to/lastmile_qr_scan", "android": "https://dc.lft.to/lastmile_qr_scan"}, "fusion_lon": 0.0, "lon": -77.023927, "name": "f14a734c7e39d2fc894cffa1782e73a7", "is_reserved": 0, "is_disabled": 0}, {"lat": 38.897183, "fusion_lat": 0.0, "type": "electric_scooter", "bike_id": "d21bf4499d0fddb97945fae02ab7e0fa", "rental_uris": {"ios": "https://dc.lft.to/lastmile_qr_scan", "android": "https://dc.lft.to/lastmile_qr_scan"}, "fusion_lon": 0.0, "lon": -77.00801, "name": "d21bf4499d0fddb97945fae02ab7e0fa", "is_reserved": 0, "is_disabled": 0}, {"lat": 38.90077683333333, "fusion_lat": 0.0, "type": "electric_scooter", "bike_id": "0e1e056060ecdbd0a9a4a83c9d58d132", "rental_uris": {"ios": "https://dc.lft.to/lastmile_qr_scan", "android": "https://dc.lft.to/lastmile_qr_scan"}, "fusion_lon": 0.0, "lon": -77.04479383333333, "name": "0e1e056060ecdbd0a9a4a83c9d58d132", "is_reserved": 0, "is_disabled": 0}, {"lat": 38.88768616666667, "fusion_lat": 0.0, "type": "electric_scooter", "bike_id": "5324180210c895e26545b7f6a5010e34", "rental_uris": {"ios": "https://dc.lft.to/lastmile_qr_scan", "android": "https://dc.lft.to/lastmile_qr_scan"}, "fusion_lon": 0.0, "lon": -76.9869195, "name": "5324180210c895e26545b7f6a5010e34", "is_reserved": 0, "is_disabled": 0}, {"lat": 38.87723783333333, "fusion_lat": 0.0, "type": "electric_scooter", "bike_id": "fb8fbbf216fd1f1f5b61675ff53b42d9", "rental_uris": {"ios": "https://dc.lft.to/lastmile_qr_scan", "android": "https://dc.lft.to/lastmile_qr_scan"}, "fusion_lon": 0.0, "lon": -77.01759266666667, "name": "fb8fbbf216fd1f1f5b61675ff53b42d9", "is_reserved": 0, "is_disabled": 0}, {"lat": 38.8999435, "fusion_lat": 0.0, "type": "electric_scooter", "bike_id": "79f5fa48b21f9a981858ee7aa6417e51", "rental_uris": {"ios": "https://dc.lft.to/lastmile_qr_scan", "android": "https://dc.lft.to/lastmile_qr_scan"}, "fusion_lon": 0.0, "lon": -77.00659433333334, "name": "79f5fa48b21f9a981858ee7aa6417e51", "is_reserved": 0, "is_disabled": 0}, {"lat": 38.912032833333335, "fusion_lat": 0.0, "type": "electric_scooter", "bike_id": "3b2fd023f3334680d60d838c4035ef53", "rental_uris": {"ios": "https://dc.lft.to/lastmile_qr_scan", "android": "https://dc.lft.to/lastmile_qr_scan"}, "fusion_lon": 0.0, "lon": -77.04538866666667, "name": "3b2fd023f3334680d60d838c4035ef53", "is_reserved": 0, "is_disabled": 0}, {"lat": 38.9377605, "fusion_lat": 0.0, "type": "electric_scooter", "bike_id": "92acf9adbe514b1e3cc4f40ebfcfa6dc", "rental_uris": {"ios": "https://dc.lft.to/lastmile_qr_scan", "android": "https://dc.lft.to/lastmile_qr_scan"}, "fusion_lon": 0.0, "lon": -77.0328245, "name": "92acf9adbe514b1e3cc4f40ebfcfa6dc", "is_reserved": 0, "is_disabled": 0}, {"lat": 38.9075035, "fusion_lat": 0.0, "type": "electric_scooter", "bike_id": "4c62942a02367ba87e254f0e9803d94a", "rental_uris": {"ios": "https://dc.lft.to/lastmile_qr_scan", "android": "https://dc.lft.to/lastmile_qr_scan"}, "fusion_lon": 0.0, "lon": -77.02595816666667, "name": "4c62942a02367ba87e254f0e9803d94a", "is_reserved": 0, "is_disabled": 0}, {"lat": 38.90135816666667, "fusion_lat": 0.0, "type": "electric_scooter", "bike_id": "77f51dd4df20d11d11b8986f8d92cd23", "rental_uris": {"ios": "https://dc.lft.to/lastmile_qr_scan", "android": "https://dc.lft.to/lastmile_qr_scan"}, "fusion_lon": 0.0, "lon": -77.02563333333333, "name": "77f51dd4df20d11d11b8986f8d92cd23", "is_reserved": 0, "is_disabled": 0}, {"lat": 38.89759216666667, "fusion_lat": 0.0, "type": "electric_scooter", "bike_id": "dc13f990ff96711c2b3b84eacc568134", "rental_uris": {"ios": "https://dc.lft.to/lastmile_qr_scan", "android": "https://dc.lft.to/lastmile_qr_scan"}, "fusion_lon": 0.0, "lon": -76.98662716666666, "name": "dc13f990ff96711c2b3b84eacc568134", "is_reserved": 0, "is_disabled": 0}, {"lat": 38.9281215, "fusion_lat": 0.0, "type": "electric_bike", "bike_id": "8f0f17dc05363bb9a918469ec9a7b537", "rental_uris": {"ios": "https://dc.lft.to/lastmile_qr_scan", "android": "https://dc.lft.to/lastmile_qr_scan"}, "fusion_lon": 0.0, "lon": -77.03270216666667, "name": "8f0f17dc05363bb9a918469ec9a7b537", "is_reserved": 0, "is_disabled": 0}, {"lat": 38.9161115, "fusion_lat": 0.0, "type": "electric_scooter", "bike_id": "29705cd6beb55752fb0759710dab5fcd", "rental_uris": {"ios": "https://dc.lft.to/lastmile_qr_scan", "android": "https://dc.lft.to/lastmile_qr_scan"}, "fusion_lon": 0.0, "lon": -77.044816, "name": "29705cd6beb55752fb0759710dab5fcd", "is_reserved": 0, "is_disabled": 0}, {"lat": 38.920279, "fusion_lat": 0.0, "type": "electric_scooter", "bike_id": "52cb8ae7e3526424cd95b7650a68335f", "rental_uris": {"ios": "https://dc.lft.to/lastmile_qr_scan", "android": "https://dc.lft.to/lastmile_qr_scan"}, "fusion_lon": 0.0, "lon": -77.0103, "name": "52cb8ae7e3526424cd95b7650a68335f", "is_reserved": 0, "is_disabled": 0}, {"lat": 38.9394535, "fusion_lat": 0.0, "type": "electric_scooter", "bike_id": "380eb10cfc76f76bb84cdf7670653ba1", "rental_uris": {"ios": "https://dc.lft.to/lastmile_qr_scan", "android": "https://dc.lft.to/lastmile_qr_scan"}, "fusion_lon": 0.0, "lon": -77.02182166666667, "name": "380eb10cfc76f76bb84cdf7670653ba1", "is_reserved": 0, "is_disabled": 0}, {"lat": 38.89871133333333, "fusion_lat": 0.0, "type": "electric_scooter", "bike_id": "92fdc5916999372507fa0d08619c0c41", "rental_uris": {"ios": "https://dc.lft.to/lastmile_qr_scan", "android": "https://dc.lft.to/lastmile_qr_scan"}, "fusion_lon": 0.0, "lon": -77.00976183333333, "name": "92fdc5916999372507fa0d08619c0c41", "is_reserved": 0, "is_disabled": 0}, {"lat": 38.928383333333336, "fusion_lat": 0.0, "type": "electric_scooter", "bike_id": "a7ccaff938ba73dc45f6e2f5179b3094", "rental_uris": {"ios": "https://dc.lft.to/lastmile_qr_scan", "android": "https://dc.lft.to/lastmile_qr_scan"}, "fusion_lon": 0.0, "lon": -77.00608866666667, "name": "a7ccaff938ba73dc45f6e2f5179b3094", "is_reserved": 0, "is_disabled": 0}, {"lat": 38.922395, "fusion_lat": 0.0, "type": "electric_scooter", "bike_id": "06da16192d9810ec3c2c97cd451e954d", "rental_uris": {"ios": "https://dc.lft.to/lastmile_qr_scan", "android": "https://dc.lft.to/lastmile_qr_scan"}, "fusion_lon": 0.0, "lon": -77.02200866666666, "name": "06da16192d9810ec3c2c97cd451e954d", "is_reserved": 0, "is_disabled": 0}, {"lat": 38.904439833333335, "fusion_lat": 0.0, "type": "electric_scooter", "bike_id": "b7bd940624108cd07ac71a2744609b4e", "rental_uris": {"ios": "https://dc.lft.to/lastmile_qr_scan", "android": "https://dc.lft.to/lastmile_qr_scan"}, "fusion_lon": 0.0, "lon": -77.02596533333333, "name": "b7bd940624108cd07ac71a2744609b4e", "is_reserved": 0, "is_disabled": 0}, {"lat": 38.91516033333333, "fusion_lat": 0.0, "type": "electric_scooter", "bike_id": "688aabda4eb06591e5f797245e170781", "rental_uris": {"ios": "https://dc.lft.to/lastmile_qr_scan", "android": "https://dc.lft.to/lastmile_qr_scan"}, "fusion_lon": 0.0, "lon": -77.01983116666666, "name": "688aabda4eb06591e5f797245e170781", "is_reserved": 0, "is_disabled": 0}, {"lat": 38.88374066666667, "fusion_lat": 0.0, "type": "electric_scooter", "bike_id": "d003faf77c69e9af84311f932cf6c4a1", "rental_uris": {"ios": "https://dc.lft.to/lastmile_qr_scan", "android": "https://dc.lft.to/lastmile_qr_scan"}, "fusion_lon": 0.0, "lon": -76.99536316666666, "name": "d003faf77c69e9af84311f932cf6c4a1", "is_reserved": 0, "is_disabled": 0}, {"lat": 38.921769166666664, "fusion_lat": 0.0, "type": "electric_scooter", "bike_id": "d85fd0b878af8ce9762625ab8f5a8b95", "rental_uris": {"ios": "https://dc.lft.to/lastmile_qr_scan", "android": "https://dc.lft.to/lastmile_qr_scan"}, "fusion_lon": 0.0, "lon": -77.04012, "name": "d85fd0b878af8ce9762625ab8f5a8b95", "is_reserved": 0, "is_disabled": 0}, {"lat": 38.9615245, "fusion_lat": 0.0, "type": "electric_scooter", "bike_id": "71ab6c689f820ff125d008683341d34d", "rental_uris": {"ios": "https://dc.lft.to/lastmile_qr_scan", "android": "https://dc.lft.to/lastmile_qr_scan"}, "fusion_lon": 0.0, "lon": -77.03239366666666, "name": "71ab6c689f820ff125d008683341d34d", "is_reserved": 0, "is_disabled": 0}, {"lat": 38.9094735, "fusion_lat": 0.0, "type": "electric_scooter", "bike_id": "b137129bd7f4f75930c9599d1a9a99a8", "rental_uris": {"ios": "https://dc.lft.to/lastmile_qr_scan", "android": "https://dc.lft.to/lastmile_qr_scan"}, "fusion_lon": 0.0, "lon": -77.03458433333333, "name": "b137129bd7f4f75930c9599d1a9a99a8", "is_reserved": 0, "is_disabled": 0}, {"lat": 38.80680733333333, "fusion_lat": 0.0, "type": "electric_bike", "bike_id": "a02365b1317da57143063e73cae75ac3", "rental_uris": {"ios": "https://dc.lft.to/lastmile_qr_scan", "android": "https://dc.lft.to/lastmile_qr_scan"}, "fusion_lon": 0.0, "lon": -77.0691165, "name": "a02365b1317da57143063e73cae75ac3", "is_reserved": 0, "is_disabled": 0}, {"lat": 38.91817, "fusion_lat": 0.0, "type": "electric_scooter", "bike_id": "3f457647379e0b7a949f76b33615ebf8", "rental_uris": {"ios": "https://dc.lft.to/lastmile_qr_scan", "android": "https://dc.lft.to/lastmile_qr_scan"}, "fusion_lon": 0.0, "lon": -77.03634033333333, "name": "3f457647379e0b7a949f76b33615ebf8", "is_reserved": 0, "is_disabled": 0}, {"lat": 38.902518, "fusion_lat": 0.0, "type": "electric_scooter", "bike_id": "5374ee66cbca82e7dce8fe3f5a330737", "rental_uris": {"ios": "https://dc.lft.to/lastmile_qr_scan", "android": "https://dc.lft.to/lastmile_qr_scan"}, "fusion_lon": 0.0, "lon": -77.06292916666666, "name": "5374ee66cbca82e7dce8fe3f5a330737", "is_reserved": 0, "is_disabled": 0}, {"lat": 38.918039, "fusion_lat": 0.0, "type": "electric_scooter", "bike_id": "601da6fd73b119d72f69642091540131", "rental_uris": {"ios": "https://dc.lft.to/lastmile_qr_scan", "android": "https://dc.lft.to/lastmile_qr_scan"}, "fusion_lon": 0.0, "lon": -77.0379955, "name": "601da6fd73b119d72f69642091540131", "is_reserved": 0, "is_disabled": 0}, {"lat": 38.91925583333333, "fusion_lat": 0.0, "type": "electric_scooter", "bike_id": "d1c45f5d88cba6828e8dac978439e7fc", "rental_uris": {"ios": "https://dc.lft.to/lastmile_qr_scan", "android": "https://dc.lft.to/lastmile_qr_scan"}, "fusion_lon": 0.0, "lon": -77.03331233333333, "name": "d1c45f5d88cba6828e8dac978439e7fc", "is_reserved": 0, "is_disabled": 0}, {"lat": 38.924198833333335, "fusion_lat": 0.0, "type": "electric_scooter", "bike_id": "f647b508711cf511ce260d8e6c46256f", "rental_uris": {"ios": "https://dc.lft.to/lastmile_qr_scan", "android": "https://dc.lft.to/lastmile_qr_scan"}, "fusion_lon": 0.0, "lon": -77.02010316666667, "name": "f647b508711cf511ce260d8e6c46256f", "is_reserved": 0, "is_disabled": 0}, {"lat": 38.924847, "fusion_lat": 0.0, "type": "electric_scooter", "bike_id": "2165ba7cd2c875aac00d851c64c5225f", "rental_uris": {"ios": "https://dc.lft.to/lastmile_qr_scan", "android": "https://dc.lft.to/lastmile_qr_scan"}, "fusion_lon": 0.0, "lon": -77.031818, "name": "2165ba7cd2c875aac00d851c64c5225f", "is_reserved": 0, "is_disabled": 0}, {"lat": 38.920748833333334, "fusion_lat": 0.0, "type": "electric_scooter", "bike_id": "f1065f7eed65027f4e9d1f2fa1960fc4", "rental_uris": {"ios": "https://dc.lft.to/lastmile_qr_scan", "android": "https://dc.lft.to/lastmile_qr_scan"}, "fusion_lon": 0.0, "lon": -77.02538783333334, "name": "f1065f7eed65027f4e9d1f2fa1960fc4", "is_reserved": 0, "is_disabled": 0}, {"lat": 38.910993, "fusion_lat": 0.0, "type": "electric_scooter", "bike_id": "83561e613f032d9c3a2f2801e9e23d12", "rental_uris": {"ios": "https://dc.lft.to/lastmile_qr_scan", "android": "https://dc.lft.to/lastmile_qr_scan"}, "fusion_lon": 0.0, "lon": -77.031854, "name": "83561e613f032d9c3a2f2801e9e23d12", "is_reserved": 0, "is_disabled": 0}, {"lat": 38.9051595, "fusion_lat": 0.0, "type": "electric_scooter", "bike_id": "3fd657ec4def1f6c23f4a0e1ee986253", "rental_uris": {"ios": "https://dc.lft.to/lastmile_qr_scan", "android": "https://dc.lft.to/lastmile_qr_scan"}, "fusion_lon": 0.0, "lon": -77.066321, "name": "3fd657ec4def1f6c23f4a0e1ee986253", "is_reserved": 0, "is_disabled": 0}, {"lat": 38.941769, "fusion_lat": 0.0, "type": "electric_scooter", "bike_id": "2bfbbd5f737c7f5f2b7f59168c5b17a1", "rental_uris": {"ios": "https://dc.lft.to/lastmile_qr_scan", "android": "https://dc.lft.to/lastmile_qr_scan"}, "fusion_lon": 0.0, "lon": -77.027918, "name": "2bfbbd5f737c7f5f2b7f59168c5b17a1", "is_reserved": 0, "is_disabled": 0}, {"lat": 38.92156116666666, "fusion_lat": 0.0, "type": "electric_scooter", "bike_id": "67c50d74c7ab0753acb3cc87063f286c", "rental_uris": {"ios": "https://dc.lft.to/lastmile_qr_scan", "android": "https://dc.lft.to/lastmile_qr_scan"}, "fusion_lon": 0.0, "lon": -77.03504166666667, "name": "67c50d74c7ab0753acb3cc87063f286c", "is_reserved": 0, "is_disabled": 0}, {"lat": 38.89531566666667, "fusion_lat": 0.0, "type": "electric_scooter", "bike_id": "83f3ff10d13f90bf69ec40ae0df1c867", "rental_uris": {"ios": "https://dc.lft.to/lastmile_qr_scan", "android": "https://dc.lft.to/lastmile_qr_scan"}, "fusion_lon": 0.0, "lon": -77.03208416666666, "name": "83f3ff10d13f90bf69ec40ae0df1c867", "is_reserved": 0, "is_disabled": 0}, {"lat": 38.92516966666667, "fusion_lat": 0.0, "type": "electric_scooter", "bike_id": "041bac8e5d9d61cf036c6b5b51ea4878", "rental_uris": {"ios": "https://dc.lft.to/lastmile_qr_scan", "android": "https://dc.lft.to/lastmile_qr_scan"}, "fusion_lon": 0.0, "lon": -77.02361, "name": "041bac8e5d9d61cf036c6b5b51ea4878", "is_reserved": 0, "is_disabled": 0}, {"lat": 38.901259, "fusion_lat": 0.0, "type": "electric_scooter", "bike_id": "47a3d41832da4dfc4d0bece19cbb9ec3", "rental_uris": {"ios": "https://dc.lft.to/lastmile_qr_scan", "android": "https://dc.lft.to/lastmile_qr_scan"}, "fusion_lon": 0.0, "lon": -77.03485033333334, "name": "47a3d41832da4dfc4d0bece19cbb9ec3", "is_reserved": 0, "is_disabled": 0}, {"lat": 38.90748166666667, "fusion_lat": 0.0, "type": "electric_scooter", "bike_id": "783c723333ece2f5d3e18109b520884b", "rental_uris": {"ios": "https://dc.lft.to/lastmile_qr_scan", "android": "https://dc.lft.to/lastmile_qr_scan"}, "fusion_lon": 0.0, "lon": -77.04499516666667, "name": "783c723333ece2f5d3e18109b520884b", "is_reserved": 0, "is_disabled": 0}, {"lat": 38.961427666666665, "fusion_lat": 0.0, "type": "electric_scooter", "bike_id": "5ceb806ed6003efdf4609a1e3e83c74f", "rental_uris": {"ios": "https://dc.lft.to/lastmile_qr_scan", "android": "https://dc.lft.to/lastmile_qr_scan"}, "fusion_lon": 0.0, "lon": -77.02781733333333, "name": "5ceb806ed6003efdf4609a1e3e83c74f", "is_reserved": 0, "is_disabled": 0}, {"lat": 38.89729116666667, "fusion_lat": 0.0, "type": "electric_scooter", "bike_id": "9ec9ef5ce37a72d8595a5c90a52eec78", "rental_uris": {"ios": "https://dc.lft.to/lastmile_qr_scan", "android": "https://dc.lft.to/lastmile_qr_scan"}, "fusion_lon": 0.0, "lon": -77.04928333333334, "name": "9ec9ef5ce37a72d8595a5c90a52eec78", "is_reserved": 0, "is_disabled": 0}, {"lat": 38.90700133333333, "fusion_lat": 0.0, "type": "electric_scooter", "bike_id": "719fe4053d85dce3281827ec03f8b46a", "rental_uris": {"ios": "https://dc.lft.to/lastmile_qr_scan", "android": "https://dc.lft.to/lastmile_qr_scan"}, "fusion_lon": 0.0, "lon": -76.98697116666666, "name": "719fe4053d85dce3281827ec03f8b46a", "is_reserved": 0, "is_disabled": 0}, {"lat": 38.93344333333334, "fusion_lat": 0.0, "type": "electric_scooter", "bike_id": "2e28e76fb4d50cf126b4d479dedb067d", "rental_uris": {"ios": "https://dc.lft.to/lastmile_qr_scan", "android": "https://dc.lft.to/lastmile_qr_scan"}, "fusion_lon": 0.0, "lon": -77.07348516666667, "name": "2e28e76fb4d50cf126b4d479dedb067d", "is_reserved": 0, "is_disabled": 0}, {"lat": 38.908492, "fusion_lat": 0.0, "type": "electric_scooter", "bike_id": "8f576d76ecc584ee18fb1c0807a1d615", "rental_uris": {"ios": "https://dc.lft.to/lastmile_qr_scan", "android": "https://dc.lft.to/lastmile_qr_scan"}, "fusion_lon": 0.0, "lon": -77.03184083333333, "name": "8f576d76ecc584ee18fb1c0807a1d615", "is_reserved": 0, "is_disabled": 0}, {"lat": 38.9080945, "fusion_lat": 0.0, "type": "electric_scooter", "bike_id": "48251c0699b73c263cb16670d6d3912e", "rental_uris": {"ios": "https://dc.lft.to/lastmile_qr_scan", "android": "https://dc.lft.to/lastmile_qr_scan"}, "fusion_lon": 0.0, "lon": -77.02534383333334, "name": "48251c0699b73c263cb16670d6d3912e", "is_reserved": 0, "is_disabled": 0}, {"lat": 38.924469333333334, "fusion_lat": 0.0, "type": "electric_scooter", "bike_id": "9de29b5aa7cac3928b7fd9a02d271fa5", "rental_uris": {"ios": "https://dc.lft.to/lastmile_qr_scan", "android": "https://dc.lft.to/lastmile_qr_scan"}, "fusion_lon": 0.0, "lon": -76.98988733333333, "name": "9de29b5aa7cac3928b7fd9a02d271fa5", "is_reserved": 0, "is_disabled": 0}, {"lat": 38.897003, "fusion_lat": 0.0, "type": "electric_bike", "bike_id": "da2407d98652cb79f271776decc48895", "rental_uris": {"ios": "https://dc.lft.to/lastmile_qr_scan", "android": "https://dc.lft.to/lastmile_qr_scan"}, "fusion_lon": 0.0, "lon": -76.96308833333333, "name": "da2407d98652cb79f271776decc48895", "is_reserved": 0, "is_disabled": 0}, {"lat": 38.907189, "fusion_lat": 0.0, "type": "electric_scooter", "bike_id": "2330b67683fd170482d5527eb603e5d0", "rental_uris": {"ios": "https://dc.lft.to/lastmile_qr_scan", "android": "https://dc.lft.to/lastmile_qr_scan"}, "fusion_lon": 0.0, "lon": -77.07629433333334, "name": "2330b67683fd170482d5527eb603e5d0", "is_reserved": 0, "is_disabled": 0}, {"lat": 38.89878133333333, "fusion_lat": 0.0, "type": "electric_scooter", "bike_id": "9017af420fd5acf2db669a3bd825d164", "rental_uris": {"ios": "https://dc.lft.to/lastmile_qr_scan", "android": "https://dc.lft.to/lastmile_qr_scan"}, "fusion_lon": 0.0, "lon": -76.93189133333334, "name": "9017af420fd5acf2db669a3bd825d164", "is_reserved": 0, "is_disabled": 0}, {"lat": 38.847440666666664, "fusion_lat": 0.0, "type": "electric_scooter", "bike_id": "6c631dbe53dd5ed6cd6cd14970c2ca73", "rental_uris": {"ios": "https://dc.lft.to/lastmile_qr_scan", "android": "https://dc.lft.to/lastmile_qr_scan"}, "fusion_lon": 0.0, "lon": -76.99509816666666, "name": "6c631dbe53dd5ed6cd6cd14970c2ca73", "is_reserved": 0, "is_disabled": 0}, {"lat": 38.8985935, "fusion_lat": 0.0, "type": "electric_scooter", "bike_id": "cd0d17b10902af55bae9d8ea6cf9bec4", "rental_uris": {"ios": "https://dc.lft.to/lastmile_qr_scan", "android": "https://dc.lft.to/lastmile_qr_scan"}, "fusion_lon": 0.0, "lon": -77.0137575, "name": "cd0d17b10902af55bae9d8ea6cf9bec4", "is_reserved": 0, "is_disabled": 0}, {"lat": 38.88935033333333, "fusion_lat": 0.0, "type": "electric_scooter", "bike_id": "309c906638055cff046541655e8c34e8", "rental_uris": {"ios": "https://dc.lft.to/lastmile_qr_scan", "android": "https://dc.lft.to/lastmile_qr_scan"}, "fusion_lon": 0.0, "lon": -76.99378266666666, "name": "309c906638055cff046541655e8c34e8", "is_reserved": 0, "is_disabled": 0}, {"lat": 38.912637, "fusion_lat": 0.0, "type": "electric_scooter", "bike_id": "a6f5a8a25a35778586049d4ade02003f", "rental_uris": {"ios": "https://dc.lft.to/lastmile_qr_scan", "android": "https://dc.lft.to/lastmile_qr_scan"}, "fusion_lon": 0.0, "lon": -77.0317995, "name": "a6f5a8a25a35778586049d4ade02003f", "is_reserved": 0, "is_disabled": 0}, {"lat": 38.8996195, "fusion_lat": 0.0, "type": "electric_scooter", "bike_id": "223bdd8e9db2bd9415c091ce8b5ba885", "rental_uris": {"ios": "https://dc.lft.to/lastmile_qr_scan", "android": "https://dc.lft.to/lastmile_qr_scan"}, "fusion_lon": 0.0, "lon": -77.0465525, "name": "223bdd8e9db2bd9415c091ce8b5ba885", "is_reserved": 0, "is_disabled": 0}, {"lat": 38.8984015, "fusion_lat": 0.0, "type": "electric_scooter", "bike_id": "469192e71b28630d56cb7fb0f01d0ccd", "rental_uris": {"ios": "https://dc.lft.to/lastmile_qr_scan", "android": "https://dc.lft.to/lastmile_qr_scan"}, "fusion_lon": 0.0, "lon": -77.02849983333333, "name": "469192e71b28630d56cb7fb0f01d0ccd", "is_reserved": 0, "is_disabled": 0}, {"lat": 38.90705916666667, "fusion_lat": 0.0, "type": "electric_scooter", "bike_id": "59542b758a73043decf315d6eb7fac78", "rental_uris": {"ios": "https://dc.lft.to/lastmile_qr_scan", "android": "https://dc.lft.to/lastmile_qr_scan"}, "fusion_lon": 0.0, "lon": -77.01034516666667, "name": "59542b758a73043decf315d6eb7fac78", "is_reserved": 0, "is_disabled": 0}, {"lat": 38.907414333333335, "fusion_lat": 0.0, "type": "electric_scooter", "bike_id": "75aae46b82036dd3337683954c427f70", "rental_uris": {"ios": "https://dc.lft.to/lastmile_qr_scan", "android": "https://dc.lft.to/lastmile_qr_scan"}, "fusion_lon": 0.0, "lon": -77.01308083333333, "name": "75aae46b82036dd3337683954c427f70", "is_reserved": 0, "is_disabled": 0}, {"lat": 38.92437483333333, "fusion_lat": 0.0, "type": "electric_scooter", "bike_id": "7a50e4c6766b4f53f52846e5a23c5494", "rental_uris": {"ios": "https://dc.lft.to/lastmile_qr_scan", "android": "https://dc.lft.to/lastmile_qr_scan"}, "fusion_lon": 0.0, "lon": -77.02035783333334, "name": "7a50e4c6766b4f53f52846e5a23c5494", "is_reserved": 0, "is_disabled": 0}, {"lat": 38.89834283333333, "fusion_lat": 0.0, "type": "electric_scooter", "bike_id": "b507c8ce231667c5b1e658a3bc89d0f7", "rental_uris": {"ios": "https://dc.lft.to/lastmile_qr_scan", "android": "https://dc.lft.to/lastmile_qr_scan"}, "fusion_lon": 0.0, "lon": -77.00741833333333, "name": "b507c8ce231667c5b1e658a3bc89d0f7", "is_reserved": 0, "is_disabled": 0}, {"lat": 38.911149, "fusion_lat": 0.0, "type": "electric_scooter", "bike_id": "2f809e8c382bb7de8c3586a49da9514d", "rental_uris": {"ios": "https://dc.lft.to/lastmile_qr_scan", "android": "https://dc.lft.to/lastmile_qr_scan"}, "fusion_lon": 0.0, "lon": -77.02985166666667, "name": "2f809e8c382bb7de8c3586a49da9514d", "is_reserved": 0, "is_disabled": 0}, {"lat": 38.938484, "fusion_lat": 0.0, "type": "electric_scooter", "bike_id": "1158097ca9649af966b6d31d8301114d", "rental_uris": {"ios": "https://dc.lft.to/lastmile_qr_scan", "android": "https://dc.lft.to/lastmile_qr_scan"}, "fusion_lon": 0.0, "lon": -77.07226166666666, "name": "1158097ca9649af966b6d31d8301114d", "is_reserved": 0, "is_disabled": 0}, {"lat": 38.935401, "fusion_lat": 0.0, "type": "electric_scooter", "bike_id": "ab5d6357e68b6603d1faabddd6eedaff", "rental_uris": {"ios": "https://dc.lft.to/lastmile_qr_scan", "android": "https://dc.lft.to/lastmile_qr_scan"}, "fusion_lon": 0.0, "lon": -77.05743616666666, "name": "ab5d6357e68b6603d1faabddd6eedaff", "is_reserved": 0, "is_disabled": 0}, {"lat": 38.91886183333333, "fusion_lat": 0.0, "type": "electric_scooter", "bike_id": "33ea8aa1b6f5178d65e94325af23b207", "rental_uris": {"ios": "https://dc.lft.to/lastmile_qr_scan", "android": "https://dc.lft.to/lastmile_qr_scan"}, "fusion_lon": 0.0, "lon": -77.0218455, "name": "33ea8aa1b6f5178d65e94325af23b207", "is_reserved": 0, "is_disabled": 0}, {"lat": 38.837941666666666, "fusion_lat": 0.0, "type": "electric_scooter", "bike_id": "268a63ce253e16845a27e49c31d7bd54", "rental_uris": {"ios": "https://dc.lft.to/lastmile_qr_scan", "android": "https://dc.lft.to/lastmile_qr_scan"}, "fusion_lon": 0.0, "lon": -77.00452833333334, "name": "268a63ce253e16845a27e49c31d7bd54", "is_reserved": 0, "is_disabled": 0}, {"lat": 38.91818583333333, "fusion_lat": 0.0, "type": "electric_scooter", "bike_id": "98aa3a7198b5d99e7eb83b2593f330f4", "rental_uris": {"ios": "https://dc.lft.to/lastmile_qr_scan", "android": "https://dc.lft.to/lastmile_qr_scan"}, "fusion_lon": 0.0, "lon": -77.03567133333334, "name": "98aa3a7198b5d99e7eb83b2593f330f4", "is_reserved": 0, "is_disabled": 0}, {"lat": 38.93598816666667, "fusion_lat": 0.0, "type": "electric_bike", "bike_id": "a743eb39e10eceeaacf70a00b9d88edc", "rental_uris": {"ios": "https://dc.lft.to/lastmile_qr_scan", "android": "https://dc.lft.to/lastmile_qr_scan"}, "fusion_lon": 0.0, "lon": -77.02122583333333, "name": "a743eb39e10eceeaacf70a00b9d88edc", "is_reserved": 0, "is_disabled": 0}, {"lat": 38.922433833333336, "fusion_lat": 0.0, "type": "electric_scooter", "bike_id": "5c1e9bc0f0bc418e5579a39843849ba5", "rental_uris": {"ios": "https://dc.lft.to/lastmile_qr_scan", "android": "https://dc.lft.to/lastmile_qr_scan"}, "fusion_lon": 0.0, "lon": -77.02199166666666, "name": "5c1e9bc0f0bc418e5579a39843849ba5", "is_reserved": 0, "is_disabled": 0}, {"lat": 38.90634816666667, "fusion_lat": 0.0, "type": "electric_scooter", "bike_id": "6878114620d6dbe29354e5382b248f09", "rental_uris": {"ios": "https://dc.lft.to/lastmile_qr_scan", "android": "https://dc.lft.to/lastmile_qr_scan"}, "fusion_lon": 0.0, "lon": -77.007242, "name": "6878114620d6dbe29354e5382b248f09", "is_reserved": 0, "is_disabled": 0}, {"lat": 38.97377, "fusion_lat": 0.0, "type": "electric_scooter", "bike_id": "5f0adcc79170d31c087b6c9cf3ae804a", "rental_uris": {"ios": "https://dc.lft.to/lastmile_qr_scan", "android": "https://dc.lft.to/lastmile_qr_scan"}, "fusion_lon": 0.0, "lon": -77.01272, "name": "5f0adcc79170d31c087b6c9cf3ae804a", "is_reserved": 0, "is_disabled": 0}, {"lat": 38.92757116666667, "fusion_lat": 0.0, "type": "electric_scooter", "bike_id": "71b9fd2ac36800c4bb7323f63c41432b", "rental_uris": {"ios": "https://dc.lft.to/lastmile_qr_scan", "android": "https://dc.lft.to/lastmile_qr_scan"}, "fusion_lon": 0.0, "lon": -77.03279883333333, "name": "71b9fd2ac36800c4bb7323f63c41432b", "is_reserved": 0, "is_disabled": 0}, {"lat": 38.966080166666664, "fusion_lat": 0.0, "type": "electric_scooter", "bike_id": "48dae6fbfa6bdcdb2a620da9137596df", "rental_uris": {"ios": "https://dc.lft.to/lastmile_qr_scan", "android": "https://dc.lft.to/lastmile_qr_scan"}, "fusion_lon": 0.0, "lon": -77.0274625, "name": "48dae6fbfa6bdcdb2a620da9137596df", "is_reserved": 0, "is_disabled": 0}, {"lat": 38.906671833333334, "fusion_lat": 0.0, "type": "electric_scooter", "bike_id": "e7615fa3ff4f4969304c816adc59b061", "rental_uris": {"ios": "https://dc.lft.to/lastmile_qr_scan", "android": "https://dc.lft.to/lastmile_qr_scan"}, "fusion_lon": 0.0, "lon": -76.98949383333333, "name": "e7615fa3ff4f4969304c816adc59b061", "is_reserved": 0, "is_disabled": 0}, {"lat": 38.9393175, "fusion_lat": 0.0, "type": "electric_scooter", "bike_id": "d6c8eb40556ca0ad986744036efe9b5a", "rental_uris": {"ios": "https://dc.lft.to/lastmile_qr_scan", "android": "https://dc.lft.to/lastmile_qr_scan"}, "fusion_lon": 0.0, "lon": -77.01588066666666, "name": "d6c8eb40556ca0ad986744036efe9b5a", "is_reserved": 0, "is_disabled": 0}, {"lat": 38.905849, "fusion_lat": 0.0, "type": "electric_scooter", "bike_id": "ab5c1cad2db1cb3f2c63a78eb81780c1", "rental_uris": {"ios": "https://dc.lft.to/lastmile_qr_scan", "android": "https://dc.lft.to/lastmile_qr_scan"}, "fusion_lon": 0.0, "lon": -77.00295916666667, "name": "ab5c1cad2db1cb3f2c63a78eb81780c1", "is_reserved": 0, "is_disabled": 0}, {"lat": 38.927631166666664, "fusion_lat": 0.0, "type": "electric_scooter", "bike_id": "bc1530dfe42f89fc2f6ced4ba8a27c3b", "rental_uris": {"ios": "https://dc.lft.to/lastmile_qr_scan", "android": "https://dc.lft.to/lastmile_qr_scan"}, "fusion_lon": 0.0, "lon": -77.0527055, "name": "bc1530dfe42f89fc2f6ced4ba8a27c3b", "is_reserved": 0, "is_disabled": 0}, {"lat": 38.91552816666667, "fusion_lat": 0.0, "type": "electric_scooter", "bike_id": "d5883f83905e139972efc117bef46fca", "rental_uris": {"ios": "https://dc.lft.to/lastmile_qr_scan", "android": "https://dc.lft.to/lastmile_qr_scan"}, "fusion_lon": 0.0, "lon": -77.0387195, "name": "d5883f83905e139972efc117bef46fca", "is_reserved": 0, "is_disabled": 0}, {"lat": 38.884401833333335, "fusion_lat": 0.0, "type": "electric_scooter", "bike_id": "2dc0cbb3869ed74f711c41be73d6aa04", "rental_uris": {"ios": "https://dc.lft.to/lastmile_qr_scan", "android": "https://dc.lft.to/lastmile_qr_scan"}, "fusion_lon": 0.0, "lon": -77.0177155, "name": "2dc0cbb3869ed74f711c41be73d6aa04", "is_reserved": 0, "is_disabled": 0}, {"lat": 38.91605466666667, "fusion_lat": 0.0, "type": "electric_scooter", "bike_id": "b5c6c9ad9c07924a7519791d386ca61c", "rental_uris": {"ios": "https://dc.lft.to/lastmile_qr_scan", "android": "https://dc.lft.to/lastmile_qr_scan"}, "fusion_lon": 0.0, "lon": -77.031844, "name": "b5c6c9ad9c07924a7519791d386ca61c", "is_reserved": 0, "is_disabled": 0}, {"lat": 38.9237265, "fusion_lat": 0.0, "type": "electric_scooter", "bike_id": "797e9b8382f17210c8c4525829f38c5e", "rental_uris": {"ios": "https://dc.lft.to/lastmile_qr_scan", "android": "https://dc.lft.to/lastmile_qr_scan"}, "fusion_lon": 0.0, "lon": -77.021233, "name": "797e9b8382f17210c8c4525829f38c5e", "is_reserved": 0, "is_disabled": 0}, {"lat": 38.81988883333333, "fusion_lat": 0.0, "type": "electric_bike", "bike_id": "3c9d636732bac312d98c3838fb34149a", "rental_uris": {"ios": "https://dc.lft.to/lastmile_qr_scan", "android": "https://dc.lft.to/lastmile_qr_scan"}, "fusion_lon": 0.0, "lon": -76.99814766666667, "name": "3c9d636732bac312d98c3838fb34149a", "is_reserved": 0, "is_disabled": 0}, {"lat": 38.91200766666667, "fusion_lat": 0.0, "type": "electric_scooter", "bike_id": "f475599635c65d48118f4a5fcfb84a29", "rental_uris": {"ios": "https://dc.lft.to/lastmile_qr_scan", "android": "https://dc.lft.to/lastmile_qr_scan"}, "fusion_lon": 0.0, "lon": -76.987692, "name": "f475599635c65d48118f4a5fcfb84a29", "is_reserved": 0, "is_disabled": 0}, {"lat": 38.921853, "fusion_lat": 0.0, "type": "electric_scooter", "bike_id": "a2fcc8272ca32c5e8892c170fb4bf10b", "rental_uris": {"ios": "https://dc.lft.to/lastmile_qr_scan", "android": "https://dc.lft.to/lastmile_qr_scan"}, "fusion_lon": 0.0, "lon": -77.0425355, "name": "a2fcc8272ca32c5e8892c170fb4bf10b", "is_reserved": 0, "is_disabled": 0}, {"lat": 38.911190833333336, "fusion_lat": 0.0, "type": "electric_scooter", "bike_id": "9c09bbe315467cc6b2271a414122b065", "rental_uris": {"ios": "https://dc.lft.to/lastmile_qr_scan", "android": "https://dc.lft.to/lastmile_qr_scan"}, "fusion_lon": 0.0, "lon": -76.997753, "name": "9c09bbe315467cc6b2271a414122b065", "is_reserved": 0, "is_disabled": 0}, {"lat": 38.90326683333333, "fusion_lat": 0.0, "type": "electric_scooter", "bike_id": "74737ef81c1d1bf2ffd06c00044e7061", "rental_uris": {"ios": "https://dc.lft.to/lastmile_qr_scan", "android": "https://dc.lft.to/lastmile_qr_scan"}, "fusion_lon": 0.0, "lon": -77.0401945, "name": "74737ef81c1d1bf2ffd06c00044e7061", "is_reserved": 0, "is_disabled": 0}, {"lat": 38.892248, "fusion_lat": 0.0, "type": "electric_scooter", "bike_id": "b6dd41f309c94574b0b388684113a337", "rental_uris": {"ios": "https://dc.lft.to/lastmile_qr_scan", "android": "https://dc.lft.to/lastmile_qr_scan"}, "fusion_lon": 0.0, "lon": -77.043281, "name": "b6dd41f309c94574b0b388684113a337", "is_reserved": 0, "is_disabled": 0}, {"lat": 38.924476, "fusion_lat": 0.0, "type": "electric_scooter", "bike_id": "a128ce6143320870964460ff24192c5d", "rental_uris": {"ios": "https://dc.lft.to/lastmile_qr_scan", "android": "https://dc.lft.to/lastmile_qr_scan"}, "fusion_lon": 0.0, "lon": -76.98984483333334, "name": "a128ce6143320870964460ff24192c5d", "is_reserved": 0, "is_disabled": 0}, {"lat": 38.92071966666666, "fusion_lat": 0.0, "type": "electric_scooter", "bike_id": "272eb755f0da0d588d059ba1c3726da1", "rental_uris": {"ios": "https://dc.lft.to/lastmile_qr_scan", "android": "https://dc.lft.to/lastmile_qr_scan"}, "fusion_lon": 0.0, "lon": -77.04564516666667, "name": "272eb755f0da0d588d059ba1c3726da1", "is_reserved": 0, "is_disabled": 0}, {"lat": 38.89174333333333, "fusion_lat": 0.0, "type": "electric_scooter", "bike_id": "1930daaa0f1ff8bf04a3537b1afb1361", "rental_uris": {"ios": "https://dc.lft.to/lastmile_qr_scan", "android": "https://dc.lft.to/lastmile_qr_scan"}, "fusion_lon": 0.0, "lon": -76.92651016666667, "name": "1930daaa0f1ff8bf04a3537b1afb1361", "is_reserved": 0, "is_disabled": 0}, {"lat": 38.90942716666667, "fusion_lat": 0.0, "type": "electric_scooter", "bike_id": "236816641bd04d3fadaffe5260db4137", "rental_uris": {"ios": "https://dc.lft.to/lastmile_qr_scan", "android": "https://dc.lft.to/lastmile_qr_scan"}, "fusion_lon": 0.0, "lon": -77.03441233333334, "name": "236816641bd04d3fadaffe5260db4137", "is_reserved": 0, "is_disabled": 0}, {"lat": 38.90072766666667, "fusion_lat": 0.0, "type": "electric_scooter", "bike_id": "baef31e2c78ca2c573c46b8eeaec697a", "rental_uris": {"ios": "https://dc.lft.to/lastmile_qr_scan", "android": "https://dc.lft.to/lastmile_qr_scan"}, "fusion_lon": 0.0, "lon": -77.04550883333333, "name": "baef31e2c78ca2c573c46b8eeaec697a", "is_reserved": 0, "is_disabled": 0}, {"lat": 38.925182666666664, "fusion_lat": 0.0, "type": "electric_scooter", "bike_id": "2885b1cd4d4ad00a2b07a23ec3fe5ba2", "rental_uris": {"ios": "https://dc.lft.to/lastmile_qr_scan", "android": "https://dc.lft.to/lastmile_qr_scan"}, "fusion_lon": 0.0, "lon": -77.0503605, "name": "2885b1cd4d4ad00a2b07a23ec3fe5ba2", "is_reserved": 0, "is_disabled": 0}, {"lat": 38.924192166666664, "fusion_lat": 0.0, "type": "electric_scooter", "bike_id": "1b2046b936020d6bebf30a1dedb03cf1", "rental_uris": {"ios": "https://dc.lft.to/lastmile_qr_scan", "android": "https://dc.lft.to/lastmile_qr_scan"}, "fusion_lon": 0.0, "lon": -77.06521266666667, "name": "1b2046b936020d6bebf30a1dedb03cf1", "is_reserved": 0, "is_disabled": 0}, {"lat": 38.91416233333333, "fusion_lat": 0.0, "type": "electric_scooter", "bike_id": "2f330e129fb51c070014a4823b99dc8a", "rental_uris": {"ios": "https://dc.lft.to/lastmile_qr_scan", "android": "https://dc.lft.to/lastmile_qr_scan"}, "fusion_lon": 0.0, "lon": -77.03172483333333, "name": "2f330e129fb51c070014a4823b99dc8a", "is_reserved": 0, "is_disabled": 0}, {"lat": 38.909932166666664, "fusion_lat": 0.0, "type": "electric_scooter", "bike_id": "9419f6b9bf2a97b020bdfb1fd1c0c143", "rental_uris": {"ios": "https://dc.lft.to/lastmile_qr_scan", "android": "https://dc.lft.to/lastmile_qr_scan"}, "fusion_lon": 0.0, "lon": -77.03178183333333, "name": "9419f6b9bf2a97b020bdfb1fd1c0c143", "is_reserved": 0, "is_disabled": 0}, {"lat": 38.96448483333333, "fusion_lat": 0.0, "type": "electric_bike", "bike_id": "18e070ddedc89668ddf05ef2206f6019", "rental_uris": {"ios": "https://dc.lft.to/lastmile_qr_scan", "android": "https://dc.lft.to/lastmile_qr_scan"}, "fusion_lon": 0.0, "lon": -77.0224715, "name": "18e070ddedc89668ddf05ef2206f6019", "is_reserved": 0, "is_disabled": 0}, {"lat": 38.87838633333333, "fusion_lat": 0.0, "type": "electric_scooter", "bike_id": "f5fff3762a77dff5acfd08c062f11248", "rental_uris": {"ios": "https://dc.lft.to/lastmile_qr_scan", "android": "https://dc.lft.to/lastmile_qr_scan"}, "fusion_lon": 0.0, "lon": -77.00741516666666, "name": "f5fff3762a77dff5acfd08c062f11248", "is_reserved": 0, "is_disabled": 0}, {"lat": 38.9072525, "fusion_lat": 0.0, "type": "electric_scooter", "bike_id": "fbcf893f9cb05681b3e43666145e4ffa", "rental_uris": {"ios": "https://dc.lft.to/lastmile_qr_scan", "android": "https://dc.lft.to/lastmile_qr_scan"}, "fusion_lon": 0.0, "lon": -77.03545666666666, "name": "fbcf893f9cb05681b3e43666145e4ffa", "is_reserved": 0, "is_disabled": 0}, {"lat": 38.8974205, "fusion_lat": 0.0, "type": "electric_scooter", "bike_id": "85c79f77f7f200a385e885e19c81f4bd", "rental_uris": {"ios": "https://dc.lft.to/lastmile_qr_scan", "android": "https://dc.lft.to/lastmile_qr_scan"}, "fusion_lon": 0.0, "lon": -77.00927016666667, "name": "85c79f77f7f200a385e885e19c81f4bd", "is_reserved": 0, "is_disabled": 0}, {"lat": 38.9012045, "fusion_lat": 0.0, "type": "electric_scooter", "bike_id": "8b178fb5157ae2b57e9a48901fd3fd84", "rental_uris": {"ios": "https://dc.lft.to/lastmile_qr_scan", "android": "https://dc.lft.to/lastmile_qr_scan"}, "fusion_lon": 0.0, "lon": -77.027061, "name": "8b178fb5157ae2b57e9a48901fd3fd84", "is_reserved": 0, "is_disabled": 0}, {"lat": 38.92478233333333, "fusion_lat": 0.0, "type": "electric_scooter", "bike_id": "63815a190020d0e9bd901e577a4bc0b5", "rental_uris": {"ios": "https://dc.lft.to/lastmile_qr_scan", "android": "https://dc.lft.to/lastmile_qr_scan"}, "fusion_lon": 0.0, "lon": -77.021396, "name": "63815a190020d0e9bd901e577a4bc0b5", "is_reserved": 0, "is_disabled": 0}, {"lat": 38.900563, "fusion_lat": 0.0, "type": "electric_scooter", "bike_id": "eae9bcf37bff11e4af4511a9c6f0d6c1", "rental_uris": {"ios": "https://dc.lft.to/lastmile_qr_scan", "android": "https://dc.lft.to/lastmile_qr_scan"}, "fusion_lon": 0.0, "lon": -76.99668383333334, "name": "eae9bcf37bff11e4af4511a9c6f0d6c1", "is_reserved": 0, "is_disabled": 0}, {"lat": 38.86832066666667, "fusion_lat": 0.0, "type": "electric_scooter", "bike_id": "356defd8d6a17e1f3e5319228dfd7c93", "rental_uris": {"ios": "https://dc.lft.to/lastmile_qr_scan", "android": "https://dc.lft.to/lastmile_qr_scan"}, "fusion_lon": 0.0, "lon": -77.00977833333333, "name": "356defd8d6a17e1f3e5319228dfd7c93", "is_reserved": 0, "is_disabled": 0}, {"lat": 38.888723666666664, "fusion_lat": 0.0, "type": "electric_scooter", "bike_id": "ebac4fdbf9b73938ab8ee9b43e1da4b2", "rental_uris": {"ios": "https://dc.lft.to/lastmile_qr_scan", "android": "https://dc.lft.to/lastmile_qr_scan"}, "fusion_lon": 0.0, "lon": -76.99042016666667, "name": "ebac4fdbf9b73938ab8ee9b43e1da4b2", "is_reserved": 0, "is_disabled": 0}, {"lat": 38.923337, "fusion_lat": 0.0, "type": "electric_scooter", "bike_id": "e1bdb9e5c1355f3547cbe0b38d6475cd", "rental_uris": {"ios": "https://dc.lft.to/lastmile_qr_scan", "android": "https://dc.lft.to/lastmile_qr_scan"}, "fusion_lon": 0.0, "lon": -77.04621983333334, "name": "e1bdb9e5c1355f3547cbe0b38d6475cd", "is_reserved": 0, "is_disabled": 0}, {"lat": 38.93608833333333, "fusion_lat": 0.0, "type": "electric_scooter", "bike_id": "40c2e355c6eea103593443fff2ea6f64", "rental_uris": {"ios": "https://dc.lft.to/lastmile_qr_scan", "android": "https://dc.lft.to/lastmile_qr_scan"}, "fusion_lon": 0.0, "lon": -77.08180016666667, "name": "40c2e355c6eea103593443fff2ea6f64", "is_reserved": 0, "is_disabled": 0}, {"lat": 38.91064333333333, "fusion_lat": 0.0, "type": "electric_scooter", "bike_id": "75f27543b93149c87a84ab49f84bd3c9", "rental_uris": {"ios": "https://dc.lft.to/lastmile_qr_scan", "android": "https://dc.lft.to/lastmile_qr_scan"}, "fusion_lon": 0.0, "lon": -77.04486416666667, "name": "75f27543b93149c87a84ab49f84bd3c9", "is_reserved": 0, "is_disabled": 0}, {"lat": 38.916121833333335, "fusion_lat": 0.0, "type": "electric_scooter", "bike_id": "253a9af256f5b90d6f3572002a1e4c68", "rental_uris": {"ios": "https://dc.lft.to/lastmile_qr_scan", "android": "https://dc.lft.to/lastmile_qr_scan"}, "fusion_lon": 0.0, "lon": -77.01154833333334, "name": "253a9af256f5b90d6f3572002a1e4c68", "is_reserved": 0, "is_disabled": 0}, {"lat": 38.876595333333334, "fusion_lat": 0.0, "type": "electric_scooter", "bike_id": "5b9d1a5369322a8f80a8eb83f0bacdba", "rental_uris": {"ios": "https://dc.lft.to/lastmile_qr_scan", "android": "https://dc.lft.to/lastmile_qr_scan"}, "fusion_lon": 0.0, "lon": -76.99461433333333, "name": "5b9d1a5369322a8f80a8eb83f0bacdba", "is_reserved": 0, "is_disabled": 0}, {"lat": 38.928308333333334, "fusion_lat": 0.0, "type": "electric_bike", "bike_id": "4c985a7a96ddda91e5699488025a2c47", "rental_uris": {"ios": "https://dc.lft.to/lastmile_qr_scan", "android": "https://dc.lft.to/lastmile_qr_scan"}, "fusion_lon": 0.0, "lon": -77.0374675, "name": "4c985a7a96ddda91e5699488025a2c47", "is_reserved": 0, "is_disabled": 0}, {"lat": 38.898388, "fusion_lat": 0.0, "type": "electric_scooter", "bike_id": "d44d57a37ab7e4e525af0822ad0f47bd", "rental_uris": {"ios": "https://dc.lft.to/lastmile_qr_scan", "android": "https://dc.lft.to/lastmile_qr_scan"}, "fusion_lon": 0.0, "lon": -77.03058, "name": "d44d57a37ab7e4e525af0822ad0f47bd", "is_reserved": 0, "is_disabled": 0}, {"lat": 38.8778915, "fusion_lat": 0.0, "type": "electric_scooter", "bike_id": "b8c867b0a5184408fc38d5f68214d2a2", "rental_uris": {"ios": "https://dc.lft.to/lastmile_qr_scan", "android": "https://dc.lft.to/lastmile_qr_scan"}, "fusion_lon": 0.0, "lon": -76.99723166666666, "name": "b8c867b0a5184408fc38d5f68214d2a2", "is_reserved": 0, "is_disabled": 0}, {"lat": 38.926490333333334, "fusion_lat": 0.0, "type": "electric_scooter", "bike_id": "332c3dfb89a663e73ccb1d75f4a10deb", "rental_uris": {"ios": "https://dc.lft.to/lastmile_qr_scan", "android": "https://dc.lft.to/lastmile_qr_scan"}, "fusion_lon": 0.0, "lon": -77.03399183333333, "name": "332c3dfb89a663e73ccb1d75f4a10deb", "is_reserved": 0, "is_disabled": 0}, {"lat": 38.920602, "fusion_lat": 0.0, "type": "electric_scooter", "bike_id": "82dc9b19214cd8f4695fda0a53fdb112", "rental_uris": {"ios": "https://dc.lft.to/lastmile_qr_scan", "android": "https://dc.lft.to/lastmile_qr_scan"}, "fusion_lon": 0.0, "lon": -77.0422805, "name": "82dc9b19214cd8f4695fda0a53fdb112", "is_reserved": 0, "is_disabled": 0}, {"lat": 38.92391933333333, "fusion_lat": 0.0, "type": "electric_scooter", "bike_id": "7ff6010422859a68fdf59000b94a9d06", "rental_uris": {"ios": "https://dc.lft.to/lastmile_qr_scan", "android": "https://dc.lft.to/lastmile_qr_scan"}, "fusion_lon": 0.0, "lon": -77.029824, "name": "7ff6010422859a68fdf59000b94a9d06", "is_reserved": 0, "is_disabled": 0}, {"lat": 38.89772466666667, "fusion_lat": 0.0, "type": "electric_scooter", "bike_id": "8697c41ad044076f97d80f82b2163163", "rental_uris": {"ios": "https://dc.lft.to/lastmile_qr_scan", "android": "https://dc.lft.to/lastmile_qr_scan"}, "fusion_lon": 0.0, "lon": -76.984644, "name": "8697c41ad044076f97d80f82b2163163", "is_reserved": 0, "is_disabled": 0}, {"lat": 38.91788233333333, "fusion_lat": 0.0, "type": "electric_scooter", "bike_id": "3f4b2a15f82432fa6162ce5dcc4a161a", "rental_uris": {"ios": "https://dc.lft.to/lastmile_qr_scan", "android": "https://dc.lft.to/lastmile_qr_scan"}, "fusion_lon": 0.0, "lon": -77.0228575, "name": "3f4b2a15f82432fa6162ce5dcc4a161a", "is_reserved": 0, "is_disabled": 0}, {"lat": 38.86065033333333, "fusion_lat": 0.0, "type": "electric_scooter", "bike_id": "7cbf399e363d3a9612916a0b4d51e842", "rental_uris": {"ios": "https://dc.lft.to/lastmile_qr_scan", "android": "https://dc.lft.to/lastmile_qr_scan"}, "fusion_lon": 0.0, "lon": -76.96719383333334, "name": "7cbf399e363d3a9612916a0b4d51e842", "is_reserved": 0, "is_disabled": 0}, {"lat": 38.8776755, "fusion_lat": 0.0, "type": "electric_scooter", "bike_id": "940a4584b48d844f1a8cf1a22eb79383", "rental_uris": {"ios": "https://dc.lft.to/lastmile_qr_scan", "android": "https://dc.lft.to/lastmile_qr_scan"}, "fusion_lon": 0.0, "lon": -77.0176965, "name": "940a4584b48d844f1a8cf1a22eb79383", "is_reserved": 0, "is_disabled": 0}, {"lat": 38.92053683333334, "fusion_lat": 0.0, "type": "electric_scooter", "bike_id": "118023f78160cda27f41185688450dd7", "rental_uris": {"ios": "https://dc.lft.to/lastmile_qr_scan", "android": "https://dc.lft.to/lastmile_qr_scan"}, "fusion_lon": 0.0, "lon": -77.01710383333334, "name": "118023f78160cda27f41185688450dd7", "is_reserved": 0, "is_disabled": 0}, {"lat": 38.85929016666667, "fusion_lat": 0.0, "type": "electric_scooter", "bike_id": "75ef8aa7d947c0a64adbd2e0137f7784", "rental_uris": {"ios": "https://dc.lft.to/lastmile_qr_scan", "android": "https://dc.lft.to/lastmile_qr_scan"}, "fusion_lon": 0.0, "lon": -76.98975433333334, "name": "75ef8aa7d947c0a64adbd2e0137f7784", "is_reserved": 0, "is_disabled": 0}, {"lat": 38.921569, "fusion_lat": 0.0, "type": "electric_scooter", "bike_id": "61d4cd4f45badc55edf9f8f10fd3d23e", "rental_uris": {"ios": "https://dc.lft.to/lastmile_qr_scan", "android": "https://dc.lft.to/lastmile_qr_scan"}, "fusion_lon": 0.0, "lon": -77.03346516666667, "name": "61d4cd4f45badc55edf9f8f10fd3d23e", "is_reserved": 0, "is_disabled": 0}, {"lat": 38.914413333333336, "fusion_lat": 0.0, "type": "electric_scooter", "bike_id": "e45ae84146ec6ea8aff8b16b03208be4", "rental_uris": {"ios": "https://dc.lft.to/lastmile_qr_scan", "android": "https://dc.lft.to/lastmile_qr_scan"}, "fusion_lon": 0.0, "lon": -77.022114, "name": "e45ae84146ec6ea8aff8b16b03208be4", "is_reserved": 0, "is_disabled": 0}, {"lat": 39.038940333333336, "fusion_lat": 0.0, "type": "electric_bike", "bike_id": "a0b6aaedc04032e27e6edd9dfcf4cb94", "rental_uris": {"ios": "https://dc.lft.to/lastmile_qr_scan", "android": "https://dc.lft.to/lastmile_qr_scan"}, "fusion_lon": 0.0, "lon": -77.05044483333333, "name": "a0b6aaedc04032e27e6edd9dfcf4cb94", "is_reserved": 0, "is_disabled": 0}, {"lat": 38.87725366666667, "fusion_lat": 0.0, "type": "electric_scooter", "bike_id": "de3bec4d2728f5ebba6b310e131894fd", "rental_uris": {"ios": "https://dc.lft.to/lastmile_qr_scan", "android": "https://dc.lft.to/lastmile_qr_scan"}, "fusion_lon": 0.0, "lon": -77.0175355, "name": "de3bec4d2728f5ebba6b310e131894fd", "is_reserved": 0, "is_disabled": 0}, {"lat": 38.905783166666666, "fusion_lat": 0.0, "type": "electric_scooter", "bike_id": "b80100c5f95123618b5d48145a3d1604", "rental_uris": {"ios": "https://dc.lft.to/lastmile_qr_scan", "android": "https://dc.lft.to/lastmile_qr_scan"}, "fusion_lon": 0.0, "lon": -77.04887266666667, "name": "b80100c5f95123618b5d48145a3d1604", "is_reserved": 0, "is_disabled": 0}, {"lat": 38.92507633333334, "fusion_lat": 0.0, "type": "electric_scooter", "bike_id": "eb93efe394238839b1158233bdbb8b29", "rental_uris": {"ios": "https://dc.lft.to/lastmile_qr_scan", "android": "https://dc.lft.to/lastmile_qr_scan"}, "fusion_lon": 0.0, "lon": -77.03927383333334, "name": "eb93efe394238839b1158233bdbb8b29", "is_reserved": 0, "is_disabled": 0}, {"lat": 38.952039666666664, "fusion_lat": 0.0, "type": "electric_scooter", "bike_id": "f7131ba6d47113295a13946476bb2ef2", "rental_uris": {"ios": "https://dc.lft.to/lastmile_qr_scan", "android": "https://dc.lft.to/lastmile_qr_scan"}, "fusion_lon": 0.0, "lon": -77.02734733333334, "name": "f7131ba6d47113295a13946476bb2ef2", "is_reserved": 0, "is_disabled": 0}, {"lat": 38.895942166666664, "fusion_lat": 0.0, "type": "electric_scooter", "bike_id": "879ea06d0f59b305b011404418fb421d", "rental_uris": {"ios": "https://dc.lft.to/lastmile_qr_scan", "android": "https://dc.lft.to/lastmile_qr_scan"}, "fusion_lon": 0.0, "lon": -77.02163733333333, "name": "879ea06d0f59b305b011404418fb421d", "is_reserved": 0, "is_disabled": 0}, {"lat": 38.9180145, "fusion_lat": 0.0, "type": "electric_scooter", "bike_id": "61c6cd48d3a67c70274ec229818b2421", "rental_uris": {"ios": "https://dc.lft.to/lastmile_qr_scan", "android": "https://dc.lft.to/lastmile_qr_scan"}, "fusion_lon": 0.0, "lon": -77.041526, "name": "61c6cd48d3a67c70274ec229818b2421", "is_reserved": 0, "is_disabled": 0}, {"lat": 38.9180925, "fusion_lat": 0.0, "type": "electric_scooter", "bike_id": "f25f963edbbafa14611defa1e08019e6", "rental_uris": {"ios": "https://dc.lft.to/lastmile_qr_scan", "android": "https://dc.lft.to/lastmile_qr_scan"}, "fusion_lon": 0.0, "lon": -77.0255975, "name": "f25f963edbbafa14611defa1e08019e6", "is_reserved": 0, "is_disabled": 0}, {"lat": 38.96127833333333, "fusion_lat": 0.0, "type": "electric_bike", "bike_id": "9e3f3ef955300f6db25f1020ee668353", "rental_uris": {"ios": "https://dc.lft.to/lastmile_qr_scan", "android": "https://dc.lft.to/lastmile_qr_scan"}, "fusion_lon": 0.0, "lon": -77.03277616666666, "name": "9e3f3ef955300f6db25f1020ee668353", "is_reserved": 0, "is_disabled": 0}, {"lat": 38.92327916666667, "fusion_lat": 0.0, "type": "electric_scooter", "bike_id": "52f9625542120bef259622043deabd2f", "rental_uris": {"ios": "https://dc.lft.to/lastmile_qr_scan", "android": "https://dc.lft.to/lastmile_qr_scan"}, "fusion_lon": 0.0, "lon": -77.02966733333334, "name": "52f9625542120bef259622043deabd2f", "is_reserved": 0, "is_disabled": 0}, {"lat": 38.92411516666667, "fusion_lat": 0.0, "type": "electric_scooter", "bike_id": "7e780fe07d18db2e0a629000050f6ae9", "rental_uris": {"ios": "https://dc.lft.to/lastmile_qr_scan", "android": "https://dc.lft.to/lastmile_qr_scan"}, "fusion_lon": 0.0, "lon": -77.020704, "name": "7e780fe07d18db2e0a629000050f6ae9", "is_reserved": 0, "is_disabled": 0}, {"lat": 38.9136435, "fusion_lat": 0.0, "type": "electric_scooter", "bike_id": "6b08c6514746879406078a442ec2a5cc", "rental_uris": {"ios": "https://dc.lft.to/lastmile_qr_scan", "android": "https://dc.lft.to/lastmile_qr_scan"}, "fusion_lon": 0.0, "lon": -77.02005866666667, "name": "6b08c6514746879406078a442ec2a5cc", "is_reserved": 0, "is_disabled": 0}, {"lat": 38.919817, "fusion_lat": 0.0, "type": "electric_scooter", "bike_id": "e33a696910c6f7c00363a4ab69c2ae0b", "rental_uris": {"ios": "https://dc.lft.to/lastmile_qr_scan", "android": "https://dc.lft.to/lastmile_qr_scan"}, "fusion_lon": 0.0, "lon": -77.01845083333333, "name": "e33a696910c6f7c00363a4ab69c2ae0b", "is_reserved": 0, "is_disabled": 0}, {"lat": 38.87421416666667, "fusion_lat": 0.0, "type": "electric_scooter", "bike_id": "6d55040e57fa95eacec5e01b5af9ed29", "rental_uris": {"ios": "https://dc.lft.to/lastmile_qr_scan", "android": "https://dc.lft.to/lastmile_qr_scan"}, "fusion_lon": 0.0, "lon": -77.000747, "name": "6d55040e57fa95eacec5e01b5af9ed29", "is_reserved": 0, "is_disabled": 0}, {"lat": 38.925443666666666, "fusion_lat": 0.0, "type": "electric_scooter", "bike_id": "e67e76dd6c5dece6c8ecbc3843501956", "rental_uris": {"ios": "https://dc.lft.to/lastmile_qr_scan", "android": "https://dc.lft.to/lastmile_qr_scan"}, "fusion_lon": 0.0, "lon": -77.03876716666667, "name": "e67e76dd6c5dece6c8ecbc3843501956", "is_reserved": 0, "is_disabled": 0}, {"lat": 38.917031, "fusion_lat": 0.0, "type": "electric_scooter", "bike_id": "064e69ce4206bd993b77811ce2f852d4", "rental_uris": {"ios": "https://dc.lft.to/lastmile_qr_scan", "android": "https://dc.lft.to/lastmile_qr_scan"}, "fusion_lon": 0.0, "lon": -77.02484966666667, "name": "064e69ce4206bd993b77811ce2f852d4", "is_reserved": 0, "is_disabled": 0}, {"lat": 38.93333283333333, "fusion_lat": 0.0, "type": "electric_scooter", "bike_id": "09d2927de1d020ed027dde22cec4d171", "rental_uris": {"ios": "https://dc.lft.to/lastmile_qr_scan", "android": "https://dc.lft.to/lastmile_qr_scan"}, "fusion_lon": 0.0, "lon": -77.02913383333333, "name": "09d2927de1d020ed027dde22cec4d171", "is_reserved": 0, "is_disabled": 0}, {"lat": 38.91549233333333, "fusion_lat": 0.0, "type": "electric_scooter", "bike_id": "535cbfb608f35775631f308138cac9bc", "rental_uris": {"ios": "https://dc.lft.to/lastmile_qr_scan", "android": "https://dc.lft.to/lastmile_qr_scan"}, "fusion_lon": 0.0, "lon": -76.98369933333333, "name": "535cbfb608f35775631f308138cac9bc", "is_reserved": 0, "is_disabled": 0}, {"lat": 38.924502333333336, "fusion_lat": 0.0, "type": "electric_scooter", "bike_id": "da594ce256908537f7653f1a55bc949f", "rental_uris": {"ios": "https://dc.lft.to/lastmile_qr_scan", "android": "https://dc.lft.to/lastmile_qr_scan"}, "fusion_lon": 0.0, "lon": -77.02265566666667, "name": "da594ce256908537f7653f1a55bc949f", "is_reserved": 0, "is_disabled": 0}, {"lat": 38.90119966666666, "fusion_lat": 0.0, "type": "electric_scooter", "bike_id": "6c06eb43c7e8e709228f648e88b66c1c", "rental_uris": {"ios": "https://dc.lft.to/lastmile_qr_scan", "android": "https://dc.lft.to/lastmile_qr_scan"}, "fusion_lon": 0.0, "lon": -77.0174485, "name": "6c06eb43c7e8e709228f648e88b66c1c", "is_reserved": 0, "is_disabled": 0}, {"lat": 38.915286333333334, "fusion_lat": 0.0, "type": "electric_scooter", "bike_id": "1ea39309edc1d2976001c46e632d3912", "rental_uris": {"ios": "https://dc.lft.to/lastmile_qr_scan", "android": "https://dc.lft.to/lastmile_qr_scan"}, "fusion_lon": 0.0, "lon": -77.01430333333333, "name": "1ea39309edc1d2976001c46e632d3912", "is_reserved": 0, "is_disabled": 0}, {"lat": 38.92045316666667, "fusion_lat": 0.0, "type": "electric_scooter", "bike_id": "eba2794cfcb635b9be78409e77890ba6", "rental_uris": {"ios": "https://dc.lft.to/lastmile_qr_scan", "android": "https://dc.lft.to/lastmile_qr_scan"}, "fusion_lon": 0.0, "lon": -77.04115716666666, "name": "eba2794cfcb635b9be78409e77890ba6", "is_reserved": 0, "is_disabled": 0}, {"lat": 38.941823166666666, "fusion_lat": 0.0, "type": "electric_bike", "bike_id": "656285fc9df6b3fbe95c0f0383081853", "rental_uris": {"ios": "https://dc.lft.to/lastmile_qr_scan", "android": "https://dc.lft.to/lastmile_qr_scan"}, "fusion_lon": 0.0, "lon": -76.99257883333334, "name": "656285fc9df6b3fbe95c0f0383081853", "is_reserved": 0, "is_disabled": 0}, {"lat": 38.923743, "fusion_lat": 0.0, "type": "electric_scooter", "bike_id": "c787b3235a3dddfe856c049742bc88b0", "rental_uris": {"ios": "https://dc.lft.to/lastmile_qr_scan", "android": "https://dc.lft.to/lastmile_qr_scan"}, "fusion_lon": 0.0, "lon": -77.04412933333333, "name": "c787b3235a3dddfe856c049742bc88b0", "is_reserved": 0, "is_disabled": 0}, {"lat": 38.919195, "fusion_lat": 0.0, "type": "electric_scooter", "bike_id": "1bd73c74dd3261311ca8a97fd7d4b70c", "rental_uris": {"ios": "https://dc.lft.to/lastmile_qr_scan", "android": "https://dc.lft.to/lastmile_qr_scan"}, "fusion_lon": 0.0, "lon": -77.0250825, "name": "1bd73c74dd3261311ca8a97fd7d4b70c", "is_reserved": 0, "is_disabled": 0}, {"lat": 38.89225016666666, "fusion_lat": 0.0, "type": "electric_scooter", "bike_id": "1ead0dff73891d63c97a0556df5dc837", "rental_uris": {"ios": "https://dc.lft.to/lastmile_qr_scan", "android": "https://dc.lft.to/lastmile_qr_scan"}, "fusion_lon": 0.0, "lon": -77.027782, "name": "1ead0dff73891d63c97a0556df5dc837", "is_reserved": 0, "is_disabled": 0}, {"lat": 38.912633, "fusion_lat": 0.0, "type": "electric_scooter", "bike_id": "751b19196cc242cbfb3f46f735e96884", "rental_uris": {"ios": "https://dc.lft.to/lastmile_qr_scan", "android": "https://dc.lft.to/lastmile_qr_scan"}, "fusion_lon": 0.0, "lon": -77.0429855, "name": "751b19196cc242cbfb3f46f735e96884", "is_reserved": 0, "is_disabled": 0}, {"lat": 38.91733883333333, "fusion_lat": 0.0, "type": "electric_scooter", "bike_id": "8f185c49608210d033eb95a967397a9a", "rental_uris": {"ios": "https://dc.lft.to/lastmile_qr_scan", "android": "https://dc.lft.to/lastmile_qr_scan"}, "fusion_lon": 0.0, "lon": -77.04180966666667, "name": "8f185c49608210d033eb95a967397a9a", "is_reserved": 0, "is_disabled": 0}, {"lat": 38.898369833333334, "fusion_lat": 0.0, "type": "electric_scooter", "bike_id": "36141f1cfbcf2082e92f1354fe236eef", "rental_uris": {"ios": "https://dc.lft.to/lastmile_qr_scan", "android": "https://dc.lft.to/lastmile_qr_scan"}, "fusion_lon": 0.0, "lon": -77.05025516666667, "name": "36141f1cfbcf2082e92f1354fe236eef", "is_reserved": 0, "is_disabled": 0}, {"lat": 38.838720333333335, "fusion_lat": 0.0, "type": "electric_bike", "bike_id": "e14893a06f8fb6e283c0737347942762", "rental_uris": {"ios": "https://dc.lft.to/lastmile_qr_scan", "android": "https://dc.lft.to/lastmile_qr_scan"}, "fusion_lon": 0.0, "lon": -76.99710566666667, "name": "e14893a06f8fb6e283c0737347942762", "is_reserved": 0, "is_disabled": 0}, {"lat": 38.904688166666666, "fusion_lat": 0.0, "type": "electric_scooter", "bike_id": "6cfdf9a653d15cfed87dc4a0a2ca7751", "rental_uris": {"ios": "https://dc.lft.to/lastmile_qr_scan", "android": "https://dc.lft.to/lastmile_qr_scan"}, "fusion_lon": 0.0, "lon": -77.06606083333334, "name": "6cfdf9a653d15cfed87dc4a0a2ca7751", "is_reserved": 0, "is_disabled": 0}, {"lat": 38.87721783333333, "fusion_lat": 0.0, "type": "electric_scooter", "bike_id": "d7e875ced98b25b070b4934290a57622", "rental_uris": {"ios": "https://dc.lft.to/lastmile_qr_scan", "android": "https://dc.lft.to/lastmile_qr_scan"}, "fusion_lon": 0.0, "lon": -77.00620533333333, "name": "d7e875ced98b25b070b4934290a57622", "is_reserved": 0, "is_disabled": 0}, {"lat": 38.913374, "fusion_lat": 0.0, "type": "electric_scooter", "bike_id": "959e7319377c87f328058a4c0bd771bd", "rental_uris": {"ios": "https://dc.lft.to/lastmile_qr_scan", "android": "https://dc.lft.to/lastmile_qr_scan"}, "fusion_lon": 0.0, "lon": -77.003337, "name": "959e7319377c87f328058a4c0bd771bd", "is_reserved": 0, "is_disabled": 0}, {"lat": 38.93443, "fusion_lat": 0.0, "type": "electric_scooter", "bike_id": "a7dd97fd8d8c7e991cfcb5669392aee2", "rental_uris": {"ios": "https://dc.lft.to/lastmile_qr_scan", "android": "https://dc.lft.to/lastmile_qr_scan"}, "fusion_lon": 0.0, "lon": -77.02982316666667, "name": "a7dd97fd8d8c7e991cfcb5669392aee2", "is_reserved": 0, "is_disabled": 0}, {"lat": 38.898247, "fusion_lat": 0.0, "type": "electric_scooter", "bike_id": "5f20558c6fa195923d3210c5a356bd58", "rental_uris": {"ios": "https://dc.lft.to/lastmile_qr_scan", "android": "https://dc.lft.to/lastmile_qr_scan"}, "fusion_lon": 0.0, "lon": -77.01533816666667, "name": "5f20558c6fa195923d3210c5a356bd58", "is_reserved": 0, "is_disabled": 0}, {"lat": 38.917164666666665, "fusion_lat": 0.0, "type": "electric_scooter", "bike_id": "664dd3950b71a0674ec62a77a87d3cd6", "rental_uris": {"ios": "https://dc.lft.to/lastmile_qr_scan", "android": "https://dc.lft.to/lastmile_qr_scan"}, "fusion_lon": 0.0, "lon": -77.03355016666667, "name": "664dd3950b71a0674ec62a77a87d3cd6", "is_reserved": 0, "is_disabled": 0}, {"lat": 38.90600533333333, "fusion_lat": 0.0, "type": "electric_scooter", "bike_id": "e17d054564b3739056e8ace8616d85e8", "rental_uris": {"ios": "https://dc.lft.to/lastmile_qr_scan", "android": "https://dc.lft.to/lastmile_qr_scan"}, "fusion_lon": 0.0, "lon": -77.03317283333334, "name": "e17d054564b3739056e8ace8616d85e8", "is_reserved": 0, "is_disabled": 0}, {"lat": 38.8954555, "fusion_lat": 0.0, "type": "electric_scooter", "bike_id": "486f7278e8e93ee0ced455913040438b", "rental_uris": {"ios": "https://dc.lft.to/lastmile_qr_scan", "android": "https://dc.lft.to/lastmile_qr_scan"}, "fusion_lon": 0.0, "lon": -76.9833775, "name": "486f7278e8e93ee0ced455913040438b", "is_reserved": 0, "is_disabled": 0}, {"lat": 38.98786166666667, "fusion_lat": 0.0, "type": "electric_bike", "bike_id": "8caf44595baa3c218e20a5ba8280c1b5", "rental_uris": {"ios": "https://dc.lft.to/lastmile_qr_scan", "android": "https://dc.lft.to/lastmile_qr_scan"}, "fusion_lon": 0.0, "lon": -77.14100783333333, "name": "8caf44595baa3c218e20a5ba8280c1b5", "is_reserved": 0, "is_disabled": 0}, {"lat": 38.92102366666667, "fusion_lat": 0.0, "type": "electric_scooter", "bike_id": "ea905a4448027511ae02f2ec9eacd40e", "rental_uris": {"ios": "https://dc.lft.to/lastmile_qr_scan", "android": "https://dc.lft.to/lastmile_qr_scan"}, "fusion_lon": 0.0, "lon": -77.03668316666666, "name": "ea905a4448027511ae02f2ec9eacd40e", "is_reserved": 0, "is_disabled": 0}, {"lat": 38.90166416666667, "fusion_lat": 0.0, "type": "electric_scooter", "bike_id": "94ce07ed6eca7c14e9ac200eb9579983", "rental_uris": {"ios": "https://dc.lft.to/lastmile_qr_scan", "android": "https://dc.lft.to/lastmile_qr_scan"}, "fusion_lon": 0.0, "lon": -77.0393695, "name": "94ce07ed6eca7c14e9ac200eb9579983", "is_reserved": 0, "is_disabled": 0}, {"lat": 38.924967333333335, "fusion_lat": 0.0, "type": "electric_scooter", "bike_id": "3724b58ed7dfd5f8edf78b68c2d256f5", "rental_uris": {"ios": "https://dc.lft.to/lastmile_qr_scan", "android": "https://dc.lft.to/lastmile_qr_scan"}, "fusion_lon": 0.0, "lon": -77.0216545, "name": "3724b58ed7dfd5f8edf78b68c2d256f5", "is_reserved": 0, "is_disabled": 0}, {"lat": 38.89574183333333, "fusion_lat": 0.0, "type": "electric_scooter", "bike_id": "fa99e6e49f69ba098bd2a70867bde60c", "rental_uris": {"ios": "https://dc.lft.to/lastmile_qr_scan", "android": "https://dc.lft.to/lastmile_qr_scan"}, "fusion_lon": 0.0, "lon": -76.983255, "name": "fa99e6e49f69ba098bd2a70867bde60c", "is_reserved": 0, "is_disabled": 0}, {"lat": 38.93712433333334, "fusion_lat": 0.0, "type": "electric_scooter", "bike_id": "ad375662c6e8711fd71e7d151468bd80", "rental_uris": {"ios": "https://dc.lft.to/lastmile_qr_scan", "android": "https://dc.lft.to/lastmile_qr_scan"}, "fusion_lon": 0.0, "lon": -77.03519833333333, "name": "ad375662c6e8711fd71e7d151468bd80", "is_reserved": 0, "is_disabled": 0}, {"lat": 38.91532383333333, "fusion_lat": 0.0, "type": "electric_scooter", "bike_id": "5487a181e1c70fd4373bde6ce3f7ee03", "rental_uris": {"ios": "https://dc.lft.to/lastmile_qr_scan", "android": "https://dc.lft.to/lastmile_qr_scan"}, "fusion_lon": 0.0, "lon": -77.03199916666667, "name": "5487a181e1c70fd4373bde6ce3f7ee03", "is_reserved": 0, "is_disabled": 0}, {"lat": 38.9176485, "fusion_lat": 0.0, "type": "electric_scooter", "bike_id": "1951c4d25609b520ac2a92ec47c1da61", "rental_uris": {"ios": "https://dc.lft.to/lastmile_qr_scan", "android": "https://dc.lft.to/lastmile_qr_scan"}, "fusion_lon": 0.0, "lon": -77.0176005, "name": "1951c4d25609b520ac2a92ec47c1da61", "is_reserved": 0, "is_disabled": 0}, {"lat": 38.8862635, "fusion_lat": 0.0, "type": "electric_scooter", "bike_id": "31232433df518241e2332ed0303d965a", "rental_uris": {"ios": "https://dc.lft.to/lastmile_qr_scan", "android": "https://dc.lft.to/lastmile_qr_scan"}, "fusion_lon": 0.0, "lon": -76.99607416666667, "name": "31232433df518241e2332ed0303d965a", "is_reserved": 0, "is_disabled": 0}, {"lat": 38.9275755, "fusion_lat": 0.0, "type": "electric_scooter", "bike_id": "966231c32d6bfd08ede6b54137475616", "rental_uris": {"ios": "https://dc.lft.to/lastmile_qr_scan", "android": "https://dc.lft.to/lastmile_qr_scan"}, "fusion_lon": 0.0, "lon": -77.03278316666666, "name": "966231c32d6bfd08ede6b54137475616", "is_reserved": 0, "is_disabled": 0}, {"lat": 38.93426083333333, "fusion_lat": 0.0, "type": "electric_scooter", "bike_id": "5cb0ee365e4b92fdc210bfc2eb98e192", "rental_uris": {"ios": "https://dc.lft.to/lastmile_qr_scan", "android": "https://dc.lft.to/lastmile_qr_scan"},