{"data": {"bikes": [{"fusion_lat": 0.0, "lon": -76.992327, "is_reserved": 0, "bike_id": "976a8ffc6a10fe5d4ca1d66fe02891cd", "fusion_lon": 0.0, "rental_uris": {"android": "https://dc.lft.to/lastmile_qr_scan", "ios": "https://dc.lft.to/lastmile_qr_scan"}, "name": "976a8ffc6a10fe5d4ca1d66fe02891cd", "type": "electric_bike", "lat": 38.93861483333333, "is_disabled": 0}, {"fusion_lat": 0.0, "lon": -77.02566816666666, "is_reserved": 0, "bike_id": "020b3fa2a5a9b6f9d3afd89aef77488b", "fusion_lon": 0.0, "rental_uris": {"android": "https://dc.lft.to/lastmile_qr_scan", "ios": "https://dc.lft.to/lastmile_qr_scan"}, "name": "020b3fa2a5a9b6f9d3afd89aef77488b", "type": "electric_scooter", "lat": 38.914162, "is_disabled": 0}, {"fusion_lat": 0.0, "lon": -77.00674183333334, "is_reserved": 0, "bike_id": "d9c73ad3ecd3958381607c1f46fae4ca", "fusion_lon": 0.0, "rental_uris": {"android": "https://dc.lft.to/lastmile_qr_scan", "ios": "https://dc.lft.to/lastmile_qr_scan"}, "name": "d9c73ad3ecd3958381607c1f46fae4ca", "type": "electric_scooter", "lat": 38.90016133333334, "is_disabled": 0}, {"fusion_lat": 0.0, "lon": -77.0858615, "is_reserved": 0, "bike_id": "922f9a7c0e5d0c4684902c90d8bee92d", "fusion_lon": 0.0, "rental_uris": {"android": "https://dc.lft.to/lastmile_qr_scan", "ios": "https://dc.lft.to/lastmile_qr_scan"}, "name": "922f9a7c0e5d0c4684902c90d8bee92d", "type": "electric_bike", "lat": 38.84439416666667, "is_disabled": 0}, {"fusion_lat": 0.0, "lon": -77.01459916666667, "is_reserved": 0, "bike_id": "847c9244d1c16b35e10356874998b161", "fusion_lon": 0.0, "rental_uris": {"android": "https://dc.lft.to/lastmile_qr_scan", "ios": "https://dc.lft.to/lastmile_qr_scan"}, "name": "847c9244d1c16b35e10356874998b161", "type": "electric_bike", "lat": 38.87672116666667, "is_disabled": 0}, {"fusion_lat": 0.0, "lon": -76.9723835, "is_reserved": 0, "bike_id": "798afff4327f155a016d860baa1f09fd", "fusion_lon": 0.0, "rental_uris": {"android": "https://dc.lft.to/lastmile_qr_scan", "ios": "https://dc.lft.to/lastmile_qr_scan"}, "name": "798afff4327f155a016d860baa1f09fd", "type": "electric_bike", "lat": 38.949058, "is_disabled": 0}, {"fusion_lat": 0.0, "lon": -77.02301233333333, "is_reserved": 0, "bike_id": "7a2be709aba3d8155b284e06a8627f7d", "fusion_lon": 0.0, "rental_uris": {"android": "https://dc.lft.to/lastmile_qr_scan", "ios": "https://dc.lft.to/lastmile_qr_scan"}, "name": "7a2be709aba3d8155b284e06a8627f7d", "type": "electric_scooter", "lat": 38.88640783333334, "is_disabled": 0}, {"fusion_lat": 0.0, "lon": -77.0574055, "is_reserved": 0, "bike_id": "9329d28a93ef62a874a15d9f197949e0", "fusion_lon": 0.0, "rental_uris": {"android": "https://dc.lft.to/lastmile_qr_scan", "ios": "https://dc.lft.to/lastmile_qr_scan"}, "name": "9329d28a93ef62a874a15d9f197949e0", "type": "electric_scooter", "lat": 38.93389966666667, "is_disabled": 0}, {"fusion_lat": 0.0, "lon": -77.034316, "is_reserved": 0, "bike_id": "958b41bbe36c48fc781cc3ca419f256c", "fusion_lon": 0.0, "rental_uris": {"android": "https://dc.lft.to/lastmile_qr_scan", "ios": "https://dc.lft.to/lastmile_qr_scan"}, "name": "958b41bbe36c48fc781cc3ca419f256c", "type": "electric_scooter", "lat": 38.919353, "is_disabled": 0}, {"fusion_lat": 0.0, "lon": -76.973221, "is_reserved": 0, "bike_id": "d488ca31ada810dc1fb08136829cb4ab", "fusion_lon": 0.0, "rental_uris": {"android": "https://dc.lft.to/lastmile_qr_scan", "ios": "https://dc.lft.to/lastmile_qr_scan"}, "name": "d488ca31ada810dc1fb08136829cb4ab", "type": "electric_scooter", "lat": 38.9177445, "is_disabled": 0}, {"fusion_lat": 0.0, "lon": -77.043068, "is_reserved": 0, "bike_id": "514beaa8f7473d7476bc1bc8641710eb", "fusion_lon": 0.0, "rental_uris": {"android": "https://dc.lft.to/lastmile_qr_scan", "ios": "https://dc.lft.to/lastmile_qr_scan"}, "name": "514beaa8f7473d7476bc1bc8641710eb", "type": "electric_scooter", "lat": 38.923344, "is_disabled": 0}, {"fusion_lat": 0.0, "lon": -77.034759, "is_reserved": 0, "bike_id": "4563d16d3a28929f5ce5390928565c18", "fusion_lon": 0.0, "rental_uris": {"android": "https://dc.lft.to/lastmile_qr_scan", "ios": "https://dc.lft.to/lastmile_qr_scan"}, "name": "4563d16d3a28929f5ce5390928565c18", "type": "electric_scooter", "lat": 38.921519333333336, "is_disabled": 0}, {"fusion_lat": 0.0, "lon": -76.998112, "is_reserved": 0, "bike_id": "e7631debf4e99e8c0b0ea92c13eaa8e0", "fusion_lon": 0.0, "rental_uris": {"android": "https://dc.lft.to/lastmile_qr_scan", "ios": "https://dc.lft.to/lastmile_qr_scan"}, "name": "e7631debf4e99e8c0b0ea92c13eaa8e0", "type": "electric_scooter", "lat": 38.9073375, "is_disabled": 0}, {"fusion_lat": 0.0, "lon": -77.02981483333333, "is_reserved": 0, "bike_id": "6a9389d7cf27430e2133e534bf108ec5", "fusion_lon": 0.0, "rental_uris": {"android": "https://dc.lft.to/lastmile_qr_scan", "ios": "https://dc.lft.to/lastmile_qr_scan"}, "name": "6a9389d7cf27430e2133e534bf108ec5", "type": "electric_scooter", "lat": 38.914180333333334, "is_disabled": 0}, {"fusion_lat": 0.0, "lon": -76.98566983333333, "is_reserved": 0, "bike_id": "831c2473223b90da9ae74016cd2c06d3", "fusion_lon": 0.0, "rental_uris": {"android": "https://dc.lft.to/lastmile_qr_scan", "ios": "https://dc.lft.to/lastmile_qr_scan"}, "name": "831c2473223b90da9ae74016cd2c06d3", "type": "electric_bike", "lat": 38.899573333333336, "is_disabled": 0}, {"fusion_lat": 0.0, "lon": -77.00049416666667, "is_reserved": 0, "bike_id": "a8f70e5e67f6ea0f3a21082884ba76d7", "fusion_lon": 0.0, "rental_uris": {"android": "https://dc.lft.to/lastmile_qr_scan", "ios": "https://dc.lft.to/lastmile_qr_scan"}, "name": "a8f70e5e67f6ea0f3a21082884ba76d7", "type": "electric_scooter", "lat": 38.9246475, "is_disabled": 0}, {"fusion_lat": 0.0, "lon": -77.007217, "is_reserved": 0, "bike_id": "1348a8142f61dafac8b764f739d777dd", "fusion_lon": 0.0, "rental_uris": {"android": "https://dc.lft.to/lastmile_qr_scan", "ios": "https://dc.lft.to/lastmile_qr_scan"}, "name": "1348a8142f61dafac8b764f739d777dd", "type": "electric_scooter", "lat": 38.884886, "is_disabled": 0}, {"fusion_lat": 0.0, "lon": -77.02920316666666, "is_reserved": 0, "bike_id": "3fa94a0d3e1ab6b41325f914b26f2223", "fusion_lon": 0.0, "rental_uris": {"android": "https://dc.lft.to/lastmile_qr_scan", "ios": "https://dc.lft.to/lastmile_qr_scan"}, "name": "3fa94a0d3e1ab6b41325f914b26f2223", "type": "electric_scooter", "lat": 38.938751, "is_disabled": 0}, {"fusion_lat": 0.0, "lon": -77.051057, "is_reserved": 0, "bike_id": "ceada44da5cb799014a67c9170b12d33", "fusion_lon": 0.0, "rental_uris": {"android": "https://dc.lft.to/lastmile_qr_scan", "ios": "https://dc.lft.to/lastmile_qr_scan"}, "name": "ceada44da5cb799014a67c9170b12d33", "type": "electric_bike", "lat": 39.03667733333333, "is_disabled": 0}, {"fusion_lat": 0.0, "lon": -77.02845616666667, "is_reserved": 0, "bike_id": "8465da33f95d5ca5b67f3cb14a1b656c", "fusion_lon": 0.0, "rental_uris": {"android": "https://dc.lft.to/lastmile_qr_scan", "ios": "https://dc.lft.to/lastmile_qr_scan"}, "name": "8465da33f95d5ca5b67f3cb14a1b656c", "type": "electric_scooter", "lat": 38.887453666666666, "is_disabled": 0}, {"fusion_lat": 0.0, "lon": -77.04432983333334, "is_reserved": 0, "bike_id": "c15e3be7dad637e4d317674845404945", "fusion_lon": 0.0, "rental_uris": {"android": "https://dc.lft.to/lastmile_qr_scan", "ios": "https://dc.lft.to/lastmile_qr_scan"}, "name": "c15e3be7dad637e4d317674845404945", "type": "electric_scooter", "lat": 38.921228, "is_disabled": 0}, {"fusion_lat": 0.0, "lon": -77.03879083333334, "is_reserved": 0, "bike_id": "a54d44e2116bdbd221803721fdcef25f", "fusion_lon": 0.0, "rental_uris": {"android": "https://dc.lft.to/lastmile_qr_scan", "ios": "https://dc.lft.to/lastmile_qr_scan"}, "name": "a54d44e2116bdbd221803721fdcef25f", "type": "electric_scooter", "lat": 38.89199933333333, "is_disabled": 0}, {"fusion_lat": 0.0, "lon": -76.96786533333334, "is_reserved": 0, "bike_id": "7f8a473037b2c93fd72b6c7ea5d17222", "fusion_lon": 0.0, "rental_uris": {"android": "https://dc.lft.to/lastmile_qr_scan", "ios": "https://dc.lft.to/lastmile_qr_scan"}, "name": "7f8a473037b2c93fd72b6c7ea5d17222", "type": "electric_scooter", "lat": 38.873367, "is_disabled": 0}, {"fusion_lat": 0.0, "lon": -77.03814733333333, "is_reserved": 0, "bike_id": "ba8d7599d9e39df41abf381f98bb2b03", "fusion_lon": 0.0, "rental_uris": {"android": "https://dc.lft.to/lastmile_qr_scan", "ios": "https://dc.lft.to/lastmile_qr_scan"}, "name": "ba8d7599d9e39df41abf381f98bb2b03", "type": "electric_scooter", "lat": 38.90971783333333, "is_disabled": 0}, {"fusion_lat": 0.0, "lon": -77.04194133333333, "is_reserved": 0, "bike_id": "7a5d347beb884b9665a622ceec964a2a", "fusion_lon": 0.0, "rental_uris": {"android": "https://dc.lft.to/lastmile_qr_scan", "ios": "https://dc.lft.to/lastmile_qr_scan"}, "name": "7a5d347beb884b9665a622ceec964a2a", "type": "electric_scooter", "lat": 38.919669666666664, "is_disabled": 0}, {"fusion_lat": 0.0, "lon": -76.998357, "is_reserved": 0, "bike_id": "7f8253e4a10e161f964c9c01988d1558", "fusion_lon": 0.0, "rental_uris": {"android": "https://dc.lft.to/lastmile_qr_scan", "ios": "https://dc.lft.to/lastmile_qr_scan"}, "name": "7f8253e4a10e161f964c9c01988d1558", "type": "electric_scooter", "lat": 38.90026, "is_disabled": 0}, {"fusion_lat": 0.0, "lon": -76.99373216666666, "is_reserved": 0, "bike_id": "a18a81e170b4b1249f48f2f7ce49d8c7", "fusion_lon": 0.0, "rental_uris": {"android": "https://dc.lft.to/lastmile_qr_scan", "ios": "https://dc.lft.to/lastmile_qr_scan"}, "name": "a18a81e170b4b1249f48f2f7ce49d8c7", "type": "electric_bike", "lat": 38.9718215, "is_disabled": 0}, {"fusion_lat": 0.0, "lon": -77.05739, "is_reserved": 0, "bike_id": "518fc8d8ab365e473d8fa20017355720", "fusion_lon": 0.0, "rental_uris": {"android": "https://dc.lft.to/lastmile_qr_scan", "ios": "https://dc.lft.to/lastmile_qr_scan"}, "name": "518fc8d8ab365e473d8fa20017355720", "type": "electric_scooter", "lat": 38.93384833333333, "is_disabled": 0}, {"fusion_lat": 0.0, "lon": -77.0294435, "is_reserved": 0, "bike_id": "59dac3bcb046f40d59010e7650063d62", "fusion_lon": 0.0, "rental_uris": {"android": "https://dc.lft.to/lastmile_qr_scan", "ios": "https://dc.lft.to/lastmile_qr_scan"}, "name": "59dac3bcb046f40d59010e7650063d62", "type": "electric_scooter", "lat": 38.91685916666667, "is_disabled": 0}, {"fusion_lat": 0.0, "lon": -76.99935683333334, "is_reserved": 0, "bike_id": "33b0b00bbb708cbc8d401adf20767a09", "fusion_lon": 0.0, "rental_uris": {"android": "https://dc.lft.to/lastmile_qr_scan", "ios": "https://dc.lft.to/lastmile_qr_scan"}, "name": "33b0b00bbb708cbc8d401adf20767a09", "type": "electric_scooter", "lat": 38.84299716666666, "is_disabled": 0}, {"fusion_lat": 0.0, "lon": -77.02487316666667, "is_reserved": 0, "bike_id": "70167692b1a93bc11aa413846aba140a", "fusion_lon": 0.0, "rental_uris": {"android": "https://dc.lft.to/lastmile_qr_scan", "ios": "https://dc.lft.to/lastmile_qr_scan"}, "name": "70167692b1a93bc11aa413846aba140a", "type": "electric_scooter", "lat": 38.937581333333334, "is_disabled": 0}, {"fusion_lat": 0.0, "lon": -77.0329455, "is_reserved": 0, "bike_id": "8fb5bd5de6b1502d608594f1b97a437b", "fusion_lon": 0.0, "rental_uris": {"android": "https://dc.lft.to/lastmile_qr_scan", "ios": "https://dc.lft.to/lastmile_qr_scan"}, "name": "8fb5bd5de6b1502d608594f1b97a437b", "type": "electric_bike", "lat": 38.92626283333333, "is_disabled": 0}, {"fusion_lat": 0.0, "lon": -77.01523183333333, "is_reserved": 0, "bike_id": "d11da7cd4f1fc7cf1c71b663e314d977", "fusion_lon": 0.0, "rental_uris": {"android": "https://dc.lft.to/lastmile_qr_scan", "ios": "https://dc.lft.to/lastmile_qr_scan"}, "name": "d11da7cd4f1fc7cf1c71b663e314d977", "type": "electric_bike", "lat": 38.918670166666665, "is_disabled": 0}, {"fusion_lat": 0.0, "lon": -76.94872533333333, "is_reserved": 0, "bike_id": "47c395259da7d24ac59ac8531f91fec6", "fusion_lon": 0.0, "rental_uris": {"android": "https://dc.lft.to/lastmile_qr_scan", "ios": "https://dc.lft.to/lastmile_qr_scan"}, "name": "47c395259da7d24ac59ac8531f91fec6", "type": "electric_scooter", "lat": 38.89547, "is_disabled": 0}, {"fusion_lat": 0.0, "lon": -77.06269883333333, "is_reserved": 0, "bike_id": "e4453c54c3390bc71ec2d10f6886c5b6", "fusion_lon": 0.0, "rental_uris": {"android": "https://dc.lft.to/lastmile_qr_scan", "ios": "https://dc.lft.to/lastmile_qr_scan"}, "name": "e4453c54c3390bc71ec2d10f6886c5b6", "type": "electric_scooter", "lat": 38.9057595, "is_disabled": 0}, {"fusion_lat": 0.0, "lon": -77.01072783333333, "is_reserved": 0, "bike_id": "9edef66cb4ddf4008072d1786a667b75", "fusion_lon": 0.0, "rental_uris": {"android": "https://dc.lft.to/lastmile_qr_scan", "ios": "https://dc.lft.to/lastmile_qr_scan"}, "name": "9edef66cb4ddf4008072d1786a667b75", "type": "electric_scooter", "lat": 38.917693, "is_disabled": 0}, {"fusion_lat": 0.0, "lon": -77.07322666666667, "is_reserved": 0, "bike_id": "b2dd9742fa7c85ca9eeac0092158cd53", "fusion_lon": 0.0, "rental_uris": {"android": "https://dc.lft.to/lastmile_qr_scan", "ios": "https://dc.lft.to/lastmile_qr_scan"}, "name": "b2dd9742fa7c85ca9eeac0092158cd53", "type": "electric_scooter", "lat": 38.926079333333334, "is_disabled": 0}, {"fusion_lat": 0.0, "lon": -77.01861516666666, "is_reserved": 0, "bike_id": "f074af098f23bc621930e191c2fa3d02", "fusion_lon": 0.0, "rental_uris": {"android": "https://dc.lft.to/lastmile_qr_scan", "ios": "https://dc.lft.to/lastmile_qr_scan"}, "name": "f074af098f23bc621930e191c2fa3d02", "type": "electric_scooter", "lat": 38.97370766666667, "is_disabled": 0}, {"fusion_lat": 0.0, "lon": -76.99640116666667, "is_reserved": 0, "bike_id": "606bb1a676abf32e002e68d70fb795d2", "fusion_lon": 0.0, "rental_uris": {"android": "https://dc.lft.to/lastmile_qr_scan", "ios": "https://dc.lft.to/lastmile_qr_scan"}, "name": "606bb1a676abf32e002e68d70fb795d2", "type": "electric_scooter", "lat": 38.90017866666667, "is_disabled": 0}, {"fusion_lat": 0.0, "lon": -76.99642183333333, "is_reserved": 0, "bike_id": "e8640bffbc39c29ea20bf7fbdbae100c", "fusion_lon": 0.0, "rental_uris": {"android": "https://dc.lft.to/lastmile_qr_scan", "ios": "https://dc.lft.to/lastmile_qr_scan"}, "name": "e8640bffbc39c29ea20bf7fbdbae100c", "type": "electric_scooter", "lat": 38.900236166666666, "is_disabled": 0}, {"fusion_lat": 0.0, "lon": -77.060857, "is_reserved": 0, "bike_id": "01f76c19b3e80d3ef419d1abf7ac9d5c", "fusion_lon": 0.0, "rental_uris": {"android": "https://dc.lft.to/lastmile_qr_scan", "ios": "https://dc.lft.to/lastmile_qr_scan"}, "name": "01f76c19b3e80d3ef419d1abf7ac9d5c", "type": "electric_scooter", "lat": 38.911703333333335, "is_disabled": 0}, {"fusion_lat": 0.0, "lon": -77.02224616666666, "is_reserved": 0, "bike_id": "b28bc24395b22ce8c38f13513e379aec", "fusion_lon": 0.0, "rental_uris": {"android": "https://dc.lft.to/lastmile_qr_scan", "ios": "https://dc.lft.to/lastmile_qr_scan"}, "name": "b28bc24395b22ce8c38f13513e379aec", "type": "electric_scooter", "lat": 38.89219833333333, "is_disabled": 0}, {"fusion_lat": 0.0, "lon": -77.03954966666667, "is_reserved": 0, "bike_id": "06e34ce18617e3d4a637c39f57c0b182", "fusion_lon": 0.0, "rental_uris": {"android": "https://dc.lft.to/lastmile_qr_scan", "ios": "https://dc.lft.to/lastmile_qr_scan"}, "name": "06e34ce18617e3d4a637c39f57c0b182", "type": "electric_scooter", "lat": 38.8924415, "is_disabled": 0}, {"fusion_lat": 0.0, "lon": -77.03509583333333, "is_reserved": 0, "bike_id": "e4910dc984103a0508ac401a646e763c", "fusion_lon": 0.0, "rental_uris": {"android": "https://dc.lft.to/lastmile_qr_scan", "ios": "https://dc.lft.to/lastmile_qr_scan"}, "name": "e4910dc984103a0508ac401a646e763c", "type": "electric_scooter", "lat": 38.966217666666665, "is_disabled": 0}, {"fusion_lat": 0.0, "lon": -77.02693933333333, "is_reserved": 0, "bike_id": "5bfe559379993433f28f04848c39bfec", "fusion_lon": 0.0, "rental_uris": {"android": "https://dc.lft.to/lastmile_qr_scan", "ios": "https://dc.lft.to/lastmile_qr_scan"}, "name": "5bfe559379993433f28f04848c39bfec", "type": "electric_scooter", "lat": 38.924085833333336, "is_disabled": 0}, {"fusion_lat": 0.0, "lon": -76.98356483333333, "is_reserved": 0, "bike_id": "3f35263fcd5a2346e047b0fb791b69c5", "fusion_lon": 0.0, "rental_uris": {"android": "https://dc.lft.to/lastmile_qr_scan", "ios": "https://dc.lft.to/lastmile_qr_scan"}, "name": "3f35263fcd5a2346e047b0fb791b69c5", "type": "electric_scooter", "lat": 38.897208, "is_disabled": 0}, {"fusion_lat": 0.0, "lon": -77.00959416666667, "is_reserved": 0, "bike_id": "65fa2f9364433f830e3fa5491c5f7dd8", "fusion_lon": 0.0, "rental_uris": {"android": "https://dc.lft.to/lastmile_qr_scan", "ios": "https://dc.lft.to/lastmile_qr_scan"}, "name": "65fa2f9364433f830e3fa5491c5f7dd8", "type": "electric_scooter", "lat": 38.907869, "is_disabled": 0}, {"fusion_lat": 0.0, "lon": -77.03929066666667, "is_reserved": 0, "bike_id": "54fac3a3aa5f718bc9b3c6f55e46633c", "fusion_lon": 0.0, "rental_uris": {"android": "https://dc.lft.to/lastmile_qr_scan", "ios": "https://dc.lft.to/lastmile_qr_scan"}, "name": "54fac3a3aa5f718bc9b3c6f55e46633c", "type": "electric_scooter", "lat": 38.92492166666667, "is_disabled": 0}, {"fusion_lat": 0.0, "lon": -76.98097966666667, "is_reserved": 0, "bike_id": "7a72c54277fd27ad642259ef379d9f0d", "fusion_lon": 0.0, "rental_uris": {"android": "https://dc.lft.to/lastmile_qr_scan", "ios": "https://dc.lft.to/lastmile_qr_scan"}, "name": "7a72c54277fd27ad642259ef379d9f0d", "type": "electric_scooter", "lat": 38.903896, "is_disabled": 0}, {"fusion_lat": 0.0, "lon": -76.983585, "is_reserved": 0, "bike_id": "19471cd4fc569f46338c09e309f12420", "fusion_lon": 0.0, "rental_uris": {"android": "https://dc.lft.to/lastmile_qr_scan", "ios": "https://dc.lft.to/lastmile_qr_scan"}, "name": "19471cd4fc569f46338c09e309f12420", "type": "electric_scooter", "lat": 38.88745016666667, "is_disabled": 0}, {"fusion_lat": 0.0, "lon": -77.04651983333333, "is_reserved": 0, "bike_id": "997e6b475170cd2f7f2f358c7f0e8f60", "fusion_lon": 0.0, "rental_uris": {"android": "https://dc.lft.to/lastmile_qr_scan", "ios": "https://dc.lft.to/lastmile_qr_scan"}, "name": "997e6b475170cd2f7f2f358c7f0e8f60", "type": "electric_scooter", "lat": 38.91361966666667, "is_disabled": 0}, {"fusion_lat": 0.0, "lon": -76.998388, "is_reserved": 0, "bike_id": "cf29820c4547582094335bd587a7a29a", "fusion_lon": 0.0, "rental_uris": {"android": "https://dc.lft.to/lastmile_qr_scan", "ios": "https://dc.lft.to/lastmile_qr_scan"}, "name": "cf29820c4547582094335bd587a7a29a", "type": "electric_scooter", "lat": 38.8908795, "is_disabled": 0}, {"fusion_lat": 0.0, "lon": -77.02192833333334, "is_reserved": 0, "bike_id": "b012bac5227c4c0a84467794f38c19db", "fusion_lon": 0.0, "rental_uris": {"android": "https://dc.lft.to/lastmile_qr_scan", "ios": "https://dc.lft.to/lastmile_qr_scan"}, "name": "b012bac5227c4c0a84467794f38c19db", "type": "electric_scooter", "lat": 38.911338666666666, "is_disabled": 0}, {"fusion_lat": 0.0, "lon": -76.98265516666666, "is_reserved": 0, "bike_id": "9d59cedc5af047c04c1b65cf1a5b5e65", "fusion_lon": 0.0, "rental_uris": {"android": "https://dc.lft.to/lastmile_qr_scan", "ios": "https://dc.lft.to/lastmile_qr_scan"}, "name": "9d59cedc5af047c04c1b65cf1a5b5e65", "type": "electric_scooter", "lat": 38.88532816666667, "is_disabled": 0}, {"fusion_lat": 0.0, "lon": -77.024538, "is_reserved": 0, "bike_id": "0477cffd0898c9ab745a5196d96b593b", "fusion_lon": 0.0, "rental_uris": {"android": "https://dc.lft.to/lastmile_qr_scan", "ios": "https://dc.lft.to/lastmile_qr_scan"}, "name": "0477cffd0898c9ab745a5196d96b593b", "type": "electric_scooter", "lat": 38.924111833333335, "is_disabled": 0}, {"fusion_lat": 0.0, "lon": -77.0344555, "is_reserved": 0, "bike_id": "04b69bc5ea5402b99c7012768cb94e1b", "fusion_lon": 0.0, "rental_uris": {"android": "https://dc.lft.to/lastmile_qr_scan", "ios": "https://dc.lft.to/lastmile_qr_scan"}, "name": "04b69bc5ea5402b99c7012768cb94e1b", "type": "electric_scooter", "lat": 38.910106166666665, "is_disabled": 0}, {"fusion_lat": 0.0, "lon": -77.03744016666667, "is_reserved": 0, "bike_id": "f2015bc0e42c3492492a3f508e5a6296", "fusion_lon": 0.0, "rental_uris": {"android": "https://dc.lft.to/lastmile_qr_scan", "ios": "https://dc.lft.to/lastmile_qr_scan"}, "name": "f2015bc0e42c3492492a3f508e5a6296", "type": "electric_scooter", "lat": 38.9220355, "is_disabled": 0}, {"fusion_lat": 0.0, "lon": -77.02697, "is_reserved": 0, "bike_id": "806ef2fbd15d7fbcd91b20ed16edaf1a", "fusion_lon": 0.0, "rental_uris": {"android": "https://dc.lft.to/lastmile_qr_scan", "ios": "https://dc.lft.to/lastmile_qr_scan"}, "name": "806ef2fbd15d7fbcd91b20ed16edaf1a", "type": "electric_scooter", "lat": 38.89600316666667, "is_disabled": 0}, {"fusion_lat": 0.0, "lon": -77.06854866666667, "is_reserved": 0, "bike_id": "ac43f918ff90d4eab9f449af391f7bc0", "fusion_lon": 0.0, "rental_uris": {"android": "https://dc.lft.to/lastmile_qr_scan", "ios": "https://dc.lft.to/lastmile_qr_scan"}, "name": "ac43f918ff90d4eab9f449af391f7bc0", "type": "electric_scooter", "lat": 38.93819216666667, "is_disabled": 0}, {"fusion_lat": 0.0, "lon": -76.97529183333333, "is_reserved": 0, "bike_id": "cde69ea0bbbb1d7ae0505b31048b293a", "fusion_lon": 0.0, "rental_uris": {"android": "https://dc.lft.to/lastmile_qr_scan", "ios": "https://dc.lft.to/lastmile_qr_scan"}, "name": "cde69ea0bbbb1d7ae0505b31048b293a", "type": "electric_bike", "lat": 38.903279, "is_disabled": 0}, {"fusion_lat": 0.0, "lon": -76.99413533333333, "is_reserved": 0, "bike_id": "0850540ea71833eb5615251ef24960ae", "fusion_lon": 0.0, "rental_uris": {"android": "https://dc.lft.to/lastmile_qr_scan", "ios": "https://dc.lft.to/lastmile_qr_scan"}, "name": "0850540ea71833eb5615251ef24960ae", "type": "electric_scooter", "lat": 38.92097016666666, "is_disabled": 0}, {"fusion_lat": 0.0, "lon": -77.041457, "is_reserved": 0, "bike_id": "40035b5311c515e207670c21f31aad44", "fusion_lon": 0.0, "rental_uris": {"android": "https://dc.lft.to/lastmile_qr_scan", "ios": "https://dc.lft.to/lastmile_qr_scan"}, "name": "40035b5311c515e207670c21f31aad44", "type": "electric_scooter", "lat": 38.89222216666667, "is_disabled": 0}, {"fusion_lat": 0.0, "lon": -77.02545733333334, "is_reserved": 0, "bike_id": "a27ed87fe1bbf67a59f1bb0ec019451e", "fusion_lon": 0.0, "rental_uris": {"android": "https://dc.lft.to/lastmile_qr_scan", "ios": "https://dc.lft.to/lastmile_qr_scan"}, "name": "a27ed87fe1bbf67a59f1bb0ec019451e", "type": "electric_scooter", "lat": 38.9247055, "is_disabled": 0}, {"fusion_lat": 0.0, "lon": -77.04455583333333, "is_reserved": 0, "bike_id": "ea19ab1957b674dd6362a3fef280c675", "fusion_lon": 0.0, "rental_uris": {"android": "https://dc.lft.to/lastmile_qr_scan", "ios": "https://dc.lft.to/lastmile_qr_scan"}, "name": "ea19ab1957b674dd6362a3fef280c675", "type": "electric_scooter", "lat": 38.90829183333334, "is_disabled": 0}, {"fusion_lat": 0.0, "lon": -77.02764, "is_reserved": 0, "bike_id": "ffeab997418c7b8b36373a88c520934b", "fusion_lon": 0.0, "rental_uris": {"android": "https://dc.lft.to/lastmile_qr_scan", "ios": "https://dc.lft.to/lastmile_qr_scan"}, "name": "ffeab997418c7b8b36373a88c520934b", "type": "electric_scooter", "lat": 38.9542555, "is_disabled": 0}, {"fusion_lat": 0.0, "lon": -76.98192783333333, "is_reserved": 0, "bike_id": "1e521d2b835487f3d061e83a6baa7652", "fusion_lon": 0.0, "rental_uris": {"android": "https://dc.lft.to/lastmile_qr_scan", "ios": "https://dc.lft.to/lastmile_qr_scan"}, "name": "1e521d2b835487f3d061e83a6baa7652", "type": "electric_scooter", "lat": 38.90282466666667, "is_disabled": 0}, {"fusion_lat": 0.0, "lon": -77.031615, "is_reserved": 0, "bike_id": "0be427db6de937c3df6854074524120e", "fusion_lon": 0.0, "rental_uris": {"android": "https://dc.lft.to/lastmile_qr_scan", "ios": "https://dc.lft.to/lastmile_qr_scan"}, "name": "0be427db6de937c3df6854074524120e", "type": "electric_scooter", "lat": 38.906005, "is_disabled": 0}, {"fusion_lat": 0.0, "lon": -77.00004916666667, "is_reserved": 0, "bike_id": "2428521d4e8952c75e1368344caa82af", "fusion_lon": 0.0, "rental_uris": {"android": "https://dc.lft.to/lastmile_qr_scan", "ios": "https://dc.lft.to/lastmile_qr_scan"}, "name": "2428521d4e8952c75e1368344caa82af", "type": "electric_scooter", "lat": 38.9077055, "is_disabled": 0}, {"fusion_lat": 0.0, "lon": -77.05340283333334, "is_reserved": 0, "bike_id": "d4b9ac097baadee1771748812f2a8fde", "fusion_lon": 0.0, "rental_uris": {"android": "https://dc.lft.to/lastmile_qr_scan", "ios": "https://dc.lft.to/lastmile_qr_scan"}, "name": "d4b9ac097baadee1771748812f2a8fde", "type": "electric_scooter", "lat": 38.9235505, "is_disabled": 0}, {"fusion_lat": 0.0, "lon": -77.02278983333333, "is_reserved": 0, "bike_id": "ed519909527442c7dfdb9cfe56fc057b", "fusion_lon": 0.0, "rental_uris": {"android": "https://dc.lft.to/lastmile_qr_scan", "ios": "https://dc.lft.to/lastmile_qr_scan"}, "name": "ed519909527442c7dfdb9cfe56fc057b", "type": "electric_scooter", "lat": 38.935313, "is_disabled": 0}, {"fusion_lat": 0.0, "lon": -77.01161233333333, "is_reserved": 0, "bike_id": "56bf20286d2a8a741be15ba0afa58bfa", "fusion_lon": 0.0, "rental_uris": {"android": "https://dc.lft.to/lastmile_qr_scan", "ios": "https://dc.lft.to/lastmile_qr_scan"}, "name": "56bf20286d2a8a741be15ba0afa58bfa", "type": "electric_scooter", "lat": 38.90025883333333, "is_disabled": 0}, {"fusion_lat": 0.0, "lon": -76.98696116666666, "is_reserved": 0, "bike_id": "4a8e8692787d3d5361cfba8ed955d5e9", "fusion_lon": 0.0, "rental_uris": {"android": "https://dc.lft.to/lastmile_qr_scan", "ios": "https://dc.lft.to/lastmile_qr_scan"}, "name": "4a8e8692787d3d5361cfba8ed955d5e9", "type": "electric_scooter", "lat": 38.86254683333333, "is_disabled": 0}, {"fusion_lat": 0.0, "lon": -77.06325833333334, "is_reserved": 0, "bike_id": "20459285fd010041c2fb6d15a34028c9", "fusion_lon": 0.0, "rental_uris": {"android": "https://dc.lft.to/lastmile_qr_scan", "ios": "https://dc.lft.to/lastmile_qr_scan"}, "name": "20459285fd010041c2fb6d15a34028c9", "type": "electric_scooter", "lat": 38.907602833333335, "is_disabled": 0}, {"fusion_lat": 0.0, "lon": -77.06299516666667, "is_reserved": 0, "bike_id": "670aa48fda12d4e6d69132f448d3707e", "fusion_lon": 0.0, "rental_uris": {"android": "https://dc.lft.to/lastmile_qr_scan", "ios": "https://dc.lft.to/lastmile_qr_scan"}, "name": "670aa48fda12d4e6d69132f448d3707e", "type": "electric_scooter", "lat": 38.903935, "is_disabled": 0}, {"fusion_lat": 0.0, "lon": -77.02179216666667, "is_reserved": 0, "bike_id": "14a2af12d8104a919521ec5ef4805ff0", "fusion_lon": 0.0, "rental_uris": {"android": "https://dc.lft.to/lastmile_qr_scan", "ios": "https://dc.lft.to/lastmile_qr_scan"}, "name": "14a2af12d8104a919521ec5ef4805ff0", "type": "electric_scooter", "lat": 38.89745883333333, "is_disabled": 0}, {"fusion_lat": 0.0, "lon": -77.028676, "is_reserved": 0, "bike_id": "c2b873f7cb75fa2618162f611e6b5921", "fusion_lon": 0.0, "rental_uris": {"android": "https://dc.lft.to/lastmile_qr_scan", "ios": "https://dc.lft.to/lastmile_qr_scan"}, "name": "c2b873f7cb75fa2618162f611e6b5921", "type": "electric_scooter", "lat": 38.950842333333334, "is_disabled": 0}, {"fusion_lat": 0.0, "lon": -77.02136433333334, "is_reserved": 0, "bike_id": "c0acdde6f3d1f01320711bc7aab2f7c4", "fusion_lon": 0.0, "rental_uris": {"android": "https://dc.lft.to/lastmile_qr_scan", "ios": "https://dc.lft.to/lastmile_qr_scan"}, "name": "c0acdde6f3d1f01320711bc7aab2f7c4", "type": "electric_scooter", "lat": 38.92321583333333, "is_disabled": 0}, {"fusion_lat": 0.0, "lon": -77.03250833333334, "is_reserved": 0, "bike_id": "ac1597688891a6710f2ac0271cb73ea2", "fusion_lon": 0.0, "rental_uris": {"android": "https://dc.lft.to/lastmile_qr_scan", "ios": "https://dc.lft.to/lastmile_qr_scan"}, "name": "ac1597688891a6710f2ac0271cb73ea2", "type": "electric_scooter", "lat": 38.904407166666665, "is_disabled": 0}, {"fusion_lat": 0.0, "lon": -76.97437283333333, "is_reserved": 0, "bike_id": "eddcd2af031a7df7ec678bfec3bf2a70", "fusion_lon": 0.0, "rental_uris": {"android": "https://dc.lft.to/lastmile_qr_scan", "ios": "https://dc.lft.to/lastmile_qr_scan"}, "name": "eddcd2af031a7df7ec678bfec3bf2a70", "type": "electric_bike", "lat": 38.864108, "is_disabled": 0}, {"fusion_lat": 0.0, "lon": -77.0686315, "is_reserved": 0, "bike_id": "c5f53f59484abab7a0e47d0fdc9dfa50", "fusion_lon": 0.0, "rental_uris": {"android": "https://dc.lft.to/lastmile_qr_scan", "ios": "https://dc.lft.to/lastmile_qr_scan"}, "name": "c5f53f59484abab7a0e47d0fdc9dfa50", "type": "electric_bike", "lat": 38.80577733333333, "is_disabled": 0}, {"fusion_lat": 0.0, "lon": -77.02690766666667, "is_reserved": 0, "bike_id": "d2cc86d6be1f0caeae64562d3299ef0e", "fusion_lon": 0.0, "rental_uris": {"android": "https://dc.lft.to/lastmile_qr_scan", "ios": "https://dc.lft.to/lastmile_qr_scan"}, "name": "d2cc86d6be1f0caeae64562d3299ef0e", "type": "electric_scooter", "lat": 38.90248483333333, "is_disabled": 0}, {"fusion_lat": 0.0, "lon": -76.89532166666666, "is_reserved": 0, "bike_id": "9c1aaf7455fc84646309b8fd0cf42f30", "fusion_lon": 0.0, "rental_uris": {"android": "https://dc.lft.to/lastmile_qr_scan", "ios": "https://dc.lft.to/lastmile_qr_scan"}, "name": "9c1aaf7455fc84646309b8fd0cf42f30", "type": "electric_bike", "lat": 38.945478666666666, "is_disabled": 0}, {"fusion_lat": 0.0, "lon": -76.99144433333333, "is_reserved": 0, "bike_id": "c837342b47ebb9b7974e5a5410fed46e", "fusion_lon": 0.0, "rental_uris": {"android": "https://dc.lft.to/lastmile_qr_scan", "ios": "https://dc.lft.to/lastmile_qr_scan"}, "name": "c837342b47ebb9b7974e5a5410fed46e", "type": "electric_scooter", "lat": 38.893454166666665, "is_disabled": 0}, {"fusion_lat": 0.0, "lon": -77.00193866666666, "is_reserved": 0, "bike_id": "6aaf3c650736952439f1d8071136d938", "fusion_lon": 0.0, "rental_uris": {"android": "https://dc.lft.to/lastmile_qr_scan", "ios": "https://dc.lft.to/lastmile_qr_scan"}, "name": "6aaf3c650736952439f1d8071136d938", "type": "electric_scooter", "lat": 38.91679216666667, "is_disabled": 0}, {"fusion_lat": 0.0, "lon": -77.02728066666667, "is_reserved": 0, "bike_id": "139eb6d4016e038b2c0996f199038aba", "fusion_lon": 0.0, "rental_uris": {"android": "https://dc.lft.to/lastmile_qr_scan", "ios": "https://dc.lft.to/lastmile_qr_scan"}, "name": "139eb6d4016e038b2c0996f199038aba", "type": "electric_scooter", "lat": 38.940825, "is_disabled": 0}, {"fusion_lat": 0.0, "lon": -77.034423, "is_reserved": 0, "bike_id": "ac57b7c16e7c08e230d90d44e7d5e219", "fusion_lon": 0.0, "rental_uris": {"android": "https://dc.lft.to/lastmile_qr_scan", "ios": "https://dc.lft.to/lastmile_qr_scan"}, "name": "ac57b7c16e7c08e230d90d44e7d5e219", "type": "electric_scooter", "lat": 38.91812133333333, "is_disabled": 0}, {"fusion_lat": 0.0, "lon": -77.03207433333333, "is_reserved": 0, "bike_id": "e904b25e64c59e61e8368e4297a10622", "fusion_lon": 0.0, "rental_uris": {"android": "https://dc.lft.to/lastmile_qr_scan", "ios": "https://dc.lft.to/lastmile_qr_scan"}, "name": "e904b25e64c59e61e8368e4297a10622", "type": "electric_scooter", "lat": 38.90725783333333, "is_disabled": 0}, {"fusion_lat": 0.0, "lon": -76.93729733333333, "is_reserved": 0, "bike_id": "89b279811d7aeee44f20977a97a96e3b", "fusion_lon": 0.0, "rental_uris": {"android": "https://dc.lft.to/lastmile_qr_scan", "ios": "https://dc.lft.to/lastmile_qr_scan"}, "name": "89b279811d7aeee44f20977a97a96e3b", "type": "electric_scooter", "lat": 38.89014266666667, "is_disabled": 0}, {"fusion_lat": 0.0, "lon": -77.02328516666667, "is_reserved": 0, "bike_id": "7171c836c0618019bd79644ca9af22ba", "fusion_lon": 0.0, "rental_uris": {"android": "https://dc.lft.to/lastmile_qr_scan", "ios": "https://dc.lft.to/lastmile_qr_scan"}, "name": "7171c836c0618019bd79644ca9af22ba", "type": "electric_scooter", "lat": 38.9270655, "is_disabled": 0}, {"fusion_lat": 0.0, "lon": -77.06331533333334, "is_reserved": 0, "bike_id": "1224157938b6b673046266c661129bf1", "fusion_lon": 0.0, "rental_uris": {"android": "https://dc.lft.to/lastmile_qr_scan", "ios": "https://dc.lft.to/lastmile_qr_scan"}, "name": "1224157938b6b673046266c661129bf1", "type": "electric_scooter", "lat": 38.944228, "is_disabled": 0}, {"fusion_lat": 0.0, "lon": -77.00719133333334, "is_reserved": 0, "bike_id": "342e70b07a3d633aa6068f2bd6c91512", "fusion_lon": 0.0, "rental_uris": {"android": "https://dc.lft.to/lastmile_qr_scan", "ios": "https://dc.lft.to/lastmile_qr_scan"}, "name": "342e70b07a3d633aa6068f2bd6c91512", "type": "electric_scooter", "lat": 38.8978715, "is_disabled": 0}, {"fusion_lat": 0.0, "lon": -77.0151195, "is_reserved": 0, "bike_id": "c2cee2125089360b76d6a12a611dd5af", "fusion_lon": 0.0, "rental_uris": {"android": "https://dc.lft.to/lastmile_qr_scan", "ios": "https://dc.lft.to/lastmile_qr_scan"}, "name": "c2cee2125089360b76d6a12a611dd5af", "type": "electric_scooter", "lat": 38.892458833333336, "is_disabled": 0}, {"fusion_lat": 0.0, "lon": -77.0307775, "is_reserved": 0, "bike_id": "4abd6f80f0a4ed64f6bfd78c24fff44e", "fusion_lon": 0.0, "rental_uris": {"android": "https://dc.lft.to/lastmile_qr_scan", "ios": "https://dc.lft.to/lastmile_qr_scan"}, "name": "4abd6f80f0a4ed64f6bfd78c24fff44e", "type": "electric_scooter", "lat": 38.923856666666666, "is_disabled": 0}, {"fusion_lat": 0.0, "lon": -77.01775783333333, "is_reserved": 0, "bike_id": "1b9e8fb21853e3ff3d5c7e80e8366707", "fusion_lon": 0.0, "rental_uris": {"android": "https://dc.lft.to/lastmile_qr_scan", "ios": "https://dc.lft.to/lastmile_qr_scan"}, "name": "1b9e8fb21853e3ff3d5c7e80e8366707", "type": "electric_scooter", "lat": 38.88322616666667, "is_disabled": 0}, {"fusion_lat": 0.0, "lon": -76.99451716666667, "is_reserved": 0, "bike_id": "f50aad95d3c4065d1a39cb3f427a07f2", "fusion_lon": 0.0, "rental_uris": {"android": "https://dc.lft.to/lastmile_qr_scan", "ios": "https://dc.lft.to/lastmile_qr_scan"}, "name": "f50aad95d3c4065d1a39cb3f427a07f2", "type": "electric_bike", "lat": 38.9661625, "is_disabled": 0}, {"fusion_lat": 0.0, "lon": -77.013153, "is_reserved": 0, "bike_id": "15491278f573c4cb49c87dba9283e1d1", "fusion_lon": 0.0, "rental_uris": {"android": "https://dc.lft.to/lastmile_qr_scan", "ios": "https://dc.lft.to/lastmile_qr_scan"}, "name": "15491278f573c4cb49c87dba9283e1d1", "type": "electric_scooter", "lat": 38.871520833333335, "is_disabled": 0}, {"fusion_lat": 0.0, "lon": -77.043012, "is_reserved": 0, "bike_id": "7e31f2add20f2a9e4d4c647b4c827eed", "fusion_lon": 0.0, "rental_uris": {"android": "https://dc.lft.to/lastmile_qr_scan", "ios": "https://dc.lft.to/lastmile_qr_scan"}, "name": "7e31f2add20f2a9e4d4c647b4c827eed", "type": "electric_scooter", "lat": 38.9232615, "is_disabled": 0}, {"fusion_lat": 0.0, "lon": -77.027966, "is_reserved": 0, "bike_id": "00f708deb7256df5e8c41e471940c506", "fusion_lon": 0.0, "rental_uris": {"android": "https://dc.lft.to/lastmile_qr_scan", "ios": "https://dc.lft.to/lastmile_qr_scan"}, "name": "00f708deb7256df5e8c41e471940c506", "type": "electric_scooter", "lat": 38.8923285, "is_disabled": 0}, {"fusion_lat": 0.0, "lon": -77.00872866666667, "is_reserved": 0, "bike_id": "a2b5e57faf468bebf19b946b1e99f332", "fusion_lon": 0.0, "rental_uris": {"android": "https://dc.lft.to/lastmile_qr_scan", "ios": "https://dc.lft.to/lastmile_qr_scan"}, "name": "a2b5e57faf468bebf19b946b1e99f332", "type": "electric_scooter", "lat": 38.906686666666666, "is_disabled": 0}, {"fusion_lat": 0.0, "lon": -77.03488133333333, "is_reserved": 0, "bike_id": "cc7799023202c8ac94d67028241565f6", "fusion_lon": 0.0, "rental_uris": {"android": "https://dc.lft.to/lastmile_qr_scan", "ios": "https://dc.lft.to/lastmile_qr_scan"}, "name": "cc7799023202c8ac94d67028241565f6", "type": "electric_scooter", "lat": 38.925448333333335, "is_disabled": 0}, {"fusion_lat": 0.0, "lon": -76.99813633333333, "is_reserved": 0, "bike_id": "449d842a1b829481de9eb533c031cb8c", "fusion_lon": 0.0, "rental_uris": {"android": "https://dc.lft.to/lastmile_qr_scan", "ios": "https://dc.lft.to/lastmile_qr_scan"}, "name": "449d842a1b829481de9eb533c031cb8c", "type": "electric_scooter", "lat": 38.84434066666667, "is_disabled": 0}, {"fusion_lat": 0.0, "lon": -77.00377166666667, "is_reserved": 0, "bike_id": "87c929e03e139156b254ca7ebc4f55f0", "fusion_lon": 0.0, "rental_uris": {"android": "https://dc.lft.to/lastmile_qr_scan", "ios": "https://dc.lft.to/lastmile_qr_scan"}, "name": "87c929e03e139156b254ca7ebc4f55f0", "type": "electric_scooter", "lat": 38.897346666666664, "is_disabled": 0}, {"fusion_lat": 0.0, "lon": -77.005863, "is_reserved": 0, "bike_id": "03a4ce553087f2c89923e50300dfbfd8", "fusion_lon": 0.0, "rental_uris": {"android": "https://dc.lft.to/lastmile_qr_scan", "ios": "https://dc.lft.to/lastmile_qr_scan"}, "name": "03a4ce553087f2c89923e50300dfbfd8", "type": "electric_scooter", "lat": 38.9056365, "is_disabled": 0}, {"fusion_lat": 0.0, "lon": -77.03961683333333, "is_reserved": 0, "bike_id": "288b5ee5e03f88cdb7509b9fb30437d9", "fusion_lon": 0.0, "rental_uris": {"android": "https://dc.lft.to/lastmile_qr_scan", "ios": "https://dc.lft.to/lastmile_qr_scan"}, "name": "288b5ee5e03f88cdb7509b9fb30437d9", "type": "electric_scooter", "lat": 38.90722066666667, "is_disabled": 0}, {"fusion_lat": 0.0, "lon": -77.03553083333334, "is_reserved": 0, "bike_id": "e2f86b92e4c28e4db8720bbaf40f4413", "fusion_lon": 0.0, "rental_uris": {"android": "https://dc.lft.to/lastmile_qr_scan", "ios": "https://dc.lft.to/lastmile_qr_scan"}, "name": "e2f86b92e4c28e4db8720bbaf40f4413", "type": "electric_scooter", "lat": 38.91708033333333, "is_disabled": 0}, {"fusion_lat": 0.0, "lon": -76.99546916666667, "is_reserved": 0, "bike_id": "28f98a22c2ebfbdbd6449f761f476129", "fusion_lon": 0.0, "rental_uris": {"android": "https://dc.lft.to/lastmile_qr_scan", "ios": "https://dc.lft.to/lastmile_qr_scan"}, "name": "28f98a22c2ebfbdbd6449f761f476129", "type": "electric_scooter", "lat": 38.862604, "is_disabled": 0}, {"fusion_lat": 0.0, "lon": -77.03038133333334, "is_reserved": 0, "bike_id": "def1942f7b70adcac1b2d1b958a81b49", "fusion_lon": 0.0, "rental_uris": {"android": "https://dc.lft.to/lastmile_qr_scan", "ios": "https://dc.lft.to/lastmile_qr_scan"}, "name": "def1942f7b70adcac1b2d1b958a81b49", "type": "electric_scooter", "lat": 38.88401916666667, "is_disabled": 0}, {"fusion_lat": 0.0, "lon": -77.00062316666667, "is_reserved": 0, "bike_id": "1670f1d1352c7f594c041fe5dc14aa3a", "fusion_lon": 0.0, "rental_uris": {"android": "https://dc.lft.to/lastmile_qr_scan", "ios": "https://dc.lft.to/lastmile_qr_scan"}, "name": "1670f1d1352c7f594c041fe5dc14aa3a", "type": "electric_scooter", "lat": 38.896344666666664, "is_disabled": 0}, {"fusion_lat": 0.0, "lon": -77.046826, "is_reserved": 0, "bike_id": "5bd2c5cc8f6051d5f90f44c49350d1e8", "fusion_lon": 0.0, "rental_uris": {"android": "https://dc.lft.to/lastmile_qr_scan", "ios": "https://dc.lft.to/lastmile_qr_scan"}, "name": "5bd2c5cc8f6051d5f90f44c49350d1e8", "type": "electric_scooter", "lat": 38.92165933333333, "is_disabled": 0}, {"fusion_lat": 0.0, "lon": -77.086522, "is_reserved": 0, "bike_id": "0a6adee7ea4e7a34ab6ee5bf3d8701b2", "fusion_lon": 0.0, "rental_uris": {"android": "https://dc.lft.to/lastmile_qr_scan", "ios": "https://dc.lft.to/lastmile_qr_scan"}, "name": "0a6adee7ea4e7a34ab6ee5bf3d8701b2", "type": "electric_bike", "lat": 38.86249083333333, "is_disabled": 0}, {"fusion_lat": 0.0, "lon": -77.029478, "is_reserved": 0, "bike_id": "b86e9c88f21e25e5d36b4531edda34b6", "fusion_lon": 0.0, "rental_uris": {"android": "https://dc.lft.to/lastmile_qr_scan", "ios": "https://dc.lft.to/lastmile_qr_scan"}, "name": "b86e9c88f21e25e5d36b4531edda34b6", "type": "electric_scooter", "lat": 38.9168535, "is_disabled": 0}, {"fusion_lat": 0.0, "lon": -77.04487433333334, "is_reserved": 0, "bike_id": "013b45ace9fe7cf56ca58da69e24bb09", "fusion_lon": 0.0, "rental_uris": {"android": "https://dc.lft.to/lastmile_qr_scan", "ios": "https://dc.lft.to/lastmile_qr_scan"}, "name": "013b45ace9fe7cf56ca58da69e24bb09", "type": "electric_scooter", "lat": 38.90497333333333, "is_disabled": 0}, {"fusion_lat": 0.0, "lon": -77.080356, "is_reserved": 0, "bike_id": "4f080d6bf75f271f49b757b19a05c1fa", "fusion_lon": 0.0, "rental_uris": {"android": "https://dc.lft.to/lastmile_qr_scan", "ios": "https://dc.lft.to/lastmile_qr_scan"}, "name": "4f080d6bf75f271f49b757b19a05c1fa", "type": "electric_scooter", "lat": 38.923879666666664, "is_disabled": 0}, {"fusion_lat": 0.0, "lon": -77.04222616666667, "is_reserved": 0, "bike_id": "008d56d8928dfa9f4011e8aa69196f9c", "fusion_lon": 0.0, "rental_uris": {"android": "https://dc.lft.to/lastmile_qr_scan", "ios": "https://dc.lft.to/lastmile_qr_scan"}, "name": "008d56d8928dfa9f4011e8aa69196f9c", "type": "electric_scooter", "lat": 38.9216255, "is_disabled": 0}, {"fusion_lat": 0.0, "lon": -76.98018166666667, "is_reserved": 0, "bike_id": "50e009afb995175daf9542b878aee064", "fusion_lon": 0.0, "rental_uris": {"android": "https://dc.lft.to/lastmile_qr_scan", "ios": "https://dc.lft.to/lastmile_qr_scan"}, "name": "50e009afb995175daf9542b878aee064", "type": "electric_scooter", "lat": 38.90293366666667, "is_disabled": 0}, {"fusion_lat": 0.0, "lon": -77.03884833333333, "is_reserved": 0, "bike_id": "12be653b1c50880195389e9b1ceac002", "fusion_lon": 0.0, "rental_uris": {"android": "https://dc.lft.to/lastmile_qr_scan", "ios": "https://dc.lft.to/lastmile_qr_scan"}, "name": "12be653b1c50880195389e9b1ceac002", "type": "electric_scooter", "lat": 38.91470133333333, "is_disabled": 0}, {"fusion_lat": 0.0, "lon": -76.998796, "is_reserved": 0, "bike_id": "add9614e40c08e646ca51eb3801047cf", "fusion_lon": 0.0, "rental_uris": {"android": "https://dc.lft.to/lastmile_qr_scan", "ios": "https://dc.lft.to/lastmile_qr_scan"}, "name": "add9614e40c08e646ca51eb3801047cf", "type": "electric_scooter", "lat": 38.901292833333336, "is_disabled": 0}, {"fusion_lat": 0.0, "lon": -77.02402116666667, "is_reserved": 0, "bike_id": "318c13f5588e75c501d26ec714b4098d", "fusion_lon": 0.0, "rental_uris": {"android": "https://dc.lft.to/lastmile_qr_scan", "ios": "https://dc.lft.to/lastmile_qr_scan"}, "name": "318c13f5588e75c501d26ec714b4098d", "type": "electric_bike", "lat": 38.8968435, "is_disabled": 0}, {"fusion_lat": 0.0, "lon": -77.02906033333333, "is_reserved": 0, "bike_id": "44feb7fc42a5d91b6e5a3ec2a15beccd", "fusion_lon": 0.0, "rental_uris": {"android": "https://dc.lft.to/lastmile_qr_scan", "ios": "https://dc.lft.to/lastmile_qr_scan"}, "name": "44feb7fc42a5d91b6e5a3ec2a15beccd", "type": "electric_scooter", "lat": 38.92815216666666, "is_disabled": 0}, {"fusion_lat": 0.0, "lon": -77.0449775, "is_reserved": 0, "bike_id": "5b64395d48af46143947415dabbec708", "fusion_lon": 0.0, "rental_uris": {"android": "https://dc.lft.to/lastmile_qr_scan", "ios": "https://dc.lft.to/lastmile_qr_scan"}, "name": "5b64395d48af46143947415dabbec708", "type": "electric_scooter", "lat": 38.90721666666666, "is_disabled": 0}, {"fusion_lat": 0.0, "lon": -77.02203766666666, "is_reserved": 0, "bike_id": "ad4605b7c1752bc87e1a5a9f7371f561", "fusion_lon": 0.0, "rental_uris": {"android": "https://dc.lft.to/lastmile_qr_scan", "ios": "https://dc.lft.to/lastmile_qr_scan"}, "name": "ad4605b7c1752bc87e1a5a9f7371f561", "type": "electric_scooter", "lat": 38.9004395, "is_disabled": 0}, {"fusion_lat": 0.0, "lon": -77.02180816666667, "is_reserved": 0, "bike_id": "8919e4e5f44d54f8893954f458f868c2", "fusion_lon": 0.0, "rental_uris": {"android": "https://dc.lft.to/lastmile_qr_scan", "ios": "https://dc.lft.to/lastmile_qr_scan"}, "name": "8919e4e5f44d54f8893954f458f868c2", "type": "electric_scooter", "lat": 38.90950866666667, "is_disabled": 0}, {"fusion_lat": 0.0, "lon": -77.034522, "is_reserved": 0, "bike_id": "f7e76ea8fa8f9eb18ccda7e9dee59d5a", "fusion_lon": 0.0, "rental_uris": {"android": "https://dc.lft.to/lastmile_qr_scan", "ios": "https://dc.lft.to/lastmile_qr_scan"}, "name": "f7e76ea8fa8f9eb18ccda7e9dee59d5a", "type": "electric_scooter", "lat": 38.9063765, "is_disabled": 0}, {"fusion_lat": 0.0, "lon": -77.02336333333334, "is_reserved": 0, "bike_id": "b7684b1925dfd998ff1c70aa64346767", "fusion_lon": 0.0, "rental_uris": {"android": "https://dc.lft.to/lastmile_qr_scan", "ios": "https://dc.lft.to/lastmile_qr_scan"}, "name": "b7684b1925dfd998ff1c70aa64346767", "type": "electric_scooter", "lat": 38.920900833333334, "is_disabled": 0}, {"fusion_lat": 0.0, "lon": -77.04822516666667, "is_reserved": 0, "bike_id": "ce42cc2efd349e855fe941ff202beb1b", "fusion_lon": 0.0, "rental_uris": {"android": "https://dc.lft.to/lastmile_qr_scan", "ios": "https://dc.lft.to/lastmile_qr_scan"}, "name": "ce42cc2efd349e855fe941ff202beb1b", "type": "electric_scooter", "lat": 38.907299, "is_disabled": 0}, {"fusion_lat": 0.0, "lon": -77.03190783333334, "is_reserved": 0, "bike_id": "4e7d56d3634b716d09661d009db87f2b", "fusion_lon": 0.0, "rental_uris": {"android": "https://dc.lft.to/lastmile_qr_scan", "ios": "https://dc.lft.to/lastmile_qr_scan"}, "name": "4e7d56d3634b716d09661d009db87f2b", "type": "electric_scooter", "lat": 38.90975183333333, "is_disabled": 0}, {"fusion_lat": 0.0, "lon": -77.02844666666667, "is_reserved": 0, "bike_id": "66d6f2798243c8c735c8be8100126290", "fusion_lon": 0.0, "rental_uris": {"android": "https://dc.lft.to/lastmile_qr_scan", "ios": "https://dc.lft.to/lastmile_qr_scan"}, "name": "66d6f2798243c8c735c8be8100126290", "type": "electric_scooter", "lat": 38.912687, "is_disabled": 0}, {"fusion_lat": 0.0, "lon": -77.05810933333333, "is_reserved": 0, "bike_id": "96dae9e312fe5402550dc2c5400afee0", "fusion_lon": 0.0, "rental_uris": {"android": "https://dc.lft.to/lastmile_qr_scan", "ios": "https://dc.lft.to/lastmile_qr_scan"}, "name": "96dae9e312fe5402550dc2c5400afee0", "type": "electric_scooter", "lat": 38.93506516666667, "is_disabled": 0}, {"fusion_lat": 0.0, "lon": -77.06094766666666, "is_reserved": 0, "bike_id": "d6dbe606f01ca7423885fc3d1c921753", "fusion_lon": 0.0, "rental_uris": {"android": "https://dc.lft.to/lastmile_qr_scan", "ios": "https://dc.lft.to/lastmile_qr_scan"}, "name": "d6dbe606f01ca7423885fc3d1c921753", "type": "electric_scooter", "lat": 38.94368766666667, "is_disabled": 0}, {"fusion_lat": 0.0, "lon": -77.00221016666667, "is_reserved": 0, "bike_id": "807e8e65f1a8cc418a4cc24acff59cc9", "fusion_lon": 0.0, "rental_uris": {"android": "https://dc.lft.to/lastmile_qr_scan", "ios": "https://dc.lft.to/lastmile_qr_scan"}, "name": "807e8e65f1a8cc418a4cc24acff59cc9", "type": "electric_scooter", "lat": 38.89484133333333, "is_disabled": 0}, {"fusion_lat": 0.0, "lon": -77.02690883333334, "is_reserved": 0, "bike_id": "f24c9901530b19553099957e5684b572", "fusion_lon": 0.0, "rental_uris": {"android": "https://dc.lft.to/lastmile_qr_scan", "ios": "https://dc.lft.to/lastmile_qr_scan"}, "name": "f24c9901530b19553099957e5684b572", "type": "electric_scooter", "lat": 38.915835333333334, "is_disabled": 0}, {"fusion_lat": 0.0, "lon": -76.97614766666666, "is_reserved": 0, "bike_id": "49be59e0ace5334622fb789247ca1e0d", "fusion_lon": 0.0, "rental_uris": {"android": "https://dc.lft.to/lastmile_qr_scan", "ios": "https://dc.lft.to/lastmile_qr_scan"}, "name": "49be59e0ace5334622fb789247ca1e0d", "type": "electric_scooter", "lat": 38.913022, "is_disabled": 0}, {"fusion_lat": 0.0, "lon": -77.03263316666667, "is_reserved": 0, "bike_id": "78acb56566ea5179da52e3b4be327f23", "fusion_lon": 0.0, "rental_uris": {"android": "https://dc.lft.to/lastmile_qr_scan", "ios": "https://dc.lft.to/lastmile_qr_scan"}, "name": "78acb56566ea5179da52e3b4be327f23", "type": "electric_scooter", "lat": 38.91824666666667, "is_disabled": 0}, {"fusion_lat": 0.0, "lon": -77.02615816666666, "is_reserved": 0, "bike_id": "7b32714ab60836c28dd95d429d9534c1", "fusion_lon": 0.0, "rental_uris": {"android": "https://dc.lft.to/lastmile_qr_scan", "ios": "https://dc.lft.to/lastmile_qr_scan"}, "name": "7b32714ab60836c28dd95d429d9534c1", "type": "electric_scooter", "lat": 38.8942675, "is_disabled": 0}, {"fusion_lat": 0.0, "lon": -77.03613916666667, "is_reserved": 0, "bike_id": "9660c841f3ae351f7569cb6457a873c9", "fusion_lon": 0.0, "rental_uris": {"android": "https://dc.lft.to/lastmile_qr_scan", "ios": "https://dc.lft.to/lastmile_qr_scan"}, "name": "9660c841f3ae351f7569cb6457a873c9", "type": "electric_scooter", "lat": 38.930435333333335, "is_disabled": 0}, {"fusion_lat": 0.0, "lon": -77.04567716666666, "is_reserved": 0, "bike_id": "feb33ed1bb1c7becc849ea7ef94bf60f", "fusion_lon": 0.0, "rental_uris": {"android": "https://dc.lft.to/lastmile_qr_scan", "ios": "https://dc.lft.to/lastmile_qr_scan"}, "name": "feb33ed1bb1c7becc849ea7ef94bf60f", "type": "electric_scooter", "lat": 38.921126666666666, "is_disabled": 0}, {"fusion_lat": 0.0, "lon": -77.04221916666667, "is_reserved": 0, "bike_id": "9ffd6ab7040396c7d6439db741b7b900", "fusion_lon": 0.0, "rental_uris": {"android": "https://dc.lft.to/lastmile_qr_scan", "ios": "https://dc.lft.to/lastmile_qr_scan"}, "name": "9ffd6ab7040396c7d6439db741b7b900", "type": "electric_scooter", "lat": 38.93158233333333, "is_disabled": 0}, {"fusion_lat": 0.0, "lon": -77.022254, "is_reserved": 0, "bike_id": "3650ab7afa7aa6b6d96df26e818dc974", "fusion_lon": 0.0, "rental_uris": {"android": "https://dc.lft.to/lastmile_qr_scan", "ios": "https://dc.lft.to/lastmile_qr_scan"}, "name": "3650ab7afa7aa6b6d96df26e818dc974", "type": "electric_scooter", "lat": 38.89219833333333, "is_disabled": 0}, {"fusion_lat": 0.0, "lon": -76.98059083333334, "is_reserved": 0, "bike_id": "e63757e98c4e5e577e94371ac29fb6d4", "fusion_lon": 0.0, "rental_uris": {"android": "https://dc.lft.to/lastmile_qr_scan", "ios": "https://dc.lft.to/lastmile_qr_scan"}, "name": "e63757e98c4e5e577e94371ac29fb6d4", "type": "electric_scooter", "lat": 38.9017045, "is_disabled": 0}, {"fusion_lat": 0.0, "lon": -77.03426666666667, "is_reserved": 0, "bike_id": "b8b8ccde41e3300906d42b1685cc8d69", "fusion_lon": 0.0, "rental_uris": {"android": "https://dc.lft.to/lastmile_qr_scan", "ios": "https://dc.lft.to/lastmile_qr_scan"}, "name": "b8b8ccde41e3300906d42b1685cc8d69", "type": "electric_scooter", "lat": 38.919351, "is_disabled": 0}, {"fusion_lat": 0.0, "lon": -77.00246933333334, "is_reserved": 0, "bike_id": "e8ec06d0a2395b966518377c348dd0de", "fusion_lon": 0.0, "rental_uris": {"android": "https://dc.lft.to/lastmile_qr_scan", "ios": "https://dc.lft.to/lastmile_qr_scan"}, "name": "e8ec06d0a2395b966518377c348dd0de", "type": "electric_bike", "lat": 38.874888, "is_disabled": 0}, {"fusion_lat": 0.0, "lon": -77.03182433333333, "is_reserved": 0, "bike_id": "072dec760cd364a85de45904419703ce", "fusion_lon": 0.0, "rental_uris": {"android": "https://dc.lft.to/lastmile_qr_scan", "ios": "https://dc.lft.to/lastmile_qr_scan"}, "name": "072dec760cd364a85de45904419703ce", "type": "electric_scooter", "lat": 38.91318783333333, "is_disabled": 0}, {"fusion_lat": 0.0, "lon": -77.03260816666666, "is_reserved": 0, "bike_id": "5016a30e9c898ce7339a24c895ddf867", "fusion_lon": 0.0, "rental_uris": {"android": "https://dc.lft.to/lastmile_qr_scan", "ios": "https://dc.lft.to/lastmile_qr_scan"}, "name": "5016a30e9c898ce7339a24c895ddf867", "type": "electric_scooter", "lat": 38.93405816666667, "is_disabled": 0}, {"fusion_lat": 0.0, "lon": -77.03476466666666, "is_reserved": 0, "bike_id": "1d0ac0670d091290933f23b85ebe3a07", "fusion_lon": 0.0, "rental_uris": {"android": "https://dc.lft.to/lastmile_qr_scan", "ios": "https://dc.lft.to/lastmile_qr_scan"}, "name": "1d0ac0670d091290933f23b85ebe3a07", "type": "electric_scooter", "lat": 38.921511, "is_disabled": 0}, {"fusion_lat": 0.0, "lon": -77.04332666666667, "is_reserved": 0, "bike_id": "2be996b850774fa30e7c3e133360b04f", "fusion_lon": 0.0, "rental_uris": {"android": "https://dc.lft.to/lastmile_qr_scan", "ios": "https://dc.lft.to/lastmile_qr_scan"}, "name": "2be996b850774fa30e7c3e133360b04f", "type": "electric_scooter", "lat": 38.89226, "is_disabled": 0}, {"fusion_lat": 0.0, "lon": -77.0781935, "is_reserved": 0, "bike_id": "7d3ca20b931448dc05e6ff50eafe9ed7", "fusion_lon": 0.0, "rental_uris": {"android": "https://dc.lft.to/lastmile_qr_scan", "ios": "https://dc.lft.to/lastmile_qr_scan"}, "name": "7d3ca20b931448dc05e6ff50eafe9ed7", "type": "electric_bike", "lat": 38.936357, "is_disabled": 0}, {"fusion_lat": 0.0, "lon": -76.9838345, "is_reserved": 0, "bike_id": "1b620a4e38797cfb29a5b81ce41198b2", "fusion_lon": 0.0, "rental_uris": {"android": "https://dc.lft.to/lastmile_qr_scan", "ios": "https://dc.lft.to/lastmile_qr_scan"}, "name": "1b620a4e38797cfb29a5b81ce41198b2", "type": "electric_scooter", "lat": 38.926913166666665, "is_disabled": 0}, {"fusion_lat": 0.0, "lon": -77.02044166666667, "is_reserved": 0, "bike_id": "a04e652dd300c61fae616fbaa04a51c3", "fusion_lon": 0.0, "rental_uris": {"android": "https://dc.lft.to/lastmile_qr_scan", "ios": "https://dc.lft.to/lastmile_qr_scan"}, "name": "a04e652dd300c61fae616fbaa04a51c3", "type": "electric_scooter", "lat": 38.921781833333334, "is_disabled": 0}, {"fusion_lat": 0.0, "lon": -77.0450165, "is_reserved": 0, "bike_id": "d0e6e72757b7b39af4efa993be063e46", "fusion_lon": 0.0, "rental_uris": {"android": "https://dc.lft.to/lastmile_qr_scan", "ios": "https://dc.lft.to/lastmile_qr_scan"}, "name": "d0e6e72757b7b39af4efa993be063e46", "type": "electric_scooter", "lat": 38.91111433333333, "is_disabled": 0}, {"fusion_lat": 0.0, "lon": -76.98840966666667, "is_reserved": 0, "bike_id": "6242af96ad8f78cbf17672226c516eed", "fusion_lon": 0.0, "rental_uris": {"android": "https://dc.lft.to/lastmile_qr_scan", "ios": "https://dc.lft.to/lastmile_qr_scan"}, "name": "6242af96ad8f78cbf17672226c516eed", "type": "electric_bike", "lat": 38.842737166666666, "is_disabled": 0}, {"fusion_lat": 0.0, "lon": -77.02976516666666, "is_reserved": 0, "bike_id": "9d90d0835cd874c9e7df52670d050431", "fusion_lon": 0.0, "rental_uris": {"android": "https://dc.lft.to/lastmile_qr_scan", "ios": "https://dc.lft.to/lastmile_qr_scan"}, "name": "9d90d0835cd874c9e7df52670d050431", "type": "electric_scooter", "lat": 38.9295215, "is_disabled": 0}, {"fusion_lat": 0.0, "lon": -76.98543016666666, "is_reserved": 0, "bike_id": "9ec1f4444878cbf1c6ae150c889a1f40", "fusion_lon": 0.0, "rental_uris": {"android": "https://dc.lft.to/lastmile_qr_scan", "ios": "https://dc.lft.to/lastmile_qr_scan"}, "name": "9ec1f4444878cbf1c6ae150c889a1f40", "type": "electric_bike", "lat": 38.88186066666667, "is_disabled": 0}, {"fusion_lat": 0.0, "lon": -77.0352755, "is_reserved": 0, "bike_id": "01b1514446e395786b734e593d539210", "fusion_lon": 0.0, "rental_uris": {"android": "https://dc.lft.to/lastmile_qr_scan", "ios": "https://dc.lft.to/lastmile_qr_scan"}, "name": "01b1514446e395786b734e593d539210", "type": "electric_scooter", "lat": 38.921990666666666, "is_disabled": 0}, {"fusion_lat": 0.0, "lon": -77.01758483333333, "is_reserved": 0, "bike_id": "073171f86730a098421b78e6b80c99ac", "fusion_lon": 0.0, "rental_uris": {"android": "https://dc.lft.to/lastmile_qr_scan", "ios": "https://dc.lft.to/lastmile_qr_scan"}, "name": "073171f86730a098421b78e6b80c99ac", "type": "electric_scooter", "lat": 38.87687916666667, "is_disabled": 0}, {"fusion_lat": 0.0, "lon": -77.02975816666667, "is_reserved": 0, "bike_id": "8a019ffec2864443a16a46b0f8362353", "fusion_lon": 0.0, "rental_uris": {"android": "https://dc.lft.to/lastmile_qr_scan", "ios": "https://dc.lft.to/lastmile_qr_scan"}, "name": "8a019ffec2864443a16a46b0f8362353", "type": "electric_bike", "lat": 38.92444783333333, "is_disabled": 0}, {"fusion_lat": 0.0, "lon": -77.00603683333334, "is_reserved": 0, "bike_id": "3be0751ef6aaa780e9c55c83f332efaf", "fusion_lon": 0.0, "rental_uris": {"android": "https://dc.lft.to/lastmile_qr_scan", "ios": "https://dc.lft.to/lastmile_qr_scan"}, "name": "3be0751ef6aaa780e9c55c83f332efaf", "type": "electric_scooter", "lat": 38.9056815, "is_disabled": 0}, {"fusion_lat": 0.0, "lon": -77.11591566666667, "is_reserved": 0, "bike_id": "a611f3e8da6b7363eba55bc274f14d50", "fusion_lon": 0.0, "rental_uris": {"android": "https://dc.lft.to/lastmile_qr_scan", "ios": "https://dc.lft.to/lastmile_qr_scan"}, "name": "a611f3e8da6b7363eba55bc274f14d50", "type": "electric_bike", "lat": 39.0749345, "is_disabled": 0}, {"fusion_lat": 0.0, "lon": -77.01137916666667, "is_reserved": 0, "bike_id": "97a6bd16c8b830d2567eabc82a6aa891", "fusion_lon": 0.0, "rental_uris": {"android": "https://dc.lft.to/lastmile_qr_scan", "ios": "https://dc.lft.to/lastmile_qr_scan"}, "name": "97a6bd16c8b830d2567eabc82a6aa891", "type": "electric_scooter", "lat": 38.906444666666665, "is_disabled": 0}, {"fusion_lat": 0.0, "lon": -77.02381033333333, "is_reserved": 0, "bike_id": "5d5d00bc280e1fb320f381474c954d3b", "fusion_lon": 0.0, "rental_uris": {"android": "https://dc.lft.to/lastmile_qr_scan", "ios": "https://dc.lft.to/lastmile_qr_scan"}, "name": "5d5d00bc280e1fb320f381474c954d3b", "type": "electric_scooter", "lat": 38.919937833333336, "is_disabled": 0}, {"fusion_lat": 0.0, "lon": -77.04566516666667, "is_reserved": 0, "bike_id": "bbf84ee85941c1b5f3a5e5d5d729b7c1", "fusion_lon": 0.0, "rental_uris": {"android": "https://dc.lft.to/lastmile_qr_scan", "ios": "https://dc.lft.to/lastmile_qr_scan"}, "name": "bbf84ee85941c1b5f3a5e5d5d729b7c1", "type": "electric_scooter", "lat": 38.89739333333333, "is_disabled": 0}, {"fusion_lat": 0.0, "lon": -77.03549716666667, "is_reserved": 0, "bike_id": "448c0ba21e4ea9742aeccb77b93ef2e0", "fusion_lon": 0.0, "rental_uris": {"android": "https://dc.lft.to/lastmile_qr_scan", "ios": "https://dc.lft.to/lastmile_qr_scan"}, "name": "448c0ba21e4ea9742aeccb77b93ef2e0", "type": "electric_scooter", "lat": 38.92868883333333, "is_disabled": 0}, {"fusion_lat": 0.0, "lon": -77.01116316666666, "is_reserved": 0, "bike_id": "42da2dc16149a6b8cfc26b3fd0157ce6", "fusion_lon": 0.0, "rental_uris": {"android": "https://dc.lft.to/lastmile_qr_scan", "ios": "https://dc.lft.to/lastmile_qr_scan"}, "name": "42da2dc16149a6b8cfc26b3fd0157ce6", "type": "electric_scooter", "lat": 38.89491266666667, "is_disabled": 0}, {"fusion_lat": 0.0, "lon": -77.01789283333333, "is_reserved": 0, "bike_id": "db29710429b3905c47eeb4bf0187a06b", "fusion_lon": 0.0, "rental_uris": {"android": "https://dc.lft.to/lastmile_qr_scan", "ios": "https://dc.lft.to/lastmile_qr_scan"}, "name": "db29710429b3905c47eeb4bf0187a06b", "type": "electric_scooter", "lat": 38.90435166666666, "is_disabled": 0}, {"fusion_lat": 0.0, "lon": -77.03288066666667, "is_reserved": 0, "bike_id": "7e6e8df0732941edaf9c635ff83f5bcf", "fusion_lon": 0.0, "rental_uris": {"android": "https://dc.lft.to/lastmile_qr_scan", "ios": "https://dc.lft.to/lastmile_qr_scan"}, "name": "7e6e8df0732941edaf9c635ff83f5bcf", "type": "electric_scooter", "lat": 38.920625666666666, "is_disabled": 0}, {"fusion_lat": 0.0, "lon": -77.03189316666666, "is_reserved": 0, "bike_id": "06a8ad6f620d4c4557b255e51edcb583", "fusion_lon": 0.0, "rental_uris": {"android": "https://dc.lft.to/lastmile_qr_scan", "ios": "https://dc.lft.to/lastmile_qr_scan"}, "name": "06a8ad6f620d4c4557b255e51edcb583", "type": "electric_scooter", "lat": 38.91416133333333, "is_disabled": 0}, {"fusion_lat": 0.0, "lon": -77.047579, "is_reserved": 0, "bike_id": "70d45572e2b3774863bc1746caabad70", "fusion_lon": 0.0, "rental_uris": {"android": "https://dc.lft.to/lastmile_qr_scan", "ios": "https://dc.lft.to/lastmile_qr_scan"}, "name": "70d45572e2b3774863bc1746caabad70", "type": "electric_scooter", "lat": 38.917466166666664, "is_disabled": 0}, {"fusion_lat": 0.0, "lon": -77.04563166666667, "is_reserved": 0, "bike_id": "b0dec6bcd98f0dc0b62caec3feabc1ce", "fusion_lon": 0.0, "rental_uris": {"android": "https://dc.lft.to/lastmile_qr_scan", "ios": "https://dc.lft.to/lastmile_qr_scan"}, "name": "b0dec6bcd98f0dc0b62caec3feabc1ce", "type": "electric_scooter", "lat": 38.924160666666666, "is_disabled": 0}, {"fusion_lat": 0.0, "lon": -76.995457, "is_reserved": 0, "bike_id": "53740a82b17859618d74009450efc3ba", "fusion_lon": 0.0, "rental_uris": {"android": "https://dc.lft.to/lastmile_qr_scan", "ios": "https://dc.lft.to/lastmile_qr_scan"}, "name": "53740a82b17859618d74009450efc3ba", "type": "electric_scooter", "lat": 38.86258333333333, "is_disabled": 0}, {"fusion_lat": 0.0, "lon": -77.04103616666667, "is_reserved": 0, "bike_id": "0a0ebef04ef03ea6d70ed59f1a3f2f28", "fusion_lon": 0.0, "rental_uris": {"android": "https://dc.lft.to/lastmile_qr_scan", "ios": "https://dc.lft.to/lastmile_qr_scan"}, "name": "0a0ebef04ef03ea6d70ed59f1a3f2f28", "type": "electric_scooter", "lat": 38.91055816666667, "is_disabled": 0}, {"fusion_lat": 0.0, "lon": -76.99030083333334, "is_reserved": 0, "bike_id": "909bd046aaa7fdfb23af97d98d25552a", "fusion_lon": 0.0, "rental_uris": {"android": "https://dc.lft.to/lastmile_qr_scan", "ios": "https://dc.lft.to/lastmile_qr_scan"}, "name": "909bd046aaa7fdfb23af97d98d25552a", "type": "electric_scooter", "lat": 38.898520833333336, "is_disabled": 0}, {"fusion_lat": 0.0, "lon": -76.96924250000001, "is_reserved": 0, "bike_id": "278b5df513d522039b7bdb2a72b0f0ae", "fusion_lon": 0.0, "rental_uris": {"android": "https://dc.lft.to/lastmile_qr_scan", "ios": "https://dc.lft.to/lastmile_qr_scan"}, "name": "278b5df513d522039b7bdb2a72b0f0ae", "type": "electric_bike", "lat": 38.95117033333333, "is_disabled": 0}, {"fusion_lat": 0.0, "lon": -77.03335916666667, "is_reserved": 0, "bike_id": "1e7889ecbecb66a1a0193379bd460fce", "fusion_lon": 0.0, "rental_uris": {"android": "https://dc.lft.to/lastmile_qr_scan", "ios": "https://dc.lft.to/lastmile_qr_scan"}, "name": "1e7889ecbecb66a1a0193379bd460fce", "type": "electric_scooter", "lat": 38.92162116666667, "is_disabled": 0}, {"fusion_lat": 0.0, "lon": -77.02394816666667, "is_reserved": 0, "bike_id": "1731ea3857e1b5bc979ba1809af55d0c", "fusion_lon": 0.0, "rental_uris": {"android": "https://dc.lft.to/lastmile_qr_scan", "ios": "https://dc.lft.to/lastmile_qr_scan"}, "name": "1731ea3857e1b5bc979ba1809af55d0c", "type": "electric_scooter", "lat": 38.926025333333335, "is_disabled": 0}, {"fusion_lat": 0.0, "lon": -77.002382, "is_reserved": 0, "bike_id": "516807aa9da9b757376753c1077c87ae", "fusion_lon": 0.0, "rental_uris": {"android": "https://dc.lft.to/lastmile_qr_scan", "ios": "https://dc.lft.to/lastmile_qr_scan"}, "name": "516807aa9da9b757376753c1077c87ae", "type": "electric_scooter", "lat": 38.95720933333333, "is_disabled": 0}, {"fusion_lat": 0.0, "lon": -77.01692883333334, "is_reserved": 0, "bike_id": "00377f54227fed3871db2319969f91b9", "fusion_lon": 0.0, "rental_uris": {"android": "https://dc.lft.to/lastmile_qr_scan", "ios": "https://dc.lft.to/lastmile_qr_scan"}, "name": "00377f54227fed3871db2319969f91b9", "type": "electric_scooter", "lat": 38.97504883333333, "is_disabled": 0}, {"fusion_lat": 0.0, "lon": -77.02979483333333, "is_reserved": 0, "bike_id": "e4db51f3dc825f8643e33b2c4ad2327f", "fusion_lon": 0.0, "rental_uris": {"android": "https://dc.lft.to/lastmile_qr_scan", "ios": "https://dc.lft.to/lastmile_qr_scan"}, "name": "e4db51f3dc825f8643e33b2c4ad2327f", "type": "electric_scooter", "lat": 38.92192883333333, "is_disabled": 0}, {"fusion_lat": 0.0, "lon": -76.98822366666667, "is_reserved": 0, "bike_id": "7d2a307a6f272b2fbc546ff01e24390d", "fusion_lon": 0.0, "rental_uris": {"android": "https://dc.lft.to/lastmile_qr_scan", "ios": "https://dc.lft.to/lastmile_qr_scan"}, "name": "7d2a307a6f272b2fbc546ff01e24390d", "type": "electric_scooter", "lat": 38.89076983333333, "is_disabled": 0}, {"fusion_lat": 0.0, "lon": -77.22798633333333, "is_reserved": 0, "bike_id": "1222c42cab5fa961245943afa2df45e4", "fusion_lon": 0.0, "rental_uris": {"android": "https://dc.lft.to/lastmile_qr_scan", "ios": "https://dc.lft.to/lastmile_qr_scan"}, "name": "1222c42cab5fa961245943afa2df45e4", "type": "electric_bike", "lat": 38.91016033333333, "is_disabled": 0}, {"fusion_lat": 0.0, "lon": -77.031851, "is_reserved": 0, "bike_id": "ce5af47764f48afc9b794c4c4873838c", "fusion_lon": 0.0, "rental_uris": {"android": "https://dc.lft.to/lastmile_qr_scan", "ios": "https://dc.lft.to/lastmile_qr_scan"}, "name": "ce5af47764f48afc9b794c4c4873838c", "type": "electric_scooter", "lat": 38.917893166666666, "is_disabled": 0}, {"fusion_lat": 0.0, "lon": -77.01205816666666, "is_reserved": 0, "bike_id": "5e6cbb6f7169e963e7a1272ab1aca4d1", "fusion_lon": 0.0, "rental_uris": {"android": "https://dc.lft.to/lastmile_qr_scan", "ios": "https://dc.lft.to/lastmile_qr_scan"}, "name": "5e6cbb6f7169e963e7a1272ab1aca4d1", "type": "electric_scooter", "lat": 38.87089, "is_disabled": 0}, {"fusion_lat": 0.0, "lon": -77.06288866666667, "is_reserved": 0, "bike_id": "c286455fdb740261a1a1742c77497299", "fusion_lon": 0.0, "rental_uris": {"android": "https://dc.lft.to/lastmile_qr_scan", "ios": "https://dc.lft.to/lastmile_qr_scan"}, "name": "c286455fdb740261a1a1742c77497299", "type": "electric_scooter", "lat": 38.90437266666667, "is_disabled": 0}, {"fusion_lat": 0.0, "lon": -77.03865433333333, "is_reserved": 0, "bike_id": "f3fb2cc8e04606fb95f55ceb7b7434f8", "fusion_lon": 0.0, "rental_uris": {"android": "https://dc.lft.to/lastmile_qr_scan", "ios": "https://dc.lft.to/lastmile_qr_scan"}, "name": "f3fb2cc8e04606fb95f55ceb7b7434f8", "type": "electric_scooter", "lat": 38.921499833333336, "is_disabled": 0}, {"fusion_lat": 0.0, "lon": -76.99146716666667, "is_reserved": 0, "bike_id": "3a241d08ffca36d705ac703cc8d4642b", "fusion_lon": 0.0, "rental_uris": {"android": "https://dc.lft.to/lastmile_qr_scan", "ios": "https://dc.lft.to/lastmile_qr_scan"}, "name": "3a241d08ffca36d705ac703cc8d4642b", "type": "electric_scooter", "lat": 38.8858905, "is_disabled": 0}, {"fusion_lat": 0.0, "lon": -77.03148333333333, "is_reserved": 0, "bike_id": "4e1efcefc99ac68c4cfe1add671c8ed9", "fusion_lon": 0.0, "rental_uris": {"android": "https://dc.lft.to/lastmile_qr_scan", "ios": "https://dc.lft.to/lastmile_qr_scan"}, "name": "4e1efcefc99ac68c4cfe1add671c8ed9", "type": "electric_scooter", "lat": 38.91921683333333, "is_disabled": 0}, {"fusion_lat": 0.0, "lon": -77.03719116666667, "is_reserved": 0, "bike_id": "5adb62e7ee606ae9d00258d6f85e8b17", "fusion_lon": 0.0, "rental_uris": {"android": "https://dc.lft.to/lastmile_qr_scan", "ios": "https://dc.lft.to/lastmile_qr_scan"}, "name": "5adb62e7ee606ae9d00258d6f85e8b17", "type": "electric_scooter", "lat": 38.91689133333333, "is_disabled": 0}, {"fusion_lat": 0.0, "lon": -77.04686666666667, "is_reserved": 0, "bike_id": "b6fde3e4ce444318b30e63b5df71922e", "fusion_lon": 0.0, "rental_uris": {"android": "https://dc.lft.to/lastmile_qr_scan", "ios": "https://dc.lft.to/lastmile_qr_scan"}, "name": "b6fde3e4ce444318b30e63b5df71922e", "type": "electric_bike", "lat": 39.023925166666665, "is_disabled": 0}, {"fusion_lat": 0.0, "lon": -77.035186, "is_reserved": 0, "bike_id": "ad17408b44cfd7363ed3c4ff5a202297", "fusion_lon": 0.0, "rental_uris": {"android": "https://dc.lft.to/lastmile_qr_scan", "ios": "https://dc.lft.to/lastmile_qr_scan"}, "name": "ad17408b44cfd7363ed3c4ff5a202297", "type": "electric_scooter", "lat": 38.922574166666664, "is_disabled": 0}, {"fusion_lat": 0.0, "lon": -77.05899733333334, "is_reserved": 0, "bike_id": "cc749e3fa7391f1ac3abb96ab170e820", "fusion_lon": 0.0, "rental_uris": {"android": "https://dc.lft.to/lastmile_qr_scan", "ios": "https://dc.lft.to/lastmile_qr_scan"}, "name": "cc749e3fa7391f1ac3abb96ab170e820", "type": "electric_scooter", "lat": 38.94298883333333, "is_disabled": 0}, {"fusion_lat": 0.0, "lon": -77.02232333333333, "is_reserved": 0, "bike_id": "a8216d1482b750c372a5bd7131c28d1d", "fusion_lon": 0.0, "rental_uris": {"android": "https://dc.lft.to/lastmile_qr_scan", "ios": "https://dc.lft.to/lastmile_qr_scan"}, "name": "a8216d1482b750c372a5bd7131c28d1d", "type": "electric_scooter", "lat": 38.91678566666667, "is_disabled": 0}, {"fusion_lat": 0.0, "lon": -77.01862033333333, "is_reserved": 0, "bike_id": "bdf9d5846b6f4659e0e972f906e6ab36", "fusion_lon": 0.0, "rental_uris": {"android": "https://dc.lft.to/lastmile_qr_scan", "ios": "https://dc.lft.to/lastmile_qr_scan"}, "name": "bdf9d5846b6f4659e0e972f906e6ab36", "type": "electric_scooter", "lat": 38.97370566666667, "is_disabled": 0}, {"fusion_lat": 0.0, "lon": -77.06465116666666, "is_reserved": 0, "bike_id": "10712733286055eee0970f5681d6668c", "fusion_lon": 0.0, "rental_uris": {"android": "https://dc.lft.to/lastmile_qr_scan", "ios": "https://dc.lft.to/lastmile_qr_scan"}, "name": "10712733286055eee0970f5681d6668c", "type": "electric_scooter", "lat": 38.92745883333333, "is_disabled": 0}, {"fusion_lat": 0.0, "lon": -77.039555, "is_reserved": 0, "bike_id": "e66ed1b5778014b8aed3ba73aaec9985", "fusion_lon": 0.0, "rental_uris": {"android": "https://dc.lft.to/lastmile_qr_scan", "ios": "https://dc.lft.to/lastmile_qr_scan"}, "name": "e66ed1b5778014b8aed3ba73aaec9985", "type": "electric_scooter", "lat": 38.89248966666667, "is_disabled": 0}, {"fusion_lat": 0.0, "lon": -76.973017, "is_reserved": 0, "bike_id": "63a3f51b252cae2c8da41426982ee60e", "fusion_lon": 0.0, "rental_uris": {"android": "https://dc.lft.to/lastmile_qr_scan", "ios": "https://dc.lft.to/lastmile_qr_scan"}, "name": "63a3f51b252cae2c8da41426982ee60e", "type": "electric_scooter", "lat": 38.865915333333334, "is_disabled": 0}, {"fusion_lat": 0.0, "lon": -77.0378145, "is_reserved": 0, "bike_id": "5decc063d4c9355ad91d72330752cf6f", "fusion_lon": 0.0, "rental_uris": {"android": "https://dc.lft.to/lastmile_qr_scan", "ios": "https://dc.lft.to/lastmile_qr_scan"}, "name": "5decc063d4c9355ad91d72330752cf6f", "type": "electric_scooter", "lat": 38.916965, "is_disabled": 0}, {"fusion_lat": 0.0, "lon": -76.9822645, "is_reserved": 0, "bike_id": "22b94dec549621bbd5f90689d9e2eaf7", "fusion_lon": 0.0, "rental_uris": {"android": "https://dc.lft.to/lastmile_qr_scan", "ios": "https://dc.lft.to/lastmile_qr_scan"}, "name": "22b94dec549621bbd5f90689d9e2eaf7", "type": "electric_scooter", "lat": 38.886442333333335, "is_disabled": 0}, {"fusion_lat": 0.0, "lon": -77.11152283333334, "is_reserved": 0, "bike_id": "4ab5a587d997183f2590b3e80daac2b2", "fusion_lon": 0.0, "rental_uris": {"android": "https://dc.lft.to/lastmile_qr_scan", "ios": "https://dc.lft.to/lastmile_qr_scan"}, "name": "4ab5a587d997183f2590b3e80daac2b2", "type": "electric_bike", "lat": 38.85514166666667, "is_disabled": 0}, {"fusion_lat": 0.0, "lon": -76.9836185, "is_reserved": 0, "bike_id": "2cf488177d0b49ebeade76b1604408c7", "fusion_lon": 0.0, "rental_uris": {"android": "https://dc.lft.to/lastmile_qr_scan", "ios": "https://dc.lft.to/lastmile_qr_scan"}, "name": "2cf488177d0b49ebeade76b1604408c7", "type": "electric_scooter", "lat": 38.914918, "is_disabled": 0}, {"fusion_lat": 0.0, "lon": -77.04362883333333, "is_reserved": 0, "bike_id": "33488a49ee0a8deb6d578b939149afd9", "fusion_lon": 0.0, "rental_uris": {"android": "https://dc.lft.to/lastmile_qr_scan", "ios": "https://dc.lft.to/lastmile_qr_scan"}, "name": "33488a49ee0a8deb6d578b939149afd9", "type": "electric_scooter", "lat": 38.920693, "is_disabled": 0}, {"fusion_lat": 0.0, "lon": -77.0158585, "is_reserved": 0, "bike_id": "c3cbcc86d09920a2c56c90696534867e", "fusion_lon": 0.0, "rental_uris": {"android": "https://dc.lft.to/lastmile_qr_scan", "ios": "https://dc.lft.to/lastmile_qr_scan"}, "name": "c3cbcc86d09920a2c56c90696534867e", "type": "electric_scooter", "lat": 38.886176666666664, "is_disabled": 0}, {"fusion_lat": 0.0, "lon": -77.0065365, "is_reserved": 0, "bike_id": "9b5a5a7ea543ddd010ba4240623e9a09", "fusion_lon": 0.0, "rental_uris": {"android": "https://dc.lft.to/lastmile_qr_scan", "ios": "https://dc.lft.to/lastmile_qr_scan"}, "name": "9b5a5a7ea543ddd010ba4240623e9a09", "type": "electric_scooter", "lat": 38.94459166666667, "is_disabled": 0}, {"fusion_lat": 0.0, "lon": -77.18739433333333, "is_reserved": 0, "bike_id": "6a11c22a93d5f762301b3b166cc60f98", "fusion_lon": 0.0, "rental_uris": {"android": "https://dc.lft.to/lastmile_qr_scan", "ios": "https://dc.lft.to/lastmile_qr_scan"}, "name": "6a11c22a93d5f762301b3b166cc60f98", "type": "electric_bike", "lat": 38.8935235, "is_disabled": 0}, {"fusion_lat": 0.0, "lon": -77.0267805, "is_reserved": 0, "bike_id": "d8b5f323ac2cd12783b1adf6c2557104", "fusion_lon": 0.0, "rental_uris": {"android": "https://dc.lft.to/lastmile_qr_scan", "ios": "https://dc.lft.to/lastmile_qr_scan"}, "name": "d8b5f323ac2cd12783b1adf6c2557104", "type": "electric_scooter", "lat": 38.90110633333333, "is_disabled": 0}, {"fusion_lat": 0.0, "lon": -77.03488316666666, "is_reserved": 0, "bike_id": "c9e4a13c0aead4f7324d1b3ea1ca8b28", "fusion_lon": 0.0, "rental_uris": {"android": "https://dc.lft.to/lastmile_qr_scan", "ios": "https://dc.lft.to/lastmile_qr_scan"}, "name": "c9e4a13c0aead4f7324d1b3ea1ca8b28", "type": "electric_scooter", "lat": 38.92478633333333, "is_disabled": 0}, {"fusion_lat": 0.0, "lon": -77.04977083333333, "is_reserved": 0, "bike_id": "aca4102ba459ccded51a250285d396e1", "fusion_lon": 0.0, "rental_uris": {"android": "https://dc.lft.to/lastmile_qr_scan", "ios": "https://dc.lft.to/lastmile_qr_scan"}, "name": "aca4102ba459ccded51a250285d396e1", "type": "electric_bike", "lat": 39.06294466666667, "is_disabled": 0}, {"fusion_lat": 0.0, "lon": -77.0246055, "is_reserved": 0, "bike_id": "8750926678a5b7472b190ac6607cd661", "fusion_lon": 0.0, "rental_uris": {"android": "https://dc.lft.to/lastmile_qr_scan", "ios": "https://dc.lft.to/lastmile_qr_scan"}, "name": "8750926678a5b7472b190ac6607cd661", "type": "electric_scooter", "lat": 38.8973625, "is_disabled": 0}, {"fusion_lat": 0.0, "lon": -76.99147733333334, "is_reserved": 0, "bike_id": "421a770a9b0c7a829bc8f3c9061e2a25", "fusion_lon": 0.0, "rental_uris": {"android": "https://dc.lft.to/lastmile_qr_scan", "ios": "https://dc.lft.to/lastmile_qr_scan"}, "name": "421a770a9b0c7a829bc8f3c9061e2a25", "type": "electric_scooter", "lat": 38.89344116666667, "is_disabled": 0}, {"fusion_lat": 0.0, "lon": -77.03050566666667, "is_reserved": 0, "bike_id": "d88cd86f970bb047b6a3eaba6c764c6d", "fusion_lon": 0.0, "rental_uris": {"android": "https://dc.lft.to/lastmile_qr_scan", "ios": "https://dc.lft.to/lastmile_qr_scan"}, "name": "d88cd86f970bb047b6a3eaba6c764c6d", "type": "electric_scooter", "lat": 38.89837266666667, "is_disabled": 0}, {"fusion_lat": 0.0, "lon": -77.04323066666667, "is_reserved": 0, "bike_id": "f5aa98647f2e07c1ffb855b81577e093", "fusion_lon": 0.0, "rental_uris": {"android": "https://dc.lft.to/lastmile_qr_scan", "ios": "https://dc.lft.to/lastmile_qr_scan"}, "name": "f5aa98647f2e07c1ffb855b81577e093", "type": "electric_scooter", "lat": 38.892209666666666, "is_disabled": 0}, {"fusion_lat": 0.0, "lon": -77.0329, "is_reserved": 0, "bike_id": "9a3be75d9b40175f4cf493cd78f20b88", "fusion_lon": 0.0, "rental_uris": {"android": "https://dc.lft.to/lastmile_qr_scan", "ios": "https://dc.lft.to/lastmile_qr_scan"}, "name": "9a3be75d9b40175f4cf493cd78f20b88", "type": "electric_scooter", "lat": 38.956282333333334, "is_disabled": 0}, {"fusion_lat": 0.0, "lon": -76.94614533333333, "is_reserved": 0, "bike_id": "8452dc5923b5e2942d8770902e6fd446", "fusion_lon": 0.0, "rental_uris": {"android": "https://dc.lft.to/lastmile_qr_scan", "ios": "https://dc.lft.to/lastmile_qr_scan"}, "name": "8452dc5923b5e2942d8770902e6fd446", "type": "electric_bike", "lat": 38.83233083333333, "is_disabled": 0}, {"fusion_lat": 0.0, "lon": -77.01307783333333, "is_reserved": 0, "bike_id": "26b82e4a9d4efe53eedcba7acbcc22ff", "fusion_lon": 0.0, "rental_uris": {"android": "https://dc.lft.to/lastmile_qr_scan", "ios": "https://dc.lft.to/lastmile_qr_scan"}, "name": "26b82e4a9d4efe53eedcba7acbcc22ff", "type": "electric_scooter", "lat": 38.910358333333335, "is_disabled": 0}, {"fusion_lat": 0.0, "lon": -76.94249633333334, "is_reserved": 0, "bike_id": "88c23c70d7e6439925a8415a06d3e2ca", "fusion_lon": 0.0, "rental_uris": {"android": "https://dc.lft.to/lastmile_qr_scan", "ios": "https://dc.lft.to/lastmile_qr_scan"}, "name": "88c23c70d7e6439925a8415a06d3e2ca", "type": "electric_scooter", "lat": 38.896715666666665, "is_disabled": 0}, {"fusion_lat": 0.0, "lon": -77.01769116666667, "is_reserved": 0, "bike_id": "7d9254a73cc6310712e52fa5fe29c0b7", "fusion_lon": 0.0, "rental_uris": {"android": "https://dc.lft.to/lastmile_qr_scan", "ios": "https://dc.lft.to/lastmile_qr_scan"}, "name": "7d9254a73cc6310712e52fa5fe29c0b7", "type": "electric_scooter", "lat": 38.90392283333333, "is_disabled": 0}, {"fusion_lat": 0.0, "lon": -77.001225, "is_reserved": 0, "bike_id": "0ebe3c498317412382f424b458bcb598", "fusion_lon": 0.0, "rental_uris": {"android": "https://dc.lft.to/lastmile_qr_scan", "ios": "https://dc.lft.to/lastmile_qr_scan"}, "name": "0ebe3c498317412382f424b458bcb598", "type": "electric_scooter", "lat": 38.90502466666667, "is_disabled": 0}, {"fusion_lat": 0.0, "lon": -77.0212665, "is_reserved": 0, "bike_id": "2d8d25f7ff75cb30b278a12f0e53e057", "fusion_lon": 0.0, "rental_uris": {"android": "https://dc.lft.to/lastmile_qr_scan", "ios": "https://dc.lft.to/lastmile_qr_scan"}, "name": "2d8d25f7ff75cb30b278a12f0e53e057", "type": "electric_scooter", "lat": 38.89492716666667, "is_disabled": 0}, {"fusion_lat": 0.0, "lon": -77.043261, "is_reserved": 0, "bike_id": "929f90c3bc400984a97ee4fac5ee6c99", "fusion_lon": 0.0, "rental_uris": {"android": "https://dc.lft.to/lastmile_qr_scan", "ios": "https://dc.lft.to/lastmile_qr_scan"}, "name": "929f90c3bc400984a97ee4fac5ee6c99", "type": "electric_scooter", "lat": 38.9232695, "is_disabled": 0}, {"fusion_lat": 0.0, "lon": -77.03259066666666, "is_reserved": 0, "bike_id": "2b41e325ea43560abe03a2c951a0e6ce", "fusion_lon": 0.0, "rental_uris": {"android": "https://dc.lft.to/lastmile_qr_scan", "ios": "https://dc.lft.to/lastmile_qr_scan"}, "name": "2b41e325ea43560abe03a2c951a0e6ce", "type": "electric_scooter", "lat": 38.92741766666666, "is_disabled": 0}, {"fusion_lat": 0.0, "lon": -77.07068433333333, "is_reserved": 0, "bike_id": "c8fb4b1c9d0fcccdbf0bb8cb307a4f75", "fusion_lon": 0.0, "rental_uris": {"android": "https://dc.lft.to/lastmile_qr_scan", "ios": "https://dc.lft.to/lastmile_qr_scan"}, "name": "c8fb4b1c9d0fcccdbf0bb8cb307a4f75", "type": "electric_scooter", "lat": 38.931702666666666, "is_disabled": 0}, {"fusion_lat": 0.0, "lon": -77.02713133333333, "is_reserved": 0, "bike_id": "4fd081844927d5c7088cbbcf091c6f2f", "fusion_lon": 0.0, "rental_uris": {"android": "https://dc.lft.to/lastmile_qr_scan", "ios": "https://dc.lft.to/lastmile_qr_scan"}, "name": "4fd081844927d5c7088cbbcf091c6f2f", "type": "electric_scooter", "lat": 38.90671066666667, "is_disabled": 0}, {"fusion_lat": 0.0, "lon": -76.9375125, "is_reserved": 0, "bike_id": "7bf9028dd0fa8a83e72fc2c71da248c1", "fusion_lon": 0.0, "rental_uris": {"android": "https://dc.lft.to/lastmile_qr_scan", "ios": "https://dc.lft.to/lastmile_qr_scan"}, "name": "7bf9028dd0fa8a83e72fc2c71da248c1", "type": "electric_scooter", "lat": 38.8903985, "is_disabled": 0}, {"fusion_lat": 0.0, "lon": -77.02568733333334, "is_reserved": 0, "bike_id": "7044c3d27d2a6fb307df3bcd807d7601", "fusion_lon": 0.0, "rental_uris": {"android": "https://dc.lft.to/lastmile_qr_scan", "ios": "https://dc.lft.to/lastmile_qr_scan"}, "name": "7044c3d27d2a6fb307df3bcd807d7601", "type": "electric_scooter", "lat": 38.880821, "is_disabled": 0}, {"fusion_lat": 0.0, "lon": -77.0273825, "is_reserved": 0, "bike_id": "c6c0f2fb811c52b33fcea0c84305b2b3", "fusion_lon": 0.0, "rental_uris": {"android": "https://dc.lft.to/lastmile_qr_scan", "ios": "https://dc.lft.to/lastmile_qr_scan"}, "name": "c6c0f2fb811c52b33fcea0c84305b2b3", "type": "electric_scooter", "lat": 38.928579166666665, "is_disabled": 0}, {"fusion_lat": 0.0, "lon": -77.0269905, "is_reserved": 0, "bike_id": "458e9cfc0a1e003eceba1f4668985369", "fusion_lon": 0.0, "rental_uris": {"android": "https://dc.lft.to/lastmile_qr_scan", "ios": "https://dc.lft.to/lastmile_qr_scan"}, "name": "458e9cfc0a1e003eceba1f4668985369", "type": "electric_scooter", "lat": 38.9236785, "is_disabled": 0}, {"fusion_lat": 0.0, "lon": -77.01618566666667, "is_reserved": 0, "bike_id": "22a2ac9f1c46cd30bea28919da621e40", "fusion_lon": 0.0, "rental_uris": {"android": "https://dc.lft.to/lastmile_qr_scan", "ios": "https://dc.lft.to/lastmile_qr_scan"}, "name": "22a2ac9f1c46cd30bea28919da621e40", "type": "electric_scooter", "lat": 38.903466, "is_disabled": 0}, {"fusion_lat": 0.0, "lon": -77.03897883333333, "is_reserved": 0, "bike_id": "dfbc385f08f09383d7b85b5baf9ecf63", "fusion_lon": 0.0, "rental_uris": {"android": "https://dc.lft.to/lastmile_qr_scan", "ios": "https://dc.lft.to/lastmile_qr_scan"}, "name": "dfbc385f08f09383d7b85b5baf9ecf63", "type": "electric_scooter", "lat": 38.914701, "is_disabled": 0}, {"fusion_lat": 0.0, "lon": -77.0279085, "is_reserved": 0, "bike_id": "27f325492d8bead752351683b52a8b1b", "fusion_lon": 0.0, "rental_uris": {"android": "https://dc.lft.to/lastmile_qr_scan", "ios": "https://dc.lft.to/lastmile_qr_scan"}, "name": "27f325492d8bead752351683b52a8b1b", "type": "electric_scooter", "lat": 38.930876, "is_disabled": 0}, {"fusion_lat": 0.0, "lon": -77.00967233333333, "is_reserved": 0, "bike_id": "324b025ae2bca42f40de655d89f3b6a7", "fusion_lon": 0.0, "rental_uris": {"android": "https://dc.lft.to/lastmile_qr_scan", "ios": "https://dc.lft.to/lastmile_qr_scan"}, "name": "324b025ae2bca42f40de655d89f3b6a7", "type": "electric_scooter", "lat": 38.914115, "is_disabled": 0}, {"fusion_lat": 0.0, "lon": -76.99142316666666, "is_reserved": 0, "bike_id": "f574432dabeb0996e56e787dd8f960e9", "fusion_lon": 0.0, "rental_uris": {"android": "https://dc.lft.to/lastmile_qr_scan", "ios": "https://dc.lft.to/lastmile_qr_scan"}, "name": "f574432dabeb0996e56e787dd8f960e9", "type": "electric_scooter", "lat": 38.8631905, "is_disabled": 0}, {"fusion_lat": 0.0, "lon": -77.01980316666666, "is_reserved": 0, "bike_id": "6dbbae793692fcc949b8c8773795695c", "fusion_lon": 0.0, "rental_uris": {"android": "https://dc.lft.to/lastmile_qr_scan", "ios": "https://dc.lft.to/lastmile_qr_scan"}, "name": "6dbbae793692fcc949b8c8773795695c", "type": "electric_scooter", "lat": 38.887201, "is_disabled": 0}, {"fusion_lat": 0.0, "lon": -77.03294883333334, "is_reserved": 0, "bike_id": "5faf13a40087d5c789ce6dfd239c516b", "fusion_lon": 0.0, "rental_uris": {"android": "https://dc.lft.to/lastmile_qr_scan", "ios": "https://dc.lft.to/lastmile_qr_scan"}, "name": "5faf13a40087d5c789ce6dfd239c516b", "type": "electric_scooter", "lat": 38.920526833333334, "is_disabled": 0}, {"fusion_lat": 0.0, "lon": -77.0428835, "is_reserved": 0, "bike_id": "d157fdc4c30e9466841e68fd5e827b60", "fusion_lon": 0.0, "rental_uris": {"android": "https://dc.lft.to/lastmile_qr_scan", "ios": "https://dc.lft.to/lastmile_qr_scan"}, "name": "d157fdc4c30e9466841e68fd5e827b60", "type": "electric_scooter", "lat": 38.91666816666667, "is_disabled": 0}, {"fusion_lat": 0.0, "lon": -77.02719333333333, "is_reserved": 0, "bike_id": "a38c9f7cf432140c54f23ab915ec710d", "fusion_lon": 0.0, "rental_uris": {"android": "https://dc.lft.to/lastmile_qr_scan", "ios": "https://dc.lft.to/lastmile_qr_scan"}, "name": "a38c9f7cf432140c54f23ab915ec710d", "type": "electric_scooter", "lat": 38.91101583333333, "is_disabled": 0}, {"fusion_lat": 0.0, "lon": -77.04453366666667, "is_reserved": 0, "bike_id": "1751e71f1990e480ec4b64d799574e15", "fusion_lon": 0.0, "rental_uris": {"android": "https://dc.lft.to/lastmile_qr_scan", "ios": "https://dc.lft.to/lastmile_qr_scan"}, "name": "1751e71f1990e480ec4b64d799574e15", "type": "electric_scooter", "lat": 38.92400966666666, "is_disabled": 0}, {"fusion_lat": 0.0, "lon": -77.03171283333333, "is_reserved": 0, "bike_id": "01dc387d70c626741d74ab71ab9e6023", "fusion_lon": 0.0, "rental_uris": {"android": "https://dc.lft.to/lastmile_qr_scan", "ios": "https://dc.lft.to/lastmile_qr_scan"}, "name": "01dc387d70c626741d74ab71ab9e6023", "type": "electric_scooter", "lat": 38.915659833333336, "is_disabled": 0}, {"fusion_lat": 0.0, "lon": -77.0265125, "is_reserved": 0, "bike_id": "727f593e6bc00de71cf5468688e01c95", "fusion_lon": 0.0, "rental_uris": {"android": "https://dc.lft.to/lastmile_qr_scan", "ios": "https://dc.lft.to/lastmile_qr_scan"}, "name": "727f593e6bc00de71cf5468688e01c95", "type": "electric_scooter", "lat": 38.89216533333333, "is_disabled": 0}, {"fusion_lat": 0.0, "lon": -77.03066383333334, "is_reserved": 0, "bike_id": "78e86f80ff23d68e9eecca034592fad5", "fusion_lon": 0.0, "rental_uris": {"android": "https://dc.lft.to/lastmile_qr_scan", "ios": "https://dc.lft.to/lastmile_qr_scan"}, "name": "78e86f80ff23d68e9eecca034592fad5", "type": "electric_scooter", "lat": 38.907513333333334, "is_disabled": 0}, {"fusion_lat": 0.0, "lon": -77.046225, "is_reserved": 0, "bike_id": "45a064691ee2558ebd1920afe6956b94", "fusion_lon": 0.0, "rental_uris": {"android": "https://dc.lft.to/lastmile_qr_scan", "ios": "https://dc.lft.to/lastmile_qr_scan"}, "name": "45a064691ee2558ebd1920afe6956b94", "type": "electric_scooter", "lat": 38.923225333333335, "is_disabled": 0}, {"fusion_lat": 0.0, "lon": -77.0462395, "is_reserved": 0, "bike_id": "2e2a09a600a02aac7a565436025e7e17", "fusion_lon": 0.0, "rental_uris": {"android": "https://dc.lft.to/lastmile_qr_scan", "ios": "https://dc.lft.to/lastmile_qr_scan"}, "name": "2e2a09a600a02aac7a565436025e7e17", "type": "electric_scooter", "lat": 38.9158975, "is_disabled": 0}, {"fusion_lat": 0.0, "lon": -77.02446916666666, "is_reserved": 0, "bike_id": "68d8e08fde7350eec639d12abb3e50ef", "fusion_lon": 0.0, "rental_uris": {"android": "https://dc.lft.to/lastmile_qr_scan", "ios": "https://dc.lft.to/lastmile_qr_scan"}, "name": "68d8e08fde7350eec639d12abb3e50ef", "type": "electric_scooter", "lat": 38.897307166666664, "is_disabled": 0}, {"fusion_lat": 0.0, "lon": -77.05926716666667, "is_reserved": 0, "bike_id": "7a8e6fb707bc5beb772c03bc27fc53da", "fusion_lon": 0.0, "rental_uris": {"android": "https://dc.lft.to/lastmile_qr_scan", "ios": "https://dc.lft.to/lastmile_qr_scan"}, "name": "7a8e6fb707bc5beb772c03bc27fc53da", "type": "electric_scooter", "lat": 38.9430395, "is_disabled": 0}, {"fusion_lat": 0.0, "lon": -77.03637216666667, "is_reserved": 0, "bike_id": "15a829cc0530e5f90f2d0270e8a0287c", "fusion_lon": 0.0, "rental_uris": {"android": "https://dc.lft.to/lastmile_qr_scan", "ios": "https://dc.lft.to/lastmile_qr_scan"}, "name": "15a829cc0530e5f90f2d0270e8a0287c", "type": "electric_scooter", "lat": 38.937146, "is_disabled": 0}, {"fusion_lat": 0.0, "lon": -77.0334305, "is_reserved": 0, "bike_id": "c69fb93cb86e772ddebc3945092cddeb", "fusion_lon": 0.0, "rental_uris": {"android": "https://dc.lft.to/lastmile_qr_scan", "ios": "https://dc.lft.to/lastmile_qr_scan"}, "name": "c69fb93cb86e772ddebc3945092cddeb", "type": "electric_scooter", "lat": 38.90020416666667, "is_disabled": 0}, {"fusion_lat": 0.0, "lon": -77.01526533333333, "is_reserved": 0, "bike_id": "476133b516184fee74201ee8516eb1ea", "fusion_lon": 0.0, "rental_uris": {"android": "https://dc.lft.to/lastmile_qr_scan", "ios": "https://dc.lft.to/lastmile_qr_scan"}, "name": "476133b516184fee74201ee8516eb1ea", "type": "electric_scooter", "lat": 38.88657533333333, "is_disabled": 0}, {"fusion_lat": 0.0, "lon": -77.00969783333333, "is_reserved": 0, "bike_id": "7f33d53ddbae2288d4940941dacdcdeb", "fusion_lon": 0.0, "rental_uris": {"android": "https://dc.lft.to/lastmile_qr_scan", "ios": "https://dc.lft.to/lastmile_qr_scan"}, "name": "7f33d53ddbae2288d4940941dacdcdeb", "type": "electric_scooter", "lat": 38.907933166666666, "is_disabled": 0}, {"fusion_lat": 0.0, "lon": -77.0222855, "is_reserved": 0, "bike_id": "61cd933d8ce4372435eba4b9e2a4221b", "fusion_lon": 0.0, "rental_uris": {"android": "https://dc.lft.to/lastmile_qr_scan", "ios": "https://dc.lft.to/lastmile_qr_scan"}, "name": "61cd933d8ce4372435eba4b9e2a4221b", "type": "electric_scooter", "lat": 38.8921805, "is_disabled": 0}, {"fusion_lat": 0.0, "lon": -77.1829945, "is_reserved": 0, "bike_id": "749bbd507de3667143d21ae5e9912e6d", "fusion_lon": 0.0, "rental_uris": {"android": "https://dc.lft.to/lastmile_qr_scan", "ios": "https://dc.lft.to/lastmile_qr_scan"}, "name": "749bbd507de3667143d21ae5e9912e6d", "type": "electric_bike", "lat": 38.8908535, "is_disabled": 0}, {"fusion_lat": 0.0, "lon": -77.00045, "is_reserved": 0, "bike_id": "f39e818efb6af3ea5f74ea037b7203ab", "fusion_lon": 0.0, "rental_uris": {"android": "https://dc.lft.to/lastmile_qr_scan", "ios": "https://dc.lft.to/lastmile_qr_scan"}, "name": "f39e818efb6af3ea5f74ea037b7203ab", "type": "electric_scooter", "lat": 38.89630733333333, "is_disabled": 0}, {"fusion_lat": 0.0, "lon": -76.939818, "is_reserved": 0, "bike_id": "9fb68067274013467d53254417ec2247", "fusion_lon": 0.0, "rental_uris": {"android": "https://dc.lft.to/lastmile_qr_scan", "ios": "https://dc.lft.to/lastmile_qr_scan"}, "name": "9fb68067274013467d53254417ec2247", "type": "electric_scooter", "lat": 38.8997815, "is_disabled": 0}, {"fusion_lat": 0.0, "lon": -77.03842183333333, "is_reserved": 0, "bike_id": "eb12ce937487a416c9e6befb1a4babd2", "fusion_lon": 0.0, "rental_uris": {"android": "https://dc.lft.to/lastmile_qr_scan", "ios": "https://dc.lft.to/lastmile_qr_scan"}, "name": "eb12ce937487a416c9e6befb1a4babd2", "type": "electric_scooter", "lat": 38.916345166666666, "is_disabled": 0}, {"fusion_lat": 0.0, "lon": -77.0366555, "is_reserved": 0, "bike_id": "256e71ce3db27032da5a1392bfe9fb62", "fusion_lon": 0.0, "rental_uris": {"android": "https://dc.lft.to/lastmile_qr_scan", "ios": "https://dc.lft.to/lastmile_qr_scan"}, "name": "256e71ce3db27032da5a1392bfe9fb62", "type": "electric_scooter", "lat": 38.9232255, "is_disabled": 0}, {"fusion_lat": 0.0, "lon": -77.03671033333333, "is_reserved": 0, "bike_id": "bacbad51cc3ad4c4362030e420d43dba", "fusion_lon": 0.0, "rental_uris": {"android": "https://dc.lft.to/lastmile_qr_scan", "ios": "https://dc.lft.to/lastmile_qr_scan"}, "name": "bacbad51cc3ad4c4362030e420d43dba", "type": "electric_scooter", "lat": 38.92032583333334, "is_disabled": 0}, {"fusion_lat": 0.0, "lon": -77.00030216666667, "is_reserved": 0, "bike_id": "16af7ca0bf068009dd0d19eb905081bd", "fusion_lon": 0.0, "rental_uris": {"android": "https://dc.lft.to/lastmile_qr_scan", "ios": "https://dc.lft.to/lastmile_qr_scan"}, "name": "16af7ca0bf068009dd0d19eb905081bd", "type": "electric_scooter", "lat": 38.897368666666665, "is_disabled": 0}, {"fusion_lat": 0.0, "lon": -77.02369733333333, "is_reserved": 0, "bike_id": "77237500239f4c6f73d2447ec63793d3", "fusion_lon": 0.0, "rental_uris": {"android": "https://dc.lft.to/lastmile_qr_scan", "ios": "https://dc.lft.to/lastmile_qr_scan"}, "name": "77237500239f4c6f73d2447ec63793d3", "type": "electric_scooter", "lat": 38.8977025, "is_disabled": 0}, {"fusion_lat": 0.0, "lon": -76.9865425, "is_reserved": 0, "bike_id": "ace7a93f304f7ac5c257fefbb9f46a4e", "fusion_lon": 0.0, "rental_uris": {"android": "https://dc.lft.to/lastmile_qr_scan", "ios": "https://dc.lft.to/lastmile_qr_scan"}, "name": "ace7a93f304f7ac5c257fefbb9f46a4e", "type": "electric_scooter", "lat": 38.867299833333334, "is_disabled": 0}, {"fusion_lat": 0.0, "lon": -76.94530783333333, "is_reserved": 0, "bike_id": "46cb10ad821b82a69b194b0752980a22", "fusion_lon": 0.0, "rental_uris": {"android": "https://dc.lft.to/lastmile_qr_scan", "ios": "https://dc.lft.to/lastmile_qr_scan"}, "name": "46cb10ad821b82a69b194b0752980a22", "type": "electric_bike", "lat": 38.8676185, "is_disabled": 0}, {"fusion_lat": 0.0, "lon": -76.95464033333333, "is_reserved": 0, "bike_id": "12c5b01e48c172c4fb04992382144e36", "fusion_lon": 0.0, "rental_uris": {"android": "https://dc.lft.to/lastmile_qr_scan", "ios": "https://dc.lft.to/lastmile_qr_scan"}, "name": "12c5b01e48c172c4fb04992382144e36", "type": "electric_scooter", "lat": 38.886382833333336, "is_disabled": 0}, {"fusion_lat": 0.0, "lon": -77.011261, "is_reserved": 0, "bike_id": "344caa358b2046e367212096adb5cb5e", "fusion_lon": 0.0, "rental_uris": {"android": "https://dc.lft.to/lastmile_qr_scan", "ios": "https://dc.lft.to/lastmile_qr_scan"}, "name": "344caa358b2046e367212096adb5cb5e", "type": "electric_scooter", "lat": 38.917021, "is_disabled": 0}, {"fusion_lat": 0.0, "lon": -76.9837335, "is_reserved": 0, "bike_id": "75199d5248a3214b4cf8924c4955339a", "fusion_lon": 0.0, "rental_uris": {"android": "https://dc.lft.to/lastmile_qr_scan", "ios": "https://dc.lft.to/lastmile_qr_scan"}, "name": "75199d5248a3214b4cf8924c4955339a", "type": "electric_scooter", "lat": 38.906507166666664, "is_disabled": 0}, {"fusion_lat": 0.0, "lon": -77.04367383333333, "is_reserved": 0, "bike_id": "7e2d5013e4ba30b03f9862cf548b6c9f", "fusion_lon": 0.0, "rental_uris": {"android": "https://dc.lft.to/lastmile_qr_scan", "ios": "https://dc.lft.to/lastmile_qr_scan"}, "name": "7e2d5013e4ba30b03f9862cf548b6c9f", "type": "electric_scooter", "lat": 38.892204, "is_disabled": 0}, {"fusion_lat": 0.0, "lon": -77.00350116666667, "is_reserved": 0, "bike_id": "c24937bdb25015f2daecb7dafdce18ac", "fusion_lon": 0.0, "rental_uris": {"android": "https://dc.lft.to/lastmile_qr_scan", "ios": "https://dc.lft.to/lastmile_qr_scan"}, "name": "c24937bdb25015f2daecb7dafdce18ac", "type": "electric_scooter", "lat": 38.887043, "is_disabled": 0}, {"fusion_lat": 0.0, "lon": -76.98955066666667, "is_reserved": 0, "bike_id": "ec1bb92ecec03c67ccf440e5616f1eb4", "fusion_lon": 0.0, "rental_uris": {"android": "https://dc.lft.to/lastmile_qr_scan", "ios": "https://dc.lft.to/lastmile_qr_scan"}, "name": "ec1bb92ecec03c67ccf440e5616f1eb4", "type": "electric_scooter", "lat": 38.856934833333334, "is_disabled": 0}, {"fusion_lat": 0.0, "lon": -76.987163, "is_reserved": 0, "bike_id": "52ad214f74318e25c4f942dab813731c", "fusion_lon": 0.0, "rental_uris": {"android": "https://dc.lft.to/lastmile_qr_scan", "ios": "https://dc.lft.to/lastmile_qr_scan"}, "name": "52ad214f74318e25c4f942dab813731c", "type": "electric_scooter", "lat": 38.8662875, "is_disabled": 0}, {"fusion_lat": 0.0, "lon": -76.951837, "is_reserved": 0, "bike_id": "7d06ef10bd25cd0f82f29d7ab86bcbff", "fusion_lon": 0.0, "rental_uris": {"android": "https://dc.lft.to/lastmile_qr_scan", "ios": "https://dc.lft.to/lastmile_qr_scan"}, "name": "7d06ef10bd25cd0f82f29d7ab86bcbff", "type": "electric_scooter", "lat": 38.907359, "is_disabled": 0}, {"fusion_lat": 0.0, "lon": -76.99801583333333, "is_reserved": 0, "bike_id": "2fa45d2323b45a917d00f579906e8593", "fusion_lon": 0.0, "rental_uris": {"android": "https://dc.lft.to/lastmile_qr_scan", "ios": "https://dc.lft.to/lastmile_qr_scan"}, "name": "2fa45d2323b45a917d00f579906e8593", "type": "electric_scooter", "lat": 38.908838, "is_disabled": 0}, {"fusion_lat": 0.0, "lon": -76.9961665, "is_reserved": 0, "bike_id": "80807e8cc9adfba13e1d905e234c0172", "fusion_lon": 0.0, "rental_uris": {"android": "https://dc.lft.to/lastmile_qr_scan", "ios": "https://dc.lft.to/lastmile_qr_scan"}, "name": "80807e8cc9adfba13e1d905e234c0172", "type": "electric_scooter", "lat": 38.88620683333333, "is_disabled": 0}, {"fusion_lat": 0.0, "lon": -77.02253233333333, "is_reserved": 0, "bike_id": "eb4c9dc0562f9d4951a60038f95df9aa", "fusion_lon": 0.0, "rental_uris": {"android": "https://dc.lft.to/lastmile_qr_scan", "ios": "https://dc.lft.to/lastmile_qr_scan"}, "name": "eb4c9dc0562f9d4951a60038f95df9aa", "type": "electric_scooter", "lat": 38.893926666666665, "is_disabled": 0}, {"fusion_lat": 0.0, "lon": -77.02948183333334, "is_reserved": 0, "bike_id": "2e884db68765a8e57b1324ea458ab984", "fusion_lon": 0.0, "rental_uris": {"android": "https://dc.lft.to/lastmile_qr_scan", "ios": "https://dc.lft.to/lastmile_qr_scan"}, "name": "2e884db68765a8e57b1324ea458ab984", "type": "electric_scooter", "lat": 38.905017, "is_disabled": 0}, {"fusion_lat": 0.0, "lon": -77.0435415, "is_reserved": 0, "bike_id": "6c9f1549d7d747eae9661763fbf6129d", "fusion_lon": 0.0, "rental_uris": {"android": "https://dc.lft.to/lastmile_qr_scan", "ios": "https://dc.lft.to/lastmile_qr_scan"}, "name": "6c9f1549d7d747eae9661763fbf6129d", "type": "electric_scooter", "lat": 38.92357533333333, "is_disabled": 0}, {"fusion_lat": 0.0, "lon": -76.998064, "is_reserved": 0, "bike_id": "0b6d26f43e598f8639fa1b4abce5780b", "fusion_lon": 0.0, "rental_uris": {"android": "https://dc.lft.to/lastmile_qr_scan", "ios": "https://dc.lft.to/lastmile_qr_scan"}, "name": "0b6d26f43e598f8639fa1b4abce5780b", "type": "electric_scooter", "lat": 38.900143, "is_disabled": 0}, {"fusion_lat": 0.0, "lon": -77.04247033333333, "is_reserved": 0, "bike_id": "02edf850060af7483689b53f9b9cba7f", "fusion_lon": 0.0, "rental_uris": {"android": "https://dc.lft.to/lastmile_qr_scan", "ios": "https://dc.lft.to/lastmile_qr_scan"}, "name": "02edf850060af7483689b53f9b9cba7f", "type": "electric_scooter", "lat": 38.92250966666667, "is_disabled": 0}, {"fusion_lat": 0.0, "lon": -77.01964966666667, "is_reserved": 0, "bike_id": "7a6356870d585d89f9e29cf28c5c6999", "fusion_lon": 0.0, "rental_uris": {"android": "https://dc.lft.to/lastmile_qr_scan", "ios": "https://dc.lft.to/lastmile_qr_scan"}, "name": "7a6356870d585d89f9e29cf28c5c6999", "type": "electric_scooter", "lat": 38.878467666666666, "is_disabled": 0}, {"fusion_lat": 0.0, "lon": -77.00453883333333, "is_reserved": 0, "bike_id": "d8e88c409244ef98769f5c9cb5856434", "fusion_lon": 0.0, "rental_uris": {"android": "https://dc.lft.to/lastmile_qr_scan", "ios": "https://dc.lft.to/lastmile_qr_scan"}, "name": "d8e88c409244ef98769f5c9cb5856434", "type": "electric_scooter", "lat": 38.91193533333333, "is_disabled": 0}, {"fusion_lat": 0.0, "lon": -76.99509283333333, "is_reserved": 0, "bike_id": "6aa1213ef639404438cb756f66d1a9d6", "fusion_lon": 0.0, "rental_uris": {"android": "https://dc.lft.to/lastmile_qr_scan", "ios": "https://dc.lft.to/lastmile_qr_scan"}, "name": "6aa1213ef639404438cb756f66d1a9d6", "type": "electric_scooter", "lat": 38.88011733333333, "is_disabled": 0}, {"fusion_lat": 0.0, "lon": -77.03837783333333, "is_reserved": 0, "bike_id": "468c9ee94e07842016a50f4f89ebde33", "fusion_lon": 0.0, "rental_uris": {"android": "https://dc.lft.to/lastmile_qr_scan", "ios": "https://dc.lft.to/lastmile_qr_scan"}, "name": "468c9ee94e07842016a50f4f89ebde33", "type": "electric_scooter", "lat": 38.904400833333334, "is_disabled": 0}, {"fusion_lat": 0.0, "lon": -77.038346, "is_reserved": 0, "bike_id": "259a8f42af2aba23db4b3d924f07b573", "fusion_lon": 0.0, "rental_uris": {"android": "https://dc.lft.to/lastmile_qr_scan", "ios": "https://dc.lft.to/lastmile_qr_scan"}, "name": "259a8f42af2aba23db4b3d924f07b573", "type": "electric_scooter", "lat": 38.9119315, "is_disabled": 0}, {"fusion_lat": 0.0, "lon": -77.02415466666666, "is_reserved": 0, "bike_id": "cbab9fd5c10c53b787aff96ff7aaf056", "fusion_lon": 0.0, "rental_uris": {"android": "https://dc.lft.to/lastmile_qr_scan", "ios": "https://dc.lft.to/lastmile_qr_scan"}, "name": "cbab9fd5c10c53b787aff96ff7aaf056", "type": "electric_scooter", "lat": 38.93365716666667, "is_disabled": 0}, {"fusion_lat": 0.0, "lon": -76.93015983333333, "is_reserved": 0, "bike_id": "e9a2c9cdf85a2a2b9d85c232a3241be9", "fusion_lon": 0.0, "rental_uris": {"android": "https://dc.lft.to/lastmile_qr_scan", "ios": "https://dc.lft.to/lastmile_qr_scan"}, "name": "e9a2c9cdf85a2a2b9d85c232a3241be9", "type": "electric_bike", "lat": 38.89652866666667, "is_disabled": 0}, {"fusion_lat": 0.0, "lon": -76.93634783333333, "is_reserved": 0, "bike_id": "07a85f228f9a7e4c4614cae7b4231d1a", "fusion_lon": 0.0, "rental_uris": {"android": "https://dc.lft.to/lastmile_qr_scan", "ios": "https://dc.lft.to/lastmile_qr_scan"}, "name": "07a85f228f9a7e4c4614cae7b4231d1a", "type": "electric_scooter", "lat": 38.90064983333333, "is_disabled": 0}, {"fusion_lat": 0.0, "lon": -77.04765833333333, "is_reserved": 0, "bike_id": "289ecb2f2ec4ebaa78c4fd7aebbe5da7", "fusion_lon": 0.0, "rental_uris": {"android": "https://dc.lft.to/lastmile_qr_scan", "ios": "https://dc.lft.to/lastmile_qr_scan"}, "name": "289ecb2f2ec4ebaa78c4fd7aebbe5da7", "type": "electric_scooter", "lat": 38.90065233333333, "is_disabled": 0}, {"fusion_lat": 0.0, "lon": -77.02652883333333, "is_reserved": 0, "bike_id": "6052fa3682007bafedb3a1164b8c00b1", "fusion_lon": 0.0, "rental_uris": {"android": "https://dc.lft.to/lastmile_qr_scan", "ios": "https://dc.lft.to/lastmile_qr_scan"}, "name": "6052fa3682007bafedb3a1164b8c00b1", "type": "electric_scooter", "lat": 38.975629833333336, "is_disabled": 0}, {"fusion_lat": 0.0, "lon": -76.9493425, "is_reserved": 0, "bike_id": "6574c1f2a4cc26e7a0a110cdac62f004", "fusion_lon": 0.0, "rental_uris": {"android": "https://dc.lft.to/lastmile_qr_scan", "ios": "https://dc.lft.to/lastmile_qr_scan"}, "name": "6574c1f2a4cc26e7a0a110cdac62f004", "type": "electric_scooter", "lat": 38.893504166666666, "is_disabled": 0}, {"fusion_lat": 0.0, "lon": -77.03090533333334, "is_reserved": 0, "bike_id": "c069018c1355b5f443863e02de352ffe", "fusion_lon": 0.0, "rental_uris": {"android": "https://dc.lft.to/lastmile_qr_scan", "ios": "https://dc.lft.to/lastmile_qr_scan"}, "name": "c069018c1355b5f443863e02de352ffe", "type": "electric_bike", "lat": 38.932488, "is_disabled": 0},