{"data": {"bikes": [{"lon": -76.9888375, "bike_id": "5e48998b998e06fbf409458d1236b909", "lat": 38.86659183333333, "fusion_lon": 0.0, "fusion_lat": 0.0, "type": "electric_scooter", "name": "5e48998b998e06fbf409458d1236b909", "is_disabled": 0, "rental_uris": {"ios": "https://dc.lft.to/lastmile_qr_scan", "android": "https://dc.lft.to/lastmile_qr_scan"}, "is_reserved": 0}, {"lon": -77.02075966666666, "bike_id": "afafbceb38b8da2d78de2bfeee543581", "lat": 38.936367, "fusion_lon": 0.0, "fusion_lat": 0.0, "type": "electric_scooter", "name": "afafbceb38b8da2d78de2bfeee543581", "is_disabled": 0, "rental_uris": {"ios": "https://dc.lft.to/lastmile_qr_scan", "android": "https://dc.lft.to/lastmile_qr_scan"}, "is_reserved": 0}, {"lon": -77.03822583333333, "bike_id": "7d0ac8e9a608c575e7049a7c7357c410", "lat": 38.916957833333335, "fusion_lon": 0.0, "fusion_lat": 0.0, "type": "electric_scooter", "name": "7d0ac8e9a608c575e7049a7c7357c410", "is_disabled": 0, "rental_uris": {"ios": "https://dc.lft.to/lastmile_qr_scan", "android": "https://dc.lft.to/lastmile_qr_scan"}, "is_reserved": 0}, {"lon": -77.02392033333334, "bike_id": "8cb3f54b3ac0d6711e8f6c25f7331835", "lat": 38.90953433333333, "fusion_lon": 0.0, "fusion_lat": 0.0, "type": "electric_scooter", "name": "8cb3f54b3ac0d6711e8f6c25f7331835", "is_disabled": 0, "rental_uris": {"ios": "https://dc.lft.to/lastmile_qr_scan", "android": "https://dc.lft.to/lastmile_qr_scan"}, "is_reserved": 0}, {"lon": -77.0199305, "bike_id": "66a080d854ec1523ca0cd598feaf17c0", "lat": 38.87593016666667, "fusion_lon": 0.0, "fusion_lat": 0.0, "type": "electric_scooter", "name": "66a080d854ec1523ca0cd598feaf17c0", "is_disabled": 0, "rental_uris": {"ios": "https://dc.lft.to/lastmile_qr_scan", "android": "https://dc.lft.to/lastmile_qr_scan"}, "is_reserved": 0}, {"lon": -77.03473666666666, "bike_id": "92bd8765a02093cf5ea867930ed45071", "lat": 38.88489166666667, "fusion_lon": 0.0, "fusion_lat": 0.0, "type": "electric_scooter", "name": "92bd8765a02093cf5ea867930ed45071", "is_disabled": 0, "rental_uris": {"ios": "https://dc.lft.to/lastmile_qr_scan", "android": "https://dc.lft.to/lastmile_qr_scan"}, "is_reserved": 0}, {"lon": -77.04184433333333, "bike_id": "ec7d2f704ff98102e80758a0c309f3a4", "lat": 38.9031815, "fusion_lon": 0.0, "fusion_lat": 0.0, "type": "electric_scooter", "name": "ec7d2f704ff98102e80758a0c309f3a4", "is_disabled": 0, "rental_uris": {"ios": "https://dc.lft.to/lastmile_qr_scan", "android": "https://dc.lft.to/lastmile_qr_scan"}, "is_reserved": 0}, {"lon": -77.033557, "bike_id": "732115d44d14f9a7aa2c509c802e3402", "lat": 38.90291666666667, "fusion_lon": 0.0, "fusion_lat": 0.0, "type": "electric_scooter", "name": "732115d44d14f9a7aa2c509c802e3402", "is_disabled": 0, "rental_uris": {"ios": "https://dc.lft.to/lastmile_qr_scan", "android": "https://dc.lft.to/lastmile_qr_scan"}, "is_reserved": 0}, {"lon": -76.98744383333333, "bike_id": "0e780b4296249e85ae9028f206917413", "lat": 38.886117166666665, "fusion_lon": 0.0, "fusion_lat": 0.0, "type": "electric_scooter", "name": "0e780b4296249e85ae9028f206917413", "is_disabled": 0, "rental_uris": {"ios": "https://dc.lft.to/lastmile_qr_scan", "android": "https://dc.lft.to/lastmile_qr_scan"}, "is_reserved": 0}, {"lon": -77.02171183333333, "bike_id": "12c490dc6aaca63b5de2daf6094e8706", "lat": 38.9429405, "fusion_lon": 0.0, "fusion_lat": 0.0, "type": "electric_scooter", "name": "12c490dc6aaca63b5de2daf6094e8706", "is_disabled": 0, "rental_uris": {"ios": "https://dc.lft.to/lastmile_qr_scan", "android": "https://dc.lft.to/lastmile_qr_scan"}, "is_reserved": 0}, {"lon": -77.02979733333333, "bike_id": "ce9f179585d9b6b6e1c233b64ac0e367", "lat": 38.93065516666667, "fusion_lon": 0.0, "fusion_lat": 0.0, "type": "electric_scooter", "name": "ce9f179585d9b6b6e1c233b64ac0e367", "is_disabled": 0, "rental_uris": {"ios": "https://dc.lft.to/lastmile_qr_scan", "android": "https://dc.lft.to/lastmile_qr_scan"}, "is_reserved": 0}, {"lon": -77.000393, "bike_id": "8a248431cde4d380d6db522d399ff84b", "lat": 38.96781283333333, "fusion_lon": 0.0, "fusion_lat": 0.0, "type": "electric_bike", "name": "8a248431cde4d380d6db522d399ff84b", "is_disabled": 0, "rental_uris": {"ios": "https://dc.lft.to/lastmile_qr_scan", "android": "https://dc.lft.to/lastmile_qr_scan"}, "is_reserved": 0}, {"lon": -76.97682983333333, "bike_id": "7d0085ca6be7cef8a353a2e29f64a89b", "lat": 38.89620266666667, "fusion_lon": 0.0, "fusion_lat": 0.0, "type": "electric_scooter", "name": "7d0085ca6be7cef8a353a2e29f64a89b", "is_disabled": 0, "rental_uris": {"ios": "https://dc.lft.to/lastmile_qr_scan", "android": "https://dc.lft.to/lastmile_qr_scan"}, "is_reserved": 0}, {"lon": -77.02654316666667, "bike_id": "59a53c93929d56bba424b5c75a59b5a8", "lat": 38.92981316666667, "fusion_lon": 0.0, "fusion_lat": 0.0, "type": "electric_scooter", "name": "59a53c93929d56bba424b5c75a59b5a8", "is_disabled": 0, "rental_uris": {"ios": "https://dc.lft.to/lastmile_qr_scan", "android": "https://dc.lft.to/lastmile_qr_scan"}, "is_reserved": 0}, {"lon": -77.0297495, "bike_id": "a665fd3c9bf5dbc8405e816af43bdd46", "lat": 38.9074395, "fusion_lon": 0.0, "fusion_lat": 0.0, "type": "electric_scooter", "name": "a665fd3c9bf5dbc8405e816af43bdd46", "is_disabled": 0, "rental_uris": {"ios": "https://dc.lft.to/lastmile_qr_scan", "android": "https://dc.lft.to/lastmile_qr_scan"}, "is_reserved": 0}, {"lon": -77.054115, "bike_id": "6039404b62d4da9bb2751d8a9d7eaed5", "lat": 38.901570166666666, "fusion_lon": 0.0, "fusion_lat": 0.0, "type": "electric_scooter", "name": "6039404b62d4da9bb2751d8a9d7eaed5", "is_disabled": 0, "rental_uris": {"ios": "https://dc.lft.to/lastmile_qr_scan", "android": "https://dc.lft.to/lastmile_qr_scan"}, "is_reserved": 0}, {"lon": -77.02611383333333, "bike_id": "5e33bb0295031a6683887c73f265e947", "lat": 38.9298785, "fusion_lon": 0.0, "fusion_lat": 0.0, "type": "electric_scooter", "name": "5e33bb0295031a6683887c73f265e947", "is_disabled": 0, "rental_uris": {"ios": "https://dc.lft.to/lastmile_qr_scan", "android": "https://dc.lft.to/lastmile_qr_scan"}, "is_reserved": 0}, {"lon": -77.13904166666667, "bike_id": "4f0e9e0e22bec7ba46802e79513e985a", "lat": 38.896744, "fusion_lon": 0.0, "fusion_lat": 0.0, "type": "electric_bike", "name": "4f0e9e0e22bec7ba46802e79513e985a", "is_disabled": 0, "rental_uris": {"ios": "https://dc.lft.to/lastmile_qr_scan", "android": "https://dc.lft.to/lastmile_qr_scan"}, "is_reserved": 0}, {"lon": -76.98020983333333, "bike_id": "716e2dd4d87e2db4ac8e639abf3dcb1f", "lat": 38.888661, "fusion_lon": 0.0, "fusion_lat": 0.0, "type": "electric_scooter", "name": "716e2dd4d87e2db4ac8e639abf3dcb1f", "is_disabled": 0, "rental_uris": {"ios": "https://dc.lft.to/lastmile_qr_scan", "android": "https://dc.lft.to/lastmile_qr_scan"}, "is_reserved": 0}, {"lon": -77.03127633333334, "bike_id": "f4b3c098a646e407b071ff1f43dd3aaf", "lat": 38.9044185, "fusion_lon": 0.0, "fusion_lat": 0.0, "type": "electric_scooter", "name": "f4b3c098a646e407b071ff1f43dd3aaf", "is_disabled": 0, "rental_uris": {"ios": "https://dc.lft.to/lastmile_qr_scan", "android": "https://dc.lft.to/lastmile_qr_scan"}, "is_reserved": 0}, {"lon": -77.05921533333333, "bike_id": "cd968893ad6663c053c436444db7df30", "lat": 38.9038545, "fusion_lon": 0.0, "fusion_lat": 0.0, "type": "electric_scooter", "name": "cd968893ad6663c053c436444db7df30", "is_disabled": 0, "rental_uris": {"ios": "https://dc.lft.to/lastmile_qr_scan", "android": "https://dc.lft.to/lastmile_qr_scan"}, "is_reserved": 0}, {"lon": -77.01844733333333, "bike_id": "0d2e69e5e4205dacf3047c11f8af3f34", "lat": 38.912658666666665, "fusion_lon": 0.0, "fusion_lat": 0.0, "type": "electric_scooter", "name": "0d2e69e5e4205dacf3047c11f8af3f34", "is_disabled": 0, "rental_uris": {"ios": "https://dc.lft.to/lastmile_qr_scan", "android": "https://dc.lft.to/lastmile_qr_scan"}, "is_reserved": 0}, {"lon": -77.044092, "bike_id": "6c6bac543ab34d8fdb968c0cc5e4c6dc", "lat": 38.92125866666667, "fusion_lon": 0.0, "fusion_lat": 0.0, "type": "electric_scooter", "name": "6c6bac543ab34d8fdb968c0cc5e4c6dc", "is_disabled": 0, "rental_uris": {"ios": "https://dc.lft.to/lastmile_qr_scan", "android": "https://dc.lft.to/lastmile_qr_scan"}, "is_reserved": 0}, {"lon": -77.01481383333333, "bike_id": "c8de356cf22b5f7d856094bfef295618", "lat": 38.95868516666667, "fusion_lon": 0.0, "fusion_lat": 0.0, "type": "electric_scooter", "name": "c8de356cf22b5f7d856094bfef295618", "is_disabled": 0, "rental_uris": {"ios": "https://dc.lft.to/lastmile_qr_scan", "android": "https://dc.lft.to/lastmile_qr_scan"}, "is_reserved": 0}, {"lon": -77.11576616666666, "bike_id": "9bccbf8dad51f3e3db6b88bd5a014027", "lat": 38.993449, "fusion_lon": 0.0, "fusion_lat": 0.0, "type": "electric_bike", "name": "9bccbf8dad51f3e3db6b88bd5a014027", "is_disabled": 0, "rental_uris": {"ios": "https://dc.lft.to/lastmile_qr_scan", "android": "https://dc.lft.to/lastmile_qr_scan"}, "is_reserved": 0}, {"lon": -77.03201483333333, "bike_id": "73ef11bef35f4fb0773a2be3caefe927", "lat": 38.91498083333333, "fusion_lon": 0.0, "fusion_lat": 0.0, "type": "electric_scooter", "name": "73ef11bef35f4fb0773a2be3caefe927", "is_disabled": 0, "rental_uris": {"ios": "https://dc.lft.to/lastmile_qr_scan", "android": "https://dc.lft.to/lastmile_qr_scan"}, "is_reserved": 0}, {"lon": -77.0226175, "bike_id": "f1a33b7a070da3dab1af5573eb1d9e03", "lat": 38.927419, "fusion_lon": 0.0, "fusion_lat": 0.0, "type": "electric_scooter", "name": "f1a33b7a070da3dab1af5573eb1d9e03", "is_disabled": 0, "rental_uris": {"ios": "https://dc.lft.to/lastmile_qr_scan", "android": "https://dc.lft.to/lastmile_qr_scan"}, "is_reserved": 0}, {"lon": -77.03664266666667, "bike_id": "e548ff1ad737c49bdb0569c4569ce608", "lat": 38.91295783333333, "fusion_lon": 0.0, "fusion_lat": 0.0, "type": "electric_scooter", "name": "e548ff1ad737c49bdb0569c4569ce608", "is_disabled": 0, "rental_uris": {"ios": "https://dc.lft.to/lastmile_qr_scan", "android": "https://dc.lft.to/lastmile_qr_scan"}, "is_reserved": 0}, {"lon": -77.04321566666667, "bike_id": "47de048c25ab214a85539473c6354978", "lat": 38.91886916666667, "fusion_lon": 0.0, "fusion_lat": 0.0, "type": "electric_scooter", "name": "47de048c25ab214a85539473c6354978", "is_disabled": 0, "rental_uris": {"ios": "https://dc.lft.to/lastmile_qr_scan", "android": "https://dc.lft.to/lastmile_qr_scan"}, "is_reserved": 0}, {"lon": -77.0008905, "bike_id": "fe6d553c2042cb6bfd687fb41c03c27a", "lat": 38.8949085, "fusion_lon": 0.0, "fusion_lat": 0.0, "type": "electric_scooter", "name": "fe6d553c2042cb6bfd687fb41c03c27a", "is_disabled": 0, "rental_uris": {"ios": "https://dc.lft.to/lastmile_qr_scan", "android": "https://dc.lft.to/lastmile_qr_scan"}, "is_reserved": 0}, {"lon": -77.02172566666667, "bike_id": "39959600b53c4e0ed987f53bb3eca9f5", "lat": 38.90029633333333, "fusion_lon": 0.0, "fusion_lat": 0.0, "type": "electric_scooter", "name": "39959600b53c4e0ed987f53bb3eca9f5", "is_disabled": 0, "rental_uris": {"ios": "https://dc.lft.to/lastmile_qr_scan", "android": "https://dc.lft.to/lastmile_qr_scan"}, "is_reserved": 0}, {"lon": -77.05245033333334, "bike_id": "a808a2de5efacddd64168e64ce8da706", "lat": 38.9000855, "fusion_lon": 0.0, "fusion_lat": 0.0, "type": "electric_scooter", "name": "a808a2de5efacddd64168e64ce8da706", "is_disabled": 0, "rental_uris": {"ios": "https://dc.lft.to/lastmile_qr_scan", "android": "https://dc.lft.to/lastmile_qr_scan"}, "is_reserved": 0}, {"lon": -77.06528066666667, "bike_id": "071ef22d786d334563269783d578fb51", "lat": 38.94744433333334, "fusion_lon": 0.0, "fusion_lat": 0.0, "type": "electric_scooter", "name": "071ef22d786d334563269783d578fb51", "is_disabled": 0, "rental_uris": {"ios": "https://dc.lft.to/lastmile_qr_scan", "android": "https://dc.lft.to/lastmile_qr_scan"}, "is_reserved": 0}, {"lon": -77.03393583333333, "bike_id": "523381d846b85786a9b5e36f02a1d327", "lat": 38.96030316666667, "fusion_lon": 0.0, "fusion_lat": 0.0, "type": "electric_bike", "name": "523381d846b85786a9b5e36f02a1d327", "is_disabled": 0, "rental_uris": {"ios": "https://dc.lft.to/lastmile_qr_scan", "android": "https://dc.lft.to/lastmile_qr_scan"}, "is_reserved": 0}, {"lon": -77.00923866666666, "bike_id": "bd234f9c4021c7c08d413826acf2896d", "lat": 38.895559166666665, "fusion_lon": 0.0, "fusion_lat": 0.0, "type": "electric_scooter", "name": "bd234f9c4021c7c08d413826acf2896d", "is_disabled": 0, "rental_uris": {"ios": "https://dc.lft.to/lastmile_qr_scan", "android": "https://dc.lft.to/lastmile_qr_scan"}, "is_reserved": 0}, {"lon": -76.998818, "bike_id": "7a5334740d116f943e7537d7a067f8d4", "lat": 38.92055933333333, "fusion_lon": 0.0, "fusion_lat": 0.0, "type": "electric_scooter", "name": "7a5334740d116f943e7537d7a067f8d4", "is_disabled": 0, "rental_uris": {"ios": "https://dc.lft.to/lastmile_qr_scan", "android": "https://dc.lft.to/lastmile_qr_scan"}, "is_reserved": 0}, {"lon": -77.00365766666667, "bike_id": "8d297d735ef37227a906cf883b001677", "lat": 38.91555616666667, "fusion_lon": 0.0, "fusion_lat": 0.0, "type": "electric_scooter", "name": "8d297d735ef37227a906cf883b001677", "is_disabled": 0, "rental_uris": {"ios": "https://dc.lft.to/lastmile_qr_scan", "android": "https://dc.lft.to/lastmile_qr_scan"}, "is_reserved": 0}, {"lon": -76.98484716666667, "bike_id": "fecaf1f7626e4e17abe8ee1174e83b0f", "lat": 38.89898316666667, "fusion_lon": 0.0, "fusion_lat": 0.0, "type": "electric_scooter", "name": "fecaf1f7626e4e17abe8ee1174e83b0f", "is_disabled": 0, "rental_uris": {"ios": "https://dc.lft.to/lastmile_qr_scan", "android": "https://dc.lft.to/lastmile_qr_scan"}, "is_reserved": 0}, {"lon": -77.002883, "bike_id": "59297f4502a6d67e59df6438841683ce", "lat": 38.957003666666665, "fusion_lon": 0.0, "fusion_lat": 0.0, "type": "electric_bike", "name": "59297f4502a6d67e59df6438841683ce", "is_disabled": 0, "rental_uris": {"ios": "https://dc.lft.to/lastmile_qr_scan", "android": "https://dc.lft.to/lastmile_qr_scan"}, "is_reserved": 0}, {"lon": -76.99780116666666, "bike_id": "e87da5377dcff09a722b2bc018634aaa", "lat": 38.844310666666665, "fusion_lon": 0.0, "fusion_lat": 0.0, "type": "electric_scooter", "name": "e87da5377dcff09a722b2bc018634aaa", "is_disabled": 0, "rental_uris": {"ios": "https://dc.lft.to/lastmile_qr_scan", "android": "https://dc.lft.to/lastmile_qr_scan"}, "is_reserved": 0}, {"lon": -77.01542316666666, "bike_id": "39517712dd2ce85377e68ad7e21a9461", "lat": 38.886588333333336, "fusion_lon": 0.0, "fusion_lat": 0.0, "type": "electric_scooter", "name": "39517712dd2ce85377e68ad7e21a9461", "is_disabled": 0, "rental_uris": {"ios": "https://dc.lft.to/lastmile_qr_scan", "android": "https://dc.lft.to/lastmile_qr_scan"}, "is_reserved": 0}, {"lon": -77.01224633333334, "bike_id": "16ec22c36f7e97f6666491fd2e66669e", "lat": 38.91687483333333, "fusion_lon": 0.0, "fusion_lat": 0.0, "type": "electric_scooter", "name": "16ec22c36f7e97f6666491fd2e66669e", "is_disabled": 0, "rental_uris": {"ios": "https://dc.lft.to/lastmile_qr_scan", "android": "https://dc.lft.to/lastmile_qr_scan"}, "is_reserved": 0}, {"lon": -77.03992383333333, "bike_id": "68e39301b559ac94dcea42349c4addf7", "lat": 38.924619166666666, "fusion_lon": 0.0, "fusion_lat": 0.0, "type": "electric_scooter", "name": "68e39301b559ac94dcea42349c4addf7", "is_disabled": 0, "rental_uris": {"ios": "https://dc.lft.to/lastmile_qr_scan", "android": "https://dc.lft.to/lastmile_qr_scan"}, "is_reserved": 0}, {"lon": -77.01470166666667, "bike_id": "135083ef934999b8f29954a68c46c9bd", "lat": 38.8960135, "fusion_lon": 0.0, "fusion_lat": 0.0, "type": "electric_scooter", "name": "135083ef934999b8f29954a68c46c9bd", "is_disabled": 0, "rental_uris": {"ios": "https://dc.lft.to/lastmile_qr_scan", "android": "https://dc.lft.to/lastmile_qr_scan"}, "is_reserved": 0}, {"lon": -77.05927916666667, "bike_id": "3ce4f2ab6b1450485108afea964682a3", "lat": 38.86239233333333, "fusion_lon": 0.0, "fusion_lat": 0.0, "type": "electric_scooter", "name": "3ce4f2ab6b1450485108afea964682a3", "is_disabled": 0, "rental_uris": {"ios": "https://dc.lft.to/lastmile_qr_scan", "android": "https://dc.lft.to/lastmile_qr_scan"}, "is_reserved": 0}, {"lon": -77.0219045, "bike_id": "c4220f8611447de88fc4c8f1f08993bb", "lat": 38.894896833333334, "fusion_lon": 0.0, "fusion_lat": 0.0, "type": "electric_scooter", "name": "c4220f8611447de88fc4c8f1f08993bb", "is_disabled": 0, "rental_uris": {"ios": "https://dc.lft.to/lastmile_qr_scan", "android": "https://dc.lft.to/lastmile_qr_scan"}, "is_reserved": 0}, {"lon": -77.02724, "bike_id": "8ebdb2a220fc3c8e154a89cae6181eea", "lat": 38.93379066666667, "fusion_lon": 0.0, "fusion_lat": 0.0, "type": "electric_scooter", "name": "8ebdb2a220fc3c8e154a89cae6181eea", "is_disabled": 0, "rental_uris": {"ios": "https://dc.lft.to/lastmile_qr_scan", "android": "https://dc.lft.to/lastmile_qr_scan"}, "is_reserved": 0}, {"lon": -77.00842483333334, "bike_id": "38e5bcc88c38cfe8fd6873a6c9534a14", "lat": 38.91626316666667, "fusion_lon": 0.0, "fusion_lat": 0.0, "type": "electric_scooter", "name": "38e5bcc88c38cfe8fd6873a6c9534a14", "is_disabled": 0, "rental_uris": {"ios": "https://dc.lft.to/lastmile_qr_scan", "android": "https://dc.lft.to/lastmile_qr_scan"}, "is_reserved": 0}, {"lon": -77.03969833333333, "bike_id": "75de6eaa556ff06256b52e44f5d08dc1", "lat": 38.92321366666667, "fusion_lon": 0.0, "fusion_lat": 0.0, "type": "electric_scooter", "name": "75de6eaa556ff06256b52e44f5d08dc1", "is_disabled": 0, "rental_uris": {"ios": "https://dc.lft.to/lastmile_qr_scan", "android": "https://dc.lft.to/lastmile_qr_scan"}, "is_reserved": 0}, {"lon": -77.025415, "bike_id": "f0674772f75a59a9569364d54b75110c", "lat": 38.907171166666664, "fusion_lon": 0.0, "fusion_lat": 0.0, "type": "electric_scooter", "name": "f0674772f75a59a9569364d54b75110c", "is_disabled": 0, "rental_uris": {"ios": "https://dc.lft.to/lastmile_qr_scan", "android": "https://dc.lft.to/lastmile_qr_scan"}, "is_reserved": 0}, {"lon": -77.02418966666667, "bike_id": "64de619b08a3a13f34e535447a567709", "lat": 38.914078, "fusion_lon": 0.0, "fusion_lat": 0.0, "type": "electric_scooter", "name": "64de619b08a3a13f34e535447a567709", "is_disabled": 0, "rental_uris": {"ios": "https://dc.lft.to/lastmile_qr_scan", "android": "https://dc.lft.to/lastmile_qr_scan"}, "is_reserved": 0}, {"lon": -77.03657183333333, "bike_id": "8220261307e13a3d4968aa8ce4ae7a22", "lat": 38.920967166666664, "fusion_lon": 0.0, "fusion_lat": 0.0, "type": "electric_scooter", "name": "8220261307e13a3d4968aa8ce4ae7a22", "is_disabled": 0, "rental_uris": {"ios": "https://dc.lft.to/lastmile_qr_scan", "android": "https://dc.lft.to/lastmile_qr_scan"}, "is_reserved": 0}, {"lon": -77.02658, "bike_id": "4f93f6a4aff1a158d98a32925cc24a84", "lat": 38.97573283333333, "fusion_lon": 0.0, "fusion_lat": 0.0, "type": "electric_scooter", "name": "4f93f6a4aff1a158d98a32925cc24a84", "is_disabled": 0, "rental_uris": {"ios": "https://dc.lft.to/lastmile_qr_scan", "android": "https://dc.lft.to/lastmile_qr_scan"}, "is_reserved": 0}, {"lon": -77.0344485, "bike_id": "22c426b9e42746fa3fac2bb12913f5c1", "lat": 38.907325666666665, "fusion_lon": 0.0, "fusion_lat": 0.0, "type": "electric_scooter", "name": "22c426b9e42746fa3fac2bb12913f5c1", "is_disabled": 0, "rental_uris": {"ios": "https://dc.lft.to/lastmile_qr_scan", "android": "https://dc.lft.to/lastmile_qr_scan"}, "is_reserved": 0}, {"lon": -77.03375033333333, "bike_id": "27e0ae2053451a97592291bed356501f", "lat": 38.9215695, "fusion_lon": 0.0, "fusion_lat": 0.0, "type": "electric_scooter", "name": "27e0ae2053451a97592291bed356501f", "is_disabled": 0, "rental_uris": {"ios": "https://dc.lft.to/lastmile_qr_scan", "android": "https://dc.lft.to/lastmile_qr_scan"}, "is_reserved": 0}, {"lon": -76.98108016666667, "bike_id": "6544599103562ef680dadc4b10db8d9f", "lat": 38.877315, "fusion_lon": 0.0, "fusion_lat": 0.0, "type": "electric_bike", "name": "6544599103562ef680dadc4b10db8d9f", "is_disabled": 0, "rental_uris": {"ios": "https://dc.lft.to/lastmile_qr_scan", "android": "https://dc.lft.to/lastmile_qr_scan"}, "is_reserved": 0}, {"lon": -76.99783483333333, "bike_id": "0b2e5d599511fa11e385f753264844b7", "lat": 38.890869333333335, "fusion_lon": 0.0, "fusion_lat": 0.0, "type": "electric_scooter", "name": "0b2e5d599511fa11e385f753264844b7", "is_disabled": 0, "rental_uris": {"ios": "https://dc.lft.to/lastmile_qr_scan", "android": "https://dc.lft.to/lastmile_qr_scan"}, "is_reserved": 0}, {"lon": -77.0261785, "bike_id": "120ae0930a99e53bf976f3b7983b7af5", "lat": 38.929868666666664, "fusion_lon": 0.0, "fusion_lat": 0.0, "type": "electric_scooter", "name": "120ae0930a99e53bf976f3b7983b7af5", "is_disabled": 0, "rental_uris": {"ios": "https://dc.lft.to/lastmile_qr_scan", "android": "https://dc.lft.to/lastmile_qr_scan"}, "is_reserved": 0}, {"lon": -77.02159883333333, "bike_id": "09ee1848efc104508ad4760fa8459da4", "lat": 38.90970866666667, "fusion_lon": 0.0, "fusion_lat": 0.0, "type": "electric_scooter", "name": "09ee1848efc104508ad4760fa8459da4", "is_disabled": 0, "rental_uris": {"ios": "https://dc.lft.to/lastmile_qr_scan", "android": "https://dc.lft.to/lastmile_qr_scan"}, "is_reserved": 0}, {"lon": -76.98245633333333, "bike_id": "e40535d80de6776a4d682ede13710676", "lat": 38.864579, "fusion_lon": 0.0, "fusion_lat": 0.0, "type": "electric_scooter", "name": "e40535d80de6776a4d682ede13710676", "is_disabled": 0, "rental_uris": {"ios": "https://dc.lft.to/lastmile_qr_scan", "android": "https://dc.lft.to/lastmile_qr_scan"}, "is_reserved": 0}, {"lon": -77.058612, "bike_id": "b37a0f809e310e4aa72ac90d7c5f0e22", "lat": 38.936074, "fusion_lon": 0.0, "fusion_lat": 0.0, "type": "electric_scooter", "name": "b37a0f809e310e4aa72ac90d7c5f0e22", "is_disabled": 0, "rental_uris": {"ios": "https://dc.lft.to/lastmile_qr_scan", "android": "https://dc.lft.to/lastmile_qr_scan"}, "is_reserved": 0}, {"lon": -77.005939, "bike_id": "a36ad1d11ae4c7cbb6474e5be43c218b", "lat": 38.900429, "fusion_lon": 0.0, "fusion_lat": 0.0, "type": "electric_scooter", "name": "a36ad1d11ae4c7cbb6474e5be43c218b", "is_disabled": 0, "rental_uris": {"ios": "https://dc.lft.to/lastmile_qr_scan", "android": "https://dc.lft.to/lastmile_qr_scan"}, "is_reserved": 0}, {"lon": -77.04691616666666, "bike_id": "55e532efdc8dbd0e15adc66e9f20cee0", "lat": 38.9189355, "fusion_lon": 0.0, "fusion_lat": 0.0, "type": "electric_scooter", "name": "55e532efdc8dbd0e15adc66e9f20cee0", "is_disabled": 0, "rental_uris": {"ios": "https://dc.lft.to/lastmile_qr_scan", "android": "https://dc.lft.to/lastmile_qr_scan"}, "is_reserved": 0}, {"lon": -77.03065666666667, "bike_id": "08cd042e738a4b8d3680e3b237e1c12c", "lat": 38.924708333333335, "fusion_lon": 0.0, "fusion_lat": 0.0, "type": "electric_scooter", "name": "08cd042e738a4b8d3680e3b237e1c12c", "is_disabled": 0, "rental_uris": {"ios": "https://dc.lft.to/lastmile_qr_scan", "android": "https://dc.lft.to/lastmile_qr_scan"}, "is_reserved": 0}, {"lon": -77.00186816666667, "bike_id": "70dc6890ef6ca6e59cb891c2d4729323", "lat": 38.894752, "fusion_lon": 0.0, "fusion_lat": 0.0, "type": "electric_scooter", "name": "70dc6890ef6ca6e59cb891c2d4729323", "is_disabled": 0, "rental_uris": {"ios": "https://dc.lft.to/lastmile_qr_scan", "android": "https://dc.lft.to/lastmile_qr_scan"}, "is_reserved": 0}, {"lon": -76.94910866666666, "bike_id": "487ab1c9d30a87e0c86c23e058d50820", "lat": 38.89537716666667, "fusion_lon": 0.0, "fusion_lat": 0.0, "type": "electric_scooter", "name": "487ab1c9d30a87e0c86c23e058d50820", "is_disabled": 0, "rental_uris": {"ios": "https://dc.lft.to/lastmile_qr_scan", "android": "https://dc.lft.to/lastmile_qr_scan"}, "is_reserved": 0}, {"lon": -77.01502833333333, "bike_id": "3cc9303dd20545661171547a01f02f56", "lat": 38.945324166666666, "fusion_lon": 0.0, "fusion_lat": 0.0, "type": "electric_scooter", "name": "3cc9303dd20545661171547a01f02f56", "is_disabled": 0, "rental_uris": {"ios": "https://dc.lft.to/lastmile_qr_scan", "android": "https://dc.lft.to/lastmile_qr_scan"}, "is_reserved": 0}, {"lon": -77.0011105, "bike_id": "f592477f03ff1dbe7446164225fd7b94", "lat": 38.919673333333336, "fusion_lon": 0.0, "fusion_lat": 0.0, "type": "electric_scooter", "name": "f592477f03ff1dbe7446164225fd7b94", "is_disabled": 0, "rental_uris": {"ios": "https://dc.lft.to/lastmile_qr_scan", "android": "https://dc.lft.to/lastmile_qr_scan"}, "is_reserved": 0}, {"lon": -76.9855505, "bike_id": "2f82f5c863eb5391924b009a7d3b2005", "lat": 38.91031866666667, "fusion_lon": 0.0, "fusion_lat": 0.0, "type": "electric_scooter", "name": "2f82f5c863eb5391924b009a7d3b2005", "is_disabled": 0, "rental_uris": {"ios": "https://dc.lft.to/lastmile_qr_scan", "android": "https://dc.lft.to/lastmile_qr_scan"}, "is_reserved": 0}, {"lon": -77.05034983333333, "bike_id": "2ed92da46ccf47ccd8b8802da60aa497", "lat": 38.923832833333336, "fusion_lon": 0.0, "fusion_lat": 0.0, "type": "electric_scooter", "name": "2ed92da46ccf47ccd8b8802da60aa497", "is_disabled": 0, "rental_uris": {"ios": "https://dc.lft.to/lastmile_qr_scan", "android": "https://dc.lft.to/lastmile_qr_scan"}, "is_reserved": 0}, {"lon": -77.08045316666667, "bike_id": "1790f7a2367f36a9f1d4b19d85e59fd0", "lat": 38.92061183333333, "fusion_lon": 0.0, "fusion_lat": 0.0, "type": "electric_bike", "name": "1790f7a2367f36a9f1d4b19d85e59fd0", "is_disabled": 0, "rental_uris": {"ios": "https://dc.lft.to/lastmile_qr_scan", "android": "https://dc.lft.to/lastmile_qr_scan"}, "is_reserved": 0}, {"lon": -77.02778783333333, "bike_id": "a5092ff2cccc1ed9142c5575d3fdd95b", "lat": 38.927718166666665, "fusion_lon": 0.0, "fusion_lat": 0.0, "type": "electric_scooter", "name": "a5092ff2cccc1ed9142c5575d3fdd95b", "is_disabled": 0, "rental_uris": {"ios": "https://dc.lft.to/lastmile_qr_scan", "android": "https://dc.lft.to/lastmile_qr_scan"}, "is_reserved": 0}, {"lon": -77.05214466666666, "bike_id": "8b108223716fa44c4ea9253f9792adc3", "lat": 38.92485516666667, "fusion_lon": 0.0, "fusion_lat": 0.0, "type": "electric_scooter", "name": "8b108223716fa44c4ea9253f9792adc3", "is_disabled": 0, "rental_uris": {"ios": "https://dc.lft.to/lastmile_qr_scan", "android": "https://dc.lft.to/lastmile_qr_scan"}, "is_reserved": 0}, {"lon": -77.02509133333334, "bike_id": "c545d1af57150cd77f1b641ca06070a1", "lat": 38.93412766666667, "fusion_lon": 0.0, "fusion_lat": 0.0, "type": "electric_bike", "name": "c545d1af57150cd77f1b641ca06070a1", "is_disabled": 0, "rental_uris": {"ios": "https://dc.lft.to/lastmile_qr_scan", "android": "https://dc.lft.to/lastmile_qr_scan"}, "is_reserved": 0}, {"lon": -76.99582483333333, "bike_id": "a5a61d530a17be6eb3272cc41486f190", "lat": 38.852935333333335, "fusion_lon": 0.0, "fusion_lat": 0.0, "type": "electric_scooter", "name": "a5a61d530a17be6eb3272cc41486f190", "is_disabled": 0, "rental_uris": {"ios": "https://dc.lft.to/lastmile_qr_scan", "android": "https://dc.lft.to/lastmile_qr_scan"}, "is_reserved": 0}, {"lon": -76.93531816666666, "bike_id": "1041fddae1bec0e1c21e28f3deb2b84d", "lat": 38.95550016666667, "fusion_lon": 0.0, "fusion_lat": 0.0, "type": "electric_bike", "name": "1041fddae1bec0e1c21e28f3deb2b84d", "is_disabled": 0, "rental_uris": {"ios": "https://dc.lft.to/lastmile_qr_scan", "android": "https://dc.lft.to/lastmile_qr_scan"}, "is_reserved": 0}, {"lon": -76.92526133333334, "bike_id": "93ede3c38309d10940a21afedc81159a", "lat": 38.88342316666667, "fusion_lon": 0.0, "fusion_lat": 0.0, "type": "electric_bike", "name": "93ede3c38309d10940a21afedc81159a", "is_disabled": 0, "rental_uris": {"ios": "https://dc.lft.to/lastmile_qr_scan", "android": "https://dc.lft.to/lastmile_qr_scan"}, "is_reserved": 0}, {"lon": -76.98556483333333, "bike_id": "3f369e62637f3d6ddc61b557c27382eb", "lat": 38.9103325, "fusion_lon": 0.0, "fusion_lat": 0.0, "type": "electric_scooter", "name": "3f369e62637f3d6ddc61b557c27382eb", "is_disabled": 0, "rental_uris": {"ios": "https://dc.lft.to/lastmile_qr_scan", "android": "https://dc.lft.to/lastmile_qr_scan"}, "is_reserved": 0}, {"lon": -77.03804216666667, "bike_id": "6afed43a0b8f5c873814431684dea080", "lat": 38.92064383333334, "fusion_lon": 0.0, "fusion_lat": 0.0, "type": "electric_scooter", "name": "6afed43a0b8f5c873814431684dea080", "is_disabled": 0, "rental_uris": {"ios": "https://dc.lft.to/lastmile_qr_scan", "android": "https://dc.lft.to/lastmile_qr_scan"}, "is_reserved": 0}, {"lon": -77.04118566666666, "bike_id": "47a4e26a20c76c30306e807a0270590a", "lat": 38.94408116666666, "fusion_lon": 0.0, "fusion_lat": 0.0, "type": "electric_bike", "name": "47a4e26a20c76c30306e807a0270590a", "is_disabled": 0, "rental_uris": {"ios": "https://dc.lft.to/lastmile_qr_scan", "android": "https://dc.lft.to/lastmile_qr_scan"}, "is_reserved": 0}, {"lon": -77.044758, "bike_id": "084607b6c17f8eecb4fd15d1b8fe7615", "lat": 38.91474616666667, "fusion_lon": 0.0, "fusion_lat": 0.0, "type": "electric_scooter", "name": "084607b6c17f8eecb4fd15d1b8fe7615", "is_disabled": 0, "rental_uris": {"ios": "https://dc.lft.to/lastmile_qr_scan", "android": "https://dc.lft.to/lastmile_qr_scan"}, "is_reserved": 0}, {"lon": -77.01998483333334, "bike_id": "45eb8c80eab9b600b648102dcccb3317", "lat": 38.966287666666666, "fusion_lon": 0.0, "fusion_lat": 0.0, "type": "electric_scooter", "name": "45eb8c80eab9b600b648102dcccb3317", "is_disabled": 0, "rental_uris": {"ios": "https://dc.lft.to/lastmile_qr_scan", "android": "https://dc.lft.to/lastmile_qr_scan"}, "is_reserved": 0}, {"lon": -77.0272165, "bike_id": "a2856f9ceb0aab843c0213f1335c57a5", "lat": 38.91072533333333, "fusion_lon": 0.0, "fusion_lat": 0.0, "type": "electric_scooter", "name": "a2856f9ceb0aab843c0213f1335c57a5", "is_disabled": 0, "rental_uris": {"ios": "https://dc.lft.to/lastmile_qr_scan", "android": "https://dc.lft.to/lastmile_qr_scan"}, "is_reserved": 0}, {"lon": -76.97910633333333, "bike_id": "0bedec886db28a6c4c61f1c9e251101d", "lat": 38.863478, "fusion_lon": 0.0, "fusion_lat": 0.0, "type": "electric_scooter", "name": "0bedec886db28a6c4c61f1c9e251101d", "is_disabled": 0, "rental_uris": {"ios": "https://dc.lft.to/lastmile_qr_scan", "android": "https://dc.lft.to/lastmile_qr_scan"}, "is_reserved": 0}, {"lon": -76.98459883333334, "bike_id": "1bd6ef2e9a2d96aa99e4bc0d66e60fb3", "lat": 38.90397083333333, "fusion_lon": 0.0, "fusion_lat": 0.0, "type": "electric_scooter", "name": "1bd6ef2e9a2d96aa99e4bc0d66e60fb3", "is_disabled": 0, "rental_uris": {"ios": "https://dc.lft.to/lastmile_qr_scan", "android": "https://dc.lft.to/lastmile_qr_scan"}, "is_reserved": 0}, {"lon": -77.0362415, "bike_id": "ce18b46b2582e83e59c6f24a82712d99", "lat": 38.93677433333333, "fusion_lon": 0.0, "fusion_lat": 0.0, "type": "electric_scooter", "name": "ce18b46b2582e83e59c6f24a82712d99", "is_disabled": 0, "rental_uris": {"ios": "https://dc.lft.to/lastmile_qr_scan", "android": "https://dc.lft.to/lastmile_qr_scan"}, "is_reserved": 0}, {"lon": -77.019117, "bike_id": "db0848d42c95a91ea6044ec6ce305ade", "lat": 38.89862016666667, "fusion_lon": 0.0, "fusion_lat": 0.0, "type": "electric_scooter", "name": "db0848d42c95a91ea6044ec6ce305ade", "is_disabled": 0, "rental_uris": {"ios": "https://dc.lft.to/lastmile_qr_scan", "android": "https://dc.lft.to/lastmile_qr_scan"}, "is_reserved": 0}, {"lon": -77.028104, "bike_id": "d6d900550043dd53316e97506d1c9498", "lat": 38.881807, "fusion_lon": 0.0, "fusion_lat": 0.0, "type": "electric_scooter", "name": "d6d900550043dd53316e97506d1c9498", "is_disabled": 0, "rental_uris": {"ios": "https://dc.lft.to/lastmile_qr_scan", "android": "https://dc.lft.to/lastmile_qr_scan"}, "is_reserved": 0}, {"lon": -77.02196433333333, "bike_id": "209b0ec20fcb7e0170d4cc199aecb36a", "lat": 38.90548366666667, "fusion_lon": 0.0, "fusion_lat": 0.0, "type": "electric_scooter", "name": "209b0ec20fcb7e0170d4cc199aecb36a", "is_disabled": 0, "rental_uris": {"ios": "https://dc.lft.to/lastmile_qr_scan", "android": "https://dc.lft.to/lastmile_qr_scan"}, "is_reserved": 0}, {"lon": -76.99454933333334, "bike_id": "ed1eb2f2bf9060d4c40e0040e1151343", "lat": 38.862143333333336, "fusion_lon": 0.0, "fusion_lat": 0.0, "type": "electric_scooter", "name": "ed1eb2f2bf9060d4c40e0040e1151343", "is_disabled": 0, "rental_uris": {"ios": "https://dc.lft.to/lastmile_qr_scan", "android": "https://dc.lft.to/lastmile_qr_scan"}, "is_reserved": 0}, {"lon": -77.02764083333334, "bike_id": "37a033ee94d114c8aa0365991dbd048c", "lat": 38.9542675, "fusion_lon": 0.0, "fusion_lat": 0.0, "type": "electric_scooter", "name": "37a033ee94d114c8aa0365991dbd048c", "is_disabled": 0, "rental_uris": {"ios": "https://dc.lft.to/lastmile_qr_scan", "android": "https://dc.lft.to/lastmile_qr_scan"}, "is_reserved": 0}, {"lon": -77.048626, "bike_id": "6cf89e7c1394460f83185f92f02054a8", "lat": 38.892213, "fusion_lon": 0.0, "fusion_lat": 0.0, "type": "electric_scooter", "name": "6cf89e7c1394460f83185f92f02054a8", "is_disabled": 0, "rental_uris": {"ios": "https://dc.lft.to/lastmile_qr_scan", "android": "https://dc.lft.to/lastmile_qr_scan"}, "is_reserved": 0}, {"lon": -77.0547405, "bike_id": "ff046bd7f4d43536231cc34c539d1af6", "lat": 38.904347, "fusion_lon": 0.0, "fusion_lat": 0.0, "type": "electric_scooter", "name": "ff046bd7f4d43536231cc34c539d1af6", "is_disabled": 0, "rental_uris": {"ios": "https://dc.lft.to/lastmile_qr_scan", "android": "https://dc.lft.to/lastmile_qr_scan"}, "is_reserved": 0}, {"lon": -77.01654966666666, "bike_id": "21809431e1a5f6bce2aabebbfc4a2932", "lat": 38.87710033333333, "fusion_lon": 0.0, "fusion_lat": 0.0, "type": "electric_scooter", "name": "21809431e1a5f6bce2aabebbfc4a2932", "is_disabled": 0, "rental_uris": {"ios": "https://dc.lft.to/lastmile_qr_scan", "android": "https://dc.lft.to/lastmile_qr_scan"}, "is_reserved": 0}, {"lon": -77.01959716666667, "bike_id": "f9e3775e44608092e95373bc25b01f59", "lat": 38.90102866666667, "fusion_lon": 0.0, "fusion_lat": 0.0, "type": "electric_scooter", "name": "f9e3775e44608092e95373bc25b01f59", "is_disabled": 0, "rental_uris": {"ios": "https://dc.lft.to/lastmile_qr_scan", "android": "https://dc.lft.to/lastmile_qr_scan"}, "is_reserved": 0}, {"lon": -77.02112716666667, "bike_id": "686c52d50bbe837857d21fab3725b73e", "lat": 38.917392, "fusion_lon": 0.0, "fusion_lat": 0.0, "type": "electric_scooter", "name": "686c52d50bbe837857d21fab3725b73e", "is_disabled": 0, "rental_uris": {"ios": "https://dc.lft.to/lastmile_qr_scan", "android": "https://dc.lft.to/lastmile_qr_scan"}, "is_reserved": 0}, {"lon": -77.04567083333333, "bike_id": "8d8437bdc25e6424f88b661670f4f8ce", "lat": 38.9037925, "fusion_lon": 0.0, "fusion_lat": 0.0, "type": "electric_scooter", "name": "8d8437bdc25e6424f88b661670f4f8ce", "is_disabled": 0, "rental_uris": {"ios": "https://dc.lft.to/lastmile_qr_scan", "android": "https://dc.lft.to/lastmile_qr_scan"}, "is_reserved": 0}, {"lon": -76.99710966666666, "bike_id": "295fe54019235460b17cffa64886a836", "lat": 38.9110145, "fusion_lon": 0.0, "fusion_lat": 0.0, "type": "electric_scooter", "name": "295fe54019235460b17cffa64886a836", "is_disabled": 0, "rental_uris": {"ios": "https://dc.lft.to/lastmile_qr_scan", "android": "https://dc.lft.to/lastmile_qr_scan"}, "is_reserved": 0}, {"lon": -76.929935, "bike_id": "7c6baa3d55157dd2a3044785e274de05", "lat": 38.901887, "fusion_lon": 0.0, "fusion_lat": 0.0, "type": "electric_scooter", "name": "7c6baa3d55157dd2a3044785e274de05", "is_disabled": 0, "rental_uris": {"ios": "https://dc.lft.to/lastmile_qr_scan", "android": "https://dc.lft.to/lastmile_qr_scan"}, "is_reserved": 0}, {"lon": -77.06727333333333, "bike_id": "de819b880c4d30ee42ad56d5e4e8bcba", "lat": 38.90970933333333, "fusion_lon": 0.0, "fusion_lat": 0.0, "type": "electric_scooter", "name": "de819b880c4d30ee42ad56d5e4e8bcba", "is_disabled": 0, "rental_uris": {"ios": "https://dc.lft.to/lastmile_qr_scan", "android": "https://dc.lft.to/lastmile_qr_scan"}, "is_reserved": 0}, {"lon": -77.01117516666666, "bike_id": "d9ad5c830c45a17121c421a17ea96211", "lat": 38.8854995, "fusion_lon": 0.0, "fusion_lat": 0.0, "type": "electric_scooter", "name": "d9ad5c830c45a17121c421a17ea96211", "is_disabled": 0, "rental_uris": {"ios": "https://dc.lft.to/lastmile_qr_scan", "android": "https://dc.lft.to/lastmile_qr_scan"}, "is_reserved": 0}, {"lon": -77.02808533333334, "bike_id": "ec403d74c6d153dbd154a246466fcb59", "lat": 38.881788, "fusion_lon": 0.0, "fusion_lat": 0.0, "type": "electric_scooter", "name": "ec403d74c6d153dbd154a246466fcb59", "is_disabled": 0, "rental_uris": {"ios": "https://dc.lft.to/lastmile_qr_scan", "android": "https://dc.lft.to/lastmile_qr_scan"}, "is_reserved": 0}, {"lon": -77.096343, "bike_id": "86917877f2c7373073bf9dde0846691d", "lat": 38.867623333333334, "fusion_lon": 0.0, "fusion_lat": 0.0, "type": "electric_bike", "name": "86917877f2c7373073bf9dde0846691d", "is_disabled": 0, "rental_uris": {"ios": "https://dc.lft.to/lastmile_qr_scan", "android": "https://dc.lft.to/lastmile_qr_scan"}, "is_reserved": 0}, {"lon": -77.08571933333333, "bike_id": "715b621271145c39ee6825b956dba0a0", "lat": 38.933575166666664, "fusion_lon": 0.0, "fusion_lat": 0.0, "type": "electric_scooter", "name": "715b621271145c39ee6825b956dba0a0", "is_disabled": 0, "rental_uris": {"ios": "https://dc.lft.to/lastmile_qr_scan", "android": "https://dc.lft.to/lastmile_qr_scan"}, "is_reserved": 0}, {"lon": -77.10910383333334, "bike_id": "7733e63695f6d656594388ff1e3ba225", "lat": 39.05206366666667, "fusion_lon": 0.0, "fusion_lat": 0.0, "type": "electric_bike", "name": "7733e63695f6d656594388ff1e3ba225", "is_disabled": 0, "rental_uris": {"ios": "https://dc.lft.to/lastmile_qr_scan", "android": "https://dc.lft.to/lastmile_qr_scan"}, "is_reserved": 0}, {"lon": -77.0593675, "bike_id": "abbd71385ada180a129aa11f63864600", "lat": 38.912418833333334, "fusion_lon": 0.0, "fusion_lat": 0.0, "type": "electric_scooter", "name": "abbd71385ada180a129aa11f63864600", "is_disabled": 0, "rental_uris": {"ios": "https://dc.lft.to/lastmile_qr_scan", "android": "https://dc.lft.to/lastmile_qr_scan"}, "is_reserved": 0}, {"lon": -77.01408966666666, "bike_id": "4e5afe992aade705d080787bafffc029", "lat": 38.9283665, "fusion_lon": 0.0, "fusion_lat": 0.0, "type": "electric_scooter", "name": "4e5afe992aade705d080787bafffc029", "is_disabled": 0, "rental_uris": {"ios": "https://dc.lft.to/lastmile_qr_scan", "android": "https://dc.lft.to/lastmile_qr_scan"}, "is_reserved": 0}, {"lon": -77.040328, "bike_id": "acf0886bdbf923c66e8f7935750869fb", "lat": 38.91118266666667, "fusion_lon": 0.0, "fusion_lat": 0.0, "type": "electric_scooter", "name": "acf0886bdbf923c66e8f7935750869fb", "is_disabled": 0, "rental_uris": {"ios": "https://dc.lft.to/lastmile_qr_scan", "android": "https://dc.lft.to/lastmile_qr_scan"}, "is_reserved": 0}, {"lon": -77.0316075, "bike_id": "9d73e26596d7b8b3332af5b2c9058e31", "lat": 38.89224866666667, "fusion_lon": 0.0, "fusion_lat": 0.0, "type": "electric_scooter", "name": "9d73e26596d7b8b3332af5b2c9058e31", "is_disabled": 0, "rental_uris": {"ios": "https://dc.lft.to/lastmile_qr_scan", "android": "https://dc.lft.to/lastmile_qr_scan"}, "is_reserved": 0}, {"lon": -76.995041, "bike_id": "9f8303211f8ab811ead299705164cb98", "lat": 38.897653166666665, "fusion_lon": 0.0, "fusion_lat": 0.0, "type": "electric_scooter", "name": "9f8303211f8ab811ead299705164cb98", "is_disabled": 0, "rental_uris": {"ios": "https://dc.lft.to/lastmile_qr_scan", "android": "https://dc.lft.to/lastmile_qr_scan"}, "is_reserved": 0}, {"lon": -77.0177505, "bike_id": "8d00d0388155cf0796aa17f3d0bf00c1", "lat": 38.882023333333336, "fusion_lon": 0.0, "fusion_lat": 0.0, "type": "electric_scooter", "name": "8d00d0388155cf0796aa17f3d0bf00c1", "is_disabled": 0, "rental_uris": {"ios": "https://dc.lft.to/lastmile_qr_scan", "android": "https://dc.lft.to/lastmile_qr_scan"}, "is_reserved": 0}, {"lon": -76.99709033333333, "bike_id": "664b0786ba8a0c3a0a4d4a1e5345f3d9", "lat": 38.844348333333336, "fusion_lon": 0.0, "fusion_lat": 0.0, "type": "electric_scooter", "name": "664b0786ba8a0c3a0a4d4a1e5345f3d9", "is_disabled": 0, "rental_uris": {"ios": "https://dc.lft.to/lastmile_qr_scan", "android": "https://dc.lft.to/lastmile_qr_scan"}, "is_reserved": 0}, {"lon": -77.04168683333333, "bike_id": "3da0b21494b867307f1bddee07ff2f02", "lat": 38.901238666666664, "fusion_lon": 0.0, "fusion_lat": 0.0, "type": "electric_scooter", "name": "3da0b21494b867307f1bddee07ff2f02", "is_disabled": 0, "rental_uris": {"ios": "https://dc.lft.to/lastmile_qr_scan", "android": "https://dc.lft.to/lastmile_qr_scan"}, "is_reserved": 0}, {"lon": -77.0053705, "bike_id": "7d812bcb68e197e7c715088594f69681", "lat": 38.87546183333333, "fusion_lon": 0.0, "fusion_lat": 0.0, "type": "electric_scooter", "name": "7d812bcb68e197e7c715088594f69681", "is_disabled": 0, "rental_uris": {"ios": "https://dc.lft.to/lastmile_qr_scan", "android": "https://dc.lft.to/lastmile_qr_scan"}, "is_reserved": 0}, {"lon": -77.1180025, "bike_id": "13c10d844ee175b3b8f9d2d868d435db", "lat": 38.873747, "fusion_lon": 0.0, "fusion_lat": 0.0, "type": "electric_bike", "name": "13c10d844ee175b3b8f9d2d868d435db", "is_disabled": 0, "rental_uris": {"ios": "https://dc.lft.to/lastmile_qr_scan", "android": "https://dc.lft.to/lastmile_qr_scan"}, "is_reserved": 0}, {"lon": -77.01143666666667, "bike_id": "69115bce448daa1cb85c9915f0290dac", "lat": 38.8958625, "fusion_lon": 0.0, "fusion_lat": 0.0, "type": "electric_scooter", "name": "69115bce448daa1cb85c9915f0290dac", "is_disabled": 0, "rental_uris": {"ios": "https://dc.lft.to/lastmile_qr_scan", "android": "https://dc.lft.to/lastmile_qr_scan"}, "is_reserved": 0}, {"lon": -77.025136, "bike_id": "4663d038be0fc2a709cea2b717e10061", "lat": 38.942057166666665, "fusion_lon": 0.0, "fusion_lat": 0.0, "type": "electric_scooter", "name": "4663d038be0fc2a709cea2b717e10061", "is_disabled": 0, "rental_uris": {"ios": "https://dc.lft.to/lastmile_qr_scan", "android": "https://dc.lft.to/lastmile_qr_scan"}, "is_reserved": 0}, {"lon": -76.97604783333334, "bike_id": "bd5f9203a4171f183584707cb4756204", "lat": 38.8975185, "fusion_lon": 0.0, "fusion_lat": 0.0, "type": "electric_scooter", "name": "bd5f9203a4171f183584707cb4756204", "is_disabled": 0, "rental_uris": {"ios": "https://dc.lft.to/lastmile_qr_scan", "android": "https://dc.lft.to/lastmile_qr_scan"}, "is_reserved": 0}, {"lon": -77.02966883333333, "bike_id": "8629f683fdfb454a8367b28c50eee5bc", "lat": 38.92294966666667, "fusion_lon": 0.0, "fusion_lat": 0.0, "type": "electric_scooter", "name": "8629f683fdfb454a8367b28c50eee5bc", "is_disabled": 0, "rental_uris": {"ios": "https://dc.lft.to/lastmile_qr_scan", "android": "https://dc.lft.to/lastmile_qr_scan"}, "is_reserved": 0}, {"lon": -76.97888416666666, "bike_id": "f891641dfa447f062f805c60a25c20ee", "lat": 38.885375833333335, "fusion_lon": 0.0, "fusion_lat": 0.0, "type": "electric_scooter", "name": "f891641dfa447f062f805c60a25c20ee", "is_disabled": 0, "rental_uris": {"ios": "https://dc.lft.to/lastmile_qr_scan", "android": "https://dc.lft.to/lastmile_qr_scan"}, "is_reserved": 0}, {"lon": -76.983376, "bike_id": "3e41beae83ea93480e2c60f8eb601b8d", "lat": 38.89546333333333, "fusion_lon": 0.0, "fusion_lat": 0.0, "type": "electric_scooter", "name": "3e41beae83ea93480e2c60f8eb601b8d", "is_disabled": 0, "rental_uris": {"ios": "https://dc.lft.to/lastmile_qr_scan", "android": "https://dc.lft.to/lastmile_qr_scan"}, "is_reserved": 0}, {"lon": -77.0324235, "bike_id": "24ace4c63123252e7458d40984d3aec8", "lat": 38.92772866666667, "fusion_lon": 0.0, "fusion_lat": 0.0, "type": "electric_scooter", "name": "24ace4c63123252e7458d40984d3aec8", "is_disabled": 0, "rental_uris": {"ios": "https://dc.lft.to/lastmile_qr_scan", "android": "https://dc.lft.to/lastmile_qr_scan"}, "is_reserved": 0}, {"lon": -77.01136333333334, "bike_id": "6feaeacbf3ff3b618c7158e6fa4a0a34", "lat": 38.9072655, "fusion_lon": 0.0, "fusion_lat": 0.0, "type": "electric_scooter", "name": "6feaeacbf3ff3b618c7158e6fa4a0a34", "is_disabled": 0, "rental_uris": {"ios": "https://dc.lft.to/lastmile_qr_scan", "android": "https://dc.lft.to/lastmile_qr_scan"}, "is_reserved": 0}, {"lon": -77.0269415, "bike_id": "ec815e46912e82df59199353325b06e8", "lat": 38.90778983333333, "fusion_lon": 0.0, "fusion_lat": 0.0, "type": "electric_scooter", "name": "ec815e46912e82df59199353325b06e8", "is_disabled": 0, "rental_uris": {"ios": "https://dc.lft.to/lastmile_qr_scan", "android": "https://dc.lft.to/lastmile_qr_scan"}, "is_reserved": 0}, {"lon": -76.9918685, "bike_id": "8804fed850a6a60bc323b1ca80f5fba7", "lat": 38.88265716666667, "fusion_lon": 0.0, "fusion_lat": 0.0, "type": "electric_scooter", "name": "8804fed850a6a60bc323b1ca80f5fba7", "is_disabled": 0, "rental_uris": {"ios": "https://dc.lft.to/lastmile_qr_scan", "android": "https://dc.lft.to/lastmile_qr_scan"}, "is_reserved": 0}, {"lon": -77.03192766666666, "bike_id": "5ee8c4e1fe06eb2590bfdfef9da24897", "lat": 38.90086766666667, "fusion_lon": 0.0, "fusion_lat": 0.0, "type": "electric_scooter", "name": "5ee8c4e1fe06eb2590bfdfef9da24897", "is_disabled": 0, "rental_uris": {"ios": "https://dc.lft.to/lastmile_qr_scan", "android": "https://dc.lft.to/lastmile_qr_scan"}, "is_reserved": 0}, {"lon": -77.01509433333334, "bike_id": "88874b3d14ad59269ff28c4c0809b1c5", "lat": 38.918649333333335, "fusion_lon": 0.0, "fusion_lat": 0.0, "type": "electric_scooter", "name": "88874b3d14ad59269ff28c4c0809b1c5", "is_disabled": 0, "rental_uris": {"ios": "https://dc.lft.to/lastmile_qr_scan", "android": "https://dc.lft.to/lastmile_qr_scan"}, "is_reserved": 0}, {"lon": -77.03271233333334, "bike_id": "c9aa736165e604a0be11ba81e9aab217", "lat": 38.9291675, "fusion_lon": 0.0, "fusion_lat": 0.0, "type": "electric_scooter", "name": "c9aa736165e604a0be11ba81e9aab217", "is_disabled": 0, "rental_uris": {"ios": "https://dc.lft.to/lastmile_qr_scan", "android": "https://dc.lft.to/lastmile_qr_scan"}, "is_reserved": 0}, {"lon": -76.9826885, "bike_id": "e536820b6d17be80291b3fa0a4cb94cc", "lat": 38.8853065, "fusion_lon": 0.0, "fusion_lat": 0.0, "type": "electric_scooter", "name": "e536820b6d17be80291b3fa0a4cb94cc", "is_disabled": 0, "rental_uris": {"ios": "https://dc.lft.to/lastmile_qr_scan", "android": "https://dc.lft.to/lastmile_qr_scan"}, "is_reserved": 0}, {"lon": -77.00209666666667, "bike_id": "4dae06206e9059afce274695d93b8233", "lat": 38.900265833333336, "fusion_lon": 0.0, "fusion_lat": 0.0, "type": "electric_scooter", "name": "4dae06206e9059afce274695d93b8233", "is_disabled": 0, "rental_uris": {"ios": "https://dc.lft.to/lastmile_qr_scan", "android": "https://dc.lft.to/lastmile_qr_scan"}, "is_reserved": 0}, {"lon": -77.060008, "bike_id": "3e44aac04d73c29e34f49f5161feba22", "lat": 38.94084683333333, "fusion_lon": 0.0, "fusion_lat": 0.0, "type": "electric_scooter", "name": "3e44aac04d73c29e34f49f5161feba22", "is_disabled": 0, "rental_uris": {"ios": "https://dc.lft.to/lastmile_qr_scan", "android": "https://dc.lft.to/lastmile_qr_scan"}, "is_reserved": 0}, {"lon": -77.0445285, "bike_id": "fe474ab382810e95b61d788d332deca9", "lat": 38.90835466666667, "fusion_lon": 0.0, "fusion_lat": 0.0, "type": "electric_scooter", "name": "fe474ab382810e95b61d788d332deca9", "is_disabled": 0, "rental_uris": {"ios": "https://dc.lft.to/lastmile_qr_scan", "android": "https://dc.lft.to/lastmile_qr_scan"}, "is_reserved": 0}, {"lon": -77.02524166666667, "bike_id": "71a3315aaef0bc7f250a51b76724fdac", "lat": 38.932839666666666, "fusion_lon": 0.0, "fusion_lat": 0.0, "type": "electric_scooter", "name": "71a3315aaef0bc7f250a51b76724fdac", "is_disabled": 0, "rental_uris": {"ios": "https://dc.lft.to/lastmile_qr_scan", "android": "https://dc.lft.to/lastmile_qr_scan"}, "is_reserved": 0}, {"lon": -76.985596, "bike_id": "b6a46bcdb355ecdfe8325ae2da8a3ded", "lat": 38.90010383333333, "fusion_lon": 0.0, "fusion_lat": 0.0, "type": "electric_scooter", "name": "b6a46bcdb355ecdfe8325ae2da8a3ded", "is_disabled": 0, "rental_uris": {"ios": "https://dc.lft.to/lastmile_qr_scan", "android": "https://dc.lft.to/lastmile_qr_scan"}, "is_reserved": 0}, {"lon": -77.00548633333334, "bike_id": "52fb1d19c08f318c865e64ddf41b3c39", "lat": 38.905488166666665, "fusion_lon": 0.0, "fusion_lat": 0.0, "type": "electric_scooter", "name": "52fb1d19c08f318c865e64ddf41b3c39", "is_disabled": 0, "rental_uris": {"ios": "https://dc.lft.to/lastmile_qr_scan", "android": "https://dc.lft.to/lastmile_qr_scan"}, "is_reserved": 0}, {"lon": -77.0368055, "bike_id": "5783b808b32c252bc79626f9fe14d42a", "lat": 38.93930816666666, "fusion_lon": 0.0, "fusion_lat": 0.0, "type": "electric_scooter", "name": "5783b808b32c252bc79626f9fe14d42a", "is_disabled": 0, "rental_uris": {"ios": "https://dc.lft.to/lastmile_qr_scan", "android": "https://dc.lft.to/lastmile_qr_scan"}, "is_reserved": 0}, {"lon": -77.02204116666667, "bike_id": "30f36a7c458468c6a2801f69a1caae5e", "lat": 38.901953, "fusion_lon": 0.0, "fusion_lat": 0.0, "type": "electric_scooter", "name": "30f36a7c458468c6a2801f69a1caae5e", "is_disabled": 0, "rental_uris": {"ios": "https://dc.lft.to/lastmile_qr_scan", "android": "https://dc.lft.to/lastmile_qr_scan"}, "is_reserved": 0}, {"lon": -77.02053116666667, "bike_id": "c008d7dff7fd2f5ada88a1c84eb0a211", "lat": 38.932832166666664, "fusion_lon": 0.0, "fusion_lat": 0.0, "type": "electric_bike", "name": "c008d7dff7fd2f5ada88a1c84eb0a211", "is_disabled": 0, "rental_uris": {"ios": "https://dc.lft.to/lastmile_qr_scan", "android": "https://dc.lft.to/lastmile_qr_scan"}, "is_reserved": 0}, {"lon": -77.0254765, "bike_id": "a8983ef23262f5176e55136f5a69df88", "lat": 38.914094166666665, "fusion_lon": 0.0, "fusion_lat": 0.0, "type": "electric_scooter", "name": "a8983ef23262f5176e55136f5a69df88", "is_disabled": 0, "rental_uris": {"ios": "https://dc.lft.to/lastmile_qr_scan", "android": "https://dc.lft.to/lastmile_qr_scan"}, "is_reserved": 0}, {"lon": -76.97529766666666, "bike_id": "d5ee4a8dda76c93bd1d496be7ada939b", "lat": 38.90337816666667, "fusion_lon": 0.0, "fusion_lat": 0.0, "type": "electric_bike", "name": "d5ee4a8dda76c93bd1d496be7ada939b", "is_disabled": 0, "rental_uris": {"ios": "https://dc.lft.to/lastmile_qr_scan", "android": "https://dc.lft.to/lastmile_qr_scan"}, "is_reserved": 0}, {"lon": -76.99781866666666, "bike_id": "4128dcd62cb2f120fbb6f880b54d216b", "lat": 38.84434266666667, "fusion_lon": 0.0, "fusion_lat": 0.0, "type": "electric_scooter", "name": "4128dcd62cb2f120fbb6f880b54d216b", "is_disabled": 0, "rental_uris": {"ios": "https://dc.lft.to/lastmile_qr_scan", "android": "https://dc.lft.to/lastmile_qr_scan"}, "is_reserved": 0}, {"lon": -77.038228, "bike_id": "246475ddd51da17d560628518f61df0f", "lat": 38.907927, "fusion_lon": 0.0, "fusion_lat": 0.0, "type": "electric_scooter", "name": "246475ddd51da17d560628518f61df0f", "is_disabled": 0, "rental_uris": {"ios": "https://dc.lft.to/lastmile_qr_scan", "android": "https://dc.lft.to/lastmile_qr_scan"}, "is_reserved": 0}, {"lon": -77.02801933333333, "bike_id": "20a1156ac4540e08d4f1a54b89509e4d", "lat": 38.91662216666667, "fusion_lon": 0.0, "fusion_lat": 0.0, "type": "electric_scooter", "name": "20a1156ac4540e08d4f1a54b89509e4d", "is_disabled": 0, "rental_uris": {"ios": "https://dc.lft.to/lastmile_qr_scan", "android": "https://dc.lft.to/lastmile_qr_scan"}, "is_reserved": 0}, {"lon": -77.026127, "bike_id": "b8c31f51b081ed5e25e446cc9c3e4e4d", "lat": 38.900158166666664, "fusion_lon": 0.0, "fusion_lat": 0.0, "type": "electric_scooter", "name": "b8c31f51b081ed5e25e446cc9c3e4e4d", "is_disabled": 0, "rental_uris": {"ios": "https://dc.lft.to/lastmile_qr_scan", "android": "https://dc.lft.to/lastmile_qr_scan"}, "is_reserved": 0}, {"lon": -77.0317985, "bike_id": "43028c87c747b4d89654e710dec50205", "lat": 38.915123333333334, "fusion_lon": 0.0, "fusion_lat": 0.0, "type": "electric_scooter", "name": "43028c87c747b4d89654e710dec50205", "is_disabled": 0, "rental_uris": {"ios": "https://dc.lft.to/lastmile_qr_scan", "android": "https://dc.lft.to/lastmile_qr_scan"}, "is_reserved": 0}, {"lon": -76.98100383333333, "bike_id": "bdc3dc88ef910b136d5aad5fe96f92e7", "lat": 38.90393816666667, "fusion_lon": 0.0, "fusion_lat": 0.0, "type": "electric_scooter", "name": "bdc3dc88ef910b136d5aad5fe96f92e7", "is_disabled": 0, "rental_uris": {"ios": "https://dc.lft.to/lastmile_qr_scan", "android": "https://dc.lft.to/lastmile_qr_scan"}, "is_reserved": 0}, {"lon": -77.02671333333333, "bike_id": "a7e8395e1860215124362fb72f508a22", "lat": 38.91054783333333, "fusion_lon": 0.0, "fusion_lat": 0.0, "type": "electric_scooter", "name": "a7e8395e1860215124362fb72f508a22", "is_disabled": 0, "rental_uris": {"ios": "https://dc.lft.to/lastmile_qr_scan", "android": "https://dc.lft.to/lastmile_qr_scan"}, "is_reserved": 0}, {"lon": -76.98493916666666, "bike_id": "f719e3e815f1f18d22a0516e131ee3b6", "lat": 38.87954783333333, "fusion_lon": 0.0, "fusion_lat": 0.0, "type": "electric_bike", "name": "f719e3e815f1f18d22a0516e131ee3b6", "is_disabled": 0, "rental_uris": {"ios": "https://dc.lft.to/lastmile_qr_scan", "android": "https://dc.lft.to/lastmile_qr_scan"}, "is_reserved": 0}, {"lon": -77.02947516666667, "bike_id": "f2814f504c836d860d56c506d133ae4b", "lat": 38.90714933333334, "fusion_lon": 0.0, "fusion_lat": 0.0, "type": "electric_scooter", "name": "f2814f504c836d860d56c506d133ae4b", "is_disabled": 0, "rental_uris": {"ios": "https://dc.lft.to/lastmile_qr_scan", "android": "https://dc.lft.to/lastmile_qr_scan"}, "is_reserved": 0}, {"lon": -77.03657, "bike_id": "51dbc3b90ae82fedfa98bf5827725806", "lat": 38.92834366666666, "fusion_lon": 0.0, "fusion_lat": 0.0, "type": "electric_scooter", "name": "51dbc3b90ae82fedfa98bf5827725806", "is_disabled": 0, "rental_uris": {"ios": "https://dc.lft.to/lastmile_qr_scan", "android": "https://dc.lft.to/lastmile_qr_scan"}, "is_reserved": 0}, {"lon": -77.03636833333333, "bike_id": "788c1923fb04591cbf9b729850b3e4ca", "lat": 38.93176316666667, "fusion_lon": 0.0, "fusion_lat": 0.0, "type": "electric_scooter", "name": "788c1923fb04591cbf9b729850b3e4ca", "is_disabled": 0, "rental_uris": {"ios": "https://dc.lft.to/lastmile_qr_scan", "android": "https://dc.lft.to/lastmile_qr_scan"}, "is_reserved": 0}, {"lon": -77.04720116666667, "bike_id": "dc5b2d93aacc49d2e5decc7437aa851c", "lat": 38.91121283333333, "fusion_lon": 0.0, "fusion_lat": 0.0, "type": "electric_scooter", "name": "dc5b2d93aacc49d2e5decc7437aa851c", "is_disabled": 0, "rental_uris": {"ios": "https://dc.lft.to/lastmile_qr_scan", "android": "https://dc.lft.to/lastmile_qr_scan"}, "is_reserved": 0}, {"lon": -77.00449366666666, "bike_id": "cc63196a4b572f5f1bec8ab1033a238b", "lat": 38.91074416666667, "fusion_lon": 0.0, "fusion_lat": 0.0, "type": "electric_scooter", "name": "cc63196a4b572f5f1bec8ab1033a238b", "is_disabled": 0, "rental_uris": {"ios": "https://dc.lft.to/lastmile_qr_scan", "android": "https://dc.lft.to/lastmile_qr_scan"}, "is_reserved": 0}, {"lon": -77.00344766666667, "bike_id": "7c145f152c59a5c7696ffb155ac6d0e2", "lat": 38.90271533333333, "fusion_lon": 0.0, "fusion_lat": 0.0, "type": "electric_scooter", "name": "7c145f152c59a5c7696ffb155ac6d0e2", "is_disabled": 0, "rental_uris": {"ios": "https://dc.lft.to/lastmile_qr_scan", "android": "https://dc.lft.to/lastmile_qr_scan"}, "is_reserved": 0}, {"lon": -77.00090766666666, "bike_id": "04f32a4a441e6d78f23acc56dae7adc1", "lat": 38.90755933333333, "fusion_lon": 0.0, "fusion_lat": 0.0, "type": "electric_scooter", "name": "04f32a4a441e6d78f23acc56dae7adc1", "is_disabled": 0, "rental_uris": {"ios": "https://dc.lft.to/lastmile_qr_scan", "android": "https://dc.lft.to/lastmile_qr_scan"}, "is_reserved": 0}, {"lon": -77.02370566666667, "bike_id": "5e44709ffc62c790690e0e2bd75155e6", "lat": 38.920580666666666, "fusion_lon": 0.0, "fusion_lat": 0.0, "type": "electric_scooter", "name": "5e44709ffc62c790690e0e2bd75155e6", "is_disabled": 0, "rental_uris": {"ios": "https://dc.lft.to/lastmile_qr_scan", "android": "https://dc.lft.to/lastmile_qr_scan"}, "is_reserved": 0}, {"lon": -77.0180015, "bike_id": "20d468ca7a6214343f6cf0fee5a05c03", "lat": 38.921060833333335, "fusion_lon": 0.0, "fusion_lat": 0.0, "type": "electric_scooter", "name": "20d468ca7a6214343f6cf0fee5a05c03", "is_disabled": 0, "rental_uris": {"ios": "https://dc.lft.to/lastmile_qr_scan", "android": "https://dc.lft.to/lastmile_qr_scan"}, "is_reserved": 0}, {"lon": -76.94879033333333, "bike_id": "7c69fb796b662e5a5c5c8761952b49e8", "lat": 38.895501333333335, "fusion_lon": 0.0, "fusion_lat": 0.0, "type": "electric_scooter", "name": "7c69fb796b662e5a5c5c8761952b49e8", "is_disabled": 0, "rental_uris": {"ios": "https://dc.lft.to/lastmile_qr_scan", "android": "https://dc.lft.to/lastmile_qr_scan"}, "is_reserved": 0}, {"lon": -77.0508575, "bike_id": "5b8c48c803a2aff9ff574e41ebaa943a", "lat": 38.896652333333336, "fusion_lon": 0.0, "fusion_lat": 0.0, "type": "electric_scooter", "name": "5b8c48c803a2aff9ff574e41ebaa943a", "is_disabled": 0, "rental_uris": {"ios": "https://dc.lft.to/lastmile_qr_scan", "android": "https://dc.lft.to/lastmile_qr_scan"}, "is_reserved": 0}, {"lon": -77.0489665, "bike_id": "988b5f2129b2597febb64be0c4607164", "lat": 38.903464, "fusion_lon": 0.0, "fusion_lat": 0.0, "type": "electric_scooter", "name": "988b5f2129b2597febb64be0c4607164", "is_disabled": 0, "rental_uris": {"ios": "https://dc.lft.to/lastmile_qr_scan", "android": "https://dc.lft.to/lastmile_qr_scan"}, "is_reserved": 0}, {"lon": -77.03344633333333, "bike_id": "69b1fe61a7a7d9c5cce28ff56aec8b1e", "lat": 38.90287166666667, "fusion_lon": 0.0, "fusion_lat": 0.0, "type": "electric_scooter", "name": "69b1fe61a7a7d9c5cce28ff56aec8b1e", "is_disabled": 0, "rental_uris": {"ios": "https://dc.lft.to/lastmile_qr_scan", "android": "https://dc.lft.to/lastmile_qr_scan"}, "is_reserved": 0}, {"lon": -76.93734133333334, "bike_id": "57d8758bf13bd86c8ccddf10665b5641", "lat": 38.89011933333333, "fusion_lon": 0.0, "fusion_lat": 0.0, "type": "electric_scooter", "name": "57d8758bf13bd86c8ccddf10665b5641", "is_disabled": 0, "rental_uris": {"ios": "https://dc.lft.to/lastmile_qr_scan", "android": "https://dc.lft.to/lastmile_qr_scan"}, "is_reserved": 0}, {"lon": -77.01607133333333, "bike_id": "72c6383cf335a890e22c83c56230f813", "lat": 38.91950283333333, "fusion_lon": 0.0, "fusion_lat": 0.0, "type": "electric_scooter", "name": "72c6383cf335a890e22c83c56230f813", "is_disabled": 0, "rental_uris": {"ios": "https://dc.lft.to/lastmile_qr_scan", "android": "https://dc.lft.to/lastmile_qr_scan"}, "is_reserved": 0}, {"lon": -76.98838416666666, "bike_id": "b58ab6ff1fb68c0f604c5f58987f2624", "lat": 38.896679166666665, "fusion_lon": 0.0, "fusion_lat": 0.0, "type": "electric_scooter", "name": "b58ab6ff1fb68c0f604c5f58987f2624", "is_disabled": 0, "rental_uris": {"ios": "https://dc.lft.to/lastmile_qr_scan", "android": "https://dc.lft.to/lastmile_qr_scan"}, "is_reserved": 0}, {"lon": -77.04500266666666, "bike_id": "fdf2be166150fdb85202da18e059195a", "lat": 38.905078, "fusion_lon": 0.0, "fusion_lat": 0.0, "type": "electric_scooter", "name": "fdf2be166150fdb85202da18e059195a", "is_disabled": 0, "rental_uris": {"ios": "https://dc.lft.to/lastmile_qr_scan", "android": "https://dc.lft.to/lastmile_qr_scan"}, "is_reserved": 0}, {"lon": -77.02309216666667, "bike_id": "1e31670e2745ee8d9e06547bba5b9148", "lat": 38.9273285, "fusion_lon": 0.0, "fusion_lat": 0.0, "type": "electric_scooter", "name": "1e31670e2745ee8d9e06547bba5b9148", "is_disabled": 0, "rental_uris": {"ios": "https://dc.lft.to/lastmile_qr_scan", "android": "https://dc.lft.to/lastmile_qr_scan"}, "is_reserved": 0}, {"lon": -77.02838433333334, "bike_id": "12c71f3c0969f3b97f574f62ece5e192", "lat": 38.88772866666667, "fusion_lon": 0.0, "fusion_lat": 0.0, "type": "electric_scooter", "name": "12c71f3c0969f3b97f574f62ece5e192", "is_disabled": 0, "rental_uris": {"ios": "https://dc.lft.to/lastmile_qr_scan", "android": "https://dc.lft.to/lastmile_qr_scan"}, "is_reserved": 0}, {"lon": -77.05756866666667, "bike_id": "a94558dcb1e254ff6424937d675f5f43", "lat": 38.924999166666666, "fusion_lon": 0.0, "fusion_lat": 0.0, "type": "electric_bike", "name": "a94558dcb1e254ff6424937d675f5f43", "is_disabled": 0, "rental_uris": {"ios": "https://dc.lft.to/lastmile_qr_scan", "android": "https://dc.lft.to/lastmile_qr_scan"}, "is_reserved": 0}, {"lon": -77.10841583333334, "bike_id": "f1fe2872f5e1b2abab6cec8bf2647f8a", "lat": 38.81199433333333, "fusion_lon": 0.0, "fusion_lat": 0.0, "type": "electric_bike", "name": "f1fe2872f5e1b2abab6cec8bf2647f8a", "is_disabled": 0, "rental_uris": {"ios": "https://dc.lft.to/lastmile_qr_scan", "android": "https://dc.lft.to/lastmile_qr_scan"}, "is_reserved": 0}, {"lon": -76.946837, "bike_id": "6d57f857e5ad70069ebbb59d97d5af0e", "lat": 38.88631316666667, "fusion_lon": 0.0, "fusion_lat": 0.0, "type": "electric_scooter", "name": "6d57f857e5ad70069ebbb59d97d5af0e", "is_disabled": 0, "rental_uris": {"ios": "https://dc.lft.to/lastmile_qr_scan", "android": "https://dc.lft.to/lastmile_qr_scan"}, "is_reserved": 0}, {"lon": -76.96496166666667, "bike_id": "c2e5aea14b4d9dbac5b292a307d91094", "lat": 38.876477666666666, "fusion_lon": 0.0, "fusion_lat": 0.0, "type": "electric_scooter", "name": "c2e5aea14b4d9dbac5b292a307d91094", "is_disabled": 0, "rental_uris": {"ios": "https://dc.lft.to/lastmile_qr_scan", "android": "https://dc.lft.to/lastmile_qr_scan"}, "is_reserved": 0}, {"lon": -77.00008716666666, "bike_id": "3068b6cd1f13e5ef429ef09878297b6f", "lat": 38.89743516666667, "fusion_lon": 0.0, "fusion_lat": 0.0, "type": "electric_scooter", "name": "3068b6cd1f13e5ef429ef09878297b6f", "is_disabled": 0, "rental_uris": {"ios": "https://dc.lft.to/lastmile_qr_scan", "android": "https://dc.lft.to/lastmile_qr_scan"}, "is_reserved": 0}, {"lon": -77.04129033333334, "bike_id": "d8902a0244bbea8478d343fceee9ca38", "lat": 38.915524166666664, "fusion_lon": 0.0, "fusion_lat": 0.0, "type": "electric_scooter", "name": "d8902a0244bbea8478d343fceee9ca38", "is_disabled": 0, "rental_uris": {"ios": "https://dc.lft.to/lastmile_qr_scan", "android": "https://dc.lft.to/lastmile_qr_scan"}, "is_reserved": 0}, {"lon": -77.02804233333333, "bike_id": "7c920fd5353e4601bb39e3c6bfc8a0fb", "lat": 38.90734966666667, "fusion_lon": 0.0, "fusion_lat": 0.0, "type": "electric_scooter", "name": "7c920fd5353e4601bb39e3c6bfc8a0fb", "is_disabled": 0, "rental_uris": {"ios": "https://dc.lft.to/lastmile_qr_scan", "android": "https://dc.lft.to/lastmile_qr_scan"}, "is_reserved": 0}, {"lon": -77.06573, "bike_id": "b4c8874703f4a3c497630612d68090bc", "lat": 38.911336666666664, "fusion_lon": 0.0, "fusion_lat": 0.0, "type": "electric_bike", "name": "b4c8874703f4a3c497630612d68090bc", "is_disabled": 0, "rental_uris": {"ios": "https://dc.lft.to/lastmile_qr_scan", "android": "https://dc.lft.to/lastmile_qr_scan"}, "is_reserved": 0}, {"lon": -76.99759383333334, "bike_id": "dbad308e646c20fa0877dc03ade6399b", "lat": 38.8876975, "fusion_lon": 0.0, "fusion_lat": 0.0, "type": "electric_scooter", "name": "dbad308e646c20fa0877dc03ade6399b", "is_disabled": 0, "rental_uris": {"ios": "https://dc.lft.to/lastmile_qr_scan", "android": "https://dc.lft.to/lastmile_qr_scan"}, "is_reserved": 0}, {"lon": -76.94196, "bike_id": "710e682eeb65de85f79d883f0bc18ef0", "lat": 38.893755, "fusion_lon": 0.0, "fusion_lat": 0.0, "type": "electric_scooter", "name": "710e682eeb65de85f79d883f0bc18ef0", "is_disabled": 0, "rental_uris": {"ios": "https://dc.lft.to/lastmile_qr_scan", "android": "https://dc.lft.to/lastmile_qr_scan"}, "is_reserved": 0}, {"lon": -77.015284, "bike_id": "8671504949da34b4ed615ad101b31742", "lat": 38.884969, "fusion_lon": 0.0, "fusion_lat": 0.0, "type": "electric_scooter", "name": "8671504949da34b4ed615ad101b31742", "is_disabled": 0, "rental_uris": {"ios": "https://dc.lft.to/lastmile_qr_scan", "android": "https://dc.lft.to/lastmile_qr_scan"}, "is_reserved": 0}, {"lon": -77.03410766666667, "bike_id": "d204f9e6d43f327b85be778c3ba94910", "lat": 38.927507166666665, "fusion_lon": 0.0, "fusion_lat": 0.0, "type": "electric_scooter", "name": "d204f9e6d43f327b85be778c3ba94910", "is_disabled": 0, "rental_uris": {"ios": "https://dc.lft.to/lastmile_qr_scan", "android": "https://dc.lft.to/lastmile_qr_scan"}, "is_reserved": 0}, {"lon": -76.98823316666666, "bike_id": "55e2eb09d7d596034df6c87a81263ba3", "lat": 38.89073533333333, "fusion_lon": 0.0, "fusion_lat": 0.0, "type": "electric_scooter", "name": "55e2eb09d7d596034df6c87a81263ba3", "is_disabled": 0, "rental_uris": {"ios": "https://dc.lft.to/lastmile_qr_scan", "android": "https://dc.lft.to/lastmile_qr_scan"}, "is_reserved": 0}, {"lon": -76.88399566666666, "bike_id": "5e516ddaed17899f915f9a5b13091de1", "lat": 38.931687833333335, "fusion_lon": 0.0, "fusion_lat": 0.0, "type": "electric_bike", "name": "5e516ddaed17899f915f9a5b13091de1", "is_disabled": 0, "rental_uris": {"ios": "https://dc.lft.to/lastmile_qr_scan", "android": "https://dc.lft.to/lastmile_qr_scan"}, "is_reserved": 0}, {"lon": -77.04828233333333, "bike_id": "12b37a3c2ac910574bf6567ffd33d9bc", "lat": 38.903876833333335, "fusion_lon": 0.0, "fusion_lat": 0.0, "type": "electric_scooter", "name": "12b37a3c2ac910574bf6567ffd33d9bc", "is_disabled": 0, "rental_uris": {"ios": "https://dc.lft.to/lastmile_qr_scan", "android": "https://dc.lft.to/lastmile_qr_scan"}, "is_reserved": 0}, {"lon": -77.01784633333334, "bike_id": "27020058f42368da670ca05fef8023ff", "lat": 38.90126, "fusion_lon": 0.0, "fusion_lat": 0.0, "type": "electric_scooter", "name": "27020058f42368da670ca05fef8023ff", "is_disabled": 0, "rental_uris": {"ios": "https://dc.lft.to/lastmile_qr_scan", "android": "https://dc.lft.to/lastmile_qr_scan"}, "is_reserved": 0}, {"lon": -77.00956683333334, "bike_id": "a9c9d590598ebef3567dff1ff67b2519", "lat": 38.9170635, "fusion_lon": 0.0, "fusion_lat": 0.0, "type": "electric_scooter", "name": "a9c9d590598ebef3567dff1ff67b2519", "is_disabled": 0, "rental_uris": {"ios": "https://dc.lft.to/lastmile_qr_scan", "android": "https://dc.lft.to/lastmile_qr_scan"}, "is_reserved": 0}, {"lon": -76.95648733333333, "bike_id": "7f463306360ef1c062c316d2ab76a1f0", "lat": 38.89619483333333, "fusion_lon": 0.0, "fusion_lat": 0.0, "type": "electric_scooter", "name": "7f463306360ef1c062c316d2ab76a1f0", "is_disabled": 0, "rental_uris": {"ios": "https://dc.lft.to/lastmile_qr_scan", "android": "https://dc.lft.to/lastmile_qr_scan"}, "is_reserved": 0}, {"lon": -77.004747, "bike_id": "bf70bfe1aaf353d2aed49b2e081c8652", "lat": 38.895823, "fusion_lon": 0.0, "fusion_lat": 0.0, "type": "electric_scooter", "name": "bf70bfe1aaf353d2aed49b2e081c8652", "is_disabled": 0, "rental_uris": {"ios": "https://dc.lft.to/lastmile_qr_scan", "android": "https://dc.lft.to/lastmile_qr_scan"}, "is_reserved": 0}, {"lon": -76.96127816666667, "bike_id": "cc8d72f5b888a5c3259ded8480a8c894", "lat": 38.94213833333333, "fusion_lon": 0.0, "fusion_lat": 0.0, "type": "electric_bike", "name": "cc8d72f5b888a5c3259ded8480a8c894", "is_disabled": 0, "rental_uris": {"ios": "https://dc.lft.to/lastmile_qr_scan", "android": "https://dc.lft.to/lastmile_qr_scan"}, "is_reserved": 0}, {"lon": -77.046468, "bike_id": "b38f13250d365bd427f81d52f4da7a8f", "lat": 39.054992666666664, "fusion_lon": 0.0, "fusion_lat": 0.0, "type": "electric_bike", "name": "b38f13250d365bd427f81d52f4da7a8f", "is_disabled": 0, "rental_uris": {"ios": "https://dc.lft.to/lastmile_qr_scan", "android": "https://dc.lft.to/lastmile_qr_scan"}, "is_reserved": 0}, {"lon": -77.01808866666667, "bike_id": "b51bf8b41362ad48fc993490ac73a5c9", "lat": 38.96484816666667, "fusion_lon": 0.0, "fusion_lat": 0.0, "type": "electric_scooter", "name": "b51bf8b41362ad48fc993490ac73a5c9", "is_disabled": 0, "rental_uris": {"ios": "https://dc.lft.to/lastmile_qr_scan", "android": "https://dc.lft.to/lastmile_qr_scan"}, "is_reserved": 0}, {"lon": -77.02756183333334, "bike_id": "6cbeea33f1d866b2b2a885ab78ce79a8", "lat": 38.96567966666667, "fusion_lon": 0.0, "fusion_lat": 0.0, "type": "electric_bike", "name": "6cbeea33f1d866b2b2a885ab78ce79a8", "is_disabled": 0, "rental_uris": {"ios": "https://dc.lft.to/lastmile_qr_scan", "android": "https://dc.lft.to/lastmile_qr_scan"}, "is_reserved": 0}, {"lon": -77.05738383333333, "bike_id": "f6a50947217a64e4a1740573d2a59d2d", "lat": 38.933943666666664, "fusion_lon": 0.0, "fusion_lat": 0.0, "type": "electric_scooter", "name": "f6a50947217a64e4a1740573d2a59d2d", "is_disabled": 0, "rental_uris": {"ios": "https://dc.lft.to/lastmile_qr_scan", "android": "https://dc.lft.to/lastmile_qr_scan"}, "is_reserved": 0}, {"lon": -77.03884, "bike_id": "594ecfc8615ac4d650a9442e18674dd5", "lat": 38.94870616666667, "fusion_lon": 0.0, "fusion_lat": 0.0, "type": "electric_scooter", "name": "594ecfc8615ac4d650a9442e18674dd5", "is_disabled": 0, "rental_uris": {"ios": "https://dc.lft.to/lastmile_qr_scan", "android": "https://dc.lft.to/lastmile_qr_scan"}, "is_reserved": 0}, {"lon": -77.05593866666666, "bike_id": "c5804f5d98d17b984f918a0bdef0f57a", "lat": 38.931444, "fusion_lon": 0.0, "fusion_lat": 0.0, "type": "electric_scooter", "name": "c5804f5d98d17b984f918a0bdef0f57a", "is_disabled": 0, "rental_uris": {"ios": "https://dc.lft.to/lastmile_qr_scan", "android": "https://dc.lft.to/lastmile_qr_scan"}, "is_reserved": 0}, {"lon": -77.12726683333334, "bike_id": "9f48163bc317c9d8946880c0eada433d", "lat": 38.895592666666666, "fusion_lon": 0.0, "fusion_lat": 0.0, "type": "electric_bike", "name": "9f48163bc317c9d8946880c0eada433d", "is_disabled": 0, "rental_uris": {"ios": "https://dc.lft.to/lastmile_qr_scan", "android": "https://dc.lft.to/lastmile_qr_scan"}, "is_reserved": 0}, {"lon": -77.03667483333334, "bike_id": "7178c524f72b7e316b977538077ba755", "lat": 38.913241166666666, "fusion_lon": 0.0, "fusion_lat": 0.0, "type": "electric_scooter", "name": "7178c524f72b7e316b977538077ba755", "is_disabled": 0, "rental_uris": {"ios": "https://dc.lft.to/lastmile_qr_scan", "android": "https://dc.lft.to/lastmile_qr_scan"}, "is_reserved": 0}, {"lon": -77.02578583333333, "bike_id": "ee0ce262cbf337ee55ac6d3d3f9d0a5b", "lat": 38.927323333333334, "fusion_lon": 0.0, "fusion_lat": 0.0, "type": "electric_scooter", "name": "ee0ce262cbf337ee55ac6d3d3f9d0a5b", "is_disabled": 0, "rental_uris": {"ios": "https://dc.lft.to/lastmile_qr_scan", "android": "https://dc.lft.to/lastmile_qr_scan"}, "is_reserved": 0}, {"lon": -77.023934, "bike_id": "6f4b2d58b8d99ccd9132b92ba5571887", "lat": 38.9199685, "fusion_lon": 0.0, "fusion_lat": 0.0, "type": "electric_scooter", "name": "6f4b2d58b8d99ccd9132b92ba5571887", "is_disabled": 0, "rental_uris": {"ios": "https://dc.lft.to/lastmile_qr_scan", "android": "https://dc.lft.to/lastmile_qr_scan"}, "is_reserved": 0}, {"lon": -77.04601, "bike_id": "08d1dbe95957e2a25795f405290c17c1", "lat": 38.916036, "fusion_lon": 0.0, "fusion_lat": 0.0, "type": "electric_scooter", "name": "08d1dbe95957e2a25795f405290c17c1", "is_disabled": 0, "rental_uris": {"ios": "https://dc.lft.to/lastmile_qr_scan", "android": "https://dc.lft.to/lastmile_qr_scan"}, "is_reserved": 0}, {"lon": -76.98820766666667, "bike_id": "cccafcbd5b91805e9905972ec0ffbce5", "lat": 38.890746666666665, "fusion_lon": 0.0, "fusion_lat": 0.0, "type": "electric_scooter", "name": "cccafcbd5b91805e9905972ec0ffbce5", "is_disabled": 0, "rental_uris": {"ios": "https://dc.lft.to/lastmile_qr_scan", "android": "https://dc.lft.to/lastmile_qr_scan"}, "is_reserved": 0}, {"lon": -77.02917966666666, "bike_id": "24350c5f0c70d33b5c7b1820f0f5bb33", "lat": 38.898334, "fusion_lon": 0.0, "fusion_lat": 0.0, "type": "electric_scooter", "name": "24350c5f0c70d33b5c7b1820f0f5bb33", "is_disabled": 0, "rental_uris": {"ios": "https://dc.lft.to/lastmile_qr_scan", "android": "https://dc.lft.to/lastmile_qr_scan"}, "is_reserved": 0}, {"lon": -77.01964133333334, "bike_id": "91ec58dd327cde0a80b9e612c46199ef", "lat": 38.952305, "fusion_lon": 0.0, "fusion_lat": 0.0, "type": "electric_scooter", "name": "91ec58dd327cde0a80b9e612c46199ef", "is_disabled": 0, "rental_uris": {"ios": "https://dc.lft.to/lastmile_qr_scan", "android": "https://dc.lft.to/lastmile_qr_scan"}, "is_reserved": 0}, {"lon": -77.00738516666667, "bike_id": "2220adc941b0c1cd27839ee454a609bb", "lat": 38.876528, "fusion_lon": 0.0, "fusion_lat": 0.0, "type": "electric_scooter", "name": "2220adc941b0c1cd27839ee454a609bb", "is_disabled": 0, "rental_uris": {"ios": "https://dc.lft.to/lastmile_qr_scan", "android": "https://dc.lft.to/lastmile_qr_scan"}, "is_reserved": 0}, {"lon": -77.00557383333333, "bike_id": "d1e00ae6a7ee8470a82f38c6802d7252", "lat": 38.874727, "fusion_lon": 0.0, "fusion_lat": 0.0, "type": "electric_scooter", "name": "d1e00ae6a7ee8470a82f38c6802d7252", "is_disabled": 0, "rental_uris": {"ios": "https://dc.lft.to/lastmile_qr_scan", "android": "https://dc.lft.to/lastmile_qr_scan"}, "is_reserved": 0}, {"lon": -76.99601566666666, "bike_id": "b3e56ed5cc8c497b8f94cb507baff3b5", "lat": 38.85699483333333, "fusion_lon": 0.0, "fusion_lat": 0.0, "type": "electric_scooter", "name": "b3e56ed5cc8c497b8f94cb507baff3b5", "is_disabled": 0, "rental_uris": {"ios": "https://dc.lft.to/lastmile_qr_scan", "android": "https://dc.lft.to/lastmile_qr_scan"}, "is_reserved": 0}, {"lon": -77.05385866666667, "bike_id": "bcfc7b8caae228ae0a787ade72ca0525", "lat": 38.9272675, "fusion_lon": 0.0, "fusion_lat": 0.0, "type": "electric_scooter", "name": "bcfc7b8caae228ae0a787ade72ca0525", "is_disabled": 0, "rental_uris": {"ios": "https://dc.lft.to/lastmile_qr_scan", "android": "https://dc.lft.to/lastmile_qr_scan"}, "is_reserved": 0}, {"lon": -77.0305555, "bike_id": "882d907f6c1085f5efa65babb632a537", "lat": 38.89839083333333, "fusion_lon": 0.0, "fusion_lat": 0.0, "type": "electric_scooter", "name": "882d907f6c1085f5efa65babb632a537", "is_disabled": 0, "rental_uris": {"ios": "https://dc.lft.to/lastmile_qr_scan", "android": "https://dc.lft.to/lastmile_qr_scan"}, "is_reserved": 0}, {"lon": -77.0136625, "bike_id": "202ccbc99b6ed53d4172b356854dbb7c", "lat": 38.88706416666667, "fusion_lon": 0.0, "fusion_lat": 0.0, "type": "electric_scooter", "name": "202ccbc99b6ed53d4172b356854dbb7c", "is_disabled": 0, "rental_uris": {"ios": "https://dc.lft.to/lastmile_qr_scan", "android": "https://dc.lft.to/lastmile_qr_scan"}, "is_reserved": 0}, {"lon": -76.93770116666667, "bike_id": "1692233815848eddcc5b60f55551ccce", "lat": 38.899693166666665, "fusion_lon": 0.0, "fusion_lat": 0.0, "type": "electric_scooter", "name": "1692233815848eddcc5b60f55551ccce", "is_disabled": 0, "rental_uris": {"ios": "https://dc.lft.to/lastmile_qr_scan", "android": "https://dc.lft.to/lastmile_qr_scan"}, "is_reserved": 0}, {"lon": -76.937627, "bike_id": "990311b7fe3192dc708dbf1bf815f20b", "lat": 38.878612333333336, "fusion_lon": 0.0, "fusion_lat": 0.0, "type": "electric_scooter", "name": "990311b7fe3192dc708dbf1bf815f20b", "is_disabled": 0, "rental_uris": {"ios": "https://dc.lft.to/lastmile_qr_scan", "android": "https://dc.lft.to/lastmile_qr_scan"}, "is_reserved": 0}, {"lon": -77.0231305, "bike_id": "da878693cc2c7c4947be38f88c2a96bc", "lat": 38.908847, "fusion_lon": 0.0, "fusion_lat": 0.0, "type": "electric_scooter", "name": "da878693cc2c7c4947be38f88c2a96bc", "is_disabled": 0, "rental_uris": {"ios": "https://dc.lft.to/lastmile_qr_scan", "android": "https://dc.lft.to/lastmile_qr_scan"}, "is_reserved": 0}, {"lon": -76.99857683333333, "bike_id": "399ce4574b6bc0728e2c56a910af9d27", "lat": 38.894162, "fusion_lon": 0.0, "fusion_lat": 0.0, "type": "electric_scooter", "name": "399ce4574b6bc0728e2c56a910af9d27", "is_disabled": 0, "rental_uris": {"ios": "https://dc.lft.to/lastmile_qr_scan", "android": "https://dc.lft.to/lastmile_qr_scan"}, "is_reserved": 0}, {"lon": -76.94504, "bike_id": "853ae316962cf45d6ed481c34381d735", "lat": 38.864819833333335, "fusion_lon": 0.0, "fusion_lat": 0.0, "type": "electric_bike", "name": "853ae316962cf45d6ed481c34381d735", "is_disabled": 0, "rental_uris": {"ios": "https://dc.lft.to/lastmile_qr_scan", "android": "https://dc.lft.to/lastmile_qr_scan"}, "is_reserved": 0}, {"lon": -76.99011016666667, "bike_id": "d48e9b405c2de420724fb95f480dfc99", "lat": 38.94602416666667, "fusion_lon": 0.0, "fusion_lat": 0.0, "type": "electric_scooter", "name": "d48e9b405c2de420724fb95f480dfc99", "is_disabled": 0, "rental_uris": {"ios": "https://dc.lft.to/lastmile_qr_scan", "android": "https://dc.lft.to/lastmile_qr_scan"}, "is_reserved": 0}, {"lon": -76.9936995, "bike_id": "d3c8ca3b464ce1b42835f644a6abba52", "lat": 38.94027766666667, "fusion_lon": 0.0, "fusion_lat": 0.0, "type": "electric_scooter", "name": "d3c8ca3b464ce1b42835f644a6abba52", "is_disabled": 0, "rental_uris": {"ios": "https://dc.lft.to/lastmile_qr_scan", "android": "https://dc.lft.to/lastmile_qr_scan"}, "is_reserved": 0}, {"lon": -77.05147416666667, "bike_id": "8f508c5469a7d72967c19c8df9d9cfe5", "lat": 38.898682666666666, "fusion_lon": 0.0, "fusion_lat": 0.0, "type": "electric_scooter", "name": "8f508c5469a7d72967c19c8df9d9cfe5", "is_disabled": 0, "rental_uris": {"ios": "https://dc.lft.to/lastmile_qr_scan", "android": "https://dc.lft.to/lastmile_qr_scan"}, "is_reserved": 0}, {"lon": -77.03293316666667, "bike_id": "0ed84635f70bbcbd072c8722de7d5981", "lat": 38.9565485, "fusion_lon": 0.0, "fusion_lat": 0.0, "type": "electric_scooter", "name": "0ed84635f70bbcbd072c8722de7d5981", "is_disabled": 0, "rental_uris": {"ios": "https://dc.lft.to/lastmile_qr_scan", "android": "https://dc.lft.to/lastmile_qr_scan"}, "is_reserved": 0}, {"lon": -77.00118716666667, "bike_id": "7abb718b12016a698962634b12835136", "lat": 38.905006666666665, "fusion_lon": 0.0, "fusion_lat": 0.0, "type": "electric_scooter", "name": "7abb718b12016a698962634b12835136", "is_disabled": 0, "rental_uris": {"ios": "https://dc.lft.to/lastmile_qr_scan", "android": "https://dc.lft.to/lastmile_qr_scan"}, "is_reserved": 0}, {"lon": -77.049834, "bike_id": "1e5922d67977c431ac81225f9d3e6bcc", "lat": 39.0629685, "fusion_lon": 0.0, "fusion_lat": 0.0, "type": "electric_bike", "name": "1e5922d67977c431ac81225f9d3e6bcc", "is_disabled": 0, "rental_uris": {"ios": "https://dc.lft.to/lastmile_qr_scan", "android": "https://dc.lft.to/lastmile_qr_scan"}, "is_reserved": 0}, {"lon": -77.03860866666666, "bike_id": "e579b8a178f36ac8da08c07efba60b97", "lat": 38.9201475, "fusion_lon": 0.0, "fusion_lat": 0.0, "type": "electric_scooter", "name": "e579b8a178f36ac8da08c07efba60b97", "is_disabled": 0, "rental_uris": {"ios": "https://dc.lft.to/lastmile_qr_scan", "android": "https://dc.lft.to/lastmile_qr_scan"}, "is_reserved": 0}, {"lon": -77.02302116666667, "bike_id": "ae57af9deafe2e28ac2e0b1becb10f31", "lat": 38.91834433333333, "fusion_lon": 0.0, "fusion_lat": 0.0, "type": "electric_scooter", "name": "ae57af9deafe2e28ac2e0b1becb10f31", "is_disabled": 0, "rental_uris": {"ios": "https://dc.lft.to/lastmile_qr_scan", "android": "https://dc.lft.to/lastmile_qr_scan"}, "is_reserved": 0}, {"lon": -77.04589516666667, "bike_id": "33f6ac428bd0e70084d226cee4bf3b53", "lat": 38.89613116666666, "fusion_lon": 0.0, "fusion_lat": 0.0, "type": "electric_scooter", "name": "33f6ac428bd0e70084d226cee4bf3b53", "is_disabled": 0, "rental_uris": {"ios": "https://dc.lft.to/lastmile_qr_scan", "android": "https://dc.lft.to/lastmile_qr_scan"}, "is_reserved": 0}, {"lon": -77.02490233333333, "bike_id": "e95edf12cd8f42b52f8317c45b1e6b91", "lat": 38.9386225, "fusion_lon": 0.0, "fusion_lat": 0.0, "type": "electric_scooter", "name": "e95edf12cd8f42b52f8317c45b1e6b91", "is_disabled": 0, "rental_uris": {"ios": "https://dc.lft.to/lastmile_qr_scan", "android": "https://dc.lft.to/lastmile_qr_scan"}, "is_reserved": 0}, {"lon": -77.051297, "bike_id": "bf4712845d7309d5b0edea8f5ed4556b", "lat": 38.923636333333334, "fusion_lon": 0.0, "fusion_lat": 0.0, "type": "electric_scooter", "name": "bf4712845d7309d5b0edea8f5ed4556b", "is_disabled": 0, "rental_uris": {"ios": "https://dc.lft.to/lastmile_qr_scan", "android": "https://dc.lft.to/lastmile_qr_scan"}, "is_reserved": 0}, {"lon": -77.05285816666667, "bike_id": "f79d29422461d40bbff19b5efe231a8f", "lat": 38.91017083333333, "fusion_lon": 0.0, "fusion_lat": 0.0, "type": "electric_scooter", "name": "f79d29422461d40bbff19b5efe231a8f", "is_disabled": 0, "rental_uris": {"ios": "https://dc.lft.to/lastmile_qr_scan", "android": "https://dc.lft.to/lastmile_qr_scan"}, "is_reserved": 0}, {"lon": -77.04399083333334, "bike_id": "4dc50dd44109dc1c102199554af9f712", "lat": 38.93328316666667, "fusion_lon": 0.0, "fusion_lat": 0.0, "type": "electric_scooter", "name": "4dc50dd44109dc1c102199554af9f712", "is_disabled": 0, "rental_uris": {"ios": "https://dc.lft.to/lastmile_qr_scan", "android": "https://dc.lft.to/lastmile_qr_scan"}, "is_reserved": 0}, {"lon": -77.1032825, "bike_id": "365b9939a5f40894446086c1ccf0108f", "lat": 38.874189, "fusion_lon": 0.0, "fusion_lat": 0.0, "type": "electric_bike", "name": "365b9939a5f40894446086c1ccf0108f", "is_disabled": 0, "rental_uris": {"ios": "https://dc.lft.to/lastmile_qr_scan", "android": "https://dc.lft.to/lastmile_qr_scan"}, "is_reserved": 0}, {"lon": -77.02292066666666, "bike_id": "ccaa1a20738de3ac7770e085ba46566d", "lat": 38.94474, "fusion_lon": 0.0, "fusion_lat": 0.0, "type": "electric_bike", "name": "ccaa1a20738de3ac7770e085ba46566d", "is_disabled": 0, "rental_uris": {"ios": "https://dc.lft.to/lastmile_qr_scan", "android": "https://dc.lft.to/lastmile_qr_scan"}, "is_reserved": 0}, {"lon": -77.01995733333334, "bike_id": "0c7451eec12ea012aefc213b930375c1", "lat": 38.913685666666666, "fusion_lon": 0.0, "fusion_lat": 0.0, "type": "electric_scooter", "name": "0c7451eec12ea012aefc213b930375c1", "is_disabled": 0, "rental_uris": {"ios": "https://dc.lft.to/lastmile_qr_scan", "android": "https://dc.lft.to/lastmile_qr_scan"}, "is_reserved": 0}, {"lon": -77.024119, "bike_id": "0c0dca2272b1d749523b836e7f00170d", "lat": 38.90972, "fusion_lon": 0.0, "fusion_lat": 0.0, "type": "electric_scooter", "name": "0c0dca2272b1d749523b836e7f00170d", "is_disabled": 0, "rental_uris": {"ios": "https://dc.lft.to/lastmile_qr_scan", "android": "https://dc.lft.to/lastmile_qr_scan"}, "is_reserved": 0}, {"lon": -77.03478683333333, "bike_id": "a30055ef12ea2464c33d51954ce3ce1f", "lat": 38.92483, "fusion_lon": 0.0, "fusion_lat": 0.0, "type": "electric_scooter", "name": "a30055ef12ea2464c33d51954ce3ce1f", "is_disabled": 0, "rental_uris": {"ios": "https://dc.lft.to/lastmile_qr_scan", "android": "https://dc.lft.to/lastmile_qr_scan"}, "is_reserved": 0}, {"lon": -77.07804883333333, "bike_id": "6aa529d3b611b953155ad7f07efd7786", "lat": 38.9237175, "fusion_lon": 0.0, "fusion_lat": 0.0, "type": "electric_scooter", "name": "6aa529d3b611b953155ad7f07efd7786", "is_disabled": 0, "rental_uris": {"ios": "https://dc.lft.to/lastmile_qr_scan", "android": "https://dc.lft.to/lastmile_qr_scan"}, "is_reserved": 0}, {"lon": -77.02399183333333, "bike_id": "3d2eac33647ab5b303e7e14aaa9e6894", "lat": 38.95711216666667, "fusion_lon": 0.0, "fusion_lat": 0.0, "type": "electric_scooter", "name": "3d2eac33647ab5b303e7e14aaa9e6894", "is_disabled": 0, "rental_uris": {"ios": "https://dc.lft.to/lastmile_qr_scan", "android": "https://dc.lft.to/lastmile_qr_scan"}, "is_reserved": 0}, {"lon": -77.00766, "bike_id": "5f1bc547f26a395a15393c38abbd6e3c", "lat": 38.906609, "fusion_lon": 0.0, "fusion_lat": 0.0, "type": "electric_scooter", "name": "5f1bc547f26a395a15393c38abbd6e3c", "is_disabled": 0, "rental_uris": {"ios": "https://dc.lft.to/lastmile_qr_scan", "android": "https://dc.lft.to/lastmile_qr_scan"}, "is_reserved": 0}, {"lon": -77.0534375, "bike_id": "5232ee4426ed77a9a5d4ee2abd288fdb", "lat": 38.92710683333333, "fusion_lon": 0.0, "fusion_lat": 0.0, "type": "electric_scooter", "name": "5232ee4426ed77a9a5d4ee2abd288fdb", "is_disabled": 0, "rental_uris": {"ios": "https://dc.lft.to/lastmile_qr_scan", "android": "https://dc.lft.to/lastmile_qr_scan"}, "is_reserved": 0}, {"lon": -77.02273683333334, "bike_id": "e837e63a11dc98414617fc83060d57cb", "lat": 38.90904883333333, "fusion_lon": 0.0, "fusion_lat": 0.0, "type": "electric_scooter", "name": "e837e63a11dc98414617fc83060d57cb", "is_disabled": 0, "rental_uris": {"ios": "https://dc.lft.to/lastmile_qr_scan", "android": "https://dc.lft.to/lastmile_qr_scan"}, "is_reserved": 0}, {"lon": -76.9275875, "bike_id": "6d501493619a1b54737f4f19ea654262", "lat": 38.8805815, "fusion_lon": 0.0, "fusion_lat": 0.0, "type": "electric_scooter", "name": "6d501493619a1b54737f4f19ea654262", "is_disabled": 0, "rental_uris": {"ios": "https://dc.lft.to/lastmile_qr_scan", "android": "https://dc.lft.to/lastmile_qr_scan"}, "is_reserved": 0}, {"lon": -77.0060045, "bike_id": "b91752a6252a27a63478414c1c81a857", "lat": 38.90617733333333, "fusion_lon": 0.0, "fusion_lat": 0.0, "type": "electric_scooter", "name": "b91752a6252a27a63478414c1c81a857", "is_disabled": 0, "rental_uris": {"ios": "https://dc.lft.to/lastmile_qr_scan", "android": "https://dc.lft.to/lastmile_qr_scan"}, "is_reserved": 0}, {"lon": -77.06492383333334, "bike_id": "5df6df0dde9b92334c88be17a5ed60f9", "lat": 38.92906766666667, "fusion_lon": 0.0, "fusion_lat": 0.0, "type": "electric_scooter", "name": "5df6df0dde9b92334c88be17a5ed60f9", "is_disabled": 0, "rental_uris": {"ios": "https://dc.lft.to/lastmile_qr_scan", "android": "https://dc.lft.to/lastmile_qr_scan"}, "is_reserved": 0}, {"lon": -77.04818366666667, "bike_id": "550143679eccc2867a872f278505675e", "lat": 38.92041916666667, "fusion_lon": 0.0, "fusion_lat": 0.0, "type": "electric_scooter", "name": "550143679eccc2867a872f278505675e", "is_disabled": 0, "rental_uris": {"ios": "https://dc.lft.to/lastmile_qr_scan", "android": "https://dc.lft.to/lastmile_qr_scan"}, "is_reserved": 0}, {"lon": -77.03783633333333, "bike_id": "7fdd5e4ea48563b6511a648bd10729b3", "lat": 38.92573383333333, "fusion_lon": 0.0, "fusion_lat": 0.0, "type": "electric_scooter", "name": "7fdd5e4ea48563b6511a648bd10729b3", "is_disabled": 0, "rental_uris": {"ios": "https://dc.lft.to/lastmile_qr_scan", "android": "https://dc.lft.to/lastmile_qr_scan"}, "is_reserved": 0}, {"lon": -77.00889283333333, "bike_id": "e2e75d78c15cdc6f31a4f83dfbd91240", "lat": 38.91713466666667, "fusion_lon": 0.0, "fusion_lat": 0.0, "type": "electric_scooter", "name": "e2e75d78c15cdc6f31a4f83dfbd91240", "is_disabled": 0, "rental_uris": {"ios": "https://dc.lft.to/lastmile_qr_scan", "android": "https://dc.lft.to/lastmile_qr_scan"}, "is_reserved": 0}, {"lon": -77.02672616666666, "bike_id": "d876659d1c3b533fdd2a92de432f5ef6", "lat": 38.98431816666667, "fusion_lon": 0.0, "fusion_lat": 0.0, "type": "electric_scooter", "name": "d876659d1c3b533fdd2a92de432f5ef6", "is_disabled": 0, "rental_uris": {"ios": "https://dc.lft.to/lastmile_qr_scan", "android": "https://dc.lft.to/lastmile_qr_scan"}, "is_reserved": 0}, {"lon": -76.991271, "bike_id": "d018051926687e815108fba67828a7f5", "lat": 38.862024166666664, "fusion_lon": 0.0, "fusion_lat": 0.0, "type": "electric_scooter", "name": "d018051926687e815108fba67828a7f5", "is_disabled": 0, "rental_uris": {"ios": "https://dc.lft.to/lastmile_qr_scan", "android": "https://dc.lft.to/lastmile_qr_scan"}, "is_reserved": 0}, {"lon": -76.99465466666666, "bike_id": "e36a893b0127346144e8101bb6545573", "lat": 38.86222266666667, "fusion_lon": 0.0, "fusion_lat": 0.0, "type": "electric_scooter", "name": "e36a893b0127346144e8101bb6545573", "is_disabled": 0, "rental_uris": {"ios": "https://dc.lft.to/lastmile_qr_scan", "android": "https://dc.lft.to/lastmile_qr_scan"}, "is_reserved": 0}, {"lon": -77.00194316666666, "bike_id": "06125bce7dc665750e3e43d1136d109f", "lat": 38.900408, "fusion_lon": 0.0, "fusion_lat": 0.0, "type": "electric_scooter", "name": "06125bce7dc665750e3e43d1136d109f", "is_disabled": 0, "rental_uris": {"ios": "https://dc.lft.to/lastmile_qr_scan", "android": "https://dc.lft.to/lastmile_qr_scan"}, "is_reserved": 0}, {"lon": -77.0258885, "bike_id": "0bb4f753b7e51ef0c4b94a7655bb367e", "lat": 38.89231516666667, "fusion_lon": 0.0, "fusion_lat": 0.0, "type": "electric_scooter", "name": "0bb4f753b7e51ef0c4b94a7655bb367e", "is_disabled": 0, "rental_uris": {"ios": "https://dc.lft.to/lastmile_qr_scan", "android": "https://dc.lft.to/lastmile_qr_scan"}, "is_reserved": 0}, {"lon": -76.98242533333334, "bike_id": "c11860833830ae0be57ac84c0d682819", "lat": 38.881361166666665, "fusion_lon": 0.0, "fusion_lat": 0.0, "type": "electric_scooter", "name": "c11860833830ae0be57ac84c0d682819", "is_disabled": 0, "rental_uris": {"ios": "https://dc.lft.to/lastmile_qr_scan", "android": "https://dc.lft.to/lastmile_qr_scan"}, "is_reserved": 0}, {"lon": -77.02390983333333, "bike_id": "579915e72adba6a14d80dfd36ac554cc", "lat": 38.908489833333334, "fusion_lon": 0.0, "fusion_lat": 0.0, "type": "electric_scooter", "name": "579915e72adba6a14d80dfd36ac554cc", "is_disabled": 0, "rental_uris": {"ios": "https://dc.lft.to/lastmile_qr_scan", "android": "https://dc.lft.to/lastmile_qr_scan"}, "is_reserved": 0}, {"lon": -77.04815133333334, "bike_id": "36c3e5e056c6b6ed3ead495b4e583e4c", "lat": 38.916297, "fusion_lon": 0.0, "fusion_lat": 0.0, "type": "electric_scooter", "name": "36c3e5e056c6b6ed3ead495b4e583e4c", "is_disabled": 0, "rental_uris": {"ios": "https://dc.lft.to/lastmile_qr_scan", "android": "https://dc.lft.to/lastmile_qr_scan"}, "is_reserved": 0}, {"lon": -77.02800283333333, "bike_id": "51e351207c8b4e018ae49e28ae19d5ad", "lat": 38.95096616666667, "fusion_lon": 0.0, "fusion_lat": 0.0, "type": "electric_scooter", "name": "51e351207c8b4e018ae49e28ae19d5ad", "is_disabled": 0, "rental_uris": {"ios": "https://dc.lft.to/lastmile_qr_scan", "android": "https://dc.lft.to/lastmile_qr_scan"}, "is_reserved": 0}, {"lon": -77.049866, "bike_id": "03920f70d6cff7236be5d1051739f538", "lat": 38.89608583333333, "fusion_lon": 0.0, "fusion_lat": 0.0, "type": "electric_scooter", "name": "03920f70d6cff7236be5d1051739f538", "is_disabled": 0, "rental_uris": {"ios": "https://dc.lft.to/lastmile_qr_scan", "android": "https://dc.lft.to/lastmile_qr_scan"}, "is_reserved": 0}, {"lon": -76.99173733333333, "bike_id": "329e6e0af4766bfc3e2eee6efdc41122", "lat": 38.88988633333334, "fusion_lon": 0.0, "fusion_lat": 0.0, "type": "electric_scooter", "name": "329e6e0af4766bfc3e2eee6efdc41122", "is_disabled": 0, "rental_uris": {"ios": "https://dc.lft.to/lastmile_qr_scan", "android": "https://dc.lft.to/lastmile_qr_scan"}, "is_reserved": 0}, {"lon": -76.996444, "bike_id": "77fd9a236a8a1171984cf62365342b21", "lat": 38.98824716666667, "fusion_lon": 0.0, "fusion_lat": 0.0, "type": "electric_bike", "name": "77fd9a236a8a1171984cf62365342b21", "is_disabled": 0, "rental_uris": {"ios": "https://dc.lft.to/lastmile_qr_scan", "android": "https://dc.lft.to/lastmile_qr_scan"}, "is_reserved": 0}, {"lon": -77.05050416666667, "bike_id": "dcb445dd26815378e2cde1bb5d5176c0", "lat": 38.92391, "fusion_lon": 0.0, "fusion_lat": 0.0, "type": "electric_scooter", "name": "dcb445dd26815378e2cde1bb5d5176c0", "is_disabled": 0, "rental_uris": {"ios": "https://dc.lft.to/lastmile_qr_scan", "android": "https://dc.lft.to/lastmile_qr_scan"}, "is_reserved": 0}, {"lon": -77.016198, "bike_id": "e947a1dcef4ae00094f3e270512f5b6c", "lat": 38.89949883333333, "fusion_lon": 0.0, "fusion_lat": 0.0, "type": "electric_scooter", "name": "e947a1dcef4ae00094f3e270512f5b6c", "is_disabled": 0, "rental_uris": {"ios": "https://dc.lft.to/lastmile_qr_scan", "android": "https://dc.lft.to/lastmile_qr_scan"}, "is_reserved": 0}, {"lon": -77.0096755, "bike_id": "7d83a6f6b4219deb82bef2202fe303ad", "lat": 38.91182666666667, "fusion_lon": 0.0, "fusion_lat": 0.0, "type": "electric_scooter", "name": "7d83a6f6b4219deb82bef2202fe303ad", "is_disabled": 0, "rental_uris": {"ios": "https://dc.lft.to/lastmile_qr_scan", "android": "https://dc.lft.to/lastmile_qr_scan"}, "is_reserved": 0}, {"lon": -77.0228225, "bike_id": "52904a5b9faf7e4716dbb794dd03c6a3", "lat": 38.92684033333333, "fusion_lon": 0.0, "fusion_lat": 0.0, "type": "electric_scooter", "name": "52904a5b9faf7e4716dbb794dd03c6a3", "is_disabled": 0, "rental_uris": {"ios": "https://dc.lft.to/lastmile_qr_scan", "android": "https://dc.lft.to/lastmile_qr_scan"}, "is_reserved": 0}, {"lon": -77.03543333333333, "bike_id": "4f714bc062d675e13ccb2b65ac278186", "lat": 38.92413883333333, "fusion_lon": 0.0, "fusion_lat": 0.0, "type": "electric_scooter", "name": "4f714bc062d675e13ccb2b65ac278186", "is_disabled": 0, "rental_uris": {"ios": "https://dc.lft.to/lastmile_qr_scan", "android": "https://dc.lft.to/lastmile_qr_scan"}, "is_reserved": 0}, {"lon": -76.98162833333333, "bike_id": "0e5569af5d9ceefadac9790f314b1a94", "lat": 38.925697, "fusion_lon": 0.0, "fusion_lat": 0.0, "type": "electric_scooter", "name": "0e5569af5d9ceefadac9790f314b1a94", "is_disabled": 0, "rental_uris": {"ios": "https://dc.lft.to/lastmile_qr_scan", "android": "https://dc.lft.to/lastmile_qr_scan"}, "is_reserved": 0}, {"lon": -77.025887, "bike_id": "b39f641a8635b683cc68f96be6c0b390", "lat": 38.892291666666665, "fusion_lon": 0.0, "fusion_lat": 0.0, "type": "electric_scooter", "name": "b39f641a8635b683cc68f96be6c0b390", "is_disabled": 0, "rental_uris": {"ios": "https://dc.lft.to/lastmile_qr_scan", "android": "https://dc.lft.to/lastmile_qr_scan"}, "is_reserved": 0}, {"lon": -77.00753716666667, "bike_id": "77b4e53cc7112c8bb8f9c7bc4010a6a7", "lat": 38.90058366666667, "fusion_lon": 0.0, "fusion_lat": 0.0, "type": "electric_scooter", "name": "77b4e53cc7112c8bb8f9c7bc4010a6a7", "is_disabled": 0, "rental_uris": {"ios": "https://dc.lft.to/lastmile_qr_scan", "android": "https://dc.lft.to/lastmile_qr_scan"}, "is_reserved": 0}, {"lon": -77.0120785, "bike_id": "4c8df184a9f35e5bc65560417d0da3a2", "lat": 38.9164905, "fusion_lon": 0.0, "fusion_lat": 0.0, "type": "electric_scooter", "name": "4c8df184a9f35e5bc65560417d0da3a2", "is_disabled": 0, "rental_uris": {"ios": "https://dc.lft.to/lastmile_qr_scan", "android": "https://dc.lft.to/lastmile_qr_scan"}, "is_reserved": 0}, {"lon": -77.1158945, "bike_id": "6d2ab9e4cf3e700d47c453ce019c8100", "lat": 39.074931166666666, "fusion_lon": 0.0, "fusion_lat": 0.0, "type": "electric_bike", "name": "6d2ab9e4cf3e700d47c453ce019c8100", "is_disabled": 0, "rental_uris": {"ios": "https://dc.lft.to/lastmile_qr_scan", "android": "https://dc.lft.to/lastmile_qr_scan"}, "is_reserved": 0}, {"lon": -77.02402383333333, "bike_id": "d675c99548ad4d0aa9c62bf52b55b868", "lat": 38.9041755, "fusion_lon": 0.0, "fusion_lat": 0.0, "type": "electric_scooter", "name": "d675c99548ad4d0aa9c62bf52b55b868", "is_disabled": 0, "rental_uris": {"ios": "https://dc.lft.to/lastmile_qr_scan", "android": "https://dc.lft.to/lastmile_qr_scan"}, "is_reserved": 0}, {"lon": -77.02363266666667, "bike_id": "4f1ac93bf862e7db8fa668a1ce8b5f40", "lat": 38.89982783333333, "fusion_lon": 0.0, "fusion_lat": 0.0, "type": "electric_scooter", "name": "4f1ac93bf862e7db8fa668a1ce8b5f40", "is_disabled": 0, "rental_uris": {"ios": "https://dc.lft.to/lastmile_qr_scan", "android": "https://dc.lft.to/lastmile_qr_scan"}, "is_reserved": 0}, {"lon": -77.022784, "bike_id": "cde5ba7f9fbbfea6204a3cdea5ad16b3", "lat": 38.926815, "fusion_lon": 0.0, "fusion_lat": 0.0, "type": "electric_scooter", "name": "cde5ba7f9fbbfea6204a3cdea5ad16b3", "is_disabled": 0, "rental_uris": {"ios": "https://dc.lft.to/lastmile_qr_scan", "android": "https://dc.lft.to/lastmile_qr_scan"}, "is_reserved": 0}, {"lon": -77.0140645, "bike_id": "1702abb30ba89f544e118a7de74066e0", "lat": 38.928321833333335, "fusion_lon": 0.0, "fusion_lat": 0.0, "type": "electric_scooter", "name": "1702abb30ba89f544e118a7de74066e0", "is_disabled": 0, "rental_uris": {"ios": "https://dc.lft.to/lastmile_qr_scan", "android": "https://dc.lft.to/lastmile_qr_scan"}, "is_reserved": 0}, {"lon": -76.96909066666667, "bike_id": "a56d1cc4dcdcb5f3bcc603c58a481223", "lat": 38.84612533333333, "fusion_lon": 0.0, "fusion_lat": 0.0, "type": "electric_bike", "name": "a56d1cc4dcdcb5f3bcc603c58a481223", "is_disabled": 0, "rental_uris": {"ios": "https://dc.lft.to/lastmile_qr_scan", "android": "https://dc.lft.to/lastmile_qr_scan"}, "is_reserved": 0}, {"lon": -76.94155233333333, "bike_id": "9e644a6a60826409b659652a0e13e5bf", "lat": 38.879087, "fusion_lon": 0.0, "fusion_lat": 0.0, "type": "electric_scooter", "name": "9e644a6a60826409b659652a0e13e5bf", "is_disabled": 0, "rental_uris": {"ios": "https://dc.lft.to/lastmile_qr_scan", "android": "https://dc.lft.to/lastmile_qr_scan"}, "is_reserved": 0}, {"lon": -77.03852816666667, "bike_id": "dd5c0107871d5184b29106678f5650d7", "lat": 38.917492, "fusion_lon": 0.0, "fusion_lat": 0.0, "type": "electric_scooter", "name": "dd5c0107871d5184b29106678f5650d7", "is_disabled": 0, "rental_uris": {"ios": "https://dc.lft.to/lastmile_qr_scan", "android": "https://dc.lft.to/lastmile_qr_scan"}, "is_reserved": 0}, {"lon": -77.0447275, "bike_id": "6a9d2bb4dc98e4ab0fbb878b8f44272f", "lat": 38.92142533333333, "fusion_lon": 0.0, "fusion_lat": 0.0, "type": "electric_scooter", "name": "6a9d2bb4dc98e4ab0fbb878b8f44272f", "is_disabled": 0, "rental_uris": {"ios": "https://dc.lft.to/lastmile_qr_scan", "android": "https://dc.lft.to/lastmile_qr_scan"}, "is_reserved": 0}, {"lon": -77.03302666666667, "bike_id": "a682649367dfe2809521ff3aab9a29ba", "lat": 38.92879716666667, "fusion_lon": 0.0, "fusion_lat": 0.0, "type": "electric_scooter", "name": "a682649367dfe2809521ff3aab9a29ba", "is_disabled": 0, "rental_uris": {"ios": "https://dc.lft.to/lastmile_qr_scan", "android": "https://dc.lft.to/lastmile_qr_scan"}, "is_reserved": 0}, {"lon": -77.0078075, "bike_id": "afbe076907f42e3cf9b716b7268f4941", "lat": 38.897363666666664, "fusion_lon": 0.0, "fusion_lat": 0.0, "type": "electric_scooter", "name": "afbe076907f42e3cf9b716b7268f4941", "is_disabled": 0, "rental_uris": {"ios": "https://dc.lft.to/lastmile_qr_scan", "android": "https://dc.lft.to/lastmile_qr_scan"}, "is_reserved": 0}, {"lon": -77.04617466666667, "bike_id": "aee4d30093dfb835712747ed867d9276", "lat": 38.921749166666665, "fusion_lon": 0.0, "fusion_lat": 0.0, "type": "electric_scooter", "name": "aee4d30093dfb835712747ed867d9276", "is_disabled": 0, "rental_uris": {"ios": "https://dc.lft.to/lastmile_qr_scan", "android": "https://dc.lft.to/lastmile_qr_scan"}, "is_reserved": 0}, {"lon": -77.003194, "bike_id": "ca53a67bcfb22ee93c03e491ec6b065a", "lat": 38.919029, "fusion_lon": 0.0, "fusion_lat": 0.0, "type": "electric_bike", "name": "ca53a67bcfb22ee93c03e491ec6b065a", "is_disabled": 0, "rental_uris": {"ios": "https://dc.lft.to/lastmile_qr_scan", "android": "https://dc.lft.to/lastmile_qr_scan"}, "is_reserved": 0}, {"lon": -77.0159975, "bike_id": "e03eb7b1e8b0c864c851e61990e01222", "lat": 38.9035595, "fusion_lon": 0.0, "fusion_lat": 0.0, "type": "electric_scooter", "name": "e03eb7b1e8b0c864c851e61990e01222", "is_disabled": 0, "rental_uris": {"ios": "https://dc.lft.to/lastmile_qr_scan", "android": "https://dc.lft.to/lastmile_qr_scan"}, "is_reserved": 0}, {"lon": -76.9927525, "bike_id": "ea42ec40aca45d05baa1dc5acd59fa78", "lat": 38.8976855, "fusion_lon": 0.0, "fusion_lat": 0.0, "type": "electric_scooter", "name": "ea42ec40aca45d05baa1dc5acd59fa78", "is_disabled": 0, "rental_uris": {"ios": "https://dc.lft.to/lastmile_qr_scan", "android": "https://dc.lft.to/lastmile_qr_scan"}, "is_reserved": 0}, {"lon": -77.00426216666666, "bike_id": "2146ef17bc4e59e3b67503b0cb53c8da", "lat": 38.87755883333333, "fusion_lon": 0.0, "fusion_lat": 0.0, "type": "electric_scooter", "name": "2146ef17bc4e59e3b67503b0cb53c8da", "is_disabled": 0, "rental_uris": {"ios": "https://dc.lft.to/lastmile_qr_scan", "android": "https://dc.lft.to/lastmile_qr_scan"}, "is_reserved": 0}, {"lon": -76.98065633333333, "bike_id": "2f91a4d53861a5dba2dda41ec0e066de", "lat": 38.901769, "fusion_lon": 0.0, "fusion_lat": 0.0, "type": "electric_scooter", "name": "2f91a4d53861a5dba2dda41ec0e066de", "is_disabled": 0, "rental_uris": {"ios": "https://dc.lft.to/lastmile_qr_scan", "android": "https://dc.lft.to/lastmile_qr_scan"}, "is_reserved": 0}, {"lon": -77.0073215, "bike_id": "0c6d6ba2a993be3e2599a421b3658ebd", "lat": 38.8766375, "fusion_lon": 0.0, "fusion_lat": 0.0, "type": "electric_scooter", "name": "0c6d6ba2a993be3e2599a421b3658ebd", "is_disabled": 0, "rental_uris": {"ios": "https://dc.lft.to/lastmile_qr_scan", "android": "https://dc.lft.to/lastmile_qr_scan"}, "is_reserved": 0}, {"lon": -76.98332283333333, "bike_id": "7bf6c8c63e26be5f2466e65f82e59cd5", "lat": 38.900878166666665, "fusion_lon": 0.0, "fusion_lat": 0.0, "type": "electric_scooter", "name": "7bf6c8c63e26be5f2466e65f82e59cd5", "is_disabled": 0, "rental_uris": {"ios": "https://dc.lft.to/lastmile_qr_scan", "android": "https://dc.lft.to/lastmile_qr_scan"}, "is_reserved": 0}, {"lon": -77.06186533333333, "bike_id": "f37898bab1e6449c4f8325e820de095b", "lat": 38.91057816666667, "fusion_lon": 0.0, "fusion_lat": 0.0, "type": "electric_scooter", "name": "f37898bab1e6449c4f8325e820de095b", "is_disabled": 0, "rental_uris": {"ios": "https://dc.lft.to/lastmile_qr_scan", "android": "https://dc.lft.to/lastmile_qr_scan"}, "is_reserved": 0},