{"data": {"bikes": [{"fusion_lat": 0.0, "name": "895ad5dbd23815de303b5cdaa83961ef", "is_disabled": 0, "rental_uris": {"android": "https://dc.lft.to/lastmile_qr_scan", "ios": "https://dc.lft.to/lastmile_qr_scan"}, "fusion_lon": 0.0, "lat": 38.930884166666665, "bike_id": "895ad5dbd23815de303b5cdaa83961ef", "type": "electric_scooter", "is_reserved": 0, "lon": -77.01993983333334}, {"fusion_lat": 0.0, "name": "af1896b70abb1cc8d78d615d9e6f6f9b", "is_disabled": 0, "rental_uris": {"android": "https://dc.lft.to/lastmile_qr_scan", "ios": "https://dc.lft.to/lastmile_qr_scan"}, "fusion_lon": 0.0, "lat": 38.91116816666667, "bike_id": "af1896b70abb1cc8d78d615d9e6f6f9b", "type": "electric_scooter", "is_reserved": 0, "lon": -77.03155266666667}, {"fusion_lat": 0.0, "name": "c4fd6a019e267566af09903392e3a601", "is_disabled": 0, "rental_uris": {"android": "https://dc.lft.to/lastmile_qr_scan", "ios": "https://dc.lft.to/lastmile_qr_scan"}, "fusion_lon": 0.0, "lat": 38.93180683333333, "bike_id": "c4fd6a019e267566af09903392e3a601", "type": "electric_scooter", "is_reserved": 0, "lon": -77.02005166666666}, {"fusion_lat": 0.0, "name": "553d19758f325e6129c5ee768ed3ef1b", "is_disabled": 0, "rental_uris": {"android": "https://dc.lft.to/lastmile_qr_scan", "ios": "https://dc.lft.to/lastmile_qr_scan"}, "fusion_lon": 0.0, "lat": 38.9247675, "bike_id": "553d19758f325e6129c5ee768ed3ef1b", "type": "electric_scooter", "is_reserved": 0, "lon": -77.020754}, {"fusion_lat": 0.0, "name": "99f47892b93c30bfe82770e611991d1a", "is_disabled": 0, "rental_uris": {"android": "https://dc.lft.to/lastmile_qr_scan", "ios": "https://dc.lft.to/lastmile_qr_scan"}, "fusion_lon": 0.0, "lat": 38.922436833333336, "bike_id": "99f47892b93c30bfe82770e611991d1a", "type": "electric_scooter", "is_reserved": 0, "lon": -77.038913}, {"fusion_lat": 0.0, "name": "9614891bfd4ca9be8a967ac660f46f10", "is_disabled": 0, "rental_uris": {"android": "https://dc.lft.to/lastmile_qr_scan", "ios": "https://dc.lft.to/lastmile_qr_scan"}, "fusion_lon": 0.0, "lat": 38.9231465, "bike_id": "9614891bfd4ca9be8a967ac660f46f10", "type": "electric_scooter", "is_reserved": 0, "lon": -77.04035833333333}, {"fusion_lat": 0.0, "name": "94c9747471ff6b631bee0203ccd9470d", "is_disabled": 0, "rental_uris": {"android": "https://dc.lft.to/lastmile_qr_scan", "ios": "https://dc.lft.to/lastmile_qr_scan"}, "fusion_lon": 0.0, "lat": 38.92221, "bike_id": "94c9747471ff6b631bee0203ccd9470d", "type": "electric_scooter", "is_reserved": 0, "lon": -77.02117716666666}, {"fusion_lat": 0.0, "name": "0f5d099dcf0cab45bb21b89c06795c0a", "is_disabled": 0, "rental_uris": {"android": "https://dc.lft.to/lastmile_qr_scan", "ios": "https://dc.lft.to/lastmile_qr_scan"}, "fusion_lon": 0.0, "lat": 38.9064195, "bike_id": "0f5d099dcf0cab45bb21b89c06795c0a", "type": "electric_scooter", "is_reserved": 0, "lon": -77.03428516666666}, {"fusion_lat": 0.0, "name": "2777c1ff7b73b8bdf64fb5f2be293ee6", "is_disabled": 0, "rental_uris": {"android": "https://dc.lft.to/lastmile_qr_scan", "ios": "https://dc.lft.to/lastmile_qr_scan"}, "fusion_lon": 0.0, "lat": 38.90465366666667, "bike_id": "2777c1ff7b73b8bdf64fb5f2be293ee6", "type": "electric_scooter", "is_reserved": 0, "lon": -77.028143}, {"fusion_lat": 0.0, "name": "12291ffa6c66a38c5fee9dba9e6f69e0", "is_disabled": 0, "rental_uris": {"android": "https://dc.lft.to/lastmile_qr_scan", "ios": "https://dc.lft.to/lastmile_qr_scan"}, "fusion_lon": 0.0, "lat": 38.89426316666667, "bike_id": "12291ffa6c66a38c5fee9dba9e6f69e0", "type": "electric_scooter", "is_reserved": 0, "lon": -77.0217515}, {"fusion_lat": 0.0, "name": "3b56021fdc746355a6e88434ae371c6f", "is_disabled": 0, "rental_uris": {"android": "https://dc.lft.to/lastmile_qr_scan", "ios": "https://dc.lft.to/lastmile_qr_scan"}, "fusion_lon": 0.0, "lat": 38.89969116666666, "bike_id": "3b56021fdc746355a6e88434ae371c6f", "type": "electric_scooter", "is_reserved": 0, "lon": -77.05277283333334}, {"fusion_lat": 0.0, "name": "855e5503f3b1a780430db0de49cf7f9c", "is_disabled": 0, "rental_uris": {"android": "https://dc.lft.to/lastmile_qr_scan", "ios": "https://dc.lft.to/lastmile_qr_scan"}, "fusion_lon": 0.0, "lat": 38.87299316666667, "bike_id": "855e5503f3b1a780430db0de49cf7f9c", "type": "electric_scooter", "is_reserved": 0, "lon": -76.97799}, {"fusion_lat": 0.0, "name": "7c9784bab9e93d091e8e65e75834f5e5", "is_disabled": 0, "rental_uris": {"android": "https://dc.lft.to/lastmile_qr_scan", "ios": "https://dc.lft.to/lastmile_qr_scan"}, "fusion_lon": 0.0, "lat": 38.86016683333333, "bike_id": "7c9784bab9e93d091e8e65e75834f5e5", "type": "electric_scooter", "is_reserved": 0, "lon": -76.96706333333333}, {"fusion_lat": 0.0, "name": "fa31735d29e868508e9ac1cb589ff012", "is_disabled": 0, "rental_uris": {"android": "https://dc.lft.to/lastmile_qr_scan", "ios": "https://dc.lft.to/lastmile_qr_scan"}, "fusion_lon": 0.0, "lat": 38.9010215, "bike_id": "fa31735d29e868508e9ac1cb589ff012", "type": "electric_scooter", "is_reserved": 0, "lon": -76.93056116666666}, {"fusion_lat": 0.0, "name": "a3892b68952dd6d7734bdd44add3dec9", "is_disabled": 0, "rental_uris": {"android": "https://dc.lft.to/lastmile_qr_scan", "ios": "https://dc.lft.to/lastmile_qr_scan"}, "fusion_lon": 0.0, "lat": 38.923448, "bike_id": "a3892b68952dd6d7734bdd44add3dec9", "type": "electric_scooter", "is_reserved": 0, "lon": -77.05216333333334}, {"fusion_lat": 0.0, "name": "6791291755057a8601d79fcc24af716a", "is_disabled": 0, "rental_uris": {"android": "https://dc.lft.to/lastmile_qr_scan", "ios": "https://dc.lft.to/lastmile_qr_scan"}, "fusion_lon": 0.0, "lat": 38.90787983333333, "bike_id": "6791291755057a8601d79fcc24af716a", "type": "electric_scooter", "is_reserved": 0, "lon": -77.0424515}, {"fusion_lat": 0.0, "name": "64a1dd48d46325f4772c7ce6f8b6de6f", "is_disabled": 0, "rental_uris": {"android": "https://dc.lft.to/lastmile_qr_scan", "ios": "https://dc.lft.to/lastmile_qr_scan"}, "fusion_lon": 0.0, "lat": 38.903846333333334, "bike_id": "64a1dd48d46325f4772c7ce6f8b6de6f", "type": "electric_scooter", "is_reserved": 0, "lon": -77.01789166666667}, {"fusion_lat": 0.0, "name": "b38ce044b9173de6c61d9d30cf3c33d7", "is_disabled": 0, "rental_uris": {"android": "https://dc.lft.to/lastmile_qr_scan", "ios": "https://dc.lft.to/lastmile_qr_scan"}, "fusion_lon": 0.0, "lat": 38.89723566666667, "bike_id": "b38ce044b9173de6c61d9d30cf3c33d7", "type": "electric_scooter", "is_reserved": 0, "lon": -77.02441516666667}, {"fusion_lat": 0.0, "name": "34c5c5635b22b5a15ccf93a09e53eee0", "is_disabled": 0, "rental_uris": {"android": "https://dc.lft.to/lastmile_qr_scan", "ios": "https://dc.lft.to/lastmile_qr_scan"}, "fusion_lon": 0.0, "lat": 38.93962416666667, "bike_id": "34c5c5635b22b5a15ccf93a09e53eee0", "type": "electric_scooter", "is_reserved": 0, "lon": -77.03290216666667}, {"fusion_lat": 0.0, "name": "6ed0d3517ca0075560475faf5e029057", "is_disabled": 0, "rental_uris": {"android": "https://dc.lft.to/lastmile_qr_scan", "ios": "https://dc.lft.to/lastmile_qr_scan"}, "fusion_lon": 0.0, "lat": 38.90985833333333, "bike_id": "6ed0d3517ca0075560475faf5e029057", "type": "electric_scooter", "is_reserved": 0, "lon": -77.04046633333333}, {"fusion_lat": 0.0, "name": "891dfa5465b1d65fac3d4749ad6c21cf", "is_disabled": 0, "rental_uris": {"android": "https://dc.lft.to/lastmile_qr_scan", "ios": "https://dc.lft.to/lastmile_qr_scan"}, "fusion_lon": 0.0, "lat": 38.84494933333333, "bike_id": "891dfa5465b1d65fac3d4749ad6c21cf", "type": "electric_scooter", "is_reserved": 0, "lon": -76.99600716666667}, {"fusion_lat": 0.0, "name": "8840aca2a5799568d1c62c533865119f", "is_disabled": 0, "rental_uris": {"android": "https://dc.lft.to/lastmile_qr_scan", "ios": "https://dc.lft.to/lastmile_qr_scan"}, "fusion_lon": 0.0, "lat": 38.873959, "bike_id": "8840aca2a5799568d1c62c533865119f", "type": "electric_scooter", "is_reserved": 0, "lon": -77.0145315}, {"fusion_lat": 0.0, "name": "c3e8c685fd1be072d6c929efb6a97dd1", "is_disabled": 0, "rental_uris": {"android": "https://dc.lft.to/lastmile_qr_scan", "ios": "https://dc.lft.to/lastmile_qr_scan"}, "fusion_lon": 0.0, "lat": 38.917732666666666, "bike_id": "c3e8c685fd1be072d6c929efb6a97dd1", "type": "electric_scooter", "is_reserved": 0, "lon": -77.03851283333333}, {"fusion_lat": 0.0, "name": "f69c2e2a876d68383a01e41550dcc72f", "is_disabled": 0, "rental_uris": {"android": "https://dc.lft.to/lastmile_qr_scan", "ios": "https://dc.lft.to/lastmile_qr_scan"}, "fusion_lon": 0.0, "lat": 38.906302333333336, "bike_id": "f69c2e2a876d68383a01e41550dcc72f", "type": "electric_scooter", "is_reserved": 0, "lon": -77.02604883333333}, {"fusion_lat": 0.0, "name": "37a8e3da8dd2fd78b532ddd6f869602d", "is_disabled": 0, "rental_uris": {"android": "https://dc.lft.to/lastmile_qr_scan", "ios": "https://dc.lft.to/lastmile_qr_scan"}, "fusion_lon": 0.0, "lat": 38.88766616666667, "bike_id": "37a8e3da8dd2fd78b532ddd6f869602d", "type": "electric_scooter", "is_reserved": 0, "lon": -77.01303266666666}, {"fusion_lat": 0.0, "name": "4759dec77e33a5c390697bd414cfdd77", "is_disabled": 0, "rental_uris": {"android": "https://dc.lft.to/lastmile_qr_scan", "ios": "https://dc.lft.to/lastmile_qr_scan"}, "fusion_lon": 0.0, "lat": 38.89327683333333, "bike_id": "4759dec77e33a5c390697bd414cfdd77", "type": "electric_bike", "is_reserved": 0, "lon": -76.95132233333334}, {"fusion_lat": 0.0, "name": "c495ecd41153ac4b11d7effe50c07fe8", "is_disabled": 0, "rental_uris": {"android": "https://dc.lft.to/lastmile_qr_scan", "ios": "https://dc.lft.to/lastmile_qr_scan"}, "fusion_lon": 0.0, "lat": 38.931181, "bike_id": "c495ecd41153ac4b11d7effe50c07fe8", "type": "electric_scooter", "is_reserved": 0, "lon": -77.02091066666667}, {"fusion_lat": 0.0, "name": "a5247c329c230efce4f1e5dfea76ef1b", "is_disabled": 0, "rental_uris": {"android": "https://dc.lft.to/lastmile_qr_scan", "ios": "https://dc.lft.to/lastmile_qr_scan"}, "fusion_lon": 0.0, "lat": 38.919628333333335, "bike_id": "a5247c329c230efce4f1e5dfea76ef1b", "type": "electric_scooter", "is_reserved": 0, "lon": -77.025015}, {"fusion_lat": 0.0, "name": "39d151762915c315cc0e451fb5f30075", "is_disabled": 0, "rental_uris": {"android": "https://dc.lft.to/lastmile_qr_scan", "ios": "https://dc.lft.to/lastmile_qr_scan"}, "fusion_lon": 0.0, "lat": 38.92595383333333, "bike_id": "39d151762915c315cc0e451fb5f30075", "type": "electric_bike", "is_reserved": 0, "lon": -77.210204}, {"fusion_lat": 0.0, "name": "1a004347e5c2a4ac871a050ca0f41fcb", "is_disabled": 0, "rental_uris": {"android": "https://dc.lft.to/lastmile_qr_scan", "ios": "https://dc.lft.to/lastmile_qr_scan"}, "fusion_lon": 0.0, "lat": 38.90028233333334, "bike_id": "1a004347e5c2a4ac871a050ca0f41fcb", "type": "electric_scooter", "is_reserved": 0, "lon": -76.99961783333333}, {"fusion_lat": 0.0, "name": "01354ebb9c0db9aae131d9e801f8a502", "is_disabled": 0, "rental_uris": {"android": "https://dc.lft.to/lastmile_qr_scan", "ios": "https://dc.lft.to/lastmile_qr_scan"}, "fusion_lon": 0.0, "lat": 38.82784433333333, "bike_id": "01354ebb9c0db9aae131d9e801f8a502", "type": "electric_bike", "is_reserved": 0, "lon": -77.12485266666667}, {"fusion_lat": 0.0, "name": "b25f430562c5d0fec0ea2ad956fa1be5", "is_disabled": 0, "rental_uris": {"android": "https://dc.lft.to/lastmile_qr_scan", "ios": "https://dc.lft.to/lastmile_qr_scan"}, "fusion_lon": 0.0, "lat": 38.90330516666667, "bike_id": "b25f430562c5d0fec0ea2ad956fa1be5", "type": "electric_scooter", "is_reserved": 0, "lon": -77.01097083333333}, {"fusion_lat": 0.0, "name": "9bfa5e92ae263f8a258a174b5946d739", "is_disabled": 0, "rental_uris": {"android": "https://dc.lft.to/lastmile_qr_scan", "ios": "https://dc.lft.to/lastmile_qr_scan"}, "fusion_lon": 0.0, "lat": 38.908636, "bike_id": "9bfa5e92ae263f8a258a174b5946d739", "type": "electric_scooter", "is_reserved": 0, "lon": -77.02716616666666}, {"fusion_lat": 0.0, "name": "76b6801172264d2a31bddeabf06833db", "is_disabled": 0, "rental_uris": {"android": "https://dc.lft.to/lastmile_qr_scan", "ios": "https://dc.lft.to/lastmile_qr_scan"}, "fusion_lon": 0.0, "lat": 38.9224855, "bike_id": "76b6801172264d2a31bddeabf06833db", "type": "electric_scooter", "is_reserved": 0, "lon": -77.042506}, {"fusion_lat": 0.0, "name": "21b54581d4de6c86db5947d80caa6741", "is_disabled": 0, "rental_uris": {"android": "https://dc.lft.to/lastmile_qr_scan", "ios": "https://dc.lft.to/lastmile_qr_scan"}, "fusion_lon": 0.0, "lat": 38.899690666666665, "bike_id": "21b54581d4de6c86db5947d80caa6741", "type": "electric_scooter", "is_reserved": 0, "lon": -77.0161865}, {"fusion_lat": 0.0, "name": "47dea3c72365e7ef02b0a747e8b52df9", "is_disabled": 0, "rental_uris": {"android": "https://dc.lft.to/lastmile_qr_scan", "ios": "https://dc.lft.to/lastmile_qr_scan"}, "fusion_lon": 0.0, "lat": 38.874978166666665, "bike_id": "47dea3c72365e7ef02b0a747e8b52df9", "type": "electric_scooter", "is_reserved": 0, "lon": -77.00070916666667}, {"fusion_lat": 0.0, "name": "a52b930f6392cce5d43f05368dde3de8", "is_disabled": 0, "rental_uris": {"android": "https://dc.lft.to/lastmile_qr_scan", "ios": "https://dc.lft.to/lastmile_qr_scan"}, "fusion_lon": 0.0, "lat": 38.917525499999996, "bike_id": "a52b930f6392cce5d43f05368dde3de8", "type": "electric_scooter", "is_reserved": 0, "lon": -77.01221216666667}, {"fusion_lat": 0.0, "name": "6cd121739d3ec1676369c24654b84ac3", "is_disabled": 0, "rental_uris": {"android": "https://dc.lft.to/lastmile_qr_scan", "ios": "https://dc.lft.to/lastmile_qr_scan"}, "fusion_lon": 0.0, "lat": 38.90876933333333, "bike_id": "6cd121739d3ec1676369c24654b84ac3", "type": "electric_scooter", "is_reserved": 0, "lon": -77.0433495}, {"fusion_lat": 0.0, "name": "6294e840886ec336a69cf33dd4e428f1", "is_disabled": 0, "rental_uris": {"android": "https://dc.lft.to/lastmile_qr_scan", "ios": "https://dc.lft.to/lastmile_qr_scan"}, "fusion_lon": 0.0, "lat": 38.89222316666667, "bike_id": "6294e840886ec336a69cf33dd4e428f1", "type": "electric_scooter", "is_reserved": 0, "lon": -77.02658716666667}, {"fusion_lat": 0.0, "name": "d5ebb6e32685441d231a79f2faa4655b", "is_disabled": 0, "rental_uris": {"android": "https://dc.lft.to/lastmile_qr_scan", "ios": "https://dc.lft.to/lastmile_qr_scan"}, "fusion_lon": 0.0, "lat": 38.9191395, "bike_id": "d5ebb6e32685441d231a79f2faa4655b", "type": "electric_scooter", "is_reserved": 0, "lon": -77.03189416666666}, {"fusion_lat": 0.0, "name": "914434d6714eba82e76df8b0858aff1e", "is_disabled": 0, "rental_uris": {"android": "https://dc.lft.to/lastmile_qr_scan", "ios": "https://dc.lft.to/lastmile_qr_scan"}, "fusion_lon": 0.0, "lat": 38.9125505, "bike_id": "914434d6714eba82e76df8b0858aff1e", "type": "electric_scooter", "is_reserved": 0, "lon": -77.00774183333333}, {"fusion_lat": 0.0, "name": "e3dee8ef9521207dbe084884794b0afc", "is_disabled": 0, "rental_uris": {"android": "https://dc.lft.to/lastmile_qr_scan", "ios": "https://dc.lft.to/lastmile_qr_scan"}, "fusion_lon": 0.0, "lat": 38.9669925, "bike_id": "e3dee8ef9521207dbe084884794b0afc", "type": "electric_bike", "is_reserved": 0, "lon": -77.028288}, {"fusion_lat": 0.0, "name": "f8f0c3b099ffb43092e515b7ca995f95", "is_disabled": 0, "rental_uris": {"android": "https://dc.lft.to/lastmile_qr_scan", "ios": "https://dc.lft.to/lastmile_qr_scan"}, "fusion_lon": 0.0, "lat": 38.90388633333333, "bike_id": "f8f0c3b099ffb43092e515b7ca995f95", "type": "electric_scooter", "is_reserved": 0, "lon": -77.01640016666667}, {"fusion_lat": 0.0, "name": "0a370a2ee2bb4dbea0b4b9055bc78044", "is_disabled": 0, "rental_uris": {"android": "https://dc.lft.to/lastmile_qr_scan", "ios": "https://dc.lft.to/lastmile_qr_scan"}, "fusion_lon": 0.0, "lat": 38.900272666666666, "bike_id": "0a370a2ee2bb4dbea0b4b9055bc78044", "type": "electric_scooter", "is_reserved": 0, "lon": -77.01225383333333}, {"fusion_lat": 0.0, "name": "bddcf316948a0fde1ff2d2a8e1a5ec0f", "is_disabled": 0, "rental_uris": {"android": "https://dc.lft.to/lastmile_qr_scan", "ios": "https://dc.lft.to/lastmile_qr_scan"}, "fusion_lon": 0.0, "lat": 38.91322266666667, "bike_id": "bddcf316948a0fde1ff2d2a8e1a5ec0f", "type": "electric_scooter", "is_reserved": 0, "lon": -77.0317765}, {"fusion_lat": 0.0, "name": "c39944eb95305cea40d86e300e7ee2dd", "is_disabled": 0, "rental_uris": {"android": "https://dc.lft.to/lastmile_qr_scan", "ios": "https://dc.lft.to/lastmile_qr_scan"}, "fusion_lon": 0.0, "lat": 38.89764, "bike_id": "c39944eb95305cea40d86e300e7ee2dd", "type": "electric_scooter", "is_reserved": 0, "lon": -77.03294033333333}, {"fusion_lat": 0.0, "name": "4f2ab02c66ca468108ba123bc94f6883", "is_disabled": 0, "rental_uris": {"android": "https://dc.lft.to/lastmile_qr_scan", "ios": "https://dc.lft.to/lastmile_qr_scan"}, "fusion_lon": 0.0, "lat": 38.90468933333333, "bike_id": "4f2ab02c66ca468108ba123bc94f6883", "type": "electric_scooter", "is_reserved": 0, "lon": -77.0531135}, {"fusion_lat": 0.0, "name": "02cf9aeeda00ed5602790ea60ae43e57", "is_disabled": 0, "rental_uris": {"android": "https://dc.lft.to/lastmile_qr_scan", "ios": "https://dc.lft.to/lastmile_qr_scan"}, "fusion_lon": 0.0, "lat": 38.90859483333333, "bike_id": "02cf9aeeda00ed5602790ea60ae43e57", "type": "electric_scooter", "is_reserved": 0, "lon": -77.0271495}, {"fusion_lat": 0.0, "name": "1c73535dda50642887e8b704fa6c60ee", "is_disabled": 0, "rental_uris": {"android": "https://dc.lft.to/lastmile_qr_scan", "ios": "https://dc.lft.to/lastmile_qr_scan"}, "fusion_lon": 0.0, "lat": 38.892379, "bike_id": "1c73535dda50642887e8b704fa6c60ee", "type": "electric_scooter", "is_reserved": 0, "lon": -77.02382366666667}, {"fusion_lat": 0.0, "name": "a444a9d1457843fc17007cad6c0d3783", "is_disabled": 0, "rental_uris": {"android": "https://dc.lft.to/lastmile_qr_scan", "ios": "https://dc.lft.to/lastmile_qr_scan"}, "fusion_lon": 0.0, "lat": 38.92073933333333, "bike_id": "a444a9d1457843fc17007cad6c0d3783", "type": "electric_scooter", "is_reserved": 0, "lon": -77.02218516666667}, {"fusion_lat": 0.0, "name": "66468a61d98def3cef3375a851dc51aa", "is_disabled": 0, "rental_uris": {"android": "https://dc.lft.to/lastmile_qr_scan", "ios": "https://dc.lft.to/lastmile_qr_scan"}, "fusion_lon": 0.0, "lat": 38.90969883333333, "bike_id": "66468a61d98def3cef3375a851dc51aa", "type": "electric_scooter", "is_reserved": 0, "lon": -77.04237616666667}, {"fusion_lat": 0.0, "name": "119175fa1123a72ed5bb02ab9a3c052f", "is_disabled": 0, "rental_uris": {"android": "https://dc.lft.to/lastmile_qr_scan", "ios": "https://dc.lft.to/lastmile_qr_scan"}, "fusion_lon": 0.0, "lat": 38.939171, "bike_id": "119175fa1123a72ed5bb02ab9a3c052f", "type": "electric_scooter", "is_reserved": 0, "lon": -77.02474483333333}, {"fusion_lat": 0.0, "name": "9a3e12bc1276184e2afbb5cf367d5fbd", "is_disabled": 0, "rental_uris": {"android": "https://dc.lft.to/lastmile_qr_scan", "ios": "https://dc.lft.to/lastmile_qr_scan"}, "fusion_lon": 0.0, "lat": 38.920671, "bike_id": "9a3e12bc1276184e2afbb5cf367d5fbd", "type": "electric_scooter", "is_reserved": 0, "lon": -77.01479016666667}, {"fusion_lat": 0.0, "name": "14bdd0256912ebf196f45ee9dfdce5d7", "is_disabled": 0, "rental_uris": {"android": "https://dc.lft.to/lastmile_qr_scan", "ios": "https://dc.lft.to/lastmile_qr_scan"}, "fusion_lon": 0.0, "lat": 38.8767895, "bike_id": "14bdd0256912ebf196f45ee9dfdce5d7", "type": "electric_scooter", "is_reserved": 0, "lon": -77.00352266666667}, {"fusion_lat": 0.0, "name": "990254e3f41e2e36809ec435276c3068", "is_disabled": 0, "rental_uris": {"android": "https://dc.lft.to/lastmile_qr_scan", "ios": "https://dc.lft.to/lastmile_qr_scan"}, "fusion_lon": 0.0, "lat": 38.873784666666666, "bike_id": "990254e3f41e2e36809ec435276c3068", "type": "electric_scooter", "is_reserved": 0, "lon": -77.00122633333334}, {"fusion_lat": 0.0, "name": "2e047229c10e3960a1bf5e7058a4c1ff", "is_disabled": 0, "rental_uris": {"android": "https://dc.lft.to/lastmile_qr_scan", "ios": "https://dc.lft.to/lastmile_qr_scan"}, "fusion_lon": 0.0, "lat": 38.846116333333335, "bike_id": "2e047229c10e3960a1bf5e7058a4c1ff", "type": "electric_bike", "is_reserved": 0, "lon": -76.9691265}, {"fusion_lat": 0.0, "name": "37fad6cf107c82b07fd6370b91742efc", "is_disabled": 0, "rental_uris": {"android": "https://dc.lft.to/lastmile_qr_scan", "ios": "https://dc.lft.to/lastmile_qr_scan"}, "fusion_lon": 0.0, "lat": 38.898534166666664, "bike_id": "37fad6cf107c82b07fd6370b91742efc", "type": "electric_scooter", "is_reserved": 0, "lon": -77.02170433333333}, {"fusion_lat": 0.0, "name": "81e2c64f4816964194942c081ca145d6", "is_disabled": 0, "rental_uris": {"android": "https://dc.lft.to/lastmile_qr_scan", "ios": "https://dc.lft.to/lastmile_qr_scan"}, "fusion_lon": 0.0, "lat": 38.941913, "bike_id": "81e2c64f4816964194942c081ca145d6", "type": "electric_scooter", "is_reserved": 0, "lon": -77.04116816666667}, {"fusion_lat": 0.0, "name": "9b67a4c408de621823df19e50513bd21", "is_disabled": 0, "rental_uris": {"android": "https://dc.lft.to/lastmile_qr_scan", "ios": "https://dc.lft.to/lastmile_qr_scan"}, "fusion_lon": 0.0, "lat": 38.9318665, "bike_id": "9b67a4c408de621823df19e50513bd21", "type": "electric_scooter", "is_reserved": 0, "lon": -77.03842666666667}, {"fusion_lat": 0.0, "name": "2ccacd061a62ea8dfb4e556b0bd6bd99", "is_disabled": 0, "rental_uris": {"android": "https://dc.lft.to/lastmile_qr_scan", "ios": "https://dc.lft.to/lastmile_qr_scan"}, "fusion_lon": 0.0, "lat": 38.91400566666667, "bike_id": "2ccacd061a62ea8dfb4e556b0bd6bd99", "type": "electric_scooter", "is_reserved": 0, "lon": -77.0320895}, {"fusion_lat": 0.0, "name": "887172c1325f15f33b6c3c0be37287f5", "is_disabled": 0, "rental_uris": {"android": "https://dc.lft.to/lastmile_qr_scan", "ios": "https://dc.lft.to/lastmile_qr_scan"}, "fusion_lon": 0.0, "lat": 38.920660166666664, "bike_id": "887172c1325f15f33b6c3c0be37287f5", "type": "electric_scooter", "is_reserved": 0, "lon": -77.02301983333334}, {"fusion_lat": 0.0, "name": "63bbf312abbcbb74cd468e5dbc77035b", "is_disabled": 0, "rental_uris": {"android": "https://dc.lft.to/lastmile_qr_scan", "ios": "https://dc.lft.to/lastmile_qr_scan"}, "fusion_lon": 0.0, "lat": 38.92357766666667, "bike_id": "63bbf312abbcbb74cd468e5dbc77035b", "type": "electric_scooter", "is_reserved": 0, "lon": -77.07305633333333}, {"fusion_lat": 0.0, "name": "2df26d5e73783222690b78db53b8d574", "is_disabled": 0, "rental_uris": {"android": "https://dc.lft.to/lastmile_qr_scan", "ios": "https://dc.lft.to/lastmile_qr_scan"}, "fusion_lon": 0.0, "lat": 38.90270483333333, "bike_id": "2df26d5e73783222690b78db53b8d574", "type": "electric_scooter", "is_reserved": 0, "lon": -77.05318783333334}, {"fusion_lat": 0.0, "name": "e60dcfb19e6b45b027c2703259540ffe", "is_disabled": 0, "rental_uris": {"android": "https://dc.lft.to/lastmile_qr_scan", "ios": "https://dc.lft.to/lastmile_qr_scan"}, "fusion_lon": 0.0, "lat": 38.938439833333334, "bike_id": "e60dcfb19e6b45b027c2703259540ffe", "type": "electric_scooter", "is_reserved": 0, "lon": -77.02452333333333}, {"fusion_lat": 0.0, "name": "9204ea8f75d151e1814a8d40117de989", "is_disabled": 0, "rental_uris": {"android": "https://dc.lft.to/lastmile_qr_scan", "ios": "https://dc.lft.to/lastmile_qr_scan"}, "fusion_lon": 0.0, "lat": 38.914693, "bike_id": "9204ea8f75d151e1814a8d40117de989", "type": "electric_scooter", "is_reserved": 0, "lon": -77.03834516666667}, {"fusion_lat": 0.0, "name": "5d66947997b4889fbbe9a2aeac0e8c5c", "is_disabled": 0, "rental_uris": {"android": "https://dc.lft.to/lastmile_qr_scan", "ios": "https://dc.lft.to/lastmile_qr_scan"}, "fusion_lon": 0.0, "lat": 38.891984, "bike_id": "5d66947997b4889fbbe9a2aeac0e8c5c", "type": "electric_scooter", "is_reserved": 0, "lon": -77.0221965}, {"fusion_lat": 0.0, "name": "bc2e0b216a0920f9bc0d6c3709c57858", "is_disabled": 0, "rental_uris": {"android": "https://dc.lft.to/lastmile_qr_scan", "ios": "https://dc.lft.to/lastmile_qr_scan"}, "fusion_lon": 0.0, "lat": 38.91133816666667, "bike_id": "bc2e0b216a0920f9bc0d6c3709c57858", "type": "electric_scooter", "is_reserved": 0, "lon": -77.03833333333333}, {"fusion_lat": 0.0, "name": "9cc1489d25df29c90ee32ed80058a3a3", "is_disabled": 0, "rental_uris": {"android": "https://dc.lft.to/lastmile_qr_scan", "ios": "https://dc.lft.to/lastmile_qr_scan"}, "fusion_lon": 0.0, "lat": 38.9049285, "bike_id": "9cc1489d25df29c90ee32ed80058a3a3", "type": "electric_scooter", "is_reserved": 0, "lon": -77.02708866666667}, {"fusion_lat": 0.0, "name": "9992724f95f6b30bdea1268a6273f4d6", "is_disabled": 0, "rental_uris": {"android": "https://dc.lft.to/lastmile_qr_scan", "ios": "https://dc.lft.to/lastmile_qr_scan"}, "fusion_lon": 0.0, "lat": 38.949792333333335, "bike_id": "9992724f95f6b30bdea1268a6273f4d6", "type": "electric_scooter", "is_reserved": 0, "lon": -77.02447483333333}, {"fusion_lat": 0.0, "name": "da0e8a2ec78de246266504dc84dc048b", "is_disabled": 0, "rental_uris": {"android": "https://dc.lft.to/lastmile_qr_scan", "ios": "https://dc.lft.to/lastmile_qr_scan"}, "fusion_lon": 0.0, "lat": 38.980549833333335, "bike_id": "da0e8a2ec78de246266504dc84dc048b", "type": "electric_bike", "is_reserved": 0, "lon": -76.957938}, {"fusion_lat": 0.0, "name": "3d46f13795f73b3df2e4ea3a10c8f731", "is_disabled": 0, "rental_uris": {"android": "https://dc.lft.to/lastmile_qr_scan", "ios": "https://dc.lft.to/lastmile_qr_scan"}, "fusion_lon": 0.0, "lat": 38.91842316666666, "bike_id": "3d46f13795f73b3df2e4ea3a10c8f731", "type": "electric_scooter", "is_reserved": 0, "lon": -77.0351575}, {"fusion_lat": 0.0, "name": "92fef50f7a8e783ac63fb0aa5bc80e30", "is_disabled": 0, "rental_uris": {"android": "https://dc.lft.to/lastmile_qr_scan", "ios": "https://dc.lft.to/lastmile_qr_scan"}, "fusion_lon": 0.0, "lat": 38.92531266666667, "bike_id": "92fef50f7a8e783ac63fb0aa5bc80e30", "type": "electric_scooter", "is_reserved": 0, "lon": -77.052578}, {"fusion_lat": 0.0, "name": "f7add9fa04e68ebe71c4441385e5ab45", "is_disabled": 0, "rental_uris": {"android": "https://dc.lft.to/lastmile_qr_scan", "ios": "https://dc.lft.to/lastmile_qr_scan"}, "fusion_lon": 0.0, "lat": 38.920794, "bike_id": "f7add9fa04e68ebe71c4441385e5ab45", "type": "electric_scooter", "is_reserved": 0, "lon": -77.02410833333333}, {"fusion_lat": 0.0, "name": "d4480c043e3040d6b2a456a2c1751acd", "is_disabled": 0, "rental_uris": {"android": "https://dc.lft.to/lastmile_qr_scan", "ios": "https://dc.lft.to/lastmile_qr_scan"}, "fusion_lon": 0.0, "lat": 38.916941666666666, "bike_id": "d4480c043e3040d6b2a456a2c1751acd", "type": "electric_scooter", "is_reserved": 0, "lon": -77.04268066666667}, {"fusion_lat": 0.0, "name": "83fca068a13cff7ce3d43042ea5c5c3b", "is_disabled": 0, "rental_uris": {"android": "https://dc.lft.to/lastmile_qr_scan", "ios": "https://dc.lft.to/lastmile_qr_scan"}, "fusion_lon": 0.0, "lat": 38.86005983333333, "bike_id": "83fca068a13cff7ce3d43042ea5c5c3b", "type": "electric_scooter", "is_reserved": 0, "lon": -76.9852325}, {"fusion_lat": 0.0, "name": "fd0d553bcb77fc25398bc9af484278b7", "is_disabled": 0, "rental_uris": {"android": "https://dc.lft.to/lastmile_qr_scan", "ios": "https://dc.lft.to/lastmile_qr_scan"}, "fusion_lon": 0.0, "lat": 38.92667333333333, "bike_id": "fd0d553bcb77fc25398bc9af484278b7", "type": "electric_scooter", "is_reserved": 0, "lon": -77.03030066666666}, {"fusion_lat": 0.0, "name": "c73dd7102e3d117da37fc2589fb6dc74", "is_disabled": 0, "rental_uris": {"android": "https://dc.lft.to/lastmile_qr_scan", "ios": "https://dc.lft.to/lastmile_qr_scan"}, "fusion_lon": 0.0, "lat": 38.90466683333333, "bike_id": "c73dd7102e3d117da37fc2589fb6dc74", "type": "electric_scooter", "is_reserved": 0, "lon": -77.02827666666667}, {"fusion_lat": 0.0, "name": "8e472e0802bc3128f88c01cdc071f6c8", "is_disabled": 0, "rental_uris": {"android": "https://dc.lft.to/lastmile_qr_scan", "ios": "https://dc.lft.to/lastmile_qr_scan"}, "fusion_lon": 0.0, "lat": 38.895798666666664, "bike_id": "8e472e0802bc3128f88c01cdc071f6c8", "type": "electric_scooter", "is_reserved": 0, "lon": -76.98319166666667}, {"fusion_lat": 0.0, "name": "c5e93f4c69ec6eda1b92b80d9747740e", "is_disabled": 0, "rental_uris": {"android": "https://dc.lft.to/lastmile_qr_scan", "ios": "https://dc.lft.to/lastmile_qr_scan"}, "fusion_lon": 0.0, "lat": 38.959341, "bike_id": "c5e93f4c69ec6eda1b92b80d9747740e", "type": "electric_bike", "is_reserved": 0, "lon": -76.92847233333333}, {"fusion_lat": 0.0, "name": "a0441052597b24bfa941cfb9824dd82b", "is_disabled": 0, "rental_uris": {"android": "https://dc.lft.to/lastmile_qr_scan", "ios": "https://dc.lft.to/lastmile_qr_scan"}, "fusion_lon": 0.0, "lat": 38.887727, "bike_id": "a0441052597b24bfa941cfb9824dd82b", "type": "electric_scooter", "is_reserved": 0, "lon": -76.99159833333333}, {"fusion_lat": 0.0, "name": "25692d6ae7c4a8c7d288b8a33053cc3a", "is_disabled": 0, "rental_uris": {"android": "https://dc.lft.to/lastmile_qr_scan", "ios": "https://dc.lft.to/lastmile_qr_scan"}, "fusion_lon": 0.0, "lat": 38.92069516666667, "bike_id": "25692d6ae7c4a8c7d288b8a33053cc3a", "type": "electric_scooter", "is_reserved": 0, "lon": -77.04381183333334}, {"fusion_lat": 0.0, "name": "04d1069654b19c4e5d26788662a09e9b", "is_disabled": 0, "rental_uris": {"android": "https://dc.lft.to/lastmile_qr_scan", "ios": "https://dc.lft.to/lastmile_qr_scan"}, "fusion_lon": 0.0, "lat": 38.91816983333333, "bike_id": "04d1069654b19c4e5d26788662a09e9b", "type": "electric_scooter", "is_reserved": 0, "lon": -77.03254166666666}, {"fusion_lat": 0.0, "name": "eff27657dad2ae053b049f88cb5586dc", "is_disabled": 0, "rental_uris": {"android": "https://dc.lft.to/lastmile_qr_scan", "ios": "https://dc.lft.to/lastmile_qr_scan"}, "fusion_lon": 0.0, "lat": 38.91610433333334, "bike_id": "eff27657dad2ae053b049f88cb5586dc", "type": "electric_scooter", "is_reserved": 0, "lon": -77.0455195}, {"fusion_lat": 0.0, "name": "7928b2aa25d4876bba5ac0624e7dcf7d", "is_disabled": 0, "rental_uris": {"android": "https://dc.lft.to/lastmile_qr_scan", "ios": "https://dc.lft.to/lastmile_qr_scan"}, "fusion_lon": 0.0, "lat": 38.89744433333333, "bike_id": "7928b2aa25d4876bba5ac0624e7dcf7d", "type": "electric_scooter", "is_reserved": 0, "lon": -77.04539966666667}, {"fusion_lat": 0.0, "name": "11dae8657f4b884063130630b12f18d4", "is_disabled": 0, "rental_uris": {"android": "https://dc.lft.to/lastmile_qr_scan", "ios": "https://dc.lft.to/lastmile_qr_scan"}, "fusion_lon": 0.0, "lat": 38.903766, "bike_id": "11dae8657f4b884063130630b12f18d4", "type": "electric_scooter", "is_reserved": 0, "lon": -77.04033116666666}, {"fusion_lat": 0.0, "name": "1d522b26ac019fc803f25f23fc8e0fda", "is_disabled": 0, "rental_uris": {"android": "https://dc.lft.to/lastmile_qr_scan", "ios": "https://dc.lft.to/lastmile_qr_scan"}, "fusion_lon": 0.0, "lat": 38.9126515, "bike_id": "1d522b26ac019fc803f25f23fc8e0fda", "type": "electric_scooter", "is_reserved": 0, "lon": -77.03301383333333}, {"fusion_lat": 0.0, "name": "c675041b9fd5d93f71e6627f30814f36", "is_disabled": 0, "rental_uris": {"android": "https://dc.lft.to/lastmile_qr_scan", "ios": "https://dc.lft.to/lastmile_qr_scan"}, "fusion_lon": 0.0, "lat": 38.901095166666664, "bike_id": "c675041b9fd5d93f71e6627f30814f36", "type": "electric_scooter", "is_reserved": 0, "lon": -76.97426283333333}, {"fusion_lat": 0.0, "name": "61c9ca4fed11d0cb7277be8396fb1a31", "is_disabled": 0, "rental_uris": {"android": "https://dc.lft.to/lastmile_qr_scan", "ios": "https://dc.lft.to/lastmile_qr_scan"}, "fusion_lon": 0.0, "lat": 38.89684033333333, "bike_id": "61c9ca4fed11d0cb7277be8396fb1a31", "type": "electric_scooter", "is_reserved": 0, "lon": -77.01181466666667}, {"fusion_lat": 0.0, "name": "c1d23de928be5a7d93d4690073b45223", "is_disabled": 0, "rental_uris": {"android": "https://dc.lft.to/lastmile_qr_scan", "ios": "https://dc.lft.to/lastmile_qr_scan"}, "fusion_lon": 0.0, "lat": 38.9105615, "bike_id": "c1d23de928be5a7d93d4690073b45223", "type": "electric_scooter", "is_reserved": 0, "lon": -77.04372333333333}, {"fusion_lat": 0.0, "name": "198dc4dab218bda8fae0577f73220174", "is_disabled": 0, "rental_uris": {"android": "https://dc.lft.to/lastmile_qr_scan", "ios": "https://dc.lft.to/lastmile_qr_scan"}, "fusion_lon": 0.0, "lat": 38.905680333333336, "bike_id": "198dc4dab218bda8fae0577f73220174", "type": "electric_scooter", "is_reserved": 0, "lon": -77.0416545}, {"fusion_lat": 0.0, "name": "1d95a5ddb2a409bbe8f53b44ecc08ac3", "is_disabled": 0, "rental_uris": {"android": "https://dc.lft.to/lastmile_qr_scan", "ios": "https://dc.lft.to/lastmile_qr_scan"}, "fusion_lon": 0.0, "lat": 38.922989, "bike_id": "1d95a5ddb2a409bbe8f53b44ecc08ac3", "type": "electric_scooter", "is_reserved": 0, "lon": -77.02330233333333}, {"fusion_lat": 0.0, "name": "5881f45e6b6f05e70fb8846790d6a63a", "is_disabled": 0, "rental_uris": {"android": "https://dc.lft.to/lastmile_qr_scan", "ios": "https://dc.lft.to/lastmile_qr_scan"}, "fusion_lon": 0.0, "lat": 38.91404166666667, "bike_id": "5881f45e6b6f05e70fb8846790d6a63a", "type": "electric_scooter", "is_reserved": 0, "lon": -77.01557466666667}, {"fusion_lat": 0.0, "name": "f2b0a6b22c0ecaa70ce9505b113904fc", "is_disabled": 0, "rental_uris": {"android": "https://dc.lft.to/lastmile_qr_scan", "ios": "https://dc.lft.to/lastmile_qr_scan"}, "fusion_lon": 0.0, "lat": 38.84939766666667, "bike_id": "f2b0a6b22c0ecaa70ce9505b113904fc", "type": "electric_bike", "is_reserved": 0, "lon": -77.07773133333333}, {"fusion_lat": 0.0, "name": "669e4bd511cd2ca8df8fc2de9276b24f", "is_disabled": 0, "rental_uris": {"android": "https://dc.lft.to/lastmile_qr_scan", "ios": "https://dc.lft.to/lastmile_qr_scan"}, "fusion_lon": 0.0, "lat": 38.92019833333333, "bike_id": "669e4bd511cd2ca8df8fc2de9276b24f", "type": "electric_scooter", "is_reserved": 0, "lon": -77.08192233333334}, {"fusion_lat": 0.0, "name": "dc87b550ab2bd410c6bfc64f29abff8f", "is_disabled": 0, "rental_uris": {"android": "https://dc.lft.to/lastmile_qr_scan", "ios": "https://dc.lft.to/lastmile_qr_scan"}, "fusion_lon": 0.0, "lat": 38.9206865, "bike_id": "dc87b550ab2bd410c6bfc64f29abff8f", "type": "electric_scooter", "is_reserved": 0, "lon": -77.03208066666667}, {"fusion_lat": 0.0, "name": "165c413c1acb0b042eb5cb36e831ef93", "is_disabled": 0, "rental_uris": {"android": "https://dc.lft.to/lastmile_qr_scan", "ios": "https://dc.lft.to/lastmile_qr_scan"}, "fusion_lon": 0.0, "lat": 38.9170345, "bike_id": "165c413c1acb0b042eb5cb36e831ef93", "type": "electric_scooter", "is_reserved": 0, "lon": -77.0243505}, {"fusion_lat": 0.0, "name": "288d2960fcd45832908c903c54934161", "is_disabled": 0, "rental_uris": {"android": "https://dc.lft.to/lastmile_qr_scan", "ios": "https://dc.lft.to/lastmile_qr_scan"}, "fusion_lon": 0.0, "lat": 38.9644085, "bike_id": "288d2960fcd45832908c903c54934161", "type": "electric_bike", "is_reserved": 0, "lon": -77.02069833333333}, {"fusion_lat": 0.0, "name": "4c97931be573a9127e21281a9d4bf7c7", "is_disabled": 0, "rental_uris": {"android": "https://dc.lft.to/lastmile_qr_scan", "ios": "https://dc.lft.to/lastmile_qr_scan"}, "fusion_lon": 0.0, "lat": 38.918102833333336, "bike_id": "4c97931be573a9127e21281a9d4bf7c7", "type": "electric_scooter", "is_reserved": 0, "lon": -77.026883}, {"fusion_lat": 0.0, "name": "63834645d76673aa5644e7b4d8fcec04", "is_disabled": 0, "rental_uris": {"android": "https://dc.lft.to/lastmile_qr_scan", "ios": "https://dc.lft.to/lastmile_qr_scan"}, "fusion_lon": 0.0, "lat": 38.91988216666667, "bike_id": "63834645d76673aa5644e7b4d8fcec04", "type": "electric_scooter", "is_reserved": 0, "lon": -77.03189116666667}, {"fusion_lat": 0.0, "name": "fc552dab084e38a013e57a12bdb9444d", "is_disabled": 0, "rental_uris": {"android": "https://dc.lft.to/lastmile_qr_scan", "ios": "https://dc.lft.to/lastmile_qr_scan"}, "fusion_lon": 0.0, "lat": 38.933561166666664, "bike_id": "fc552dab084e38a013e57a12bdb9444d", "type": "electric_scooter", "is_reserved": 0, "lon": -77.0736125}, {"fusion_lat": 0.0, "name": "5479a62d776000965fb2303eeab15dfa", "is_disabled": 0, "rental_uris": {"android": "https://dc.lft.to/lastmile_qr_scan", "ios": "https://dc.lft.to/lastmile_qr_scan"}, "fusion_lon": 0.0, "lat": 38.91555783333333, "bike_id": "5479a62d776000965fb2303eeab15dfa", "type": "electric_scooter", "is_reserved": 0, "lon": -77.04154533333333}, {"fusion_lat": 0.0, "name": "c5424659e838cf52627a65f97fb285b9", "is_disabled": 0, "rental_uris": {"android": "https://dc.lft.to/lastmile_qr_scan", "ios": "https://dc.lft.to/lastmile_qr_scan"}, "fusion_lon": 0.0, "lat": 38.91713416666666, "bike_id": "c5424659e838cf52627a65f97fb285b9", "type": "electric_scooter", "is_reserved": 0, "lon": -77.02620116666667}, {"fusion_lat": 0.0, "name": "ffe0b4232cd0fbc130a3392eb26b672c", "is_disabled": 0, "rental_uris": {"android": "https://dc.lft.to/lastmile_qr_scan", "ios": "https://dc.lft.to/lastmile_qr_scan"}, "fusion_lon": 0.0, "lat": 38.91550433333333, "bike_id": "ffe0b4232cd0fbc130a3392eb26b672c", "type": "electric_scooter", "is_reserved": 0, "lon": -77.04161783333333}, {"fusion_lat": 0.0, "name": "31694b4e972c862d5539a6e7599ad09b", "is_disabled": 0, "rental_uris": {"android": "https://dc.lft.to/lastmile_qr_scan", "ios": "https://dc.lft.to/lastmile_qr_scan"}, "fusion_lon": 0.0, "lat": 38.918405, "bike_id": "31694b4e972c862d5539a6e7599ad09b", "type": "electric_scooter", "is_reserved": 0, "lon": -77.016156}, {"fusion_lat": 0.0, "name": "d5b853e1f3aeddbd8a89323d3f305ae6", "is_disabled": 0, "rental_uris": {"android": "https://dc.lft.to/lastmile_qr_scan", "ios": "https://dc.lft.to/lastmile_qr_scan"}, "fusion_lon": 0.0, "lat": 38.917143833333334, "bike_id": "d5b853e1f3aeddbd8a89323d3f305ae6", "type": "electric_scooter", "is_reserved": 0, "lon": -77.02598383333333}, {"fusion_lat": 0.0, "name": "61c8e4e4f0814b6cd488e31db2d449a1", "is_disabled": 0, "rental_uris": {"android": "https://dc.lft.to/lastmile_qr_scan", "ios": "https://dc.lft.to/lastmile_qr_scan"}, "fusion_lon": 0.0, "lat": 38.91634583333333, "bike_id": "61c8e4e4f0814b6cd488e31db2d449a1", "type": "electric_scooter", "is_reserved": 0, "lon": -77.03198283333333}, {"fusion_lat": 0.0, "name": "86b24ea0ccf5b2fb03ebfee89e6bb9f0", "is_disabled": 0, "rental_uris": {"android": "https://dc.lft.to/lastmile_qr_scan", "ios": "https://dc.lft.to/lastmile_qr_scan"}, "fusion_lon": 0.0, "lat": 38.911066, "bike_id": "86b24ea0ccf5b2fb03ebfee89e6bb9f0", "type": "electric_scooter", "is_reserved": 0, "lon": -77.04203483333333}, {"fusion_lat": 0.0, "name": "8f306b6e668a5ad6ca620c0f762eaf88", "is_disabled": 0, "rental_uris": {"android": "https://dc.lft.to/lastmile_qr_scan", "ios": "https://dc.lft.to/lastmile_qr_scan"}, "fusion_lon": 0.0, "lat": 38.90839833333333, "bike_id": "8f306b6e668a5ad6ca620c0f762eaf88", "type": "electric_scooter", "is_reserved": 0, "lon": -77.03300516666667}, {"fusion_lat": 0.0, "name": "87a9560497ca427b425d998107d91c5c", "is_disabled": 0, "rental_uris": {"android": "https://dc.lft.to/lastmile_qr_scan", "ios": "https://dc.lft.to/lastmile_qr_scan"}, "fusion_lon": 0.0, "lat": 38.92360083333333, "bike_id": "87a9560497ca427b425d998107d91c5c", "type": "electric_scooter", "is_reserved": 0, "lon": -77.05053916666667}, {"fusion_lat": 0.0, "name": "0cd2fe53f3fee9becbd7820331902073", "is_disabled": 0, "rental_uris": {"android": "https://dc.lft.to/lastmile_qr_scan", "ios": "https://dc.lft.to/lastmile_qr_scan"}, "fusion_lon": 0.0, "lat": 38.89960283333333, "bike_id": "0cd2fe53f3fee9becbd7820331902073", "type": "electric_scooter", "is_reserved": 0, "lon": -77.02719866666666}, {"fusion_lat": 0.0, "name": "d0da2dc5313761250890b2ad14e656e1", "is_disabled": 0, "rental_uris": {"android": "https://dc.lft.to/lastmile_qr_scan", "ios": "https://dc.lft.to/lastmile_qr_scan"}, "fusion_lon": 0.0, "lat": 38.89684833333333, "bike_id": "d0da2dc5313761250890b2ad14e656e1", "type": "electric_scooter", "is_reserved": 0, "lon": -76.93711166666667}, {"fusion_lat": 0.0, "name": "232f764121de8de96c508ee1af28b510", "is_disabled": 0, "rental_uris": {"android": "https://dc.lft.to/lastmile_qr_scan", "ios": "https://dc.lft.to/lastmile_qr_scan"}, "fusion_lon": 0.0, "lat": 38.9055825, "bike_id": "232f764121de8de96c508ee1af28b510", "type": "electric_scooter", "is_reserved": 0, "lon": -77.00257233333333}, {"fusion_lat": 0.0, "name": "75b210191dc602cb0785d9514f3f7138", "is_disabled": 0, "rental_uris": {"android": "https://dc.lft.to/lastmile_qr_scan", "ios": "https://dc.lft.to/lastmile_qr_scan"}, "fusion_lon": 0.0, "lat": 38.924087666666665, "bike_id": "75b210191dc602cb0785d9514f3f7138", "type": "electric_scooter", "is_reserved": 0, "lon": -77.05250166666667}, {"fusion_lat": 0.0, "name": "c82af547eaedc294e5958a6925ffd432", "is_disabled": 0, "rental_uris": {"android": "https://dc.lft.to/lastmile_qr_scan", "ios": "https://dc.lft.to/lastmile_qr_scan"}, "fusion_lon": 0.0, "lat": 38.95058433333333, "bike_id": "c82af547eaedc294e5958a6925ffd432", "type": "electric_scooter", "is_reserved": 0, "lon": -77.08028916666666}, {"fusion_lat": 0.0, "name": "f594c1c8bf050d60162fbb10d825b390", "is_disabled": 0, "rental_uris": {"android": "https://dc.lft.to/lastmile_qr_scan", "ios": "https://dc.lft.to/lastmile_qr_scan"}, "fusion_lon": 0.0, "lat": 38.875781333333336, "bike_id": "f594c1c8bf050d60162fbb10d825b390", "type": "electric_bike", "is_reserved": 0, "lon": -77.23408116666667}, {"fusion_lat": 0.0, "name": "91e524d463d2f4bfe1dd49db97b4adea", "is_disabled": 0, "rental_uris": {"android": "https://dc.lft.to/lastmile_qr_scan", "ios": "https://dc.lft.to/lastmile_qr_scan"}, "fusion_lon": 0.0, "lat": 38.899140833333334, "bike_id": "91e524d463d2f4bfe1dd49db97b4adea", "type": "electric_scooter", "is_reserved": 0, "lon": -76.94589866666666}, {"fusion_lat": 0.0, "name": "0124c2060220477d3475c59dce548e45", "is_disabled": 0, "rental_uris": {"android": "https://dc.lft.to/lastmile_qr_scan", "ios": "https://dc.lft.to/lastmile_qr_scan"}, "fusion_lon": 0.0, "lat": 38.91512216666667, "bike_id": "0124c2060220477d3475c59dce548e45", "type": "electric_scooter", "is_reserved": 0, "lon": -77.01906366666667}, {"fusion_lat": 0.0, "name": "16a5d6f70cfe7b023eabb361539915ad", "is_disabled": 0, "rental_uris": {"android": "https://dc.lft.to/lastmile_qr_scan", "ios": "https://dc.lft.to/lastmile_qr_scan"}, "fusion_lon": 0.0, "lat": 38.905807833333334, "bike_id": "16a5d6f70cfe7b023eabb361539915ad", "type": "electric_scooter", "is_reserved": 0, "lon": -77.009123}, {"fusion_lat": 0.0, "name": "68e4c33802dad34a64eca21db4f64938", "is_disabled": 0, "rental_uris": {"android": "https://dc.lft.to/lastmile_qr_scan", "ios": "https://dc.lft.to/lastmile_qr_scan"}, "fusion_lon": 0.0, "lat": 38.9353985, "bike_id": "68e4c33802dad34a64eca21db4f64938", "type": "electric_scooter", "is_reserved": 0, "lon": -77.05748866666667}, {"fusion_lat": 0.0, "name": "a1c2de55893f96a1735a3e7b6e766451", "is_disabled": 0, "rental_uris": {"android": "https://dc.lft.to/lastmile_qr_scan", "ios": "https://dc.lft.to/lastmile_qr_scan"}, "fusion_lon": 0.0, "lat": 38.9285295, "bike_id": "a1c2de55893f96a1735a3e7b6e766451", "type": "electric_scooter", "is_reserved": 0, "lon": -77.01407}, {"fusion_lat": 0.0, "name": "11e6039560bc7679d376c45b34490a1c", "is_disabled": 0, "rental_uris": {"android": "https://dc.lft.to/lastmile_qr_scan", "ios": "https://dc.lft.to/lastmile_qr_scan"}, "fusion_lon": 0.0, "lat": 38.930762333333334, "bike_id": "11e6039560bc7679d376c45b34490a1c", "type": "electric_scooter", "is_reserved": 0, "lon": -77.0776075}, {"fusion_lat": 0.0, "name": "0553449e0e96a5dfdd5b44040e1569a3", "is_disabled": 0, "rental_uris": {"android": "https://dc.lft.to/lastmile_qr_scan", "ios": "https://dc.lft.to/lastmile_qr_scan"}, "fusion_lon": 0.0, "lat": 38.91482166666667, "bike_id": "0553449e0e96a5dfdd5b44040e1569a3", "type": "electric_scooter", "is_reserved": 0, "lon": -77.04608966666666}, {"fusion_lat": 0.0, "name": "953c581adecdbe110e64c5c31a5ed0e6", "is_disabled": 0, "rental_uris": {"android": "https://dc.lft.to/lastmile_qr_scan", "ios": "https://dc.lft.to/lastmile_qr_scan"}, "fusion_lon": 0.0, "lat": 38.88732233333333, "bike_id": "953c581adecdbe110e64c5c31a5ed0e6", "type": "electric_scooter", "is_reserved": 0, "lon": -77.031778}, {"fusion_lat": 0.0, "name": "1c62f19172c3b5d1756ca26d0d302b55", "is_disabled": 0, "rental_uris": {"android": "https://dc.lft.to/lastmile_qr_scan", "ios": "https://dc.lft.to/lastmile_qr_scan"}, "fusion_lon": 0.0, "lat": 38.9540995, "bike_id": "1c62f19172c3b5d1756ca26d0d302b55", "type": "electric_scooter", "is_reserved": 0, "lon": -77.02786683333333}, {"fusion_lat": 0.0, "name": "87078374351af56c96c035466d875a6e", "is_disabled": 0, "rental_uris": {"android": "https://dc.lft.to/lastmile_qr_scan", "ios": "https://dc.lft.to/lastmile_qr_scan"}, "fusion_lon": 0.0, "lat": 38.8601445, "bike_id": "87078374351af56c96c035466d875a6e", "type": "electric_bike", "is_reserved": 0, "lon": -77.12811783333333}, {"fusion_lat": 0.0, "name": "3edcfab370ee7caae34be3898e5aadd9", "is_disabled": 0, "rental_uris": {"android": "https://dc.lft.to/lastmile_qr_scan", "ios": "https://dc.lft.to/lastmile_qr_scan"}, "fusion_lon": 0.0, "lat": 38.86670616666667, "bike_id": "3edcfab370ee7caae34be3898e5aadd9", "type": "electric_scooter", "is_reserved": 0, "lon": -76.9890705}, {"fusion_lat": 0.0, "name": "906f845fefaa6ac9b82834ec517c802b", "is_disabled": 0, "rental_uris": {"android": "https://dc.lft.to/lastmile_qr_scan", "ios": "https://dc.lft.to/lastmile_qr_scan"}, "fusion_lon": 0.0, "lat": 38.931826, "bike_id": "906f845fefaa6ac9b82834ec517c802b", "type": "electric_scooter", "is_reserved": 0, "lon": -77.0316045}, {"fusion_lat": 0.0, "name": "922062484e9bf6191b67a31e0b91c116", "is_disabled": 0, "rental_uris": {"android": "https://dc.lft.to/lastmile_qr_scan", "ios": "https://dc.lft.to/lastmile_qr_scan"}, "fusion_lon": 0.0, "lat": 38.876543, "bike_id": "922062484e9bf6191b67a31e0b91c116", "type": "electric_scooter", "is_reserved": 0, "lon": -77.00076983333334}, {"fusion_lat": 0.0, "name": "ff6c04aa0c3d8c7c7ae791e66990b2d3", "is_disabled": 0, "rental_uris": {"android": "https://dc.lft.to/lastmile_qr_scan", "ios": "https://dc.lft.to/lastmile_qr_scan"}, "fusion_lon": 0.0, "lat": 38.92068966666667, "bike_id": "ff6c04aa0c3d8c7c7ae791e66990b2d3", "type": "electric_scooter", "is_reserved": 0, "lon": -77.03810766666666}, {"fusion_lat": 0.0, "name": "3c77331ebdc21c619870b4f99ec7d0b5", "is_disabled": 0, "rental_uris": {"android": "https://dc.lft.to/lastmile_qr_scan", "ios": "https://dc.lft.to/lastmile_qr_scan"}, "fusion_lon": 0.0, "lat": 38.874562166666664, "bike_id": "3c77331ebdc21c619870b4f99ec7d0b5", "type": "electric_scooter", "is_reserved": 0, "lon": -77.00288916666666}, {"fusion_lat": 0.0, "name": "cb00bf898f6c7e3878cc2eac5e0a2073", "is_disabled": 0, "rental_uris": {"android": "https://dc.lft.to/lastmile_qr_scan", "ios": "https://dc.lft.to/lastmile_qr_scan"}, "fusion_lon": 0.0, "lat": 38.91729633333333, "bike_id": "cb00bf898f6c7e3878cc2eac5e0a2073", "type": "electric_scooter", "is_reserved": 0, "lon": -77.01913283333333}, {"fusion_lat": 0.0, "name": "7b4aae30d901dda9643c60fe5f5149a8", "is_disabled": 0, "rental_uris": {"android": "https://dc.lft.to/lastmile_qr_scan", "ios": "https://dc.lft.to/lastmile_qr_scan"}, "fusion_lon": 0.0, "lat": 38.90094716666667, "bike_id": "7b4aae30d901dda9643c60fe5f5149a8", "type": "electric_scooter", "is_reserved": 0, "lon": -77.04941966666667}, {"fusion_lat": 0.0, "name": "198be51e8b46f88f07b29d2031576311", "is_disabled": 0, "rental_uris": {"android": "https://dc.lft.to/lastmile_qr_scan", "ios": "https://dc.lft.to/lastmile_qr_scan"}, "fusion_lon": 0.0, "lat": 38.94824066666666, "bike_id": "198be51e8b46f88f07b29d2031576311", "type": "electric_scooter", "is_reserved": 0, "lon": -77.02485783333333}, {"fusion_lat": 0.0, "name": "839e92e7860c6364c60da737a1b638d1", "is_disabled": 0, "rental_uris": {"android": "https://dc.lft.to/lastmile_qr_scan", "ios": "https://dc.lft.to/lastmile_qr_scan"}, "fusion_lon": 0.0, "lat": 38.92651133333333, "bike_id": "839e92e7860c6364c60da737a1b638d1", "type": "electric_scooter", "is_reserved": 0, "lon": -77.03397066666666}, {"fusion_lat": 0.0, "name": "7dab5a1f33495960e8078aba3fa0b1f2", "is_disabled": 0, "rental_uris": {"android": "https://dc.lft.to/lastmile_qr_scan", "ios": "https://dc.lft.to/lastmile_qr_scan"}, "fusion_lon": 0.0, "lat": 38.92075783333333, "bike_id": "7dab5a1f33495960e8078aba3fa0b1f2", "type": "electric_scooter", "is_reserved": 0, "lon": -77.02313983333333}, {"fusion_lat": 0.0, "name": "80485af0846e3663e96bf3f20853ef3e", "is_disabled": 0, "rental_uris": {"android": "https://dc.lft.to/lastmile_qr_scan", "ios": "https://dc.lft.to/lastmile_qr_scan"}, "fusion_lon": 0.0, "lat": 38.918491, "bike_id": "80485af0846e3663e96bf3f20853ef3e", "type": "electric_scooter", "is_reserved": 0, "lon": -77.0243865}, {"fusion_lat": 0.0, "name": "84db3b73b787d177e80a8adb9b3d2a3c", "is_disabled": 0, "rental_uris": {"android": "https://dc.lft.to/lastmile_qr_scan", "ios": "https://dc.lft.to/lastmile_qr_scan"}, "fusion_lon": 0.0, "lat": 38.913457666666666, "bike_id": "84db3b73b787d177e80a8adb9b3d2a3c", "type": "electric_bike", "is_reserved": 0, "lon": -76.9890195}, {"fusion_lat": 0.0, "name": "18e5b25f575a00176360e0095e602de6", "is_disabled": 0, "rental_uris": {"android": "https://dc.lft.to/lastmile_qr_scan", "ios": "https://dc.lft.to/lastmile_qr_scan"}, "fusion_lon": 0.0, "lat": 38.917286, "bike_id": "18e5b25f575a00176360e0095e602de6", "type": "electric_scooter", "is_reserved": 0, "lon": -77.0239725}, {"fusion_lat": 0.0, "name": "7b1f2d3428bf47bf820776f8fed7e414", "is_disabled": 0, "rental_uris": {"android": "https://dc.lft.to/lastmile_qr_scan", "ios": "https://dc.lft.to/lastmile_qr_scan"}, "fusion_lon": 0.0, "lat": 38.873825833333335, "bike_id": "7b1f2d3428bf47bf820776f8fed7e414", "type": "electric_scooter", "is_reserved": 0, "lon": -77.00055416666666}, {"fusion_lat": 0.0, "name": "0e8d751bcca50efca12572cb06c075d4", "is_disabled": 0, "rental_uris": {"android": "https://dc.lft.to/lastmile_qr_scan", "ios": "https://dc.lft.to/lastmile_qr_scan"}, "fusion_lon": 0.0, "lat": 38.94257016666667, "bike_id": "0e8d751bcca50efca12572cb06c075d4", "type": "electric_scooter", "is_reserved": 0, "lon": -77.03628833333333}, {"fusion_lat": 0.0, "name": "cf9944481b0c19377a3163cd589e5a34", "is_disabled": 0, "rental_uris": {"android": "https://dc.lft.to/lastmile_qr_scan", "ios": "https://dc.lft.to/lastmile_qr_scan"}, "fusion_lon": 0.0, "lat": 38.909500666666666, "bike_id": "cf9944481b0c19377a3163cd589e5a34", "type": "electric_scooter", "is_reserved": 0, "lon": -77.03201566666667}, {"fusion_lat": 0.0, "name": "329a604c071a6ce67ae29aecdaf2e80f", "is_disabled": 0, "rental_uris": {"android": "https://dc.lft.to/lastmile_qr_scan", "ios": "https://dc.lft.to/lastmile_qr_scan"}, "fusion_lon": 0.0, "lat": 38.920291666666664, "bike_id": "329a604c071a6ce67ae29aecdaf2e80f", "type": "electric_scooter", "is_reserved": 0, "lon": -77.07152216666667}, {"fusion_lat": 0.0, "name": "12a8d02b81245b3460463df02166e990", "is_disabled": 0, "rental_uris": {"android": "https://dc.lft.to/lastmile_qr_scan", "ios": "https://dc.lft.to/lastmile_qr_scan"}, "fusion_lon": 0.0, "lat": 38.901394, "bike_id": "12a8d02b81245b3460463df02166e990", "type": "electric_scooter", "is_reserved": 0, "lon": -76.9912085}, {"fusion_lat": 0.0, "name": "bd6f1d011639a81648a65a3f911f36f4", "is_disabled": 0, "rental_uris": {"android": "https://dc.lft.to/lastmile_qr_scan", "ios": "https://dc.lft.to/lastmile_qr_scan"}, "fusion_lon": 0.0, "lat": 38.8876935, "bike_id": "bd6f1d011639a81648a65a3f911f36f4", "type": "electric_scooter", "is_reserved": 0, "lon": -77.02946516666667}, {"fusion_lat": 0.0, "name": "1a26acce3aa6455ecab52275e53edf47", "is_disabled": 0, "rental_uris": {"android": "https://dc.lft.to/lastmile_qr_scan", "ios": "https://dc.lft.to/lastmile_qr_scan"}, "fusion_lon": 0.0, "lat": 38.86668216666666, "bike_id": "1a26acce3aa6455ecab52275e53edf47", "type": "electric_scooter", "is_reserved": 0, "lon": -76.98901516666666}, {"fusion_lat": 0.0, "name": "726fbc169878e71d8fcc2e3308c13414", "is_disabled": 0, "rental_uris": {"android": "https://dc.lft.to/lastmile_qr_scan", "ios": "https://dc.lft.to/lastmile_qr_scan"}, "fusion_lon": 0.0, "lat": 38.903978333333335, "bike_id": "726fbc169878e71d8fcc2e3308c13414", "type": "electric_scooter", "is_reserved": 0, "lon": -77.048923}, {"fusion_lat": 0.0, "name": "7f12c6769f9983a4dfe7186714af19b3", "is_disabled": 0, "rental_uris": {"android": "https://dc.lft.to/lastmile_qr_scan", "ios": "https://dc.lft.to/lastmile_qr_scan"}, "fusion_lon": 0.0, "lat": 38.886511666666664, "bike_id": "7f12c6769f9983a4dfe7186714af19b3", "type": "electric_scooter", "is_reserved": 0, "lon": -77.00204866666667}, {"fusion_lat": 0.0, "name": "f8348f4a08785de902291eb8e941bea7", "is_disabled": 0, "rental_uris": {"android": "https://dc.lft.to/lastmile_qr_scan", "ios": "https://dc.lft.to/lastmile_qr_scan"}, "fusion_lon": 0.0, "lat": 38.900154, "bike_id": "f8348f4a08785de902291eb8e941bea7", "type": "electric_scooter", "is_reserved": 0, "lon": -76.98804966666667}, {"fusion_lat": 0.0, "name": "ea9ac4b681ceddca584a0e4d237cf2ea", "is_disabled": 0, "rental_uris": {"android": "https://dc.lft.to/lastmile_qr_scan", "ios": "https://dc.lft.to/lastmile_qr_scan"}, "fusion_lon": 0.0, "lat": 38.927926666666664, "bike_id": "ea9ac4b681ceddca584a0e4d237cf2ea", "type": "electric_scooter", "is_reserved": 0, "lon": -77.0245705}, {"fusion_lat": 0.0, "name": "4318c4a361d0c1ee2cbbbfae041d0f1b", "is_disabled": 0, "rental_uris": {"android": "https://dc.lft.to/lastmile_qr_scan", "ios": "https://dc.lft.to/lastmile_qr_scan"}, "fusion_lon": 0.0, "lat": 38.900947, "bike_id": "4318c4a361d0c1ee2cbbbfae041d0f1b", "type": "electric_scooter", "is_reserved": 0, "lon": -76.98322266666666}, {"fusion_lat": 0.0, "name": "e9d8d5086e3da94860feb82bc0224c11", "is_disabled": 0, "rental_uris": {"android": "https://dc.lft.to/lastmile_qr_scan", "ios": "https://dc.lft.to/lastmile_qr_scan"}, "fusion_lon": 0.0, "lat": 38.95604133333333, "bike_id": "e9d8d5086e3da94860feb82bc0224c11", "type": "electric_scooter", "is_reserved": 0, "lon": -77.03358583333333}, {"fusion_lat": 0.0, "name": "9637c5a69ab8159b68f766b1ef73bfab", "is_disabled": 0, "rental_uris": {"android": "https://dc.lft.to/lastmile_qr_scan", "ios": "https://dc.lft.to/lastmile_qr_scan"}, "fusion_lon": 0.0, "lat": 38.9156345, "bike_id": "9637c5a69ab8159b68f766b1ef73bfab", "type": "electric_scooter", "is_reserved": 0, "lon": -77.03135533333334}, {"fusion_lat": 0.0, "name": "e2712a7966bcce41e08390f24a7b3b9d", "is_disabled": 0, "rental_uris": {"android": "https://dc.lft.to/lastmile_qr_scan", "ios": "https://dc.lft.to/lastmile_qr_scan"}, "fusion_lon": 0.0, "lat": 38.92245366666667, "bike_id": "e2712a7966bcce41e08390f24a7b3b9d", "type": "electric_scooter", "is_reserved": 0, "lon": -77.03660166666667}, {"fusion_lat": 0.0, "name": "fe210435ff2eb62df9d7f3db864eb6d3", "is_disabled": 0, "rental_uris": {"android": "https://dc.lft.to/lastmile_qr_scan", "ios": "https://dc.lft.to/lastmile_qr_scan"}, "fusion_lon": 0.0, "lat": 38.908184, "bike_id": "fe210435ff2eb62df9d7f3db864eb6d3", "type": "electric_scooter", "is_reserved": 0, "lon": -77.03453683333333}, {"fusion_lat": 0.0, "name": "cb045b64148f537e42264a687c54cacb", "is_disabled": 0, "rental_uris": {"android": "https://dc.lft.to/lastmile_qr_scan", "ios": "https://dc.lft.to/lastmile_qr_scan"}, "fusion_lon": 0.0, "lat": 38.89967516666667, "bike_id": "cb045b64148f537e42264a687c54cacb", "type": "electric_scooter", "is_reserved": 0, "lon": -77.016139}, {"fusion_lat": 0.0, "name": "091dc1fcafe9b24c5fee4a3dfab680f9", "is_disabled": 0, "rental_uris": {"android": "https://dc.lft.to/lastmile_qr_scan", "ios": "https://dc.lft.to/lastmile_qr_scan"}, "fusion_lon": 0.0, "lat": 38.919261666666664, "bike_id": "091dc1fcafe9b24c5fee4a3dfab680f9", "type": "electric_scooter", "is_reserved": 0, "lon": -77.03214966666667}, {"fusion_lat": 0.0, "name": "2bc1a280e14ac74645f042d6c9bcabc7", "is_disabled": 0, "rental_uris": {"android": "https://dc.lft.to/lastmile_qr_scan", "ios": "https://dc.lft.to/lastmile_qr_scan"}, "fusion_lon": 0.0, "lat": 38.920868166666665, "bike_id": "2bc1a280e14ac74645f042d6c9bcabc7", "type": "electric_scooter", "is_reserved": 0, "lon": -77.02393433333333}, {"fusion_lat": 0.0, "name": "d7891981b29715dea7dbd3df2c381c26", "is_disabled": 0, "rental_uris": {"android": "https://dc.lft.to/lastmile_qr_scan", "ios": "https://dc.lft.to/lastmile_qr_scan"}, "fusion_lon": 0.0, "lat": 38.917108, "bike_id": "d7891981b29715dea7dbd3df2c381c26", "type": "electric_scooter", "is_reserved": 0, "lon": -76.9766485}, {"fusion_lat": 0.0, "name": "bef7b7fd67a5a376bc200c4db98054ed", "is_disabled": 0, "rental_uris": {"android": "https://dc.lft.to/lastmile_qr_scan", "ios": "https://dc.lft.to/lastmile_qr_scan"}, "fusion_lon": 0.0, "lat": 38.9077825, "bike_id": "bef7b7fd67a5a376bc200c4db98054ed", "type": "electric_scooter", "is_reserved": 0, "lon": -77.03856}, {"fusion_lat": 0.0, "name": "c32438519144ddc5476b3be4468a921e", "is_disabled": 0, "rental_uris": {"android": "https://dc.lft.to/lastmile_qr_scan", "ios": "https://dc.lft.to/lastmile_qr_scan"}, "fusion_lon": 0.0, "lat": 38.87967183333333, "bike_id": "c32438519144ddc5476b3be4468a921e", "type": "electric_bike", "is_reserved": 0, "lon": -76.916142}, {"fusion_lat": 0.0, "name": "1f11401827d44421800d317b85c302ea", "is_disabled": 0, "rental_uris": {"android": "https://dc.lft.to/lastmile_qr_scan", "ios": "https://dc.lft.to/lastmile_qr_scan"}, "fusion_lon": 0.0, "lat": 38.925464166666664, "bike_id": "1f11401827d44421800d317b85c302ea", "type": "electric_scooter", "is_reserved": 0, "lon": -77.0349}, {"fusion_lat": 0.0, "name": "5bab12243ca8c54d54491244cf238a3d", "is_disabled": 0, "rental_uris": {"android": "https://dc.lft.to/lastmile_qr_scan", "ios": "https://dc.lft.to/lastmile_qr_scan"}, "fusion_lon": 0.0, "lat": 38.93005866666667, "bike_id": "5bab12243ca8c54d54491244cf238a3d", "type": "electric_scooter", "is_reserved": 0, "lon": -77.055473}, {"fusion_lat": 0.0, "name": "e7b689d81d667c74d395a35d475a1996", "is_disabled": 0, "rental_uris": {"android": "https://dc.lft.to/lastmile_qr_scan", "ios": "https://dc.lft.to/lastmile_qr_scan"}, "fusion_lon": 0.0, "lat": 38.91934066666666, "bike_id": "e7b689d81d667c74d395a35d475a1996", "type": "electric_scooter", "is_reserved": 0, "lon": -77.03216866666666}, {"fusion_lat": 0.0, "name": "c3f5331a15302174541f3ba07d99d695", "is_disabled": 0, "rental_uris": {"android": "https://dc.lft.to/lastmile_qr_scan", "ios": "https://dc.lft.to/lastmile_qr_scan"}, "fusion_lon": 0.0, "lat": 38.92923166666667, "bike_id": "c3f5331a15302174541f3ba07d99d695", "type": "electric_scooter", "is_reserved": 0, "lon": -77.03280816666667}, {"fusion_lat": 0.0, "name": "a79f5947ccea3120c01c029fe7274bc6", "is_disabled": 0, "rental_uris": {"android": "https://dc.lft.to/lastmile_qr_scan", "ios": "https://dc.lft.to/lastmile_qr_scan"}, "fusion_lon": 0.0, "lat": 38.91592716666667, "bike_id": "a79f5947ccea3120c01c029fe7274bc6", "type": "electric_scooter", "is_reserved": 0, "lon": -77.03194183333333}, {"fusion_lat": 0.0, "name": "c30949f01493eaa678d2e87f17196a63", "is_disabled": 0, "rental_uris": {"android": "https://dc.lft.to/lastmile_qr_scan", "ios": "https://dc.lft.to/lastmile_qr_scan"}, "fusion_lon": 0.0, "lat": 38.900622166666665, "bike_id": "c30949f01493eaa678d2e87f17196a63", "type": "electric_scooter", "is_reserved": 0, "lon": -77.00059316666666}, {"fusion_lat": 0.0, "name": "bf4f17140a0e4e3a31739a2c356d3bf3", "is_disabled": 0, "rental_uris": {"android": "https://dc.lft.to/lastmile_qr_scan", "ios": "https://dc.lft.to/lastmile_qr_scan"}, "fusion_lon": 0.0, "lat": 38.90888916666667, "bike_id": "bf4f17140a0e4e3a31739a2c356d3bf3", "type": "electric_scooter", "is_reserved": 0, "lon": -77.03219033333333}, {"fusion_lat": 0.0, "name": "fe391d11d3be246fd4b6f1316438d6d8", "is_disabled": 0, "rental_uris": {"android": "https://dc.lft.to/lastmile_qr_scan", "ios": "https://dc.lft.to/lastmile_qr_scan"}, "fusion_lon": 0.0, "lat": 38.917095833333335, "bike_id": "fe391d11d3be246fd4b6f1316438d6d8", "type": "electric_scooter", "is_reserved": 0, "lon": -77.030519}, {"fusion_lat": 0.0, "name": "1be22e039b51648011bc717f40e62fe6", "is_disabled": 0, "rental_uris": {"android": "https://dc.lft.to/lastmile_qr_scan", "ios": "https://dc.lft.to/lastmile_qr_scan"}, "fusion_lon": 0.0, "lat": 38.87949716666667, "bike_id": "1be22e039b51648011bc717f40e62fe6", "type": "electric_scooter", "is_reserved": 0, "lon": -77.00622433333334}, {"fusion_lat": 0.0, "name": "45b317409c74a15b4324fc2be31b26c4", "is_disabled": 0, "rental_uris": {"android": "https://dc.lft.to/lastmile_qr_scan", "ios": "https://dc.lft.to/lastmile_qr_scan"}, "fusion_lon": 0.0, "lat": 38.883629166666665, "bike_id": "45b317409c74a15b4324fc2be31b26c4", "type": "electric_scooter", "is_reserved": 0, "lon": -77.013599}, {"fusion_lat": 0.0, "name": "de7543b41ce156ea373dfd4dee29b805", "is_disabled": 0, "rental_uris": {"android": "https://dc.lft.to/lastmile_qr_scan", "ios": "https://dc.lft.to/lastmile_qr_scan"}, "fusion_lon": 0.0, "lat": 38.883987166666664, "bike_id": "de7543b41ce156ea373dfd4dee29b805", "type": "electric_scooter", "is_reserved": 0, "lon": -76.93051283333334}, {"fusion_lat": 0.0, "name": "51454845660264e9dbf335846b172509", "is_disabled": 0, "rental_uris": {"android": "https://dc.lft.to/lastmile_qr_scan", "ios": "https://dc.lft.to/lastmile_qr_scan"}, "fusion_lon": 0.0, "lat": 38.897642166666664, "bike_id": "51454845660264e9dbf335846b172509", "type": "electric_scooter", "is_reserved": 0, "lon": -77.00203516666667}, {"fusion_lat": 0.0, "name": "3ba41273eba2ba7ba5b67ecfdd1bb254", "is_disabled": 0, "rental_uris": {"android": "https://dc.lft.to/lastmile_qr_scan", "ios": "https://dc.lft.to/lastmile_qr_scan"}, "fusion_lon": 0.0, "lat": 38.92363016666667, "bike_id": "3ba41273eba2ba7ba5b67ecfdd1bb254", "type": "electric_scooter", "is_reserved": 0, "lon": -77.05052933333333}, {"fusion_lat": 0.0, "name": "02346c2b415f6b1be7e52f80afff4ae0", "is_disabled": 0, "rental_uris": {"android": "https://dc.lft.to/lastmile_qr_scan", "ios": "https://dc.lft.to/lastmile_qr_scan"}, "fusion_lon": 0.0, "lat": 38.91562183333333, "bike_id": "02346c2b415f6b1be7e52f80afff4ae0", "type": "electric_scooter", "is_reserved": 0, "lon": -77.03169333333334}, {"fusion_lat": 0.0, "name": "cd1c2a2d1381ca0e25ca8d01867362ed", "is_disabled": 0, "rental_uris": {"android": "https://dc.lft.to/lastmile_qr_scan", "ios": "https://dc.lft.to/lastmile_qr_scan"}, "fusion_lon": 0.0, "lat": 38.922977833333334, "bike_id": "cd1c2a2d1381ca0e25ca8d01867362ed", "type": "electric_scooter", "is_reserved": 0, "lon": -77.0421585}, {"fusion_lat": 0.0, "name": "5694933953d0354f2c03ebacfde8e220", "is_disabled": 0, "rental_uris": {"android": "https://dc.lft.to/lastmile_qr_scan", "ios": "https://dc.lft.to/lastmile_qr_scan"}, "fusion_lon": 0.0, "lat": 38.855214, "bike_id": "5694933953d0354f2c03ebacfde8e220", "type": "electric_bike", "is_reserved": 0, "lon": -76.98434683333333}, {"fusion_lat": 0.0, "name": "e1f4dab1fc5e62aae34926069c5cbcda", "is_disabled": 0, "rental_uris": {"android": "https://dc.lft.to/lastmile_qr_scan", "ios": "https://dc.lft.to/lastmile_qr_scan"}, "fusion_lon": 0.0, "lat": 38.872117, "bike_id": "e1f4dab1fc5e62aae34926069c5cbcda", "type": "electric_scooter", "is_reserved": 0, "lon": -77.00576216666667}, {"fusion_lat": 0.0, "name": "adc369e4bfbdb5ac4b01020dbdf62d86", "is_disabled": 0, "rental_uris": {"android": "https://dc.lft.to/lastmile_qr_scan", "ios": "https://dc.lft.to/lastmile_qr_scan"}, "fusion_lon": 0.0, "lat": 38.9005475, "bike_id": "adc369e4bfbdb5ac4b01020dbdf62d86", "type": "electric_scooter", "is_reserved": 0, "lon": -77.01618233333333}, {"fusion_lat": 0.0, "name": "2db00c2773f43a5ac2c47d69aad4a93f", "is_disabled": 0, "rental_uris": {"android": "https://dc.lft.to/lastmile_qr_scan", "ios": "https://dc.lft.to/lastmile_qr_scan"}, "fusion_lon": 0.0, "lat": 38.917828666666665, "bike_id": "2db00c2773f43a5ac2c47d69aad4a93f", "type": "electric_scooter", "is_reserved": 0, "lon": -77.024124}, {"fusion_lat": 0.0, "name": "19d15506141bbb83ab4be30cafaec9db", "is_disabled": 0, "rental_uris": {"android": "https://dc.lft.to/lastmile_qr_scan", "ios": "https://dc.lft.to/lastmile_qr_scan"}, "fusion_lon": 0.0, "lat": 38.91024016666667, "bike_id": "19d15506141bbb83ab4be30cafaec9db", "type": "electric_scooter", "is_reserved": 0, "lon": -77.0527295}, {"fusion_lat": 0.0, "name": "ace02936ef042d7acc34d2d114479778", "is_disabled": 0, "rental_uris": {"android": "https://dc.lft.to/lastmile_qr_scan", "ios": "https://dc.lft.to/lastmile_qr_scan"}, "fusion_lon": 0.0, "lat": 38.9192055, "bike_id": "ace02936ef042d7acc34d2d114479778", "type": "electric_scooter", "is_reserved": 0, "lon": -77.02658933333333}, {"fusion_lat": 0.0, "name": "040e291035387c54eef88c280986afd2", "is_disabled": 0, "rental_uris": {"android": "https://dc.lft.to/lastmile_qr_scan", "ios": "https://dc.lft.to/lastmile_qr_scan"}, "fusion_lon": 0.0, "lat": 38.907237333333335, "bike_id": "040e291035387c54eef88c280986afd2", "type": "electric_scooter", "is_reserved": 0, "lon": -77.04351766666667}, {"fusion_lat": 0.0, "name": "a013275dfb4b90853848160aeda52fe1", "is_disabled": 0, "rental_uris": {"android": "https://dc.lft.to/lastmile_qr_scan", "ios": "https://dc.lft.to/lastmile_qr_scan"}, "fusion_lon": 0.0, "lat": 38.91577983333333, "bike_id": "a013275dfb4b90853848160aeda52fe1", "type": "electric_scooter", "is_reserved": 0, "lon": -77.03856116666667}, {"fusion_lat": 0.0, "name": "6789da73f78837d4a4e8fff9ecfd6bbe", "is_disabled": 0, "rental_uris": {"android": "https://dc.lft.to/lastmile_qr_scan", "ios": "https://dc.lft.to/lastmile_qr_scan"}, "fusion_lon": 0.0, "lat": 38.8655805, "bike_id": "6789da73f78837d4a4e8fff9ecfd6bbe", "type": "electric_bike", "is_reserved": 0, "lon": -76.973589}, {"fusion_lat": 0.0, "name": "ff4df7c1e7c5670abfe2693a5e8633ac", "is_disabled": 0, "rental_uris": {"android": "https://dc.lft.to/lastmile_qr_scan", "ios": "https://dc.lft.to/lastmile_qr_scan"}, "fusion_lon": 0.0, "lat": 38.92510583333333, "bike_id": "ff4df7c1e7c5670abfe2693a5e8633ac", "type": "electric_scooter", "is_reserved": 0, "lon": -77.03800666666666}, {"fusion_lat": 0.0, "name": "f9a67497d6ab47148d906d0378d9ae71", "is_disabled": 0, "rental_uris": {"android": "https://dc.lft.to/lastmile_qr_scan", "ios": "https://dc.lft.to/lastmile_qr_scan"}, "fusion_lon": 0.0, "lat": 38.92656483333333, "bike_id": "f9a67497d6ab47148d906d0378d9ae71", "type": "electric_scooter", "is_reserved": 0, "lon": -77.03847283333333}, {"fusion_lat": 0.0, "name": "a532caedc8802b74d86a7a926e560776", "is_disabled": 0, "rental_uris": {"android": "https://dc.lft.to/lastmile_qr_scan", "ios": "https://dc.lft.to/lastmile_qr_scan"}, "fusion_lon": 0.0, "lat": 38.899461333333335, "bike_id": "a532caedc8802b74d86a7a926e560776", "type": "electric_scooter", "is_reserved": 0, "lon": -77.02947366666666}, {"fusion_lat": 0.0, "name": "e74e96d18205a738cc729fe0029da5ab", "is_disabled": 0, "rental_uris": {"android": "https://dc.lft.to/lastmile_qr_scan", "ios": "https://dc.lft.to/lastmile_qr_scan"}, "fusion_lon": 0.0, "lat": 38.8331535, "bike_id": "e74e96d18205a738cc729fe0029da5ab", "type": "electric_bike", "is_reserved": 0, "lon": -77.04169433333334}, {"fusion_lat": 0.0, "name": "1adeddcb0936f1ce8f64add8ee7e07d9", "is_disabled": 0, "rental_uris": {"android": "https://dc.lft.to/lastmile_qr_scan", "ios": "https://dc.lft.to/lastmile_qr_scan"}, "fusion_lon": 0.0, "lat": 38.90058783333333, "bike_id": "1adeddcb0936f1ce8f64add8ee7e07d9", "type": "electric_scooter", "is_reserved": 0, "lon": -77.01620933333334}, {"fusion_lat": 0.0, "name": "4655904c156a46fe32e95545ab689b7b", "is_disabled": 0, "rental_uris": {"android": "https://dc.lft.to/lastmile_qr_scan", "ios": "https://dc.lft.to/lastmile_qr_scan"}, "fusion_lon": 0.0, "lat": 38.9454125, "bike_id": "4655904c156a46fe32e95545ab689b7b", "type": "electric_scooter", "is_reserved": 0, "lon": -77.016881}, {"fusion_lat": 0.0, "name": "861ade8cae20759a3c1dd50eeb0f455b", "is_disabled": 0, "rental_uris": {"android": "https://dc.lft.to/lastmile_qr_scan", "ios": "https://dc.lft.to/lastmile_qr_scan"}, "fusion_lon": 0.0, "lat": 38.89233733333333, "bike_id": "861ade8cae20759a3c1dd50eeb0f455b", "type": "electric_scooter", "is_reserved": 0, "lon": -77.02824616666666}, {"fusion_lat": 0.0, "name": "a7467f7659ec13003b5a381cc90b699f", "is_disabled": 0, "rental_uris": {"android": "https://dc.lft.to/lastmile_qr_scan", "ios": "https://dc.lft.to/lastmile_qr_scan"}, "fusion_lon": 0.0, "lat": 39.09971183333333, "bike_id": "a7467f7659ec13003b5a381cc90b699f", "type": "electric_bike", "is_reserved": 0, "lon": -77.182972}, {"fusion_lat": 0.0, "name": "b33e53838719d7a6bb9bc2e825ceb467", "is_disabled": 0, "rental_uris": {"android": "https://dc.lft.to/lastmile_qr_scan", "ios": "https://dc.lft.to/lastmile_qr_scan"}, "fusion_lon": 0.0, "lat": 38.900461, "bike_id": "b33e53838719d7a6bb9bc2e825ceb467", "type": "electric_scooter", "is_reserved": 0, "lon": -77.02605233333334}, {"fusion_lat": 0.0, "name": "0894509f3ab8e841206761634bff5b5e", "is_disabled": 0, "rental_uris": {"android": "https://dc.lft.to/lastmile_qr_scan", "ios": "https://dc.lft.to/lastmile_qr_scan"}, "fusion_lon": 0.0, "lat": 38.92038816666667, "bike_id": "0894509f3ab8e841206761634bff5b5e", "type": "electric_scooter", "is_reserved": 0, "lon": -77.01748983333333}, {"fusion_lat": 0.0, "name": "4ddd3072ddcf996e398b7370b5e1ff13", "is_disabled": 0, "rental_uris": {"android": "https://dc.lft.to/lastmile_qr_scan", "ios": "https://dc.lft.to/lastmile_qr_scan"}, "fusion_lon": 0.0, "lat": 38.92384, "bike_id": "4ddd3072ddcf996e398b7370b5e1ff13", "type": "electric_scooter", "is_reserved": 0, "lon": -77.04112966666666}, {"fusion_lat": 0.0, "name": "c3a3eace1d73fa2868416659adc62d9a", "is_disabled": 0, "rental_uris": {"android": "https://dc.lft.to/lastmile_qr_scan", "ios": "https://dc.lft.to/lastmile_qr_scan"}, "fusion_lon": 0.0, "lat": 38.915503666666666, "bike_id": "c3a3eace1d73fa2868416659adc62d9a", "type": "electric_scooter", "is_reserved": 0, "lon": -77.00360483333333}, {"fusion_lat": 0.0, "name": "cb684bbf6cc980130d5fcb7b74a02cec", "is_disabled": 0, "rental_uris": {"android": "https://dc.lft.to/lastmile_qr_scan", "ios": "https://dc.lft.to/lastmile_qr_scan"}, "fusion_lon": 0.0, "lat": 38.8639015, "bike_id": "cb684bbf6cc980130d5fcb7b74a02cec", "type": "electric_bike", "is_reserved": 0, "lon": -76.98999066666667}, {"fusion_lat": 0.0, "name": "ec4d1bf3b984cd1c970f8b24277fadf5", "is_disabled": 0, "rental_uris": {"android": "https://dc.lft.to/lastmile_qr_scan", "ios": "https://dc.lft.to/lastmile_qr_scan"}, "fusion_lon": 0.0, "lat": 38.919917166666664, "bike_id": "ec4d1bf3b984cd1c970f8b24277fadf5", "type": "electric_scooter", "is_reserved": 0, "lon": -77.03293366666666}, {"fusion_lat": 0.0, "name": "26bdbe03c70fa30d9c88472e9679a683", "is_disabled": 0, "rental_uris": {"android": "https://dc.lft.to/lastmile_qr_scan", "ios": "https://dc.lft.to/lastmile_qr_scan"}, "fusion_lon": 0.0, "lat": 38.909720166666666, "bike_id": "26bdbe03c70fa30d9c88472e9679a683", "type": "electric_scooter", "is_reserved": 0, "lon": -77.03951733333334}, {"fusion_lat": 0.0, "name": "98cc0bbf0cda28aa88adefee4f16f37d", "is_disabled": 0, "rental_uris": {"android": "https://dc.lft.to/lastmile_qr_scan", "ios": "https://dc.lft.to/lastmile_qr_scan"}, "fusion_lon": 0.0, "lat": 38.887309, "bike_id": "98cc0bbf0cda28aa88adefee4f16f37d", "type": "electric_scooter", "is_reserved": 0, "lon": -77.01768333333334}, {"fusion_lat": 0.0, "name": "738a824fea4bf332eb1a41197c21e6a3", "is_disabled": 0, "rental_uris": {"android": "https://dc.lft.to/lastmile_qr_scan", "ios": "https://dc.lft.to/lastmile_qr_scan"}, "fusion_lon": 0.0, "lat": 38.928375333333335, "bike_id": "738a824fea4bf332eb1a41197c21e6a3", "type": "electric_scooter", "is_reserved": 0, "lon": -77.03283683333333}, {"fusion_lat": 0.0, "name": "5d2e9cc6bc09a809128b66ec92de5aac", "is_disabled": 0, "rental_uris": {"android": "https://dc.lft.to/lastmile_qr_scan", "ios": "https://dc.lft.to/lastmile_qr_scan"}, "fusion_lon": 0.0, "lat": 38.8996755, "bike_id": "5d2e9cc6bc09a809128b66ec92de5aac", "type": "electric_scooter", "is_reserved": 0, "lon": -77.01612566666667}, {"fusion_lat": 0.0, "name": "ab249ad58030b91d5cc77d5ea6fd2022", "is_disabled": 0, "rental_uris": {"android": "https://dc.lft.to/lastmile_qr_scan", "ios": "https://dc.lft.to/lastmile_qr_scan"}, "fusion_lon": 0.0, "lat": 38.91799, "bike_id": "ab249ad58030b91d5cc77d5ea6fd2022", "type": "electric_scooter", "is_reserved": 0, "lon": -77.03446116666667}, {"fusion_lat": 0.0, "name": "9cc55aa158b84874090f6b427c4b040d", "is_disabled": 0, "rental_uris": {"android": "https://dc.lft.to/lastmile_qr_scan", "ios": "https://dc.lft.to/lastmile_qr_scan"}, "fusion_lon": 0.0, "lat": 38.84277516666667, "bike_id": "9cc55aa158b84874090f6b427c4b040d", "type": "electric_bike", "is_reserved": 0, "lon": -76.98842933333333}, {"fusion_lat": 0.0, "name": "fef5a495ec9d5235fbff12ab7779e5f0", "is_disabled": 0, "rental_uris": {"android": "https://dc.lft.to/lastmile_qr_scan", "ios": "https://dc.lft.to/lastmile_qr_scan"}, "fusion_lon": 0.0, "lat": 38.922367, "bike_id": "fef5a495ec9d5235fbff12ab7779e5f0", "type": "electric_scooter", "is_reserved": 0, "lon": -77.029669}, {"fusion_lat": 0.0, "name": "68eff080c581c3df07aca53de8a001d5", "is_disabled": 0, "rental_uris": {"android": "https://dc.lft.to/lastmile_qr_scan", "ios": "https://dc.lft.to/lastmile_qr_scan"}, "fusion_lon": 0.0, "lat": 38.91693466666667, "bike_id": "68eff080c581c3df07aca53de8a001d5", "type": "electric_scooter", "is_reserved": 0, "lon": -77.02292366666667}, {"fusion_lat": 0.0, "name": "abb21d06a7d8f8ac50f1f6bbd4cd3295", "is_disabled": 0, "rental_uris": {"android": "https://dc.lft.to/lastmile_qr_scan", "ios": "https://dc.lft.to/lastmile_qr_scan"}, "fusion_lon": 0.0, "lat": 38.91413566666667, "bike_id": "abb21d06a7d8f8ac50f1f6bbd4cd3295", "type": "electric_scooter", "is_reserved": 0, "lon": -77.010774}, {"fusion_lat": 0.0, "name": "a8321ec8616517f5aafb3575b5ce3929", "is_disabled": 0, "rental_uris": {"android": "https://dc.lft.to/lastmile_qr_scan", "ios": "https://dc.lft.to/lastmile_qr_scan"}, "fusion_lon": 0.0, "lat": 38.9215355, "bike_id": "a8321ec8616517f5aafb3575b5ce3929", "type": "electric_scooter", "is_reserved": 0, "lon": -77.03355366666666}, {"fusion_lat": 0.0, "name": "0130c513f8eb243f65a8c8ad815e8ef5", "is_disabled": 0, "rental_uris": {"android": "https://dc.lft.to/lastmile_qr_scan", "ios": "https://dc.lft.to/lastmile_qr_scan"}, "fusion_lon": 0.0, "lat": 38.887359333333336, "bike_id": "0130c513f8eb243f65a8c8ad815e8ef5", "type": "electric_scooter", "is_reserved": 0, "lon": -77.03192483333333}, {"fusion_lat": 0.0, "name": "2327b747f60f0fd8e467535ba4e14027", "is_disabled": 0, "rental_uris": {"android": "https://dc.lft.to/lastmile_qr_scan", "ios": "https://dc.lft.to/lastmile_qr_scan"}, "fusion_lon": 0.0, "lat": 38.87664066666667, "bike_id": "2327b747f60f0fd8e467535ba4e14027", "type": "electric_scooter", "is_reserved": 0, "lon": -77.00346066666667}, {"fusion_lat": 0.0, "name": "26e36b07a03acdbfa8a83fbc5be0e2c4", "is_disabled": 0, "rental_uris": {"android": "https://dc.lft.to/lastmile_qr_scan", "ios": "https://dc.lft.to/lastmile_qr_scan"}, "fusion_lon": 0.0, "lat": 38.91808666666667, "bike_id": "26e36b07a03acdbfa8a83fbc5be0e2c4", "type": "electric_scooter", "is_reserved": 0, "lon": -77.04031266666667}, {"fusion_lat": 0.0, "name": "3571ed6dfbea223e5d9c66a81330be02", "is_disabled": 0, "rental_uris": {"android": "https://dc.lft.to/lastmile_qr_scan", "ios": "https://dc.lft.to/lastmile_qr_scan"}, "fusion_lon": 0.0, "lat": 38.93179166666667, "bike_id": "3571ed6dfbea223e5d9c66a81330be02", "type": "electric_scooter", "is_reserved": 0, "lon": -77.02352116666667}, {"fusion_lat": 0.0, "name": "12b841448aad2b2c910b3fb054fbc047", "is_disabled": 0, "rental_uris": {"android": "https://dc.lft.to/lastmile_qr_scan", "ios": "https://dc.lft.to/lastmile_qr_scan"}, "fusion_lon": 0.0, "lat": 38.89903916666667, "bike_id": "12b841448aad2b2c910b3fb054fbc047", "type": "electric_scooter", "is_reserved": 0, "lon": -77.02711966666666}, {"fusion_lat": 0.0, "name": "e175374485178d31849f985de752d85a", "is_disabled": 0, "rental_uris": {"android": "https://dc.lft.to/lastmile_qr_scan", "ios": "https://dc.lft.to/lastmile_qr_scan"}, "fusion_lon": 0.0, "lat": 38.89856566666667, "bike_id": "e175374485178d31849f985de752d85a", "type": "electric_scooter", "is_reserved": 0, "lon": -76.950495}, {"fusion_lat": 0.0, "name": "ddb37a123faa0c79582df92cd414a079", "is_disabled": 0, "rental_uris": {"android": "https://dc.lft.to/lastmile_qr_scan", "ios": "https://dc.lft.to/lastmile_qr_scan"}, "fusion_lon": 0.0, "lat": 38.945030833333334, "bike_id": "ddb37a123faa0c79582df92cd414a079", "type": "electric_scooter", "is_reserved": 0, "lon": -77.0386925}, {"fusion_lat": 0.0, "name": "1e71386c98072f74fac1ea4d24e2b76d", "is_disabled": 0, "rental_uris": {"android": "https://dc.lft.to/lastmile_qr_scan", "ios": "https://dc.lft.to/lastmile_qr_scan"}, "fusion_lon": 0.0, "lat": 38.92068183333333, "bike_id": "1e71386c98072f74fac1ea4d24e2b76d", "type": "electric_bike", "is_reserved": 0, "lon": -77.241307}, {"fusion_lat": 0.0, "name": "293623efd5af082cce9ceb5ec26ce766", "is_disabled": 0, "rental_uris": {"android": "https://dc.lft.to/lastmile_qr_scan", "ios": "https://dc.lft.to/lastmile_qr_scan"}, "fusion_lon": 0.0, "lat": 38.90586966666667, "bike_id": "293623efd5af082cce9ceb5ec26ce766", "type": "electric_scooter", "is_reserved": 0, "lon": -77.04687516666667}, {"fusion_lat": 0.0, "name": "f830f6f01e2dea964f8066d36192f7ed", "is_disabled": 0, "rental_uris": {"android": "https://dc.lft.to/lastmile_qr_scan", "ios": "https://dc.lft.to/lastmile_qr_scan"}, "fusion_lon": 0.0, "lat": 38.91132183333333, "bike_id": "f830f6f01e2dea964f8066d36192f7ed", "type": "electric_scooter", "is_reserved": 0, "lon": -77.029674}, {"fusion_lat": 0.0, "name": "00e181adb7ec1b8412af0a5e7bf7c243", "is_disabled": 0, "rental_uris": {"android": "https://dc.lft.to/lastmile_qr_scan", "ios": "https://dc.lft.to/lastmile_qr_scan"}, "fusion_lon": 0.0, "lat": 38.90718616666667, "bike_id": "00e181adb7ec1b8412af0a5e7bf7c243", "type": "electric_scooter", "is_reserved": 0, "lon": -77.03182016666666}, {"fusion_lat": 0.0, "name": "f226f8113b5250006cd2e04d521451f4", "is_disabled": 0, "rental_uris": {"android": "https://dc.lft.to/lastmile_qr_scan", "ios": "https://dc.lft.to/lastmile_qr_scan"}, "fusion_lon": 0.0, "lat": 38.9371345, "bike_id": "f226f8113b5250006cd2e04d521451f4", "type": "electric_scooter", "is_reserved": 0, "lon": -77.02409916666667}, {"fusion_lat": 0.0, "name": "320be0598b85dac4222134ffc578dd60", "is_disabled": 0, "rental_uris": {"android": "https://dc.lft.to/lastmile_qr_scan", "ios": "https://dc.lft.to/lastmile_qr_scan"}, "fusion_lon": 0.0, "lat": 38.887682833333336, "bike_id": "320be0598b85dac4222134ffc578dd60", "type": "electric_scooter", "is_reserved": 0, "lon": -77.02374966666666}, {"fusion_lat": 0.0, "name": "f5b008d9ca8ba91a7a7fc2dce2958fe9", "is_disabled": 0, "rental_uris": {"android": "https://dc.lft.to/lastmile_qr_scan", "ios": "https://dc.lft.to/lastmile_qr_scan"}, "fusion_lon": 0.0, "lat": 38.899258833333334, "bike_id": "f5b008d9ca8ba91a7a7fc2dce2958fe9", "type": "electric_scooter", "is_reserved": 0, "lon": -77.040226}, {"fusion_lat": 0.0, "name": "98b88b2ecba99d68cbf2d7f4706f43f7", "is_disabled": 0, "rental_uris": {"android": "https://dc.lft.to/lastmile_qr_scan", "ios": "https://dc.lft.to/lastmile_qr_scan"}, "fusion_lon": 0.0, "lat": 38.906494333333335, "bike_id": "98b88b2ecba99d68cbf2d7f4706f43f7", "type": "electric_scooter", "is_reserved": 0, "lon": -77.031593}, {"fusion_lat": 0.0, "name": "7bda6b9f9d3954f2f01987cf7914433d", "is_disabled": 0, "rental_uris": {"android": "https://dc.lft.to/lastmile_qr_scan", "ios": "https://dc.lft.to/lastmile_qr_scan"}, "fusion_lon": 0.0, "lat": 38.884533833333336, "bike_id": "7bda6b9f9d3954f2f01987cf7914433d", "type": "electric_scooter", "is_reserved": 0, "lon": -76.99605666666666}, {"fusion_lat": 0.0, "name": "d7dc48e4ba3796c7b9ae7ab5472de63f", "is_disabled": 0, "rental_uris": {"android": "https://dc.lft.to/lastmile_qr_scan", "ios": "https://dc.lft.to/lastmile_qr_scan"}, "fusion_lon": 0.0, "lat": 38.90129916666667, "bike_id": "d7dc48e4ba3796c7b9ae7ab5472de63f", "type": "electric_scooter", "is_reserved": 0, "lon": -77.0391835}, {"fusion_lat": 0.0, "name": "4733d07f7cf3aee5abdf3f1f02185b18", "is_disabled": 0, "rental_uris": {"android": "https://dc.lft.to/lastmile_qr_scan", "ios": "https://dc.lft.to/lastmile_qr_scan"}, "fusion_lon": 0.0, "lat": 38.910081166666664, "bike_id": "4733d07f7cf3aee5abdf3f1f02185b18", "type": "electric_scooter", "is_reserved": 0, "lon": -77.04911383333334}, {"fusion_lat": 0.0, "name": "86346b06d54e33bf6dd951cb5e224ed0", "is_disabled": 0, "rental_uris": {"android": "https://dc.lft.to/lastmile_qr_scan", "ios": "https://dc.lft.to/lastmile_qr_scan"}, "fusion_lon": 0.0, "lat": 38.925419166666664, "bike_id": "86346b06d54e33bf6dd951cb5e224ed0", "type": "electric_bike", "is_reserved": 0, "lon": -77.07891633333334}, {"fusion_lat": 0.0, "name": "9af244011e6edb634a76c78028662034", "is_disabled": 0, "rental_uris": {"android": "https://dc.lft.to/lastmile_qr_scan", "ios": "https://dc.lft.to/lastmile_qr_scan"}, "fusion_lon": 0.0, "lat": 38.847559, "bike_id": "9af244011e6edb634a76c78028662034", "type": "electric_scooter", "is_reserved": 0, "lon": -76.99499616666667}, {"fusion_lat": 0.0, "name": "fb94cf370f59876e732ab2561c4d04fe", "is_disabled": 0, "rental_uris": {"android": "https://dc.lft.to/lastmile_qr_scan", "ios": "https://dc.lft.to/lastmile_qr_scan"}, "fusion_lon": 0.0, "lat": 38.924959333333334, "bike_id": "fb94cf370f59876e732ab2561c4d04fe", "type": "electric_scooter", "is_reserved": 0, "lon": -77.02161566666666}, {"fusion_lat": 0.0, "name": "eb41bec851fe85cf9750cbe761fd2d2b", "is_disabled": 0, "rental_uris": {"android": "https://dc.lft.to/lastmile_qr_scan", "ios": "https://dc.lft.to/lastmile_qr_scan"}, "fusion_lon": 0.0, "lat": 38.927551, "bike_id": "eb41bec851fe85cf9750cbe761fd2d2b", "type": "electric_scooter", "is_reserved": 0, "lon": -77.03274816666666}, {"fusion_lat": 0.0, "name": "71913535e36b61c25a594fb0b8edee3f", "is_disabled": 0, "rental_uris": {"android": "https://dc.lft.to/lastmile_qr_scan", "ios": "https://dc.lft.to/lastmile_qr_scan"}, "fusion_lon": 0.0, "lat": 38.887464, "bike_id": "71913535e36b61c25a594fb0b8edee3f", "type": "electric_scooter", "is_reserved": 0, "lon": -77.02781783333333}, {"fusion_lat": 0.0, "name": "48d1a11bf1c18b1b653d11bfabd8d2de", "is_disabled": 0, "rental_uris": {"android": "https://dc.lft.to/lastmile_qr_scan", "ios": "https://dc.lft.to/lastmile_qr_scan"}, "fusion_lon": 0.0, "lat": 38.89906166666667, "bike_id": "48d1a11bf1c18b1b653d11bfabd8d2de", "type": "electric_scooter", "is_reserved": 0, "lon": -76.93353133333333}, {"fusion_lat": 0.0, "name": "a137f235d9cbee35e6e469fdeb03aecb", "is_disabled": 0, "rental_uris": {"android": "https://dc.lft.to/lastmile_qr_scan", "ios": "https://dc.lft.to/lastmile_qr_scan"}, "fusion_lon": 0.0, "lat": 38.923421, "bike_id": "a137f235d9cbee35e6e469fdeb03aecb", "type": "electric_scooter", "is_reserved": 0, "lon": -77.051766}, {"fusion_lat": 0.0, "name": "35ee100c50f21917ca37dbd0c94e2bf0", "is_disabled": 0, "rental_uris": {"android": "https://dc.lft.to/lastmile_qr_scan", "ios": "https://dc.lft.to/lastmile_qr_scan"}, "fusion_lon": 0.0, "lat": 38.901258, "bike_id": "35ee100c50f21917ca37dbd0c94e2bf0", "type": "electric_scooter", "is_reserved": 0, "lon": -77.02619533333333}, {"fusion_lat": 0.0, "name": "6ab9864d9757bb3ee4191a789893b164", "is_disabled": 0, "rental_uris": {"android": "https://dc.lft.to/lastmile_qr_scan", "ios": "https://dc.lft.to/lastmile_qr_scan"}, "fusion_lon": 0.0, "lat": 38.938989, "bike_id": "6ab9864d9757bb3ee4191a789893b164", "type": "electric_scooter", "is_reserved": 0, "lon": -77.08488416666667}, {"fusion_lat": 0.0, "name": "d36f99cbaee0d1d54f026b92808199cd", "is_disabled": 0, "rental_uris": {"android": "https://dc.lft.to/lastmile_qr_scan", "ios": "https://dc.lft.to/lastmile_qr_scan"}, "fusion_lon": 0.0, "lat": 39.052542833333334, "bike_id": "d36f99cbaee0d1d54f026b92808199cd", "type": "electric_bike", "is_reserved": 0, "lon": -77.08066016666666}, {"fusion_lat": 0.0, "name": "b279b6ead0a24507cb15f1fe7018b73f", "is_disabled": 0, "rental_uris": {"android": "https://dc.lft.to/lastmile_qr_scan", "ios": "https://dc.lft.to/lastmile_qr_scan"}, "fusion_lon": 0.0, "lat": 38.9033625, "bike_id": "b279b6ead0a24507cb15f1fe7018b73f", "type": "electric_scooter", "is_reserved": 0, "lon": -77.06287883333333}, {"fusion_lat": 0.0, "name": "eaf7508d6a035af2706f26be3119f93f", "is_disabled": 0, "rental_uris": {"android": "https://dc.lft.to/lastmile_qr_scan", "ios": "https://dc.lft.to/lastmile_qr_scan"}, "fusion_lon": 0.0, "lat": 38.895437, "bike_id": "eaf7508d6a035af2706f26be3119f93f", "type": "electric_scooter", "is_reserved": 0, "lon": -76.98099566666667}, {"fusion_lat": 0.0, "name": "cb68b23fb0c5d9946e66b893bf0fcb4b", "is_disabled": 0, "rental_uris": {"android": "https://dc.lft.to/lastmile_qr_scan", "ios": "https://dc.lft.to/lastmile_qr_scan"}, "fusion_lon": 0.0, "lat": 38.91765183333333, "bike_id": "cb68b23fb0c5d9946e66b893bf0fcb4b", "type": "electric_scooter", "is_reserved": 0, "lon": -77.06949783333333}, {"fusion_lat": 0.0, "name": "3f88ca44b9e573b2b42e5e257f5c1745", "is_disabled": 0, "rental_uris": {"android": "https://dc.lft.to/lastmile_qr_scan", "ios": "https://dc.lft.to/lastmile_qr_scan"}, "fusion_lon": 0.0, "lat": 38.87469466666667, "bike_id": "3f88ca44b9e573b2b42e5e257f5c1745", "type": "electric_scooter", "is_reserved": 0, "lon": -77.00466833333333}, {"fusion_lat": 0.0, "name": "9a54b0bd05862666e246e1e5c9da0ba5", "is_disabled": 0, "rental_uris": {"android": "https://dc.lft.to/lastmile_qr_scan", "ios": "https://dc.lft.to/lastmile_qr_scan"}, "fusion_lon": 0.0, "lat": 38.92644716666667, "bike_id": "9a54b0bd05862666e246e1e5c9da0ba5", "type": "electric_scooter", "is_reserved": 0, "lon": -77.0413035}, {"fusion_lat": 0.0, "name": "4408928a919121877dc018eb61c5ee3f", "is_disabled": 0, "rental_uris": {"android": "https://dc.lft.to/lastmile_qr_scan", "ios": "https://dc.lft.to/lastmile_qr_scan"}, "fusion_lon": 0.0, "lat": 38.87385716666667, "bike_id": "4408928a919121877dc018eb61c5ee3f", "type": "electric_scooter", "is_reserved": 0, "lon": -77.00063616666667}, {"fusion_lat": 0.0, "name": "cf8e63f0b076660eb5921a65064cf513", "is_disabled": 0, "rental_uris": {"android": "https://dc.lft.to/lastmile_qr_scan", "ios": "https://dc.lft.to/lastmile_qr_scan"}, "fusion_lon": 0.0, "lat": 38.93116366666667, "bike_id": "cf8e63f0b076660eb5921a65064cf513", "type": "electric_scooter", "is_reserved": 0, "lon": -77.02097016666667}, {"fusion_lat": 0.0, "name": "2d548c3f90487dd7ba745a543ecb4251", "is_disabled": 0, "rental_uris": {"android": "https://dc.lft.to/lastmile_qr_scan", "ios": "https://dc.lft.to/lastmile_qr_scan"}, "fusion_lon": 0.0, "lat": 38.894719, "bike_id": "2d548c3f90487dd7ba745a543ecb4251", "type": "electric_scooter", "is_reserved": 0, "lon": -77.017663}, {"fusion_lat": 0.0, "name": "826119f70f4daf09c9c150f5c1f5e054", "is_disabled": 0, "rental_uris": {"android": "https://dc.lft.to/lastmile_qr_scan", "ios": "https://dc.lft.to/lastmile_qr_scan"}, "fusion_lon": 0.0, "lat": 38.91034533333333, "bike_id": "826119f70f4daf09c9c150f5c1f5e054", "type": "electric_scooter", "is_reserved": 0, "lon": -77.042792}, {"fusion_lat": 0.0, "name": "ea783cf6a92425004d52e636d2208e02", "is_disabled": 0, "rental_uris": {"android": "https://dc.lft.to/lastmile_qr_scan", "ios": "https://dc.lft.to/lastmile_qr_scan"}, "fusion_lon": 0.0, "lat": 38.9234835, "bike_id": "ea783cf6a92425004d52e636d2208e02", "type": "electric_scooter", "is_reserved": 0, "lon": -77.03316966666667}, {"fusion_lat": 0.0, "name": "76c1a3a798206ca8e2de2797a63e52d3", "is_disabled": 0, "rental_uris": {"android": "https://dc.lft.to/lastmile_qr_scan", "ios": "https://dc.lft.to/lastmile_qr_scan"}, "fusion_lon": 0.0, "lat": 38.91553483333333, "bike_id": "76c1a3a798206ca8e2de2797a63e52d3", "type": "electric_scooter", "is_reserved": 0, "lon": -77.03851083333333}, {"fusion_lat": 0.0, "name": "98799100197955a444c6e9207f590971", "is_disabled": 0, "rental_uris": {"android": "https://dc.lft.to/lastmile_qr_scan", "ios": "https://dc.lft.to/lastmile_qr_scan"}, "fusion_lon": 0.0, "lat": 38.90787, "bike_id": "98799100197955a444c6e9207f590971", "type": "electric_scooter", "is_reserved": 0, "lon": -76.9939595}, {"fusion_lat": 0.0, "name": "93e9643e0b9aa4976cf1221a85c83881", "is_disabled": 0, "rental_uris": {"android": "https://dc.lft.to/lastmile_qr_scan", "ios": "https://dc.lft.to/lastmile_qr_scan"}, "fusion_lon": 0.0, "lat": 38.90239666666667, "bike_id": "93e9643e0b9aa4976cf1221a85c83881", "type": "electric_scooter", "is_reserved": 0, "lon": -77.00201183333333}, {"fusion_lat": 0.0, "name": "e232ac4fa080d1a4a2f352cd871c954c", "is_disabled": 0, "rental_uris": {"android": "https://dc.lft.to/lastmile_qr_scan", "ios": "https://dc.lft.to/lastmile_qr_scan"}, "fusion_lon": 0.0, "lat": 38.9276205, "bike_id": "e232ac4fa080d1a4a2f352cd871c954c", "type": "electric_scooter", "is_reserved": 0, "lon": -77.0296275}, {"fusion_lat": 0.0, "name": "475f66a554337c0eabaa6e9c83b68a97", "is_disabled": 0, "rental_uris": {"android": "https://dc.lft.to/lastmile_qr_scan", "ios": "https://dc.lft.to/lastmile_qr_scan"}, "fusion_lon": 0.0, "lat": 38.912594166666665, "bike_id": "475f66a554337c0eabaa6e9c83b68a97", "type": "electric_scooter", "is_reserved": 0, "lon": -77.03872116666666}, {"fusion_lat": 0.0, "name": "a67d28c3c89eeb629dd5f2bd9889b9d5", "is_disabled": 0, "rental_uris": {"android": "https://dc.lft.to/lastmile_qr_scan", "ios": "https://dc.lft.to/lastmile_qr_scan"}, "fusion_lon": 0.0, "lat": 38.91498966666666, "bike_id": "a67d28c3c89eeb629dd5f2bd9889b9d5", "type": "electric_scooter", "is_reserved": 0, "lon": -77.01223083333333}, {"fusion_lat": 0.0, "name": "4ad45060284ec67bf6c0bc09779ff676", "is_disabled": 0, "rental_uris": {"android": "https://dc.lft.to/lastmile_qr_scan", "ios": "https://dc.lft.to/lastmile_qr_scan"}, "fusion_lon": 0.0, "lat": 38.892701333333335, "bike_id": "4ad45060284ec67bf6c0bc09779ff676", "type": "electric_scooter", "is_reserved": 0, "lon": -77.03173833333334}, {"fusion_lat": 0.0, "name": "9c6698d08b27bb95f085f41512a6069e", "is_disabled": 0, "rental_uris": {"android": "https://dc.lft.to/lastmile_qr_scan", "ios": "https://dc.lft.to/lastmile_qr_scan"}, "fusion_lon": 0.0, "lat": 38.9157285, "bike_id": "9c6698d08b27bb95f085f41512a6069e", "type": "electric_scooter", "is_reserved": 0, "lon": -77.038562}, {"fusion_lat": 0.0, "name": "62d1507480ae6289addf64f888a84365", "is_disabled": 0, "rental_uris": {"android": "https://dc.lft.to/lastmile_qr_scan", "ios": "https://dc.lft.to/lastmile_qr_scan"}, "fusion_lon": 0.0, "lat": 38.90372416666666, "bike_id": "62d1507480ae6289addf64f888a84365", "type": "electric_scooter", "is_reserved": 0, "lon": -77.04003416666667}, {"fusion_lat": 0.0, "name": "59ac74a5db746d9ac3b7f0719d2ccd64", "is_disabled": 0, "rental_uris": {"android": "https://dc.lft.to/lastmile_qr_scan", "ios": "https://dc.lft.to/lastmile_qr_scan"}, "fusion_lon": 0.0, "lat": 38.913087, "bike_id": "59ac74a5db746d9ac3b7f0719d2ccd64", "type": "electric_scooter", "is_reserved": 0, "lon": -77.041667}, {"fusion_lat": 0.0, "name": "02c43b9c83d0c0b91e2823082d5615f6", "is_disabled": 0, "rental_uris": {"android": "https://dc.lft.to/lastmile_qr_scan", "ios": "https://dc.lft.to/lastmile_qr_scan"}, "fusion_lon": 0.0, "lat": 38.902519, "bike_id": "02c43b9c83d0c0b91e2823082d5615f6", "type": "electric_scooter", "is_reserved": 0, "lon": -77.00531616666666}, {"fusion_lat": 0.0, "name": "60a9648f16616c4d4ea7d40429fd5e51", "is_disabled": 0, "rental_uris": {"android": "https://dc.lft.to/lastmile_qr_scan", "ios": "https://dc.lft.to/lastmile_qr_scan"}, "fusion_lon": 0.0, "lat": 38.9272265, "bike_id": "60a9648f16616c4d4ea7d40429fd5e51", "type": "electric_scooter", "is_reserved": 0, "lon": -77.02307333333333}, {"fusion_lat": 0.0, "name": "082fc063cdf158ef7006584be893bb26", "is_disabled": 0, "rental_uris": {"android": "https://dc.lft.to/lastmile_qr_scan", "ios": "https://dc.lft.to/lastmile_qr_scan"}, "fusion_lon": 0.0, "lat": 38.911993833333334, "bike_id": "082fc063cdf158ef7006584be893bb26", "type": "electric_scooter", "is_reserved": 0, "lon": -77.00201183333333}, {"fusion_lat": 0.0, "name": "b4059c6f193eb401e52a750c5f1d446c", "is_disabled": 0, "rental_uris": {"android": "https://dc.lft.to/lastmile_qr_scan", "ios": "https://dc.lft.to/lastmile_qr_scan"}, "fusion_lon": 0.0, "lat": 38.8784795, "bike_id": "b4059c6f193eb401e52a750c5f1d446c", "type": "electric_scooter", "is_reserved": 0, "lon": -77.00109133333333}, {"fusion_lat": 0.0, "name": "e1aa3983e5202238332437e01b267404", "is_disabled": 0, "rental_uris": {"android": "https://dc.lft.to/lastmile_qr_scan", "ios": "https://dc.lft.to/lastmile_qr_scan"}, "fusion_lon": 0.0, "lat": 38.907441666666664, "bike_id": "e1aa3983e5202238332437e01b267404", "type": "electric_scooter", "is_reserved": 0, "lon": -77.04163483333333}, {"fusion_lat": 0.0, "name": "e0ed0451fd11c65cde03dce80f17026d", "is_disabled": 0, "rental_uris": {"android": "https://dc.lft.to/lastmile_qr_scan", "ios": "https://dc.lft.to/lastmile_qr_scan"}, "fusion_lon": 0.0, "lat": 38.87464633333333, "bike_id": "e0ed0451fd11c65cde03dce80f17026d", "type": "electric_scooter", "is_reserved": 0, "lon": -77.004695}, {"fusion_lat": 0.0, "name": "0b85cf2beb2aafa0347206860159f4e0", "is_disabled": 0, "rental_uris": {"android": "https://dc.lft.to/lastmile_qr_scan", "ios": "https://dc.lft.to/lastmile_qr_scan"}, "fusion_lon": 0.0, "lat": 38.903966833333335, "bike_id": "0b85cf2beb2aafa0347206860159f4e0", "type": "electric_scooter", "is_reserved": 0, "lon": -77.03423316666667}, {"fusion_lat": 0.0, "name": "6c54389759b9ecc5a455ec55c027ed65", "is_disabled": 0, "rental_uris": {"android": "https://dc.lft.to/lastmile_qr_scan", "ios": "https://dc.lft.to/lastmile_qr_scan"}, "fusion_lon": 0.0, "lat": 38.920990833333335, "bike_id": "6c54389759b9ecc5a455ec55c027ed65", "type": "electric_scooter", "is_reserved": 0, "lon": -77.02379966666666}, {"fusion_lat": 0.0, "name": "7ca49986d23a07898bcbc3faa294d9f5", "is_disabled": 0, "rental_uris": {"android": "https://dc.lft.to/lastmile_qr_scan", "ios": "https://dc.lft.to/lastmile_qr_scan"}, "fusion_lon": 0.0, "lat": 38.908563, "bike_id": "7ca49986d23a07898bcbc3faa294d9f5", "type": "electric_scooter", "is_reserved": 0, "lon": -77.03850166666666}, {"fusion_lat": 0.0, "name": "12b768b759e7647b91ff4c0c38a704d3", "is_disabled": 0, "rental_uris": {"android": "https://dc.lft.to/lastmile_qr_scan", "ios": "https://dc.lft.to/lastmile_qr_scan"}, "fusion_lon": 0.0, "lat": 38.9071085, "bike_id": "12b768b759e7647b91ff4c0c38a704d3", "type": "electric_scooter", "is_reserved": 0, "lon": -77.03253333333333}, {"fusion_lat": 0.0, "name": "9aa940b7c362057961ade4dc1116216a", "is_disabled": 0, "rental_uris": {"android": "https://dc.lft.to/lastmile_qr_scan", "ios": "https://dc.lft.to/lastmile_qr_scan"}, "fusion_lon": 0.0, "lat": 38.9213025, "bike_id": "9aa940b7c362057961ade4dc1116216a", "type": "electric_scooter", "is_reserved": 0, "lon": -77.02511516666667}, {"fusion_lat": 0.0, "name": "5d652a804ea505c3e7c4e2338ee83887", "is_disabled": 0, "rental_uris": {"android": "https://dc.lft.to/lastmile_qr_scan", "ios": "https://dc.lft.to/lastmile_qr_scan"}, "fusion_lon": 0.0, "lat": 38.91260883333333, "bike_id": "5d652a804ea505c3e7c4e2338ee83887", "type": "electric_scooter", "is_reserved": 0, "lon": -77.03491816666667}, {"fusion_lat": 0.0, "name": "e695e7a66a86cb394ea604d585ea00ce", "is_disabled": 0, "rental_uris": {"android": "https://dc.lft.to/lastmile_qr_scan", "ios": "https://dc.lft.to/lastmile_qr_scan"}, "fusion_lon": 0.0, "lat": 38.923068666666666, "bike_id": "e695e7a66a86cb394ea604d585ea00ce", "type": "electric_bike", "is_reserved": 0, "lon": -76.99366366666666}, {"fusion_lat": 0.0, "name": "1d0f980b79cf9bbf95e05729c17460a2", "is_disabled": 0, "rental_uris": {"android": "https://dc.lft.to/lastmile_qr_scan", "ios": "https://dc.lft.to/lastmile_qr_scan"}, "fusion_lon": 0.0, "lat": 38.93703766666667, "bike_id": "1d0f980b79cf9bbf95e05729c17460a2", "type": "electric_scooter", "is_reserved": 0, "lon": -77.02425933333333}, {"fusion_lat": 0.0, "name": "ed2c4ac50c6f74964148b28b93d11c34", "is_disabled": 0, "rental_uris": {"android": "https://dc.lft.to/lastmile_qr_scan", "ios": "https://dc.lft.to/lastmile_qr_scan"}, "fusion_lon": 0.0, "lat": 38.89904466666667, "bike_id": "ed2c4ac50c6f74964148b28b93d11c34", "type": "electric_scooter", "is_reserved": 0, "lon": -77.03949683333333}, {"fusion_lat": 0.0, "name": "b7f69231226c6ce6bf1216f9cf31119a", "is_disabled": 0, "rental_uris": {"android": "https://dc.lft.to/lastmile_qr_scan", "ios": "https://dc.lft.to/lastmile_qr_scan"}, "fusion_lon": 0.0, "lat": 38.92876616666667, "bike_id": "b7f69231226c6ce6bf1216f9cf31119a", "type": "electric_scooter", "is_reserved": 0, "lon": -77.01360366666667}, {"fusion_lat": 0.0, "name": "639f243a59eef88bedb7908f10280e20", "is_disabled": 0, "rental_uris": {"android": "https://dc.lft.to/lastmile_qr_scan", "ios": "https://dc.lft.to/lastmile_qr_scan"}, "fusion_lon": 0.0, "lat": 38.889937333333336, "bike_id": "639f243a59eef88bedb7908f10280e20", "type": "electric_scooter", "is_reserved": 0, "lon": -76.9837255}, {"fusion_lat": 0.0, "name": "6d23867aa1639eabbcf67c8ec749ff9c", "is_disabled": 0, "rental_uris": {"android": "https://dc.lft.to/lastmile_qr_scan", "ios": "https://dc.lft.to/lastmile_qr_scan"}, "fusion_lon": 0.0, "lat": 38.94495516666667, "bike_id": "6d23867aa1639eabbcf67c8ec749ff9c", "type": "electric_bike", "is_reserved": 0, "lon": -77.00679866666667}, {"fusion_lat": 0.0, "name": "8e2238b56ea23225c86ab3b739241fc4", "is_disabled": 0, "rental_uris": {"android": "https://dc.lft.to/lastmile_qr_scan", "ios": "https://dc.lft.to/lastmile_qr_scan"}, "fusion_lon": 0.0, "lat": 38.893855, "bike_id": "8e2238b56ea23225c86ab3b739241fc4", "type": "electric_scooter", "is_reserved": 0, "lon": -76.9230795}, {"fusion_lat": 0.0, "name": "e25bbefcbc66f9881103f90f3f71906b", "is_disabled": 0, "rental_uris": {"android": "https://dc.lft.to/lastmile_qr_scan", "ios": "https://dc.lft.to/lastmile_qr_scan"}, "fusion_lon": 0.0, "lat": 38.863446833333334, "bike_id": "e25bbefcbc66f9881103f90f3f71906b", "type": "electric_bike", "is_reserved": 0, "lon": -77.07720966666666}, {"fusion_lat": 0.0, "name": "26808206622828b95fe89700f0256240", "is_disabled": 0, "rental_uris": {"android": "https://dc.lft.to/lastmile_qr_scan", "ios": "https://dc.lft.to/lastmile_qr_scan"}, "fusion_lon": 0.0, "lat": 38.910215, "bike_id": "26808206622828b95fe89700f0256240", "type": "electric_scooter", "is_reserved": 0, "lon": -77.069081}, {"fusion_lat": 0.0, "name": "11a7f6aeef8cfe72f8c308364023c8d6", "is_disabled": 0, "rental_uris": {"android": "https://dc.lft.to/lastmile_qr_scan", "ios": "https://dc.lft.to/lastmile_qr_scan"}, "fusion_lon": 0.0, "lat": 38.9077195, "bike_id": "11a7f6aeef8cfe72f8c308364023c8d6", "type": "electric_scooter", "is_reserved": 0, "lon": -76.99710383333333}, {"fusion_lat": 0.0, "name": "6b561d223f4614288f0b9c70d3a4c919", "is_disabled": 0, "rental_uris": {"android": "https://dc.lft.to/lastmile_qr_scan", "ios": "https://dc.lft.to/lastmile_qr_scan"}, "fusion_lon": 0.0, "lat": 38.90100316666667, "bike_id": "6b561d223f4614288f0b9c70d3a4c919", "type": "electric_scooter", "is_reserved": 0, "lon": -77.04746983333334}, {"fusion_lat": 0.0, "name": "5cafc4d20920bd97c97f66d6b15a60fd", "is_disabled": 0, "rental_uris": {"android": "https://dc.lft.to/lastmile_qr_scan", "ios": "https://dc.lft.to/lastmile_qr_scan"}, "fusion_lon": 0.0, "lat": 38.90391183333333, "bike_id": "5cafc4d20920bd97c97f66d6b15a60fd", "type": "electric_scooter", "is_reserved": 0, "lon": -77.00196416666667}, {"fusion_lat": 0.0, "name": "26c3b6380d36a5ecea20d87e5c2ad6ab", "is_disabled": 0, "rental_uris": {"android": "https://dc.lft.to/lastmile_qr_scan", "ios": "https://dc.lft.to/lastmile_qr_scan"}, "fusion_lon": 0.0, "lat": 38.90893833333333, "bike_id": "26c3b6380d36a5ecea20d87e5c2ad6ab", "type": "electric_scooter", "is_reserved": 0, "lon": -77.034321}, {"fusion_lat": 0.0, "name": "976e9145569df722fac284cf0dfd5bcd", "is_disabled": 0, "rental_uris": {"android": "https://dc.lft.to/lastmile_qr_scan", "ios": "https://dc.lft.to/lastmile_qr_scan"}, "fusion_lon": 0.0, "lat": 38.9193815, "bike_id": "976e9145569df722fac284cf0dfd5bcd", "type": "electric_scooter", "is_reserved": 0, "lon": -77.04885633333333},