{"data": {"bikes": [{"bike_id": "866c08e33d66cb0b7bf49c0cf58c9346", "type": "electric_scooter", "is_disabled": 0, "lat": 38.896042, "rental_uris": {"ios": "https://dc.lft.to/lastmile_qr_scan", "android": "https://dc.lft.to/lastmile_qr_scan"}, "is_reserved": 0, "fusion_lon": 0.0, "fusion_lat": 0.0, "lon": -77.04484183333334, "name": "866c08e33d66cb0b7bf49c0cf58c9346"}, {"bike_id": "2463374209e0b2e174455eb32b169840", "type": "electric_scooter", "is_disabled": 0, "lat": 38.92330416666667, "rental_uris": {"ios": "https://dc.lft.to/lastmile_qr_scan", "android": "https://dc.lft.to/lastmile_qr_scan"}, "is_reserved": 0, "fusion_lon": 0.0, "fusion_lat": 0.0, "lon": -77.03575566666666, "name": "2463374209e0b2e174455eb32b169840"}, {"bike_id": "02b6a1fc566fb901e5c33512e74ea183", "type": "electric_scooter", "is_disabled": 0, "lat": 38.9360835, "rental_uris": {"ios": "https://dc.lft.to/lastmile_qr_scan", "android": "https://dc.lft.to/lastmile_qr_scan"}, "is_reserved": 0, "fusion_lon": 0.0, "fusion_lat": 0.0, "lon": -77.03806766666666, "name": "02b6a1fc566fb901e5c33512e74ea183"}, {"bike_id": "cbf86f2529421c565b291c8175704278", "type": "electric_scooter", "is_disabled": 0, "lat": 38.9114045, "rental_uris": {"ios": "https://dc.lft.to/lastmile_qr_scan", "android": "https://dc.lft.to/lastmile_qr_scan"}, "is_reserved": 0, "fusion_lon": 0.0, "fusion_lat": 0.0, "lon": -76.990125, "name": "cbf86f2529421c565b291c8175704278"}, {"bike_id": "b5071017d582fe7110548d3921529903", "type": "electric_scooter", "is_disabled": 0, "lat": 38.9243425, "rental_uris": {"ios": "https://dc.lft.to/lastmile_qr_scan", "android": "https://dc.lft.to/lastmile_qr_scan"}, "is_reserved": 0, "fusion_lon": 0.0, "fusion_lat": 0.0, "lon": -77.0424525, "name": "b5071017d582fe7110548d3921529903"}, {"bike_id": "002c0a6c2d4473a1919fed22c4bf9d8d", "type": "electric_scooter", "is_disabled": 0, "lat": 38.93357833333334, "rental_uris": {"ios": "https://dc.lft.to/lastmile_qr_scan", "android": "https://dc.lft.to/lastmile_qr_scan"}, "is_reserved": 0, "fusion_lon": 0.0, "fusion_lat": 0.0, "lon": -77.06209366666667, "name": "002c0a6c2d4473a1919fed22c4bf9d8d"}, {"bike_id": "9af74fecd120c656944b1bdf57574b35", "type": "electric_scooter", "is_disabled": 0, "lat": 38.90264366666667, "rental_uris": {"ios": "https://dc.lft.to/lastmile_qr_scan", "android": "https://dc.lft.to/lastmile_qr_scan"}, "is_reserved": 0, "fusion_lon": 0.0, "fusion_lat": 0.0, "lon": -77.02648216666667, "name": "9af74fecd120c656944b1bdf57574b35"}, {"bike_id": "35a7bbd18807f3e5108d4ff222187f72", "type": "electric_scooter", "is_disabled": 0, "lat": 38.938644, "rental_uris": {"ios": "https://dc.lft.to/lastmile_qr_scan", "android": "https://dc.lft.to/lastmile_qr_scan"}, "is_reserved": 0, "fusion_lon": 0.0, "fusion_lat": 0.0, "lon": -77.02704866666667, "name": "35a7bbd18807f3e5108d4ff222187f72"}, {"bike_id": "9346214f932d6a3aba7e4de8b074ab97", "type": "electric_scooter", "is_disabled": 0, "lat": 38.953121833333334, "rental_uris": {"ios": "https://dc.lft.to/lastmile_qr_scan", "android": "https://dc.lft.to/lastmile_qr_scan"}, "is_reserved": 0, "fusion_lon": 0.0, "fusion_lat": 0.0, "lon": -77.0698605, "name": "9346214f932d6a3aba7e4de8b074ab97"}, {"bike_id": "d3af1e4d234df456a5d87ac75c8d26d7", "type": "electric_bike", "is_disabled": 0, "lat": 38.87295433333333, "rental_uris": {"ios": "https://dc.lft.to/lastmile_qr_scan", "android": "https://dc.lft.to/lastmile_qr_scan"}, "is_reserved": 0, "fusion_lon": 0.0, "fusion_lat": 0.0, "lon": -77.13923483333333, "name": "d3af1e4d234df456a5d87ac75c8d26d7"}, {"bike_id": "ee24a2d8c789ec0c0aa8d9bc1e937105", "type": "electric_scooter", "is_disabled": 0, "lat": 38.92335683333334, "rental_uris": {"ios": "https://dc.lft.to/lastmile_qr_scan", "android": "https://dc.lft.to/lastmile_qr_scan"}, "is_reserved": 0, "fusion_lon": 0.0, "fusion_lat": 0.0, "lon": -77.05297266666666, "name": "ee24a2d8c789ec0c0aa8d9bc1e937105"}, {"bike_id": "7fe39d33f8d20da8b88303ca6fc34a27", "type": "electric_scooter", "is_disabled": 0, "lat": 38.910689166666664, "rental_uris": {"ios": "https://dc.lft.to/lastmile_qr_scan", "android": "https://dc.lft.to/lastmile_qr_scan"}, "is_reserved": 0, "fusion_lon": 0.0, "fusion_lat": 0.0, "lon": -77.02604866666667, "name": "7fe39d33f8d20da8b88303ca6fc34a27"}, {"bike_id": "b32a94ad503b0174be71a51416281e23", "type": "electric_scooter", "is_disabled": 0, "lat": 38.91559783333334, "rental_uris": {"ios": "https://dc.lft.to/lastmile_qr_scan", "android": "https://dc.lft.to/lastmile_qr_scan"}, "is_reserved": 0, "fusion_lon": 0.0, "fusion_lat": 0.0, "lon": -77.032004, "name": "b32a94ad503b0174be71a51416281e23"}, {"bike_id": "c1909ab5866d03630df8d57f4cb10350", "type": "electric_scooter", "is_disabled": 0, "lat": 38.90738116666667, "rental_uris": {"ios": "https://dc.lft.to/lastmile_qr_scan", "android": "https://dc.lft.to/lastmile_qr_scan"}, "is_reserved": 0, "fusion_lon": 0.0, "fusion_lat": 0.0, "lon": -77.00943533333333, "name": "c1909ab5866d03630df8d57f4cb10350"}, {"bike_id": "0e1a3c33c2f2dc737ffab1c75c6470d8", "type": "electric_scooter", "is_disabled": 0, "lat": 38.91792566666667, "rental_uris": {"ios": "https://dc.lft.to/lastmile_qr_scan", "android": "https://dc.lft.to/lastmile_qr_scan"}, "is_reserved": 0, "fusion_lon": 0.0, "fusion_lat": 0.0, "lon": -77.023149, "name": "0e1a3c33c2f2dc737ffab1c75c6470d8"}, {"bike_id": "02dcff897e8ca802cdd8e686c0bffc00", "type": "electric_scooter", "is_disabled": 0, "lat": 38.942108, "rental_uris": {"ios": "https://dc.lft.to/lastmile_qr_scan", "android": "https://dc.lft.to/lastmile_qr_scan"}, "is_reserved": 0, "fusion_lon": 0.0, "fusion_lat": 0.0, "lon": -77.0258215, "name": "02dcff897e8ca802cdd8e686c0bffc00"}, {"bike_id": "6eef5820789bc053fd665c0cdc0ad578", "type": "electric_scooter", "is_disabled": 0, "lat": 38.89498966666667, "rental_uris": {"ios": "https://dc.lft.to/lastmile_qr_scan", "android": "https://dc.lft.to/lastmile_qr_scan"}, "is_reserved": 0, "fusion_lon": 0.0, "fusion_lat": 0.0, "lon": -77.00211266666666, "name": "6eef5820789bc053fd665c0cdc0ad578"}, {"bike_id": "d148dabe9b669f449375fd0f54ede9bb", "type": "electric_scooter", "is_disabled": 0, "lat": 38.923442666666666, "rental_uris": {"ios": "https://dc.lft.to/lastmile_qr_scan", "android": "https://dc.lft.to/lastmile_qr_scan"}, "is_reserved": 0, "fusion_lon": 0.0, "fusion_lat": 0.0, "lon": -77.05114, "name": "d148dabe9b669f449375fd0f54ede9bb"}, {"bike_id": "47a5467d99530495fcbb73cdf7a37d5a", "type": "electric_bike", "is_disabled": 0, "lat": 39.05637633333333, "rental_uris": {"ios": "https://dc.lft.to/lastmile_qr_scan", "android": "https://dc.lft.to/lastmile_qr_scan"}, "is_reserved": 0, "fusion_lon": 0.0, "fusion_lat": 0.0, "lon": -77.12529016666667, "name": "47a5467d99530495fcbb73cdf7a37d5a"}, {"bike_id": "3def6687fec790e28504e80d3f533f51", "type": "electric_scooter", "is_disabled": 0, "lat": 38.911213333333336, "rental_uris": {"ios": "https://dc.lft.to/lastmile_qr_scan", "android": "https://dc.lft.to/lastmile_qr_scan"}, "is_reserved": 0, "fusion_lon": 0.0, "fusion_lat": 0.0, "lon": -77.03250916666667, "name": "3def6687fec790e28504e80d3f533f51"}, {"bike_id": "f66c6ee5d6751dabd80febba8a451c5c", "type": "electric_scooter", "is_disabled": 0, "lat": 38.93583816666667, "rental_uris": {"ios": "https://dc.lft.to/lastmile_qr_scan", "android": "https://dc.lft.to/lastmile_qr_scan"}, "is_reserved": 0, "fusion_lon": 0.0, "fusion_lat": 0.0, "lon": -77.05819366666667, "name": "f66c6ee5d6751dabd80febba8a451c5c"}, {"bike_id": "fbdfc3724533a818343eb1a9c8d11f4a", "type": "electric_scooter", "is_disabled": 0, "lat": 38.947871666666664, "rental_uris": {"ios": "https://dc.lft.to/lastmile_qr_scan", "android": "https://dc.lft.to/lastmile_qr_scan"}, "is_reserved": 0, "fusion_lon": 0.0, "fusion_lat": 0.0, "lon": -77.079342, "name": "fbdfc3724533a818343eb1a9c8d11f4a"}, {"bike_id": "f1b27a8206b7558c0dafe2639c07e03b", "type": "electric_scooter", "is_disabled": 0, "lat": 38.892306833333336, "rental_uris": {"ios": "https://dc.lft.to/lastmile_qr_scan", "android": "https://dc.lft.to/lastmile_qr_scan"}, "is_reserved": 0, "fusion_lon": 0.0, "fusion_lat": 0.0, "lon": -77.04996883333334, "name": "f1b27a8206b7558c0dafe2639c07e03b"}, {"bike_id": "7226ccb317a315a8959cbec97fe6ecab", "type": "electric_scooter", "is_disabled": 0, "lat": 38.91684683333333, "rental_uris": {"ios": "https://dc.lft.to/lastmile_qr_scan", "android": "https://dc.lft.to/lastmile_qr_scan"}, "is_reserved": 0, "fusion_lon": 0.0, "fusion_lat": 0.0, "lon": -77.04079133333333, "name": "7226ccb317a315a8959cbec97fe6ecab"}, {"bike_id": "5e1b0e2076e5b66dcd852dad6052e44e", "type": "electric_scooter", "is_disabled": 0, "lat": 38.92547233333333, "rental_uris": {"ios": "https://dc.lft.to/lastmile_qr_scan", "android": "https://dc.lft.to/lastmile_qr_scan"}, "is_reserved": 0, "fusion_lon": 0.0, "fusion_lat": 0.0, "lon": -77.03362783333333, "name": "5e1b0e2076e5b66dcd852dad6052e44e"}, {"bike_id": "c5f589870654510a4c955891555c8534", "type": "electric_scooter", "is_disabled": 0, "lat": 38.89883066666667, "rental_uris": {"ios": "https://dc.lft.to/lastmile_qr_scan", "android": "https://dc.lft.to/lastmile_qr_scan"}, "is_reserved": 0, "fusion_lon": 0.0, "fusion_lat": 0.0, "lon": -76.93173683333333, "name": "c5f589870654510a4c955891555c8534"}, {"bike_id": "cb64ea2264d5801f5ee37d6cb6717cb0", "type": "electric_scooter", "is_disabled": 0, "lat": 38.928631333333335, "rental_uris": {"ios": "https://dc.lft.to/lastmile_qr_scan", "android": "https://dc.lft.to/lastmile_qr_scan"}, "is_reserved": 0, "fusion_lon": 0.0, "fusion_lat": 0.0, "lon": -77.03711516666667, "name": "cb64ea2264d5801f5ee37d6cb6717cb0"}, {"bike_id": "ae89cdb8c0dbde5baa459f8dad7b95fb", "type": "electric_scooter", "is_disabled": 0, "lat": 38.95115466666667, "rental_uris": {"ios": "https://dc.lft.to/lastmile_qr_scan", "android": "https://dc.lft.to/lastmile_qr_scan"}, "is_reserved": 0, "fusion_lon": 0.0, "fusion_lat": 0.0, "lon": -77.01430933333333, "name": "ae89cdb8c0dbde5baa459f8dad7b95fb"}, {"bike_id": "b9c0e46c50227470c1dc5a1c4a0f245a", "type": "electric_scooter", "is_disabled": 0, "lat": 38.89497183333334, "rental_uris": {"ios": "https://dc.lft.to/lastmile_qr_scan", "android": "https://dc.lft.to/lastmile_qr_scan"}, "is_reserved": 0, "fusion_lon": 0.0, "fusion_lat": 0.0, "lon": -76.93481366666667, "name": "b9c0e46c50227470c1dc5a1c4a0f245a"}, {"bike_id": "86631fb8cce1320b1e9b9636e8ecf730", "type": "electric_scooter", "is_disabled": 0, "lat": 38.94918066666666, "rental_uris": {"ios": "https://dc.lft.to/lastmile_qr_scan", "android": "https://dc.lft.to/lastmile_qr_scan"}, "is_reserved": 0, "fusion_lon": 0.0, "fusion_lat": 0.0, "lon": -77.065371, "name": "86631fb8cce1320b1e9b9636e8ecf730"}, {"bike_id": "87334d3255f949c16211f5552010f4fa", "type": "electric_bike", "is_disabled": 0, "lat": 38.8483685, "rental_uris": {"ios": "https://dc.lft.to/lastmile_qr_scan", "android": "https://dc.lft.to/lastmile_qr_scan"}, "is_reserved": 0, "fusion_lon": 0.0, "fusion_lat": 0.0, "lon": -77.07920533333333, "name": "87334d3255f949c16211f5552010f4fa"}, {"bike_id": "c83a55a74821a256ad137300df06f8b9", "type": "electric_scooter", "is_disabled": 0, "lat": 38.8669285, "rental_uris": {"ios": "https://dc.lft.to/lastmile_qr_scan", "android": "https://dc.lft.to/lastmile_qr_scan"}, "is_reserved": 0, "fusion_lon": 0.0, "fusion_lat": 0.0, "lon": -76.98562283333334, "name": "c83a55a74821a256ad137300df06f8b9"}, {"bike_id": "3f5255623ac75e20f0278029fd8d4f50", "type": "electric_bike", "is_disabled": 0, "lat": 38.942623833333336, "rental_uris": {"ios": "https://dc.lft.to/lastmile_qr_scan", "android": "https://dc.lft.to/lastmile_qr_scan"}, "is_reserved": 0, "fusion_lon": 0.0, "fusion_lat": 0.0, "lon": -76.99068983333333, "name": "3f5255623ac75e20f0278029fd8d4f50"}, {"bike_id": "7133f3500e43fa1d4783c5fb7b5f6394", "type": "electric_scooter", "is_disabled": 0, "lat": 38.90504633333333, "rental_uris": {"ios": "https://dc.lft.to/lastmile_qr_scan", "android": "https://dc.lft.to/lastmile_qr_scan"}, "is_reserved": 0, "fusion_lon": 0.0, "fusion_lat": 0.0, "lon": -77.06882983333334, "name": "7133f3500e43fa1d4783c5fb7b5f6394"}, {"bike_id": "eb61814f2a10afa98ccc746e176f465c", "type": "electric_scooter", "is_disabled": 0, "lat": 38.916268, "rental_uris": {"ios": "https://dc.lft.to/lastmile_qr_scan", "android": "https://dc.lft.to/lastmile_qr_scan"}, "is_reserved": 0, "fusion_lon": 0.0, "fusion_lat": 0.0, "lon": -77.0319275, "name": "eb61814f2a10afa98ccc746e176f465c"}, {"bike_id": "340d2cd208e21768fc6e5e9c28c55b4a", "type": "electric_scooter", "is_disabled": 0, "lat": 38.907557, "rental_uris": {"ios": "https://dc.lft.to/lastmile_qr_scan", "android": "https://dc.lft.to/lastmile_qr_scan"}, "is_reserved": 0, "fusion_lon": 0.0, "fusion_lat": 0.0, "lon": -77.03448666666667, "name": "340d2cd208e21768fc6e5e9c28c55b4a"}, {"bike_id": "55667b2c913ffa6d84af17ef7a49f3c1", "type": "electric_scooter", "is_disabled": 0, "lat": 38.939265666666664, "rental_uris": {"ios": "https://dc.lft.to/lastmile_qr_scan", "android": "https://dc.lft.to/lastmile_qr_scan"}, "is_reserved": 0, "fusion_lon": 0.0, "fusion_lat": 0.0, "lon": -77.03686666666667, "name": "55667b2c913ffa6d84af17ef7a49f3c1"}, {"bike_id": "defbd03b59b84366bd50321bc185a5c4", "type": "electric_scooter", "is_disabled": 0, "lat": 38.90595866666666, "rental_uris": {"ios": "https://dc.lft.to/lastmile_qr_scan", "android": "https://dc.lft.to/lastmile_qr_scan"}, "is_reserved": 0, "fusion_lon": 0.0, "fusion_lat": 0.0, "lon": -77.007131, "name": "defbd03b59b84366bd50321bc185a5c4"}, {"bike_id": "e4ce34d778ea10798873197548ded1e2", "type": "electric_scooter", "is_disabled": 0, "lat": 38.876295, "rental_uris": {"ios": "https://dc.lft.to/lastmile_qr_scan", "android": "https://dc.lft.to/lastmile_qr_scan"}, "is_reserved": 0, "fusion_lon": 0.0, "fusion_lat": 0.0, "lon": -76.96524116666667, "name": "e4ce34d778ea10798873197548ded1e2"}, {"bike_id": "95cc3a5b79a8ed4b27797993c82418aa", "type": "electric_scooter", "is_disabled": 0, "lat": 38.90048, "rental_uris": {"ios": "https://dc.lft.to/lastmile_qr_scan", "android": "https://dc.lft.to/lastmile_qr_scan"}, "is_reserved": 0, "fusion_lon": 0.0, "fusion_lat": 0.0, "lon": -77.01330866666666, "name": "95cc3a5b79a8ed4b27797993c82418aa"}, {"bike_id": "cdd2c2bf543f03a0609b8208e1639851", "type": "electric_scooter", "is_disabled": 0, "lat": 38.900628166666664, "rental_uris": {"ios": "https://dc.lft.to/lastmile_qr_scan", "android": "https://dc.lft.to/lastmile_qr_scan"}, "is_reserved": 0, "fusion_lon": 0.0, "fusion_lat": 0.0, "lon": -76.92738483333333, "name": "cdd2c2bf543f03a0609b8208e1639851"}, {"bike_id": "978ecd64094ddd6abc07b3d3720c73cb", "type": "electric_scooter", "is_disabled": 0, "lat": 38.949941333333335, "rental_uris": {"ios": "https://dc.lft.to/lastmile_qr_scan", "android": "https://dc.lft.to/lastmile_qr_scan"}, "is_reserved": 0, "fusion_lon": 0.0, "fusion_lat": 0.0, "lon": -77.01831916666667, "name": "978ecd64094ddd6abc07b3d3720c73cb"}, {"bike_id": "91dc1a4c58fb5575312dd226ac3e9aea", "type": "electric_scooter", "is_disabled": 0, "lat": 38.89631, "rental_uris": {"ios": "https://dc.lft.to/lastmile_qr_scan", "android": "https://dc.lft.to/lastmile_qr_scan"}, "is_reserved": 0, "fusion_lon": 0.0, "fusion_lat": 0.0, "lon": -77.0396255, "name": "91dc1a4c58fb5575312dd226ac3e9aea"}, {"bike_id": "7618d1ce77e2983f0b1646637a27d93b", "type": "electric_scooter", "is_disabled": 0, "lat": 38.919196, "rental_uris": {"ios": "https://dc.lft.to/lastmile_qr_scan", "android": "https://dc.lft.to/lastmile_qr_scan"}, "is_reserved": 0, "fusion_lon": 0.0, "fusion_lat": 0.0, "lon": -77.02578783333334, "name": "7618d1ce77e2983f0b1646637a27d93b"}, {"bike_id": "d1ca0e69ca967fd66e1dd2d74c54162f", "type": "electric_scooter", "is_disabled": 0, "lat": 38.9011075, "rental_uris": {"ios": "https://dc.lft.to/lastmile_qr_scan", "android": "https://dc.lft.to/lastmile_qr_scan"}, "is_reserved": 0, "fusion_lon": 0.0, "fusion_lat": 0.0, "lon": -77.03641833333333, "name": "d1ca0e69ca967fd66e1dd2d74c54162f"}, {"bike_id": "e3f49c91b060f5144f6bc7735abafd33", "type": "electric_scooter", "is_disabled": 0, "lat": 38.9072095, "rental_uris": {"ios": "https://dc.lft.to/lastmile_qr_scan", "android": "https://dc.lft.to/lastmile_qr_scan"}, "is_reserved": 0, "fusion_lon": 0.0, "fusion_lat": 0.0, "lon": -77.04652083333333, "name": "e3f49c91b060f5144f6bc7735abafd33"}, {"bike_id": "6e50d60c10b7fa062e29c0ddb32a1eb7", "type": "electric_scooter", "is_disabled": 0, "lat": 38.906841166666666, "rental_uris": {"ios": "https://dc.lft.to/lastmile_qr_scan", "android": "https://dc.lft.to/lastmile_qr_scan"}, "is_reserved": 0, "fusion_lon": 0.0, "fusion_lat": 0.0, "lon": -77.0269155, "name": "6e50d60c10b7fa062e29c0ddb32a1eb7"}, {"bike_id": "0cf474c88ef0d2bc2b3aa819bb30ee09", "type": "electric_scooter", "is_disabled": 0, "lat": 38.872924, "rental_uris": {"ios": "https://dc.lft.to/lastmile_qr_scan", "android": "https://dc.lft.to/lastmile_qr_scan"}, "is_reserved": 0, "fusion_lon": 0.0, "fusion_lat": 0.0, "lon": -77.00984383333333, "name": "0cf474c88ef0d2bc2b3aa819bb30ee09"}, {"bike_id": "14b7fa4723f9538065eb261bb4529ac5", "type": "electric_scooter", "is_disabled": 0, "lat": 38.9268645, "rental_uris": {"ios": "https://dc.lft.to/lastmile_qr_scan", "android": "https://dc.lft.to/lastmile_qr_scan"}, "is_reserved": 0, "fusion_lon": 0.0, "fusion_lat": 0.0, "lon": -77.02158416666667, "name": "14b7fa4723f9538065eb261bb4529ac5"}, {"bike_id": "7ac866e1a6ddf2f1280005454951480c", "type": "electric_scooter", "is_disabled": 0, "lat": 38.89234016666666, "rental_uris": {"ios": "https://dc.lft.to/lastmile_qr_scan", "android": "https://dc.lft.to/lastmile_qr_scan"}, "is_reserved": 0, "fusion_lon": 0.0, "fusion_lat": 0.0, "lon": -77.0467335, "name": "7ac866e1a6ddf2f1280005454951480c"}, {"bike_id": "c1010596a9ee3ac17b00c9b8a556b52e", "type": "electric_scooter", "is_disabled": 0, "lat": 38.8900655, "rental_uris": {"ios": "https://dc.lft.to/lastmile_qr_scan", "android": "https://dc.lft.to/lastmile_qr_scan"}, "is_reserved": 0, "fusion_lon": 0.0, "fusion_lat": 0.0, "lon": -76.937445, "name": "c1010596a9ee3ac17b00c9b8a556b52e"}, {"bike_id": "989b87ce561be58a3ebab11cdd4cfea0", "type": "electric_scooter", "is_disabled": 0, "lat": 38.907207166666666, "rental_uris": {"ios": "https://dc.lft.to/lastmile_qr_scan", "android": "https://dc.lft.to/lastmile_qr_scan"}, "is_reserved": 0, "fusion_lon": 0.0, "fusion_lat": 0.0, "lon": -77.05020266666666, "name": "989b87ce561be58a3ebab11cdd4cfea0"}, {"bike_id": "e00f5c398a368b83cf2e4cc584dec97e", "type": "electric_scooter", "is_disabled": 0, "lat": 38.91148466666667, "rental_uris": {"ios": "https://dc.lft.to/lastmile_qr_scan", "android": "https://dc.lft.to/lastmile_qr_scan"}, "is_reserved": 0, "fusion_lon": 0.0, "fusion_lat": 0.0, "lon": -77.00666066666666, "name": "e00f5c398a368b83cf2e4cc584dec97e"}, {"bike_id": "92141bf17cc17bba5a3b6cc20cbf03a3", "type": "electric_scooter", "is_disabled": 0, "lat": 38.907331166666665, "rental_uris": {"ios": "https://dc.lft.to/lastmile_qr_scan", "android": "https://dc.lft.to/lastmile_qr_scan"}, "is_reserved": 0, "fusion_lon": 0.0, "fusion_lat": 0.0, "lon": -77.05329133333333, "name": "92141bf17cc17bba5a3b6cc20cbf03a3"}, {"bike_id": "fccced1729e09b001e7c16be2b3b7a65", "type": "electric_scooter", "is_disabled": 0, "lat": 38.90723916666666, "rental_uris": {"ios": "https://dc.lft.to/lastmile_qr_scan", "android": "https://dc.lft.to/lastmile_qr_scan"}, "is_reserved": 0, "fusion_lon": 0.0, "fusion_lat": 0.0, "lon": -77.04820616666667, "name": "fccced1729e09b001e7c16be2b3b7a65"}, {"bike_id": "8bf3cca318d4792f943e10d0325cc9d7", "type": "electric_scooter", "is_disabled": 0, "lat": 38.9240495, "rental_uris": {"ios": "https://dc.lft.to/lastmile_qr_scan", "android": "https://dc.lft.to/lastmile_qr_scan"}, "is_reserved": 0, "fusion_lon": 0.0, "fusion_lat": 0.0, "lon": -77.025487, "name": "8bf3cca318d4792f943e10d0325cc9d7"}, {"bike_id": "2d350745d5bae966992657cddb0919a3", "type": "electric_scooter", "is_disabled": 0, "lat": 38.8923365, "rental_uris": {"ios": "https://dc.lft.to/lastmile_qr_scan", "android": "https://dc.lft.to/lastmile_qr_scan"}, "is_reserved": 0, "fusion_lon": 0.0, "fusion_lat": 0.0, "lon": -77.04673516666666, "name": "2d350745d5bae966992657cddb0919a3"}, {"bike_id": "641ba073a29950875efd96718cad9ce9", "type": "electric_scooter", "is_disabled": 0, "lat": 38.95686383333334, "rental_uris": {"ios": "https://dc.lft.to/lastmile_qr_scan", "android": "https://dc.lft.to/lastmile_qr_scan"}, "is_reserved": 0, "fusion_lon": 0.0, "fusion_lat": 0.0, "lon": -77.02404866666667, "name": "641ba073a29950875efd96718cad9ce9"}, {"bike_id": "1901d4f0003b15eb7c481324c46d9b42", "type": "electric_scooter", "is_disabled": 0, "lat": 38.9026505, "rental_uris": {"ios": "https://dc.lft.to/lastmile_qr_scan", "android": "https://dc.lft.to/lastmile_qr_scan"}, "is_reserved": 0, "fusion_lon": 0.0, "fusion_lat": 0.0, "lon": -77.018873, "name": "1901d4f0003b15eb7c481324c46d9b42"}, {"bike_id": "87393544306a63307f04cd63240cc599", "type": "electric_bike", "is_disabled": 0, "lat": 38.79609583333333, "rental_uris": {"ios": "https://dc.lft.to/lastmile_qr_scan", "android": "https://dc.lft.to/lastmile_qr_scan"}, "is_reserved": 0, "fusion_lon": 0.0, "fusion_lat": 0.0, "lon": -76.99741633333333, "name": "87393544306a63307f04cd63240cc599"}, {"bike_id": "0158d5b4d2a6d01b28ff21f4b003f6c6", "type": "electric_scooter", "is_disabled": 0, "lat": 38.898450833333335, "rental_uris": {"ios": "https://dc.lft.to/lastmile_qr_scan", "android": "https://dc.lft.to/lastmile_qr_scan"}, "is_reserved": 0, "fusion_lon": 0.0, "fusion_lat": 0.0, "lon": -76.94632466666667, "name": "0158d5b4d2a6d01b28ff21f4b003f6c6"}, {"bike_id": "84b242cdf29c1d817bd390d215a82e3f", "type": "electric_scooter", "is_disabled": 0, "lat": 38.976765, "rental_uris": {"ios": "https://dc.lft.to/lastmile_qr_scan", "android": "https://dc.lft.to/lastmile_qr_scan"}, "is_reserved": 0, "fusion_lon": 0.0, "fusion_lat": 0.0, "lon": -77.0166175, "name": "84b242cdf29c1d817bd390d215a82e3f"}, {"bike_id": "cedd5d4f99adcadf5400f32eb03b7aa7", "type": "electric_bike", "is_disabled": 0, "lat": 38.81513266666666, "rental_uris": {"ios": "https://dc.lft.to/lastmile_qr_scan", "android": "https://dc.lft.to/lastmile_qr_scan"}, "is_reserved": 0, "fusion_lon": 0.0, "fusion_lat": 0.0, "lon": -77.12653383333334, "name": "cedd5d4f99adcadf5400f32eb03b7aa7"}, {"bike_id": "1b90dbab81d2d5b659b285bb0bcfde26", "type": "electric_scooter", "is_disabled": 0, "lat": 38.897405166666665, "rental_uris": {"ios": "https://dc.lft.to/lastmile_qr_scan", "android": "https://dc.lft.to/lastmile_qr_scan"}, "is_reserved": 0, "fusion_lon": 0.0, "fusion_lat": 0.0, "lon": -77.0077855, "name": "1b90dbab81d2d5b659b285bb0bcfde26"}, {"bike_id": "c6038d0e11e0d4055de1bd6622f5fde5", "type": "electric_scooter", "is_disabled": 0, "lat": 38.9245345, "rental_uris": {"ios": "https://dc.lft.to/lastmile_qr_scan", "android": "https://dc.lft.to/lastmile_qr_scan"}, "is_reserved": 0, "fusion_lon": 0.0, "fusion_lat": 0.0, "lon": -77.03339483333333, "name": "c6038d0e11e0d4055de1bd6622f5fde5"}, {"bike_id": "dd7d860cf75f03f59a5e48efab2444b2", "type": "electric_scooter", "is_disabled": 0, "lat": 38.88133666666667, "rental_uris": {"ios": "https://dc.lft.to/lastmile_qr_scan", "android": "https://dc.lft.to/lastmile_qr_scan"}, "is_reserved": 0, "fusion_lon": 0.0, "fusion_lat": 0.0, "lon": -77.00077516666667, "name": "dd7d860cf75f03f59a5e48efab2444b2"}, {"bike_id": "3a46931bb035dbac13503ad469cbc35e", "type": "electric_scooter", "is_disabled": 0, "lat": 38.90475716666667, "rental_uris": {"ios": "https://dc.lft.to/lastmile_qr_scan", "android": "https://dc.lft.to/lastmile_qr_scan"}, "is_reserved": 0, "fusion_lon": 0.0, "fusion_lat": 0.0, "lon": -77.06110016666666, "name": "3a46931bb035dbac13503ad469cbc35e"}, {"bike_id": "55850c5460540667f93eee2f358fca15", "type": "electric_scooter", "is_disabled": 0, "lat": 38.906832, "rental_uris": {"ios": "https://dc.lft.to/lastmile_qr_scan", "android": "https://dc.lft.to/lastmile_qr_scan"}, "is_reserved": 0, "fusion_lon": 0.0, "fusion_lat": 0.0, "lon": -77.026941, "name": "55850c5460540667f93eee2f358fca15"}, {"bike_id": "e4d23347676a65efd4336e5f50e0660c", "type": "electric_scooter", "is_disabled": 0, "lat": 38.92324933333333, "rental_uris": {"ios": "https://dc.lft.to/lastmile_qr_scan", "android": "https://dc.lft.to/lastmile_qr_scan"}, "is_reserved": 0, "fusion_lon": 0.0, "fusion_lat": 0.0, "lon": -77.05422433333334, "name": "e4d23347676a65efd4336e5f50e0660c"}, {"bike_id": "2f309a93aac74f3d3dc972c4a14d76a2", "type": "electric_bike", "is_disabled": 0, "lat": 38.90621733333333, "rental_uris": {"ios": "https://dc.lft.to/lastmile_qr_scan", "android": "https://dc.lft.to/lastmile_qr_scan"}, "is_reserved": 0, "fusion_lon": 0.0, "fusion_lat": 0.0, "lon": -76.98605133333334, "name": "2f309a93aac74f3d3dc972c4a14d76a2"}, {"bike_id": "bae0065c209012935a560e25bad620a6", "type": "electric_scooter", "is_disabled": 0, "lat": 38.857583166666664, "rental_uris": {"ios": "https://dc.lft.to/lastmile_qr_scan", "android": "https://dc.lft.to/lastmile_qr_scan"}, "is_reserved": 0, "fusion_lon": 0.0, "fusion_lat": 0.0, "lon": -76.9930305, "name": "bae0065c209012935a560e25bad620a6"}, {"bike_id": "8a8ad422c7afd9fc931b063877d605ff", "type": "electric_scooter", "is_disabled": 0, "lat": 38.9169445, "rental_uris": {"ios": "https://dc.lft.to/lastmile_qr_scan", "android": "https://dc.lft.to/lastmile_qr_scan"}, "is_reserved": 0, "fusion_lon": 0.0, "fusion_lat": 0.0, "lon": -77.02599466666666, "name": "8a8ad422c7afd9fc931b063877d605ff"}, {"bike_id": "e01a3c16e2bc6443c2bcee9fef5b6f99", "type": "electric_scooter", "is_disabled": 0, "lat": 38.947129, "rental_uris": {"ios": "https://dc.lft.to/lastmile_qr_scan", "android": "https://dc.lft.to/lastmile_qr_scan"}, "is_reserved": 0, "fusion_lon": 0.0, "fusion_lat": 0.0, "lon": -77.02779466666667, "name": "e01a3c16e2bc6443c2bcee9fef5b6f99"}, {"bike_id": "f62e1211860d9bb2d20da07cc785d3f0", "type": "electric_scooter", "is_disabled": 0, "lat": 38.938190666666664, "rental_uris": {"ios": "https://dc.lft.to/lastmile_qr_scan", "android": "https://dc.lft.to/lastmile_qr_scan"}, "is_reserved": 0, "fusion_lon": 0.0, "fusion_lat": 0.0, "lon": -77.02714383333333, "name": "f62e1211860d9bb2d20da07cc785d3f0"}, {"bike_id": "00c90e4f5396e2fc99cc94e7ec1c6e70", "type": "electric_scooter", "is_disabled": 0, "lat": 38.894824166666666, "rental_uris": {"ios": "https://dc.lft.to/lastmile_qr_scan", "android": "https://dc.lft.to/lastmile_qr_scan"}, "is_reserved": 0, "fusion_lon": 0.0, "fusion_lat": 0.0, "lon": -76.99515433333333, "name": "00c90e4f5396e2fc99cc94e7ec1c6e70"}, {"bike_id": "3405e14aaaa7e30b2761d5233c570150", "type": "electric_scooter", "is_disabled": 0, "lat": 38.923564666666664, "rental_uris": {"ios": "https://dc.lft.to/lastmile_qr_scan", "android": "https://dc.lft.to/lastmile_qr_scan"}, "is_reserved": 0, "fusion_lon": 0.0, "fusion_lat": 0.0, "lon": -77.0353605, "name": "3405e14aaaa7e30b2761d5233c570150"}, {"bike_id": "3db411e9d0af8b6981c55988607a4c74", "type": "electric_bike", "is_disabled": 0, "lat": 38.863373333333335, "rental_uris": {"ios": "https://dc.lft.to/lastmile_qr_scan", "android": "https://dc.lft.to/lastmile_qr_scan"}, "is_reserved": 0, "fusion_lon": 0.0, "fusion_lat": 0.0, "lon": -76.9872505, "name": "3db411e9d0af8b6981c55988607a4c74"}, {"bike_id": "7cd0b586346afa14285409aef5ac1046", "type": "electric_bike", "is_disabled": 0, "lat": 38.95353433333333, "rental_uris": {"ios": "https://dc.lft.to/lastmile_qr_scan", "android": "https://dc.lft.to/lastmile_qr_scan"}, "is_reserved": 0, "fusion_lon": 0.0, "fusion_lat": 0.0, "lon": -77.036525, "name": "7cd0b586346afa14285409aef5ac1046"}, {"bike_id": "294b3c64aebd177bef1d3b75fbf8b3a3", "type": "electric_scooter", "is_disabled": 0, "lat": 38.91380733333333, "rental_uris": {"ios": "https://dc.lft.to/lastmile_qr_scan", "android": "https://dc.lft.to/lastmile_qr_scan"}, "is_reserved": 0, "fusion_lon": 0.0, "fusion_lat": 0.0, "lon": -77.04605933333333, "name": "294b3c64aebd177bef1d3b75fbf8b3a3"}, {"bike_id": "6d8f8746cc6ef8bf3a2c219b193a98df", "type": "electric_bike", "is_disabled": 0, "lat": 38.829444, "rental_uris": {"ios": "https://dc.lft.to/lastmile_qr_scan", "android": "https://dc.lft.to/lastmile_qr_scan"}, "is_reserved": 0, "fusion_lon": 0.0, "fusion_lat": 0.0, "lon": -77.12350366666666, "name": "6d8f8746cc6ef8bf3a2c219b193a98df"}, {"bike_id": "3ea7baa00e506d3abb8356106ddfdbf1", "type": "electric_scooter", "is_disabled": 0, "lat": 38.93372816666667, "rental_uris": {"ios": "https://dc.lft.to/lastmile_qr_scan", "android": "https://dc.lft.to/lastmile_qr_scan"}, "is_reserved": 0, "fusion_lon": 0.0, "fusion_lat": 0.0, "lon": -77.05730366666667, "name": "3ea7baa00e506d3abb8356106ddfdbf1"}, {"bike_id": "8b1cd24319321672c662f08897c9e8e9", "type": "electric_scooter", "is_disabled": 0, "lat": 38.866969, "rental_uris": {"ios": "https://dc.lft.to/lastmile_qr_scan", "android": "https://dc.lft.to/lastmile_qr_scan"}, "is_reserved": 0, "fusion_lon": 0.0, "fusion_lat": 0.0, "lon": -76.98714466666667, "name": "8b1cd24319321672c662f08897c9e8e9"}, {"bike_id": "312ee2e6441da66780dc82629eca65c3", "type": "electric_scooter", "is_disabled": 0, "lat": 38.90527183333333, "rental_uris": {"ios": "https://dc.lft.to/lastmile_qr_scan", "android": "https://dc.lft.to/lastmile_qr_scan"}, "is_reserved": 0, "fusion_lon": 0.0, "fusion_lat": 0.0, "lon": -76.98620183333334, "name": "312ee2e6441da66780dc82629eca65c3"}, {"bike_id": "ff2ae75254984f87cfb5af7afbfbd0d0", "type": "electric_scooter", "is_disabled": 0, "lat": 38.8621415, "rental_uris": {"ios": "https://dc.lft.to/lastmile_qr_scan", "android": "https://dc.lft.to/lastmile_qr_scan"}, "is_reserved": 0, "fusion_lon": 0.0, "fusion_lat": 0.0, "lon": -76.99473283333333, "name": "ff2ae75254984f87cfb5af7afbfbd0d0"}, {"bike_id": "1a6d3b96a21aaeddddbff5eb03e1eadd", "type": "electric_scooter", "is_disabled": 0, "lat": 38.9216615, "rental_uris": {"ios": "https://dc.lft.to/lastmile_qr_scan", "android": "https://dc.lft.to/lastmile_qr_scan"}, "is_reserved": 0, "fusion_lon": 0.0, "fusion_lat": 0.0, "lon": -77.038551, "name": "1a6d3b96a21aaeddddbff5eb03e1eadd"}, {"bike_id": "8ebbe0b2643a976e4c968ddd30ca1c13", "type": "electric_bike", "is_disabled": 0, "lat": 38.897384333333335, "rental_uris": {"ios": "https://dc.lft.to/lastmile_qr_scan", "android": "https://dc.lft.to/lastmile_qr_scan"}, "is_reserved": 0, "fusion_lon": 0.0, "fusion_lat": 0.0, "lon": -77.05543033333333, "name": "8ebbe0b2643a976e4c968ddd30ca1c13"}, {"bike_id": "a807a34cfdc46707a0eaf8b7fe458689", "type": "electric_scooter", "is_disabled": 0, "lat": 38.90079583333333, "rental_uris": {"ios": "https://dc.lft.to/lastmile_qr_scan", "android": "https://dc.lft.to/lastmile_qr_scan"}, "is_reserved": 0, "fusion_lon": 0.0, "fusion_lat": 0.0, "lon": -77.0308505, "name": "a807a34cfdc46707a0eaf8b7fe458689"}, {"bike_id": "c26eb369a79b90382482c87860e1e86d", "type": "electric_scooter", "is_disabled": 0, "lat": 38.920492333333335, "rental_uris": {"ios": "https://dc.lft.to/lastmile_qr_scan", "android": "https://dc.lft.to/lastmile_qr_scan"}, "is_reserved": 0, "fusion_lon": 0.0, "fusion_lat": 0.0, "lon": -77.03407033333333, "name": "c26eb369a79b90382482c87860e1e86d"}, {"bike_id": "5eee02c47c77e9b1dd3e941c7906c186", "type": "electric_scooter", "is_disabled": 0, "lat": 38.91561016666667, "rental_uris": {"ios": "https://dc.lft.to/lastmile_qr_scan", "android": "https://dc.lft.to/lastmile_qr_scan"}, "is_reserved": 0, "fusion_lon": 0.0, "fusion_lat": 0.0, "lon": -77.031228, "name": "5eee02c47c77e9b1dd3e941c7906c186"}, {"bike_id": "9e06a1bbc06cf115b7ca9d1b5dc2c853", "type": "electric_scooter", "is_disabled": 0, "lat": 38.909688833333334, "rental_uris": {"ios": "https://dc.lft.to/lastmile_qr_scan", "android": "https://dc.lft.to/lastmile_qr_scan"}, "is_reserved": 0, "fusion_lon": 0.0, "fusion_lat": 0.0, "lon": -77.04541266666666, "name": "9e06a1bbc06cf115b7ca9d1b5dc2c853"}, {"bike_id": "8b3959beebd856d961a02427553ac0af", "type": "electric_scooter", "is_disabled": 0, "lat": 38.90730416666667, "rental_uris": {"ios": "https://dc.lft.to/lastmile_qr_scan", "android": "https://dc.lft.to/lastmile_qr_scan"}, "is_reserved": 0, "fusion_lon": 0.0, "fusion_lat": 0.0, "lon": -77.0433485, "name": "8b3959beebd856d961a02427553ac0af"}, {"bike_id": "afa2bcbd033c933df0db3f0ef9b6e076", "type": "electric_bike", "is_disabled": 0, "lat": 38.831587166666665, "rental_uris": {"ios": "https://dc.lft.to/lastmile_qr_scan", "android": "https://dc.lft.to/lastmile_qr_scan"}, "is_reserved": 0, "fusion_lon": 0.0, "fusion_lat": 0.0, "lon": -76.99547533333333, "name": "afa2bcbd033c933df0db3f0ef9b6e076"}, {"bike_id": "0ec254e13422cb8a04a6940876da5238", "type": "electric_scooter", "is_disabled": 0, "lat": 38.90243733333333, "rental_uris": {"ios": "https://dc.lft.to/lastmile_qr_scan", "android": "https://dc.lft.to/lastmile_qr_scan"}, "is_reserved": 0, "fusion_lon": 0.0, "fusion_lat": 0.0, "lon": -77.01841316666666, "name": "0ec254e13422cb8a04a6940876da5238"}, {"bike_id": "0f3727f723987b63e6faa6736c07efa7", "type": "electric_scooter", "is_disabled": 0, "lat": 38.90518733333333, "rental_uris": {"ios": "https://dc.lft.to/lastmile_qr_scan", "android": "https://dc.lft.to/lastmile_qr_scan"}, "is_reserved": 0, "fusion_lon": 0.0, "fusion_lat": 0.0, "lon": -77.04821083333333, "name": "0f3727f723987b63e6faa6736c07efa7"}, {"bike_id": "163076f19fd9fd837b649ebedc4fe8f5", "type": "electric_scooter", "is_disabled": 0, "lat": 38.89851616666667, "rental_uris": {"ios": "https://dc.lft.to/lastmile_qr_scan", "android": "https://dc.lft.to/lastmile_qr_scan"}, "is_reserved": 0, "fusion_lon": 0.0, "fusion_lat": 0.0, "lon": -77.02214416666666, "name": "163076f19fd9fd837b649ebedc4fe8f5"}, {"bike_id": "cc5f4049226f7283b2a1461d11c679e7", "type": "electric_scooter", "is_disabled": 0, "lat": 38.911468, "rental_uris": {"ios": "https://dc.lft.to/lastmile_qr_scan", "android": "https://dc.lft.to/lastmile_qr_scan"}, "is_reserved": 0, "fusion_lon": 0.0, "fusion_lat": 0.0, "lon": -77.02955466666667, "name": "cc5f4049226f7283b2a1461d11c679e7"}, {"bike_id": "2d9f58324740ae4cca2c19123738cd13", "type": "electric_scooter", "is_disabled": 0, "lat": 38.888480333333334, "rental_uris": {"ios": "https://dc.lft.to/lastmile_qr_scan", "android": "https://dc.lft.to/lastmile_qr_scan"}, "is_reserved": 0, "fusion_lon": 0.0, "fusion_lat": 0.0, "lon": -76.92681216666666, "name": "2d9f58324740ae4cca2c19123738cd13"}, {"bike_id": "10ba4d41b8ec2bb7fe7f6dee35ce322b", "type": "electric_scooter", "is_disabled": 0, "lat": 38.942702833333335, "rental_uris": {"ios": "https://dc.lft.to/lastmile_qr_scan", "android": "https://dc.lft.to/lastmile_qr_scan"}, "is_reserved": 0, "fusion_lon": 0.0, "fusion_lat": 0.0, "lon": -77.03256966666666, "name": "10ba4d41b8ec2bb7fe7f6dee35ce322b"}, {"bike_id": "e8dbf17d8906263105479440d69032c1", "type": "electric_scooter", "is_disabled": 0, "lat": 38.917672333333336, "rental_uris": {"ios": "https://dc.lft.to/lastmile_qr_scan", "android": "https://dc.lft.to/lastmile_qr_scan"}, "is_reserved": 0, "fusion_lon": 0.0, "fusion_lat": 0.0, "lon": -77.04551283333333, "name": "e8dbf17d8906263105479440d69032c1"}, {"bike_id": "3e2a1b026815445648f17830b5fce96f", "type": "electric_scooter", "is_disabled": 0, "lat": 38.853191333333335, "rental_uris": {"ios": "https://dc.lft.to/lastmile_qr_scan", "android": "https://dc.lft.to/lastmile_qr_scan"}, "is_reserved": 0, "fusion_lon": 0.0, "fusion_lat": 0.0, "lon": -76.980039, "name": "3e2a1b026815445648f17830b5fce96f"}, {"bike_id": "cf267cec92ae5616bbfadb98c2882fda", "type": "electric_scooter", "is_disabled": 0, "lat": 38.878667, "rental_uris": {"ios": "https://dc.lft.to/lastmile_qr_scan", "android": "https://dc.lft.to/lastmile_qr_scan"}, "is_reserved": 0, "fusion_lon": 0.0, "fusion_lat": 0.0, "lon": -76.96985933333333, "name": "cf267cec92ae5616bbfadb98c2882fda"}, {"bike_id": "43d0ff8f0638e1774d272051d669a940", "type": "electric_scooter", "is_disabled": 0, "lat": 38.91109933333333, "rental_uris": {"ios": "https://dc.lft.to/lastmile_qr_scan", "android": "https://dc.lft.to/lastmile_qr_scan"}, "is_reserved": 0, "fusion_lon": 0.0, "fusion_lat": 0.0, "lon": -77.0382885, "name": "43d0ff8f0638e1774d272051d669a940"}, {"bike_id": "a50bbd0b762a30f81bf99c4fea8ff689", "type": "electric_scooter", "is_disabled": 0, "lat": 38.9291325, "rental_uris": {"ios": "https://dc.lft.to/lastmile_qr_scan", "android": "https://dc.lft.to/lastmile_qr_scan"}, "is_reserved": 0, "fusion_lon": 0.0, "fusion_lat": 0.0, "lon": -77.02087333333333, "name": "a50bbd0b762a30f81bf99c4fea8ff689"}, {"bike_id": "c8c8e4f3ee3380ef1e3404e365049c1b", "type": "electric_scooter", "is_disabled": 0, "lat": 38.9053325, "rental_uris": {"ios": "https://dc.lft.to/lastmile_qr_scan", "android": "https://dc.lft.to/lastmile_qr_scan"}, "is_reserved": 0, "fusion_lon": 0.0, "fusion_lat": 0.0, "lon": -77.05329216666667, "name": "c8c8e4f3ee3380ef1e3404e365049c1b"}, {"bike_id": "d08956f395123c6b9fe591d2d36d88de", "type": "electric_scooter", "is_disabled": 0, "lat": 38.902301666666666, "rental_uris": {"ios": "https://dc.lft.to/lastmile_qr_scan", "android": "https://dc.lft.to/lastmile_qr_scan"}, "is_reserved": 0, "fusion_lon": 0.0, "fusion_lat": 0.0, "lon": -77.0433055, "name": "d08956f395123c6b9fe591d2d36d88de"}, {"bike_id": "20cbed8c335354ccfaa824ebeeb549e9", "type": "electric_scooter", "is_disabled": 0, "lat": 38.92480583333333, "rental_uris": {"ios": "https://dc.lft.to/lastmile_qr_scan", "android": "https://dc.lft.to/lastmile_qr_scan"}, "is_reserved": 0, "fusion_lon": 0.0, "fusion_lat": 0.0, "lon": -77.02831216666667, "name": "20cbed8c335354ccfaa824ebeeb549e9"}, {"bike_id": "40d3e07e8e59433fcca4b79c62e41f02", "type": "electric_scooter", "is_disabled": 0, "lat": 38.91440033333333, "rental_uris": {"ios": "https://dc.lft.to/lastmile_qr_scan", "android": "https://dc.lft.to/lastmile_qr_scan"}, "is_reserved": 0, "fusion_lon": 0.0, "fusion_lat": 0.0, "lon": -77.02290016666667, "name": "40d3e07e8e59433fcca4b79c62e41f02"}, {"bike_id": "5a19a47c81e23115f95d9a23c5c024c8", "type": "electric_scooter", "is_disabled": 0, "lat": 38.8742065, "rental_uris": {"ios": "https://dc.lft.to/lastmile_qr_scan", "android": "https://dc.lft.to/lastmile_qr_scan"}, "is_reserved": 0, "fusion_lon": 0.0, "fusion_lat": 0.0, "lon": -76.9690595, "name": "5a19a47c81e23115f95d9a23c5c024c8"}, {"bike_id": "f9952f000e71b8010abe6a154245822c", "type": "electric_scooter", "is_disabled": 0, "lat": 38.866859833333336, "rental_uris": {"ios": "https://dc.lft.to/lastmile_qr_scan", "android": "https://dc.lft.to/lastmile_qr_scan"}, "is_reserved": 0, "fusion_lon": 0.0, "fusion_lat": 0.0, "lon": -76.98576583333333, "name": "f9952f000e71b8010abe6a154245822c"}, {"bike_id": "bab43bb90746893361bc5f08a223b77a", "type": "electric_scooter", "is_disabled": 0, "lat": 38.9163955, "rental_uris": {"ios": "https://dc.lft.to/lastmile_qr_scan", "android": "https://dc.lft.to/lastmile_qr_scan"}, "is_reserved": 0, "fusion_lon": 0.0, "fusion_lat": 0.0, "lon": -77.02284866666666, "name": "bab43bb90746893361bc5f08a223b77a"}, {"bike_id": "a8a3d489d3516817bc77cfb048ce65a2", "type": "electric_scooter", "is_disabled": 0, "lat": 38.947904333333334, "rental_uris": {"ios": "https://dc.lft.to/lastmile_qr_scan", "android": "https://dc.lft.to/lastmile_qr_scan"}, "is_reserved": 0, "fusion_lon": 0.0, "fusion_lat": 0.0, "lon": -77.02134933333333, "name": "a8a3d489d3516817bc77cfb048ce65a2"}, {"bike_id": "140a10ee0107a3096a0d208d69902acb", "type": "electric_bike", "is_disabled": 0, "lat": 38.99605316666667, "rental_uris": {"ios": "https://dc.lft.to/lastmile_qr_scan", "android": "https://dc.lft.to/lastmile_qr_scan"}, "is_reserved": 0, "fusion_lon": 0.0, "fusion_lat": 0.0, "lon": -77.02672316666667, "name": "140a10ee0107a3096a0d208d69902acb"}, {"bike_id": "5ad6c3753f4fe985d84c9eb47bef1485", "type": "electric_scooter", "is_disabled": 0, "lat": 38.93401716666666, "rental_uris": {"ios": "https://dc.lft.to/lastmile_qr_scan", "android": "https://dc.lft.to/lastmile_qr_scan"}, "is_reserved": 0, "fusion_lon": 0.0, "fusion_lat": 0.0, "lon": -77.02209683333334, "name": "5ad6c3753f4fe985d84c9eb47bef1485"}, {"bike_id": "502745651badbed7f00b5382846a4254", "type": "electric_scooter", "is_disabled": 0, "lat": 38.93343483333334, "rental_uris": {"ios": "https://dc.lft.to/lastmile_qr_scan", "android": "https://dc.lft.to/lastmile_qr_scan"}, "is_reserved": 0, "fusion_lon": 0.0, "fusion_lat": 0.0, "lon": -77.02620683333333, "name": "502745651badbed7f00b5382846a4254"}, {"bike_id": "499022035f1aa2c65b311ee684133731", "type": "electric_scooter", "is_disabled": 0, "lat": 38.910268, "rental_uris": {"ios": "https://dc.lft.to/lastmile_qr_scan", "android": "https://dc.lft.to/lastmile_qr_scan"}, "is_reserved": 0, "fusion_lon": 0.0, "fusion_lat": 0.0, "lon": -77.00756983333333, "name": "499022035f1aa2c65b311ee684133731"}, {"bike_id": "445dd760661dcc0ecd7030fb8255bea3", "type": "electric_scooter", "is_disabled": 0, "lat": 38.913046, "rental_uris": {"ios": "https://dc.lft.to/lastmile_qr_scan", "android": "https://dc.lft.to/lastmile_qr_scan"}, "is_reserved": 0, "fusion_lon": 0.0, "fusion_lat": 0.0, "lon": -77.04554133333333, "name": "445dd760661dcc0ecd7030fb8255bea3"}, {"bike_id": "4a06024e6dc124cd1a26c50fd7b5f213", "type": "electric_scooter", "is_disabled": 0, "lat": 38.916919166666666, "rental_uris": {"ios": "https://dc.lft.to/lastmile_qr_scan", "android": "https://dc.lft.to/lastmile_qr_scan"}, "is_reserved": 0, "fusion_lon": 0.0, "fusion_lat": 0.0, "lon": -77.0376985, "name": "4a06024e6dc124cd1a26c50fd7b5f213"}, {"bike_id": "96d9bc37332cf85166f3212b9ae45343", "type": "electric_scooter", "is_disabled": 0, "lat": 38.93307316666667, "rental_uris": {"ios": "https://dc.lft.to/lastmile_qr_scan", "android": "https://dc.lft.to/lastmile_qr_scan"}, "is_reserved": 0, "fusion_lon": 0.0, "fusion_lat": 0.0, "lon": -77.03265566666667, "name": "96d9bc37332cf85166f3212b9ae45343"}, {"bike_id": "571c616c20b17dda02127083a12652f8", "type": "electric_scooter", "is_disabled": 0, "lat": 38.91421283333333, "rental_uris": {"ios": "https://dc.lft.to/lastmile_qr_scan", "android": "https://dc.lft.to/lastmile_qr_scan"}, "is_reserved": 0, "fusion_lon": 0.0, "fusion_lat": 0.0, "lon": -77.04810333333333, "name": "571c616c20b17dda02127083a12652f8"}, {"bike_id": "dcb1d75d737f64f1857e4d8561bfda8b", "type": "electric_scooter", "is_disabled": 0, "lat": 38.892428, "rental_uris": {"ios": "https://dc.lft.to/lastmile_qr_scan", "android": "https://dc.lft.to/lastmile_qr_scan"}, "is_reserved": 0, "fusion_lon": 0.0, "fusion_lat": 0.0, "lon": -77.02204966666666, "name": "dcb1d75d737f64f1857e4d8561bfda8b"}, {"bike_id": "0890e1cdf9695ae075c9456b7b4f2c5c", "type": "electric_scooter", "is_disabled": 0, "lat": 38.86656033333333, "rental_uris": {"ios": "https://dc.lft.to/lastmile_qr_scan", "android": "https://dc.lft.to/lastmile_qr_scan"}, "is_reserved": 0, "fusion_lon": 0.0, "fusion_lat": 0.0, "lon": -76.988876, "name": "0890e1cdf9695ae075c9456b7b4f2c5c"}, {"bike_id": "bb0164d5070f3da8fc34e5839eaa47fe", "type": "electric_scooter", "is_disabled": 0, "lat": 38.90974716666667, "rental_uris": {"ios": "https://dc.lft.to/lastmile_qr_scan", "android": "https://dc.lft.to/lastmile_qr_scan"}, "is_reserved": 0, "fusion_lon": 0.0, "fusion_lat": 0.0, "lon": -77.0386375, "name": "bb0164d5070f3da8fc34e5839eaa47fe"}, {"bike_id": "1b72d5b18d059833fca7dbdbb6e7b81a", "type": "electric_bike", "is_disabled": 0, "lat": 38.88059533333333, "rental_uris": {"ios": "https://dc.lft.to/lastmile_qr_scan", "android": "https://dc.lft.to/lastmile_qr_scan"}, "is_reserved": 0, "fusion_lon": 0.0, "fusion_lat": 0.0, "lon": -76.9624025, "name": "1b72d5b18d059833fca7dbdbb6e7b81a"}, {"bike_id": "aa5775231ed7971e56b28fd111fe86a6", "type": "electric_bike", "is_disabled": 0, "lat": 38.910154, "rental_uris": {"ios": "https://dc.lft.to/lastmile_qr_scan", "android": "https://dc.lft.to/lastmile_qr_scan"}, "is_reserved": 0, "fusion_lon": 0.0, "fusion_lat": 0.0, "lon": -77.22798533333334, "name": "aa5775231ed7971e56b28fd111fe86a6"}, {"bike_id": "bbdd32f33701a09fb3b083dae4186564", "type": "electric_scooter", "is_disabled": 0, "lat": 38.8903925, "rental_uris": {"ios": "https://dc.lft.to/lastmile_qr_scan", "android": "https://dc.lft.to/lastmile_qr_scan"}, "is_reserved": 0, "fusion_lon": 0.0, "fusion_lat": 0.0, "lon": -76.93751, "name": "bbdd32f33701a09fb3b083dae4186564"}, {"bike_id": "a8b1fda20c032dcb5059c5a70a9c68a6", "type": "electric_scooter", "is_disabled": 0, "lat": 38.924391, "rental_uris": {"ios": "https://dc.lft.to/lastmile_qr_scan", "android": "https://dc.lft.to/lastmile_qr_scan"}, "is_reserved": 0, "fusion_lon": 0.0, "fusion_lat": 0.0, "lon": -77.0402425, "name": "a8b1fda20c032dcb5059c5a70a9c68a6"}, {"bike_id": "1a5a8f11f5c3ccd0f7ea54e7cb2b5671", "type": "electric_scooter", "is_disabled": 0, "lat": 38.8697835, "rental_uris": {"ios": "https://dc.lft.to/lastmile_qr_scan", "android": "https://dc.lft.to/lastmile_qr_scan"}, "is_reserved": 0, "fusion_lon": 0.0, "fusion_lat": 0.0, "lon": -76.98171, "name": "1a5a8f11f5c3ccd0f7ea54e7cb2b5671"}, {"bike_id": "b3d9898453f4c428e149a659e50b369b", "type": "electric_scooter", "is_disabled": 0, "lat": 38.92373216666667, "rental_uris": {"ios": "https://dc.lft.to/lastmile_qr_scan", "android": "https://dc.lft.to/lastmile_qr_scan"}, "is_reserved": 0, "fusion_lon": 0.0, "fusion_lat": 0.0, "lon": -77.03054933333334, "name": "b3d9898453f4c428e149a659e50b369b"}, {"bike_id": "ecbf8e0f46211598fa5186901deecc31", "type": "electric_bike", "is_disabled": 0, "lat": 38.87280633333334, "rental_uris": {"ios": "https://dc.lft.to/lastmile_qr_scan", "android": "https://dc.lft.to/lastmile_qr_scan"}, "is_reserved": 0, "fusion_lon": 0.0, "fusion_lat": 0.0, "lon": -77.23320966666667, "name": "ecbf8e0f46211598fa5186901deecc31"}, {"bike_id": "ba0e8f8b5bca0ef58442f2cd93f0a93d", "type": "electric_scooter", "is_disabled": 0, "lat": 38.91796033333333, "rental_uris": {"ios": "https://dc.lft.to/lastmile_qr_scan", "android": "https://dc.lft.to/lastmile_qr_scan"}, "is_reserved": 0, "fusion_lon": 0.0, "fusion_lat": 0.0, "lon": -77.02314483333333, "name": "ba0e8f8b5bca0ef58442f2cd93f0a93d"}, {"bike_id": "a1e0470f11a2af47e58b44e2e2e01478", "type": "electric_scooter", "is_disabled": 0, "lat": 38.900306, "rental_uris": {"ios": "https://dc.lft.to/lastmile_qr_scan", "android": "https://dc.lft.to/lastmile_qr_scan"}, "is_reserved": 0, "fusion_lon": 0.0, "fusion_lat": 0.0, "lon": -77.00184183333333, "name": "a1e0470f11a2af47e58b44e2e2e01478"}, {"bike_id": "65a2c2f7e8893e8c8429ba111dc7394e", "type": "electric_scooter", "is_disabled": 0, "lat": 38.90229466666667, "rental_uris": {"ios": "https://dc.lft.to/lastmile_qr_scan", "android": "https://dc.lft.to/lastmile_qr_scan"}, "is_reserved": 0, "fusion_lon": 0.0, "fusion_lat": 0.0, "lon": -77.04025516666667, "name": "65a2c2f7e8893e8c8429ba111dc7394e"}, {"bike_id": "7eff221d084dc8d80fdc113bdf25f92e", "type": "electric_scooter", "is_disabled": 0, "lat": 38.93144566666667, "rental_uris": {"ios": "https://dc.lft.to/lastmile_qr_scan", "android": "https://dc.lft.to/lastmile_qr_scan"}, "is_reserved": 0, "fusion_lon": 0.0, "fusion_lat": 0.0, "lon": -77.03353766666666, "name": "7eff221d084dc8d80fdc113bdf25f92e"}, {"bike_id": "758588cb77c31a678717b9f282736796", "type": "electric_scooter", "is_disabled": 0, "lat": 38.916975, "rental_uris": {"ios": "https://dc.lft.to/lastmile_qr_scan", "android": "https://dc.lft.to/lastmile_qr_scan"}, "is_reserved": 0, "fusion_lon": 0.0, "fusion_lat": 0.0, "lon": -77.03202933333333, "name": "758588cb77c31a678717b9f282736796"}, {"bike_id": "b19b1ff0ef23463237d06a7a47859c4b", "type": "electric_scooter", "is_disabled": 0, "lat": 38.911383, "rental_uris": {"ios": "https://dc.lft.to/lastmile_qr_scan", "android": "https://dc.lft.to/lastmile_qr_scan"}, "is_reserved": 0, "fusion_lon": 0.0, "fusion_lat": 0.0, "lon": -77.06534166666667, "name": "b19b1ff0ef23463237d06a7a47859c4b"}, {"bike_id": "1e75a1eebc7216aae13445a9afa410b8", "type": "electric_scooter", "is_disabled": 0, "lat": 38.9038945, "rental_uris": {"ios": "https://dc.lft.to/lastmile_qr_scan", "android": "https://dc.lft.to/lastmile_qr_scan"}, "is_reserved": 0, "fusion_lon": 0.0, "fusion_lat": 0.0, "lon": -77.06852316666667, "name": "1e75a1eebc7216aae13445a9afa410b8"}, {"bike_id": "eaada210df43785656f087f5bb6457bf", "type": "electric_scooter", "is_disabled": 0, "lat": 38.909742, "rental_uris": {"ios": "https://dc.lft.to/lastmile_qr_scan", "android": "https://dc.lft.to/lastmile_qr_scan"}, "is_reserved": 0, "fusion_lon": 0.0, "fusion_lat": 0.0, "lon": -77.032304, "name": "eaada210df43785656f087f5bb6457bf"}, {"bike_id": "97e2188c52946bcb293201bb8de113b1", "type": "electric_scooter", "is_disabled": 0, "lat": 38.89807833333333, "rental_uris": {"ios": "https://dc.lft.to/lastmile_qr_scan", "android": "https://dc.lft.to/lastmile_qr_scan"}, "is_reserved": 0, "fusion_lon": 0.0, "fusion_lat": 0.0, "lon": -77.0237055, "name": "97e2188c52946bcb293201bb8de113b1"}, {"bike_id": "2b3a245447b439afbbeea6a329436d5b", "type": "electric_scooter", "is_disabled": 0, "lat": 38.93718033333333, "rental_uris": {"ios": "https://dc.lft.to/lastmile_qr_scan", "android": "https://dc.lft.to/lastmile_qr_scan"}, "is_reserved": 0, "fusion_lon": 0.0, "fusion_lat": 0.0, "lon": -76.99053266666667, "name": "2b3a245447b439afbbeea6a329436d5b"}, {"bike_id": "979580dfe9dba303c82e1bdcaf837e20", "type": "electric_scooter", "is_disabled": 0, "lat": 38.9127815, "rental_uris": {"ios": "https://dc.lft.to/lastmile_qr_scan", "android": "https://dc.lft.to/lastmile_qr_scan"}, "is_reserved": 0, "fusion_lon": 0.0, "fusion_lat": 0.0, "lon": -77.051555, "name": "979580dfe9dba303c82e1bdcaf837e20"}, {"bike_id": "bf6165d32024c239839b6325b8017020", "type": "electric_scooter", "is_disabled": 0, "lat": 38.920194333333335, "rental_uris": {"ios": "https://dc.lft.to/lastmile_qr_scan", "android": "https://dc.lft.to/lastmile_qr_scan"}, "is_reserved": 0, "fusion_lon": 0.0, "fusion_lat": 0.0, "lon": -77.02008283333333, "name": "bf6165d32024c239839b6325b8017020"}, {"bike_id": "f767271dc589750a679c10dcb8a8064e", "type": "electric_scooter", "is_disabled": 0, "lat": 38.88269183333333, "rental_uris": {"ios": "https://dc.lft.to/lastmile_qr_scan", "android": "https://dc.lft.to/lastmile_qr_scan"}, "is_reserved": 0, "fusion_lon": 0.0, "fusion_lat": 0.0, "lon": -76.99249866666666, "name": "f767271dc589750a679c10dcb8a8064e"}, {"bike_id": "38a313fe8a1ed6ac7b76e44ae3e948e6", "type": "electric_scooter", "is_disabled": 0, "lat": 38.921673166666665, "rental_uris": {"ios": "https://dc.lft.to/lastmile_qr_scan", "android": "https://dc.lft.to/lastmile_qr_scan"}, "is_reserved": 0, "fusion_lon": 0.0, "fusion_lat": 0.0, "lon": -77.03313, "name": "38a313fe8a1ed6ac7b76e44ae3e948e6"}, {"bike_id": "6c2642ecf2dcb63248fc427d0ee71099", "type": "electric_scooter", "is_disabled": 0, "lat": 38.94331316666667, "rental_uris": {"ios": "https://dc.lft.to/lastmile_qr_scan", "android": "https://dc.lft.to/lastmile_qr_scan"}, "is_reserved": 0, "fusion_lon": 0.0, "fusion_lat": 0.0, "lon": -77.014809, "name": "6c2642ecf2dcb63248fc427d0ee71099"}, {"bike_id": "b800f733923cb03dbc2d7406bbf110f2", "type": "electric_bike", "is_disabled": 0, "lat": 38.8572255, "rental_uris": {"ios": "https://dc.lft.to/lastmile_qr_scan", "android": "https://dc.lft.to/lastmile_qr_scan"}, "is_reserved": 0, "fusion_lon": 0.0, "fusion_lat": 0.0, "lon": -77.0796915, "name": "b800f733923cb03dbc2d7406bbf110f2"}, {"bike_id": "9b925f6a060ba06133855de9ab469226", "type": "electric_scooter", "is_disabled": 0, "lat": 38.902185, "rental_uris": {"ios": "https://dc.lft.to/lastmile_qr_scan", "android": "https://dc.lft.to/lastmile_qr_scan"}, "is_reserved": 0, "fusion_lon": 0.0, "fusion_lat": 0.0, "lon": -77.040839, "name": "9b925f6a060ba06133855de9ab469226"}, {"bike_id": "4a24b7db8f4d82d4cd58e0f43f547a9c", "type": "electric_scooter", "is_disabled": 0, "lat": 38.899158666666665, "rental_uris": {"ios": "https://dc.lft.to/lastmile_qr_scan", "android": "https://dc.lft.to/lastmile_qr_scan"}, "is_reserved": 0, "fusion_lon": 0.0, "fusion_lat": 0.0, "lon": -76.93368316666667, "name": "4a24b7db8f4d82d4cd58e0f43f547a9c"}, {"bike_id": "2ac16f35550fb2d9378a11fece6cd2c4", "type": "electric_scooter", "is_disabled": 0, "lat": 38.914425333333334, "rental_uris": {"ios": "https://dc.lft.to/lastmile_qr_scan", "android": "https://dc.lft.to/lastmile_qr_scan"}, "is_reserved": 0, "fusion_lon": 0.0, "fusion_lat": 0.0, "lon": -77.02185516666667, "name": "2ac16f35550fb2d9378a11fece6cd2c4"}, {"bike_id": "03b0a083a246b37f7183ec27a824f8ca", "type": "electric_scooter", "is_disabled": 0, "lat": 38.9169915, "rental_uris": {"ios": "https://dc.lft.to/lastmile_qr_scan", "android": "https://dc.lft.to/lastmile_qr_scan"}, "is_reserved": 0, "fusion_lon": 0.0, "fusion_lat": 0.0, "lon": -77.03121516666667, "name": "03b0a083a246b37f7183ec27a824f8ca"}, {"bike_id": "ea79c02bf80ed6b03b2d1c65763045eb", "type": "electric_scooter", "is_disabled": 0, "lat": 38.87705883333334, "rental_uris": {"ios": "https://dc.lft.to/lastmile_qr_scan", "android": "https://dc.lft.to/lastmile_qr_scan"}, "is_reserved": 0, "fusion_lon": 0.0, "fusion_lat": 0.0, "lon": -77.01656533333333, "name": "ea79c02bf80ed6b03b2d1c65763045eb"}, {"bike_id": "90b5b41e1b0f6a1104d1fd61e7110408", "type": "electric_scooter", "is_disabled": 0, "lat": 38.880608, "rental_uris": {"ios": "https://dc.lft.to/lastmile_qr_scan", "android": "https://dc.lft.to/lastmile_qr_scan"}, "is_reserved": 0, "fusion_lon": 0.0, "fusion_lat": 0.0, "lon": -77.02555416666667, "name": "90b5b41e1b0f6a1104d1fd61e7110408"}, {"bike_id": "5d6f4f70f7d61277d293271ef8c0b9b6", "type": "electric_bike", "is_disabled": 0, "lat": 38.936931333333334, "rental_uris": {"ios": "https://dc.lft.to/lastmile_qr_scan", "android": "https://dc.lft.to/lastmile_qr_scan"}, "is_reserved": 0, "fusion_lon": 0.0, "fusion_lat": 0.0, "lon": -77.05647266666666, "name": "5d6f4f70f7d61277d293271ef8c0b9b6"}, {"bike_id": "6b0b5dbb48f40282f01396fe15ed6da7", "type": "electric_scooter", "is_disabled": 0, "lat": 38.92258866666667, "rental_uris": {"ios": "https://dc.lft.to/lastmile_qr_scan", "android": "https://dc.lft.to/lastmile_qr_scan"}, "is_reserved": 0, "fusion_lon": 0.0, "fusion_lat": 0.0, "lon": -77.04210483333334, "name": "6b0b5dbb48f40282f01396fe15ed6da7"}, {"bike_id": "49f582a7837fe1cca79e18f7f14a76ff", "type": "electric_scooter", "is_disabled": 0, "lat": 38.93453566666667, "rental_uris": {"ios": "https://dc.lft.to/lastmile_qr_scan", "android": "https://dc.lft.to/lastmile_qr_scan"}, "is_reserved": 0, "fusion_lon": 0.0, "fusion_lat": 0.0, "lon": -77.04537516666667, "name": "49f582a7837fe1cca79e18f7f14a76ff"}, {"bike_id": "0e3b7b1d286041012fcbd1cade7d6ecc", "type": "electric_scooter", "is_disabled": 0, "lat": 38.91325833333333, "rental_uris": {"ios": "https://dc.lft.to/lastmile_qr_scan", "android": "https://dc.lft.to/lastmile_qr_scan"}, "is_reserved": 0, "fusion_lon": 0.0, "fusion_lat": 0.0, "lon": -77.03185316666666, "name": "0e3b7b1d286041012fcbd1cade7d6ecc"}, {"bike_id": "564620b2e146afc1403e43ba46790133", "type": "electric_scooter", "is_disabled": 0, "lat": 38.9650475, "rental_uris": {"ios": "https://dc.lft.to/lastmile_qr_scan", "android": "https://dc.lft.to/lastmile_qr_scan"}, "is_reserved": 0, "fusion_lon": 0.0, "fusion_lat": 0.0, "lon": -77.002054, "name": "564620b2e146afc1403e43ba46790133"}, {"bike_id": "ff556ff17ce259b2ddd0be47e00d1eca", "type": "electric_scooter", "is_disabled": 0, "lat": 38.844324666666665, "rental_uris": {"ios": "https://dc.lft.to/lastmile_qr_scan", "android": "https://dc.lft.to/lastmile_qr_scan"}, "is_reserved": 0, "fusion_lon": 0.0, "fusion_lat": 0.0, "lon": -76.99866866666666, "name": "ff556ff17ce259b2ddd0be47e00d1eca"}, {"bike_id": "12e400fce5b5b282521fde55e97a3918", "type": "electric_scooter", "is_disabled": 0, "lat": 38.907845333333334, "rental_uris": {"ios": "https://dc.lft.to/lastmile_qr_scan", "android": "https://dc.lft.to/lastmile_qr_scan"}, "is_reserved": 0, "fusion_lon": 0.0, "fusion_lat": 0.0, "lon": -77.032107, "name": "12e400fce5b5b282521fde55e97a3918"}, {"bike_id": "807b8be3424003adef6c39f7e3e969bc", "type": "electric_scooter", "is_disabled": 0, "lat": 38.934014166666664, "rental_uris": {"ios": "https://dc.lft.to/lastmile_qr_scan", "android": "https://dc.lft.to/lastmile_qr_scan"}, "is_reserved": 0, "fusion_lon": 0.0, "fusion_lat": 0.0, "lon": -77.03520166666667, "name": "807b8be3424003adef6c39f7e3e969bc"}, {"bike_id": "ae51f703f42627c3f2db9dc55ff1d6da", "type": "electric_scooter", "is_disabled": 0, "lat": 38.917243666666664, "rental_uris": {"ios": "https://dc.lft.to/lastmile_qr_scan", "android": "https://dc.lft.to/lastmile_qr_scan"}, "is_reserved": 0, "fusion_lon": 0.0, "fusion_lat": 0.0, "lon": -77.03661333333334, "name": "ae51f703f42627c3f2db9dc55ff1d6da"}, {"bike_id": "f19b9925d02363596d301646df282a5c", "type": "electric_scooter", "is_disabled": 0, "lat": 38.9071435, "rental_uris": {"ios": "https://dc.lft.to/lastmile_qr_scan", "android": "https://dc.lft.to/lastmile_qr_scan"}, "is_reserved": 0, "fusion_lon": 0.0, "fusion_lat": 0.0, "lon": -77.0417195, "name": "f19b9925d02363596d301646df282a5c"}, {"bike_id": "5bc483c147fa6d8e0cd8a94e9dd92c0d", "type": "electric_scooter", "is_disabled": 0, "lat": 38.90260416666667, "rental_uris": {"ios": "https://dc.lft.to/lastmile_qr_scan", "android": "https://dc.lft.to/lastmile_qr_scan"}, "is_reserved": 0, "fusion_lon": 0.0, "fusion_lat": 0.0, "lon": -77.00732533333333, "name": "5bc483c147fa6d8e0cd8a94e9dd92c0d"}, {"bike_id": "2fa1dcd76d4a55002294d488c0d6720e", "type": "electric_scooter", "is_disabled": 0, "lat": 38.92138416666667, "rental_uris": {"ios": "https://dc.lft.to/lastmile_qr_scan", "android": "https://dc.lft.to/lastmile_qr_scan"}, "is_reserved": 0, "fusion_lon": 0.0, "fusion_lat": 0.0, "lon": -77.0476535, "name": "2fa1dcd76d4a55002294d488c0d6720e"}, {"bike_id": "9de31943b27c6ad3367c888d43b96ad7", "type": "electric_scooter", "is_disabled": 0, "lat": 38.93848366666667, "rental_uris": {"ios": "https://dc.lft.to/lastmile_qr_scan", "android": "https://dc.lft.to/lastmile_qr_scan"}, "is_reserved": 0, "fusion_lon": 0.0, "fusion_lat": 0.0, "lon": -77.07229983333333, "name": "9de31943b27c6ad3367c888d43b96ad7"}, {"bike_id": "634d97d8cd1c295627d05d2853f245bb", "type": "electric_scooter", "is_disabled": 0, "lat": 38.90942916666667, "rental_uris": {"ios": "https://dc.lft.to/lastmile_qr_scan", "android": "https://dc.lft.to/lastmile_qr_scan"}, "is_reserved": 0, "fusion_lon": 0.0, "fusion_lat": 0.0, "lon": -77.05562583333334, "name": "634d97d8cd1c295627d05d2853f245bb"}, {"bike_id": "232b8ee18c9644b5329e13adc539cbd1", "type": "electric_scooter", "is_disabled": 0, "lat": 38.90983533333333, "rental_uris": {"ios": "https://dc.lft.to/lastmile_qr_scan", "android": "https://dc.lft.to/lastmile_qr_scan"}, "is_reserved": 0, "fusion_lon": 0.0, "fusion_lat": 0.0, "lon": -77.01512116666666, "name": "232b8ee18c9644b5329e13adc539cbd1"}, {"bike_id": "38f109f48dbabe2f30ce7df1448031c6", "type": "electric_scooter", "is_disabled": 0, "lat": 38.887451, "rental_uris": {"ios": "https://dc.lft.to/lastmile_qr_scan", "android": "https://dc.lft.to/lastmile_qr_scan"}, "is_reserved": 0, "fusion_lon": 0.0, "fusion_lat": 0.0, "lon": -76.996245, "name": "38f109f48dbabe2f30ce7df1448031c6"}, {"bike_id": "7931d7791d65eb3c1530eaaae5269b12", "type": "electric_scooter", "is_disabled": 0, "lat": 38.91931783333333, "rental_uris": {"ios": "https://dc.lft.to/lastmile_qr_scan", "android": "https://dc.lft.to/lastmile_qr_scan"}, "is_reserved": 0, "fusion_lon": 0.0, "fusion_lat": 0.0, "lon": -77.02505666666667, "name": "7931d7791d65eb3c1530eaaae5269b12"}, {"bike_id": "5379fcd790b9812696f2b631ce5a586b", "type": "electric_scooter", "is_disabled": 0, "lat": 38.93337916666667, "rental_uris": {"ios": "https://dc.lft.to/lastmile_qr_scan", "android": "https://dc.lft.to/lastmile_qr_scan"}, "is_reserved": 0, "fusion_lon": 0.0, "fusion_lat": 0.0, "lon": -77.03984683333333, "name": "5379fcd790b9812696f2b631ce5a586b"}, {"bike_id": "607fb16370ebe44b849ec20473e3e009", "type": "electric_scooter", "is_disabled": 0, "lat": 38.90170083333334, "rental_uris": {"ios": "https://dc.lft.to/lastmile_qr_scan", "android": "https://dc.lft.to/lastmile_qr_scan"}, "is_reserved": 0, "fusion_lon": 0.0, "fusion_lat": 0.0, "lon": -76.984497, "name": "607fb16370ebe44b849ec20473e3e009"}, {"bike_id": "ee7f3d50b62f9a0359e637546631c257", "type": "electric_scooter", "is_disabled": 0, "lat": 38.90420833333334, "rental_uris": {"ios": "https://dc.lft.to/lastmile_qr_scan", "android": "https://dc.lft.to/lastmile_qr_scan"}, "is_reserved": 0, "fusion_lon": 0.0, "fusion_lat": 0.0, "lon": -76.973738, "name": "ee7f3d50b62f9a0359e637546631c257"}, {"bike_id": "2fb02b8d375dd4f0ae93f3376a071ba1", "type": "electric_scooter", "is_disabled": 0, "lat": 38.92449233333333, "rental_uris": {"ios": "https://dc.lft.to/lastmile_qr_scan", "android": "https://dc.lft.to/lastmile_qr_scan"}, "is_reserved": 0, "fusion_lon": 0.0, "fusion_lat": 0.0, "lon": -77.0241415, "name": "2fb02b8d375dd4f0ae93f3376a071ba1"}, {"bike_id": "ed6d3bb05ffe4557ddaaf3f91ecc54df", "type": "electric_scooter", "is_disabled": 0, "lat": 38.91872883333333, "rental_uris": {"ios": "https://dc.lft.to/lastmile_qr_scan", "android": "https://dc.lft.to/lastmile_qr_scan"}, "is_reserved": 0, "fusion_lon": 0.0, "fusion_lat": 0.0, "lon": -77.04468533333333, "name": "ed6d3bb05ffe4557ddaaf3f91ecc54df"}, {"bike_id": "77bf6436a8161af9ac671001fe6d159d", "type": "electric_scooter", "is_disabled": 0, "lat": 38.907781, "rental_uris": {"ios": "https://dc.lft.to/lastmile_qr_scan", "android": "https://dc.lft.to/lastmile_qr_scan"}, "is_reserved": 0, "fusion_lon": 0.0, "fusion_lat": 0.0, "lon": -77.002155, "name": "77bf6436a8161af9ac671001fe6d159d"}, {"bike_id": "28eff81e806bfb3f87e1ed22c1b75c3d", "type": "electric_scooter", "is_disabled": 0, "lat": 38.8665355, "rental_uris": {"ios": "https://dc.lft.to/lastmile_qr_scan", "android": "https://dc.lft.to/lastmile_qr_scan"}, "is_reserved": 0, "fusion_lon": 0.0, "fusion_lat": 0.0, "lon": -76.9888265, "name": "28eff81e806bfb3f87e1ed22c1b75c3d"}, {"bike_id": "d65a3cd5a3c9a3c8cb1a561f93c918dc", "type": "electric_scooter", "is_disabled": 0, "lat": 38.86566833333333, "rental_uris": {"ios": "https://dc.lft.to/lastmile_qr_scan", "android": "https://dc.lft.to/lastmile_qr_scan"}, "is_reserved": 0, "fusion_lon": 0.0, "fusion_lat": 0.0, "lon": -76.98213816666667, "name": "d65a3cd5a3c9a3c8cb1a561f93c918dc"}, {"bike_id": "10e09a9843f17ade0040f276c102b868", "type": "electric_scooter", "is_disabled": 0, "lat": 38.942922333333335, "rental_uris": {"ios": "https://dc.lft.to/lastmile_qr_scan", "android": "https://dc.lft.to/lastmile_qr_scan"}, "is_reserved": 0, "fusion_lon": 0.0, "fusion_lat": 0.0, "lon": -77.02169933333333, "name": "10e09a9843f17ade0040f276c102b868"}, {"bike_id": "48e4818f4adc3ad587a4c15490b59f16", "type": "electric_bike", "is_disabled": 0, "lat": 38.8542485, "rental_uris": {"ios": "https://dc.lft.to/lastmile_qr_scan", "android": "https://dc.lft.to/lastmile_qr_scan"}, "is_reserved": 0, "fusion_lon": 0.0, "fusion_lat": 0.0, "lon": -77.12081216666667, "name": "48e4818f4adc3ad587a4c15490b59f16"}, {"bike_id": "7e17f58b3b5efc2cf6d513c8adb652ab", "type": "electric_scooter", "is_disabled": 0, "lat": 38.90529, "rental_uris": {"ios": "https://dc.lft.to/lastmile_qr_scan", "android": "https://dc.lft.to/lastmile_qr_scan"}, "is_reserved": 0, "fusion_lon": 0.0, "fusion_lat": 0.0, "lon": -76.99641383333334, "name": "7e17f58b3b5efc2cf6d513c8adb652ab"}, {"bike_id": "de25ece2a8b0204f9f740efd2d5f1feb", "type": "electric_scooter", "is_disabled": 0, "lat": 38.9156345, "rental_uris": {"ios": "https://dc.lft.to/lastmile_qr_scan", "android": "https://dc.lft.to/lastmile_qr_scan"}, "is_reserved": 0, "fusion_lon": 0.0, "fusion_lat": 0.0, "lon": -77.03173716666667, "name": "de25ece2a8b0204f9f740efd2d5f1feb"}, {"bike_id": "f8700e0e5f0be599bbb47b4938fc1ccb", "type": "electric_scooter", "is_disabled": 0, "lat": 38.894976, "rental_uris": {"ios": "https://dc.lft.to/lastmile_qr_scan", "android": "https://dc.lft.to/lastmile_qr_scan"}, "is_reserved": 0, "fusion_lon": 0.0, "fusion_lat": 0.0, "lon": -77.00061766666667, "name": "f8700e0e5f0be599bbb47b4938fc1ccb"}, {"bike_id": "5ee8055894041b4894da2e4e691fc8a7", "type": "electric_scooter", "is_disabled": 0, "lat": 38.920483833333336, "rental_uris": {"ios": "https://dc.lft.to/lastmile_qr_scan", "android": "https://dc.lft.to/lastmile_qr_scan"}, "is_reserved": 0, "fusion_lon": 0.0, "fusion_lat": 0.0, "lon": -77.03390216666666, "name": "5ee8055894041b4894da2e4e691fc8a7"}, {"bike_id": "0dad2951e941c044ffccecbdcb394e4f", "type": "electric_scooter", "is_disabled": 0, "lat": 38.94000583333333, "rental_uris": {"ios": "https://dc.lft.to/lastmile_qr_scan", "android": "https://dc.lft.to/lastmile_qr_scan"}, "is_reserved": 0, "fusion_lon": 0.0, "fusion_lat": 0.0, "lon": -77.0380365, "name": "0dad2951e941c044ffccecbdcb394e4f"}, {"bike_id": "282a6e2ffcbb051f9febcbe817f7e6e7", "type": "electric_scooter", "is_disabled": 0, "lat": 38.88088233333333, "rental_uris": {"ios": "https://dc.lft.to/lastmile_qr_scan", "android": "https://dc.lft.to/lastmile_qr_scan"}, "is_reserved": 0, "fusion_lon": 0.0, "fusion_lat": 0.0, "lon": -76.98503033333333, "name": "282a6e2ffcbb051f9febcbe817f7e6e7"}, {"bike_id": "122048db5c0a0f7037a7adaf708b9ac3", "type": "electric_scooter", "is_disabled": 0, "lat": 38.8954635, "rental_uris": {"ios": "https://dc.lft.to/lastmile_qr_scan", "android": "https://dc.lft.to/lastmile_qr_scan"}, "is_reserved": 0, "fusion_lon": 0.0, "fusion_lat": 0.0, "lon": -76.92958033333333, "name": "122048db5c0a0f7037a7adaf708b9ac3"}, {"bike_id": "83cfc67b56e248b0e5bff015001e6cd2", "type": "electric_scooter", "is_disabled": 0, "lat": 38.895537166666664, "rental_uris": {"ios": "https://dc.lft.to/lastmile_qr_scan", "android": "https://dc.lft.to/lastmile_qr_scan"}, "is_reserved": 0, "fusion_lon": 0.0, "fusion_lat": 0.0, "lon": -76.94944666666666, "name": "83cfc67b56e248b0e5bff015001e6cd2"}, {"bike_id": "eedcca9337638034341100111f3a8397", "type": "electric_scooter", "is_disabled": 0, "lat": 38.9384275, "rental_uris": {"ios": "https://dc.lft.to/lastmile_qr_scan", "android": "https://dc.lft.to/lastmile_qr_scan"}, "is_reserved": 0, "fusion_lon": 0.0, "fusion_lat": 0.0, "lon": -77.03375266666667, "name": "eedcca9337638034341100111f3a8397"}, {"bike_id": "71a094b0b8375393eb62fc17df7c83f2", "type": "electric_scooter", "is_disabled": 0, "lat": 38.8669885, "rental_uris": {"ios": "https://dc.lft.to/lastmile_qr_scan", "android": "https://dc.lft.to/lastmile_qr_scan"}, "is_reserved": 0, "fusion_lon": 0.0, "fusion_lat": 0.0, "lon": -76.98710816666667, "name": "71a094b0b8375393eb62fc17df7c83f2"}, {"bike_id": "046763626af2344cd62cdf553b8fff90", "type": "electric_scooter", "is_disabled": 0, "lat": 38.8988325, "rental_uris": {"ios": "https://dc.lft.to/lastmile_qr_scan", "android": "https://dc.lft.to/lastmile_qr_scan"}, "is_reserved": 0, "fusion_lon": 0.0, "fusion_lat": 0.0, "lon": -76.93174083333334, "name": "046763626af2344cd62cdf553b8fff90"}, {"bike_id": "024ddf179afc04b2e687f9444a010fee", "type": "electric_scooter", "is_disabled": 0, "lat": 38.86702316666667, "rental_uris": {"ios": "https://dc.lft.to/lastmile_qr_scan", "android": "https://dc.lft.to/lastmile_qr_scan"}, "is_reserved": 0, "fusion_lon": 0.0, "fusion_lat": 0.0, "lon": -76.98710433333333, "name": "024ddf179afc04b2e687f9444a010fee"}, {"bike_id": "3cffa0ac8ddbd904dc5e056644486335", "type": "electric_scooter", "is_disabled": 0, "lat": 38.928004333333334, "rental_uris": {"ios": "https://dc.lft.to/lastmile_qr_scan", "android": "https://dc.lft.to/lastmile_qr_scan"}, "is_reserved": 0, "fusion_lon": 0.0, "fusion_lat": 0.0, "lon": -77.04322, "name": "3cffa0ac8ddbd904dc5e056644486335"}, {"bike_id": "8a81cc95825f929354cd9ac9033d5dbc", "type": "electric_scooter", "is_disabled": 0, "lat": 38.91768733333333, "rental_uris": {"ios": "https://dc.lft.to/lastmile_qr_scan", "android": "https://dc.lft.to/lastmile_qr_scan"}, "is_reserved": 0, "fusion_lon": 0.0, "fusion_lat": 0.0, "lon": -77.04770733333334, "name": "8a81cc95825f929354cd9ac9033d5dbc"}, {"bike_id": "5b4c414bb1374e740040af8106ed0865", "type": "electric_scooter", "is_disabled": 0, "lat": 38.862117166666664, "rental_uris": {"ios": "https://dc.lft.to/lastmile_qr_scan", "android": "https://dc.lft.to/lastmile_qr_scan"}, "is_reserved": 0, "fusion_lon": 0.0, "fusion_lat": 0.0, "lon": -76.9947005, "name": "5b4c414bb1374e740040af8106ed0865"}, {"bike_id": "8d2824b803b996b5f9d342c7d0f337dc", "type": "electric_scooter", "is_disabled": 0, "lat": 38.916472666666664, "rental_uris": {"ios": "https://dc.lft.to/lastmile_qr_scan", "android": "https://dc.lft.to/lastmile_qr_scan"}, "is_reserved": 0, "fusion_lon": 0.0, "fusion_lat": 0.0, "lon": -77.04162266666667, "name": "8d2824b803b996b5f9d342c7d0f337dc"}, {"bike_id": "c38ebe09b66c97b59e145d0638d0a0ed", "type": "electric_bike", "is_disabled": 0, "lat": 39.03993366666667, "rental_uris": {"ios": "https://dc.lft.to/lastmile_qr_scan", "android": "https://dc.lft.to/lastmile_qr_scan"}, "is_reserved": 0, "fusion_lon": 0.0, "fusion_lat": 0.0, "lon": -76.99925816666666, "name": "c38ebe09b66c97b59e145d0638d0a0ed"}, {"bike_id": "c4e51b80a050483cdb01d2f244951545", "type": "electric_scooter", "is_disabled": 0, "lat": 38.9222175, "rental_uris": {"ios": "https://dc.lft.to/lastmile_qr_scan", "android": "https://dc.lft.to/lastmile_qr_scan"}, "is_reserved": 0, "fusion_lon": 0.0, "fusion_lat": 0.0, "lon": -77.0345975, "name": "c4e51b80a050483cdb01d2f244951545"}, {"bike_id": "99f0c4b422d5b8c9b7dd70fee305c661", "type": "electric_scooter", "is_disabled": 0, "lat": 38.9081055, "rental_uris": {"ios": "https://dc.lft.to/lastmile_qr_scan", "android": "https://dc.lft.to/lastmile_qr_scan"}, "is_reserved": 0, "fusion_lon": 0.0, "fusion_lat": 0.0, "lon": -77.03445383333333, "name": "99f0c4b422d5b8c9b7dd70fee305c661"}, {"bike_id": "53d4db0adaa0cfde1bfaeb13c828638b", "type": "electric_scooter", "is_disabled": 0, "lat": 38.90975383333333, "rental_uris": {"ios": "https://dc.lft.to/lastmile_qr_scan", "android": "https://dc.lft.to/lastmile_qr_scan"}, "is_reserved": 0, "fusion_lon": 0.0, "fusion_lat": 0.0, "lon": -77.0329915, "name": "53d4db0adaa0cfde1bfaeb13c828638b"}, {"bike_id": "6ce2f3ebcc6d901e0f2aef1546812eae", "type": "electric_scooter", "is_disabled": 0, "lat": 38.91868733333333, "rental_uris": {"ios": "https://dc.lft.to/lastmile_qr_scan", "android": "https://dc.lft.to/lastmile_qr_scan"}, "is_reserved": 0, "fusion_lon": 0.0, "fusion_lat": 0.0, "lon": -77.02471616666666, "name": "6ce2f3ebcc6d901e0f2aef1546812eae"}, {"bike_id": "adaed9d3a6269f7d8393f5a2ed27d8a5", "type": "electric_scooter", "is_disabled": 0, "lat": 38.89296016666667, "rental_uris": {"ios": "https://dc.lft.to/lastmile_qr_scan", "android": "https://dc.lft.to/lastmile_qr_scan"}, "is_reserved": 0, "fusion_lon": 0.0, "fusion_lat": 0.0, "lon": -77.04874466666666, "name": "adaed9d3a6269f7d8393f5a2ed27d8a5"}, {"bike_id": "f7f111015f8c0454e48d90095c48f212", "type": "electric_scooter", "is_disabled": 0, "lat": 38.9038245, "rental_uris": {"ios": "https://dc.lft.to/lastmile_qr_scan", "android": "https://dc.lft.to/lastmile_qr_scan"}, "is_reserved": 0, "fusion_lon": 0.0, "fusion_lat": 0.0, "lon": -77.03812383333333, "name": "f7f111015f8c0454e48d90095c48f212"}, {"bike_id": "0bb63edd20eba6d03245f2808f1e0dba", "type": "electric_scooter", "is_disabled": 0, "lat": 38.89242516666667, "rental_uris": {"ios": "https://dc.lft.to/lastmile_qr_scan", "android": "https://dc.lft.to/lastmile_qr_scan"}, "is_reserved": 0, "fusion_lon": 0.0, "fusion_lat": 0.0, "lon": -77.0220335, "name": "0bb63edd20eba6d03245f2808f1e0dba"}, {"bike_id": "20d3e6768ce74e57ee54e6e376c241fb", "type": "electric_scooter", "is_disabled": 0, "lat": 38.9170285, "rental_uris": {"ios": "https://dc.lft.to/lastmile_qr_scan", "android": "https://dc.lft.to/lastmile_qr_scan"}, "is_reserved": 0, "fusion_lon": 0.0, "fusion_lat": 0.0, "lon": -77.046055, "name": "20d3e6768ce74e57ee54e6e376c241fb"}, {"bike_id": "7fbaf2b95aa0cc09aaab3c19ed26d824", "type": "electric_scooter", "is_disabled": 0, "lat": 38.9403045, "rental_uris": {"ios": "https://dc.lft.to/lastmile_qr_scan", "android": "https://dc.lft.to/lastmile_qr_scan"}, "is_reserved": 0, "fusion_lon": 0.0, "fusion_lat": 0.0, "lon": -77.02796183333334, "name": "7fbaf2b95aa0cc09aaab3c19ed26d824"}, {"bike_id": "d1fbf25375f726eb2ba5d0148f4bb50e", "type": "electric_scooter", "is_disabled": 0, "lat": 38.907091333333334, "rental_uris": {"ios": "https://dc.lft.to/lastmile_qr_scan", "android": "https://dc.lft.to/lastmile_qr_scan"}, "is_reserved": 0, "fusion_lon": 0.0, "fusion_lat": 0.0, "lon": -77.02383383333333, "name": "d1fbf25375f726eb2ba5d0148f4bb50e"}, {"bike_id": "09d3774dce2200650ef0874171665ddc", "type": "electric_scooter", "is_disabled": 0, "lat": 38.9126795, "rental_uris": {"ios": "https://dc.lft.to/lastmile_qr_scan", "android": "https://dc.lft.to/lastmile_qr_scan"}, "is_reserved": 0, "fusion_lon": 0.0, "fusion_lat": 0.0, "lon": -77.03860283333333, "name": "09d3774dce2200650ef0874171665ddc"}, {"bike_id": "9b8ec40f5680e73dcdd25e24e3793403", "type": "electric_scooter", "is_disabled": 0, "lat": 38.91520666666667, "rental_uris": {"ios": "https://dc.lft.to/lastmile_qr_scan", "android": "https://dc.lft.to/lastmile_qr_scan"}, "is_reserved": 0, "fusion_lon": 0.0, "fusion_lat": 0.0, "lon": -77.01219783333333, "name": "9b8ec40f5680e73dcdd25e24e3793403"}, {"bike_id": "e9848d2f3bf7d5e23a669bf275953a19", "type": "electric_scooter", "is_disabled": 0, "lat": 38.9005305, "rental_uris": {"ios": "https://dc.lft.to/lastmile_qr_scan", "android": "https://dc.lft.to/lastmile_qr_scan"}, "is_reserved": 0, "fusion_lon": 0.0, "fusion_lat": 0.0, "lon": -77.03648066666666, "name": "e9848d2f3bf7d5e23a669bf275953a19"}, {"bike_id": "9732f9449732997fc1b58af7b3996965", "type": "electric_scooter", "is_disabled": 0, "lat": 38.917572166666666, "rental_uris": {"ios": "https://dc.lft.to/lastmile_qr_scan", "android": "https://dc.lft.to/lastmile_qr_scan"}, "is_reserved": 0, "fusion_lon": 0.0, "fusion_lat": 0.0, "lon": -77.02486916666666, "name": "9732f9449732997fc1b58af7b3996965"}, {"bike_id": "b1de86c443ee32260102ad3b51ca101e", "type": "electric_scooter", "is_disabled": 0, "lat": 38.90475516666667, "rental_uris": {"ios": "https://dc.lft.to/lastmile_qr_scan", "android": "https://dc.lft.to/lastmile_qr_scan"}, "is_reserved": 0, "fusion_lon": 0.0, "fusion_lat": 0.0, "lon": -77.00710266666667, "name": "b1de86c443ee32260102ad3b51ca101e"}, {"bike_id": "b4f5c1edbad4c53f0160d1e52f38c213", "type": "electric_scooter", "is_disabled": 0, "lat": 38.91485466666666, "rental_uris": {"ios": "https://dc.lft.to/lastmile_qr_scan", "android": "https://dc.lft.to/lastmile_qr_scan"}, "is_reserved": 0, "fusion_lon": 0.0, "fusion_lat": 0.0, "lon": -76.98577283333333, "name": "b4f5c1edbad4c53f0160d1e52f38c213"}, {"bike_id": "805ebb9c3f7d2557da731e625972fd63", "type": "electric_scooter", "is_disabled": 0, "lat": 38.8985745, "rental_uris": {"ios": "https://dc.lft.to/lastmile_qr_scan", "android": "https://dc.lft.to/lastmile_qr_scan"}, "is_reserved": 0, "fusion_lon": 0.0, "fusion_lat": 0.0, "lon": -77.02194833333333, "name": "805ebb9c3f7d2557da731e625972fd63"}, {"bike_id": "a80af28ad491af987f899d96da572577", "type": "electric_scooter", "is_disabled": 0, "lat": 38.902472, "rental_uris": {"ios": "https://dc.lft.to/lastmile_qr_scan", "android": "https://dc.lft.to/lastmile_qr_scan"}, "is_reserved": 0, "fusion_lon": 0.0, "fusion_lat": 0.0, "lon": -76.986665, "name": "a80af28ad491af987f899d96da572577"}, {"bike_id": "436ea1b87c5e8d371527c32c07e39655", "type": "electric_scooter", "is_disabled": 0, "lat": 38.896765333333335, "rental_uris": {"ios": "https://dc.lft.to/lastmile_qr_scan", "android": "https://dc.lft.to/lastmile_qr_scan"}, "is_reserved": 0, "fusion_lon": 0.0, "fusion_lat": 0.0, "lon": -77.023847, "name": "436ea1b87c5e8d371527c32c07e39655"}, {"bike_id": "0701dfbcf3e0818e3cd62c2d5c7023bf", "type": "electric_scooter", "is_disabled": 0, "lat": 38.915647, "rental_uris": {"ios": "https://dc.lft.to/lastmile_qr_scan", "android": "https://dc.lft.to/lastmile_qr_scan"}, "is_reserved": 0, "fusion_lon": 0.0, "fusion_lat": 0.0, "lon": -77.02015866666666, "name": "0701dfbcf3e0818e3cd62c2d5c7023bf"}, {"bike_id": "d44f7dc52018aabba03b7862cb1c4499", "type": "electric_scooter", "is_disabled": 0, "lat": 38.921557, "rental_uris": {"ios": "https://dc.lft.to/lastmile_qr_scan", "android": "https://dc.lft.to/lastmile_qr_scan"}, "is_reserved": 0, "fusion_lon": 0.0, "fusion_lat": 0.0, "lon": -77.03315833333333, "name": "d44f7dc52018aabba03b7862cb1c4499"}, {"bike_id": "b87b3a337a77a06e3479971dee3ae914", "type": "electric_scooter", "is_disabled": 0, "lat": 38.921451166666664, "rental_uris": {"ios": "https://dc.lft.to/lastmile_qr_scan", "android": "https://dc.lft.to/lastmile_qr_scan"}, "is_reserved": 0, "fusion_lon": 0.0, "fusion_lat": 0.0, "lon": -77.018297, "name": "b87b3a337a77a06e3479971dee3ae914"}, {"bike_id": "130c40b80adaaaab442ab649429396b5", "type": "electric_scooter", "is_disabled": 0, "lat": 38.881053666666666, "rental_uris": {"ios": "https://dc.lft.to/lastmile_qr_scan", "android": "https://dc.lft.to/lastmile_qr_scan"}, "is_reserved": 0, "fusion_lon": 0.0, "fusion_lat": 0.0, "lon": -77.02655933333334, "name": "130c40b80adaaaab442ab649429396b5"}, {"bike_id": "a7a40061f71288cb2cd1665b1b7bc94b", "type": "electric_scooter", "is_disabled": 0, "lat": 38.838254, "rental_uris": {"ios": "https://dc.lft.to/lastmile_qr_scan", "android": "https://dc.lft.to/lastmile_qr_scan"}, "is_reserved": 0, "fusion_lon": 0.0, "fusion_lat": 0.0, "lon": -77.00267583333333, "name": "a7a40061f71288cb2cd1665b1b7bc94b"}, {"bike_id": "638e2836c35ba7683f661c6db1e1f034", "type": "electric_scooter", "is_disabled": 0, "lat": 38.903535833333336, "rental_uris": {"ios": "https://dc.lft.to/lastmile_qr_scan", "android": "https://dc.lft.to/lastmile_qr_scan"}, "is_reserved": 0, "fusion_lon": 0.0, "fusion_lat": 0.0, "lon": -77.0291315, "name": "638e2836c35ba7683f661c6db1e1f034"}, {"bike_id": "67a8e3e7f1fdb3cb6deca517a6f2fb3e", "type": "electric_scooter", "is_disabled": 0, "lat": 38.9065305, "rental_uris": {"ios": "https://dc.lft.to/lastmile_qr_scan", "android": "https://dc.lft.to/lastmile_qr_scan"}, "is_reserved": 0, "fusion_lon": 0.0, "fusion_lat": 0.0, "lon": -77.00984, "name": "67a8e3e7f1fdb3cb6deca517a6f2fb3e"}, {"bike_id": "130d2bba4b441255ea033e61bd4cbe4f", "type": "electric_bike", "is_disabled": 0, "lat": 38.9244605, "rental_uris": {"ios": "https://dc.lft.to/lastmile_qr_scan", "android": "https://dc.lft.to/lastmile_qr_scan"}, "is_reserved": 0, "fusion_lon": 0.0, "fusion_lat": 0.0, "lon": -77.22557416666666, "name": "130d2bba4b441255ea033e61bd4cbe4f"}, {"bike_id": "5f0e1a5da9c44e041add9aa096973600", "type": "electric_scooter", "is_disabled": 0, "lat": 38.941966, "rental_uris": {"ios": "https://dc.lft.to/lastmile_qr_scan", "android": "https://dc.lft.to/lastmile_qr_scan"}, "is_reserved": 0, "fusion_lon": 0.0, "fusion_lat": 0.0, "lon": -77.024314, "name": "5f0e1a5da9c44e041add9aa096973600"}, {"bike_id": "3bb69bc5844704bfc005282f309c23ad", "type": "electric_scooter", "is_disabled": 0, "lat": 38.914611, "rental_uris": {"ios": "https://dc.lft.to/lastmile_qr_scan", "android": "https://dc.lft.to/lastmile_qr_scan"}, "is_reserved": 0, "fusion_lon": 0.0, "fusion_lat": 0.0, "lon": -77.022868, "name": "3bb69bc5844704bfc005282f309c23ad"}, {"bike_id": "f582415d95049702a984e70fe30aa7d9", "type": "electric_scooter", "is_disabled": 0, "lat": 38.89844266666667, "rental_uris": {"ios": "https://dc.lft.to/lastmile_qr_scan", "android": "https://dc.lft.to/lastmile_qr_scan"}, "is_reserved": 0, "fusion_lon": 0.0, "fusion_lat": 0.0, "lon": -76.946337, "name": "f582415d95049702a984e70fe30aa7d9"}, {"bike_id": "debe490c9dce65787ab00a291a1b699c", "type": "electric_bike", "is_disabled": 0, "lat": 38.9522635, "rental_uris": {"ios": "https://dc.lft.to/lastmile_qr_scan", "android": "https://dc.lft.to/lastmile_qr_scan"}, "is_reserved": 0, "fusion_lon": 0.0, "fusion_lat": 0.0, "lon": -77.00269516666667, "name": "debe490c9dce65787ab00a291a1b699c"}, {"bike_id": "91ef440cd15370ccf3d990dafdb4c057", "type": "electric_bike", "is_disabled": 0, "lat": 38.94663833333333, "rental_uris": {"ios": "https://dc.lft.to/lastmile_qr_scan", "android": "https://dc.lft.to/lastmile_qr_scan"}, "is_reserved": 0, "fusion_lon": 0.0, "fusion_lat": 0.0, "lon": -76.956671, "name": "91ef440cd15370ccf3d990dafdb4c057"}, {"bike_id": "b0dcb37fb5eabc22905c7cb4e9ebfd08", "type": "electric_scooter", "is_disabled": 0, "lat": 38.906954999999996, "rental_uris": {"ios": "https://dc.lft.to/lastmile_qr_scan", "android": "https://dc.lft.to/lastmile_qr_scan"}, "is_reserved": 0, "fusion_lon": 0.0, "fusion_lat": 0.0, "lon": -77.023974, "name": "b0dcb37fb5eabc22905c7cb4e9ebfd08"}, {"bike_id": "56ae49e053752c788fc32f98e22d3427", "type": "electric_bike", "is_disabled": 0, "lat": 38.937271833333334, "rental_uris": {"ios": "https://dc.lft.to/lastmile_qr_scan", "android": "https://dc.lft.to/lastmile_qr_scan"}, "is_reserved": 0, "fusion_lon": 0.0, "fusion_lat": 0.0, "lon": -76.99145983333334, "name": "56ae49e053752c788fc32f98e22d3427"}, {"bike_id": "7d5876efe342fe252aa8f45baf8f10ab", "type": "electric_scooter", "is_disabled": 0, "lat": 38.8361645, "rental_uris": {"ios": "https://dc.lft.to/lastmile_qr_scan", "android": "https://dc.lft.to/lastmile_qr_scan"}, "is_reserved": 0, "fusion_lon": 0.0, "fusion_lat": 0.0, "lon": -77.05114733333333, "name": "7d5876efe342fe252aa8f45baf8f10ab"}, {"bike_id": "b99843935d341f8fb70494bd3652f67f", "type": "electric_scooter", "is_disabled": 0, "lat": 38.866838333333334, "rental_uris": {"ios": "https://dc.lft.to/lastmile_qr_scan", "android": "https://dc.lft.to/lastmile_qr_scan"}, "is_reserved": 0, "fusion_lon": 0.0, "fusion_lat": 0.0, "lon": -76.98578216666667, "name": "b99843935d341f8fb70494bd3652f67f"}, {"bike_id": "1af34de8a3ce54d197483c277a1af63f", "type": "electric_scooter", "is_disabled": 0, "lat": 38.866508333333336, "rental_uris": {"ios": "https://dc.lft.to/lastmile_qr_scan", "android": "https://dc.lft.to/lastmile_qr_scan"}, "is_reserved": 0, "fusion_lon": 0.0, "fusion_lat": 0.0, "lon": -76.98818983333334, "name": "1af34de8a3ce54d197483c277a1af63f"}, {"bike_id": "d74ba0bd8b1614f1ef96933c61ae133b", "type": "electric_scooter", "is_disabled": 0, "lat": 38.92749383333334, "rental_uris": {"ios": "https://dc.lft.to/lastmile_qr_scan", "android": "https://dc.lft.to/lastmile_qr_scan"}, "is_reserved": 0, "fusion_lon": 0.0, "fusion_lat": 0.0, "lon": -77.02536483333333, "name": "d74ba0bd8b1614f1ef96933c61ae133b"}, {"bike_id": "b56133095aae3e976715d1818a90def1", "type": "electric_bike", "is_disabled": 0, "lat": 38.98370466666667, "rental_uris": {"ios": "https://dc.lft.to/lastmile_qr_scan", "android": "https://dc.lft.to/lastmile_qr_scan"}, "is_reserved": 0, "fusion_lon": 0.0, "fusion_lat": 0.0, "lon": -76.972141, "name": "b56133095aae3e976715d1818a90def1"}, {"bike_id": "194a19442fd3822234a56a8cd91ce177", "type": "electric_scooter", "is_disabled": 0, "lat": 38.90709233333333, "rental_uris": {"ios": "https://dc.lft.to/lastmile_qr_scan", "android": "https://dc.lft.to/lastmile_qr_scan"}, "is_reserved": 0, "fusion_lon": 0.0, "fusion_lat": 0.0, "lon": -77.02391366666667, "name": "194a19442fd3822234a56a8cd91ce177"}, {"bike_id": "2389d81acdabc25507c38d741e85d056", "type": "electric_scooter", "is_disabled": 0, "lat": 38.897572, "rental_uris": {"ios": "https://dc.lft.to/lastmile_qr_scan", "android": "https://dc.lft.to/lastmile_qr_scan"}, "is_reserved": 0, "fusion_lon": 0.0, "fusion_lat": 0.0, "lon": -77.04610866666667, "name": "2389d81acdabc25507c38d741e85d056"}, {"bike_id": "7d0cf732d493c9cad2a0321c5cccde1c", "type": "electric_scooter", "is_disabled": 0, "lat": 38.93458866666667, "rental_uris": {"ios": "https://dc.lft.to/lastmile_qr_scan", "android": "https://dc.lft.to/lastmile_qr_scan"}, "is_reserved": 0, "fusion_lon": 0.0, "fusion_lat": 0.0, "lon": -77.027665, "name": "7d0cf732d493c9cad2a0321c5cccde1c"}, {"bike_id": "a93ddd0a82776b8c01c9d283f56c90e7", "type": "electric_scooter", "is_disabled": 0, "lat": 38.91766633333334, "rental_uris": {"ios": "https://dc.lft.to/lastmile_qr_scan", "android": "https://dc.lft.to/lastmile_qr_scan"}, "is_reserved": 0, "fusion_lon": 0.0, "fusion_lat": 0.0, "lon": -77.04768433333334, "name": "a93ddd0a82776b8c01c9d283f56c90e7"}, {"bike_id": "c8731f7a0787892ed474a8871dc06364", "type": "electric_scooter", "is_disabled": 0, "lat": 38.8865895, "rental_uris": {"ios": "https://dc.lft.to/lastmile_qr_scan", "android": "https://dc.lft.to/lastmile_qr_scan"}, "is_reserved": 0, "fusion_lon": 0.0, "fusion_lat": 0.0, "lon": -77.02829966666667, "name": "c8731f7a0787892ed474a8871dc06364"}, {"bike_id": "44852a2a6e81a60b7a7975605a885c97", "type": "electric_bike", "is_disabled": 0, "lat": 38.95520166666667, "rental_uris": {"ios": "https://dc.lft.to/lastmile_qr_scan", "android": "https://dc.lft.to/lastmile_qr_scan"}, "is_reserved": 0, "fusion_lon": 0.0, "fusion_lat": 0.0, "lon": -76.9391075, "name": "44852a2a6e81a60b7a7975605a885c97"}, {"bike_id": "9457e149f0b604700dcbf24dd0ef7841", "type": "electric_scooter", "is_disabled": 0, "lat": 38.8970625, "rental_uris": {"ios": "https://dc.lft.to/lastmile_qr_scan", "android": "https://dc.lft.to/lastmile_qr_scan"}, "is_reserved": 0, "fusion_lon": 0.0, "fusion_lat": 0.0, "lon": -77.02287066666666, "name": "9457e149f0b604700dcbf24dd0ef7841"}, {"bike_id": "14d4ee0889ac77db6314b9dc8609dbd2", "type": "electric_scooter", "is_disabled": 0, "lat": 38.922516333333334, "rental_uris": {"ios": "https://dc.lft.to/lastmile_qr_scan", "android": "https://dc.lft.to/lastmile_qr_scan"}, "is_reserved": 0, "fusion_lon": 0.0, "fusion_lat": 0.0, "lon": -77.01972283333333, "name": "14d4ee0889ac77db6314b9dc8609dbd2"}, {"bike_id": "df6ff2727cc548b94543c0336ee99d0c", "type": "electric_scooter", "is_disabled": 0, "lat": 38.881531333333335, "rental_uris": {"ios": "https://dc.lft.to/lastmile_qr_scan", "android": "https://dc.lft.to/lastmile_qr_scan"}, "is_reserved": 0, "fusion_lon": 0.0, "fusion_lat": 0.0, "lon": -77.02768466666667, "name": "df6ff2727cc548b94543c0336ee99d0c"}, {"bike_id": "f6e5accf36225a0d1466b7267628a420", "type": "electric_scooter", "is_disabled": 0, "lat": 38.90320616666666, "rental_uris": {"ios": "https://dc.lft.to/lastmile_qr_scan", "android": "https://dc.lft.to/lastmile_qr_scan"}, "is_reserved": 0, "fusion_lon": 0.0, "fusion_lat": 0.0, "lon": -76.99127166666666, "name": "f6e5accf36225a0d1466b7267628a420"}, {"bike_id": "3262e264abfcb3803920cab0a79c9fde", "type": "electric_scooter", "is_disabled": 0, "lat": 38.86374816666667, "rental_uris": {"ios": "https://dc.lft.to/lastmile_qr_scan", "android": "https://dc.lft.to/lastmile_qr_scan"}, "is_reserved": 0, "fusion_lon": 0.0, "fusion_lat": 0.0, "lon": -76.99055683333333, "name": "3262e264abfcb3803920cab0a79c9fde"}, {"bike_id": "8383a894a70974fe38a4171d2f3e8d24", "type": "electric_bike", "is_disabled": 0, "lat": 38.809801666666665, "rental_uris": {"ios": "https://dc.lft.to/lastmile_qr_scan", "android": "https://dc.lft.to/lastmile_qr_scan"}, "is_reserved": 0, "fusion_lon": 0.0, "fusion_lat": 0.0, "lon": -77.08626133333334, "name": "8383a894a70974fe38a4171d2f3e8d24"}, {"bike_id": "6a2dbe29f5fc1a732072bfc1c78d8503", "type": "electric_scooter", "is_disabled": 0, "lat": 38.9127315, "rental_uris": {"ios": "https://dc.lft.to/lastmile_qr_scan", "android": "https://dc.lft.to/lastmile_qr_scan"}, "is_reserved": 0, "fusion_lon": 0.0, "fusion_lat": 0.0, "lon": -77.03862516666666, "name": "6a2dbe29f5fc1a732072bfc1c78d8503"}, {"bike_id": "b75fc6e2088ccd3113d821c9bdac414d", "type": "electric_scooter", "is_disabled": 0, "lat": 38.892170666666665, "rental_uris": {"ios": "https://dc.lft.to/lastmile_qr_scan", "android": "https://dc.lft.to/lastmile_qr_scan"}, "is_reserved": 0, "fusion_lon": 0.0, "fusion_lat": 0.0, "lon": -77.03165333333334, "name": "b75fc6e2088ccd3113d821c9bdac414d"}, {"bike_id": "7fd2a2be7f358afbe6fbfe0046c8cd39", "type": "electric_scooter", "is_disabled": 0, "lat": 38.95579033333333, "rental_uris": {"ios": "https://dc.lft.to/lastmile_qr_scan", "android": "https://dc.lft.to/lastmile_qr_scan"}, "is_reserved": 0, "fusion_lon": 0.0, "fusion_lat": 0.0, "lon": -77.08038716666667, "name": "7fd2a2be7f358afbe6fbfe0046c8cd39"}, {"bike_id": "7eb2710efd7a8d2efed369050ee8d338", "type": "electric_scooter", "is_disabled": 0, "lat": 38.92865183333333, "rental_uris": {"ios": "https://dc.lft.to/lastmile_qr_scan", "android": "https://dc.lft.to/lastmile_qr_scan"}, "is_reserved": 0, "fusion_lon": 0.0, "fusion_lat": 0.0, "lon": -77.03711416666667, "name": "7eb2710efd7a8d2efed369050ee8d338"}, {"bike_id": "df68188436c451a5745e011f1264474c", "type": "electric_scooter", "is_disabled": 0, "lat": 38.92848466666667, "rental_uris": {"ios": "https://dc.lft.to/lastmile_qr_scan", "android": "https://dc.lft.to/lastmile_qr_scan"}, "is_reserved": 0, "fusion_lon": 0.0, "fusion_lat": 0.0, "lon": -77.055087, "name": "df68188436c451a5745e011f1264474c"}, {"bike_id": "6167bd763cd5fc90cc386810bba90378", "type": "electric_scooter", "is_disabled": 0, "lat": 38.94856766666667, "rental_uris": {"ios": "https://dc.lft.to/lastmile_qr_scan", "android": "https://dc.lft.to/lastmile_qr_scan"}, "is_reserved": 0, "fusion_lon": 0.0, "fusion_lat": 0.0, "lon": -77.0801755, "name": "6167bd763cd5fc90cc386810bba90378"}, {"bike_id": "41a104f60eadbb52d75314bab4618290", "type": "electric_scooter", "is_disabled": 0, "lat": 38.922582166666665, "rental_uris": {"ios": "https://dc.lft.to/lastmile_qr_scan", "android": "https://dc.lft.to/lastmile_qr_scan"}, "is_reserved": 0, "fusion_lon": 0.0, "fusion_lat": 0.0, "lon": -77.042127, "name": "41a104f60eadbb52d75314bab4618290"}, {"bike_id": "9c98ba6e75e14972c2432f9b70f2d2c2", "type": "electric_scooter", "is_disabled": 0, "lat": 38.934611833333335, "rental_uris": {"ios": "https://dc.lft.to/lastmile_qr_scan", "android": "https://dc.lft.to/lastmile_qr_scan"}, "is_reserved": 0, "fusion_lon": 0.0, "fusion_lat": 0.0, "lon": -77.027936, "name": "9c98ba6e75e14972c2432f9b70f2d2c2"}, {"bike_id": "51c2726359fcce3d3176bb2cc3b768b3", "type": "electric_scooter", "is_disabled": 0, "lat": 38.90466716666667, "rental_uris": {"ios": "https://dc.lft.to/lastmile_qr_scan", "android": "https://dc.lft.to/lastmile_qr_scan"}, "is_reserved": 0, "fusion_lon": 0.0, "fusion_lat": 0.0, "lon": -76.97608566666666, "name": "51c2726359fcce3d3176bb2cc3b768b3"}, {"bike_id": "cc27c2b05f0d71beab0b18aa5cad1153", "type": "electric_scooter", "is_disabled": 0, "lat": 38.8960715, "rental_uris": {"ios": "https://dc.lft.to/lastmile_qr_scan", "android": "https://dc.lft.to/lastmile_qr_scan"}, "is_reserved": 0, "fusion_lon": 0.0, "fusion_lat": 0.0, "lon": -77.01071683333333, "name": "cc27c2b05f0d71beab0b18aa5cad1153"}, {"bike_id": "20ee4c9009087674d4b868f4ed98fbd1", "type": "electric_scooter", "is_disabled": 0, "lat": 38.90849716666666, "rental_uris": {"ios": "https://dc.lft.to/lastmile_qr_scan", "android": "https://dc.lft.to/lastmile_qr_scan"}, "is_reserved": 0, "fusion_lon": 0.0, "fusion_lat": 0.0, "lon": -77.0548735, "name": "20ee4c9009087674d4b868f4ed98fbd1"}, {"bike_id": "a4ca8fb9edebddc261b5198bb49bbffc", "type": "electric_scooter", "is_disabled": 0, "lat": 38.906812333333335, "rental_uris": {"ios": "https://dc.lft.to/lastmile_qr_scan", "android": "https://dc.lft.to/lastmile_qr_scan"}, "is_reserved": 0, "fusion_lon": 0.0, "fusion_lat": 0.0, "lon": -76.97997216666667, "name": "a4ca8fb9edebddc261b5198bb49bbffc"}, {"bike_id": "4ed0cf58034116e865b6657268246187", "type": "electric_bike", "is_disabled": 0, "lat": 38.882445833333335, "rental_uris": {"ios": "https://dc.lft.to/lastmile_qr_scan", "android": "https://dc.lft.to/lastmile_qr_scan"}, "is_reserved": 0, "fusion_lon": 0.0, "fusion_lat": 0.0, "lon": -76.96257266666667, "name": "4ed0cf58034116e865b6657268246187"}, {"bike_id": "d47d76cddb386d7030b39944ddf49406", "type": "electric_scooter", "is_disabled": 0, "lat": 38.92155833333333, "rental_uris": {"ios": "https://dc.lft.to/lastmile_qr_scan", "android": "https://dc.lft.to/lastmile_qr_scan"}, "is_reserved": 0, "fusion_lon": 0.0, "fusion_lat": 0.0, "lon": -77.035199, "name": "d47d76cddb386d7030b39944ddf49406"}, {"bike_id": "4752f9f83dab43a710163bc1fc62c256", "type": "electric_scooter", "is_disabled": 0, "lat": 38.918397666666664, "rental_uris": {"ios": "https://dc.lft.to/lastmile_qr_scan", "android": "https://dc.lft.to/lastmile_qr_scan"}, "is_reserved": 0, "fusion_lon": 0.0, "fusion_lat": 0.0, "lon": -77.0260575, "name": "4752f9f83dab43a710163bc1fc62c256"}, {"bike_id": "ebdf5829365d0ee05e763661ca2421b4", "type": "electric_bike", "is_disabled": 0, "lat": 38.932290333333334, "rental_uris": {"ios": "https://dc.lft.to/lastmile_qr_scan", "android": "https://dc.lft.to/lastmile_qr_scan"}, "is_reserved": 0, "fusion_lon": 0.0, "fusion_lat": 0.0, "lon": -77.18124183333333, "name": "ebdf5829365d0ee05e763661ca2421b4"}, {"bike_id": "aaa0651568a58f961bfc48e3278e7955", "type": "electric_scooter", "is_disabled": 0, "lat": 38.92951766666667, "rental_uris": {"ios": "https://dc.lft.to/lastmile_qr_scan", "android": "https://dc.lft.to/lastmile_qr_scan"}, "is_reserved": 0, "fusion_lon": 0.0, "fusion_lat": 0.0, "lon": -77.0440065, "name": "aaa0651568a58f961bfc48e3278e7955"}, {"bike_id": "4e547d4c31d0a61c81e676d982b44b3d", "type": "electric_scooter", "is_disabled": 0, "lat": 38.931499333333335, "rental_uris": {"ios": "https://dc.lft.to/lastmile_qr_scan", "android": "https://dc.lft.to/lastmile_qr_scan"}, "is_reserved": 0, "fusion_lon": 0.0, "fusion_lat": 0.0, "lon": -77.033565, "name": "4e547d4c31d0a61c81e676d982b44b3d"}, {"bike_id": "1911f0a5f53c15b0418a142b4bc7bc0d", "type": "electric_scooter", "is_disabled": 0, "lat": 38.902344666666664, "rental_uris": {"ios": "https://dc.lft.to/lastmile_qr_scan", "android": "https://dc.lft.to/lastmile_qr_scan"}, "is_reserved": 0, "fusion_lon": 0.0, "fusion_lat": 0.0, "lon": -77.00192433333333, "name": "1911f0a5f53c15b0418a142b4bc7bc0d"}, {"bike_id": "700a3c7e02680897be14fec11f0d5ae1", "type": "electric_scooter", "is_disabled": 0, "lat": 38.9012315, "rental_uris": {"ios": "https://dc.lft.to/lastmile_qr_scan", "android": "https://dc.lft.to/lastmile_qr_scan"}, "is_reserved": 0, "fusion_lon": 0.0, "fusion_lat": 0.0, "lon": -77.04993483333334, "name": "700a3c7e02680897be14fec11f0d5ae1"}, {"bike_id": "811cc6c233ac631605b0f218eb9747fb", "type": "electric_scooter", "is_disabled": 0, "lat": 38.9203335, "rental_uris": {"ios": "https://dc.lft.to/lastmile_qr_scan", "android": "https://dc.lft.to/lastmile_qr_scan"}, "is_reserved": 0, "fusion_lon": 0.0, "fusion_lat": 0.0, "lon": -77.030715, "name": "811cc6c233ac631605b0f218eb9747fb"}, {"bike_id": "4b8cd5f99da6b89ec5b5c80b88425143", "type": "electric_bike", "is_disabled": 0, "lat": 38.9613245, "rental_uris": {"ios": "https://dc.lft.to/lastmile_qr_scan", "android": "https://dc.lft.to/lastmile_qr_scan"}, "is_reserved": 0, "fusion_lon": 0.0, "fusion_lat": 0.0, "lon": -77.03333033333334, "name": "4b8cd5f99da6b89ec5b5c80b88425143"}, {"bike_id": "bc54e15a84ea60446daf158f3c65da16", "type": "electric_scooter", "is_disabled": 0, "lat": 38.9171465, "rental_uris": {"ios": "https://dc.lft.to/lastmile_qr_scan", "android": "https://dc.lft.to/lastmile_qr_scan"}, "is_reserved": 0, "fusion_lon": 0.0, "fusion_lat": 0.0, "lon": -77.03660233333333, "name": "bc54e15a84ea60446daf158f3c65da16"}, {"bike_id": "7f145b5cc0749a037ddbde2ee80f2023", "type": "electric_scooter", "is_disabled": 0, "lat": 38.91561133333333, "rental_uris": {"ios": "https://dc.lft.to/lastmile_qr_scan", "android": "https://dc.lft.to/lastmile_qr_scan"}, "is_reserved": 0, "fusion_lon": 0.0, "fusion_lat": 0.0, "lon": -77.03199533333333, "name": "7f145b5cc0749a037ddbde2ee80f2023"}, {"bike_id": "35f575cc0efa5878293f008e1175d579", "type": "electric_scooter", "is_disabled": 0, "lat": 38.905632833333335, "rental_uris": {"ios": "https://dc.lft.to/lastmile_qr_scan", "android": "https://dc.lft.to/lastmile_qr_scan"}, "is_reserved": 0, "fusion_lon": 0.0, "fusion_lat": 0.0, "lon": -77.044185, "name": "35f575cc0efa5878293f008e1175d579"}, {"bike_id": "4e0a303065305401e5e4c05cf4cd444e", "type": "electric_scooter", "is_disabled": 0, "lat": 38.90913783333333, "rental_uris": {"ios": "https://dc.lft.to/lastmile_qr_scan", "android": "https://dc.lft.to/lastmile_qr_scan"}, "is_reserved": 0, "fusion_lon": 0.0, "fusion_lat": 0.0, "lon": -77.01899316666666, "name": "4e0a303065305401e5e4c05cf4cd444e"}, {"bike_id": "ec4d21df73b6f81c6ab9d5f34a9e18a3", "type": "electric_scooter", "is_disabled": 0, "lat": 38.866270666666665, "rental_uris": {"ios": "https://dc.lft.to/lastmile_qr_scan", "android": "https://dc.lft.to/lastmile_qr_scan"}, "is_reserved": 0, "fusion_lon": 0.0, "fusion_lat": 0.0, "lon": -76.98716483333334, "name": "ec4d21df73b6f81c6ab9d5f34a9e18a3"}, {"bike_id": "c7bf85199ffd8bd90ab3e30e0f538d67", "type": "electric_scooter", "is_disabled": 0, "lat": 38.886386333333334, "rental_uris": {"ios": "https://dc.lft.to/lastmile_qr_scan", "android": "https://dc.lft.to/lastmile_qr_scan"}, "is_reserved": 0, "fusion_lon": 0.0, "fusion_lat": 0.0, "lon": -77.02137866666666, "name": "c7bf85199ffd8bd90ab3e30e0f538d67"}, {"bike_id": "874ca881ce4826ab32e430979fa03f0f", "type": "electric_scooter", "is_disabled": 0, "lat": 38.8920135, "rental_uris": {"ios": "https://dc.lft.to/lastmile_qr_scan", "android": "https://dc.lft.to/lastmile_qr_scan"}, "is_reserved": 0, "fusion_lon": 0.0, "fusion_lat": 0.0, "lon": -77.025009, "name": "874ca881ce4826ab32e430979fa03f0f"}, {"bike_id": "714bb648e6ad92183e6b5205bb94e7cd", "type": "electric_scooter", "is_disabled": 0, "lat": 38.933635, "rental_uris": {"ios": "https://dc.lft.to/lastmile_qr_scan", "android": "https://dc.lft.to/lastmile_qr_scan"}, "is_reserved": 0, "fusion_lon": 0.0, "fusion_lat": 0.0, "lon": -77.08854683333334, "name": "714bb648e6ad92183e6b5205bb94e7cd"}, {"bike_id": "c3297ea07773902366ad0a8f0072170b", "type": "electric_scooter", "is_disabled": 0, "lat": 38.8717815, "rental_uris": {"ios": "https://dc.lft.to/lastmile_qr_scan", "android": "https://dc.lft.to/lastmile_qr_scan"}, "is_reserved": 0, "fusion_lon": 0.0, "fusion_lat": 0.0, "lon": -77.0061555, "name": "c3297ea07773902366ad0a8f0072170b"}, {"bike_id": "a744bf9034008c40dae11cce2610d291", "type": "electric_scooter", "is_disabled": 0, "lat": 38.97205866666667, "rental_uris": {"ios": "https://dc.lft.to/lastmile_qr_scan", "android": "https://dc.lft.to/lastmile_qr_scan"}, "is_reserved": 0, "fusion_lon": 0.0, "fusion_lat": 0.0, "lon": -77.02658316666667, "name": "a744bf9034008c40dae11cce2610d291"}, {"bike_id": "d796ae77d14c2a5326cc6402b6247ba8", "type": "electric_scooter", "is_disabled": 0, "lat": 38.8750415, "rental_uris": {"ios": "https://dc.lft.to/lastmile_qr_scan", "android": "https://dc.lft.to/lastmile_qr_scan"}, "is_reserved": 0, "fusion_lon": 0.0, "fusion_lat": 0.0, "lon": -77.00049683333333, "name": "d796ae77d14c2a5326cc6402b6247ba8"}, {"bike_id": "322d35e15d2dc2ac44f553c2376b3201", "type": "electric_bike", "is_disabled": 0, "lat": 38.8632675, "rental_uris": {"ios": "https://dc.lft.to/lastmile_qr_scan", "android": "https://dc.lft.to/lastmile_qr_scan"}, "is_reserved": 0, "fusion_lon": 0.0, "fusion_lat": 0.0, "lon": -77.06349433333334, "name": "322d35e15d2dc2ac44f553c2376b3201"}, {"bike_id": "595786ce4e2fe4c7baa6db11784c7a63", "type": "electric_scooter", "is_disabled": 0, "lat": 38.9132845, "rental_uris": {"ios": "https://dc.lft.to/lastmile_qr_scan", "android": "https://dc.lft.to/lastmile_qr_scan"}, "is_reserved": 0, "fusion_lon": 0.0, "fusion_lat": 0.0, "lon": -77.03176983333333, "name": "595786ce4e2fe4c7baa6db11784c7a63"}, {"bike_id": "847b4b6e7ed848490095a2b708934e3c", "type": "electric_scooter", "is_disabled": 0, "lat": 38.881837166666664, "rental_uris": {"ios": "https://dc.lft.to/lastmile_qr_scan", "android": "https://dc.lft.to/lastmile_qr_scan"}, "is_reserved": 0, "fusion_lon": 0.0, "fusion_lat": 0.0, "lon": -77.0281005, "name": "847b4b6e7ed848490095a2b708934e3c"},