{"data": {"bikes": [{"is_disabled": 0, "fusion_lon": 0.0, "fusion_lat": 0.0, "lat": 38.919820333333334, "type": "electric_scooter", "lon": -77.03872766666667, "bike_id": "1fb5793e88be93628ccfc69b7bd36510", "rental_uris": {"android": "https://dc.lft.to/lastmile_qr_scan", "ios": "https://dc.lft.to/lastmile_qr_scan"}, "name": "1fb5793e88be93628ccfc69b7bd36510", "is_reserved": 0}, {"is_disabled": 0, "fusion_lon": 0.0, "fusion_lat": 0.0, "lat": 38.90032583333333, "type": "electric_scooter", "lon": -77.04675583333334, "bike_id": "5ec76b2644da1486290ef408e8f6bd5c", "rental_uris": {"android": "https://dc.lft.to/lastmile_qr_scan", "ios": "https://dc.lft.to/lastmile_qr_scan"}, "name": "5ec76b2644da1486290ef408e8f6bd5c", "is_reserved": 0}, {"is_disabled": 0, "fusion_lon": 0.0, "fusion_lat": 0.0, "lat": 38.9455265, "type": "electric_bike", "lon": -77.05127933333333, "bike_id": "a4a817c0dd356356e6c0644941fa48c2", "rental_uris": {"android": "https://dc.lft.to/lastmile_qr_scan", "ios": "https://dc.lft.to/lastmile_qr_scan"}, "name": "a4a817c0dd356356e6c0644941fa48c2", "is_reserved": 0}, {"is_disabled": 0, "fusion_lon": 0.0, "fusion_lat": 0.0, "lat": 38.916902, "type": "electric_scooter", "lon": -77.00525233333333, "bike_id": "809f513349353231e95f26b1fcb1ff51", "rental_uris": {"android": "https://dc.lft.to/lastmile_qr_scan", "ios": "https://dc.lft.to/lastmile_qr_scan"}, "name": "809f513349353231e95f26b1fcb1ff51", "is_reserved": 0}, {"is_disabled": 0, "fusion_lon": 0.0, "fusion_lat": 0.0, "lat": 38.920519666666664, "type": "electric_scooter", "lon": -77.04335883333333, "bike_id": "6d79433711e56e4ed0ea447664a0afec", "rental_uris": {"android": "https://dc.lft.to/lastmile_qr_scan", "ios": "https://dc.lft.to/lastmile_qr_scan"}, "name": "6d79433711e56e4ed0ea447664a0afec", "is_reserved": 0}, {"is_disabled": 0, "fusion_lon": 0.0, "fusion_lat": 0.0, "lat": 38.91814383333333, "type": "electric_scooter", "lon": -77.0325225, "bike_id": "6966282225170e8608d5b1cf66bde9c1", "rental_uris": {"android": "https://dc.lft.to/lastmile_qr_scan", "ios": "https://dc.lft.to/lastmile_qr_scan"}, "name": "6966282225170e8608d5b1cf66bde9c1", "is_reserved": 0}, {"is_disabled": 0, "fusion_lon": 0.0, "fusion_lat": 0.0, "lat": 38.912893333333336, "type": "electric_scooter", "lon": -77.045172, "bike_id": "bfd0e8327b993aef5658a9b2c9fef137", "rental_uris": {"android": "https://dc.lft.to/lastmile_qr_scan", "ios": "https://dc.lft.to/lastmile_qr_scan"}, "name": "bfd0e8327b993aef5658a9b2c9fef137", "is_reserved": 0}, {"is_disabled": 0, "fusion_lon": 0.0, "fusion_lat": 0.0, "lat": 38.923306833333335, "type": "electric_scooter", "lon": -77.04183616666667, "bike_id": "d8db0b39a82b2e03b6d6dd20bee1d98e", "rental_uris": {"android": "https://dc.lft.to/lastmile_qr_scan", "ios": "https://dc.lft.to/lastmile_qr_scan"}, "name": "d8db0b39a82b2e03b6d6dd20bee1d98e", "is_reserved": 0}, {"is_disabled": 0, "fusion_lon": 0.0, "fusion_lat": 0.0, "lat": 38.919312833333336, "type": "electric_bike", "lon": -76.97504783333333, "bike_id": "2adc3be09f83b86e73a9775a40b297f4", "rental_uris": {"android": "https://dc.lft.to/lastmile_qr_scan", "ios": "https://dc.lft.to/lastmile_qr_scan"}, "name": "2adc3be09f83b86e73a9775a40b297f4", "is_reserved": 0}, {"is_disabled": 0, "fusion_lon": 0.0, "fusion_lat": 0.0, "lat": 38.86960583333333, "type": "electric_scooter", "lon": -76.96034433333334, "bike_id": "4dab4cf7facc892d9bba8b498c660f97", "rental_uris": {"android": "https://dc.lft.to/lastmile_qr_scan", "ios": "https://dc.lft.to/lastmile_qr_scan"}, "name": "4dab4cf7facc892d9bba8b498c660f97", "is_reserved": 0}, {"is_disabled": 0, "fusion_lon": 0.0, "fusion_lat": 0.0, "lat": 38.91900566666666, "type": "electric_scooter", "lon": -77.07116833333333, "bike_id": "26be407b734701ecb2e72396b4a6a8a0", "rental_uris": {"android": "https://dc.lft.to/lastmile_qr_scan", "ios": "https://dc.lft.to/lastmile_qr_scan"}, "name": "26be407b734701ecb2e72396b4a6a8a0", "is_reserved": 0}, {"is_disabled": 0, "fusion_lon": 0.0, "fusion_lat": 0.0, "lat": 38.934326666666664, "type": "electric_scooter", "lon": -77.07249716666666, "bike_id": "1c4657acd1e2f9effc50d60aab9345a0", "rental_uris": {"android": "https://dc.lft.to/lastmile_qr_scan", "ios": "https://dc.lft.to/lastmile_qr_scan"}, "name": "1c4657acd1e2f9effc50d60aab9345a0", "is_reserved": 0}, {"is_disabled": 0, "fusion_lon": 0.0, "fusion_lat": 0.0, "lat": 38.896653, "type": "electric_scooter", "lon": -76.98246533333334, "bike_id": "d472888070c82be0bf2b2426ec7902a1", "rental_uris": {"android": "https://dc.lft.to/lastmile_qr_scan", "ios": "https://dc.lft.to/lastmile_qr_scan"}, "name": "d472888070c82be0bf2b2426ec7902a1", "is_reserved": 0}, {"is_disabled": 0, "fusion_lon": 0.0, "fusion_lat": 0.0, "lat": 38.92308383333334, "type": "electric_scooter", "lon": -77.03899016666666, "bike_id": "faaf4c77c698e3b1ad10add54c796751", "rental_uris": {"android": "https://dc.lft.to/lastmile_qr_scan", "ios": "https://dc.lft.to/lastmile_qr_scan"}, "name": "faaf4c77c698e3b1ad10add54c796751", "is_reserved": 0}, {"is_disabled": 0, "fusion_lon": 0.0, "fusion_lat": 0.0, "lat": 38.94294133333333, "type": "electric_scooter", "lon": -77.0276665, "bike_id": "f9c7f49b0ae8000b42bba8f4a3c94f73", "rental_uris": {"android": "https://dc.lft.to/lastmile_qr_scan", "ios": "https://dc.lft.to/lastmile_qr_scan"}, "name": "f9c7f49b0ae8000b42bba8f4a3c94f73", "is_reserved": 0}, {"is_disabled": 0, "fusion_lon": 0.0, "fusion_lat": 0.0, "lat": 38.9207, "type": "electric_scooter", "lon": -77.04381833333333, "bike_id": "30374e276de3dffb73a0bddf1e83221f", "rental_uris": {"android": "https://dc.lft.to/lastmile_qr_scan", "ios": "https://dc.lft.to/lastmile_qr_scan"}, "name": "30374e276de3dffb73a0bddf1e83221f", "is_reserved": 0}, {"is_disabled": 0, "fusion_lon": 0.0, "fusion_lat": 0.0, "lat": 38.92829166666667, "type": "electric_scooter", "lon": -77.05442416666666, "bike_id": "f429b1547f5e1aff0f5a17f03f1be6cf", "rental_uris": {"android": "https://dc.lft.to/lastmile_qr_scan", "ios": "https://dc.lft.to/lastmile_qr_scan"}, "name": "f429b1547f5e1aff0f5a17f03f1be6cf", "is_reserved": 0}, {"is_disabled": 0, "fusion_lon": 0.0, "fusion_lat": 0.0, "lat": 38.921328, "type": "electric_scooter", "lon": -77.03514516666667, "bike_id": "5a1ac0f61ef9707ea36551f109cc33ca", "rental_uris": {"android": "https://dc.lft.to/lastmile_qr_scan", "ios": "https://dc.lft.to/lastmile_qr_scan"}, "name": "5a1ac0f61ef9707ea36551f109cc33ca", "is_reserved": 0}, {"is_disabled": 0, "fusion_lon": 0.0, "fusion_lat": 0.0, "lat": 38.928580333333336, "type": "electric_scooter", "lon": -76.99770366666667, "bike_id": "2bac68f15032e5fb5f806f9d7cb53a43", "rental_uris": {"android": "https://dc.lft.to/lastmile_qr_scan", "ios": "https://dc.lft.to/lastmile_qr_scan"}, "name": "2bac68f15032e5fb5f806f9d7cb53a43", "is_reserved": 0}, {"is_disabled": 0, "fusion_lon": 0.0, "fusion_lat": 0.0, "lat": 38.852815166666666, "type": "electric_bike", "lon": -76.98158566666666, "bike_id": "82fa9349baac66c285511833d1adff3f", "rental_uris": {"android": "https://dc.lft.to/lastmile_qr_scan", "ios": "https://dc.lft.to/lastmile_qr_scan"}, "name": "82fa9349baac66c285511833d1adff3f", "is_reserved": 0}, {"is_disabled": 0, "fusion_lon": 0.0, "fusion_lat": 0.0, "lat": 38.8788745, "type": "electric_scooter", "lon": -77.02312966666666, "bike_id": "b734da22a0eb5a7cd95c65d44fc55ed8", "rental_uris": {"android": "https://dc.lft.to/lastmile_qr_scan", "ios": "https://dc.lft.to/lastmile_qr_scan"}, "name": "b734da22a0eb5a7cd95c65d44fc55ed8", "is_reserved": 0}, {"is_disabled": 0, "fusion_lon": 0.0, "fusion_lat": 0.0, "lat": 38.91623583333333, "type": "electric_scooter", "lon": -77.04510566666667, "bike_id": "743e686318660206d6989fd9d7943e81", "rental_uris": {"android": "https://dc.lft.to/lastmile_qr_scan", "ios": "https://dc.lft.to/lastmile_qr_scan"}, "name": "743e686318660206d6989fd9d7943e81", "is_reserved": 0}, {"is_disabled": 0, "fusion_lon": 0.0, "fusion_lat": 0.0, "lat": 38.92165116666666, "type": "electric_scooter", "lon": -77.03842666666667, "bike_id": "479ac6f980f70961099d663eb9a0c60b", "rental_uris": {"android": "https://dc.lft.to/lastmile_qr_scan", "ios": "https://dc.lft.to/lastmile_qr_scan"}, "name": "479ac6f980f70961099d663eb9a0c60b", "is_reserved": 0}, {"is_disabled": 0, "fusion_lon": 0.0, "fusion_lat": 0.0, "lat": 38.913358, "type": "electric_scooter", "lon": -77.04164966666667, "bike_id": "7a9a91cb14ae9401d6f21e9f47b367aa", "rental_uris": {"android": "https://dc.lft.to/lastmile_qr_scan", "ios": "https://dc.lft.to/lastmile_qr_scan"}, "name": "7a9a91cb14ae9401d6f21e9f47b367aa", "is_reserved": 0}, {"is_disabled": 0, "fusion_lon": 0.0, "fusion_lat": 0.0, "lat": 38.90475166666667, "type": "electric_bike", "lon": -76.92946716666667, "bike_id": "445c962a62008d0399c69eead6814685", "rental_uris": {"android": "https://dc.lft.to/lastmile_qr_scan", "ios": "https://dc.lft.to/lastmile_qr_scan"}, "name": "445c962a62008d0399c69eead6814685", "is_reserved": 0}, {"is_disabled": 0, "fusion_lon": 0.0, "fusion_lat": 0.0, "lat": 38.93413416666667, "type": "electric_scooter", "lon": -77.038864, "bike_id": "8ba08f0d60ebfe954028396a27191d7b", "rental_uris": {"android": "https://dc.lft.to/lastmile_qr_scan", "ios": "https://dc.lft.to/lastmile_qr_scan"}, "name": "8ba08f0d60ebfe954028396a27191d7b", "is_reserved": 0}, {"is_disabled": 0, "fusion_lon": 0.0, "fusion_lat": 0.0, "lat": 38.90280516666667, "type": "electric_scooter", "lon": -77.06286433333334, "bike_id": "070347c2a6a6302f5b107973575fd33c", "rental_uris": {"android": "https://dc.lft.to/lastmile_qr_scan", "ios": "https://dc.lft.to/lastmile_qr_scan"}, "name": "070347c2a6a6302f5b107973575fd33c", "is_reserved": 0}, {"is_disabled": 0, "fusion_lon": 0.0, "fusion_lat": 0.0, "lat": 38.90425183333333, "type": "electric_scooter", "lon": -77.02405616666667, "bike_id": "d912468c5585995d2acca9fbef879f77", "rental_uris": {"android": "https://dc.lft.to/lastmile_qr_scan", "ios": "https://dc.lft.to/lastmile_qr_scan"}, "name": "d912468c5585995d2acca9fbef879f77", "is_reserved": 0}, {"is_disabled": 0, "fusion_lon": 0.0, "fusion_lat": 0.0, "lat": 38.897542666666666, "type": "electric_scooter", "lon": -77.03213166666667, "bike_id": "4835f726f4cf5e51e9bc7392c70cf4d9", "rental_uris": {"android": "https://dc.lft.to/lastmile_qr_scan", "ios": "https://dc.lft.to/lastmile_qr_scan"}, "name": "4835f726f4cf5e51e9bc7392c70cf4d9", "is_reserved": 0}, {"is_disabled": 0, "fusion_lon": 0.0, "fusion_lat": 0.0, "lat": 38.914331, "type": "electric_scooter", "lon": -77.03469816666667, "bike_id": "aafa40ed5f7b61644e65b70c7555ba7f", "rental_uris": {"android": "https://dc.lft.to/lastmile_qr_scan", "ios": "https://dc.lft.to/lastmile_qr_scan"}, "name": "aafa40ed5f7b61644e65b70c7555ba7f", "is_reserved": 0}, {"is_disabled": 0, "fusion_lon": 0.0, "fusion_lat": 0.0, "lat": 38.93091833333333, "type": "electric_scooter", "lon": -77.07264866666667, "bike_id": "53baedf0672481afc1605731ad9e7c71", "rental_uris": {"android": "https://dc.lft.to/lastmile_qr_scan", "ios": "https://dc.lft.to/lastmile_qr_scan"}, "name": "53baedf0672481afc1605731ad9e7c71", "is_reserved": 0}, {"is_disabled": 0, "fusion_lon": 0.0, "fusion_lat": 0.0, "lat": 38.90305166666667, "type": "electric_scooter", "lon": -77.02220216666667, "bike_id": "e03b8613357c1efa6c51f30c8d82d320", "rental_uris": {"android": "https://dc.lft.to/lastmile_qr_scan", "ios": "https://dc.lft.to/lastmile_qr_scan"}, "name": "e03b8613357c1efa6c51f30c8d82d320", "is_reserved": 0}, {"is_disabled": 0, "fusion_lon": 0.0, "fusion_lat": 0.0, "lat": 38.906883666666666, "type": "electric_scooter", "lon": -77.06334683333333, "bike_id": "84694885930c4bb321c1c5ab2e52c290", "rental_uris": {"android": "https://dc.lft.to/lastmile_qr_scan", "ios": "https://dc.lft.to/lastmile_qr_scan"}, "name": "84694885930c4bb321c1c5ab2e52c290", "is_reserved": 0}, {"is_disabled": 0, "fusion_lon": 0.0, "fusion_lat": 0.0, "lat": 38.924079166666665, "type": "electric_scooter", "lon": -77.03543666666667, "bike_id": "558fce2b50df12042130de9803a18483", "rental_uris": {"android": "https://dc.lft.to/lastmile_qr_scan", "ios": "https://dc.lft.to/lastmile_qr_scan"}, "name": "558fce2b50df12042130de9803a18483", "is_reserved": 0}, {"is_disabled": 0, "fusion_lon": 0.0, "fusion_lat": 0.0, "lat": 38.90956383333334, "type": "electric_scooter", "lon": -77.02393833333333, "bike_id": "31cdad627e02c052d2d37033e693dc41", "rental_uris": {"android": "https://dc.lft.to/lastmile_qr_scan", "ios": "https://dc.lft.to/lastmile_qr_scan"}, "name": "31cdad627e02c052d2d37033e693dc41", "is_reserved": 0}, {"is_disabled": 0, "fusion_lon": 0.0, "fusion_lat": 0.0, "lat": 38.88195266666666, "type": "electric_scooter", "lon": -76.92704733333333, "bike_id": "e2ccda66642ec9b4f7637559106eb8fc", "rental_uris": {"android": "https://dc.lft.to/lastmile_qr_scan", "ios": "https://dc.lft.to/lastmile_qr_scan"}, "name": "e2ccda66642ec9b4f7637559106eb8fc", "is_reserved": 0}, {"is_disabled": 0, "fusion_lon": 0.0, "fusion_lat": 0.0, "lat": 38.874902666666664, "type": "electric_scooter", "lon": -77.00113183333333, "bike_id": "379fd215b6376c1e6168dbd4f5b86c66", "rental_uris": {"android": "https://dc.lft.to/lastmile_qr_scan", "ios": "https://dc.lft.to/lastmile_qr_scan"}, "name": "379fd215b6376c1e6168dbd4f5b86c66", "is_reserved": 0}, {"is_disabled": 0, "fusion_lon": 0.0, "fusion_lat": 0.0, "lat": 38.8842445, "type": "electric_scooter", "lon": -76.9540605, "bike_id": "eccaaff30fb4cf6c11dab0e78a914ef6", "rental_uris": {"android": "https://dc.lft.to/lastmile_qr_scan", "ios": "https://dc.lft.to/lastmile_qr_scan"}, "name": "eccaaff30fb4cf6c11dab0e78a914ef6", "is_reserved": 0}, {"is_disabled": 0, "fusion_lon": 0.0, "fusion_lat": 0.0, "lat": 39.088332, "type": "electric_bike", "lon": -77.17799866666667, "bike_id": "f4d056260ff55c74a7869ca9afa1aca8", "rental_uris": {"android": "https://dc.lft.to/lastmile_qr_scan", "ios": "https://dc.lft.to/lastmile_qr_scan"}, "name": "f4d056260ff55c74a7869ca9afa1aca8", "is_reserved": 0}, {"is_disabled": 0, "fusion_lon": 0.0, "fusion_lat": 0.0, "lat": 38.877891166666664, "type": "electric_scooter", "lon": -77.01739816666667, "bike_id": "24b13ebd1b11e3b86b1f94f2a1d72932", "rental_uris": {"android": "https://dc.lft.to/lastmile_qr_scan", "ios": "https://dc.lft.to/lastmile_qr_scan"}, "name": "24b13ebd1b11e3b86b1f94f2a1d72932", "is_reserved": 0}, {"is_disabled": 0, "fusion_lon": 0.0, "fusion_lat": 0.0, "lat": 38.900199666666666, "type": "electric_scooter", "lon": -77.0467905, "bike_id": "a1a7ce1f79a95d1b88cb54aeb35bacea", "rental_uris": {"android": "https://dc.lft.to/lastmile_qr_scan", "ios": "https://dc.lft.to/lastmile_qr_scan"}, "name": "a1a7ce1f79a95d1b88cb54aeb35bacea", "is_reserved": 0}, {"is_disabled": 0, "fusion_lon": 0.0, "fusion_lat": 0.0, "lat": 38.870891, "type": "electric_scooter", "lon": -77.00819066666666, "bike_id": "8e65658a8541e9b29f7d1b5357c14f58", "rental_uris": {"android": "https://dc.lft.to/lastmile_qr_scan", "ios": "https://dc.lft.to/lastmile_qr_scan"}, "name": "8e65658a8541e9b29f7d1b5357c14f58", "is_reserved": 0}, {"is_disabled": 0, "fusion_lon": 0.0, "fusion_lat": 0.0, "lat": 38.88689816666667, "type": "electric_scooter", "lon": -77.0139045, "bike_id": "8e6d9bfb26a1970dda22ede158d835e5", "rental_uris": {"android": "https://dc.lft.to/lastmile_qr_scan", "ios": "https://dc.lft.to/lastmile_qr_scan"}, "name": "8e6d9bfb26a1970dda22ede158d835e5", "is_reserved": 0}, {"is_disabled": 0, "fusion_lon": 0.0, "fusion_lat": 0.0, "lat": 38.93901616666667, "type": "electric_scooter", "lon": -77.078108, "bike_id": "7816e0ab0f9cfaa11d3a881e7d37027d", "rental_uris": {"android": "https://dc.lft.to/lastmile_qr_scan", "ios": "https://dc.lft.to/lastmile_qr_scan"}, "name": "7816e0ab0f9cfaa11d3a881e7d37027d", "is_reserved": 0}, {"is_disabled": 0, "fusion_lon": 0.0, "fusion_lat": 0.0, "lat": 38.87492816666666, "type": "electric_scooter", "lon": -77.00336916666667, "bike_id": "3c1c25092a661d6c699bdf9dc4cc4191", "rental_uris": {"android": "https://dc.lft.to/lastmile_qr_scan", "ios": "https://dc.lft.to/lastmile_qr_scan"}, "name": "3c1c25092a661d6c699bdf9dc4cc4191", "is_reserved": 0}, {"is_disabled": 0, "fusion_lon": 0.0, "fusion_lat": 0.0, "lat": 38.88669733333333, "type": "electric_scooter", "lon": -77.00356083333334, "bike_id": "9d486a0cd11e3a5a6f06e1382c0ce1ad", "rental_uris": {"android": "https://dc.lft.to/lastmile_qr_scan", "ios": "https://dc.lft.to/lastmile_qr_scan"}, "name": "9d486a0cd11e3a5a6f06e1382c0ce1ad", "is_reserved": 0}, {"is_disabled": 0, "fusion_lon": 0.0, "fusion_lat": 0.0, "lat": 38.9175845, "type": "electric_scooter", "lon": -77.04056633333333, "bike_id": "1915eb04340835ca911af56712b1890f", "rental_uris": {"android": "https://dc.lft.to/lastmile_qr_scan", "ios": "https://dc.lft.to/lastmile_qr_scan"}, "name": "1915eb04340835ca911af56712b1890f", "is_reserved": 0}, {"is_disabled": 0, "fusion_lon": 0.0, "fusion_lat": 0.0, "lat": 38.90993, "type": "electric_scooter", "lon": -77.02210116666667, "bike_id": "0573045fd740a2461fa1919ef95fb883", "rental_uris": {"android": "https://dc.lft.to/lastmile_qr_scan", "ios": "https://dc.lft.to/lastmile_qr_scan"}, "name": "0573045fd740a2461fa1919ef95fb883", "is_reserved": 0}, {"is_disabled": 0, "fusion_lon": 0.0, "fusion_lat": 0.0, "lat": 38.9681675, "type": "electric_scooter", "lon": -77.008889, "bike_id": "b23b38d523ef61bc41515fd841f6e70d", "rental_uris": {"android": "https://dc.lft.to/lastmile_qr_scan", "ios": "https://dc.lft.to/lastmile_qr_scan"}, "name": "b23b38d523ef61bc41515fd841f6e70d", "is_reserved": 0}, {"is_disabled": 0, "fusion_lon": 0.0, "fusion_lat": 0.0, "lat": 38.92547616666667, "type": "electric_scooter", "lon": -76.99006683333333, "bike_id": "c0b07615395cd9621b54a1f75c768778", "rental_uris": {"android": "https://dc.lft.to/lastmile_qr_scan", "ios": "https://dc.lft.to/lastmile_qr_scan"}, "name": "c0b07615395cd9621b54a1f75c768778", "is_reserved": 0}, {"is_disabled": 0, "fusion_lon": 0.0, "fusion_lat": 0.0, "lat": 38.905463166666664, "type": "electric_scooter", "lon": -77.02215533333333, "bike_id": "75518f1c530086f2f50e82b8c46c8f9a", "rental_uris": {"android": "https://dc.lft.to/lastmile_qr_scan", "ios": "https://dc.lft.to/lastmile_qr_scan"}, "name": "75518f1c530086f2f50e82b8c46c8f9a", "is_reserved": 0}, {"is_disabled": 0, "fusion_lon": 0.0, "fusion_lat": 0.0, "lat": 38.91834466666667, "type": "electric_scooter", "lon": -77.0244245, "bike_id": "1ff44cdddf40867bf7a592ff8613ab99", "rental_uris": {"android": "https://dc.lft.to/lastmile_qr_scan", "ios": "https://dc.lft.to/lastmile_qr_scan"}, "name": "1ff44cdddf40867bf7a592ff8613ab99", "is_reserved": 0}, {"is_disabled": 0, "fusion_lon": 0.0, "fusion_lat": 0.0, "lat": 38.8972875, "type": "electric_bike", "lon": -76.90543716666667, "bike_id": "6e1cb43b8e0b3cd412c25bd6a9a659ef", "rental_uris": {"android": "https://dc.lft.to/lastmile_qr_scan", "ios": "https://dc.lft.to/lastmile_qr_scan"}, "name": "6e1cb43b8e0b3cd412c25bd6a9a659ef", "is_reserved": 0}, {"is_disabled": 0, "fusion_lon": 0.0, "fusion_lat": 0.0, "lat": 39.052044333333335, "type": "electric_bike", "lon": -77.04416716666667, "bike_id": "be1230d912a79f68cc29e4799351b17a", "rental_uris": {"android": "https://dc.lft.to/lastmile_qr_scan", "ios": "https://dc.lft.to/lastmile_qr_scan"}, "name": "be1230d912a79f68cc29e4799351b17a", "is_reserved": 0}, {"is_disabled": 0, "fusion_lon": 0.0, "fusion_lat": 0.0, "lat": 38.9289785, "type": "electric_bike", "lon": -77.03241166666666, "bike_id": "d71930dffab5a53f5399ea703f5c2771", "rental_uris": {"android": "https://dc.lft.to/lastmile_qr_scan", "ios": "https://dc.lft.to/lastmile_qr_scan"}, "name": "d71930dffab5a53f5399ea703f5c2771", "is_reserved": 0}, {"is_disabled": 0, "fusion_lon": 0.0, "fusion_lat": 0.0, "lat": 38.90508916666667, "type": "electric_scooter", "lon": -76.9826655, "bike_id": "edab600934a430f104285583fbc2f9c9", "rental_uris": {"android": "https://dc.lft.to/lastmile_qr_scan", "ios": "https://dc.lft.to/lastmile_qr_scan"}, "name": "edab600934a430f104285583fbc2f9c9", "is_reserved": 0}, {"is_disabled": 0, "fusion_lon": 0.0, "fusion_lat": 0.0, "lat": 38.86346533333333, "type": "electric_scooter", "lon": -76.99059383333334, "bike_id": "ba9cde3c7bedd973d9a45ae3bf544848", "rental_uris": {"android": "https://dc.lft.to/lastmile_qr_scan", "ios": "https://dc.lft.to/lastmile_qr_scan"}, "name": "ba9cde3c7bedd973d9a45ae3bf544848", "is_reserved": 0}, {"is_disabled": 0, "fusion_lon": 0.0, "fusion_lat": 0.0, "lat": 38.919374166666664, "type": "electric_scooter", "lon": -77.08135583333333, "bike_id": "42852ec4d8ac3125e57cf40334eed89a", "rental_uris": {"android": "https://dc.lft.to/lastmile_qr_scan", "ios": "https://dc.lft.to/lastmile_qr_scan"}, "name": "42852ec4d8ac3125e57cf40334eed89a", "is_reserved": 0}, {"is_disabled": 0, "fusion_lon": 0.0, "fusion_lat": 0.0, "lat": 38.855431333333335, "type": "electric_bike", "lon": -77.10710766666666, "bike_id": "17445ea29c4d83bd9cdc55640c30c2fc", "rental_uris": {"android": "https://dc.lft.to/lastmile_qr_scan", "ios": "https://dc.lft.to/lastmile_qr_scan"}, "name": "17445ea29c4d83bd9cdc55640c30c2fc", "is_reserved": 0}, {"is_disabled": 0, "fusion_lon": 0.0, "fusion_lat": 0.0, "lat": 38.93457033333333, "type": "electric_scooter", "lon": -77.03876116666666, "bike_id": "9a962d0c271a7a12afed69c67a6283e9", "rental_uris": {"android": "https://dc.lft.to/lastmile_qr_scan", "ios": "https://dc.lft.to/lastmile_qr_scan"}, "name": "9a962d0c271a7a12afed69c67a6283e9", "is_reserved": 0}, {"is_disabled": 0, "fusion_lon": 0.0, "fusion_lat": 0.0, "lat": 38.999280166666665, "type": "electric_bike", "lon": -77.00120783333334, "bike_id": "e2abe69869be575c703220d1ce43a3d5", "rental_uris": {"android": "https://dc.lft.to/lastmile_qr_scan", "ios": "https://dc.lft.to/lastmile_qr_scan"}, "name": "e2abe69869be575c703220d1ce43a3d5", "is_reserved": 0}, {"is_disabled": 0, "fusion_lon": 0.0, "fusion_lat": 0.0, "lat": 39.095898166666665, "type": "electric_bike", "lon": -77.14780783333333, "bike_id": "069a1a8e24a83be8350df0eb1e4f7ae9", "rental_uris": {"android": "https://dc.lft.to/lastmile_qr_scan", "ios": "https://dc.lft.to/lastmile_qr_scan"}, "name": "069a1a8e24a83be8350df0eb1e4f7ae9", "is_reserved": 0}, {"is_disabled": 0, "fusion_lon": 0.0, "fusion_lat": 0.0, "lat": 38.9012265, "type": "electric_scooter", "lon": -76.98810716666667, "bike_id": "d3d2c51d37aa2623f87b5d176aab36f4", "rental_uris": {"android": "https://dc.lft.to/lastmile_qr_scan", "ios": "https://dc.lft.to/lastmile_qr_scan"}, "name": "d3d2c51d37aa2623f87b5d176aab36f4", "is_reserved": 0}, {"is_disabled": 0, "fusion_lon": 0.0, "fusion_lat": 0.0, "lat": 38.894992, "type": "electric_scooter", "lon": -76.94880083333334, "bike_id": "6af13cbd874c379ed52b7bc88a5c84f5", "rental_uris": {"android": "https://dc.lft.to/lastmile_qr_scan", "ios": "https://dc.lft.to/lastmile_qr_scan"}, "name": "6af13cbd874c379ed52b7bc88a5c84f5", "is_reserved": 0}, {"is_disabled": 0, "fusion_lon": 0.0, "fusion_lat": 0.0, "lat": 38.90630266666667, "type": "electric_scooter", "lon": -77.02502783333334, "bike_id": "416e65b28573712c3e516c6024c1977f", "rental_uris": {"android": "https://dc.lft.to/lastmile_qr_scan", "ios": "https://dc.lft.to/lastmile_qr_scan"}, "name": "416e65b28573712c3e516c6024c1977f", "is_reserved": 0}, {"is_disabled": 0, "fusion_lon": 0.0, "fusion_lat": 0.0, "lat": 38.920921666666665, "type": "electric_scooter", "lon": -77.04369316666667, "bike_id": "b7c37284dbecfe5da87bf042b0f8aedb", "rental_uris": {"android": "https://dc.lft.to/lastmile_qr_scan", "ios": "https://dc.lft.to/lastmile_qr_scan"}, "name": "b7c37284dbecfe5da87bf042b0f8aedb", "is_reserved": 0}, {"is_disabled": 0, "fusion_lon": 0.0, "fusion_lat": 0.0, "lat": 38.91107216666666, "type": "electric_scooter", "lon": -76.99768116666667, "bike_id": "60a4d1a5f93083e1658627f773ebdd77", "rental_uris": {"android": "https://dc.lft.to/lastmile_qr_scan", "ios": "https://dc.lft.to/lastmile_qr_scan"}, "name": "60a4d1a5f93083e1658627f773ebdd77", "is_reserved": 0}, {"is_disabled": 0, "fusion_lon": 0.0, "fusion_lat": 0.0, "lat": 38.97365, "type": "electric_scooter", "lon": -77.01848783333334, "bike_id": "4b7040ea5e8056a13d7b0b2cb4179dcc", "rental_uris": {"android": "https://dc.lft.to/lastmile_qr_scan", "ios": "https://dc.lft.to/lastmile_qr_scan"}, "name": "4b7040ea5e8056a13d7b0b2cb4179dcc", "is_reserved": 0}, {"is_disabled": 0, "fusion_lon": 0.0, "fusion_lat": 0.0, "lat": 38.897221333333334, "type": "electric_scooter", "lon": -77.02729233333334, "bike_id": "30a6d53e8d30d2611fd27d9fe85326a3", "rental_uris": {"android": "https://dc.lft.to/lastmile_qr_scan", "ios": "https://dc.lft.to/lastmile_qr_scan"}, "name": "30a6d53e8d30d2611fd27d9fe85326a3", "is_reserved": 0}, {"is_disabled": 0, "fusion_lon": 0.0, "fusion_lat": 0.0, "lat": 38.90263016666667, "type": "electric_scooter", "lon": -77.03436716666667, "bike_id": "fc232a6f09e07a80f346348803aed239", "rental_uris": {"android": "https://dc.lft.to/lastmile_qr_scan", "ios": "https://dc.lft.to/lastmile_qr_scan"}, "name": "fc232a6f09e07a80f346348803aed239", "is_reserved": 0}, {"is_disabled": 0, "fusion_lon": 0.0, "fusion_lat": 0.0, "lat": 38.96645216666667, "type": "electric_bike", "lon": -76.93020116666666, "bike_id": "9f12ab48c4abd73a53383ec4b772ca92", "rental_uris": {"android": "https://dc.lft.to/lastmile_qr_scan", "ios": "https://dc.lft.to/lastmile_qr_scan"}, "name": "9f12ab48c4abd73a53383ec4b772ca92", "is_reserved": 0}, {"is_disabled": 0, "fusion_lon": 0.0, "fusion_lat": 0.0, "lat": 38.90624966666667, "type": "electric_scooter", "lon": -77.051366, "bike_id": "8975887bd801ec9084447227c1935deb", "rental_uris": {"android": "https://dc.lft.to/lastmile_qr_scan", "ios": "https://dc.lft.to/lastmile_qr_scan"}, "name": "8975887bd801ec9084447227c1935deb", "is_reserved": 0}, {"is_disabled": 0, "fusion_lon": 0.0, "fusion_lat": 0.0, "lat": 38.877474, "type": "electric_scooter", "lon": -77.00574366666666, "bike_id": "012f13a43a7d234107e861db36b59b13", "rental_uris": {"android": "https://dc.lft.to/lastmile_qr_scan", "ios": "https://dc.lft.to/lastmile_qr_scan"}, "name": "012f13a43a7d234107e861db36b59b13", "is_reserved": 0}, {"is_disabled": 0, "fusion_lon": 0.0, "fusion_lat": 0.0, "lat": 38.927657833333335, "type": "electric_scooter", "lon": -77.0291925, "bike_id": "e990c7bc6b9a08f255103e79ce527c7c", "rental_uris": {"android": "https://dc.lft.to/lastmile_qr_scan", "ios": "https://dc.lft.to/lastmile_qr_scan"}, "name": "e990c7bc6b9a08f255103e79ce527c7c", "is_reserved": 0}, {"is_disabled": 0, "fusion_lon": 0.0, "fusion_lat": 0.0, "lat": 38.9114865, "type": "electric_scooter", "lon": -77.08792183333334, "bike_id": "9e556fd68592e158edcf0e1a9e6991fa", "rental_uris": {"android": "https://dc.lft.to/lastmile_qr_scan", "ios": "https://dc.lft.to/lastmile_qr_scan"}, "name": "9e556fd68592e158edcf0e1a9e6991fa", "is_reserved": 0}, {"is_disabled": 0, "fusion_lon": 0.0, "fusion_lat": 0.0, "lat": 38.918906166666666, "type": "electric_scooter", "lon": -77.02391233333333, "bike_id": "946054d384a2abf52840ca34527cd4fc", "rental_uris": {"android": "https://dc.lft.to/lastmile_qr_scan", "ios": "https://dc.lft.to/lastmile_qr_scan"}, "name": "946054d384a2abf52840ca34527cd4fc", "is_reserved": 0}, {"is_disabled": 0, "fusion_lon": 0.0, "fusion_lat": 0.0, "lat": 38.93820766666666, "type": "electric_scooter", "lon": -76.99048966666666, "bike_id": "c327747dc95ccd1b48ade53b60f4fc05", "rental_uris": {"android": "https://dc.lft.to/lastmile_qr_scan", "ios": "https://dc.lft.to/lastmile_qr_scan"}, "name": "c327747dc95ccd1b48ade53b60f4fc05", "is_reserved": 0}, {"is_disabled": 0, "fusion_lon": 0.0, "fusion_lat": 0.0, "lat": 38.911658833333334, "type": "electric_scooter", "lon": -77.04169616666667, "bike_id": "c323592013d02bfacf0e759290ebc1bb", "rental_uris": {"android": "https://dc.lft.to/lastmile_qr_scan", "ios": "https://dc.lft.to/lastmile_qr_scan"}, "name": "c323592013d02bfacf0e759290ebc1bb", "is_reserved": 0}, {"is_disabled": 0, "fusion_lon": 0.0, "fusion_lat": 0.0, "lat": 38.93764616666667, "type": "electric_scooter", "lon": -77.03283733333333, "bike_id": "73fa0698f0be7680766b1152773ab2e5", "rental_uris": {"android": "https://dc.lft.to/lastmile_qr_scan", "ios": "https://dc.lft.to/lastmile_qr_scan"}, "name": "73fa0698f0be7680766b1152773ab2e5", "is_reserved": 0}, {"is_disabled": 0, "fusion_lon": 0.0, "fusion_lat": 0.0, "lat": 38.877846, "type": "electric_bike", "lon": -76.98031866666666, "bike_id": "4ed0e4f0ee0c7552f96832b1fc9cc397", "rental_uris": {"android": "https://dc.lft.to/lastmile_qr_scan", "ios": "https://dc.lft.to/lastmile_qr_scan"}, "name": "4ed0e4f0ee0c7552f96832b1fc9cc397", "is_reserved": 0}, {"is_disabled": 0, "fusion_lon": 0.0, "fusion_lat": 0.0, "lat": 38.9037375, "type": "electric_scooter", "lon": -77.043565, "bike_id": "dbe4ec42108e96965f7eff313375976c", "rental_uris": {"android": "https://dc.lft.to/lastmile_qr_scan", "ios": "https://dc.lft.to/lastmile_qr_scan"}, "name": "dbe4ec42108e96965f7eff313375976c", "is_reserved": 0}, {"is_disabled": 0, "fusion_lon": 0.0, "fusion_lat": 0.0, "lat": 38.9301835, "type": "electric_scooter", "lon": -77.07821266666667, "bike_id": "ae7a76af5564e05dc4a9ae99b1e460f9", "rental_uris": {"android": "https://dc.lft.to/lastmile_qr_scan", "ios": "https://dc.lft.to/lastmile_qr_scan"}, "name": "ae7a76af5564e05dc4a9ae99b1e460f9", "is_reserved": 0}, {"is_disabled": 0, "fusion_lon": 0.0, "fusion_lat": 0.0, "lat": 38.88483466666667, "type": "electric_scooter", "lon": -77.022238, "bike_id": "be201f1f9c27d80b5f182c3a0a07385e", "rental_uris": {"android": "https://dc.lft.to/lastmile_qr_scan", "ios": "https://dc.lft.to/lastmile_qr_scan"}, "name": "be201f1f9c27d80b5f182c3a0a07385e", "is_reserved": 0}, {"is_disabled": 0, "fusion_lon": 0.0, "fusion_lat": 0.0, "lat": 38.90371016666667, "type": "electric_scooter", "lon": -77.04175466666666, "bike_id": "b1831ee507cbd84a03f72669d1ee9312", "rental_uris": {"android": "https://dc.lft.to/lastmile_qr_scan", "ios": "https://dc.lft.to/lastmile_qr_scan"}, "name": "b1831ee507cbd84a03f72669d1ee9312", "is_reserved": 0}, {"is_disabled": 0, "fusion_lon": 0.0, "fusion_lat": 0.0, "lat": 38.8923175, "type": "electric_scooter", "lon": -77.04999666666667, "bike_id": "88da1cffab25cb27cba166939bd6ec71", "rental_uris": {"android": "https://dc.lft.to/lastmile_qr_scan", "ios": "https://dc.lft.to/lastmile_qr_scan"}, "name": "88da1cffab25cb27cba166939bd6ec71", "is_reserved": 0}, {"is_disabled": 0, "fusion_lon": 0.0, "fusion_lat": 0.0, "lat": 38.91578466666667, "type": "electric_scooter", "lon": -77.01642716666667, "bike_id": "0a437431b6d7c341910ee17710c730c2", "rental_uris": {"android": "https://dc.lft.to/lastmile_qr_scan", "ios": "https://dc.lft.to/lastmile_qr_scan"}, "name": "0a437431b6d7c341910ee17710c730c2", "is_reserved": 0}, {"is_disabled": 0, "fusion_lon": 0.0, "fusion_lat": 0.0, "lat": 38.87982516666667, "type": "electric_bike", "lon": -76.9159755, "bike_id": "5c2d77cd22a7298c2bbafde5c6a7ea97", "rental_uris": {"android": "https://dc.lft.to/lastmile_qr_scan", "ios": "https://dc.lft.to/lastmile_qr_scan"}, "name": "5c2d77cd22a7298c2bbafde5c6a7ea97", "is_reserved": 0}, {"is_disabled": 0, "fusion_lon": 0.0, "fusion_lat": 0.0, "lat": 38.9336585, "type": "electric_scooter", "lon": -77.05731316666666, "bike_id": "82a088db996b0064956f384b5b5e07fb", "rental_uris": {"android": "https://dc.lft.to/lastmile_qr_scan", "ios": "https://dc.lft.to/lastmile_qr_scan"}, "name": "82a088db996b0064956f384b5b5e07fb", "is_reserved": 0}, {"is_disabled": 0, "fusion_lon": 0.0, "fusion_lat": 0.0, "lat": 38.872791666666664, "type": "electric_scooter", "lon": -76.977263, "bike_id": "9afae933910153ae37eee4cf9d0655c5", "rental_uris": {"android": "https://dc.lft.to/lastmile_qr_scan", "ios": "https://dc.lft.to/lastmile_qr_scan"}, "name": "9afae933910153ae37eee4cf9d0655c5", "is_reserved": 0}, {"is_disabled": 0, "fusion_lon": 0.0, "fusion_lat": 0.0, "lat": 38.90851833333333, "type": "electric_scooter", "lon": -77.071568, "bike_id": "b94ee4d2f50f89612ff4b0fcc2e0c285", "rental_uris": {"android": "https://dc.lft.to/lastmile_qr_scan", "ios": "https://dc.lft.to/lastmile_qr_scan"}, "name": "b94ee4d2f50f89612ff4b0fcc2e0c285", "is_reserved": 0}, {"is_disabled": 0, "fusion_lon": 0.0, "fusion_lat": 0.0, "lat": 38.91412533333333, "type": "electric_scooter", "lon": -77.03092933333333, "bike_id": "6f9eb3e1a8ee0586b3dc54367186c91e", "rental_uris": {"android": "https://dc.lft.to/lastmile_qr_scan", "ios": "https://dc.lft.to/lastmile_qr_scan"}, "name": "6f9eb3e1a8ee0586b3dc54367186c91e", "is_reserved": 0}, {"is_disabled": 0, "fusion_lon": 0.0, "fusion_lat": 0.0, "lat": 38.89463, "type": "electric_scooter", "lon": -77.02128166666667, "bike_id": "dd1c04cca30d4b0051461b03c746035c", "rental_uris": {"android": "https://dc.lft.to/lastmile_qr_scan", "ios": "https://dc.lft.to/lastmile_qr_scan"}, "name": "dd1c04cca30d4b0051461b03c746035c", "is_reserved": 0}, {"is_disabled": 0, "fusion_lon": 0.0, "fusion_lat": 0.0, "lat": 38.920394, "type": "electric_scooter", "lon": -77.0425905, "bike_id": "4266ce99525915d2dbad4174f5804824", "rental_uris": {"android": "https://dc.lft.to/lastmile_qr_scan", "ios": "https://dc.lft.to/lastmile_qr_scan"}, "name": "4266ce99525915d2dbad4174f5804824", "is_reserved": 0}, {"is_disabled": 0, "fusion_lon": 0.0, "fusion_lat": 0.0, "lat": 38.892339, "type": "electric_bike", "lon": -76.95224183333333, "bike_id": "bdb0ad8eb8f3f32f39978bfc080ce5e9", "rental_uris": {"android": "https://dc.lft.to/lastmile_qr_scan", "ios": "https://dc.lft.to/lastmile_qr_scan"}, "name": "bdb0ad8eb8f3f32f39978bfc080ce5e9", "is_reserved": 0}, {"is_disabled": 0, "fusion_lon": 0.0, "fusion_lat": 0.0, "lat": 38.88744366666667, "type": "electric_scooter", "lon": -77.01542333333333, "bike_id": "d71b55e86270a6a39e6410d23f721aab", "rental_uris": {"android": "https://dc.lft.to/lastmile_qr_scan", "ios": "https://dc.lft.to/lastmile_qr_scan"}, "name": "d71b55e86270a6a39e6410d23f721aab", "is_reserved": 0}, {"is_disabled": 0, "fusion_lon": 0.0, "fusion_lat": 0.0, "lat": 38.9386375, "type": "electric_scooter", "lon": -77.026517, "bike_id": "59b9ca1289bb11c59a5cbf7ba1c24c1a", "rental_uris": {"android": "https://dc.lft.to/lastmile_qr_scan", "ios": "https://dc.lft.to/lastmile_qr_scan"}, "name": "59b9ca1289bb11c59a5cbf7ba1c24c1a", "is_reserved": 0}, {"is_disabled": 0, "fusion_lon": 0.0, "fusion_lat": 0.0, "lat": 38.925890833333334, "type": "electric_bike", "lon": -76.88904733333334, "bike_id": "2cc1e14454583486d4c03ebb2a3d49cd", "rental_uris": {"android": "https://dc.lft.to/lastmile_qr_scan", "ios": "https://dc.lft.to/lastmile_qr_scan"}, "name": "2cc1e14454583486d4c03ebb2a3d49cd", "is_reserved": 0}, {"is_disabled": 0, "fusion_lon": 0.0, "fusion_lat": 0.0, "lat": 38.91708916666666, "type": "electric_scooter", "lon": -77.026087, "bike_id": "9f68a1cd48f90ea715fd6ac916aa523b", "rental_uris": {"android": "https://dc.lft.to/lastmile_qr_scan", "ios": "https://dc.lft.to/lastmile_qr_scan"}, "name": "9f68a1cd48f90ea715fd6ac916aa523b", "is_reserved": 0}, {"is_disabled": 0, "fusion_lon": 0.0, "fusion_lat": 0.0, "lat": 38.906365, "type": "electric_scooter", "lon": -76.9857375, "bike_id": "1153322fee337af65e7e7e23b61b324f", "rental_uris": {"android": "https://dc.lft.to/lastmile_qr_scan", "ios": "https://dc.lft.to/lastmile_qr_scan"}, "name": "1153322fee337af65e7e7e23b61b324f", "is_reserved": 0}, {"is_disabled": 0, "fusion_lon": 0.0, "fusion_lat": 0.0, "lat": 38.88674366666667, "type": "electric_scooter", "lon": -77.00177016666666, "bike_id": "4cded9d856fcc89369bb25b97c0b6efd", "rental_uris": {"android": "https://dc.lft.to/lastmile_qr_scan", "ios": "https://dc.lft.to/lastmile_qr_scan"}, "name": "4cded9d856fcc89369bb25b97c0b6efd", "is_reserved": 0}, {"is_disabled": 0, "fusion_lon": 0.0, "fusion_lat": 0.0, "lat": 38.9190095, "type": "electric_scooter", "lon": -77.02401866666666, "bike_id": "6edd15f1c86f62bcdd4f8f8efe0984ff", "rental_uris": {"android": "https://dc.lft.to/lastmile_qr_scan", "ios": "https://dc.lft.to/lastmile_qr_scan"}, "name": "6edd15f1c86f62bcdd4f8f8efe0984ff", "is_reserved": 0}, {"is_disabled": 0, "fusion_lon": 0.0, "fusion_lat": 0.0, "lat": 38.91709816666667, "type": "electric_scooter", "lon": -77.098062, "bike_id": "99098a43cda27805a1ab8e10a5984022", "rental_uris": {"android": "https://dc.lft.to/lastmile_qr_scan", "ios": "https://dc.lft.to/lastmile_qr_scan"}, "name": "99098a43cda27805a1ab8e10a5984022", "is_reserved": 0}, {"is_disabled": 0, "fusion_lon": 0.0, "fusion_lat": 0.0, "lat": 38.911115333333335, "type": "electric_scooter", "lon": -77.0383285, "bike_id": "4244c1f26d00ab0a13411e892bb81b6b", "rental_uris": {"android": "https://dc.lft.to/lastmile_qr_scan", "ios": "https://dc.lft.to/lastmile_qr_scan"}, "name": "4244c1f26d00ab0a13411e892bb81b6b", "is_reserved": 0}, {"is_disabled": 0, "fusion_lon": 0.0, "fusion_lat": 0.0, "lat": 38.88982516666667, "type": "electric_scooter", "lon": -77.00245466666667, "bike_id": "9ef235781fdf2fc70fb4af2654c2612d", "rental_uris": {"android": "https://dc.lft.to/lastmile_qr_scan", "ios": "https://dc.lft.to/lastmile_qr_scan"}, "name": "9ef235781fdf2fc70fb4af2654c2612d", "is_reserved": 0}, {"is_disabled": 0, "fusion_lon": 0.0, "fusion_lat": 0.0, "lat": 38.905442, "type": "electric_scooter", "lon": -77.04995933333333, "bike_id": "4c0148848c30ac4d9aaeb77721c3b171", "rental_uris": {"android": "https://dc.lft.to/lastmile_qr_scan", "ios": "https://dc.lft.to/lastmile_qr_scan"}, "name": "4c0148848c30ac4d9aaeb77721c3b171", "is_reserved": 0}, {"is_disabled": 0, "fusion_lon": 0.0, "fusion_lat": 0.0, "lat": 39.026857166666666, "type": "electric_bike", "lon": -77.12596166666667, "bike_id": "769eda955eebe5ea2584ee7accf4ac97", "rental_uris": {"android": "https://dc.lft.to/lastmile_qr_scan", "ios": "https://dc.lft.to/lastmile_qr_scan"}, "name": "769eda955eebe5ea2584ee7accf4ac97", "is_reserved": 0}, {"is_disabled": 0, "fusion_lon": 0.0, "fusion_lat": 0.0, "lat": 38.918231666666664, "type": "electric_scooter", "lon": -77.027101, "bike_id": "81d6b94232812df0e0051cd33f47129e", "rental_uris": {"android": "https://dc.lft.to/lastmile_qr_scan", "ios": "https://dc.lft.to/lastmile_qr_scan"}, "name": "81d6b94232812df0e0051cd33f47129e", "is_reserved": 0}, {"is_disabled": 0, "fusion_lon": 0.0, "fusion_lat": 0.0, "lat": 38.93974433333333, "type": "electric_scooter", "lon": -77.03016416666667, "bike_id": "904e9fa7c7b01c957b53bfb2ec06dd5e", "rental_uris": {"android": "https://dc.lft.to/lastmile_qr_scan", "ios": "https://dc.lft.to/lastmile_qr_scan"}, "name": "904e9fa7c7b01c957b53bfb2ec06dd5e", "is_reserved": 0}, {"is_disabled": 0, "fusion_lon": 0.0, "fusion_lat": 0.0, "lat": 38.897248833333336, "type": "electric_scooter", "lon": -77.02679316666666, "bike_id": "afcfca97452ca729b8103414149b6c24", "rental_uris": {"android": "https://dc.lft.to/lastmile_qr_scan", "ios": "https://dc.lft.to/lastmile_qr_scan"}, "name": "afcfca97452ca729b8103414149b6c24", "is_reserved": 0}, {"is_disabled": 0, "fusion_lon": 0.0, "fusion_lat": 0.0, "lat": 38.930761833333335, "type": "electric_scooter", "lon": -77.0343915, "bike_id": "bd165ee709671cd2f26314e50b630589", "rental_uris": {"android": "https://dc.lft.to/lastmile_qr_scan", "ios": "https://dc.lft.to/lastmile_qr_scan"}, "name": "bd165ee709671cd2f26314e50b630589", "is_reserved": 0}, {"is_disabled": 0, "fusion_lon": 0.0, "fusion_lat": 0.0, "lat": 38.883743333333335, "type": "electric_scooter", "lon": -76.923762, "bike_id": "41191050b59ab6c675f21a1125151c69", "rental_uris": {"android": "https://dc.lft.to/lastmile_qr_scan", "ios": "https://dc.lft.to/lastmile_qr_scan"}, "name": "41191050b59ab6c675f21a1125151c69", "is_reserved": 0}, {"is_disabled": 0, "fusion_lon": 0.0, "fusion_lat": 0.0, "lat": 38.90761916666666, "type": "electric_scooter", "lon": -77.07145266666667, "bike_id": "d56e0e537aa8b9315173351befbc6019", "rental_uris": {"android": "https://dc.lft.to/lastmile_qr_scan", "ios": "https://dc.lft.to/lastmile_qr_scan"}, "name": "d56e0e537aa8b9315173351befbc6019", "is_reserved": 0}, {"is_disabled": 0, "fusion_lon": 0.0, "fusion_lat": 0.0, "lat": 38.910362, "type": "electric_scooter", "lon": -77.04655366666667, "bike_id": "aaf5a37f7c82a75e193cf7d42445e0ca", "rental_uris": {"android": "https://dc.lft.to/lastmile_qr_scan", "ios": "https://dc.lft.to/lastmile_qr_scan"}, "name": "aaf5a37f7c82a75e193cf7d42445e0ca", "is_reserved": 0}, {"is_disabled": 0, "fusion_lon": 0.0, "fusion_lat": 0.0, "lat": 38.887440833333336, "type": "electric_scooter", "lon": -77.01606716666667, "bike_id": "128b7e02a4f5c526988600b8586cc2c5", "rental_uris": {"android": "https://dc.lft.to/lastmile_qr_scan", "ios": "https://dc.lft.to/lastmile_qr_scan"}, "name": "128b7e02a4f5c526988600b8586cc2c5", "is_reserved": 0}, {"is_disabled": 0, "fusion_lon": 0.0, "fusion_lat": 0.0, "lat": 38.91417333333333, "type": "electric_scooter", "lon": -77.04673483333333, "bike_id": "51026766a18bc516619feb24b873f034", "rental_uris": {"android": "https://dc.lft.to/lastmile_qr_scan", "ios": "https://dc.lft.to/lastmile_qr_scan"}, "name": "51026766a18bc516619feb24b873f034", "is_reserved": 0}, {"is_disabled": 0, "fusion_lon": 0.0, "fusion_lat": 0.0, "lat": 38.85202566666667, "type": "electric_bike", "lon": -77.10130983333333, "bike_id": "b1f99f089432fdac3d89ae916729ef7a", "rental_uris": {"android": "https://dc.lft.to/lastmile_qr_scan", "ios": "https://dc.lft.to/lastmile_qr_scan"}, "name": "b1f99f089432fdac3d89ae916729ef7a", "is_reserved": 0}, {"is_disabled": 0, "fusion_lon": 0.0, "fusion_lat": 0.0, "lat": 38.87619016666667, "type": "electric_scooter", "lon": -76.96540716666667, "bike_id": "ec56d76aba2018e12b7ab204ceafa3a1", "rental_uris": {"android": "https://dc.lft.to/lastmile_qr_scan", "ios": "https://dc.lft.to/lastmile_qr_scan"}, "name": "ec56d76aba2018e12b7ab204ceafa3a1", "is_reserved": 0}, {"is_disabled": 0, "fusion_lon": 0.0, "fusion_lat": 0.0, "lat": 38.86569983333333, "type": "electric_scooter", "lon": -76.989479, "bike_id": "ba5fa17d4e2072153ad6a6f73010200e", "rental_uris": {"android": "https://dc.lft.to/lastmile_qr_scan", "ios": "https://dc.lft.to/lastmile_qr_scan"}, "name": "ba5fa17d4e2072153ad6a6f73010200e", "is_reserved": 0}, {"is_disabled": 0, "fusion_lon": 0.0, "fusion_lat": 0.0, "lat": 38.9372835, "type": "electric_scooter", "lon": -77.03278883333333, "bike_id": "427c7c603c9ddab5dc15c459701491bc", "rental_uris": {"android": "https://dc.lft.to/lastmile_qr_scan", "ios": "https://dc.lft.to/lastmile_qr_scan"}, "name": "427c7c603c9ddab5dc15c459701491bc", "is_reserved": 0}, {"is_disabled": 0, "fusion_lon": 0.0, "fusion_lat": 0.0, "lat": 38.9086715, "type": "electric_scooter", "lon": -77.03556533333334, "bike_id": "67a4b3450402c4007a58b295666f07b7", "rental_uris": {"android": "https://dc.lft.to/lastmile_qr_scan", "ios": "https://dc.lft.to/lastmile_qr_scan"}, "name": "67a4b3450402c4007a58b295666f07b7", "is_reserved": 0}, {"is_disabled": 0, "fusion_lon": 0.0, "fusion_lat": 0.0, "lat": 38.848903, "type": "electric_scooter", "lon": -77.00524933333334, "bike_id": "94b222c4104a61b87697b2cd4d11e281", "rental_uris": {"android": "https://dc.lft.to/lastmile_qr_scan", "ios": "https://dc.lft.to/lastmile_qr_scan"}, "name": "94b222c4104a61b87697b2cd4d11e281", "is_reserved": 0}, {"is_disabled": 0, "fusion_lon": 0.0, "fusion_lat": 0.0, "lat": 38.90017566666667, "type": "electric_scooter", "lon": -77.00213333333333, "bike_id": "1c96e64a4f5014d5f0374b89b2e4dcdd", "rental_uris": {"android": "https://dc.lft.to/lastmile_qr_scan", "ios": "https://dc.lft.to/lastmile_qr_scan"}, "name": "1c96e64a4f5014d5f0374b89b2e4dcdd", "is_reserved": 0}, {"is_disabled": 0, "fusion_lon": 0.0, "fusion_lat": 0.0, "lat": 38.8635635, "type": "electric_scooter", "lon": -76.99065316666666, "bike_id": "c15fa41e87bbf6e2915bc9271ade3db3", "rental_uris": {"android": "https://dc.lft.to/lastmile_qr_scan", "ios": "https://dc.lft.to/lastmile_qr_scan"}, "name": "c15fa41e87bbf6e2915bc9271ade3db3", "is_reserved": 0}, {"is_disabled": 0, "fusion_lon": 0.0, "fusion_lat": 0.0, "lat": 38.93105, "type": "electric_scooter", "lon": -77.05601066666667, "bike_id": "cca25af28f0882de76c1fc3d0f5f2630", "rental_uris": {"android": "https://dc.lft.to/lastmile_qr_scan", "ios": "https://dc.lft.to/lastmile_qr_scan"}, "name": "cca25af28f0882de76c1fc3d0f5f2630", "is_reserved": 0}, {"is_disabled": 0, "fusion_lon": 0.0, "fusion_lat": 0.0, "lat": 38.9002435, "type": "electric_scooter", "lon": -76.98808883333334, "bike_id": "8fd8af628d91844d367759937b30441a", "rental_uris": {"android": "https://dc.lft.to/lastmile_qr_scan", "ios": "https://dc.lft.to/lastmile_qr_scan"}, "name": "8fd8af628d91844d367759937b30441a", "is_reserved": 0}, {"is_disabled": 0, "fusion_lon": 0.0, "fusion_lat": 0.0, "lat": 38.9035115, "type": "electric_scooter", "lon": -77.02138183333334, "bike_id": "cee33ad1b4352731a6ad6071efb6cfb2", "rental_uris": {"android": "https://dc.lft.to/lastmile_qr_scan", "ios": "https://dc.lft.to/lastmile_qr_scan"}, "name": "cee33ad1b4352731a6ad6071efb6cfb2", "is_reserved": 0}, {"is_disabled": 0, "fusion_lon": 0.0, "fusion_lat": 0.0, "lat": 38.9245175, "type": "electric_scooter", "lon": -77.03356983333333, "bike_id": "c39ab84334b12876c55705a2dde32494", "rental_uris": {"android": "https://dc.lft.to/lastmile_qr_scan", "ios": "https://dc.lft.to/lastmile_qr_scan"}, "name": "c39ab84334b12876c55705a2dde32494", "is_reserved": 0}, {"is_disabled": 0, "fusion_lon": 0.0, "fusion_lat": 0.0, "lat": 38.906055333333335, "type": "electric_scooter", "lon": -77.05129633333334, "bike_id": "2ed83944d12afb42273cd0b9dd647a04", "rental_uris": {"android": "https://dc.lft.to/lastmile_qr_scan", "ios": "https://dc.lft.to/lastmile_qr_scan"}, "name": "2ed83944d12afb42273cd0b9dd647a04", "is_reserved": 0}, {"is_disabled": 0, "fusion_lon": 0.0, "fusion_lat": 0.0, "lat": 38.87774316666667, "type": "electric_scooter", "lon": -77.01435283333333, "bike_id": "1ad679a64377240e4b794175a1394d1b", "rental_uris": {"android": "https://dc.lft.to/lastmile_qr_scan", "ios": "https://dc.lft.to/lastmile_qr_scan"}, "name": "1ad679a64377240e4b794175a1394d1b", "is_reserved": 0}, {"is_disabled": 0, "fusion_lon": 0.0, "fusion_lat": 0.0, "lat": 38.90278133333333, "type": "electric_scooter", "lon": -77.03474183333333, "bike_id": "351bbcafc12a47243323a88f50b934d1", "rental_uris": {"android": "https://dc.lft.to/lastmile_qr_scan", "ios": "https://dc.lft.to/lastmile_qr_scan"}, "name": "351bbcafc12a47243323a88f50b934d1", "is_reserved": 0}, {"is_disabled": 0, "fusion_lon": 0.0, "fusion_lat": 0.0, "lat": 38.89835983333333, "type": "electric_scooter", "lon": -77.0391605, "bike_id": "8cf330885639ced081cf3b3bd51556c9", "rental_uris": {"android": "https://dc.lft.to/lastmile_qr_scan", "ios": "https://dc.lft.to/lastmile_qr_scan"}, "name": "8cf330885639ced081cf3b3bd51556c9", "is_reserved": 0}, {"is_disabled": 0, "fusion_lon": 0.0, "fusion_lat": 0.0, "lat": 38.903659, "type": "electric_scooter", "lon": -77.04000283333333, "bike_id": "b40e9afe24ab40b1d23d8485d9ec7b3b", "rental_uris": {"android": "https://dc.lft.to/lastmile_qr_scan", "ios": "https://dc.lft.to/lastmile_qr_scan"}, "name": "b40e9afe24ab40b1d23d8485d9ec7b3b", "is_reserved": 0}, {"is_disabled": 0, "fusion_lon": 0.0, "fusion_lat": 0.0, "lat": 38.90636583333333, "type": "electric_scooter", "lon": -77.00587033333333, "bike_id": "8fa5835994fb15711294411fb1180007", "rental_uris": {"android": "https://dc.lft.to/lastmile_qr_scan", "ios": "https://dc.lft.to/lastmile_qr_scan"}, "name": "8fa5835994fb15711294411fb1180007", "is_reserved": 0}, {"is_disabled": 0, "fusion_lon": 0.0, "fusion_lat": 0.0, "lat": 38.908329333333334, "type": "electric_scooter", "lon": -76.99696583333333, "bike_id": "c8102a43dbd3db59c6d9270c60fe32df", "rental_uris": {"android": "https://dc.lft.to/lastmile_qr_scan", "ios": "https://dc.lft.to/lastmile_qr_scan"}, "name": "c8102a43dbd3db59c6d9270c60fe32df", "is_reserved": 0}, {"is_disabled": 0, "fusion_lon": 0.0, "fusion_lat": 0.0, "lat": 38.880394833333334, "type": "electric_bike", "lon": -76.99018966666667, "bike_id": "7b3d53151a57638173c8df0dc4965d4a", "rental_uris": {"android": "https://dc.lft.to/lastmile_qr_scan", "ios": "https://dc.lft.to/lastmile_qr_scan"}, "name": "7b3d53151a57638173c8df0dc4965d4a", "is_reserved": 0}, {"is_disabled": 0, "fusion_lon": 0.0, "fusion_lat": 0.0, "lat": 38.876863, "type": "electric_scooter", "lon": -77.015979, "bike_id": "052d5c5ab309b1b5919b9eee22064807", "rental_uris": {"android": "https://dc.lft.to/lastmile_qr_scan", "ios": "https://dc.lft.to/lastmile_qr_scan"}, "name": "052d5c5ab309b1b5919b9eee22064807", "is_reserved": 0}, {"is_disabled": 0, "fusion_lon": 0.0, "fusion_lat": 0.0, "lat": 38.86621133333333, "type": "electric_scooter", "lon": -76.98716, "bike_id": "ec7bb65497765852a8bdc1d838b3aa16", "rental_uris": {"android": "https://dc.lft.to/lastmile_qr_scan", "ios": "https://dc.lft.to/lastmile_qr_scan"}, "name": "ec7bb65497765852a8bdc1d838b3aa16", "is_reserved": 0}, {"is_disabled": 0, "fusion_lon": 0.0, "fusion_lat": 0.0, "lat": 38.911121666666666, "type": "electric_scooter", "lon": -77.036164, "bike_id": "5f993417f814064233ca4cfff609f42f", "rental_uris": {"android": "https://dc.lft.to/lastmile_qr_scan", "ios": "https://dc.lft.to/lastmile_qr_scan"}, "name": "5f993417f814064233ca4cfff609f42f", "is_reserved": 0}, {"is_disabled": 0, "fusion_lon": 0.0, "fusion_lat": 0.0, "lat": 38.879314666666666, "type": "electric_scooter", "lon": -77.0022435, "bike_id": "58f06fb6188912f763e250bfefcf43f8", "rental_uris": {"android": "https://dc.lft.to/lastmile_qr_scan", "ios": "https://dc.lft.to/lastmile_qr_scan"}, "name": "58f06fb6188912f763e250bfefcf43f8", "is_reserved": 0}, {"is_disabled": 0, "fusion_lon": 0.0, "fusion_lat": 0.0, "lat": 38.924204833333334, "type": "electric_scooter", "lon": -77.05075716666667, "bike_id": "7d0e0d762e35f4d7b69d2eaf353d3c78", "rental_uris": {"android": "https://dc.lft.to/lastmile_qr_scan", "ios": "https://dc.lft.to/lastmile_qr_scan"}, "name": "7d0e0d762e35f4d7b69d2eaf353d3c78", "is_reserved": 0}, {"is_disabled": 0, "fusion_lon": 0.0, "fusion_lat": 0.0, "lat": 38.9067575, "type": "electric_scooter", "lon": -77.026919, "bike_id": "dbdffa7cedb8c5fafc1a9ae21e405878", "rental_uris": {"android": "https://dc.lft.to/lastmile_qr_scan", "ios": "https://dc.lft.to/lastmile_qr_scan"}, "name": "dbdffa7cedb8c5fafc1a9ae21e405878", "is_reserved": 0}, {"is_disabled": 0, "fusion_lon": 0.0, "fusion_lat": 0.0, "lat": 38.911453, "type": "electric_scooter", "lon": -77.04169, "bike_id": "a4739d17d9b2aba89354dccc7243d78a", "rental_uris": {"android": "https://dc.lft.to/lastmile_qr_scan", "ios": "https://dc.lft.to/lastmile_qr_scan"}, "name": "a4739d17d9b2aba89354dccc7243d78a", "is_reserved": 0}, {"is_disabled": 0, "fusion_lon": 0.0, "fusion_lat": 0.0, "lat": 38.90098116666667, "type": "electric_scooter", "lon": -77.04630133333333, "bike_id": "b1f54c1a32f67b3f5c64e6aac41cca10", "rental_uris": {"android": "https://dc.lft.to/lastmile_qr_scan", "ios": "https://dc.lft.to/lastmile_qr_scan"}, "name": "b1f54c1a32f67b3f5c64e6aac41cca10", "is_reserved": 0}, {"is_disabled": 0, "fusion_lon": 0.0, "fusion_lat": 0.0, "lat": 38.9656805, "type": "electric_scooter", "lon": -77.015679, "bike_id": "77fed7560d3e81f0ad1f90962fdbe3fa", "rental_uris": {"android": "https://dc.lft.to/lastmile_qr_scan", "ios": "https://dc.lft.to/lastmile_qr_scan"}, "name": "77fed7560d3e81f0ad1f90962fdbe3fa", "is_reserved": 0}, {"is_disabled": 0, "fusion_lon": 0.0, "fusion_lat": 0.0, "lat": 38.898500166666665, "type": "electric_scooter", "lon": -76.99029683333333, "bike_id": "872bbdf86f628bda7d2ca39ee9198c9d", "rental_uris": {"android": "https://dc.lft.to/lastmile_qr_scan", "ios": "https://dc.lft.to/lastmile_qr_scan"}, "name": "872bbdf86f628bda7d2ca39ee9198c9d", "is_reserved": 0}, {"is_disabled": 0, "fusion_lon": 0.0, "fusion_lat": 0.0, "lat": 38.91552033333333, "type": "electric_scooter", "lon": -77.020475, "bike_id": "8ff4345298c7a847c1894d5237bc5036", "rental_uris": {"android": "https://dc.lft.to/lastmile_qr_scan", "ios": "https://dc.lft.to/lastmile_qr_scan"}, "name": "8ff4345298c7a847c1894d5237bc5036", "is_reserved": 0}, {"is_disabled": 0, "fusion_lon": 0.0, "fusion_lat": 0.0, "lat": 38.9093685, "type": "electric_scooter", "lon": -77.05363833333334, "bike_id": "99f947b32fd57aa9e71a1226da1c3a3f", "rental_uris": {"android": "https://dc.lft.to/lastmile_qr_scan", "ios": "https://dc.lft.to/lastmile_qr_scan"}, "name": "99f947b32fd57aa9e71a1226da1c3a3f", "is_reserved": 0}, {"is_disabled": 0, "fusion_lon": 0.0, "fusion_lat": 0.0, "lat": 38.9038105, "type": "electric_scooter", "lon": -77.04133183333333, "bike_id": "2fd2682a6de7331985c38152774f427f", "rental_uris": {"android": "https://dc.lft.to/lastmile_qr_scan", "ios": "https://dc.lft.to/lastmile_qr_scan"}, "name": "2fd2682a6de7331985c38152774f427f", "is_reserved": 0}, {"is_disabled": 0, "fusion_lon": 0.0, "fusion_lat": 0.0, "lat": 38.951731, "type": "electric_scooter", "lon": -77.0565715, "bike_id": "7e883fc05f3be2ea1a136dbdf7d249a4", "rental_uris": {"android": "https://dc.lft.to/lastmile_qr_scan", "ios": "https://dc.lft.to/lastmile_qr_scan"}, "name": "7e883fc05f3be2ea1a136dbdf7d249a4", "is_reserved": 0}, {"is_disabled": 0, "fusion_lon": 0.0, "fusion_lat": 0.0, "lat": 38.93188516666667, "type": "electric_scooter", "lon": -77.028378, "bike_id": "e4601f30fe229f40fb9eba3ad5cf0a08", "rental_uris": {"android": "https://dc.lft.to/lastmile_qr_scan", "ios": "https://dc.lft.to/lastmile_qr_scan"}, "name": "e4601f30fe229f40fb9eba3ad5cf0a08", "is_reserved": 0}, {"is_disabled": 0, "fusion_lon": 0.0, "fusion_lat": 0.0, "lat": 38.925502333333334, "type": "electric_scooter", "lon": -77.0529745, "bike_id": "5e6e27ea472b3cb5567f21765a3819a4", "rental_uris": {"android": "https://dc.lft.to/lastmile_qr_scan", "ios": "https://dc.lft.to/lastmile_qr_scan"}, "name": "5e6e27ea472b3cb5567f21765a3819a4", "is_reserved": 0}, {"is_disabled": 0, "fusion_lon": 0.0, "fusion_lat": 0.0, "lat": 38.87240966666667, "type": "electric_scooter", "lon": -76.9772745, "bike_id": "9072a83ae14dfa8839b2f495c23db87e", "rental_uris": {"android": "https://dc.lft.to/lastmile_qr_scan", "ios": "https://dc.lft.to/lastmile_qr_scan"}, "name": "9072a83ae14dfa8839b2f495c23db87e", "is_reserved": 0}, {"is_disabled": 0, "fusion_lon": 0.0, "fusion_lat": 0.0, "lat": 38.909728333333334, "type": "electric_scooter", "lon": -77.03436566666667, "bike_id": "99361885b0f25b998aa7274e631ac6b5", "rental_uris": {"android": "https://dc.lft.to/lastmile_qr_scan", "ios": "https://dc.lft.to/lastmile_qr_scan"}, "name": "99361885b0f25b998aa7274e631ac6b5", "is_reserved": 0}, {"is_disabled": 0, "fusion_lon": 0.0, "fusion_lat": 0.0, "lat": 38.9554725, "type": "electric_bike", "lon": -76.93529716666667, "bike_id": "02b697b7644e2303bfdd6ed1c298fca8", "rental_uris": {"android": "https://dc.lft.to/lastmile_qr_scan", "ios": "https://dc.lft.to/lastmile_qr_scan"}, "name": "02b697b7644e2303bfdd6ed1c298fca8", "is_reserved": 0}, {"is_disabled": 0, "fusion_lon": 0.0, "fusion_lat": 0.0, "lat": 38.882650166666664, "type": "electric_scooter", "lon": -76.985386, "bike_id": "2060c1ca61f57fbd56831521b016e90f", "rental_uris": {"android": "https://dc.lft.to/lastmile_qr_scan", "ios": "https://dc.lft.to/lastmile_qr_scan"}, "name": "2060c1ca61f57fbd56831521b016e90f", "is_reserved": 0}, {"is_disabled": 0, "fusion_lon": 0.0, "fusion_lat": 0.0, "lat": 38.908586666666665, "type": "electric_scooter", "lon": -77.02304183333334, "bike_id": "f500c8f54de8c3578c466dccf1e9845e", "rental_uris": {"android": "https://dc.lft.to/lastmile_qr_scan", "ios": "https://dc.lft.to/lastmile_qr_scan"}, "name": "f500c8f54de8c3578c466dccf1e9845e", "is_reserved": 0}, {"is_disabled": 0, "fusion_lon": 0.0, "fusion_lat": 0.0, "lat": 38.82864683333333, "type": "electric_bike", "lon": -77.11225316666666, "bike_id": "cf067e677d9d478798f9fd1684eeeba9", "rental_uris": {"android": "https://dc.lft.to/lastmile_qr_scan", "ios": "https://dc.lft.to/lastmile_qr_scan"}, "name": "cf067e677d9d478798f9fd1684eeeba9", "is_reserved": 0}, {"is_disabled": 0, "fusion_lon": 0.0, "fusion_lat": 0.0, "lat": 38.903061666666666, "type": "electric_scooter", "lon": -77.02506483333333, "bike_id": "4b33f7e331cc23a4dbe0fa5e47e8788c", "rental_uris": {"android": "https://dc.lft.to/lastmile_qr_scan", "ios": "https://dc.lft.to/lastmile_qr_scan"}, "name": "4b33f7e331cc23a4dbe0fa5e47e8788c", "is_reserved": 0}, {"is_disabled": 0, "fusion_lon": 0.0, "fusion_lat": 0.0, "lat": 38.9038875, "type": "electric_scooter", "lon": -77.01849283333334, "bike_id": "66b29cb17e44fa94ea663db5c118f060", "rental_uris": {"android": "https://dc.lft.to/lastmile_qr_scan", "ios": "https://dc.lft.to/lastmile_qr_scan"}, "name": "66b29cb17e44fa94ea663db5c118f060", "is_reserved": 0}, {"is_disabled": 0, "fusion_lon": 0.0, "fusion_lat": 0.0, "lat": 38.90139033333333, "type": "electric_scooter", "lon": -77.039883, "bike_id": "01c687e04d3690c5e01b8a887c5f5e94", "rental_uris": {"android": "https://dc.lft.to/lastmile_qr_scan", "ios": "https://dc.lft.to/lastmile_qr_scan"}, "name": "01c687e04d3690c5e01b8a887c5f5e94", "is_reserved": 0}, {"is_disabled": 0, "fusion_lon": 0.0, "fusion_lat": 0.0, "lat": 38.9005755, "type": "electric_scooter", "lon": -76.986839, "bike_id": "dc2bb27413ff1bab0fd3280fab06a692", "rental_uris": {"android": "https://dc.lft.to/lastmile_qr_scan", "ios": "https://dc.lft.to/lastmile_qr_scan"}, "name": "dc2bb27413ff1bab0fd3280fab06a692", "is_reserved": 0}, {"is_disabled": 0, "fusion_lon": 0.0, "fusion_lat": 0.0, "lat": 38.8870365, "type": "electric_scooter", "lon": -76.95359583333334, "bike_id": "c97c7495ff584a8f57027dfaf9196706", "rental_uris": {"android": "https://dc.lft.to/lastmile_qr_scan", "ios": "https://dc.lft.to/lastmile_qr_scan"}, "name": "c97c7495ff584a8f57027dfaf9196706", "is_reserved": 0}, {"is_disabled": 0, "fusion_lon": 0.0, "fusion_lat": 0.0, "lat": 38.914091666666664, "type": "electric_scooter", "lon": -77.04251683333334, "bike_id": "43a9526b2967f15c5bf5f0dce2d23c05", "rental_uris": {"android": "https://dc.lft.to/lastmile_qr_scan", "ios": "https://dc.lft.to/lastmile_qr_scan"}, "name": "43a9526b2967f15c5bf5f0dce2d23c05", "is_reserved": 0}, {"is_disabled": 0, "fusion_lon": 0.0, "fusion_lat": 0.0, "lat": 38.9138285, "type": "electric_scooter", "lon": -77.02970766666667, "bike_id": "a19d333e0ae4f649fa2e052ecc5397b4", "rental_uris": {"android": "https://dc.lft.to/lastmile_qr_scan", "ios": "https://dc.lft.to/lastmile_qr_scan"}, "name": "a19d333e0ae4f649fa2e052ecc5397b4", "is_reserved": 0}, {"is_disabled": 0, "fusion_lon": 0.0, "fusion_lat": 0.0, "lat": 38.916328166666666, "type": "electric_scooter", "lon": -77.04164166666666, "bike_id": "3d3eae0bbe7f8343313997d5983f7b43", "rental_uris": {"android": "https://dc.lft.to/lastmile_qr_scan", "ios": "https://dc.lft.to/lastmile_qr_scan"}, "name": "3d3eae0bbe7f8343313997d5983f7b43", "is_reserved": 0}, {"is_disabled": 0, "fusion_lon": 0.0, "fusion_lat": 0.0, "lat": 38.84288733333333, "type": "electric_scooter", "lon": -76.99949116666667, "bike_id": "ad973aee318cea95b1a1dc9771fe79c3", "rental_uris": {"android": "https://dc.lft.to/lastmile_qr_scan", "ios": "https://dc.lft.to/lastmile_qr_scan"}, "name": "ad973aee318cea95b1a1dc9771fe79c3", "is_reserved": 0}, {"is_disabled": 0, "fusion_lon": 0.0, "fusion_lat": 0.0, "lat": 38.92126, "type": "electric_scooter", "lon": -76.99581883333333, "bike_id": "7598925a2d386e272d2253790465f1bd", "rental_uris": {"android": "https://dc.lft.to/lastmile_qr_scan", "ios": "https://dc.lft.to/lastmile_qr_scan"}, "name": "7598925a2d386e272d2253790465f1bd", "is_reserved": 0}, {"is_disabled": 0, "fusion_lon": 0.0, "fusion_lat": 0.0, "lat": 38.95781, "type": "electric_scooter", "lon": -77.02572966666666, "bike_id": "459a04a86117aca9663f8d7e312d7b44", "rental_uris": {"android": "https://dc.lft.to/lastmile_qr_scan", "ios": "https://dc.lft.to/lastmile_qr_scan"}, "name": "459a04a86117aca9663f8d7e312d7b44", "is_reserved": 0}, {"is_disabled": 0, "fusion_lon": 0.0, "fusion_lat": 0.0, "lat": 38.919079333333336, "type": "electric_scooter", "lon": -77.02973516666667, "bike_id": "c3ecedc7aff160129f03e54ffb69a7ca", "rental_uris": {"android": "https://dc.lft.to/lastmile_qr_scan", "ios": "https://dc.lft.to/lastmile_qr_scan"}, "name": "c3ecedc7aff160129f03e54ffb69a7ca", "is_reserved": 0}, {"is_disabled": 0, "fusion_lon": 0.0, "fusion_lat": 0.0, "lat": 38.916934499999996, "type": "electric_scooter", "lon": -77.0272795, "bike_id": "95fa46dc03b8ae856e228404f536537f", "rental_uris": {"android": "https://dc.lft.to/lastmile_qr_scan", "ios": "https://dc.lft.to/lastmile_qr_scan"}, "name": "95fa46dc03b8ae856e228404f536537f", "is_reserved": 0}, {"is_disabled": 0, "fusion_lon": 0.0, "fusion_lat": 0.0, "lat": 38.8859745, "type": "electric_scooter", "lon": -77.00583733333333, "bike_id": "2a3665f8b0e63c6c60b379cb64ace977", "rental_uris": {"android": "https://dc.lft.to/lastmile_qr_scan", "ios": "https://dc.lft.to/lastmile_qr_scan"}, "name": "2a3665f8b0e63c6c60b379cb64ace977", "is_reserved": 0}, {"is_disabled": 0, "fusion_lon": 0.0, "fusion_lat": 0.0, "lat": 38.91695466666667, "type": "electric_scooter", "lon": -77.01167083333333, "bike_id": "ad52633925baa730289fee619a27317f", "rental_uris": {"android": "https://dc.lft.to/lastmile_qr_scan", "ios": "https://dc.lft.to/lastmile_qr_scan"}, "name": "ad52633925baa730289fee619a27317f", "is_reserved": 0}, {"is_disabled": 0, "fusion_lon": 0.0, "fusion_lat": 0.0, "lat": 38.870528, "type": "electric_scooter", "lon": -76.9808495, "bike_id": "19151cd164a8c7e4a15628fbdf95a833", "rental_uris": {"android": "https://dc.lft.to/lastmile_qr_scan", "ios": "https://dc.lft.to/lastmile_qr_scan"}, "name": "19151cd164a8c7e4a15628fbdf95a833", "is_reserved": 0}, {"is_disabled": 0, "fusion_lon": 0.0, "fusion_lat": 0.0, "lat": 38.895249, "type": "electric_scooter", "lon": -77.03348716666666, "bike_id": "3ef75752703ba5cd911e25cb0f031dcf", "rental_uris": {"android": "https://dc.lft.to/lastmile_qr_scan", "ios": "https://dc.lft.to/lastmile_qr_scan"}, "name": "3ef75752703ba5cd911e25cb0f031dcf", "is_reserved": 0}, {"is_disabled": 0, "fusion_lon": 0.0, "fusion_lat": 0.0, "lat": 38.88998, "type": "electric_scooter", "lon": -77.04895716666667, "bike_id": "59e9e01a15122f44d0b93c7a1cc06ba9", "rental_uris": {"android": "https://dc.lft.to/lastmile_qr_scan", "ios": "https://dc.lft.to/lastmile_qr_scan"}, "name": "59e9e01a15122f44d0b93c7a1cc06ba9", "is_reserved": 0}, {"is_disabled": 0, "fusion_lon": 0.0, "fusion_lat": 0.0, "lat": 38.8492935, "type": "electric_bike", "lon": -77.100124, "bike_id": "1f5b25e9e64fe12cc7e5bca56401df06", "rental_uris": {"android": "https://dc.lft.to/lastmile_qr_scan", "ios": "https://dc.lft.to/lastmile_qr_scan"}, "name": "1f5b25e9e64fe12cc7e5bca56401df06", "is_reserved": 0}, {"is_disabled": 0, "fusion_lon": 0.0, "fusion_lat": 0.0, "lat": 38.90038633333333, "type": "electric_scooter", "lon": -76.99033116666666, "bike_id": "ce413cc842842ac26d1dd840df2d86a0", "rental_uris": {"android": "https://dc.lft.to/lastmile_qr_scan", "ios": "https://dc.lft.to/lastmile_qr_scan"}, "name": "ce413cc842842ac26d1dd840df2d86a0", "is_reserved": 0}, {"is_disabled": 0, "fusion_lon": 0.0, "fusion_lat": 0.0, "lat": 38.916463, "type": "electric_scooter", "lon": -77.02178933333333, "bike_id": "c9ca96a319e3b8bca00a37493d67545b", "rental_uris": {"android": "https://dc.lft.to/lastmile_qr_scan", "ios": "https://dc.lft.to/lastmile_qr_scan"}, "name": "c9ca96a319e3b8bca00a37493d67545b", "is_reserved": 0}, {"is_disabled": 0, "fusion_lon": 0.0, "fusion_lat": 0.0, "lat": 38.95637983333334, "type": "electric_scooter", "lon": -77.09100433333333, "bike_id": "ad640fa0ef4cc0cb8086d9ac6d990908", "rental_uris": {"android": "https://dc.lft.to/lastmile_qr_scan", "ios": "https://dc.lft.to/lastmile_qr_scan"}, "name": "ad640fa0ef4cc0cb8086d9ac6d990908", "is_reserved": 0}, {"is_disabled": 0, "fusion_lon": 0.0, "fusion_lat": 0.0, "lat": 38.9193895, "type": "electric_scooter", "lon": -77.0242255, "bike_id": "2727e7e547bdb9771852bd6b3c6b3cfd", "rental_uris": {"android": "https://dc.lft.to/lastmile_qr_scan", "ios": "https://dc.lft.to/lastmile_qr_scan"}, "name": "2727e7e547bdb9771852bd6b3c6b3cfd", "is_reserved": 0}, {"is_disabled": 0, "fusion_lon": 0.0, "fusion_lat": 0.0, "lat": 38.922416, "type": "electric_scooter", "lon": -77.07323933333333, "bike_id": "59a82f74b822ae3d27f3285d03c2d470", "rental_uris": {"android": "https://dc.lft.to/lastmile_qr_scan", "ios": "https://dc.lft.to/lastmile_qr_scan"}, "name": "59a82f74b822ae3d27f3285d03c2d470", "is_reserved": 0}, {"is_disabled": 0, "fusion_lon": 0.0, "fusion_lat": 0.0, "lat": 38.89830533333333, "type": "electric_scooter", "lon": -76.9463245, "bike_id": "f530c089bbfcc342e54adbf441d15f4e", "rental_uris": {"android": "https://dc.lft.to/lastmile_qr_scan", "ios": "https://dc.lft.to/lastmile_qr_scan"}, "name": "f530c089bbfcc342e54adbf441d15f4e", "is_reserved": 0}, {"is_disabled": 0, "fusion_lon": 0.0, "fusion_lat": 0.0, "lat": 38.91825583333333, "type": "electric_scooter", "lon": -77.024244, "bike_id": "a524886a6d6f4c1eee0f22c56978c1b6", "rental_uris": {"android": "https://dc.lft.to/lastmile_qr_scan", "ios": "https://dc.lft.to/lastmile_qr_scan"}, "name": "a524886a6d6f4c1eee0f22c56978c1b6", "is_reserved": 0}, {"is_disabled": 0, "fusion_lon": 0.0, "fusion_lat": 0.0, "lat": 38.9069985, "type": "electric_scooter", "lon": -77.01047933333334, "bike_id": "6248bcf0f8278d606515e8566e3893e4", "rental_uris": {"android": "https://dc.lft.to/lastmile_qr_scan", "ios": "https://dc.lft.to/lastmile_qr_scan"}, "name": "6248bcf0f8278d606515e8566e3893e4", "is_reserved": 0}, {"is_disabled": 0, "fusion_lon": 0.0, "fusion_lat": 0.0, "lat": 38.91313916666667, "type": "electric_scooter", "lon": -77.01435666666667, "bike_id": "666867b786015bacf538a24b71962b18", "rental_uris": {"android": "https://dc.lft.to/lastmile_qr_scan", "ios": "https://dc.lft.to/lastmile_qr_scan"}, "name": "666867b786015bacf538a24b71962b18", "is_reserved": 0}, {"is_disabled": 0, "fusion_lon": 0.0, "fusion_lat": 0.0, "lat": 38.856437, "type": "electric_bike", "lon": -77.0852475, "bike_id": "3b76bc44ffbdedb0025c8a158a4ce570", "rental_uris": {"android": "https://dc.lft.to/lastmile_qr_scan", "ios": "https://dc.lft.to/lastmile_qr_scan"}, "name": "3b76bc44ffbdedb0025c8a158a4ce570", "is_reserved": 0}, {"is_disabled": 0, "fusion_lon": 0.0, "fusion_lat": 0.0, "lat": 38.874762833333335, "type": "electric_scooter", "lon": -77.02093116666667, "bike_id": "69506ca7c80c0d58d25c929feab43025", "rental_uris": {"android": "https://dc.lft.to/lastmile_qr_scan", "ios": "https://dc.lft.to/lastmile_qr_scan"}, "name": "69506ca7c80c0d58d25c929feab43025", "is_reserved": 0}, {"is_disabled": 0, "fusion_lon": 0.0, "fusion_lat": 0.0, "lat": 38.902703833333334, "type": "electric_scooter", "lon": -77.02182266666667, "bike_id": "17c94cdf4aabd62c9512cc5be85ac975", "rental_uris": {"android": "https://dc.lft.to/lastmile_qr_scan", "ios": "https://dc.lft.to/lastmile_qr_scan"}, "name": "17c94cdf4aabd62c9512cc5be85ac975", "is_reserved": 0}, {"is_disabled": 0, "fusion_lon": 0.0, "fusion_lat": 0.0, "lat": 38.92104633333334, "type": "electric_scooter", "lon": -77.03199533333333, "bike_id": "42457f004bb48df813466b8738ad7975", "rental_uris": {"android": "https://dc.lft.to/lastmile_qr_scan", "ios": "https://dc.lft.to/lastmile_qr_scan"}, "name": "42457f004bb48df813466b8738ad7975", "is_reserved": 0}, {"is_disabled": 0, "fusion_lon": 0.0, "fusion_lat": 0.0, "lat": 38.92196066666666, "type": "electric_scooter", "lon": -77.04254316666666, "bike_id": "e171b560edcf7803ed0e0e6d37e690b2", "rental_uris": {"android": "https://dc.lft.to/lastmile_qr_scan", "ios": "https://dc.lft.to/lastmile_qr_scan"}, "name": "e171b560edcf7803ed0e0e6d37e690b2", "is_reserved": 0}, {"is_disabled": 0, "fusion_lon": 0.0, "fusion_lat": 0.0, "lat": 38.885639833333336, "type": "electric_scooter", "lon": -77.01734216666667, "bike_id": "2ad4c5ba92a905ff66be290892dcad70", "rental_uris": {"android": "https://dc.lft.to/lastmile_qr_scan", "ios": "https://dc.lft.to/lastmile_qr_scan"}, "name": "2ad4c5ba92a905ff66be290892dcad70", "is_reserved": 0}, {"is_disabled": 0, "fusion_lon": 0.0, "fusion_lat": 0.0, "lat": 38.917922833333336, "type": "electric_scooter", "lon": -77.04154466666667, "bike_id": "41934fb5493709ebfe22bbf2594c09cf", "rental_uris": {"android": "https://dc.lft.to/lastmile_qr_scan", "ios": "https://dc.lft.to/lastmile_qr_scan"}, "name": "41934fb5493709ebfe22bbf2594c09cf", "is_reserved": 0}, {"is_disabled": 0, "fusion_lon": 0.0, "fusion_lat": 0.0, "lat": 38.90729783333333, "type": "electric_scooter", "lon": -77.02248316666666, "bike_id": "94f2321141221d29912b93df7df48684", "rental_uris": {"android": "https://dc.lft.to/lastmile_qr_scan", "ios": "https://dc.lft.to/lastmile_qr_scan"}, "name": "94f2321141221d29912b93df7df48684", "is_reserved": 0}, {"is_disabled": 0, "fusion_lon": 0.0, "fusion_lat": 0.0, "lat": 38.90360716666667, "type": "electric_scooter", "lon": -77.05920716666667, "bike_id": "cb428ed853f8372ea8b1d651fefbbb29", "rental_uris": {"android": "https://dc.lft.to/lastmile_qr_scan", "ios": "https://dc.lft.to/lastmile_qr_scan"}, "name": "cb428ed853f8372ea8b1d651fefbbb29", "is_reserved": 0}, {"is_disabled": 0, "fusion_lon": 0.0, "fusion_lat": 0.0, "lat": 38.91709483333333, "type": "electric_scooter", "lon": -77.02795916666666, "bike_id": "75399fdb31b8133886a7e15631f39823", "rental_uris": {"android": "https://dc.lft.to/lastmile_qr_scan", "ios": "https://dc.lft.to/lastmile_qr_scan"}, "name": "75399fdb31b8133886a7e15631f39823", "is_reserved": 0}, {"is_disabled": 0, "fusion_lon": 0.0, "fusion_lat": 0.0, "lat": 38.94575183333333, "type": "electric_bike", "lon": -76.98773616666666, "bike_id": "6b2f913914e551074fdafabea38afbc4", "rental_uris": {"android": "https://dc.lft.to/lastmile_qr_scan", "ios": "https://dc.lft.to/lastmile_qr_scan"}, "name": "6b2f913914e551074fdafabea38afbc4", "is_reserved": 0}, {"is_disabled": 0, "fusion_lon": 0.0, "fusion_lat": 0.0, "lat": 38.962765833333336, "type": "electric_bike", "lon": -77.0287185, "bike_id": "06a31c1f76e3d00fc6b07e8b8b8decd6", "rental_uris": {"android": "https://dc.lft.to/lastmile_qr_scan", "ios": "https://dc.lft.to/lastmile_qr_scan"}, "name": "06a31c1f76e3d00fc6b07e8b8b8decd6", "is_reserved": 0}, {"is_disabled": 0, "fusion_lon": 0.0, "fusion_lat": 0.0, "lat": 38.9014215, "type": "electric_scooter", "lon": -77.0330095, "bike_id": "659ca8c304f24b06723cc788202176ea", "rental_uris": {"android": "https://dc.lft.to/lastmile_qr_scan", "ios": "https://dc.lft.to/lastmile_qr_scan"}, "name": "659ca8c304f24b06723cc788202176ea", "is_reserved": 0}, {"is_disabled": 0, "fusion_lon": 0.0, "fusion_lat": 0.0, "lat": 38.93446016666667, "type": "electric_scooter", "lon": -77.03014516666667, "bike_id": "4c2a7747278bbea8c3721bae5b30eedc", "rental_uris": {"android": "https://dc.lft.to/lastmile_qr_scan", "ios": "https://dc.lft.to/lastmile_qr_scan"}, "name": "4c2a7747278bbea8c3721bae5b30eedc", "is_reserved": 0}, {"is_disabled": 0, "fusion_lon": 0.0, "fusion_lat": 0.0, "lat": 38.88362866666667, "type": "electric_scooter", "lon": -77.024438, "bike_id": "bc01654a19be1ecf9f682ad269ff5b6b", "rental_uris": {"android": "https://dc.lft.to/lastmile_qr_scan", "ios": "https://dc.lft.to/lastmile_qr_scan"}, "name": "bc01654a19be1ecf9f682ad269ff5b6b", "is_reserved": 0}, {"is_disabled": 0, "fusion_lon": 0.0, "fusion_lat": 0.0, "lat": 38.88043566666666, "type": "electric_scooter", "lon": -77.00525783333333, "bike_id": "1bf0049182709c26b31991383eb9f0e1", "rental_uris": {"android": "https://dc.lft.to/lastmile_qr_scan", "ios": "https://dc.lft.to/lastmile_qr_scan"}, "name": "1bf0049182709c26b31991383eb9f0e1", "is_reserved": 0}, {"is_disabled": 0, "fusion_lon": 0.0, "fusion_lat": 0.0, "lat": 38.9363225, "type": "electric_bike", "lon": -76.9546565, "bike_id": "55739e7606f84e9875e792913dc1b00d", "rental_uris": {"android": "https://dc.lft.to/lastmile_qr_scan", "ios": "https://dc.lft.to/lastmile_qr_scan"}, "name": "55739e7606f84e9875e792913dc1b00d", "is_reserved": 0}, {"is_disabled": 0, "fusion_lon": 0.0, "fusion_lat": 0.0, "lat": 38.911254166666666, "type": "electric_scooter", "lon": -77.02183933333333, "bike_id": "b1d04c4e720f1821ff34b75d422ba12e", "rental_uris": {"android": "https://dc.lft.to/lastmile_qr_scan", "ios": "https://dc.lft.to/lastmile_qr_scan"}, "name": "b1d04c4e720f1821ff34b75d422ba12e", "is_reserved": 0}, {"is_disabled": 0, "fusion_lon": 0.0, "fusion_lat": 0.0, "lat": 38.910491, "type": "electric_scooter", "lon": -77.05445633333333, "bike_id": "edb86991d308fef56ba1b13eaa19acd6", "rental_uris": {"android": "https://dc.lft.to/lastmile_qr_scan", "ios": "https://dc.lft.to/lastmile_qr_scan"}, "name": "edb86991d308fef56ba1b13eaa19acd6", "is_reserved": 0}, {"is_disabled": 0, "fusion_lon": 0.0, "fusion_lat": 0.0, "lat": 38.83286433333333, "type": "electric_scooter", "lon": -77.00824333333334, "bike_id": "f0b9cdf08e3bb9f2fc52e0bd1c4960c5", "rental_uris": {"android": "https://dc.lft.to/lastmile_qr_scan", "ios": "https://dc.lft.to/lastmile_qr_scan"}, "name": "f0b9cdf08e3bb9f2fc52e0bd1c4960c5", "is_reserved": 0}, {"is_disabled": 0, "fusion_lon": 0.0, "fusion_lat": 0.0, "lat": 38.89891566666667, "type": "electric_scooter", "lon": -76.93184233333334, "bike_id": "4bb1969fa8abe80c2faf82cc638818fb", "rental_uris": {"android": "https://dc.lft.to/lastmile_qr_scan", "ios": "https://dc.lft.to/lastmile_qr_scan"}, "name": "4bb1969fa8abe80c2faf82cc638818fb", "is_reserved": 0}, {"is_disabled": 0, "fusion_lon": 0.0, "fusion_lat": 0.0, "lat": 38.9045875, "type": "electric_scooter", "lon": -77.048349, "bike_id": "4bff92d580846233b398f82e52735765", "rental_uris": {"android": "https://dc.lft.to/lastmile_qr_scan", "ios": "https://dc.lft.to/lastmile_qr_scan"}, "name": "4bff92d580846233b398f82e52735765", "is_reserved": 0}, {"is_disabled": 0, "fusion_lon": 0.0, "fusion_lat": 0.0, "lat": 38.88590216666667, "type": "electric_scooter", "lon": -76.9972125, "bike_id": "d8c991b7ba17b287b56bc1c1558f3b71", "rental_uris": {"android": "https://dc.lft.to/lastmile_qr_scan", "ios": "https://dc.lft.to/lastmile_qr_scan"}, "name": "d8c991b7ba17b287b56bc1c1558f3b71", "is_reserved": 0}, {"is_disabled": 0, "fusion_lon": 0.0, "fusion_lat": 0.0, "lat": 38.859833333333334, "type": "electric_bike", "lon": -76.97054866666667, "bike_id": "11578a542912d3aa8a6f53f26e10f22e", "rental_uris": {"android": "https://dc.lft.to/lastmile_qr_scan", "ios": "https://dc.lft.to/lastmile_qr_scan"}, "name": "11578a542912d3aa8a6f53f26e10f22e", "is_reserved": 0}, {"is_disabled": 0, "fusion_lon": 0.0, "fusion_lat": 0.0, "lat": 38.908321666666666, "type": "electric_scooter", "lon": -76.99695233333334, "bike_id": "fab07703ad054c32873080aab414f018", "rental_uris": {"android": "https://dc.lft.to/lastmile_qr_scan", "ios": "https://dc.lft.to/lastmile_qr_scan"}, "name": "fab07703ad054c32873080aab414f018", "is_reserved": 0}, {"is_disabled": 0, "fusion_lon": 0.0, "fusion_lat": 0.0, "lat": 38.880101333333336, "type": "electric_bike", "lon": -76.91593133333333, "bike_id": "a11b5e41e2e4ab8ed68fafbbff5dfa71", "rental_uris": {"android": "https://dc.lft.to/lastmile_qr_scan", "ios": "https://dc.lft.to/lastmile_qr_scan"}, "name": "a11b5e41e2e4ab8ed68fafbbff5dfa71", "is_reserved": 0}, {"is_disabled": 0, "fusion_lon": 0.0, "fusion_lat": 0.0, "lat": 38.919027, "type": "electric_scooter", "lon": -77.024632, "bike_id": "27a94a3c85b3a220621df3dfbeb5a0fe", "rental_uris": {"android": "https://dc.lft.to/lastmile_qr_scan", "ios": "https://dc.lft.to/lastmile_qr_scan"}, "name": "27a94a3c85b3a220621df3dfbeb5a0fe", "is_reserved": 0}, {"is_disabled": 0, "fusion_lon": 0.0, "fusion_lat": 0.0, "lat": 38.93252233333333, "type": "electric_scooter", "lon": -77.040065, "bike_id": "7328aa3e087861f31712476821ec7157", "rental_uris": {"android": "https://dc.lft.to/lastmile_qr_scan", "ios": "https://dc.lft.to/lastmile_qr_scan"}, "name": "7328aa3e087861f31712476821ec7157", "is_reserved": 0}, {"is_disabled": 0, "fusion_lon": 0.0, "fusion_lat": 0.0, "lat": 38.86244966666667, "type": "electric_scooter", "lon": -76.99499616666667, "bike_id": "383e48643e72484a6f38c0edc3145c87", "rental_uris": {"android": "https://dc.lft.to/lastmile_qr_scan", "ios": "https://dc.lft.to/lastmile_qr_scan"}, "name": "383e48643e72484a6f38c0edc3145c87", "is_reserved": 0}, {"is_disabled": 0, "fusion_lon": 0.0, "fusion_lat": 0.0, "lat": 38.994508333333336, "type": "electric_bike", "lon": -76.908178, "bike_id": "ddd6e7df45115be5f36e8c4dd1033618", "rental_uris": {"android": "https://dc.lft.to/lastmile_qr_scan", "ios": "https://dc.lft.to/lastmile_qr_scan"}, "name": "ddd6e7df45115be5f36e8c4dd1033618", "is_reserved": 0}, {"is_disabled": 0, "fusion_lon": 0.0, "fusion_lat": 0.0, "lat": 38.9255795, "type": "electric_scooter", "lon": -77.02283066666666, "bike_id": "d78086fbc0b84cdbcb0fd9f5ea34e5a5", "rental_uris": {"android": "https://dc.lft.to/lastmile_qr_scan", "ios": "https://dc.lft.to/lastmile_qr_scan"}, "name": "d78086fbc0b84cdbcb0fd9f5ea34e5a5", "is_reserved": 0}, {"is_disabled": 0, "fusion_lon": 0.0, "fusion_lat": 0.0, "lat": 38.912694333333334, "type": "electric_scooter", "lon": -77.031461, "bike_id": "05438edbbcd7e55e4102fb41b34d8a6f", "rental_uris": {"android": "https://dc.lft.to/lastmile_qr_scan", "ios": "https://dc.lft.to/lastmile_qr_scan"}, "name": "05438edbbcd7e55e4102fb41b34d8a6f", "is_reserved": 0}, {"is_disabled": 0, "fusion_lon": 0.0, "fusion_lat": 0.0, "lat": 38.905223666666664, "type": "electric_scooter", "lon": -77.06122333333333, "bike_id": "ef88a77f129a40b1d4737f8a51f452d5", "rental_uris": {"android": "https://dc.lft.to/lastmile_qr_scan", "ios": "https://dc.lft.to/lastmile_qr_scan"}, "name": "ef88a77f129a40b1d4737f8a51f452d5", "is_reserved": 0}, {"is_disabled": 0, "fusion_lon": 0.0, "fusion_lat": 0.0, "lat": 38.89998716666667, "type": "electric_scooter", "lon": -77.02387866666666, "bike_id": "0be4727a7800b5650ddb21b5c8106460", "rental_uris": {"android": "https://dc.lft.to/lastmile_qr_scan", "ios": "https://dc.lft.to/lastmile_qr_scan"}, "name": "0be4727a7800b5650ddb21b5c8106460", "is_reserved": 0}, {"is_disabled": 0, "fusion_lon": 0.0, "fusion_lat": 0.0, "lat": 38.8782515, "type": "electric_scooter", "lon": -76.963189, "bike_id": "8d60a481d10723d1b073c829a10f6d62", "rental_uris": {"android": "https://dc.lft.to/lastmile_qr_scan", "ios": "https://dc.lft.to/lastmile_qr_scan"}, "name": "8d60a481d10723d1b073c829a10f6d62", "is_reserved": 0}, {"is_disabled": 0, "fusion_lon": 0.0, "fusion_lat": 0.0, "lat": 38.945327666666664, "type": "electric_bike", "lon": -77.344609, "bike_id": "974832544c3e3a5cff1cb56ee80d4efc", "rental_uris": {"android": "https://dc.lft.to/lastmile_qr_scan", "ios": "https://dc.lft.to/lastmile_qr_scan"}, "name": "974832544c3e3a5cff1cb56ee80d4efc", "is_reserved": 0}, {"is_disabled": 0, "fusion_lon": 0.0, "fusion_lat": 0.0, "lat": 38.912320333333334, "type": "electric_scooter", "lon": -77.04482716666666, "bike_id": "184df2870e3a9a1d5e6f6d288a032aaa", "rental_uris": {"android": "https://dc.lft.to/lastmile_qr_scan", "ios": "https://dc.lft.to/lastmile_qr_scan"}, "name": "184df2870e3a9a1d5e6f6d288a032aaa", "is_reserved": 0}, {"is_disabled": 0, "fusion_lon": 0.0, "fusion_lat": 0.0, "lat": 38.86574916666667, "type": "electric_scooter", "lon": -76.98726316666666, "bike_id": "1909cce18a2dd1bba8d3596d15061daf", "rental_uris": {"android": "https://dc.lft.to/lastmile_qr_scan", "ios": "https://dc.lft.to/lastmile_qr_scan"}, "name": "1909cce18a2dd1bba8d3596d15061daf", "is_reserved": 0}, {"is_disabled": 0, "fusion_lon": 0.0, "fusion_lat": 0.0, "lat": 38.949703666666665, "type": "electric_scooter", "lon": -77.09445733333334, "bike_id": "a3000ddf448e4aff6fcf474d8c4dfe56", "rental_uris": {"android": "https://dc.lft.to/lastmile_qr_scan", "ios": "https://dc.lft.to/lastmile_qr_scan"}, "name": "a3000ddf448e4aff6fcf474d8c4dfe56", "is_reserved": 0}, {"is_disabled": 0, "fusion_lon": 0.0, "fusion_lat": 0.0, "lat": 38.933942, "type": "electric_scooter", "lon": -77.04550633333334, "bike_id": "c7fad4aef7a31edfc2390c8a58977635", "rental_uris": {"android": "https://dc.lft.to/lastmile_qr_scan", "ios": "https://dc.lft.to/lastmile_qr_scan"}, "name": "c7fad4aef7a31edfc2390c8a58977635", "is_reserved": 0}, {"is_disabled": 0, "fusion_lon": 0.0, "fusion_lat": 0.0, "lat": 38.876674666666666, "type": "electric_scooter", "lon": -76.9319495, "bike_id": "d1b67dfef4ff9bb79ce85a77b4e72410", "rental_uris": {"android": "https://dc.lft.to/lastmile_qr_scan", "ios": "https://dc.lft.to/lastmile_qr_scan"}, "name": "d1b67dfef4ff9bb79ce85a77b4e72410", "is_reserved": 0}, {"is_disabled": 0, "fusion_lon": 0.0, "fusion_lat": 0.0, "lat": 38.8982205, "type": "electric_scooter", "lon": -77.04353233333333, "bike_id": "91558a49ce36c5bf687d3ebf916fd145", "rental_uris": {"android": "https://dc.lft.to/lastmile_qr_scan", "ios": "https://dc.lft.to/lastmile_qr_scan"}, "name": "91558a49ce36c5bf687d3ebf916fd145", "is_reserved": 0}, {"is_disabled": 0, "fusion_lon": 0.0, "fusion_lat": 0.0, "lat": 38.90133383333333, "type": "electric_scooter", "lon": -77.06061933333334, "bike_id": "97cf2a4e70b087051ddf9456ef09e016", "rental_uris": {"android": "https://dc.lft.to/lastmile_qr_scan", "ios": "https://dc.lft.to/lastmile_qr_scan"}, "name": "97cf2a4e70b087051ddf9456ef09e016", "is_reserved": 0}, {"is_disabled": 0, "fusion_lon": 0.0, "fusion_lat": 0.0, "lat": 38.912845, "type": "electric_scooter", "lon": -77.03207483333334, "bike_id": "67f29588e74e784ecf8edc1cdf1ef3ab", "rental_uris": {"android": "https://dc.lft.to/lastmile_qr_scan", "ios": "https://dc.lft.to/lastmile_qr_scan"}, "name": "67f29588e74e784ecf8edc1cdf1ef3ab", "is_reserved": 0}, {"is_disabled": 0, "fusion_lon": 0.0, "fusion_lat": 0.0, "lat": 38.86354766666667, "type": "electric_scooter", "lon": -76.99063, "bike_id": "bfe7c23170fb3d587d4b20eed3739251", "rental_uris": {"android": "https://dc.lft.to/lastmile_qr_scan", "ios": "https://dc.lft.to/lastmile_qr_scan"}, "name": "bfe7c23170fb3d587d4b20eed3739251", "is_reserved": 0}, {"is_disabled": 0, "fusion_lon": 0.0, "fusion_lat": 0.0, "lat": 38.92579333333333, "type": "electric_scooter", "lon": -77.0322415, "bike_id": "63f6694e28403df5cb834dcd696edab5", "rental_uris": {"android": "https://dc.lft.to/lastmile_qr_scan", "ios": "https://dc.lft.to/lastmile_qr_scan"}, "name": "63f6694e28403df5cb834dcd696edab5", "is_reserved": 0}, {"is_disabled": 0, "fusion_lon": 0.0, "fusion_lat": 0.0, "lat": 38.920203, "type": "electric_scooter", "lon": -77.03151216666667, "bike_id": "e0dae9d59ed5e09332e6a388606d5b0e", "rental_uris": {"android": "https://dc.lft.to/lastmile_qr_scan", "ios": "https://dc.lft.to/lastmile_qr_scan"}, "name": "e0dae9d59ed5e09332e6a388606d5b0e", "is_reserved": 0}, {"is_disabled": 0, "fusion_lon": 0.0, "fusion_lat": 0.0, "lat": 38.9054305, "type": "electric_scooter", "lon": -77.02215866666667, "bike_id": "91668afdaa9a27f0782b9979dd94c8bb", "rental_uris": {"android": "https://dc.lft.to/lastmile_qr_scan", "ios": "https://dc.lft.to/lastmile_qr_scan"}, "name": "91668afdaa9a27f0782b9979dd94c8bb", "is_reserved": 0}, {"is_disabled": 0, "fusion_lon": 0.0, "fusion_lat": 0.0, "lat": 38.880455166666664, "type": "electric_scooter", "lon": -77.00374666666667, "bike_id": "4004e8cb28133c9b1b2470e896b76e75", "rental_uris": {"android": "https://dc.lft.to/lastmile_qr_scan", "ios": "https://dc.lft.to/lastmile_qr_scan"}, "name": "4004e8cb28133c9b1b2470e896b76e75", "is_reserved": 0}, {"is_disabled": 0, "fusion_lon": 0.0, "fusion_lat": 0.0, "lat": 38.89215166666666, "type": "electric_scooter", "lon": -76.95738333333334, "bike_id": "eace024fa2260bd7b40fad36673b592b", "rental_uris": {"android": "https://dc.lft.to/lastmile_qr_scan", "ios": "https://dc.lft.to/lastmile_qr_scan"}, "name": "eace024fa2260bd7b40fad36673b592b", "is_reserved": 0}, {"is_disabled": 0, "fusion_lon": 0.0, "fusion_lat": 0.0, "lat": 38.919938333333334, "type": "electric_scooter", "lon": -77.03188233333333, "bike_id": "a4001ca2d87949e81595c55e1ce8087a", "rental_uris": {"android": "https://dc.lft.to/lastmile_qr_scan", "ios": "https://dc.lft.to/lastmile_qr_scan"}, "name": "a4001ca2d87949e81595c55e1ce8087a", "is_reserved": 0}, {"is_disabled": 0, "fusion_lon": 0.0, "fusion_lat": 0.0, "lat": 38.8976895, "type": "electric_scooter", "lon": -77.01217033333333, "bike_id": "5a17f196832dd240feeae2fa85e14783", "rental_uris": {"android": "https://dc.lft.to/lastmile_qr_scan", "ios": "https://dc.lft.to/lastmile_qr_scan"}, "name": "5a17f196832dd240feeae2fa85e14783", "is_reserved": 0}, {"is_disabled": 0, "fusion_lon": 0.0, "fusion_lat": 0.0, "lat": 38.897217, "type": "electric_scooter", "lon": -77.02466, "bike_id": "4757882fd18d2567cc95e32303866ee3", "rental_uris": {"android": "https://dc.lft.to/lastmile_qr_scan", "ios": "https://dc.lft.to/lastmile_qr_scan"}, "name": "4757882fd18d2567cc95e32303866ee3", "is_reserved": 0}, {"is_disabled": 0, "fusion_lon": 0.0, "fusion_lat": 0.0, "lat": 38.920247333333336, "type": "electric_scooter", "lon": -77.037409, "bike_id": "fcbac38dc2c5f23157837cc9978c002a", "rental_uris": {"android": "https://dc.lft.to/lastmile_qr_scan", "ios": "https://dc.lft.to/lastmile_qr_scan"}, "name": "fcbac38dc2c5f23157837cc9978c002a", "is_reserved": 0}, {"is_disabled": 0, "fusion_lon": 0.0, "fusion_lat": 0.0, "lat": 38.8956925, "type": "electric_scooter", "lon": -77.0230035, "bike_id": "02ae022163fc5b9ba0500c6a9114e15d", "rental_uris": {"android": "https://dc.lft.to/lastmile_qr_scan", "ios": "https://dc.lft.to/lastmile_qr_scan"}, "name": "02ae022163fc5b9ba0500c6a9114e15d", "is_reserved": 0}, {"is_disabled": 0, "fusion_lon": 0.0, "fusion_lat": 0.0, "lat": 38.9420125, "type": "electric_scooter", "lon": -77.02592733333333, "bike_id": "5c9b0ae93ca599d0927e5ea6a1441fb9", "rental_uris": {"android": "https://dc.lft.to/lastmile_qr_scan", "ios": "https://dc.lft.to/lastmile_qr_scan"}, "name": "5c9b0ae93ca599d0927e5ea6a1441fb9", "is_reserved": 0}, {"is_disabled": 0, "fusion_lon": 0.0, "fusion_lat": 0.0, "lat": 38.907120166666665, "type": "electric_scooter", "lon": -77.02712133333333, "bike_id": "bead6f0ab327735047a60689c8c78e2d", "rental_uris": {"android": "https://dc.lft.to/lastmile_qr_scan", "ios": "https://dc.lft.to/lastmile_qr_scan"}, "name": "bead6f0ab327735047a60689c8c78e2d", "is_reserved": 0}, {"is_disabled": 0, "fusion_lon": 0.0, "fusion_lat": 0.0, "lat": 38.959557, "type": "electric_bike", "lon": -77.02517583333334, "bike_id": "02ad263b682323b121448dddb1afeaed", "rental_uris": {"android": "https://dc.lft.to/lastmile_qr_scan", "ios": "https://dc.lft.to/lastmile_qr_scan"}, "name": "02ad263b682323b121448dddb1afeaed", "is_reserved": 0}, {"is_disabled": 0, "fusion_lon": 0.0, "fusion_lat": 0.0, "lat": 38.8960515, "type": "electric_scooter", "lon": -77.00928633333334, "bike_id": "76a47e40765ba415f7312636a27b74c1", "rental_uris": {"android": "https://dc.lft.to/lastmile_qr_scan", "ios": "https://dc.lft.to/lastmile_qr_scan"}, "name": "76a47e40765ba415f7312636a27b74c1", "is_reserved": 0}, {"is_disabled": 0, "fusion_lon": 0.0, "fusion_lat": 0.0, "lat": 38.865256, "type": "electric_scooter", "lon": -76.98965583333333, "bike_id": "6562d4ad9f941f3669eb3442734a2529", "rental_uris": {"android": "https://dc.lft.to/lastmile_qr_scan", "ios": "https://dc.lft.to/lastmile_qr_scan"}, "name": "6562d4ad9f941f3669eb3442734a2529", "is_reserved": 0}, {"is_disabled": 0, "fusion_lon": 0.0, "fusion_lat": 0.0, "lat": 38.91810016666667, "type": "electric_scooter", "lon": -77.0451365, "bike_id": "2873e299986733143947bbb1e185f067", "rental_uris": {"android": "https://dc.lft.to/lastmile_qr_scan", "ios": "https://dc.lft.to/lastmile_qr_scan"}, "name": "2873e299986733143947bbb1e185f067", "is_reserved": 0}, {"is_disabled": 0, "fusion_lon": 0.0, "fusion_lat": 0.0, "lat": 38.915988, "type": "electric_scooter", "lon": -77.03113383333333, "bike_id": "7f7f5e9de8c5cf10e943818e7c356338", "rental_uris": {"android": "https://dc.lft.to/lastmile_qr_scan", "ios": "https://dc.lft.to/lastmile_qr_scan"}, "name": "7f7f5e9de8c5cf10e943818e7c356338", "is_reserved": 0}, {"is_disabled": 0, "fusion_lon": 0.0, "fusion_lat": 0.0, "lat": 38.92771066666667, "type": "electric_scooter", "lon": -77.0284415, "bike_id": "da587e2fbacec575d85fe561e4915a2c", "rental_uris": {"android": "https://dc.lft.to/lastmile_qr_scan", "ios": "https://dc.lft.to/lastmile_qr_scan"}, "name": "da587e2fbacec575d85fe561e4915a2c", "is_reserved": 0}, {"is_disabled": 0, "fusion_lon": 0.0, "fusion_lat": 0.0, "lat": 38.901528, "type": "electric_scooter", "lon": -77.02280216666666, "bike_id": "e384d7aaa1494f8599af2eb68454b28c", "rental_uris": {"android": "https://dc.lft.to/lastmile_qr_scan", "ios": "https://dc.lft.to/lastmile_qr_scan"}, "name": "e384d7aaa1494f8599af2eb68454b28c", "is_reserved": 0}, {"is_disabled": 0, "fusion_lon": 0.0, "fusion_lat": 0.0, "lat": 38.858046333333334, "type": "electric_scooter", "lon": -76.98659016666667, "bike_id": "e562e0675ec5651e9ab20b4d65853e3a", "rental_uris": {"android": "https://dc.lft.to/lastmile_qr_scan", "ios": "https://dc.lft.to/lastmile_qr_scan"}, "name": "e562e0675ec5651e9ab20b4d65853e3a", "is_reserved": 0}, {"is_disabled": 0, "fusion_lon": 0.0, "fusion_lat": 0.0, "lat": 38.895206333333334, "type": "electric_scooter", "lon": -77.01133483333334, "bike_id": "d5330faa6e71d73b9dee7e42bf941b1c", "rental_uris": {"android": "https://dc.lft.to/lastmile_qr_scan", "ios": "https://dc.lft.to/lastmile_qr_scan"}, "name": "d5330faa6e71d73b9dee7e42bf941b1c", "is_reserved": 0}, {"is_disabled": 0, "fusion_lon": 0.0, "fusion_lat": 0.0, "lat": 38.9260715, "type": "electric_scooter", "lon": -77.057025, "bike_id": "9974ca823ecef077820693609e31ac2d", "rental_uris": {"android": "https://dc.lft.to/lastmile_qr_scan", "ios": "https://dc.lft.to/lastmile_qr_scan"}, "name": "9974ca823ecef077820693609e31ac2d", "is_reserved": 0}, {"is_disabled": 0, "fusion_lon": 0.0, "fusion_lat": 0.0, "lat": 38.93727633333334, "type": "electric_scooter", "lon": -77.0326095, "bike_id": "74ca39eee61c0101eec25c302ca4a4f2", "rental_uris": {"android": "https://dc.lft.to/lastmile_qr_scan", "ios": "https://dc.lft.to/lastmile_qr_scan"}, "name": "74ca39eee61c0101eec25c302ca4a4f2", "is_reserved": 0}, {"is_disabled": 0, "fusion_lon": 0.0, "fusion_lat": 0.0, "lat": 38.908705166666664, "type": "electric_scooter", "lon": -77.035371, "bike_id": "8a4a011ac3c2f0fc3ed6baf40a6de658", "rental_uris": {"android": "https://dc.lft.to/lastmile_qr_scan", "ios": "https://dc.lft.to/lastmile_qr_scan"}, "name": "8a4a011ac3c2f0fc3ed6baf40a6de658", "is_reserved": 0}, {"is_disabled": 0, "fusion_lon": 0.0, "fusion_lat": 0.0, "lat": 38.90679733333333, "type": "electric_scooter", "lon": -76.979989, "bike_id": "ecc1a2c3e1d6d3effdb5f7e646fe3940", "rental_uris": {"android": "https://dc.lft.to/lastmile_qr_scan", "ios": "https://dc.lft.to/lastmile_qr_scan"}, "name": "ecc1a2c3e1d6d3effdb5f7e646fe3940", "is_reserved": 0}, {"is_disabled": 0, "fusion_lon": 0.0, "fusion_lat": 0.0, "lat": 38.96097533333333, "type": "electric_scooter", "lon": -77.068989, "bike_id": "317d3db50c907cea2a5e8f21b7040950", "rental_uris": {"android": "https://dc.lft.to/lastmile_qr_scan", "ios": "https://dc.lft.to/lastmile_qr_scan"}, "name": "317d3db50c907cea2a5e8f21b7040950", "is_reserved": 0}, {"is_disabled": 0, "fusion_lon": 0.0, "fusion_lat": 0.0, "lat": 38.9118385, "type": "electric_scooter", "lon": -77.03502283333333, "bike_id": "8c8d9ee53c285933af28bdd43ba6e86a", "rental_uris": {"android": "https://dc.lft.to/lastmile_qr_scan", "ios": "https://dc.lft.to/lastmile_qr_scan"}, "name": "8c8d9ee53c285933af28bdd43ba6e86a", "is_reserved": 0}, {"is_disabled": 0, "fusion_lon": 0.0, "fusion_lat": 0.0, "lat": 38.924525333333335, "type": "electric_bike", "lon": -76.999504, "bike_id": "ab0212ce636aa932cbdda55cf3cff27f", "rental_uris": {"android": "https://dc.lft.to/lastmile_qr_scan", "ios": "https://dc.lft.to/lastmile_qr_scan"}, "name": "ab0212ce636aa932cbdda55cf3cff27f", "is_reserved": 0}, {"is_disabled": 0, "fusion_lon": 0.0, "fusion_lat": 0.0, "lat": 38.91559, "type": "electric_scooter", "lon": -77.03171016666667, "bike_id": "a6f781075f1612a280fa6ed66a264b11", "rental_uris": {"android": "https://dc.lft.to/lastmile_qr_scan", "ios": "https://dc.lft.to/lastmile_qr_scan"}, "name": "a6f781075f1612a280fa6ed66a264b11", "is_reserved": 0}, {"is_disabled": 0, "fusion_lon": 0.0, "fusion_lat": 0.0, "lat": 38.936339833333335, "type": "electric_scooter", "lon": -77.0269715, "bike_id": "0987db0ce3464ae02f428e715eb4d7b9", "rental_uris": {"android": "https://dc.lft.to/lastmile_qr_scan", "ios": "https://dc.lft.to/lastmile_qr_scan"}, "name": "0987db0ce3464ae02f428e715eb4d7b9", "is_reserved": 0}, {"is_disabled": 0, "fusion_lon": 0.0, "fusion_lat": 0.0, "lat": 38.89532533333333, "type": "electric_scooter", "lon": -76.949062, "bike_id": "525370e19488bd08e6cb42d566ddfe74", "rental_uris": {"android": "https://dc.lft.to/lastmile_qr_scan", "ios": "https://dc.lft.to/lastmile_qr_scan"}, "name": "525370e19488bd08e6cb42d566ddfe74", "is_reserved": 0}, {"is_disabled": 0, "fusion_lon": 0.0, "fusion_lat": 0.0, "lat": 38.91306766666666, "type": "electric_scooter", "lon": -77.01435133333334, "bike_id": "df908d5af3c4325898865d9212c1aa50", "rental_uris": {"android": "https://dc.lft.to/lastmile_qr_scan", "ios": "https://dc.lft.to/lastmile_qr_scan"}, "name": "df908d5af3c4325898865d9212c1aa50", "is_reserved": 0}, {"is_disabled": 0, "fusion_lon": 0.0, "fusion_lat": 0.0, "lat": 38.9084565, "type": "electric_scooter", "lon": -77.06079116666666, "bike_id": "6dac336711f876edc0eee8efd16c41e6", "rental_uris": {"android": "https://dc.lft.to/lastmile_qr_scan", "ios": "https://dc.lft.to/lastmile_qr_scan"}, "name": "6dac336711f876edc0eee8efd16c41e6", "is_reserved": 0}, {"is_disabled": 0, "fusion_lon": 0.0, "fusion_lat": 0.0, "lat": 38.916989666666666, "type": "electric_scooter", "lon": -77.03348966666667, "bike_id": "ac7db06530119b407ca2ad47e3fc3aa5", "rental_uris": {"android": "https://dc.lft.to/lastmile_qr_scan", "ios": "https://dc.lft.to/lastmile_qr_scan"}, "name": "ac7db06530119b407ca2ad47e3fc3aa5", "is_reserved": 0}, {"is_disabled": 0, "fusion_lon": 0.0, "fusion_lat": 0.0, "lat": 38.90199033333333, "type": "electric_scooter", "lon": -77.05265266666666, "bike_id": "b58fee1451e214ddea469363bc2db7ce", "rental_uris": {"android": "https://dc.lft.to/lastmile_qr_scan", "ios": "https://dc.lft.to/lastmile_qr_scan"}, "name": "b58fee1451e214ddea469363bc2db7ce", "is_reserved": 0}, {"is_disabled": 0, "fusion_lon": 0.0, "fusion_lat": 0.0, "lat": 38.897469666666666, "type": "electric_scooter", "lon": -77.0275405, "bike_id": "596da762e1d743af95fcc4e354cd149c", "rental_uris": {"android": "https://dc.lft.to/lastmile_qr_scan", "ios": "https://dc.lft.to/lastmile_qr_scan"}, "name": "596da762e1d743af95fcc4e354cd149c", "is_reserved": 0}, {"is_disabled": 0, "fusion_lon": 0.0, "fusion_lat": 0.0, "lat": 38.89731783333333, "type": "electric_scooter", "lon": -77.049036, "bike_id": "95da3cb77365655bf1f335a6a5146e4f", "rental_uris": {"android": "https://dc.lft.to/lastmile_qr_scan", "ios": "https://dc.lft.to/lastmile_qr_scan"}, "name": "95da3cb77365655bf1f335a6a5146e4f", "is_reserved": 0}, {"is_disabled": 0, "fusion_lon": 0.0, "fusion_lat": 0.0, "lat": 38.93199083333333, "type": "electric_scooter", "lon": -77.03852766666667, "bike_id": "b785099bcce8cbdf9be88db4c4152453", "rental_uris": {"android": "https://dc.lft.to/lastmile_qr_scan", "ios": "https://dc.lft.to/lastmile_qr_scan"}, "name": "b785099bcce8cbdf9be88db4c4152453", "is_reserved": 0}, {"is_disabled": 0, "fusion_lon": 0.0, "fusion_lat": 0.0, "lat": 38.903025666666665, "type": "electric_bike", "lon": -77.02371983333333, "bike_id": "ac5e5a39d2ef7419c1dc6f0d2a6d13e6", "rental_uris": {"android": "https://dc.lft.to/lastmile_qr_scan", "ios": "https://dc.lft.to/lastmile_qr_scan"}, "name": "ac5e5a39d2ef7419c1dc6f0d2a6d13e6", "is_reserved": 0}, {"is_disabled": 0, "fusion_lon": 0.0, "fusion_lat": 0.0, "lat": 38.92585733333333, "type": "electric_scooter", "lon": -77.03223816666667, "bike_id": "289d2bcae5470ec9a41763a2062dbb1b", "rental_uris": {"android": "https://dc.lft.to/lastmile_qr_scan", "ios": "https://dc.lft.to/lastmile_qr_scan"}, "name": "289d2bcae5470ec9a41763a2062dbb1b", "is_reserved": 0}, {"is_disabled": 0, "fusion_lon": 0.0, "fusion_lat": 0.0, "lat": 38.897497333333334, "type": "electric_scooter", "lon": -77.05118233333333, "bike_id": "28f35d2373b724878d23c3e08e6967d2", "rental_uris": {"android": "https://dc.lft.to/lastmile_qr_scan", "ios": "https://dc.lft.to/lastmile_qr_scan"}, "name": "28f35d2373b724878d23c3e08e6967d2", "is_reserved": 0}, {"is_disabled": 0, "fusion_lon": 0.0, "fusion_lat": 0.0, "lat": 38.9143125, "type": "electric_scooter", "lon": -77.028142, "bike_id": "f7bed98e85759eb0a336a61978d73e6a", "rental_uris": {"android": "https://dc.lft.to/lastmile_qr_scan", "ios": "https://dc.lft.to/lastmile_qr_scan"}, "name": "f7bed98e85759eb0a336a61978d73e6a", "is_reserved": 0}, {"is_disabled": 0, "fusion_lon": 0.0, "fusion_lat": 0.0, "lat": 38.922307, "type": "electric_scooter", "lon": -77.023347, "bike_id": "b4fe31d0c0866bda4443a93f9c682fcd", "rental_uris": {"android": "https://dc.lft.to/lastmile_qr_scan", "ios": "https://dc.lft.to/lastmile_qr_scan"}, "name": "b4fe31d0c0866bda4443a93f9c682fcd", "is_reserved": 0}, {"is_disabled": 0, "fusion_lon": 0.0, "fusion_lat": 0.0, "lat": 38.9225025, "type": "electric_scooter", "lon": -77.0713325, "bike_id": "4c0b5b26efb6b233a43e7a60c958cd40", "rental_uris": {"android": "https://dc.lft.to/lastmile_qr_scan", "ios": "https://dc.lft.to/lastmile_qr_scan"}, "name": "4c0b5b26efb6b233a43e7a60c958cd40", "is_reserved": 0}, {"is_disabled": 0, "fusion_lon": 0.0, "fusion_lat": 0.0, "lat": 38.898373166666666, "type": "electric_scooter", "lon": -77.02921, "bike_id": "1af81d76fd673774e8baca0d6d51f089", "rental_uris": {"android": "https://dc.lft.to/lastmile_qr_scan", "ios": "https://dc.lft.to/lastmile_qr_scan"}, "name": "1af81d76fd673774e8baca0d6d51f089", "is_reserved": 0}, {"is_disabled": 0, "fusion_lon": 0.0, "fusion_lat": 0.0, "lat": 38.91111316666667, "type": "electric_scooter", "lon": -77.03257333333333, "bike_id": "541753150871bef1c6ead2333cd2d3e3", "rental_uris": {"android": "https://dc.lft.to/lastmile_qr_scan", "ios": "https://dc.lft.to/lastmile_qr_scan"}, "name": "541753150871bef1c6ead2333cd2d3e3", "is_reserved": 0}, {"is_disabled": 0, "fusion_lon": 0.0, "fusion_lat": 0.0, "lat": 38.904638, "type": "electric_scooter", "lon": -76.99209183333333, "bike_id": "23ac57e1b8906429fbc994e77ac35791", "rental_uris": {"android": "https://dc.lft.to/lastmile_qr_scan", "ios": "https://dc.lft.to/lastmile_qr_scan"}, "name": "23ac57e1b8906429fbc994e77ac35791", "is_reserved": 0}, {"is_disabled": 0, "fusion_lon": 0.0, "fusion_lat": 0.0, "lat": 38.907782166666664, "type": "electric_scooter", "lon": -76.9412985, "bike_id": "9b6427a471d1bb127f8fb4a2bb144875", "rental_uris": {"android": "https://dc.lft.to/lastmile_qr_scan", "ios": "https://dc.lft.to/lastmile_qr_scan"}, "name": "9b6427a471d1bb127f8fb4a2bb144875", "is_reserved": 0}, {"is_disabled": 0, "fusion_lon": 0.0, "fusion_lat": 0.0, "lat": 38.91456316666667, "type": "electric_scooter", "lon": -77.01430316666666, "bike_id": "5943218f94e66b403487f75c127320a8", "rental_uris": {"android": "https://dc.lft.to/lastmile_qr_scan", "ios": "https://dc.lft.to/lastmile_qr_scan"}, "name": "5943218f94e66b403487f75c127320a8", "is_reserved": 0}, {"is_disabled": 0, "fusion_lon": 0.0, "fusion_lat": 0.0, "lat": 38.90210183333333, "type": "electric_scooter", "lon": -77.02436483333334, "bike_id": "6d36714073752d799313372bebb0b7e3", "rental_uris": {"android": "https://dc.lft.to/lastmile_qr_scan", "ios": "https://dc.lft.to/lastmile_qr_scan"}, "name": "6d36714073752d799313372bebb0b7e3", "is_reserved": 0}, {"is_disabled": 0, "fusion_lon": 0.0, "fusion_lat": 0.0, "lat": 38.918608, "type": "electric_scooter", "lon": -77.02459683333333, "bike_id": "5a4f060c1f232f62ca33e7a2aa5b109d", "rental_uris": {"android": "https://dc.lft.to/lastmile_qr_scan", "ios": "https://dc.lft.to/lastmile_qr_scan"}, "name": "5a4f060c1f232f62ca33e7a2aa5b109d", "is_reserved": 0}, {"is_disabled": 0, "fusion_lon": 0.0, "fusion_lat": 0.0, "lat": 38.844309333333335, "type": "electric_scooter", "lon": -76.9978385, "bike_id": "2a77c12c0dc27233db227385505d16ff", "rental_uris": {"android": "https://dc.lft.to/lastmile_qr_scan", "ios": "https://dc.lft.to/lastmile_qr_scan"}, "name": "2a77c12c0dc27233db227385505d16ff", "is_reserved": 0},