{"data": {"bikes": [{"rental_uris": {"ios": "https://dc.lft.to/lastmile_qr_scan", "android": "https://dc.lft.to/lastmile_qr_scan"}, "lon": -77.05692683333334, "type": "electric_scooter", "fusion_lat": 0.0, "lat": 38.905467333333334, "name": "eeee83526976a1054211f8a0f0499d76", "fusion_lon": 0.0, "bike_id": "eeee83526976a1054211f8a0f0499d76", "is_disabled": 0, "is_reserved": 0}, {"rental_uris": {"ios": "https://dc.lft.to/lastmile_qr_scan", "android": "https://dc.lft.to/lastmile_qr_scan"}, "lon": -76.989, "type": "electric_scooter", "fusion_lat": 0.0, "lat": 38.866987, "name": "038466f86196b5c5b93db18f1c97a6ca", "fusion_lon": 0.0, "bike_id": "038466f86196b5c5b93db18f1c97a6ca", "is_disabled": 0, "is_reserved": 0}, {"rental_uris": {"ios": "https://dc.lft.to/lastmile_qr_scan", "android": "https://dc.lft.to/lastmile_qr_scan"}, "lon": -77.0411795, "type": "electric_scooter", "fusion_lat": 0.0, "lat": 38.9235755, "name": "2cb51600c6b7f8653933635062dbeaa5", "fusion_lon": 0.0, "bike_id": "2cb51600c6b7f8653933635062dbeaa5", "is_disabled": 0, "is_reserved": 0}, {"rental_uris": {"ios": "https://dc.lft.to/lastmile_qr_scan", "android": "https://dc.lft.to/lastmile_qr_scan"}, "lon": -77.03633316666667, "type": "electric_scooter", "fusion_lat": 0.0, "lat": 38.912761333333336, "name": "7d9ecc5a146b90ba3f0926b177c7f7b3", "fusion_lon": 0.0, "bike_id": "7d9ecc5a146b90ba3f0926b177c7f7b3", "is_disabled": 0, "is_reserved": 0}, {"rental_uris": {"ios": "https://dc.lft.to/lastmile_qr_scan", "android": "https://dc.lft.to/lastmile_qr_scan"}, "lon": -76.95359383333333, "type": "electric_bike", "fusion_lat": 0.0, "lat": 38.93955866666667, "name": "5c26673f9b73f37f550f7af9699cf6fa", "fusion_lon": 0.0, "bike_id": "5c26673f9b73f37f550f7af9699cf6fa", "is_disabled": 0, "is_reserved": 0}, {"rental_uris": {"ios": "https://dc.lft.to/lastmile_qr_scan", "android": "https://dc.lft.to/lastmile_qr_scan"}, "lon": -76.9871825, "type": "electric_scooter", "fusion_lat": 0.0, "lat": 38.867009833333334, "name": "5c0a0ef2fe4084ff65d7179c5ac3201f", "fusion_lon": 0.0, "bike_id": "5c0a0ef2fe4084ff65d7179c5ac3201f", "is_disabled": 0, "is_reserved": 0}, {"rental_uris": {"ios": "https://dc.lft.to/lastmile_qr_scan", "android": "https://dc.lft.to/lastmile_qr_scan"}, "lon": -77.04778716666667, "type": "electric_bike", "fusion_lat": 0.0, "lat": 39.05320733333333, "name": "adfb49ff87544fdfc569d6120bd4aa8f", "fusion_lon": 0.0, "bike_id": "adfb49ff87544fdfc569d6120bd4aa8f", "is_disabled": 0, "is_reserved": 0}, {"rental_uris": {"ios": "https://dc.lft.to/lastmile_qr_scan", "android": "https://dc.lft.to/lastmile_qr_scan"}, "lon": -77.17845766666667, "type": "electric_bike", "fusion_lat": 0.0, "lat": 39.088563, "name": "d77d3d82a0ee517de4c178523e123bc8", "fusion_lon": 0.0, "bike_id": "d77d3d82a0ee517de4c178523e123bc8", "is_disabled": 0, "is_reserved": 0}, {"rental_uris": {"ios": "https://dc.lft.to/lastmile_qr_scan", "android": "https://dc.lft.to/lastmile_qr_scan"}, "lon": -77.03291633333333, "type": "electric_scooter", "fusion_lat": 0.0, "lat": 38.92853683333333, "name": "3b7fa76a52cad9722847a630a9b58a8c", "fusion_lon": 0.0, "bike_id": "3b7fa76a52cad9722847a630a9b58a8c", "is_disabled": 0, "is_reserved": 0}, {"rental_uris": {"ios": "https://dc.lft.to/lastmile_qr_scan", "android": "https://dc.lft.to/lastmile_qr_scan"}, "lon": -77.00126566666667, "type": "electric_scooter", "fusion_lat": 0.0, "lat": 38.87790433333333, "name": "f06bbc8d902cfee0af4053f3960c17f0", "fusion_lon": 0.0, "bike_id": "f06bbc8d902cfee0af4053f3960c17f0", "is_disabled": 0, "is_reserved": 0}, {"rental_uris": {"ios": "https://dc.lft.to/lastmile_qr_scan", "android": "https://dc.lft.to/lastmile_qr_scan"}, "lon": -77.0260005, "type": "electric_scooter", "fusion_lat": 0.0, "lat": 38.91991016666667, "name": "58a811f161872c3430f3313672260c1b", "fusion_lon": 0.0, "bike_id": "58a811f161872c3430f3313672260c1b", "is_disabled": 0, "is_reserved": 0}, {"rental_uris": {"ios": "https://dc.lft.to/lastmile_qr_scan", "android": "https://dc.lft.to/lastmile_qr_scan"}, "lon": -76.9907005, "type": "electric_scooter", "fusion_lat": 0.0, "lat": 38.8635805, "name": "e12e7ce14b19736a8fdc43735beaf378", "fusion_lon": 0.0, "bike_id": "e12e7ce14b19736a8fdc43735beaf378", "is_disabled": 0, "is_reserved": 0}, {"rental_uris": {"ios": "https://dc.lft.to/lastmile_qr_scan", "android": "https://dc.lft.to/lastmile_qr_scan"}, "lon": -77.00676383333334, "type": "electric_scooter", "fusion_lat": 0.0, "lat": 38.91696316666667, "name": "e405ffc8e9181d8bf77972bb0ce77419", "fusion_lon": 0.0, "bike_id": "e405ffc8e9181d8bf77972bb0ce77419", "is_disabled": 0, "is_reserved": 0}, {"rental_uris": {"ios": "https://dc.lft.to/lastmile_qr_scan", "android": "https://dc.lft.to/lastmile_qr_scan"}, "lon": -76.9044, "type": "electric_bike", "fusion_lat": 0.0, "lat": 38.89776066666667, "name": "387f333017386dea6bcfaebe0e92cb65", "fusion_lon": 0.0, "bike_id": "387f333017386dea6bcfaebe0e92cb65", "is_disabled": 0, "is_reserved": 0}, {"rental_uris": {"ios": "https://dc.lft.to/lastmile_qr_scan", "android": "https://dc.lft.to/lastmile_qr_scan"}, "lon": -77.042453, "type": "electric_scooter", "fusion_lat": 0.0, "lat": 38.92429383333333, "name": "891c780d30dbe9416b16747b2088ea94", "fusion_lon": 0.0, "bike_id": "891c780d30dbe9416b16747b2088ea94", "is_disabled": 0, "is_reserved": 0}, {"rental_uris": {"ios": "https://dc.lft.to/lastmile_qr_scan", "android": "https://dc.lft.to/lastmile_qr_scan"}, "lon": -77.01961733333333, "type": "electric_scooter", "fusion_lat": 0.0, "lat": 38.9340835, "name": "a7d53d989041abb27e31e5c728ce8ad1", "fusion_lon": 0.0, "bike_id": "a7d53d989041abb27e31e5c728ce8ad1", "is_disabled": 0, "is_reserved": 0}, {"rental_uris": {"ios": "https://dc.lft.to/lastmile_qr_scan", "android": "https://dc.lft.to/lastmile_qr_scan"}, "lon": -77.0365805, "type": "electric_scooter", "fusion_lat": 0.0, "lat": 38.92123466666666, "name": "053e2b51148e6e773cd302ddfa2e5527", "fusion_lon": 0.0, "bike_id": "053e2b51148e6e773cd302ddfa2e5527", "is_disabled": 0, "is_reserved": 0}, {"rental_uris": {"ios": "https://dc.lft.to/lastmile_qr_scan", "android": "https://dc.lft.to/lastmile_qr_scan"}, "lon": -77.04833783333333, "type": "electric_scooter", "fusion_lat": 0.0, "lat": 38.920351, "name": "b4fb50ef1590a6391ffa032135550ad0", "fusion_lon": 0.0, "bike_id": "b4fb50ef1590a6391ffa032135550ad0", "is_disabled": 0, "is_reserved": 0}, {"rental_uris": {"ios": "https://dc.lft.to/lastmile_qr_scan", "android": "https://dc.lft.to/lastmile_qr_scan"}, "lon": -77.04999533333333, "type": "electric_scooter", "fusion_lat": 0.0, "lat": 38.90058766666667, "name": "ed8edfe2f1652e9c558acfdd363031e4", "fusion_lon": 0.0, "bike_id": "ed8edfe2f1652e9c558acfdd363031e4", "is_disabled": 0, "is_reserved": 0}, {"rental_uris": {"ios": "https://dc.lft.to/lastmile_qr_scan", "android": "https://dc.lft.to/lastmile_qr_scan"}, "lon": -76.99082066666666, "type": "electric_scooter", "fusion_lat": 0.0, "lat": 38.89359, "name": "9ad3f53c406825f575150857c7737d6a", "fusion_lon": 0.0, "bike_id": "9ad3f53c406825f575150857c7737d6a", "is_disabled": 0, "is_reserved": 0}, {"rental_uris": {"ios": "https://dc.lft.to/lastmile_qr_scan", "android": "https://dc.lft.to/lastmile_qr_scan"}, "lon": -77.0419935, "type": "electric_scooter", "fusion_lat": 0.0, "lat": 38.921102166666664, "name": "228c25057aa9fa5d3c1e8b0a239e0255", "fusion_lon": 0.0, "bike_id": "228c25057aa9fa5d3c1e8b0a239e0255", "is_disabled": 0, "is_reserved": 0}, {"rental_uris": {"ios": "https://dc.lft.to/lastmile_qr_scan", "android": "https://dc.lft.to/lastmile_qr_scan"}, "lon": -76.9815905, "type": "electric_scooter", "fusion_lat": 0.0, "lat": 38.932965833333334, "name": "89c111d18260bcefac5840d0ed4cbd26", "fusion_lon": 0.0, "bike_id": "89c111d18260bcefac5840d0ed4cbd26", "is_disabled": 0, "is_reserved": 0}, {"rental_uris": {"ios": "https://dc.lft.to/lastmile_qr_scan", "android": "https://dc.lft.to/lastmile_qr_scan"}, "lon": -76.9950335, "type": "electric_scooter", "fusion_lat": 0.0, "lat": 38.927036666666666, "name": "225505969236afa65ebc7b8d425da3a6", "fusion_lon": 0.0, "bike_id": "225505969236afa65ebc7b8d425da3a6", "is_disabled": 0, "is_reserved": 0}, {"rental_uris": {"ios": "https://dc.lft.to/lastmile_qr_scan", "android": "https://dc.lft.to/lastmile_qr_scan"}, "lon": -76.98873916666666, "type": "electric_scooter", "fusion_lat": 0.0, "lat": 38.83240833333333, "name": "2ce71a6122f4fac7430ec17bc47f9254", "fusion_lon": 0.0, "bike_id": "2ce71a6122f4fac7430ec17bc47f9254", "is_disabled": 0, "is_reserved": 0}, {"rental_uris": {"ios": "https://dc.lft.to/lastmile_qr_scan", "android": "https://dc.lft.to/lastmile_qr_scan"}, "lon": -77.01768833333334, "type": "electric_scooter", "fusion_lat": 0.0, "lat": 38.90570866666667, "name": "37cfe3de58a54fde38a0d11cd877845a", "fusion_lon": 0.0, "bike_id": "37cfe3de58a54fde38a0d11cd877845a", "is_disabled": 0, "is_reserved": 0}, {"rental_uris": {"ios": "https://dc.lft.to/lastmile_qr_scan", "android": "https://dc.lft.to/lastmile_qr_scan"}, "lon": -77.06399483333334, "type": "electric_bike", "fusion_lat": 0.0, "lat": 38.843475833333336, "name": "1afc3f382d5e8561c0e071de2cbcbc5e", "fusion_lon": 0.0, "bike_id": "1afc3f382d5e8561c0e071de2cbcbc5e", "is_disabled": 0, "is_reserved": 0}, {"rental_uris": {"ios": "https://dc.lft.to/lastmile_qr_scan", "android": "https://dc.lft.to/lastmile_qr_scan"}, "lon": -77.0538885, "type": "electric_scooter", "fusion_lat": 0.0, "lat": 38.902724666666664, "name": "802bef8ec560b0be7ac0d477c8ed2dcf", "fusion_lon": 0.0, "bike_id": "802bef8ec560b0be7ac0d477c8ed2dcf", "is_disabled": 0, "is_reserved": 0}, {"rental_uris": {"ios": "https://dc.lft.to/lastmile_qr_scan", "android": "https://dc.lft.to/lastmile_qr_scan"}, "lon": -76.99276766666667, "type": "electric_scooter", "fusion_lat": 0.0, "lat": 38.92135316666667, "name": "0a224935a8f6d0988f9d6537838ca6b6", "fusion_lon": 0.0, "bike_id": "0a224935a8f6d0988f9d6537838ca6b6", "is_disabled": 0, "is_reserved": 0}, {"rental_uris": {"ios": "https://dc.lft.to/lastmile_qr_scan", "android": "https://dc.lft.to/lastmile_qr_scan"}, "lon": -77.0295665, "type": "electric_scooter", "fusion_lat": 0.0, "lat": 38.916756, "name": "966e596f27ee24bd670c589bc521dbfc", "fusion_lon": 0.0, "bike_id": "966e596f27ee24bd670c589bc521dbfc", "is_disabled": 0, "is_reserved": 0}, {"rental_uris": {"ios": "https://dc.lft.to/lastmile_qr_scan", "android": "https://dc.lft.to/lastmile_qr_scan"}, "lon": -77.12730483333333, "type": "electric_bike", "fusion_lat": 0.0, "lat": 38.895623666666665, "name": "9e6d5752c65c6d51db4a2ed37a5f7df0", "fusion_lon": 0.0, "bike_id": "9e6d5752c65c6d51db4a2ed37a5f7df0", "is_disabled": 0, "is_reserved": 0}, {"rental_uris": {"ios": "https://dc.lft.to/lastmile_qr_scan", "android": "https://dc.lft.to/lastmile_qr_scan"}, "lon": -77.01068366666667, "type": "electric_scooter", "fusion_lat": 0.0, "lat": 38.874775166666666, "name": "2a046028bcbe8a021253b82925595c80", "fusion_lon": 0.0, "bike_id": "2a046028bcbe8a021253b82925595c80", "is_disabled": 0, "is_reserved": 0}, {"rental_uris": {"ios": "https://dc.lft.to/lastmile_qr_scan", "android": "https://dc.lft.to/lastmile_qr_scan"}, "lon": -76.916551, "type": "electric_bike", "fusion_lat": 0.0, "lat": 38.868574333333335, "name": "c18cf86b4c59ab1783e0a3af501430e5", "fusion_lon": 0.0, "bike_id": "c18cf86b4c59ab1783e0a3af501430e5", "is_disabled": 0, "is_reserved": 0}, {"rental_uris": {"ios": "https://dc.lft.to/lastmile_qr_scan", "android": "https://dc.lft.to/lastmile_qr_scan"}, "lon": -76.99007566666667, "type": "electric_scooter", "fusion_lat": 0.0, "lat": 38.90391416666667, "name": "9cce1e10a272869fe68089ff356504a2", "fusion_lon": 0.0, "bike_id": "9cce1e10a272869fe68089ff356504a2", "is_disabled": 0, "is_reserved": 0}, {"rental_uris": {"ios": "https://dc.lft.to/lastmile_qr_scan", "android": "https://dc.lft.to/lastmile_qr_scan"}, "lon": -77.01073083333333, "type": "electric_bike", "fusion_lat": 0.0, "lat": 38.919136, "name": "4558eaea4b570a9248dec32c5a82fe4c", "fusion_lon": 0.0, "bike_id": "4558eaea4b570a9248dec32c5a82fe4c", "is_disabled": 0, "is_reserved": 0}, {"rental_uris": {"ios": "https://dc.lft.to/lastmile_qr_scan", "android": "https://dc.lft.to/lastmile_qr_scan"}, "lon": -77.009767, "type": "electric_scooter", "fusion_lat": 0.0, "lat": 38.914146333333335, "name": "55bc939e4f1e49607d76f83e56841007", "fusion_lon": 0.0, "bike_id": "55bc939e4f1e49607d76f83e56841007", "is_disabled": 0, "is_reserved": 0}, {"rental_uris": {"ios": "https://dc.lft.to/lastmile_qr_scan", "android": "https://dc.lft.to/lastmile_qr_scan"}, "lon": -76.94856383333334, "type": "electric_scooter", "fusion_lat": 0.0, "lat": 38.89590316666666, "name": "2f5df81abb120064bbc5d02f4a347e99", "fusion_lon": 0.0, "bike_id": "2f5df81abb120064bbc5d02f4a347e99", "is_disabled": 0, "is_reserved": 0}, {"rental_uris": {"ios": "https://dc.lft.to/lastmile_qr_scan", "android": "https://dc.lft.to/lastmile_qr_scan"}, "lon": -77.027203, "type": "electric_scooter", "fusion_lat": 0.0, "lat": 38.906888, "name": "1c1a280ef5c95437f3abc9be6a2f8a1b", "fusion_lon": 0.0, "bike_id": "1c1a280ef5c95437f3abc9be6a2f8a1b", "is_disabled": 0, "is_reserved": 0}, {"rental_uris": {"ios": "https://dc.lft.to/lastmile_qr_scan", "android": "https://dc.lft.to/lastmile_qr_scan"}, "lon": -77.02802333333334, "type": "electric_scooter", "fusion_lat": 0.0, "lat": 38.910729, "name": "288e7deab0562d3ae67c24523a2efe4f", "fusion_lon": 0.0, "bike_id": "288e7deab0562d3ae67c24523a2efe4f", "is_disabled": 0, "is_reserved": 0}, {"rental_uris": {"ios": "https://dc.lft.to/lastmile_qr_scan", "android": "https://dc.lft.to/lastmile_qr_scan"}, "lon": -77.02718016666667, "type": "electric_scooter", "fusion_lat": 0.0, "lat": 38.9091055, "name": "40dfd97c5919e7744fd465094c623f02", "fusion_lon": 0.0, "bike_id": "40dfd97c5919e7744fd465094c623f02", "is_disabled": 0, "is_reserved": 0}, {"rental_uris": {"ios": "https://dc.lft.to/lastmile_qr_scan", "android": "https://dc.lft.to/lastmile_qr_scan"}, "lon": -76.98094283333333, "type": "electric_bike", "fusion_lat": 0.0, "lat": 38.88135483333333, "name": "b06d62304ab73eb2c8e0bfb8691382e0", "fusion_lon": 0.0, "bike_id": "b06d62304ab73eb2c8e0bfb8691382e0", "is_disabled": 0, "is_reserved": 0}, {"rental_uris": {"ios": "https://dc.lft.to/lastmile_qr_scan", "android": "https://dc.lft.to/lastmile_qr_scan"}, "lon": -77.00195083333334, "type": "electric_scooter", "fusion_lat": 0.0, "lat": 38.9003655, "name": "a0cced7e69df75078e92479aa530c63b", "fusion_lon": 0.0, "bike_id": "a0cced7e69df75078e92479aa530c63b", "is_disabled": 0, "is_reserved": 0}, {"rental_uris": {"ios": "https://dc.lft.to/lastmile_qr_scan", "android": "https://dc.lft.to/lastmile_qr_scan"}, "lon": -77.02227766666667, "type": "electric_scooter", "fusion_lat": 0.0, "lat": 38.912726, "name": "ebf6fcf0edc2ab2cf89fe510097402ba", "fusion_lon": 0.0, "bike_id": "ebf6fcf0edc2ab2cf89fe510097402ba", "is_disabled": 0, "is_reserved": 0}, {"rental_uris": {"ios": "https://dc.lft.to/lastmile_qr_scan", "android": "https://dc.lft.to/lastmile_qr_scan"}, "lon": -77.03899116666666, "type": "electric_scooter", "fusion_lat": 0.0, "lat": 38.918447666666665, "name": "2135074828d5288293f6511a7b4daad3", "fusion_lon": 0.0, "bike_id": "2135074828d5288293f6511a7b4daad3", "is_disabled": 0, "is_reserved": 0}, {"rental_uris": {"ios": "https://dc.lft.to/lastmile_qr_scan", "android": "https://dc.lft.to/lastmile_qr_scan"}, "lon": -77.04168733333333, "type": "electric_scooter", "fusion_lat": 0.0, "lat": 38.89938333333333, "name": "9bfd65a130ff1595f95c4ee3a4242ce3", "fusion_lon": 0.0, "bike_id": "9bfd65a130ff1595f95c4ee3a4242ce3", "is_disabled": 0, "is_reserved": 0}, {"rental_uris": {"ios": "https://dc.lft.to/lastmile_qr_scan", "android": "https://dc.lft.to/lastmile_qr_scan"}, "lon": -77.03965233333334, "type": "electric_scooter", "fusion_lat": 0.0, "lat": 38.9231855, "name": "3568cd5e0436718308d1fbd7502da6ad", "fusion_lon": 0.0, "bike_id": "3568cd5e0436718308d1fbd7502da6ad", "is_disabled": 0, "is_reserved": 0}, {"rental_uris": {"ios": "https://dc.lft.to/lastmile_qr_scan", "android": "https://dc.lft.to/lastmile_qr_scan"}, "lon": -77.02321066666667, "type": "electric_scooter", "fusion_lat": 0.0, "lat": 38.8819755, "name": "825ca2011ab9fa785d3ae6160ae0551a", "fusion_lon": 0.0, "bike_id": "825ca2011ab9fa785d3ae6160ae0551a", "is_disabled": 0, "is_reserved": 0}, {"rental_uris": {"ios": "https://dc.lft.to/lastmile_qr_scan", "android": "https://dc.lft.to/lastmile_qr_scan"}, "lon": -77.024687, "type": "electric_scooter", "fusion_lat": 0.0, "lat": 38.908519, "name": "5bcf460b2af66e5758ea2f9789aaf5f0", "fusion_lon": 0.0, "bike_id": "5bcf460b2af66e5758ea2f9789aaf5f0", "is_disabled": 0, "is_reserved": 0}, {"rental_uris": {"ios": "https://dc.lft.to/lastmile_qr_scan", "android": "https://dc.lft.to/lastmile_qr_scan"}, "lon": -77.077241, "type": "electric_scooter", "fusion_lat": 0.0, "lat": 38.9470555, "name": "66aad257281a154a8dd6216a4e6a91c9", "fusion_lon": 0.0, "bike_id": "66aad257281a154a8dd6216a4e6a91c9", "is_disabled": 0, "is_reserved": 0}, {"rental_uris": {"ios": "https://dc.lft.to/lastmile_qr_scan", "android": "https://dc.lft.to/lastmile_qr_scan"}, "lon": -76.99372883333334, "type": "electric_scooter", "fusion_lat": 0.0, "lat": 38.87975616666667, "name": "5eae4c253a608d99767ec9936111ad5d", "fusion_lon": 0.0, "bike_id": "5eae4c253a608d99767ec9936111ad5d", "is_disabled": 0, "is_reserved": 0}, {"rental_uris": {"ios": "https://dc.lft.to/lastmile_qr_scan", "android": "https://dc.lft.to/lastmile_qr_scan"}, "lon": -77.054993, "type": "electric_scooter", "fusion_lat": 0.0, "lat": 38.8993365, "name": "e861e3cb671fb321b2ccbcb946b45f4c", "fusion_lon": 0.0, "bike_id": "e861e3cb671fb321b2ccbcb946b45f4c", "is_disabled": 0, "is_reserved": 0}, {"rental_uris": {"ios": "https://dc.lft.to/lastmile_qr_scan", "android": "https://dc.lft.to/lastmile_qr_scan"}, "lon": -77.04888983333333, "type": "electric_scooter", "fusion_lat": 0.0, "lat": 38.905953333333336, "name": "4c242837ff9cd3f970170b0851be5ada", "fusion_lon": 0.0, "bike_id": "4c242837ff9cd3f970170b0851be5ada", "is_disabled": 0, "is_reserved": 0}, {"rental_uris": {"ios": "https://dc.lft.to/lastmile_qr_scan", "android": "https://dc.lft.to/lastmile_qr_scan"}, "lon": -77.04417966666666, "type": "electric_scooter", "fusion_lat": 0.0, "lat": 38.9131375, "name": "b69f91173fd8afbb2e768bb9c21cf578", "fusion_lon": 0.0, "bike_id": "b69f91173fd8afbb2e768bb9c21cf578", "is_disabled": 0, "is_reserved": 0}, {"rental_uris": {"ios": "https://dc.lft.to/lastmile_qr_scan", "android": "https://dc.lft.to/lastmile_qr_scan"}, "lon": -76.95187166666666, "type": "electric_bike", "fusion_lat": 0.0, "lat": 38.9068545, "name": "c16f5bb3b1c097a08a99e0fd0bcf3d39", "fusion_lon": 0.0, "bike_id": "c16f5bb3b1c097a08a99e0fd0bcf3d39", "is_disabled": 0, "is_reserved": 0}, {"rental_uris": {"ios": "https://dc.lft.to/lastmile_qr_scan", "android": "https://dc.lft.to/lastmile_qr_scan"}, "lon": -77.01315866666667, "type": "electric_scooter", "fusion_lat": 0.0, "lat": 38.89742666666667, "name": "90eca8afe438fea61d6cdd6ec67bbd58", "fusion_lon": 0.0, "bike_id": "90eca8afe438fea61d6cdd6ec67bbd58", "is_disabled": 0, "is_reserved": 0}, {"rental_uris": {"ios": "https://dc.lft.to/lastmile_qr_scan", "android": "https://dc.lft.to/lastmile_qr_scan"}, "lon": -77.02385583333333, "type": "electric_scooter", "fusion_lat": 0.0, "lat": 38.936091833333336, "name": "65009d9975880ec4d1440c744c21f757", "fusion_lon": 0.0, "bike_id": "65009d9975880ec4d1440c744c21f757", "is_disabled": 0, "is_reserved": 0}, {"rental_uris": {"ios": "https://dc.lft.to/lastmile_qr_scan", "android": "https://dc.lft.to/lastmile_qr_scan"}, "lon": -77.013754, "type": "electric_scooter", "fusion_lat": 0.0, "lat": 38.88654966666667, "name": "ef2129dd78210a7f0dcc2213a7d0be30", "fusion_lon": 0.0, "bike_id": "ef2129dd78210a7f0dcc2213a7d0be30", "is_disabled": 0, "is_reserved": 0}, {"rental_uris": {"ios": "https://dc.lft.to/lastmile_qr_scan", "android": "https://dc.lft.to/lastmile_qr_scan"}, "lon": -77.03859916666667, "type": "electric_scooter", "fusion_lat": 0.0, "lat": 38.9093525, "name": "dc35e31c2beb5050d9b594cd9b0ecf20", "fusion_lon": 0.0, "bike_id": "dc35e31c2beb5050d9b594cd9b0ecf20", "is_disabled": 0, "is_reserved": 0}, {"rental_uris": {"ios": "https://dc.lft.to/lastmile_qr_scan", "android": "https://dc.lft.to/lastmile_qr_scan"}, "lon": -77.05263416666666, "type": "electric_scooter", "fusion_lat": 0.0, "lat": 38.934372833333335, "name": "b4d022288d26a6ac49df7bbf52c0d765", "fusion_lon": 0.0, "bike_id": "b4d022288d26a6ac49df7bbf52c0d765", "is_disabled": 0, "is_reserved": 0}, {"rental_uris": {"ios": "https://dc.lft.to/lastmile_qr_scan", "android": "https://dc.lft.to/lastmile_qr_scan"}, "lon": -77.04289266666666, "type": "electric_scooter", "fusion_lat": 0.0, "lat": 38.895374833333335, "name": "4577c24db6f864ea20539f90ac03de77", "fusion_lon": 0.0, "bike_id": "4577c24db6f864ea20539f90ac03de77", "is_disabled": 0, "is_reserved": 0}, {"rental_uris": {"ios": "https://dc.lft.to/lastmile_qr_scan", "android": "https://dc.lft.to/lastmile_qr_scan"}, "lon": -77.0286745, "type": "electric_scooter", "fusion_lat": 0.0, "lat": 38.90871333333333, "name": "97c219eeca3c55163dd3f1606ef3eca9", "fusion_lon": 0.0, "bike_id": "97c219eeca3c55163dd3f1606ef3eca9", "is_disabled": 0, "is_reserved": 0}, {"rental_uris": {"ios": "https://dc.lft.to/lastmile_qr_scan", "android": "https://dc.lft.to/lastmile_qr_scan"}, "lon": -77.03774766666666, "type": "electric_scooter", "fusion_lat": 0.0, "lat": 38.93018, "name": "344bf74ad26dcaed2f472b6653c5d044", "fusion_lon": 0.0, "bike_id": "344bf74ad26dcaed2f472b6653c5d044", "is_disabled": 0, "is_reserved": 0}, {"rental_uris": {"ios": "https://dc.lft.to/lastmile_qr_scan", "android": "https://dc.lft.to/lastmile_qr_scan"}, "lon": -77.0020005, "type": "electric_scooter", "fusion_lat": 0.0, "lat": 38.900375333333336, "name": "d805c6c55e2aa5f0c5276fb4f4bada82", "fusion_lon": 0.0, "bike_id": "d805c6c55e2aa5f0c5276fb4f4bada82", "is_disabled": 0, "is_reserved": 0}, {"rental_uris": {"ios": "https://dc.lft.to/lastmile_qr_scan", "android": "https://dc.lft.to/lastmile_qr_scan"}, "lon": -76.95902016666666, "type": "electric_scooter", "fusion_lat": 0.0, "lat": 38.926927, "name": "8ad47ebf54e94807323ec0c195dfcaf8", "fusion_lon": 0.0, "bike_id": "8ad47ebf54e94807323ec0c195dfcaf8", "is_disabled": 0, "is_reserved": 0}, {"rental_uris": {"ios": "https://dc.lft.to/lastmile_qr_scan", "android": "https://dc.lft.to/lastmile_qr_scan"}, "lon": -77.03282433333334, "type": "electric_scooter", "fusion_lat": 0.0, "lat": 38.938801, "name": "a61eca0e3721aa81ebc51a77546c3331", "fusion_lon": 0.0, "bike_id": "a61eca0e3721aa81ebc51a77546c3331", "is_disabled": 0, "is_reserved": 0}, {"rental_uris": {"ios": "https://dc.lft.to/lastmile_qr_scan", "android": "https://dc.lft.to/lastmile_qr_scan"}, "lon": -76.9317735, "type": "electric_scooter", "fusion_lat": 0.0, "lat": 38.8988425, "name": "e7c6bb69ec24de2752f3a0465bd1d1f7", "fusion_lon": 0.0, "bike_id": "e7c6bb69ec24de2752f3a0465bd1d1f7", "is_disabled": 0, "is_reserved": 0}, {"rental_uris": {"ios": "https://dc.lft.to/lastmile_qr_scan", "android": "https://dc.lft.to/lastmile_qr_scan"}, "lon": -76.9800165, "type": "electric_bike", "fusion_lat": 0.0, "lat": 38.900137666666666, "name": "acf342dda2726aee17ae3784238d51c5", "fusion_lon": 0.0, "bike_id": "acf342dda2726aee17ae3784238d51c5", "is_disabled": 0, "is_reserved": 0}, {"rental_uris": {"ios": "https://dc.lft.to/lastmile_qr_scan", "android": "https://dc.lft.to/lastmile_qr_scan"}, "lon": -77.03675166666666, "type": "electric_scooter", "fusion_lat": 0.0, "lat": 38.918690166666664, "name": "f0c57bbb2577e516cf3735c47333c2a1", "fusion_lon": 0.0, "bike_id": "f0c57bbb2577e516cf3735c47333c2a1", "is_disabled": 0, "is_reserved": 0}, {"rental_uris": {"ios": "https://dc.lft.to/lastmile_qr_scan", "android": "https://dc.lft.to/lastmile_qr_scan"}, "lon": -77.011162, "type": "electric_scooter", "fusion_lat": 0.0, "lat": 38.90362366666667, "name": "8e56c23ed4f2de6a29ae6ddae9959ffa", "fusion_lon": 0.0, "bike_id": "8e56c23ed4f2de6a29ae6ddae9959ffa", "is_disabled": 0, "is_reserved": 0}, {"rental_uris": {"ios": "https://dc.lft.to/lastmile_qr_scan", "android": "https://dc.lft.to/lastmile_qr_scan"}, "lon": -77.040259, "type": "electric_scooter", "fusion_lat": 0.0, "lat": 38.901363, "name": "f090a1dc2caebe67ca2bc656592123e1", "fusion_lon": 0.0, "bike_id": "f090a1dc2caebe67ca2bc656592123e1", "is_disabled": 0, "is_reserved": 0}, {"rental_uris": {"ios": "https://dc.lft.to/lastmile_qr_scan", "android": "https://dc.lft.to/lastmile_qr_scan"}, "lon": -77.02622866666667, "type": "electric_scooter", "fusion_lat": 0.0, "lat": 38.933999166666666, "name": "01b1c65520e335825a284383bab3551f", "fusion_lon": 0.0, "bike_id": "01b1c65520e335825a284383bab3551f", "is_disabled": 0, "is_reserved": 0}, {"rental_uris": {"ios": "https://dc.lft.to/lastmile_qr_scan", "android": "https://dc.lft.to/lastmile_qr_scan"}, "lon": -77.06983183333334, "type": "electric_scooter", "fusion_lat": 0.0, "lat": 38.95487283333333, "name": "68e227ca50bf6b2c7af3e88859a49986", "fusion_lon": 0.0, "bike_id": "68e227ca50bf6b2c7af3e88859a49986", "is_disabled": 0, "is_reserved": 0}, {"rental_uris": {"ios": "https://dc.lft.to/lastmile_qr_scan", "android": "https://dc.lft.to/lastmile_qr_scan"}, "lon": -77.06326866666667, "type": "electric_scooter", "fusion_lat": 0.0, "lat": 38.907656333333335, "name": "a9d204188c89afcfae1caf56dbb2d2ed", "fusion_lon": 0.0, "bike_id": "a9d204188c89afcfae1caf56dbb2d2ed", "is_disabled": 0, "is_reserved": 0}, {"rental_uris": {"ios": "https://dc.lft.to/lastmile_qr_scan", "android": "https://dc.lft.to/lastmile_qr_scan"}, "lon": -76.99503816666666, "type": "electric_bike", "fusion_lat": 0.0, "lat": 39.000079, "name": "6522f00c49513987b376882c62e43e17", "fusion_lon": 0.0, "bike_id": "6522f00c49513987b376882c62e43e17", "is_disabled": 0, "is_reserved": 0}, {"rental_uris": {"ios": "https://dc.lft.to/lastmile_qr_scan", "android": "https://dc.lft.to/lastmile_qr_scan"}, "lon": -76.99792866666667, "type": "electric_scooter", "fusion_lat": 0.0, "lat": 38.92182066666667, "name": "507c70e96a5d9466b725390aa6bce335", "fusion_lon": 0.0, "bike_id": "507c70e96a5d9466b725390aa6bce335", "is_disabled": 0, "is_reserved": 0}, {"rental_uris": {"ios": "https://dc.lft.to/lastmile_qr_scan", "android": "https://dc.lft.to/lastmile_qr_scan"}, "lon": -76.99943416666666, "type": "electric_scooter", "fusion_lat": 0.0, "lat": 38.90695, "name": "f65f6351dcceceaf66ec9fd3f2d7364d", "fusion_lon": 0.0, "bike_id": "f65f6351dcceceaf66ec9fd3f2d7364d", "is_disabled": 0, "is_reserved": 0}, {"rental_uris": {"ios": "https://dc.lft.to/lastmile_qr_scan", "android": "https://dc.lft.to/lastmile_qr_scan"}, "lon": -77.00512083333334, "type": "electric_scooter", "fusion_lat": 0.0, "lat": 38.91711816666667, "name": "3c77c9e84eaf7cd830c9e9a89803ac6c", "fusion_lon": 0.0, "bike_id": "3c77c9e84eaf7cd830c9e9a89803ac6c", "is_disabled": 0, "is_reserved": 0}, {"rental_uris": {"ios": "https://dc.lft.to/lastmile_qr_scan", "android": "https://dc.lft.to/lastmile_qr_scan"}, "lon": -77.0515625, "type": "electric_scooter", "fusion_lat": 0.0, "lat": 38.90128683333333, "name": "ef2b2e31f86e7e9bf85d4a6cb21d6942", "fusion_lon": 0.0, "bike_id": "ef2b2e31f86e7e9bf85d4a6cb21d6942", "is_disabled": 0, "is_reserved": 0}, {"rental_uris": {"ios": "https://dc.lft.to/lastmile_qr_scan", "android": "https://dc.lft.to/lastmile_qr_scan"}, "lon": -76.99975966666666, "type": "electric_scooter", "fusion_lat": 0.0, "lat": 38.8383775, "name": "43feb2c07f2a9b3340fb5796f409f959", "fusion_lon": 0.0, "bike_id": "43feb2c07f2a9b3340fb5796f409f959", "is_disabled": 0, "is_reserved": 0}, {"rental_uris": {"ios": "https://dc.lft.to/lastmile_qr_scan", "android": "https://dc.lft.to/lastmile_qr_scan"}, "lon": -77.03223966666667, "type": "electric_scooter", "fusion_lat": 0.0, "lat": 38.925869166666665, "name": "f7797625c3ff2e2cfd03ed652ec37041", "fusion_lon": 0.0, "bike_id": "f7797625c3ff2e2cfd03ed652ec37041", "is_disabled": 0, "is_reserved": 0}, {"rental_uris": {"ios": "https://dc.lft.to/lastmile_qr_scan", "android": "https://dc.lft.to/lastmile_qr_scan"}, "lon": -77.35310683333333, "type": "electric_bike", "fusion_lat": 0.0, "lat": 38.949981666666666, "name": "3fbea4acea5db102930c590056f062c8", "fusion_lon": 0.0, "bike_id": "3fbea4acea5db102930c590056f062c8", "is_disabled": 0, "is_reserved": 0}, {"rental_uris": {"ios": "https://dc.lft.to/lastmile_qr_scan", "android": "https://dc.lft.to/lastmile_qr_scan"}, "lon": -76.98730733333333, "type": "electric_scooter", "fusion_lat": 0.0, "lat": 38.8841725, "name": "35045f6a9796d27180a45bdb5c53871e", "fusion_lon": 0.0, "bike_id": "35045f6a9796d27180a45bdb5c53871e", "is_disabled": 0, "is_reserved": 0}, {"rental_uris": {"ios": "https://dc.lft.to/lastmile_qr_scan", "android": "https://dc.lft.to/lastmile_qr_scan"}, "lon": -77.04529733333334, "type": "electric_scooter", "fusion_lat": 0.0, "lat": 38.9038375, "name": "85275bf965049849e44345d138e785bd", "fusion_lon": 0.0, "bike_id": "85275bf965049849e44345d138e785bd", "is_disabled": 0, "is_reserved": 0}, {"rental_uris": {"ios": "https://dc.lft.to/lastmile_qr_scan", "android": "https://dc.lft.to/lastmile_qr_scan"}, "lon": -77.0386495, "type": "electric_scooter", "fusion_lat": 0.0, "lat": 38.90971733333333, "name": "cd677dea2ea9774e377ff5cf26a90bf6", "fusion_lon": 0.0, "bike_id": "cd677dea2ea9774e377ff5cf26a90bf6", "is_disabled": 0, "is_reserved": 0}, {"rental_uris": {"ios": "https://dc.lft.to/lastmile_qr_scan", "android": "https://dc.lft.to/lastmile_qr_scan"}, "lon": -77.03937133333334, "type": "electric_scooter", "fusion_lat": 0.0, "lat": 38.90123833333333, "name": "c750c4ccaff1494ef973bd81629af7b4", "fusion_lon": 0.0, "bike_id": "c750c4ccaff1494ef973bd81629af7b4", "is_disabled": 0, "is_reserved": 0}, {"rental_uris": {"ios": "https://dc.lft.to/lastmile_qr_scan", "android": "https://dc.lft.to/lastmile_qr_scan"}, "lon": -76.93173416666667, "type": "electric_scooter", "fusion_lat": 0.0, "lat": 38.898835, "name": "c2ec5533b8de5a25b6912407dea56136", "fusion_lon": 0.0, "bike_id": "c2ec5533b8de5a25b6912407dea56136", "is_disabled": 0, "is_reserved": 0}, {"rental_uris": {"ios": "https://dc.lft.to/lastmile_qr_scan", "android": "https://dc.lft.to/lastmile_qr_scan"}, "lon": -77.03449166666667, "type": "electric_scooter", "fusion_lat": 0.0, "lat": 38.91827816666667, "name": "1a8f45bd7807cae1db0e67d768c78260", "fusion_lon": 0.0, "bike_id": "1a8f45bd7807cae1db0e67d768c78260", "is_disabled": 0, "is_reserved": 0}, {"rental_uris": {"ios": "https://dc.lft.to/lastmile_qr_scan", "android": "https://dc.lft.to/lastmile_qr_scan"}, "lon": -77.03515283333333, "type": "electric_scooter", "fusion_lat": 0.0, "lat": 38.923388833333334, "name": "c9f4a7c1479feea49ac9ab96dc8bc5bb", "fusion_lon": 0.0, "bike_id": "c9f4a7c1479feea49ac9ab96dc8bc5bb", "is_disabled": 0, "is_reserved": 0}, {"rental_uris": {"ios": "https://dc.lft.to/lastmile_qr_scan", "android": "https://dc.lft.to/lastmile_qr_scan"}, "lon": -76.99503783333333, "type": "electric_scooter", "fusion_lat": 0.0, "lat": 38.899585333333334, "name": "4516d7fc15ff6f2fff820ec4156e3a28", "fusion_lon": 0.0, "bike_id": "4516d7fc15ff6f2fff820ec4156e3a28", "is_disabled": 0, "is_reserved": 0}, {"rental_uris": {"ios": "https://dc.lft.to/lastmile_qr_scan", "android": "https://dc.lft.to/lastmile_qr_scan"}, "lon": -76.9808465, "type": "electric_bike", "fusion_lat": 0.0, "lat": 38.90288683333333, "name": "742d4bdaa7cf36685f6ce8659738c880", "fusion_lon": 0.0, "bike_id": "742d4bdaa7cf36685f6ce8659738c880", "is_disabled": 0, "is_reserved": 0}, {"rental_uris": {"ios": "https://dc.lft.to/lastmile_qr_scan", "android": "https://dc.lft.to/lastmile_qr_scan"}, "lon": -77.02350516666667, "type": "electric_scooter", "fusion_lat": 0.0, "lat": 38.933814166666664, "name": "6613278d62d9a5c6a956a3c1437ca56a", "fusion_lon": 0.0, "bike_id": "6613278d62d9a5c6a956a3c1437ca56a", "is_disabled": 0, "is_reserved": 0}, {"rental_uris": {"ios": "https://dc.lft.to/lastmile_qr_scan", "android": "https://dc.lft.to/lastmile_qr_scan"}, "lon": -76.99872966666666, "type": "electric_scooter", "fusion_lat": 0.0, "lat": 38.900330333333336, "name": "752c82aa0b07320c3e8dbcae14b69dfa", "fusion_lon": 0.0, "bike_id": "752c82aa0b07320c3e8dbcae14b69dfa", "is_disabled": 0, "is_reserved": 0}, {"rental_uris": {"ios": "https://dc.lft.to/lastmile_qr_scan", "android": "https://dc.lft.to/lastmile_qr_scan"}, "lon": -77.003373, "type": "electric_scooter", "fusion_lat": 0.0, "lat": 38.91340966666667, "name": "fa6ed1dfd21217e1c5b87b719133fe63", "fusion_lon": 0.0, "bike_id": "fa6ed1dfd21217e1c5b87b719133fe63", "is_disabled": 0, "is_reserved": 0}, {"rental_uris": {"ios": "https://dc.lft.to/lastmile_qr_scan", "android": "https://dc.lft.to/lastmile_qr_scan"}, "lon": -77.0790675, "type": "electric_bike", "fusion_lat": 0.0, "lat": 38.83938466666667, "name": "09d7ebb1674fd0d82cb9f879d2f072c2", "fusion_lon": 0.0, "bike_id": "09d7ebb1674fd0d82cb9f879d2f072c2", "is_disabled": 0, "is_reserved": 0}, {"rental_uris": {"ios": "https://dc.lft.to/lastmile_qr_scan", "android": "https://dc.lft.to/lastmile_qr_scan"}, "lon": -77.0065415, "type": "electric_scooter", "fusion_lat": 0.0, "lat": 38.87634416666667, "name": "0b1c76a99b015ed4742ff0c830e37bd4", "fusion_lon": 0.0, "bike_id": "0b1c76a99b015ed4742ff0c830e37bd4", "is_disabled": 0, "is_reserved": 0}, {"rental_uris": {"ios": "https://dc.lft.to/lastmile_qr_scan", "android": "https://dc.lft.to/lastmile_qr_scan"}, "lon": -76.93610333333334, "type": "electric_bike", "fusion_lat": 0.0, "lat": 38.97074283333333, "name": "a21ea8b81a3945fa4799681b6516a6e8", "fusion_lon": 0.0, "bike_id": "a21ea8b81a3945fa4799681b6516a6e8", "is_disabled": 0, "is_reserved": 0}, {"rental_uris": {"ios": "https://dc.lft.to/lastmile_qr_scan", "android": "https://dc.lft.to/lastmile_qr_scan"}, "lon": -77.02451633333334, "type": "electric_scooter", "fusion_lat": 0.0, "lat": 38.9385405, "name": "8190517863a640c2872fd4b56e7c5ff2", "fusion_lon": 0.0, "bike_id": "8190517863a640c2872fd4b56e7c5ff2", "is_disabled": 0, "is_reserved": 0}, {"rental_uris": {"ios": "https://dc.lft.to/lastmile_qr_scan", "android": "https://dc.lft.to/lastmile_qr_scan"}, "lon": -77.00218733333334, "type": "electric_scooter", "fusion_lat": 0.0, "lat": 38.911943, "name": "e67d66adcad77372e8e39fd42b04e325", "fusion_lon": 0.0, "bike_id": "e67d66adcad77372e8e39fd42b04e325", "is_disabled": 0, "is_reserved": 0}, {"rental_uris": {"ios": "https://dc.lft.to/lastmile_qr_scan", "android": "https://dc.lft.to/lastmile_qr_scan"}, "lon": -76.9949875, "type": "electric_bike", "fusion_lat": 0.0, "lat": 38.899911833333334, "name": "c9413f51e8d4c896a90e36606709e77f", "fusion_lon": 0.0, "bike_id": "c9413f51e8d4c896a90e36606709e77f", "is_disabled": 0, "is_reserved": 0}, {"rental_uris": {"ios": "https://dc.lft.to/lastmile_qr_scan", "android": "https://dc.lft.to/lastmile_qr_scan"}, "lon": -77.05886683333334, "type": "electric_scooter", "fusion_lat": 0.0, "lat": 38.93637433333333, "name": "d6a966f2cfa31124034f1a7593df7709", "fusion_lon": 0.0, "bike_id": "d6a966f2cfa31124034f1a7593df7709", "is_disabled": 0, "is_reserved": 0}, {"rental_uris": {"ios": "https://dc.lft.to/lastmile_qr_scan", "android": "https://dc.lft.to/lastmile_qr_scan"}, "lon": -77.00216116666667, "type": "electric_scooter", "fusion_lat": 0.0, "lat": 38.91194466666666, "name": "2dbd86c2a457eb0e1ee108251dc1669e", "fusion_lon": 0.0, "bike_id": "2dbd86c2a457eb0e1ee108251dc1669e", "is_disabled": 0, "is_reserved": 0}, {"rental_uris": {"ios": "https://dc.lft.to/lastmile_qr_scan", "android": "https://dc.lft.to/lastmile_qr_scan"}, "lon": -76.9831165, "type": "electric_scooter", "fusion_lat": 0.0, "lat": 38.868915, "name": "d80fb4df5a5b62cf9a3e5777f606e2ac", "fusion_lon": 0.0, "bike_id": "d80fb4df5a5b62cf9a3e5777f606e2ac", "is_disabled": 0, "is_reserved": 0}, {"rental_uris": {"ios": "https://dc.lft.to/lastmile_qr_scan", "android": "https://dc.lft.to/lastmile_qr_scan"}, "lon": -77.02893233333333, "type": "electric_scooter", "fusion_lat": 0.0, "lat": 38.925672, "name": "907dfab80c001fe40caf6b61811c912f", "fusion_lon": 0.0, "bike_id": "907dfab80c001fe40caf6b61811c912f", "is_disabled": 0, "is_reserved": 0}, {"rental_uris": {"ios": "https://dc.lft.to/lastmile_qr_scan", "android": "https://dc.lft.to/lastmile_qr_scan"}, "lon": -77.00197366666667, "type": "electric_bike", "fusion_lat": 0.0, "lat": 38.8830745, "name": "668338fe0c8905c7cec11489b5ea9406", "fusion_lon": 0.0, "bike_id": "668338fe0c8905c7cec11489b5ea9406", "is_disabled": 0, "is_reserved": 0}, {"rental_uris": {"ios": "https://dc.lft.to/lastmile_qr_scan", "android": "https://dc.lft.to/lastmile_qr_scan"}, "lon": -77.04792066666667, "type": "electric_scooter", "fusion_lat": 0.0, "lat": 38.90860816666667, "name": "9d03c87208cb404ab09f6a14eca67b39", "fusion_lon": 0.0, "bike_id": "9d03c87208cb404ab09f6a14eca67b39", "is_disabled": 0, "is_reserved": 0}, {"rental_uris": {"ios": "https://dc.lft.to/lastmile_qr_scan", "android": "https://dc.lft.to/lastmile_qr_scan"}, "lon": -76.98685116666667, "type": "electric_scooter", "fusion_lat": 0.0, "lat": 38.88210133333333, "name": "81ce2ead1dae6edaffcb6a60397765c6", "fusion_lon": 0.0, "bike_id": "81ce2ead1dae6edaffcb6a60397765c6", "is_disabled": 0, "is_reserved": 0}, {"rental_uris": {"ios": "https://dc.lft.to/lastmile_qr_scan", "android": "https://dc.lft.to/lastmile_qr_scan"}, "lon": -77.03121383333334, "type": "electric_scooter", "fusion_lat": 0.0, "lat": 38.913469666666664, "name": "41c61a96ecbad012a048e4ad688c7efb", "fusion_lon": 0.0, "bike_id": "41c61a96ecbad012a048e4ad688c7efb", "is_disabled": 0, "is_reserved": 0}, {"rental_uris": {"ios": "https://dc.lft.to/lastmile_qr_scan", "android": "https://dc.lft.to/lastmile_qr_scan"}, "lon": -76.97627916666667, "type": "electric_scooter", "fusion_lat": 0.0, "lat": 38.905757, "name": "484f0c575057c8b17372e21fb0c07d88", "fusion_lon": 0.0, "bike_id": "484f0c575057c8b17372e21fb0c07d88", "is_disabled": 0, "is_reserved": 0}, {"rental_uris": {"ios": "https://dc.lft.to/lastmile_qr_scan", "android": "https://dc.lft.to/lastmile_qr_scan"}, "lon": -77.03868716666666, "type": "electric_scooter", "fusion_lat": 0.0, "lat": 38.915628166666664, "name": "8a42f7201e61d2e581e5a8199478aa16", "fusion_lon": 0.0, "bike_id": "8a42f7201e61d2e581e5a8199478aa16", "is_disabled": 0, "is_reserved": 0}, {"rental_uris": {"ios": "https://dc.lft.to/lastmile_qr_scan", "android": "https://dc.lft.to/lastmile_qr_scan"}, "lon": -77.0520635, "type": "electric_scooter", "fusion_lat": 0.0, "lat": 38.924365, "name": "551422c40d0d5e2198d5c139928d1ca4", "fusion_lon": 0.0, "bike_id": "551422c40d0d5e2198d5c139928d1ca4", "is_disabled": 0, "is_reserved": 0}, {"rental_uris": {"ios": "https://dc.lft.to/lastmile_qr_scan", "android": "https://dc.lft.to/lastmile_qr_scan"}, "lon": -77.02953066666667, "type": "electric_scooter", "fusion_lat": 0.0, "lat": 38.916785833333336, "name": "641d1b1f09596a2e7341f1b80507bed7", "fusion_lon": 0.0, "bike_id": "641d1b1f09596a2e7341f1b80507bed7", "is_disabled": 0, "is_reserved": 0}, {"rental_uris": {"ios": "https://dc.lft.to/lastmile_qr_scan", "android": "https://dc.lft.to/lastmile_qr_scan"}, "lon": -77.01257, "type": "electric_scooter", "fusion_lat": 0.0, "lat": 38.89967133333333, "name": "ebacdf3b27c6d213fd4e3a82bbc210bd", "fusion_lon": 0.0, "bike_id": "ebacdf3b27c6d213fd4e3a82bbc210bd", "is_disabled": 0, "is_reserved": 0}, {"rental_uris": {"ios": "https://dc.lft.to/lastmile_qr_scan", "android": "https://dc.lft.to/lastmile_qr_scan"}, "lon": -77.1359655, "type": "electric_bike", "fusion_lat": 0.0, "lat": 39.0534875, "name": "403c00c903ee4655d78ff51043a64d6c", "fusion_lon": 0.0, "bike_id": "403c00c903ee4655d78ff51043a64d6c", "is_disabled": 0, "is_reserved": 0}, {"rental_uris": {"ios": "https://dc.lft.to/lastmile_qr_scan", "android": "https://dc.lft.to/lastmile_qr_scan"}, "lon": -77.04032066666667, "type": "electric_scooter", "fusion_lat": 0.0, "lat": 38.917123833333335, "name": "1414851a91ec113e5065b29626f52a60", "fusion_lon": 0.0, "bike_id": "1414851a91ec113e5065b29626f52a60", "is_disabled": 0, "is_reserved": 0}, {"rental_uris": {"ios": "https://dc.lft.to/lastmile_qr_scan", "android": "https://dc.lft.to/lastmile_qr_scan"}, "lon": -76.98613183333333, "type": "electric_scooter", "fusion_lat": 0.0, "lat": 38.868287, "name": "674a434669ee53cfdb923042407719fc", "fusion_lon": 0.0, "bike_id": "674a434669ee53cfdb923042407719fc", "is_disabled": 0, "is_reserved": 0}, {"rental_uris": {"ios": "https://dc.lft.to/lastmile_qr_scan", "android": "https://dc.lft.to/lastmile_qr_scan"}, "lon": -77.03346883333333, "type": "electric_scooter", "fusion_lat": 0.0, "lat": 38.9192515, "name": "d92bcd34710d0441ebda4d8eec98436f", "fusion_lon": 0.0, "bike_id": "d92bcd34710d0441ebda4d8eec98436f", "is_disabled": 0, "is_reserved": 0}, {"rental_uris": {"ios": "https://dc.lft.to/lastmile_qr_scan", "android": "https://dc.lft.to/lastmile_qr_scan"}, "lon": -76.98715566666667, "type": "electric_scooter", "fusion_lat": 0.0, "lat": 38.8627205, "name": "82bf10e89fe098cac69d31c85516aa78", "fusion_lon": 0.0, "bike_id": "82bf10e89fe098cac69d31c85516aa78", "is_disabled": 0, "is_reserved": 0}, {"rental_uris": {"ios": "https://dc.lft.to/lastmile_qr_scan", "android": "https://dc.lft.to/lastmile_qr_scan"}, "lon": -77.07881566666667, "type": "electric_scooter", "fusion_lat": 0.0, "lat": 38.92546433333333, "name": "13e139113e0fbcc46defbda566d46be0", "fusion_lon": 0.0, "bike_id": "13e139113e0fbcc46defbda566d46be0", "is_disabled": 0, "is_reserved": 0}, {"rental_uris": {"ios": "https://dc.lft.to/lastmile_qr_scan", "android": "https://dc.lft.to/lastmile_qr_scan"}, "lon": -77.04190116666666, "type": "electric_scooter", "fusion_lat": 0.0, "lat": 38.90059266666667, "name": "aa4b8f7a9f6ec818413905beba29f405", "fusion_lon": 0.0, "bike_id": "aa4b8f7a9f6ec818413905beba29f405", "is_disabled": 0, "is_reserved": 0}, {"rental_uris": {"ios": "https://dc.lft.to/lastmile_qr_scan", "android": "https://dc.lft.to/lastmile_qr_scan"}, "lon": -77.03437783333334, "type": "electric_scooter", "fusion_lat": 0.0, "lat": 38.90249516666667, "name": "32c03c330a406ad5e0c75934dab4bb4f", "fusion_lon": 0.0, "bike_id": "32c03c330a406ad5e0c75934dab4bb4f", "is_disabled": 0, "is_reserved": 0}, {"rental_uris": {"ios": "https://dc.lft.to/lastmile_qr_scan", "android": "https://dc.lft.to/lastmile_qr_scan"}, "lon": -77.04490633333333, "type": "electric_scooter", "fusion_lat": 0.0, "lat": 38.9086225, "name": "4e00dba0f90ff487dd9aaae4e30ec431", "fusion_lon": 0.0, "bike_id": "4e00dba0f90ff487dd9aaae4e30ec431", "is_disabled": 0, "is_reserved": 0}, {"rental_uris": {"ios": "https://dc.lft.to/lastmile_qr_scan", "android": "https://dc.lft.to/lastmile_qr_scan"}, "lon": -77.05506133333333, "type": "electric_scooter", "fusion_lat": 0.0, "lat": 38.92974233333333, "name": "c8d6e6e0d2288fbf86f7a570ca649319", "fusion_lon": 0.0, "bike_id": "c8d6e6e0d2288fbf86f7a570ca649319", "is_disabled": 0, "is_reserved": 0}, {"rental_uris": {"ios": "https://dc.lft.to/lastmile_qr_scan", "android": "https://dc.lft.to/lastmile_qr_scan"}, "lon": -77.04134183333333, "type": "electric_scooter", "fusion_lat": 0.0, "lat": 38.900114, "name": "0c6b1584e6b81ce377f6b09545335157", "fusion_lon": 0.0, "bike_id": "0c6b1584e6b81ce377f6b09545335157", "is_disabled": 0, "is_reserved": 0}, {"rental_uris": {"ios": "https://dc.lft.to/lastmile_qr_scan", "android": "https://dc.lft.to/lastmile_qr_scan"}, "lon": -76.9575805, "type": "electric_scooter", "fusion_lat": 0.0, "lat": 38.8842935, "name": "676c0094d07fd9f66494f9b63a647352", "fusion_lon": 0.0, "bike_id": "676c0094d07fd9f66494f9b63a647352", "is_disabled": 0, "is_reserved": 0}, {"rental_uris": {"ios": "https://dc.lft.to/lastmile_qr_scan", "android": "https://dc.lft.to/lastmile_qr_scan"}, "lon": -77.12506483333334, "type": "electric_bike", "fusion_lat": 0.0, "lat": 39.02424466666667, "name": "778878faf898448a5a9e1aa53e6efd7a", "fusion_lon": 0.0, "bike_id": "778878faf898448a5a9e1aa53e6efd7a", "is_disabled": 0, "is_reserved": 0}, {"rental_uris": {"ios": "https://dc.lft.to/lastmile_qr_scan", "android": "https://dc.lft.to/lastmile_qr_scan"}, "lon": -77.05217316666666, "type": "electric_scooter", "fusion_lat": 0.0, "lat": 38.92593766666667, "name": "37adb5a225cc47bfc48b7065b89716f8", "fusion_lon": 0.0, "bike_id": "37adb5a225cc47bfc48b7065b89716f8", "is_disabled": 0, "is_reserved": 0}, {"rental_uris": {"ios": "https://dc.lft.to/lastmile_qr_scan", "android": "https://dc.lft.to/lastmile_qr_scan"}, "lon": -77.032847, "type": "electric_scooter", "fusion_lat": 0.0, "lat": 38.9349095, "name": "55fa59454a766d1afcbcc23694929d47", "fusion_lon": 0.0, "bike_id": "55fa59454a766d1afcbcc23694929d47", "is_disabled": 0, "is_reserved": 0}, {"rental_uris": {"ios": "https://dc.lft.to/lastmile_qr_scan", "android": "https://dc.lft.to/lastmile_qr_scan"}, "lon": -77.03405183333334, "type": "electric_scooter", "fusion_lat": 0.0, "lat": 38.922696333333334, "name": "03b977954602783bc5a796409cebac6d", "fusion_lon": 0.0, "bike_id": "03b977954602783bc5a796409cebac6d", "is_disabled": 0, "is_reserved": 0}, {"rental_uris": {"ios": "https://dc.lft.to/lastmile_qr_scan", "android": "https://dc.lft.to/lastmile_qr_scan"}, "lon": -77.01969616666666, "type": "electric_bike", "fusion_lat": 0.0, "lat": 38.878532166666666, "name": "eff2b68be5c74b7b3d3534a06b66a499", "fusion_lon": 0.0, "bike_id": "eff2b68be5c74b7b3d3534a06b66a499", "is_disabled": 0, "is_reserved": 0}, {"rental_uris": {"ios": "https://dc.lft.to/lastmile_qr_scan", "android": "https://dc.lft.to/lastmile_qr_scan"}, "lon": -77.0402985, "type": "electric_scooter", "fusion_lat": 0.0, "lat": 38.918082, "name": "6dd4c90882887b66a77c43045dc2a6b5", "fusion_lon": 0.0, "bike_id": "6dd4c90882887b66a77c43045dc2a6b5", "is_disabled": 0, "is_reserved": 0}, {"rental_uris": {"ios": "https://dc.lft.to/lastmile_qr_scan", "android": "https://dc.lft.to/lastmile_qr_scan"}, "lon": -76.98999216666667, "type": "electric_scooter", "fusion_lat": 0.0, "lat": 38.90391266666666, "name": "96fab400fce9e33b440e05d9da6658b0", "fusion_lon": 0.0, "bike_id": "96fab400fce9e33b440e05d9da6658b0", "is_disabled": 0, "is_reserved": 0}, {"rental_uris": {"ios": "https://dc.lft.to/lastmile_qr_scan", "android": "https://dc.lft.to/lastmile_qr_scan"}, "lon": -77.03561466666666, "type": "electric_scooter", "fusion_lat": 0.0, "lat": 38.92744166666667, "name": "deb4c13edca0fa82785c0c13f2a8517f", "fusion_lon": 0.0, "bike_id": "deb4c13edca0fa82785c0c13f2a8517f", "is_disabled": 0, "is_reserved": 0}, {"rental_uris": {"ios": "https://dc.lft.to/lastmile_qr_scan", "android": "https://dc.lft.to/lastmile_qr_scan"}, "lon": -76.99554083333334, "type": "electric_scooter", "fusion_lat": 0.0, "lat": 38.862326833333334, "name": "97cc13cc2084bbfcd2331a39a9513f22", "fusion_lon": 0.0, "bike_id": "97cc13cc2084bbfcd2331a39a9513f22", "is_disabled": 0, "is_reserved": 0}, {"rental_uris": {"ios": "https://dc.lft.to/lastmile_qr_scan", "android": "https://dc.lft.to/lastmile_qr_scan"}, "lon": -77.01021733333333, "type": "electric_scooter", "fusion_lat": 0.0, "lat": 38.918078666666666, "name": "1e0b5f183199498a68dad1029928f394", "fusion_lon": 0.0, "bike_id": "1e0b5f183199498a68dad1029928f394", "is_disabled": 0, "is_reserved": 0}, {"rental_uris": {"ios": "https://dc.lft.to/lastmile_qr_scan", "android": "https://dc.lft.to/lastmile_qr_scan"}, "lon": -77.03520433333334, "type": "electric_scooter", "fusion_lat": 0.0, "lat": 38.9358985, "name": "9723ca88c41417822257c82683899708", "fusion_lon": 0.0, "bike_id": "9723ca88c41417822257c82683899708", "is_disabled": 0, "is_reserved": 0}, {"rental_uris": {"ios": "https://dc.lft.to/lastmile_qr_scan", "android": "https://dc.lft.to/lastmile_qr_scan"}, "lon": -77.05069233333333, "type": "electric_bike", "fusion_lat": 0.0, "lat": 39.061347833333336, "name": "809d82bde9e350961d41631913ce8c62", "fusion_lon": 0.0, "bike_id": "809d82bde9e350961d41631913ce8c62", "is_disabled": 0, "is_reserved": 0}, {"rental_uris": {"ios": "https://dc.lft.to/lastmile_qr_scan", "android": "https://dc.lft.to/lastmile_qr_scan"}, "lon": -77.01990766666667, "type": "electric_scooter", "fusion_lat": 0.0, "lat": 38.9378155, "name": "ad7e8427536b739a791b411f9f507ee7", "fusion_lon": 0.0, "bike_id": "ad7e8427536b739a791b411f9f507ee7", "is_disabled": 0, "is_reserved": 0}, {"rental_uris": {"ios": "https://dc.lft.to/lastmile_qr_scan", "android": "https://dc.lft.to/lastmile_qr_scan"}, "lon": -77.02842783333334, "type": "electric_scooter", "fusion_lat": 0.0, "lat": 38.92861966666667, "name": "73b84298b2f7e6c76d68530cb4af3368", "fusion_lon": 0.0, "bike_id": "73b84298b2f7e6c76d68530cb4af3368", "is_disabled": 0, "is_reserved": 0}, {"rental_uris": {"ios": "https://dc.lft.to/lastmile_qr_scan", "android": "https://dc.lft.to/lastmile_qr_scan"}, "lon": -77.05931466666667, "type": "electric_scooter", "fusion_lat": 0.0, "lat": 38.909600833333336, "name": "608a80c10a17a1fcb755be19e84d6b34", "fusion_lon": 0.0, "bike_id": "608a80c10a17a1fcb755be19e84d6b34", "is_disabled": 0, "is_reserved": 0}, {"rental_uris": {"ios": "https://dc.lft.to/lastmile_qr_scan", "android": "https://dc.lft.to/lastmile_qr_scan"}, "lon": -77.0217525, "type": "electric_scooter", "fusion_lat": 0.0, "lat": 38.942938166666664, "name": "73ee1131fd839edb809b46568e10917f", "fusion_lon": 0.0, "bike_id": "73ee1131fd839edb809b46568e10917f", "is_disabled": 0, "is_reserved": 0}, {"rental_uris": {"ios": "https://dc.lft.to/lastmile_qr_scan", "android": "https://dc.lft.to/lastmile_qr_scan"}, "lon": -76.94999733333333, "type": "electric_scooter", "fusion_lat": 0.0, "lat": 38.893737333333334, "name": "c5f2ec55b0b9f237bb79016d21253ab7", "fusion_lon": 0.0, "bike_id": "c5f2ec55b0b9f237bb79016d21253ab7", "is_disabled": 0, "is_reserved": 0}, {"rental_uris": {"ios": "https://dc.lft.to/lastmile_qr_scan", "android": "https://dc.lft.to/lastmile_qr_scan"}, "lon": -77.02529133333333, "type": "electric_scooter", "fusion_lat": 0.0, "lat": 38.94300333333333, "name": "197fd39371536702b1f1360d3d6b880d", "fusion_lon": 0.0, "bike_id": "197fd39371536702b1f1360d3d6b880d", "is_disabled": 0, "is_reserved": 0}, {"rental_uris": {"ios": "https://dc.lft.to/lastmile_qr_scan", "android": "https://dc.lft.to/lastmile_qr_scan"}, "lon": -77.036483, "type": "electric_scooter", "fusion_lat": 0.0, "lat": 38.902909666666666, "name": "62420b710b2997a1db8da41dac8589d3", "fusion_lon": 0.0, "bike_id": "62420b710b2997a1db8da41dac8589d3", "is_disabled": 0, "is_reserved": 0}, {"rental_uris": {"ios": "https://dc.lft.to/lastmile_qr_scan", "android": "https://dc.lft.to/lastmile_qr_scan"}, "lon": -76.97883916666666, "type": "electric_scooter", "fusion_lat": 0.0, "lat": 38.88768366666667, "name": "3ade9d7d90ce5013abdf4fe383733919", "fusion_lon": 0.0, "bike_id": "3ade9d7d90ce5013abdf4fe383733919", "is_disabled": 0, "is_reserved": 0}, {"rental_uris": {"ios": "https://dc.lft.to/lastmile_qr_scan", "android": "https://dc.lft.to/lastmile_qr_scan"}, "lon": -76.9509765, "type": "electric_scooter", "fusion_lat": 0.0, "lat": 38.884531833333334, "name": "a4f2590f3ca82eb65f7f9a4ea77e25ed", "fusion_lon": 0.0, "bike_id": "a4f2590f3ca82eb65f7f9a4ea77e25ed", "is_disabled": 0, "is_reserved": 0}, {"rental_uris": {"ios": "https://dc.lft.to/lastmile_qr_scan", "android": "https://dc.lft.to/lastmile_qr_scan"}, "lon": -77.004799, "type": "electric_scooter", "fusion_lat": 0.0, "lat": 38.94405783333333, "name": "bed2bea0f3f7d0a08b667c4ac96a32b9", "fusion_lon": 0.0, "bike_id": "bed2bea0f3f7d0a08b667c4ac96a32b9", "is_disabled": 0, "is_reserved": 0}, {"rental_uris": {"ios": "https://dc.lft.to/lastmile_qr_scan", "android": "https://dc.lft.to/lastmile_qr_scan"}, "lon": -76.989752, "type": "electric_scooter", "fusion_lat": 0.0, "lat": 38.859207, "name": "a0a928ffb1d8da6616a582634d965363", "fusion_lon": 0.0, "bike_id": "a0a928ffb1d8da6616a582634d965363", "is_disabled": 0, "is_reserved": 0}, {"rental_uris": {"ios": "https://dc.lft.to/lastmile_qr_scan", "android": "https://dc.lft.to/lastmile_qr_scan"}, "lon": -77.03810633333333, "type": "electric_scooter", "fusion_lat": 0.0, "lat": 38.9339925, "name": "b6e509a3c899d914ea8998593c2896a9", "fusion_lon": 0.0, "bike_id": "b6e509a3c899d914ea8998593c2896a9", "is_disabled": 0, "is_reserved": 0}, {"rental_uris": {"ios": "https://dc.lft.to/lastmile_qr_scan", "android": "https://dc.lft.to/lastmile_qr_scan"}, "lon": -77.01120383333334, "type": "electric_scooter", "fusion_lat": 0.0, "lat": 38.90361866666667, "name": "0c6d90b80bb698535b690b4f6b4b45d0", "fusion_lon": 0.0, "bike_id": "0c6d90b80bb698535b690b4f6b4b45d0", "is_disabled": 0, "is_reserved": 0}, {"rental_uris": {"ios": "https://dc.lft.to/lastmile_qr_scan", "android": "https://dc.lft.to/lastmile_qr_scan"}, "lon": -77.03898516666666, "type": "electric_scooter", "fusion_lat": 0.0, "lat": 38.921896333333336, "name": "3159b2cba53fe7c399ebc1472f0aa5ee", "fusion_lon": 0.0, "bike_id": "3159b2cba53fe7c399ebc1472f0aa5ee", "is_disabled": 0, "is_reserved": 0}, {"rental_uris": {"ios": "https://dc.lft.to/lastmile_qr_scan", "android": "https://dc.lft.to/lastmile_qr_scan"}, "lon": -77.01344116666667, "type": "electric_bike", "fusion_lat": 0.0, "lat": 38.999986666666665, "name": "5c0fc72595b597751a4d77e1a0db0ef2", "fusion_lon": 0.0, "bike_id": "5c0fc72595b597751a4d77e1a0db0ef2", "is_disabled": 0, "is_reserved": 0}, {"rental_uris": {"ios": "https://dc.lft.to/lastmile_qr_scan", "android": "https://dc.lft.to/lastmile_qr_scan"}, "lon": -77.03469416666667, "type": "electric_scooter", "fusion_lat": 0.0, "lat": 38.921532, "name": "9fe24ddca30a5755b6dc4b3331160af1", "fusion_lon": 0.0, "bike_id": "9fe24ddca30a5755b6dc4b3331160af1", "is_disabled": 0, "is_reserved": 0}, {"rental_uris": {"ios": "https://dc.lft.to/lastmile_qr_scan", "android": "https://dc.lft.to/lastmile_qr_scan"}, "lon": -77.01899866666666, "type": "electric_scooter", "fusion_lat": 0.0, "lat": 38.87663766666667, "name": "79cc5bedab4b893e21923b6307197536", "fusion_lon": 0.0, "bike_id": "79cc5bedab4b893e21923b6307197536", "is_disabled": 0, "is_reserved": 0}, {"rental_uris": {"ios": "https://dc.lft.to/lastmile_qr_scan", "android": "https://dc.lft.to/lastmile_qr_scan"}, "lon": -77.02894366666666, "type": "electric_scooter", "fusion_lat": 0.0, "lat": 38.904652, "name": "c2bd628a280f5dbf8ed5d8b6833dc2b4", "fusion_lon": 0.0, "bike_id": "c2bd628a280f5dbf8ed5d8b6833dc2b4", "is_disabled": 0, "is_reserved": 0}, {"rental_uris": {"ios": "https://dc.lft.to/lastmile_qr_scan", "android": "https://dc.lft.to/lastmile_qr_scan"}, "lon": -77.05533666666666, "type": "electric_scooter", "fusion_lat": 0.0, "lat": 38.92792416666666, "name": "24729363e9792324b1ba44bfbdd28d54", "fusion_lon": 0.0, "bike_id": "24729363e9792324b1ba44bfbdd28d54", "is_disabled": 0, "is_reserved": 0}, {"rental_uris": {"ios": "https://dc.lft.to/lastmile_qr_scan", "android": "https://dc.lft.to/lastmile_qr_scan"}, "lon": -77.03719966666667, "type": "electric_scooter", "fusion_lat": 0.0, "lat": 38.92635583333333, "name": "3c831178c6f3eaeea559e1b9fe2bacab", "fusion_lon": 0.0, "bike_id": "3c831178c6f3eaeea559e1b9fe2bacab", "is_disabled": 0, "is_reserved": 0}, {"rental_uris": {"ios": "https://dc.lft.to/lastmile_qr_scan", "android": "https://dc.lft.to/lastmile_qr_scan"}, "lon": -76.98569016666667, "type": "electric_scooter", "fusion_lat": 0.0, "lat": 38.899562833333334, "name": "e9588cf8979bf5cdb13ebc08d8636e04", "fusion_lon": 0.0, "bike_id": "e9588cf8979bf5cdb13ebc08d8636e04", "is_disabled": 0, "is_reserved": 0}, {"rental_uris": {"ios": "https://dc.lft.to/lastmile_qr_scan", "android": "https://dc.lft.to/lastmile_qr_scan"}, "lon": -77.09668466666666, "type": "electric_scooter", "fusion_lat": 0.0, "lat": 38.9176855, "name": "d2b40cbb518e8a55e369de5ad58ae2fd", "fusion_lon": 0.0, "bike_id": "d2b40cbb518e8a55e369de5ad58ae2fd", "is_disabled": 0, "is_reserved": 0}, {"rental_uris": {"ios": "https://dc.lft.to/lastmile_qr_scan", "android": "https://dc.lft.to/lastmile_qr_scan"}, "lon": -77.03221516666666, "type": "electric_scooter", "fusion_lat": 0.0, "lat": 38.908648666666664, "name": "6089f8c1e36e7b833c7dc20da0f229e9", "fusion_lon": 0.0, "bike_id": "6089f8c1e36e7b833c7dc20da0f229e9", "is_disabled": 0, "is_reserved": 0}, {"rental_uris": {"ios": "https://dc.lft.to/lastmile_qr_scan", "android": "https://dc.lft.to/lastmile_qr_scan"}, "lon": -76.98882533333334, "type": "electric_scooter", "fusion_lat": 0.0, "lat": 38.86659916666667, "name": "434e1581401c38828c1e15e782d54fa6", "fusion_lon": 0.0, "bike_id": "434e1581401c38828c1e15e782d54fa6", "is_disabled": 0, "is_reserved": 0}, {"rental_uris": {"ios": "https://dc.lft.to/lastmile_qr_scan", "android": "https://dc.lft.to/lastmile_qr_scan"}, "lon": -77.037059, "type": "electric_scooter", "fusion_lat": 0.0, "lat": 38.926257, "name": "1c5f0be3215a3a1bbc0b356ed2415ebc", "fusion_lon": 0.0, "bike_id": "1c5f0be3215a3a1bbc0b356ed2415ebc", "is_disabled": 0, "is_reserved": 0}, {"rental_uris": {"ios": "https://dc.lft.to/lastmile_qr_scan", "android": "https://dc.lft.to/lastmile_qr_scan"}, "lon": -77.044247, "type": "electric_scooter", "fusion_lat": 0.0, "lat": 38.91905716666667, "name": "00bb4a793d878ecd369874adc3bb62ac", "fusion_lon": 0.0, "bike_id": "00bb4a793d878ecd369874adc3bb62ac", "is_disabled": 0, "is_reserved": 0}, {"rental_uris": {"ios": "https://dc.lft.to/lastmile_qr_scan", "android": "https://dc.lft.to/lastmile_qr_scan"}, "lon": -76.93748216666667, "type": "electric_scooter", "fusion_lat": 0.0, "lat": 38.91287633333334, "name": "03aa4e425fff9d427466ab9dc3f77420", "fusion_lon": 0.0, "bike_id": "03aa4e425fff9d427466ab9dc3f77420", "is_disabled": 0, "is_reserved": 0}, {"rental_uris": {"ios": "https://dc.lft.to/lastmile_qr_scan", "android": "https://dc.lft.to/lastmile_qr_scan"}, "lon": -76.97705316666666, "type": "electric_scooter", "fusion_lat": 0.0, "lat": 38.902547, "name": "3903625f877c5f9e053088ad2e6dd488", "fusion_lon": 0.0, "bike_id": "3903625f877c5f9e053088ad2e6dd488", "is_disabled": 0, "is_reserved": 0}, {"rental_uris": {"ios": "https://dc.lft.to/lastmile_qr_scan", "android": "https://dc.lft.to/lastmile_qr_scan"}, "lon": -77.0328475, "type": "electric_scooter", "fusion_lat": 0.0, "lat": 38.934913, "name": "4c550901af66f1f87c0b780aead592a1", "fusion_lon": 0.0, "bike_id": "4c550901af66f1f87c0b780aead592a1", "is_disabled": 0, "is_reserved": 0}, {"rental_uris": {"ios": "https://dc.lft.to/lastmile_qr_scan", "android": "https://dc.lft.to/lastmile_qr_scan"}, "lon": -77.01377916666667, "type": "electric_scooter", "fusion_lat": 0.0, "lat": 38.91940983333333, "name": "6012d9071bc3465e236853e2a36e781c", "fusion_lon": 0.0, "bike_id": "6012d9071bc3465e236853e2a36e781c", "is_disabled": 0, "is_reserved": 0}, {"rental_uris": {"ios": "https://dc.lft.to/lastmile_qr_scan", "android": "https://dc.lft.to/lastmile_qr_scan"}, "lon": -77.022291, "type": "electric_scooter", "fusion_lat": 0.0, "lat": 38.891951166666665, "name": "2c4a7d50b652f030fc490b92eaeacfaa", "fusion_lon": 0.0, "bike_id": "2c4a7d50b652f030fc490b92eaeacfaa", "is_disabled": 0, "is_reserved": 0}, {"rental_uris": {"ios": "https://dc.lft.to/lastmile_qr_scan", "android": "https://dc.lft.to/lastmile_qr_scan"}, "lon": -76.9859355, "type": "electric_bike", "fusion_lat": 0.0, "lat": 38.9062265, "name": "ce750d304e5cbf7d18e74bea96bb576a", "fusion_lon": 0.0, "bike_id": "ce750d304e5cbf7d18e74bea96bb576a", "is_disabled": 0, "is_reserved": 0}, {"rental_uris": {"ios": "https://dc.lft.to/lastmile_qr_scan", "android": "https://dc.lft.to/lastmile_qr_scan"}, "lon": -77.04262383333334, "type": "electric_scooter", "fusion_lat": 0.0, "lat": 38.920558, "name": "3845e496b15f050314ddc64257466d84", "fusion_lon": 0.0, "bike_id": "3845e496b15f050314ddc64257466d84", "is_disabled": 0, "is_reserved": 0}, {"rental_uris": {"ios": "https://dc.lft.to/lastmile_qr_scan", "android": "https://dc.lft.to/lastmile_qr_scan"}, "lon": -77.066341, "type": "electric_scooter", "fusion_lat": 0.0, "lat": 38.9280405, "name": "4a5c0e47afd26f90a37f388b69358399", "fusion_lon": 0.0, "bike_id": "4a5c0e47afd26f90a37f388b69358399", "is_disabled": 0, "is_reserved": 0}, {"rental_uris": {"ios": "https://dc.lft.to/lastmile_qr_scan", "android": "https://dc.lft.to/lastmile_qr_scan"}, "lon": -77.03566433333333, "type": "electric_scooter", "fusion_lat": 0.0, "lat": 38.918099166666664, "name": "14049eed538a3fba367f1f016d316b59", "fusion_lon": 0.0, "bike_id": "14049eed538a3fba367f1f016d316b59", "is_disabled": 0, "is_reserved": 0}, {"rental_uris": {"ios": "https://dc.lft.to/lastmile_qr_scan", "android": "https://dc.lft.to/lastmile_qr_scan"}, "lon": -77.00985683333333, "type": "electric_scooter", "fusion_lat": 0.0, "lat": 38.8729115, "name": "804726b843b8aae40a0a25911953875e", "fusion_lon": 0.0, "bike_id": "804726b843b8aae40a0a25911953875e", "is_disabled": 0, "is_reserved": 0}, {"rental_uris": {"ios": "https://dc.lft.to/lastmile_qr_scan", "android": "https://dc.lft.to/lastmile_qr_scan"}, "lon": -77.03663416666667, "type": "electric_scooter", "fusion_lat": 0.0, "lat": 38.92209783333333, "name": "d93e7c27576722344f6a9f15725bd168", "fusion_lon": 0.0, "bike_id": "d93e7c27576722344f6a9f15725bd168", "is_disabled": 0, "is_reserved": 0}, {"rental_uris": {"ios": "https://dc.lft.to/lastmile_qr_scan", "android": "https://dc.lft.to/lastmile_qr_scan"}, "lon": -77.04206766666667, "type": "electric_scooter", "fusion_lat": 0.0, "lat": 38.91103483333333, "name": "f078ae44215ef1cac456445f06c24e37", "fusion_lon": 0.0, "bike_id": "f078ae44215ef1cac456445f06c24e37", "is_disabled": 0, "is_reserved": 0}, {"rental_uris": {"ios": "https://dc.lft.to/lastmile_qr_scan", "android": "https://dc.lft.to/lastmile_qr_scan"}, "lon": -77.0700055, "type": "electric_bike", "fusion_lat": 0.0, "lat": 38.95504316666667, "name": "223f816e9d2f342a78937a8af61a4986", "fusion_lon": 0.0, "bike_id": "223f816e9d2f342a78937a8af61a4986", "is_disabled": 0, "is_reserved": 0}, {"rental_uris": {"ios": "https://dc.lft.to/lastmile_qr_scan", "android": "https://dc.lft.to/lastmile_qr_scan"}, "lon": -77.038591, "type": "electric_scooter", "fusion_lat": 0.0, "lat": 38.907712, "name": "cf1f01ff5eadf12329bf996143c0c935", "fusion_lon": 0.0, "bike_id": "cf1f01ff5eadf12329bf996143c0c935", "is_disabled": 0, "is_reserved": 0}, {"rental_uris": {"ios": "https://dc.lft.to/lastmile_qr_scan", "android": "https://dc.lft.to/lastmile_qr_scan"}, "lon": -77.10778816666667, "type": "electric_bike", "fusion_lat": 0.0, "lat": 38.8921675, "name": "a4d98629b88f2cda642ba11daf4e34cc", "fusion_lon": 0.0, "bike_id": "a4d98629b88f2cda642ba11daf4e34cc", "is_disabled": 0, "is_reserved": 0}, {"rental_uris": {"ios": "https://dc.lft.to/lastmile_qr_scan", "android": "https://dc.lft.to/lastmile_qr_scan"}, "lon": -76.98902583333333, "type": "electric_scooter", "fusion_lat": 0.0, "lat": 38.866919333333335, "name": "4929d85084491498a0a0d28d7c026aec", "fusion_lon": 0.0, "bike_id": "4929d85084491498a0a0d28d7c026aec", "is_disabled": 0, "is_reserved": 0}, {"rental_uris": {"ios": "https://dc.lft.to/lastmile_qr_scan", "android": "https://dc.lft.to/lastmile_qr_scan"}, "lon": -77.02228, "type": "electric_scooter", "fusion_lat": 0.0, "lat": 38.892194333333336, "name": "af0594bef7356e6c1f30bf65670e26a0", "fusion_lon": 0.0, "bike_id": "af0594bef7356e6c1f30bf65670e26a0", "is_disabled": 0, "is_reserved": 0}, {"rental_uris": {"ios": "https://dc.lft.to/lastmile_qr_scan", "android": "https://dc.lft.to/lastmile_qr_scan"}, "lon": -77.04028483333333, "type": "electric_scooter", "fusion_lat": 0.0, "lat": 38.918065, "name": "a4b5ad71bcff977541d70474da7e17e9", "fusion_lon": 0.0, "bike_id": "a4b5ad71bcff977541d70474da7e17e9", "is_disabled": 0, "is_reserved": 0}, {"rental_uris": {"ios": "https://dc.lft.to/lastmile_qr_scan", "android": "https://dc.lft.to/lastmile_qr_scan"}, "lon": -77.02172783333333, "type": "electric_scooter", "fusion_lat": 0.0, "lat": 38.94292766666667, "name": "ee89ce251434539ba13b5558259b4dff", "fusion_lon": 0.0, "bike_id": "ee89ce251434539ba13b5558259b4dff", "is_disabled": 0, "is_reserved": 0}, {"rental_uris": {"ios": "https://dc.lft.to/lastmile_qr_scan", "android": "https://dc.lft.to/lastmile_qr_scan"}, "lon": -77.03397333333334, "type": "electric_scooter", "fusion_lat": 0.0, "lat": 38.906117333333334, "name": "f987b2a9e20c7186e0b7d1de8d248565", "fusion_lon": 0.0, "bike_id": "f987b2a9e20c7186e0b7d1de8d248565", "is_disabled": 0, "is_reserved": 0}, {"rental_uris": {"ios": "https://dc.lft.to/lastmile_qr_scan", "android": "https://dc.lft.to/lastmile_qr_scan"}, "lon": -76.9895545, "type": "electric_scooter", "fusion_lat": 0.0, "lat": 38.901371833333336, "name": "d71f7fd97001c2410316e4e918d93afb", "fusion_lon": 0.0, "bike_id": "d71f7fd97001c2410316e4e918d93afb", "is_disabled": 0, "is_reserved": 0}, {"rental_uris": {"ios": "https://dc.lft.to/lastmile_qr_scan", "android": "https://dc.lft.to/lastmile_qr_scan"}, "lon": -77.042547, "type": "electric_scooter", "fusion_lat": 0.0, "lat": 38.9220785, "name": "0cbaf0f1cddb69a2b12a6682bd58ef7b", "fusion_lon": 0.0, "bike_id": "0cbaf0f1cddb69a2b12a6682bd58ef7b", "is_disabled": 0, "is_reserved": 0}, {"rental_uris": {"ios": "https://dc.lft.to/lastmile_qr_scan", "android": "https://dc.lft.to/lastmile_qr_scan"}, "lon": -77.01279616666666, "type": "electric_scooter", "fusion_lat": 0.0, "lat": 38.90611616666666, "name": "3e42693aeaf9124b67bd1c6ad465dbad", "fusion_lon": 0.0, "bike_id": "3e42693aeaf9124b67bd1c6ad465dbad", "is_disabled": 0, "is_reserved": 0}, {"rental_uris": {"ios": "https://dc.lft.to/lastmile_qr_scan", "android": "https://dc.lft.to/lastmile_qr_scan"}, "lon": -77.031854, "type": "electric_scooter", "fusion_lat": 0.0, "lat": 38.9076425, "name": "8fc9a0f484038eec0737a7267ae3753c", "fusion_lon": 0.0, "bike_id": "8fc9a0f484038eec0737a7267ae3753c", "is_disabled": 0, "is_reserved": 0}, {"rental_uris": {"ios": "https://dc.lft.to/lastmile_qr_scan", "android": "https://dc.lft.to/lastmile_qr_scan"}, "lon": -76.988446, "type": "electric_bike", "fusion_lat": 0.0, "lat": 38.842767333333335, "name": "ddd46f4566a065d4c920c3f7af1d7831", "fusion_lon": 0.0, "bike_id": "ddd46f4566a065d4c920c3f7af1d7831", "is_disabled": 0, "is_reserved": 0}, {"rental_uris": {"ios": "https://dc.lft.to/lastmile_qr_scan", "android": "https://dc.lft.to/lastmile_qr_scan"}, "lon": -77.0188185, "type": "electric_scooter", "fusion_lat": 0.0, "lat": 38.917476, "name": "8449d4e67309999e4ecdef9e99290190", "fusion_lon": 0.0, "bike_id": "8449d4e67309999e4ecdef9e99290190", "is_disabled": 0, "is_reserved": 0}, {"rental_uris": {"ios": "https://dc.lft.to/lastmile_qr_scan", "android": "https://dc.lft.to/lastmile_qr_scan"}, "lon": -77.0777535, "type": "electric_scooter", "fusion_lat": 0.0, "lat": 38.94559366666667, "name": "bf30421b5247be52c654174144572f1f", "fusion_lon": 0.0, "bike_id": "bf30421b5247be52c654174144572f1f", "is_disabled": 0, "is_reserved": 0}, {"rental_uris": {"ios": "https://dc.lft.to/lastmile_qr_scan", "android": "https://dc.lft.to/lastmile_qr_scan"}, "lon": -77.00562016666667, "type": "electric_scooter", "fusion_lat": 0.0, "lat": 38.879237333333336, "name": "a9c550254ffe3480b4262057fbbda2f5", "fusion_lon": 0.0, "bike_id": "a9c550254ffe3480b4262057fbbda2f5", "is_disabled": 0, "is_reserved": 0}, {"rental_uris": {"ios": "https://dc.lft.to/lastmile_qr_scan", "android": "https://dc.lft.to/lastmile_qr_scan"}, "lon": -77.03291766666666, "type": "electric_scooter", "fusion_lat": 0.0, "lat": 38.934898, "name": "cb30fdc03e9a36c8e5dc56af03acb0ac", "fusion_lon": 0.0, "bike_id": "cb30fdc03e9a36c8e5dc56af03acb0ac", "is_disabled": 0, "is_reserved": 0}, {"rental_uris": {"ios": "https://dc.lft.to/lastmile_qr_scan", "android": "https://dc.lft.to/lastmile_qr_scan"}, "lon": -77.00262716666667, "type": "electric_scooter", "fusion_lat": 0.0, "lat": 38.898968833333335, "name": "9cae6f84becbc37a33f0ced66728dc4a", "fusion_lon": 0.0, "bike_id": "9cae6f84becbc37a33f0ced66728dc4a", "is_disabled": 0, "is_reserved": 0}, {"rental_uris": {"ios": "https://dc.lft.to/lastmile_qr_scan", "android": "https://dc.lft.to/lastmile_qr_scan"}, "lon": -77.037941, "type": "electric_scooter", "fusion_lat": 0.0, "lat": 38.92624933333333, "name": "6347ac2ae6546cbf6b1893fe366314af", "fusion_lon": 0.0, "bike_id": "6347ac2ae6546cbf6b1893fe366314af", "is_disabled": 0, "is_reserved": 0}, {"rental_uris": {"ios": "https://dc.lft.to/lastmile_qr_scan", "android": "https://dc.lft.to/lastmile_qr_scan"}, "lon": -77.01078833333334, "type": "electric_bike", "fusion_lat": 0.0, "lat": 38.95655033333333, "name": "1bd65b394bbca8417f28b32673915d60", "fusion_lon": 0.0, "bike_id": "1bd65b394bbca8417f28b32673915d60", "is_disabled": 0, "is_reserved": 0}, {"rental_uris": {"ios": "https://dc.lft.to/lastmile_qr_scan", "android": "https://dc.lft.to/lastmile_qr_scan"}, "lon": -76.99627233333334, "type": "electric_scooter", "fusion_lat": 0.0, "lat": 38.87732966666667, "name": "a2fea571050da8beff65866aa26571f7", "fusion_lon": 0.0, "bike_id": "a2fea571050da8beff65866aa26571f7", "is_disabled": 0, "is_reserved": 0}, {"rental_uris": {"ios": "https://dc.lft.to/lastmile_qr_scan", "android": "https://dc.lft.to/lastmile_qr_scan"}, "lon": -77.04841, "type": "electric_scooter", "fusion_lat": 0.0, "lat": 38.9097585, "name": "25a14bd03bcd433e6f1d724d5773f589", "fusion_lon": 0.0, "bike_id": "25a14bd03bcd433e6f1d724d5773f589", "is_disabled": 0, "is_reserved": 0}, {"rental_uris": {"ios": "https://dc.lft.to/lastmile_qr_scan", "android": "https://dc.lft.to/lastmile_qr_scan"}, "lon": -76.99460633333334, "type": "electric_scooter", "fusion_lat": 0.0, "lat": 38.85162016666666, "name": "4b18fb213df0940ca14d422a8122083d", "fusion_lon": 0.0, "bike_id": "4b18fb213df0940ca14d422a8122083d", "is_disabled": 0, "is_reserved": 0}, {"rental_uris": {"ios": "https://dc.lft.to/lastmile_qr_scan", "android": "https://dc.lft.to/lastmile_qr_scan"}, "lon": -77.080479, "type": "electric_bike", "fusion_lat": 0.0, "lat": 38.8484595, "name": "ffd60f2b87a1fd4dcada2dfa60082e9a", "fusion_lon": 0.0, "bike_id": "ffd60f2b87a1fd4dcada2dfa60082e9a", "is_disabled": 0, "is_reserved": 0}, {"rental_uris": {"ios": "https://dc.lft.to/lastmile_qr_scan", "android": "https://dc.lft.to/lastmile_qr_scan"}, "lon": -76.95754466666666, "type": "electric_scooter", "fusion_lat": 0.0, "lat": 38.8842985, "name": "fc06fa59c83620f58fe2dfa74f8a0c5a", "fusion_lon": 0.0, "bike_id": "fc06fa59c83620f58fe2dfa74f8a0c5a", "is_disabled": 0, "is_reserved": 0}, {"rental_uris": {"ios": "https://dc.lft.to/lastmile_qr_scan", "android": "https://dc.lft.to/lastmile_qr_scan"}, "lon": -76.9396615, "type": "electric_scooter", "fusion_lat": 0.0, "lat": 38.899669, "name": "987c734aca7f161a0b8a38b4adb8af06", "fusion_lon": 0.0, "bike_id": "987c734aca7f161a0b8a38b4adb8af06", "is_disabled": 0, "is_reserved": 0}, {"rental_uris": {"ios": "https://dc.lft.to/lastmile_qr_scan", "android": "https://dc.lft.to/lastmile_qr_scan"}, "lon": -76.98611133333333, "type": "electric_scooter", "fusion_lat": 0.0, "lat": 38.87843133333333, "name": "001bae4515a8b45aedd7c0873a0bd6bb", "fusion_lon": 0.0, "bike_id": "001bae4515a8b45aedd7c0873a0bd6bb", "is_disabled": 0, "is_reserved": 0}, {"rental_uris": {"ios": "https://dc.lft.to/lastmile_qr_scan", "android": "https://dc.lft.to/lastmile_qr_scan"}, "lon": -77.05551083333333, "type": "electric_scooter", "fusion_lat": 0.0, "lat": 38.925292666666664, "name": "c5e1e5adeb7e9f8b451449d4d298bc31", "fusion_lon": 0.0, "bike_id": "c5e1e5adeb7e9f8b451449d4d298bc31", "is_disabled": 0, "is_reserved": 0}, {"rental_uris": {"ios": "https://dc.lft.to/lastmile_qr_scan", "android": "https://dc.lft.to/lastmile_qr_scan"}, "lon": -77.03644516666667, "type": "electric_scooter", "fusion_lat": 0.0, "lat": 38.92428233333333, "name": "dab07262d7eb82f9383901b4750f9905", "fusion_lon": 0.0, "bike_id": "dab07262d7eb82f9383901b4750f9905", "is_disabled": 0, "is_reserved": 0}, {"rental_uris": {"ios": "https://dc.lft.to/lastmile_qr_scan", "android": "https://dc.lft.to/lastmile_qr_scan"}, "lon": -77.03511366666666, "type": "electric_scooter", "fusion_lat": 0.0, "lat": 38.92339233333333, "name": "e2ffb36ed502e95bc69868c4093a6caf", "fusion_lon": 0.0, "bike_id": "e2ffb36ed502e95bc69868c4093a6caf", "is_disabled": 0, "is_reserved": 0}, {"rental_uris": {"ios": "https://dc.lft.to/lastmile_qr_scan", "android": "https://dc.lft.to/lastmile_qr_scan"}, "lon": -77.02620433333334, "type": "electric_scooter", "fusion_lat": 0.0, "lat": 38.91525883333333, "name": "dd8ef9fc20b5dbda714e62503d33eca9", "fusion_lon": 0.0, "bike_id": "dd8ef9fc20b5dbda714e62503d33eca9", "is_disabled": 0, "is_reserved": 0}, {"rental_uris": {"ios": "https://dc.lft.to/lastmile_qr_scan", "android": "https://dc.lft.to/lastmile_qr_scan"}, "lon": -76.98130966666666, "type": "electric_scooter", "fusion_lat": 0.0, "lat": 38.857132666666665, "name": "a4e358461c41d32b99bb32142e5fd778", "fusion_lon": 0.0, "bike_id": "a4e358461c41d32b99bb32142e5fd778", "is_disabled": 0, "is_reserved": 0}, {"rental_uris": {"ios": "https://dc.lft.to/lastmile_qr_scan", "android": "https://dc.lft.to/lastmile_qr_scan"}, "lon": -76.9874845, "type": "electric_scooter", "fusion_lat": 0.0, "lat": 38.91016583333333, "name": "6bbd2d3e81edc075175b2196c5eea76f", "fusion_lon": 0.0, "bike_id": "6bbd2d3e81edc075175b2196c5eea76f", "is_disabled": 0, "is_reserved": 0}, {"rental_uris": {"ios": "https://dc.lft.to/lastmile_qr_scan", "android": "https://dc.lft.to/lastmile_qr_scan"}, "lon": -77.038377, "type": "electric_scooter", "fusion_lat": 0.0, "lat": 38.907737, "name": "6345ccae4f1e918497f0669efd5b89ab", "fusion_lon": 0.0, "bike_id": "6345ccae4f1e918497f0669efd5b89ab", "is_disabled": 0, "is_reserved": 0}, {"rental_uris": {"ios": "https://dc.lft.to/lastmile_qr_scan", "android": "https://dc.lft.to/lastmile_qr_scan"}, "lon": -76.93865416666667, "type": "electric_scooter", "fusion_lat": 0.0, "lat": 38.9007915, "name": "bf08de0b0660eb1095b2c0326bde9ac9", "fusion_lon": 0.0, "bike_id": "bf08de0b0660eb1095b2c0326bde9ac9", "is_disabled": 0, "is_reserved": 0}, {"rental_uris": {"ios": "https://dc.lft.to/lastmile_qr_scan", "android": "https://dc.lft.to/lastmile_qr_scan"}, "lon": -77.05538316666667, "type": "electric_scooter", "fusion_lat": 0.0, "lat": 38.8999125, "name": "d69642c8c938ee0c8295abc7c7677db4", "fusion_lon": 0.0, "bike_id": "d69642c8c938ee0c8295abc7c7677db4", "is_disabled": 0, "is_reserved": 0}, {"rental_uris": {"ios": "https://dc.lft.to/lastmile_qr_scan", "android": "https://dc.lft.to/lastmile_qr_scan"}, "lon": -77.0356205, "type": "electric_scooter", "fusion_lat": 0.0, "lat": 38.939837833333335, "name": "75d46749ea8efeb2db1f5ccffc6dd680", "fusion_lon": 0.0, "bike_id": "75d46749ea8efeb2db1f5ccffc6dd680", "is_disabled": 0, "is_reserved": 0}, {"rental_uris": {"ios": "https://dc.lft.to/lastmile_qr_scan", "android": "https://dc.lft.to/lastmile_qr_scan"}, "lon": -77.05472066666667, "type": "electric_scooter", "fusion_lat": 0.0, "lat": 38.91067266666667, "name": "4ba03af776cfefea1d97cd500499b54d", "fusion_lon": 0.0, "bike_id": "4ba03af776cfefea1d97cd500499b54d", "is_disabled": 0, "is_reserved": 0}, {"rental_uris": {"ios": "https://dc.lft.to/lastmile_qr_scan", "android": "https://dc.lft.to/lastmile_qr_scan"}, "lon": -77.02416633333333, "type": "electric_scooter", "fusion_lat": 0.0, "lat": 38.926586, "name": "2731ab62660cf6b8d70c1bad6fd01850", "fusion_lon": 0.0, "bike_id": "2731ab62660cf6b8d70c1bad6fd01850", "is_disabled": 0, "is_reserved": 0}, {"rental_uris": {"ios": "https://dc.lft.to/lastmile_qr_scan", "android": "https://dc.lft.to/lastmile_qr_scan"}, "lon": -77.03564333333334, "type": "electric_scooter", "fusion_lat": 0.0, "lat": 38.91812133333333, "name": "64523489a315608cc3c66a57c13466db", "fusion_lon": 0.0, "bike_id": "64523489a315608cc3c66a57c13466db", "is_disabled": 0, "is_reserved": 0}, {"rental_uris": {"ios": "https://dc.lft.to/lastmile_qr_scan", "android": "https://dc.lft.to/lastmile_qr_scan"}, "lon": -77.03451, "type": "electric_scooter", "fusion_lat": 0.0, "lat": 38.91701533333333, "name": "5af28de9c646fee79e55020370ac6dcb", "fusion_lon": 0.0, "bike_id": "5af28de9c646fee79e55020370ac6dcb", "is_disabled": 0, "is_reserved": 0}, {"rental_uris": {"ios": "https://dc.lft.to/lastmile_qr_scan", "android": "https://dc.lft.to/lastmile_qr_scan"}, "lon": -77.02432183333333, "type": "electric_scooter", "fusion_lat": 0.0, "lat": 38.9071925, "name": "c00e75ce19f7ed6d4a93af2a776045bc", "fusion_lon": 0.0, "bike_id": "c00e75ce19f7ed6d4a93af2a776045bc", "is_disabled": 0, "is_reserved": 0}, {"rental_uris": {"ios": "https://dc.lft.to/lastmile_qr_scan", "android": "https://dc.lft.to/lastmile_qr_scan"}, "lon": -77.03583833333333, "type": "electric_scooter", "fusion_lat": 0.0, "lat": 38.907602833333335, "name": "bbb0d8c8ab7ae94a9511ae147fe91482", "fusion_lon": 0.0, "bike_id": "bbb0d8c8ab7ae94a9511ae147fe91482", "is_disabled": 0, "is_reserved": 0}, {"rental_uris": {"ios": "https://dc.lft.to/lastmile_qr_scan", "android": "https://dc.lft.to/lastmile_qr_scan"}, "lon": -76.97706366666667, "type": "electric_scooter", "fusion_lat": 0.0, "lat": 38.897121, "name": "6e19fc7c69c44350bc2a925810f937e2", "fusion_lon": 0.0, "bike_id": "6e19fc7c69c44350bc2a925810f937e2", "is_disabled": 0, "is_reserved": 0}, {"rental_uris": {"ios": "https://dc.lft.to/lastmile_qr_scan", "android": "https://dc.lft.to/lastmile_qr_scan"}, "lon": -77.03261166666667, "type": "electric_scooter", "fusion_lat": 0.0, "lat": 38.93739866666667, "name": "77e5008043d77c0f566b56f4029b1487", "fusion_lon": 0.0, "bike_id": "77e5008043d77c0f566b56f4029b1487", "is_disabled": 0, "is_reserved": 0}, {"rental_uris": {"ios": "https://dc.lft.to/lastmile_qr_scan", "android": "https://dc.lft.to/lastmile_qr_scan"}, "lon": -77.0488385, "type": "electric_scooter", "fusion_lat": 0.0, "lat": 38.8967215, "name": "2c0e2427a114c4d861b12c902ad0fe92", "fusion_lon": 0.0, "bike_id": "2c0e2427a114c4d861b12c902ad0fe92", "is_disabled": 0, "is_reserved": 0}, {"rental_uris": {"ios": "https://dc.lft.to/lastmile_qr_scan", "android": "https://dc.lft.to/lastmile_qr_scan"}, "lon": -77.03518116666666, "type": "electric_scooter", "fusion_lat": 0.0, "lat": 38.900370333333335, "name": "34c9a8aa73f69507f7a84000b51120b3", "fusion_lon": 0.0, "bike_id": "34c9a8aa73f69507f7a84000b51120b3", "is_disabled": 0, "is_reserved": 0}, {"rental_uris": {"ios": "https://dc.lft.to/lastmile_qr_scan", "android": "https://dc.lft.to/lastmile_qr_scan"}, "lon": -77.022276, "type": "electric_scooter", "fusion_lat": 0.0, "lat": 38.91272416666666, "name": "f6f8cb576893b2ed26502c19692f37e8", "fusion_lon": 0.0, "bike_id": "f6f8cb576893b2ed26502c19692f37e8", "is_disabled": 0, "is_reserved": 0}, {"rental_uris": {"ios": "https://dc.lft.to/lastmile_qr_scan", "android": "https://dc.lft.to/lastmile_qr_scan"}, "lon": -76.946378, "type": "electric_scooter", "fusion_lat": 0.0, "lat": 38.898456833333334, "name": "4e4c0a11e129b6eab3cb1f0e8acef375", "fusion_lon": 0.0, "bike_id": "4e4c0a11e129b6eab3cb1f0e8acef375", "is_disabled": 0, "is_reserved": 0}, {"rental_uris": {"ios": "https://dc.lft.to/lastmile_qr_scan", "android": "https://dc.lft.to/lastmile_qr_scan"}, "lon": -76.9599075, "type": "electric_scooter", "fusion_lat": 0.0, "lat": 38.88046966666667, "name": "23aa0bc0d493cd972596be92c80d6062", "fusion_lon": 0.0, "bike_id": "23aa0bc0d493cd972596be92c80d6062", "is_disabled": 0, "is_reserved": 0}, {"rental_uris": {"ios": "https://dc.lft.to/lastmile_qr_scan", "android": "https://dc.lft.to/lastmile_qr_scan"}, "lon": -77.12965116666666, "type": "electric_bike", "fusion_lat": 0.0, "lat": 38.852175833333334, "name": "99428f6e32446e270644d24410ea7b2d", "fusion_lon": 0.0, "bike_id": "99428f6e32446e270644d24410ea7b2d", "is_disabled": 0, "is_reserved": 0}, {"rental_uris": {"ios": "https://dc.lft.to/lastmile_qr_scan", "android": "https://dc.lft.to/lastmile_qr_scan"}, "lon": -77.03058316666667, "type": "electric_scooter", "fusion_lat": 0.0, "lat": 38.917161166666666, "name": "ddab389bb58faa7075c909036847a11c", "fusion_lon": 0.0, "bike_id": "ddab389bb58faa7075c909036847a11c", "is_disabled": 0, "is_reserved": 0}, {"rental_uris": {"ios": "https://dc.lft.to/lastmile_qr_scan", "android": "https://dc.lft.to/lastmile_qr_scan"}, "lon": -76.99705166666666, "type": "electric_scooter", "fusion_lat": 0.0, "lat": 38.90112166666667, "name": "92092e2fcbbc4624af63d7388acd2c00", "fusion_lon": 0.0, "bike_id": "92092e2fcbbc4624af63d7388acd2c00", "is_disabled": 0, "is_reserved": 0}, {"rental_uris": {"ios": "https://dc.lft.to/lastmile_qr_scan", "android": "https://dc.lft.to/lastmile_qr_scan"}, "lon": -76.94751183333334, "type": "electric_scooter", "fusion_lat": 0.0, "lat": 38.900521499999996, "name": "b310e7b219c6d367ba113a024515333a", "fusion_lon": 0.0, "bike_id": "b310e7b219c6d367ba113a024515333a", "is_disabled": 0, "is_reserved": 0}, {"rental_uris": {"ios": "https://dc.lft.to/lastmile_qr_scan", "android": "https://dc.lft.to/lastmile_qr_scan"}, "lon": -77.0019635, "type": "electric_scooter", "fusion_lat": 0.0, "lat": 38.899945, "name": "3581eff6285439f7727bb56b2c315f18", "fusion_lon": 0.0, "bike_id": "3581eff6285439f7727bb56b2c315f18", "is_disabled": 0, "is_reserved": 0}, {"rental_uris": {"ios": "https://dc.lft.to/lastmile_qr_scan", "android": "https://dc.lft.to/lastmile_qr_scan"}, "lon": -76.97294183333334, "type": "electric_scooter", "fusion_lat": 0.0, "lat": 38.90338883333333, "name": "b571f560047c11555b964160c2b0e7ab", "fusion_lon": 0.0, "bike_id": "b571f560047c11555b964160c2b0e7ab", "is_disabled": 0, "is_reserved": 0}, {"rental_uris": {"ios": "https://dc.lft.to/lastmile_qr_scan", "android": "https://dc.lft.to/lastmile_qr_scan"}, "lon": -76.93226333333334, "type": "electric_bike", "fusion_lat": 0.0, "lat": 38.8659485, "name": "330fac60230aa1afa432a57538d169cc", "fusion_lon": 0.0, "bike_id": "330fac60230aa1afa432a57538d169cc", "is_disabled": 0, "is_reserved": 0}, {"rental_uris": {"ios": "https://dc.lft.to/lastmile_qr_scan", "android": "https://dc.lft.to/lastmile_qr_scan"}, "lon": -77.02609316666667, "type": "electric_bike", "fusion_lat": 0.0, "lat": 38.96262516666667, "name": "8e722e4e35e9a7bc4865ae3ead807823", "fusion_lon": 0.0, "bike_id": "8e722e4e35e9a7bc4865ae3ead807823", "is_disabled": 0, "is_reserved": 0}, {"rental_uris": {"ios": "https://dc.lft.to/lastmile_qr_scan", "android": "https://dc.lft.to/lastmile_qr_scan"}, "lon": -77.00190333333333, "type": "electric_scooter", "fusion_lat": 0.0, "lat": 38.90038533333333, "name": "b68257b5d193a84038e33316ee7e3753", "fusion_lon": 0.0, "bike_id": "b68257b5d193a84038e33316ee7e3753", "is_disabled": 0, "is_reserved": 0}, {"rental_uris": {"ios": "https://dc.lft.to/lastmile_qr_scan", "android": "https://dc.lft.to/lastmile_qr_scan"}, "lon": -77.06605933333333, "type": "electric_scooter", "fusion_lat": 0.0, "lat": 38.90585133333333, "name": "1c31c86d1ff630e79f008a67c4d29304", "fusion_lon": 0.0, "bike_id": "1c31c86d1ff630e79f008a67c4d29304", "is_disabled": 0, "is_reserved": 0}, {"rental_uris": {"ios": "https://dc.lft.to/lastmile_qr_scan", "android": "https://dc.lft.to/lastmile_qr_scan"}, "lon": -77.05474916666667, "type": "electric_scooter", "fusion_lat": 0.0, "lat": 38.893906333333334, "name": "8d0a3e3b132592b68031846cfe0b2f8d", "fusion_lon": 0.0, "bike_id": "8d0a3e3b132592b68031846cfe0b2f8d", "is_disabled": 0, "is_reserved": 0}, {"rental_uris": {"ios": "https://dc.lft.to/lastmile_qr_scan", "android": "https://dc.lft.to/lastmile_qr_scan"}, "lon": -76.98377633333334, "type": "electric_scooter", "fusion_lat": 0.0, "lat": 38.8955585, "name": "697bcabb29e752b6f581cc2a9352f50f", "fusion_lon": 0.0, "bike_id": "697bcabb29e752b6f581cc2a9352f50f", "is_disabled": 0, "is_reserved": 0}, {"rental_uris": {"ios": "https://dc.lft.to/lastmile_qr_scan", "android": "https://dc.lft.to/lastmile_qr_scan"}, "lon": -77.031839, "type": "electric_scooter", "fusion_lat": 0.0, "lat": 38.896006666666665, "name": "c41e8bfb631706f347d6b4c06e4784cd", "fusion_lon": 0.0, "bike_id": "c41e8bfb631706f347d6b4c06e4784cd", "is_disabled": 0, "is_reserved": 0}, {"rental_uris": {"ios": "https://dc.lft.to/lastmile_qr_scan", "android": "https://dc.lft.to/lastmile_qr_scan"}, "lon": -77.0089375, "type": "electric_scooter", "fusion_lat": 0.0, "lat": 38.9123495, "name": "0472bbb9f28e300ab256d39a5d8b428e", "fusion_lon": 0.0, "bike_id": "0472bbb9f28e300ab256d39a5d8b428e", "is_disabled": 0, "is_reserved": 0}, {"rental_uris": {"ios": "https://dc.lft.to/lastmile_qr_scan", "android": "https://dc.lft.to/lastmile_qr_scan"}, "lon": -76.931763, "type": "electric_scooter", "fusion_lat": 0.0, "lat": 38.898846, "name": "632106c33a0a6a597dce366eb0115ec4", "fusion_lon": 0.0, "bike_id": "632106c33a0a6a597dce366eb0115ec4", "is_disabled": 0, "is_reserved": 0}, {"rental_uris": {"ios": "https://dc.lft.to/lastmile_qr_scan", "android": "https://dc.lft.to/lastmile_qr_scan"}, "lon": -76.927114, "type": "electric_scooter", "fusion_lat": 0.0, "lat": 38.887683333333335, "name": "aaa84dacbc8d9dcfc977399909b88615", "fusion_lon": 0.0, "bike_id": "aaa84dacbc8d9dcfc977399909b88615", "is_disabled": 0, "is_reserved": 0}, {"rental_uris": {"ios": "https://dc.lft.to/lastmile_qr_scan", "android": "https://dc.lft.to/lastmile_qr_scan"}, "lon": -77.01578033333334, "type": "electric_scooter", "fusion_lat": 0.0, "lat": 38.91684166666667, "name": "9d97b46616c62ed7f26243968c5aea4d", "fusion_lon": 0.0, "bike_id": "9d97b46616c62ed7f26243968c5aea4d", "is_disabled": 0, "is_reserved": 0}, {"rental_uris": {"ios": "https://dc.lft.to/lastmile_qr_scan", "android": "https://dc.lft.to/lastmile_qr_scan"}, "lon": -77.03129916666667, "type": "electric_scooter", "fusion_lat": 0.0, "lat": 38.9237705, "name": "58cdc3ce6c9a9d34b7b5ad3ec1d33c2f", "fusion_lon": 0.0, "bike_id": "58cdc3ce6c9a9d34b7b5ad3ec1d33c2f", "is_disabled": 0, "is_reserved": 0}, {"rental_uris": {"ios": "https://dc.lft.to/lastmile_qr_scan", "android": "https://dc.lft.to/lastmile_qr_scan"}, "lon": -76.98715383333334, "type": "electric_scooter", "fusion_lat": 0.0, "lat": 38.867007666666666, "name": "057de4c72243d1aeedf6074f52b9f90e", "fusion_lon": 0.0, "bike_id": "057de4c72243d1aeedf6074f52b9f90e", "is_disabled": 0, "is_reserved": 0}, {"rental_uris": {"ios": "https://dc.lft.to/lastmile_qr_scan", "android": "https://dc.lft.to/lastmile_qr_scan"}, "lon": -77.0356415, "type": "electric_scooter", "fusion_lat": 0.0, "lat": 38.918085, "name": "f85eb8223eaa2d525bcffe5e33c6c3c3", "fusion_lon": 0.0, "bike_id": "f85eb8223eaa2d525bcffe5e33c6c3c3", "is_disabled": 0, "is_reserved": 0}, {"rental_uris": {"ios": "https://dc.lft.to/lastmile_qr_scan", "android": "https://dc.lft.to/lastmile_qr_scan"}, "lon": -77.03241883333334, "type": "electric_scooter", "fusion_lat": 0.0, "lat": 38.92763633333333, "name": "95ef73acb7c5151a1ced614cc7555c32", "fusion_lon": 0.0, "bike_id": "95ef73acb7c5151a1ced614cc7555c32", "is_disabled": 0, "is_reserved": 0}, {"rental_uris": {"ios": "https://dc.lft.to/lastmile_qr_scan", "android": "https://dc.lft.to/lastmile_qr_scan"}, "lon": -77.07163166666666, "type": "electric_scooter", "fusion_lat": 0.0, "lat": 38.914563666666666, "name": "0e12a932bd5357ef43eacbd0211b5f59", "fusion_lon": 0.0, "bike_id": "0e12a932bd5357ef43eacbd0211b5f59", "is_disabled": 0, "is_reserved": 0}, {"rental_uris": {"ios": "https://dc.lft.to/lastmile_qr_scan", "android": "https://dc.lft.to/lastmile_qr_scan"}, "lon": -77.04349433333333, "type": "electric_scooter", "fusion_lat": 0.0, "lat": 38.896501666666666, "name": "266949eb11c4ad03c6a74d2b8bbf7587", "fusion_lon": 0.0, "bike_id": "266949eb11c4ad03c6a74d2b8bbf7587", "is_disabled": 0, "is_reserved": 0}, {"rental_uris": {"ios": "https://dc.lft.to/lastmile_qr_scan", "android": "https://dc.lft.to/lastmile_qr_scan"}, "lon": -77.027134, "type": "electric_scooter", "fusion_lat": 0.0, "lat": 38.934610666666664, "name": "f9f1f86d200a87c4dcd99d942c3f312a", "fusion_lon": 0.0, "bike_id": "f9f1f86d200a87c4dcd99d942c3f312a", "is_disabled": 0, "is_reserved": 0}, {"rental_uris": {"ios": "https://dc.lft.to/lastmile_qr_scan", "android": "https://dc.lft.to/lastmile_qr_scan"}, "lon": -77.02330883333333, "type": "electric_scooter", "fusion_lat": 0.0, "lat": 38.93782233333334, "name": "98adf1752d7a8321f2e4e3b870f05b46", "fusion_lon": 0.0, "bike_id": "98adf1752d7a8321f2e4e3b870f05b46", "is_disabled": 0, "is_reserved": 0}, {"rental_uris": {"ios": "https://dc.lft.to/lastmile_qr_scan", "android": "https://dc.lft.to/lastmile_qr_scan"}, "lon": -77.03666966666667, "type": "electric_scooter", "fusion_lat": 0.0, "lat": 38.902733833333336, "name": "e0b89f53903fc8d6abfa8ece2a26297e", "fusion_lon": 0.0, "bike_id": "e0b89f53903fc8d6abfa8ece2a26297e", "is_disabled": 0, "is_reserved": 0}, {"rental_uris": {"ios": "https://dc.lft.to/lastmile_qr_scan", "android": "https://dc.lft.to/lastmile_qr_scan"}, "lon": -77.02905466666667, "type": "electric_scooter", "fusion_lat": 0.0, "lat": 38.886202, "name": "eecb297e99e5c8ac0c1fabf7fe1c2dbe", "fusion_lon": 0.0, "bike_id": "eecb297e99e5c8ac0c1fabf7fe1c2dbe", "is_disabled": 0, "is_reserved": 0}, {"rental_uris": {"ios": "https://dc.lft.to/lastmile_qr_scan", "android": "https://dc.lft.to/lastmile_qr_scan"}, "lon": -77.00787183333334, "type": "electric_scooter", "fusion_lat": 0.0, "lat": 38.9065525, "name": "44b7fced6ab739477213e8318c35063c", "fusion_lon": 0.0, "bike_id": "44b7fced6ab739477213e8318c35063c", "is_disabled": 0, "is_reserved": 0}, {"rental_uris": {"ios": "https://dc.lft.to/lastmile_qr_scan", "android": "https://dc.lft.to/lastmile_qr_scan"}, "lon": -77.01364, "type": "electric_scooter", "fusion_lat": 0.0, "lat": 38.863747000000004, "name": "fcb09531a33da72f098cb1a746155a92", "fusion_lon": 0.0, "bike_id": "fcb09531a33da72f098cb1a746155a92", "is_disabled": 0, "is_reserved": 0}, {"rental_uris": {"ios": "https://dc.lft.to/lastmile_qr_scan", "android": "https://dc.lft.to/lastmile_qr_scan"}, "lon": -77.06945816666666, "type": "electric_scooter", "fusion_lat": 0.0, "lat": 38.905174833333334, "name": "83532469776723d2611005990c23cee8", "fusion_lon": 0.0, "bike_id": "83532469776723d2611005990c23cee8", "is_disabled": 0, "is_reserved": 0}, {"rental_uris": {"ios": "https://dc.lft.to/lastmile_qr_scan", "android": "https://dc.lft.to/lastmile_qr_scan"}, "lon": -77.04203216666667, "type": "electric_scooter", "fusion_lat": 0.0, "lat": 38.911042, "name": "a5f364eff0da0041ab3cf58a3a242ae5", "fusion_lon": 0.0, "bike_id": "a5f364eff0da0041ab3cf58a3a242ae5", "is_disabled": 0, "is_reserved": 0}, {"rental_uris": {"ios": "https://dc.lft.to/lastmile_qr_scan", "android": "https://dc.lft.to/lastmile_qr_scan"}, "lon": -77.04868216666667, "type": "electric_scooter", "fusion_lat": 0.0, "lat": 38.892241, "name": "8e8650e599ec997a7eba80d6df48f61a", "fusion_lon": 0.0, "bike_id": "8e8650e599ec997a7eba80d6df48f61a", "is_disabled": 0, "is_reserved": 0}, {"rental_uris": {"ios": "https://dc.lft.to/lastmile_qr_scan", "android": "https://dc.lft.to/lastmile_qr_scan"}, "lon": -77.04816816666667, "type": "electric_scooter", "fusion_lat": 0.0, "lat": 38.91332166666667, "name": "7e0b0ae4e615adf612b84ad4cc4e5f70", "fusion_lon": 0.0, "bike_id": "7e0b0ae4e615adf612b84ad4cc4e5f70", "is_disabled": 0, "is_reserved": 0}, {"rental_uris": {"ios": "https://dc.lft.to/lastmile_qr_scan", "android": "https://dc.lft.to/lastmile_qr_scan"}, "lon": -77.03476166666667, "type": "electric_scooter", "fusion_lat": 0.0, "lat": 38.93045266666667, "name": "f8701dab0db9344a642d0137c1d5d63e", "fusion_lon": 0.0, "bike_id": "f8701dab0db9344a642d0137c1d5d63e", "is_disabled": 0, "is_reserved": 0}, {"rental_uris": {"ios": "https://dc.lft.to/lastmile_qr_scan", "android": "https://dc.lft.to/lastmile_qr_scan"}, "lon": -77.02153466666667, "type": "electric_scooter", "fusion_lat": 0.0, "lat": 38.8972405, "name": "b28e3ddc93b5339231cbe6f67cba1b16", "fusion_lon": 0.0, "bike_id": "b28e3ddc93b5339231cbe6f67cba1b16", "is_disabled": 0, "is_reserved": 0}, {"rental_uris": {"ios": "https://dc.lft.to/lastmile_qr_scan", "android": "https://dc.lft.to/lastmile_qr_scan"}, "lon": -77.04527966666667, "type": "electric_scooter", "fusion_lat": 0.0, "lat": 38.90380783333333, "name": "34236a09e8ccac3d0429cface1c6e73d", "fusion_lon": 0.0, "bike_id": "34236a09e8ccac3d0429cface1c6e73d", "is_disabled": 0, "is_reserved": 0}, {"rental_uris": {"ios": "https://dc.lft.to/lastmile_qr_scan", "android": "https://dc.lft.to/lastmile_qr_scan"}, "lon": -77.00569766666666, "type": "electric_scooter", "fusion_lat": 0.0, "lat": 38.90335416666667, "name": "457f76e14281ae7eca9f63bedfbcba19", "fusion_lon": 0.0, "bike_id": "457f76e14281ae7eca9f63bedfbcba19", "is_disabled": 0, "is_reserved": 0}, {"rental_uris": {"ios": "https://dc.lft.to/lastmile_qr_scan", "android": "https://dc.lft.to/lastmile_qr_scan"}, "lon": -77.02697516666667, "type": "electric_scooter", "fusion_lat": 0.0, "lat": 38.92598983333333, "name": "8dc390b24258ba8fb9754eaa2ca7b2e2", "fusion_lon": 0.0, "bike_id": "8dc390b24258ba8fb9754eaa2ca7b2e2", "is_disabled": 0, "is_reserved": 0}, {"rental_uris": {"ios": "https://dc.lft.to/lastmile_qr_scan", "android": "https://dc.lft.to/lastmile_qr_scan"}, "lon": -77.02832783333334, "type": "electric_scooter", "fusion_lat": 0.0, "lat": 38.931891, "name": "32058fdf11255670e30d9b76114d630a", "fusion_lon": 0.0, "bike_id": "32058fdf11255670e30d9b76114d630a", "is_disabled": 0, "is_reserved": 0}, {"rental_uris": {"ios": "https://dc.lft.to/lastmile_qr_scan", "android": "https://dc.lft.to/lastmile_qr_scan"}, "lon": -77.02473233333333, "type": "electric_scooter", "fusion_lat": 0.0, "lat": 38.93097233333334, "name": "6e8925c53745f5e5bd5820264084dad3", "fusion_lon": 0.0, "bike_id": "6e8925c53745f5e5bd5820264084dad3", "is_disabled": 0, "is_reserved": 0}, {"rental_uris": {"ios": "https://dc.lft.to/lastmile_qr_scan", "android": "https://dc.lft.to/lastmile_qr_scan"}, "lon": -76.96058233333333, "type": "electric_bike", "fusion_lat": 0.0, "lat": 38.8840605, "name": "403c582ad220106b610e728960fa533a", "fusion_lon": 0.0, "bike_id": "403c582ad220106b610e728960fa533a", "is_disabled": 0, "is_reserved": 0}, {"rental_uris": {"ios": "https://dc.lft.to/lastmile_qr_scan", "android": "https://dc.lft.to/lastmile_qr_scan"}, "lon": -77.01132083333333, "type": "electric_scooter", "fusion_lat": 0.0, "lat": 38.895371833333336, "name": "644b2f83cdab7c101ce00470cc6f15f2", "fusion_lon": 0.0, "bike_id": "644b2f83cdab7c101ce00470cc6f15f2", "is_disabled": 0, "is_reserved": 0}, {"rental_uris": {"ios": "https://dc.lft.to/lastmile_qr_scan", "android": "https://dc.lft.to/lastmile_qr_scan"}, "lon": -76.908172, "type": "electric_bike", "fusion_lat": 0.0, "lat": 38.9945605, "name": "abcb47f1004eaf1c0ce59ed5d90a741a", "fusion_lon": 0.0, "bike_id": "abcb47f1004eaf1c0ce59ed5d90a741a", "is_disabled": 0, "is_reserved": 0}, {"rental_uris": {"ios": "https://dc.lft.to/lastmile_qr_scan", "android": "https://dc.lft.to/lastmile_qr_scan"}, "lon": -76.9893295, "type": "electric_bike", "fusion_lat": 0.0, "lat": 38.928628333333336, "name": "a53f45082da1784622b97d4682b82dde", "fusion_lon": 0.0, "bike_id": "a53f45082da1784622b97d4682b82dde", "is_disabled": 0, "is_reserved": 0}, {"rental_uris": {"ios": "https://dc.lft.to/lastmile_qr_scan", "android": "https://dc.lft.to/lastmile_qr_scan"}, "lon": -77.08195483333333, "type": "electric_scooter", "fusion_lat": 0.0, "lat": 38.94928316666667, "name": "3e94af0238bc0d843b8038bac0825624", "fusion_lon": 0.0, "bike_id": "3e94af0238bc0d843b8038bac0825624", "is_disabled": 0, "is_reserved": 0}, {"rental_uris": {"ios": "https://dc.lft.to/lastmile_qr_scan", "android": "https://dc.lft.to/lastmile_qr_scan"}, "lon": -77.05233083333333, "type": "electric_scooter", "fusion_lat": 0.0, "lat": 38.89810216666667, "name": "6d43c3a33e05deedc7336e75b2c04ec3", "fusion_lon": 0.0, "bike_id": "6d43c3a33e05deedc7336e75b2c04ec3", "is_disabled": 0, "is_reserved": 0}, {"rental_uris": {"ios": "https://dc.lft.to/lastmile_qr_scan", "android": "https://dc.lft.to/lastmile_qr_scan"}, "lon": -77.00941166666667, "type": "electric_scooter", "fusion_lat": 0.0, "lat": 38.87195716666667, "name": "ce0e1b592d7a0923e15839ad0b46ca85", "fusion_lon": 0.0, "bike_id": "ce0e1b592d7a0923e15839ad0b46ca85", "is_disabled": 0, "is_reserved": 0}, {"rental_uris": {"ios": "https://dc.lft.to/lastmile_qr_scan", "android": "https://dc.lft.to/lastmile_qr_scan"}, "lon": -76.99061483333334, "type": "electric_scooter", "fusion_lat": 0.0, "lat": 38.8635815, "name": "b97a16ff5fdc4b0025c3d1dcb718a491", "fusion_lon": 0.0, "bike_id": "b97a16ff5fdc4b0025c3d1dcb718a491", "is_disabled": 0, "is_reserved": 0}, {"rental_uris": {"ios": "https://dc.lft.to/lastmile_qr_scan", "android": "https://dc.lft.to/lastmile_qr_scan"}, "lon": -76.95467283333333, "type": "electric_bike", "fusion_lat": 0.0, "lat": 38.8864335, "name": "d91192bc5af9527a1cac8a4b2e4899da", "fusion_lon": 0.0, "bike_id": "d91192bc5af9527a1cac8a4b2e4899da", "is_disabled": 0, "is_reserved": 0}, {"rental_uris": {"ios": "https://dc.lft.to/lastmile_qr_scan", "android": "https://dc.lft.to/lastmile_qr_scan"}, "lon": -77.01513433333334, "type": "electric_scooter", "fusion_lat": 0.0, "lat": 38.88740133333334, "name": "384962b16935c1151735b7416f718001", "fusion_lon": 0.0, "bike_id": "384962b16935c1151735b7416f718001", "is_disabled": 0, "is_reserved": 0}, {"rental_uris": {"ios": "https://dc.lft.to/lastmile_qr_scan", "android": "https://dc.lft.to/lastmile_qr_scan"}, "lon": -76.98790966666667, "type": "electric_bike", "fusion_lat": 0.0, "lat": 38.904228833333335, "name": "6b9e5832e9b5a88cc6a0ef2494e25e9d", "fusion_lon": 0.0, "bike_id": "6b9e5832e9b5a88cc6a0ef2494e25e9d", "is_disabled": 0, "is_reserved": 0}, {"rental_uris": {"ios": "https://dc.lft.to/lastmile_qr_scan", "android": "https://dc.lft.to/lastmile_qr_scan"}, "lon": -76.983435, "type": "electric_scooter", "fusion_lat": 0.0, "lat": 38.91542116666667, "name": "381d27ddf0c74e6b30219e9fc0d27d59", "fusion_lon": 0.0, "bike_id": "381d27ddf0c74e6b30219e9fc0d27d59", "is_disabled": 0, "is_reserved": 0}, {"rental_uris": {"ios": "https://dc.lft.to/lastmile_qr_scan", "android": "https://dc.lft.to/lastmile_qr_scan"}, "lon": -77.02226933333333, "type": "electric_scooter", "fusion_lat": 0.0, "lat": 38.91269533333333, "name": "7d692b398432d39a3d5be8c1549b41c1", "fusion_lon": 0.0, "bike_id": "7d692b398432d39a3d5be8c1549b41c1", "is_disabled": 0, "is_reserved": 0}, {"rental_uris": {"ios": "https://dc.lft.to/lastmile_qr_scan", "android": "https://dc.lft.to/lastmile_qr_scan"}, "lon": -76.97458033333334, "type": "electric_scooter", "fusion_lat": 0.0, "lat": 38.86541166666667, "name": "24a1c8c94032b71b0a1527a2f65b7f90", "fusion_lon": 0.0, "bike_id": "24a1c8c94032b71b0a1527a2f65b7f90", "is_disabled": 0, "is_reserved": 0}, {"rental_uris": {"ios": "https://dc.lft.to/lastmile_qr_scan", "android": "https://dc.lft.to/lastmile_qr_scan"}, "lon": -77.03210866666667, "type": "electric_scooter", "fusion_lat": 0.0, "lat": 38.90042233333333, "name": "537327f88d8539093c3b1a82d0d042ad", "fusion_lon": 0.0, "bike_id": "537327f88d8539093c3b1a82d0d042ad", "is_disabled": 0, "is_reserved": 0}, {"rental_uris": {"ios": "https://dc.lft.to/lastmile_qr_scan", "android": "https://dc.lft.to/lastmile_qr_scan"}, "lon": -77.1179925, "type": "electric_bike", "fusion_lat": 0.0, "lat": 38.89835866666667, "name": "28dc80f3e75d6340c9c53f69fbb04905", "fusion_lon": 0.0, "bike_id": "28dc80f3e75d6340c9c53f69fbb04905", "is_disabled": 0, "is_reserved": 0}, {"rental_uris": {"ios": "https://dc.lft.to/lastmile_qr_scan", "android": "https://dc.lft.to/lastmile_qr_scan"}, "lon": -77.03407066666666, "type": "electric_scooter", "fusion_lat": 0.0, "lat": 38.92152816666667, "name": "24d0e2f3e4d40117327b19dbad5ef0e7", "fusion_lon": 0.0, "bike_id": "24d0e2f3e4d40117327b19dbad5ef0e7", "is_disabled": 0, "is_reserved": 0}, {"rental_uris": {"ios": "https://dc.lft.to/lastmile_qr_scan", "android": "https://dc.lft.to/lastmile_qr_scan"}, "lon": -77.02712033333333, "type": "electric_scooter", "fusion_lat": 0.0, "lat": 38.91822783333333, "name": "a4b8cd8fad64a6a4ca3dcafc0254113d", "fusion_lon": 0.0, "bike_id": "a4b8cd8fad64a6a4ca3dcafc0254113d", "is_disabled": 0, "is_reserved": 0}, {"rental_uris": {"ios": "https://dc.lft.to/lastmile_qr_scan", "android": "https://dc.lft.to/lastmile_qr_scan"}, "lon": -77.02966883333333, "type": "electric_scooter", "fusion_lat": 0.0, "lat": 38.9256865, "name": "cb3819ff484499546b69ebd04407024f", "fusion_lon": 0.0, "bike_id": "cb3819ff484499546b69ebd04407024f", "is_disabled": 0, "is_reserved": 0}, {"rental_uris": {"ios": "https://dc.lft.to/lastmile_qr_scan", "android": "https://dc.lft.to/lastmile_qr_scan"},