{"data": {"bikes": [{"fusion_lat": 0.0, "name": "0be690474b5774ebff6bf13fa05d704f", "is_disabled": 0, "rental_uris": {"android": "https://dc.lft.to/lastmile_qr_scan", "ios": "https://dc.lft.to/lastmile_qr_scan"}, "fusion_lon": 0.0, "lat": 38.885216, "bike_id": "0be690474b5774ebff6bf13fa05d704f", "type": "electric_scooter", "is_reserved": 0, "lon": -76.92919516666667}, {"fusion_lat": 0.0, "name": "5e6cdd79a90a0a76e02373bd6abbcdab", "is_disabled": 0, "rental_uris": {"android": "https://dc.lft.to/lastmile_qr_scan", "ios": "https://dc.lft.to/lastmile_qr_scan"}, "fusion_lon": 0.0, "lat": 38.90041733333333, "bike_id": "5e6cdd79a90a0a76e02373bd6abbcdab", "type": "electric_scooter", "is_reserved": 0, "lon": -77.03502516666667}, {"fusion_lat": 0.0, "name": "dcc629e34e7a27f98991dbbc4962542c", "is_disabled": 0, "rental_uris": {"android": "https://dc.lft.to/lastmile_qr_scan", "ios": "https://dc.lft.to/lastmile_qr_scan"}, "fusion_lon": 0.0, "lat": 38.89826133333333, "bike_id": "dcc629e34e7a27f98991dbbc4962542c", "type": "electric_scooter", "is_reserved": 0, "lon": -76.94654216666666}, {"fusion_lat": 0.0, "name": "95aab335d57918319a0c04069092a134", "is_disabled": 0, "rental_uris": {"android": "https://dc.lft.to/lastmile_qr_scan", "ios": "https://dc.lft.to/lastmile_qr_scan"}, "fusion_lon": 0.0, "lat": 38.8991315, "bike_id": "95aab335d57918319a0c04069092a134", "type": "electric_scooter", "is_reserved": 0, "lon": -76.93350283333334}, {"fusion_lat": 0.0, "name": "4387faf0bf6e055e6929db658dcc203f", "is_disabled": 0, "rental_uris": {"android": "https://dc.lft.to/lastmile_qr_scan", "ios": "https://dc.lft.to/lastmile_qr_scan"}, "fusion_lon": 0.0, "lat": 38.95054016666667, "bike_id": "4387faf0bf6e055e6929db658dcc203f", "type": "electric_scooter", "is_reserved": 0, "lon": -77.08028733333333}, {"fusion_lat": 0.0, "name": "107a72e1d0e8a1a842ecd70036ea4346", "is_disabled": 0, "rental_uris": {"android": "https://dc.lft.to/lastmile_qr_scan", "ios": "https://dc.lft.to/lastmile_qr_scan"}, "fusion_lon": 0.0, "lat": 38.936014666666665, "bike_id": "107a72e1d0e8a1a842ecd70036ea4346", "type": "electric_scooter", "is_reserved": 0, "lon": -77.0365585}, {"fusion_lat": 0.0, "name": "f16877299ee373c2e858f6a57440d284", "is_disabled": 0, "rental_uris": {"android": "https://dc.lft.to/lastmile_qr_scan", "ios": "https://dc.lft.to/lastmile_qr_scan"}, "fusion_lon": 0.0, "lat": 38.922579, "bike_id": "f16877299ee373c2e858f6a57440d284", "type": "electric_scooter", "is_reserved": 0, "lon": -77.0195575}, {"fusion_lat": 0.0, "name": "27bbb0a1198e64d4a982e31fd4bc140f", "is_disabled": 0, "rental_uris": {"android": "https://dc.lft.to/lastmile_qr_scan", "ios": "https://dc.lft.to/lastmile_qr_scan"}, "fusion_lon": 0.0, "lat": 38.90789183333333, "bike_id": "27bbb0a1198e64d4a982e31fd4bc140f", "type": "electric_scooter", "is_reserved": 0, "lon": -77.0434905}, {"fusion_lat": 0.0, "name": "0c0ada12893b1125edf665bcfbbbe87b", "is_disabled": 0, "rental_uris": {"android": "https://dc.lft.to/lastmile_qr_scan", "ios": "https://dc.lft.to/lastmile_qr_scan"}, "fusion_lon": 0.0, "lat": 38.89615916666666, "bike_id": "0c0ada12893b1125edf665bcfbbbe87b", "type": "electric_scooter", "is_reserved": 0, "lon": -77.0324485}, {"fusion_lat": 0.0, "name": "bd924d46b4943fddf67f591f1afbfd97", "is_disabled": 0, "rental_uris": {"android": "https://dc.lft.to/lastmile_qr_scan", "ios": "https://dc.lft.to/lastmile_qr_scan"}, "fusion_lon": 0.0, "lat": 38.87578233333333, "bike_id": "bd924d46b4943fddf67f591f1afbfd97", "type": "electric_bike", "is_reserved": 0, "lon": -77.234087}, {"fusion_lat": 0.0, "name": "45c9784dd4560c4f608a140f31967048", "is_disabled": 0, "rental_uris": {"android": "https://dc.lft.to/lastmile_qr_scan", "ios": "https://dc.lft.to/lastmile_qr_scan"}, "fusion_lon": 0.0, "lat": 38.8918635, "bike_id": "45c9784dd4560c4f608a140f31967048", "type": "electric_scooter", "is_reserved": 0, "lon": -76.99841166666667}, {"fusion_lat": 0.0, "name": "4fe1f8ed6d837adc93b8fa5b7695cb88", "is_disabled": 0, "rental_uris": {"android": "https://dc.lft.to/lastmile_qr_scan", "ios": "https://dc.lft.to/lastmile_qr_scan"}, "fusion_lon": 0.0, "lat": 38.9188745, "bike_id": "4fe1f8ed6d837adc93b8fa5b7695cb88", "type": "electric_scooter", "is_reserved": 0, "lon": -77.04829583333333}, {"fusion_lat": 0.0, "name": "f6f7278b6fbe0bba4cc138cca7ba0497", "is_disabled": 0, "rental_uris": {"android": "https://dc.lft.to/lastmile_qr_scan", "ios": "https://dc.lft.to/lastmile_qr_scan"}, "fusion_lon": 0.0, "lat": 38.91603816666667, "bike_id": "f6f7278b6fbe0bba4cc138cca7ba0497", "type": "electric_scooter", "is_reserved": 0, "lon": -77.03138733333333}, {"fusion_lat": 0.0, "name": "8d3a79c14327f6d370e04ff4c7893ae5", "is_disabled": 0, "rental_uris": {"android": "https://dc.lft.to/lastmile_qr_scan", "ios": "https://dc.lft.to/lastmile_qr_scan"}, "fusion_lon": 0.0, "lat": 38.91698233333334, "bike_id": "8d3a79c14327f6d370e04ff4c7893ae5", "type": "electric_scooter", "is_reserved": 0, "lon": -77.0322925}, {"fusion_lat": 0.0, "name": "6fbb3de2191974b2ce25ab91e1eed11f", "is_disabled": 0, "rental_uris": {"android": "https://dc.lft.to/lastmile_qr_scan", "ios": "https://dc.lft.to/lastmile_qr_scan"}, "fusion_lon": 0.0, "lat": 38.93542683333333, "bike_id": "6fbb3de2191974b2ce25ab91e1eed11f", "type": "electric_scooter", "is_reserved": 0, "lon": -77.0326315}, {"fusion_lat": 0.0, "name": "7d586575398e0a1745cb7792a7e48d68", "is_disabled": 0, "rental_uris": {"android": "https://dc.lft.to/lastmile_qr_scan", "ios": "https://dc.lft.to/lastmile_qr_scan"}, "fusion_lon": 0.0, "lat": 38.95791083333334, "bike_id": "7d586575398e0a1745cb7792a7e48d68", "type": "electric_bike", "is_reserved": 0, "lon": -76.99967566666666}, {"fusion_lat": 0.0, "name": "94647671c4580204c356b5baaf2f0a0b", "is_disabled": 0, "rental_uris": {"android": "https://dc.lft.to/lastmile_qr_scan", "ios": "https://dc.lft.to/lastmile_qr_scan"}, "fusion_lon": 0.0, "lat": 38.928730333333334, "bike_id": "94647671c4580204c356b5baaf2f0a0b", "type": "electric_scooter", "is_reserved": 0, "lon": -77.034157}, {"fusion_lat": 0.0, "name": "99e3f55e73c56677fe1dfa1f7b1f4046", "is_disabled": 0, "rental_uris": {"android": "https://dc.lft.to/lastmile_qr_scan", "ios": "https://dc.lft.to/lastmile_qr_scan"}, "fusion_lon": 0.0, "lat": 38.912919333333335, "bike_id": "99e3f55e73c56677fe1dfa1f7b1f4046", "type": "electric_scooter", "is_reserved": 0, "lon": -77.04749633333333}, {"fusion_lat": 0.0, "name": "4e021b796cdb59cfb0a58bb3296c612c", "is_disabled": 0, "rental_uris": {"android": "https://dc.lft.to/lastmile_qr_scan", "ios": "https://dc.lft.to/lastmile_qr_scan"}, "fusion_lon": 0.0, "lat": 38.9695275, "bike_id": "4e021b796cdb59cfb0a58bb3296c612c", "type": "electric_bike", "is_reserved": 0, "lon": -77.03350833333333}, {"fusion_lat": 0.0, "name": "a1ba2326f32e2489eef9f80ee71aea82", "is_disabled": 0, "rental_uris": {"android": "https://dc.lft.to/lastmile_qr_scan", "ios": "https://dc.lft.to/lastmile_qr_scan"}, "fusion_lon": 0.0, "lat": 38.89603, "bike_id": "a1ba2326f32e2489eef9f80ee71aea82", "type": "electric_scooter", "is_reserved": 0, "lon": -77.0449105}, {"fusion_lat": 0.0, "name": "95989aa1914b33539e6cc3e382e4156e", "is_disabled": 0, "rental_uris": {"android": "https://dc.lft.to/lastmile_qr_scan", "ios": "https://dc.lft.to/lastmile_qr_scan"}, "fusion_lon": 0.0, "lat": 38.90063966666666, "bike_id": "95989aa1914b33539e6cc3e382e4156e", "type": "electric_scooter", "is_reserved": 0, "lon": -76.933857}, {"fusion_lat": 0.0, "name": "fdae8ff572dba70ca73c69547cfcf5f5", "is_disabled": 0, "rental_uris": {"android": "https://dc.lft.to/lastmile_qr_scan", "ios": "https://dc.lft.to/lastmile_qr_scan"}, "fusion_lon": 0.0, "lat": 38.90442, "bike_id": "fdae8ff572dba70ca73c69547cfcf5f5", "type": "electric_scooter", "is_reserved": 0, "lon": -76.98241833333333}, {"fusion_lat": 0.0, "name": "cf439df6da8fb3ccb4c852128be12721", "is_disabled": 0, "rental_uris": {"android": "https://dc.lft.to/lastmile_qr_scan", "ios": "https://dc.lft.to/lastmile_qr_scan"}, "fusion_lon": 0.0, "lat": 38.85776533333333, "bike_id": "cf439df6da8fb3ccb4c852128be12721", "type": "electric_scooter", "is_reserved": 0, "lon": -76.9729955}, {"fusion_lat": 0.0, "name": "b5f202eb4f305f58066754541e231494", "is_disabled": 0, "rental_uris": {"android": "https://dc.lft.to/lastmile_qr_scan", "ios": "https://dc.lft.to/lastmile_qr_scan"}, "fusion_lon": 0.0, "lat": 38.90383833333333, "bike_id": "b5f202eb4f305f58066754541e231494", "type": "electric_scooter", "is_reserved": 0, "lon": -77.06136716666667}, {"fusion_lat": 0.0, "name": "b2018511edaea089f7f9c238ad8a0115", "is_disabled": 0, "rental_uris": {"android": "https://dc.lft.to/lastmile_qr_scan", "ios": "https://dc.lft.to/lastmile_qr_scan"}, "fusion_lon": 0.0, "lat": 38.9059215, "bike_id": "b2018511edaea089f7f9c238ad8a0115", "type": "electric_scooter", "is_reserved": 0, "lon": -77.04196416666667}, {"fusion_lat": 0.0, "name": "f5a758f10a6d9ab7303590e11011b1fb", "is_disabled": 0, "rental_uris": {"android": "https://dc.lft.to/lastmile_qr_scan", "ios": "https://dc.lft.to/lastmile_qr_scan"}, "fusion_lon": 0.0, "lat": 38.92061616666667, "bike_id": "f5a758f10a6d9ab7303590e11011b1fb", "type": "electric_scooter", "is_reserved": 0, "lon": -77.02535416666667}, {"fusion_lat": 0.0, "name": "2109aed170b7c99b30dc1a5167afb7b9", "is_disabled": 0, "rental_uris": {"android": "https://dc.lft.to/lastmile_qr_scan", "ios": "https://dc.lft.to/lastmile_qr_scan"}, "fusion_lon": 0.0, "lat": 38.92970566666666, "bike_id": "2109aed170b7c99b30dc1a5167afb7b9", "type": "electric_scooter", "is_reserved": 0, "lon": -77.028218}, {"fusion_lat": 0.0, "name": "44592afcca8b4d8da11b1484c27e2b4d", "is_disabled": 0, "rental_uris": {"android": "https://dc.lft.to/lastmile_qr_scan", "ios": "https://dc.lft.to/lastmile_qr_scan"}, "fusion_lon": 0.0, "lat": 38.925353, "bike_id": "44592afcca8b4d8da11b1484c27e2b4d", "type": "electric_scooter", "is_reserved": 0, "lon": -77.05562483333334}, {"fusion_lat": 0.0, "name": "5981029ed85058061ec3003dc4d7033b", "is_disabled": 0, "rental_uris": {"android": "https://dc.lft.to/lastmile_qr_scan", "ios": "https://dc.lft.to/lastmile_qr_scan"}, "fusion_lon": 0.0, "lat": 38.919139, "bike_id": "5981029ed85058061ec3003dc4d7033b", "type": "electric_scooter", "is_reserved": 0, "lon": -77.03577116666666}, {"fusion_lat": 0.0, "name": "777301f2a1ab238e5b02b88a473a2c0b", "is_disabled": 0, "rental_uris": {"android": "https://dc.lft.to/lastmile_qr_scan", "ios": "https://dc.lft.to/lastmile_qr_scan"}, "fusion_lon": 0.0, "lat": 38.845078666666666, "bike_id": "777301f2a1ab238e5b02b88a473a2c0b", "type": "electric_bike", "is_reserved": 0, "lon": -76.99353233333333}, {"fusion_lat": 0.0, "name": "b73cb788482bc5b3ca1437d45f9afc25", "is_disabled": 0, "rental_uris": {"android": "https://dc.lft.to/lastmile_qr_scan", "ios": "https://dc.lft.to/lastmile_qr_scan"}, "fusion_lon": 0.0, "lat": 38.89688783333333, "bike_id": "b73cb788482bc5b3ca1437d45f9afc25", "type": "electric_scooter", "is_reserved": 0, "lon": -77.03223716666666}, {"fusion_lat": 0.0, "name": "db8abf715b72bfd9086957322dc8da6e", "is_disabled": 0, "rental_uris": {"android": "https://dc.lft.to/lastmile_qr_scan", "ios": "https://dc.lft.to/lastmile_qr_scan"}, "fusion_lon": 0.0, "lat": 38.91392333333334, "bike_id": "db8abf715b72bfd9086957322dc8da6e", "type": "electric_scooter", "is_reserved": 0, "lon": -77.04486033333333}, {"fusion_lat": 0.0, "name": "f2a4b805e1d2a681a43ed7e7ba3e9f3c", "is_disabled": 0, "rental_uris": {"android": "https://dc.lft.to/lastmile_qr_scan", "ios": "https://dc.lft.to/lastmile_qr_scan"}, "fusion_lon": 0.0, "lat": 38.9314245, "bike_id": "f2a4b805e1d2a681a43ed7e7ba3e9f3c", "type": "electric_scooter", "is_reserved": 0, "lon": -77.02991716666666}, {"fusion_lat": 0.0, "name": "facb0b6c14f9ab07cb56992dc28c7eb9", "is_disabled": 0, "rental_uris": {"android": "https://dc.lft.to/lastmile_qr_scan", "ios": "https://dc.lft.to/lastmile_qr_scan"}, "fusion_lon": 0.0, "lat": 38.83234616666667, "bike_id": "facb0b6c14f9ab07cb56992dc28c7eb9", "type": "electric_bike", "is_reserved": 0, "lon": -76.94616683333334}, {"fusion_lat": 0.0, "name": "81f455a0d2cd1363bae52f0a797f8161", "is_disabled": 0, "rental_uris": {"android": "https://dc.lft.to/lastmile_qr_scan", "ios": "https://dc.lft.to/lastmile_qr_scan"}, "fusion_lon": 0.0, "lat": 38.9148385, "bike_id": "81f455a0d2cd1363bae52f0a797f8161", "type": "electric_scooter", "is_reserved": 0, "lon": -77.03730016666667}, {"fusion_lat": 0.0, "name": "f8baa7ec908e8c83e50d19307c5425b2", "is_disabled": 0, "rental_uris": {"android": "https://dc.lft.to/lastmile_qr_scan", "ios": "https://dc.lft.to/lastmile_qr_scan"}, "fusion_lon": 0.0, "lat": 38.904463166666666, "bike_id": "f8baa7ec908e8c83e50d19307c5425b2", "type": "electric_scooter", "is_reserved": 0, "lon": -77.02872266666667}, {"fusion_lat": 0.0, "name": "1f90cb42aa08b532d484d7e8dd69a71d", "is_disabled": 0, "rental_uris": {"android": "https://dc.lft.to/lastmile_qr_scan", "ios": "https://dc.lft.to/lastmile_qr_scan"}, "fusion_lon": 0.0, "lat": 38.83928733333333, "bike_id": "1f90cb42aa08b532d484d7e8dd69a71d", "type": "electric_bike", "is_reserved": 0, "lon": -77.07902266666666}, {"fusion_lat": 0.0, "name": "83e592fdcf849ec912d0d7c97e324e80", "is_disabled": 0, "rental_uris": {"android": "https://dc.lft.to/lastmile_qr_scan", "ios": "https://dc.lft.to/lastmile_qr_scan"}, "fusion_lon": 0.0, "lat": 38.9325945, "bike_id": "83e592fdcf849ec912d0d7c97e324e80", "type": "electric_scooter", "is_reserved": 0, "lon": -77.03267466666667}, {"fusion_lat": 0.0, "name": "7b25a5f7704d9278dc79dc39ee53d355", "is_disabled": 0, "rental_uris": {"android": "https://dc.lft.to/lastmile_qr_scan", "ios": "https://dc.lft.to/lastmile_qr_scan"}, "fusion_lon": 0.0, "lat": 38.88741866666667, "bike_id": "7b25a5f7704d9278dc79dc39ee53d355", "type": "electric_scooter", "is_reserved": 0, "lon": -77.02575383333334}, {"fusion_lat": 0.0, "name": "b69b2518b563226ae072d82b2868f868", "is_disabled": 0, "rental_uris": {"android": "https://dc.lft.to/lastmile_qr_scan", "ios": "https://dc.lft.to/lastmile_qr_scan"}, "fusion_lon": 0.0, "lat": 38.873762166666666, "bike_id": "b69b2518b563226ae072d82b2868f868", "type": "electric_scooter", "is_reserved": 0, "lon": -77.0007015}, {"fusion_lat": 0.0, "name": "492a536ce6637708bd95566dbc2fe98a", "is_disabled": 0, "rental_uris": {"android": "https://dc.lft.to/lastmile_qr_scan", "ios": "https://dc.lft.to/lastmile_qr_scan"}, "fusion_lon": 0.0, "lat": 38.978806, "bike_id": "492a536ce6637708bd95566dbc2fe98a", "type": "electric_bike", "is_reserved": 0, "lon": -77.06027916666666}, {"fusion_lat": 0.0, "name": "667374f61c36323cc9ec510d00d62864", "is_disabled": 0, "rental_uris": {"android": "https://dc.lft.to/lastmile_qr_scan", "ios": "https://dc.lft.to/lastmile_qr_scan"}, "fusion_lon": 0.0, "lat": 38.9187505, "bike_id": "667374f61c36323cc9ec510d00d62864", "type": "electric_scooter", "is_reserved": 0, "lon": -77.04466866666667}, {"fusion_lat": 0.0, "name": "7d6b85c43dd66076cc1b7e687c947303", "is_disabled": 0, "rental_uris": {"android": "https://dc.lft.to/lastmile_qr_scan", "ios": "https://dc.lft.to/lastmile_qr_scan"}, "fusion_lon": 0.0, "lat": 38.921985666666664, "bike_id": "7d6b85c43dd66076cc1b7e687c947303", "type": "electric_scooter", "is_reserved": 0, "lon": -77.04263683333333}, {"fusion_lat": 0.0, "name": "3ab6f12b34d37d01c9b6a1572390c95e", "is_disabled": 0, "rental_uris": {"android": "https://dc.lft.to/lastmile_qr_scan", "ios": "https://dc.lft.to/lastmile_qr_scan"}, "fusion_lon": 0.0, "lat": 38.87373183333333, "bike_id": "3ab6f12b34d37d01c9b6a1572390c95e", "type": "electric_scooter", "is_reserved": 0, "lon": -77.00063766666666}, {"fusion_lat": 0.0, "name": "893ec973348e49065893a0d56d8e14d9", "is_disabled": 0, "rental_uris": {"android": "https://dc.lft.to/lastmile_qr_scan", "ios": "https://dc.lft.to/lastmile_qr_scan"}, "fusion_lon": 0.0, "lat": 38.88608, "bike_id": "893ec973348e49065893a0d56d8e14d9", "type": "electric_scooter", "is_reserved": 0, "lon": -77.019701}, {"fusion_lat": 0.0, "name": "6de36a791173376e1ca2432eddbaa706", "is_disabled": 0, "rental_uris": {"android": "https://dc.lft.to/lastmile_qr_scan", "ios": "https://dc.lft.to/lastmile_qr_scan"}, "fusion_lon": 0.0, "lat": 38.892167, "bike_id": "6de36a791173376e1ca2432eddbaa706", "type": "electric_scooter", "is_reserved": 0, "lon": -77.03986933333333}, {"fusion_lat": 0.0, "name": "3c1e07c89a55b753d6d04e9aba6a359a", "is_disabled": 0, "rental_uris": {"android": "https://dc.lft.to/lastmile_qr_scan", "ios": "https://dc.lft.to/lastmile_qr_scan"}, "fusion_lon": 0.0, "lat": 38.887304, "bike_id": "3c1e07c89a55b753d6d04e9aba6a359a", "type": "electric_scooter", "is_reserved": 0, "lon": -77.01537316666666}, {"fusion_lat": 0.0, "name": "a4d3b9b7665cd23af2865ac8de2a28b6", "is_disabled": 0, "rental_uris": {"android": "https://dc.lft.to/lastmile_qr_scan", "ios": "https://dc.lft.to/lastmile_qr_scan"}, "fusion_lon": 0.0, "lat": 38.87445483333333, "bike_id": "a4d3b9b7665cd23af2865ac8de2a28b6", "type": "electric_scooter", "is_reserved": 0, "lon": -77.018658}, {"fusion_lat": 0.0, "name": "fa1b2232c277213e42f6ba88bffaf88e", "is_disabled": 0, "rental_uris": {"android": "https://dc.lft.to/lastmile_qr_scan", "ios": "https://dc.lft.to/lastmile_qr_scan"}, "fusion_lon": 0.0, "lat": 38.9175885, "bike_id": "fa1b2232c277213e42f6ba88bffaf88e", "type": "electric_scooter", "is_reserved": 0, "lon": -77.04777566666667}, {"fusion_lat": 0.0, "name": "e54150e41ae3a93a5dfb0c2a7b709934", "is_disabled": 0, "rental_uris": {"android": "https://dc.lft.to/lastmile_qr_scan", "ios": "https://dc.lft.to/lastmile_qr_scan"}, "fusion_lon": 0.0, "lat": 38.89915233333333, "bike_id": "e54150e41ae3a93a5dfb0c2a7b709934", "type": "electric_scooter", "is_reserved": 0, "lon": -77.00359183333333}, {"fusion_lat": 0.0, "name": "c34d567c11f19005155bbca8e4de722c", "is_disabled": 0, "rental_uris": {"android": "https://dc.lft.to/lastmile_qr_scan", "ios": "https://dc.lft.to/lastmile_qr_scan"}, "fusion_lon": 0.0, "lat": 38.90126216666667, "bike_id": "c34d567c11f19005155bbca8e4de722c", "type": "electric_scooter", "is_reserved": 0, "lon": -76.98651716666667}, {"fusion_lat": 0.0, "name": "f33c51b32c8afe7fec8b9513fa188921", "is_disabled": 0, "rental_uris": {"android": "https://dc.lft.to/lastmile_qr_scan", "ios": "https://dc.lft.to/lastmile_qr_scan"}, "fusion_lon": 0.0, "lat": 38.9279575, "bike_id": "f33c51b32c8afe7fec8b9513fa188921", "type": "electric_scooter", "is_reserved": 0, "lon": -77.02387433333334}, {"fusion_lat": 0.0, "name": "8a557d3a89aa86f607893b7158908fa1", "is_disabled": 0, "rental_uris": {"android": "https://dc.lft.to/lastmile_qr_scan", "ios": "https://dc.lft.to/lastmile_qr_scan"}, "fusion_lon": 0.0, "lat": 38.8889965, "bike_id": "8a557d3a89aa86f607893b7158908fa1", "type": "electric_scooter", "is_reserved": 0, "lon": -76.97732233333333}, {"fusion_lat": 0.0, "name": "e478f64eb018b4bc2c5967551dfe7574", "is_disabled": 0, "rental_uris": {"android": "https://dc.lft.to/lastmile_qr_scan", "ios": "https://dc.lft.to/lastmile_qr_scan"}, "fusion_lon": 0.0, "lat": 38.873785, "bike_id": "e478f64eb018b4bc2c5967551dfe7574", "type": "electric_scooter", "is_reserved": 0, "lon": -77.00067966666667}, {"fusion_lat": 0.0, "name": "ee6869dee64c0bb83c91f3cc46cbd489", "is_disabled": 0, "rental_uris": {"android": "https://dc.lft.to/lastmile_qr_scan", "ios": "https://dc.lft.to/lastmile_qr_scan"}, "fusion_lon": 0.0, "lat": 38.9057005, "bike_id": "ee6869dee64c0bb83c91f3cc46cbd489", "type": "electric_scooter", "is_reserved": 0, "lon": -77.03450933333333}, {"fusion_lat": 0.0, "name": "97147bab2cbd89e619d09cb80158fd67", "is_disabled": 0, "rental_uris": {"android": "https://dc.lft.to/lastmile_qr_scan", "ios": "https://dc.lft.to/lastmile_qr_scan"}, "fusion_lon": 0.0, "lat": 38.867605166666664, "bike_id": "97147bab2cbd89e619d09cb80158fd67", "type": "electric_scooter", "is_reserved": 0, "lon": -76.98274233333333}, {"fusion_lat": 0.0, "name": "9389d57f919ad247366b3b26b9cbcfeb", "is_disabled": 0, "rental_uris": {"android": "https://dc.lft.to/lastmile_qr_scan", "ios": "https://dc.lft.to/lastmile_qr_scan"}, "fusion_lon": 0.0, "lat": 38.9049685, "bike_id": "9389d57f919ad247366b3b26b9cbcfeb", "type": "electric_scooter", "is_reserved": 0, "lon": -77.02956383333333}, {"fusion_lat": 0.0, "name": "548bad3a01f7a34f4ca3ac2e16e53bf1", "is_disabled": 0, "rental_uris": {"android": "https://dc.lft.to/lastmile_qr_scan", "ios": "https://dc.lft.to/lastmile_qr_scan"}, "fusion_lon": 0.0, "lat": 38.91265816666667, "bike_id": "548bad3a01f7a34f4ca3ac2e16e53bf1", "type": "electric_scooter", "is_reserved": 0, "lon": -77.03868316666667}, {"fusion_lat": 0.0, "name": "93d2f3d181e87c56ea57cc52934fef19", "is_disabled": 0, "rental_uris": {"android": "https://dc.lft.to/lastmile_qr_scan", "ios": "https://dc.lft.to/lastmile_qr_scan"}, "fusion_lon": 0.0, "lat": 38.9165235, "bike_id": "93d2f3d181e87c56ea57cc52934fef19", "type": "electric_scooter", "is_reserved": 0, "lon": -77.04493016666666}, {"fusion_lat": 0.0, "name": "f52f05af2e4b2292b036e2318e2a8ed8", "is_disabled": 0, "rental_uris": {"android": "https://dc.lft.to/lastmile_qr_scan", "ios": "https://dc.lft.to/lastmile_qr_scan"}, "fusion_lon": 0.0, "lat": 38.9096165, "bike_id": "f52f05af2e4b2292b036e2318e2a8ed8", "type": "electric_scooter", "is_reserved": 0, "lon": -77.03569}, {"fusion_lat": 0.0, "name": "59e420d0ed17c36f6393ce439a7d5d88", "is_disabled": 0, "rental_uris": {"android": "https://dc.lft.to/lastmile_qr_scan", "ios": "https://dc.lft.to/lastmile_qr_scan"}, "fusion_lon": 0.0, "lat": 38.907103166666666, "bike_id": "59e420d0ed17c36f6393ce439a7d5d88", "type": "electric_scooter", "is_reserved": 0, "lon": -77.05135466666667}, {"fusion_lat": 0.0, "name": "2849ff63b7af27028c5dc7ccdfb5911e", "is_disabled": 0, "rental_uris": {"android": "https://dc.lft.to/lastmile_qr_scan", "ios": "https://dc.lft.to/lastmile_qr_scan"}, "fusion_lon": 0.0, "lat": 38.91454516666667, "bike_id": "2849ff63b7af27028c5dc7ccdfb5911e", "type": "electric_scooter", "is_reserved": 0, "lon": -77.00645933333334}, {"fusion_lat": 0.0, "name": "002ff6bb1471f6a00a3d622ab84316b2", "is_disabled": 0, "rental_uris": {"android": "https://dc.lft.to/lastmile_qr_scan", "ios": "https://dc.lft.to/lastmile_qr_scan"}, "fusion_lon": 0.0, "lat": 38.914033833333335, "bike_id": "002ff6bb1471f6a00a3d622ab84316b2", "type": "electric_scooter", "is_reserved": 0, "lon": -77.04870766666667}, {"fusion_lat": 0.0, "name": "beeb9ab0556b3da24c0b8174c57593ce", "is_disabled": 0, "rental_uris": {"android": "https://dc.lft.to/lastmile_qr_scan", "ios": "https://dc.lft.to/lastmile_qr_scan"}, "fusion_lon": 0.0, "lat": 38.933028666666665, "bike_id": "beeb9ab0556b3da24c0b8174c57593ce", "type": "electric_scooter", "is_reserved": 0, "lon": -77.030774}, {"fusion_lat": 0.0, "name": "56edb22b513b30ed95cac24db8a26b08", "is_disabled": 0, "rental_uris": {"android": "https://dc.lft.to/lastmile_qr_scan", "ios": "https://dc.lft.to/lastmile_qr_scan"}, "fusion_lon": 0.0, "lat": 38.899476666666665, "bike_id": "56edb22b513b30ed95cac24db8a26b08", "type": "electric_scooter", "is_reserved": 0, "lon": -77.04157333333333}, {"fusion_lat": 0.0, "name": "38ae1b35799271e3685ce55c9d03ab57", "is_disabled": 0, "rental_uris": {"android": "https://dc.lft.to/lastmile_qr_scan", "ios": "https://dc.lft.to/lastmile_qr_scan"}, "fusion_lon": 0.0, "lat": 38.900376666666666, "bike_id": "38ae1b35799271e3685ce55c9d03ab57", "type": "electric_scooter", "is_reserved": 0, "lon": -77.040048}, {"fusion_lat": 0.0, "name": "f54e871a30595055937796f1f1b7f2d4", "is_disabled": 0, "rental_uris": {"android": "https://dc.lft.to/lastmile_qr_scan", "ios": "https://dc.lft.to/lastmile_qr_scan"}, "fusion_lon": 0.0, "lat": 38.90067, "bike_id": "f54e871a30595055937796f1f1b7f2d4", "type": "electric_scooter", "is_reserved": 0, "lon": -77.012813}, {"fusion_lat": 0.0, "name": "90da80c4c1c61c8422a8d26f4ccd55f4", "is_disabled": 0, "rental_uris": {"android": "https://dc.lft.to/lastmile_qr_scan", "ios": "https://dc.lft.to/lastmile_qr_scan"}, "fusion_lon": 0.0, "lat": 38.896233333333335, "bike_id": "90da80c4c1c61c8422a8d26f4ccd55f4", "type": "electric_scooter", "is_reserved": 0, "lon": -77.011583}, {"fusion_lat": 0.0, "name": "e118a0d4789c2963f2fdc7498cf88dae", "is_disabled": 0, "rental_uris": {"android": "https://dc.lft.to/lastmile_qr_scan", "ios": "https://dc.lft.to/lastmile_qr_scan"}, "fusion_lon": 0.0, "lat": 38.89203033333333, "bike_id": "e118a0d4789c2963f2fdc7498cf88dae", "type": "electric_scooter", "is_reserved": 0, "lon": -76.97706066666667}, {"fusion_lat": 0.0, "name": "ef2bd26e16dc2dc69ca7de82f475d063", "is_disabled": 0, "rental_uris": {"android": "https://dc.lft.to/lastmile_qr_scan", "ios": "https://dc.lft.to/lastmile_qr_scan"}, "fusion_lon": 0.0, "lat": 38.90411266666667, "bike_id": "ef2bd26e16dc2dc69ca7de82f475d063", "type": "electric_scooter", "is_reserved": 0, "lon": -76.97331866666667}, {"fusion_lat": 0.0, "name": "fd9e531e049528aeb811533050a141a4", "is_disabled": 0, "rental_uris": {"android": "https://dc.lft.to/lastmile_qr_scan", "ios": "https://dc.lft.to/lastmile_qr_scan"}, "fusion_lon": 0.0, "lat": 38.8778245, "bike_id": "fd9e531e049528aeb811533050a141a4", "type": "electric_scooter", "is_reserved": 0, "lon": -76.994135}, {"fusion_lat": 0.0, "name": "241bf9f53a9c1896253ea307fde92abd", "is_disabled": 0, "rental_uris": {"android": "https://dc.lft.to/lastmile_qr_scan", "ios": "https://dc.lft.to/lastmile_qr_scan"}, "fusion_lon": 0.0, "lat": 38.923814, "bike_id": "241bf9f53a9c1896253ea307fde92abd", "type": "electric_scooter", "is_reserved": 0, "lon": -77.07536016666667}, {"fusion_lat": 0.0, "name": "f5ae51f62fa94e028de9cae19df4add0", "is_disabled": 0, "rental_uris": {"android": "https://dc.lft.to/lastmile_qr_scan", "ios": "https://dc.lft.to/lastmile_qr_scan"}, "fusion_lon": 0.0, "lat": 38.90409066666667, "bike_id": "f5ae51f62fa94e028de9cae19df4add0", "type": "electric_scooter", "is_reserved": 0, "lon": -76.97329266666667}, {"fusion_lat": 0.0, "name": "754c36ce890160dde2548a8eae76d3c1", "is_disabled": 0, "rental_uris": {"android": "https://dc.lft.to/lastmile_qr_scan", "ios": "https://dc.lft.to/lastmile_qr_scan"}, "fusion_lon": 0.0, "lat": 38.91696233333333, "bike_id": "754c36ce890160dde2548a8eae76d3c1", "type": "electric_scooter", "is_reserved": 0, "lon": -77.01165266666666}, {"fusion_lat": 0.0, "name": "42222198afa5e48d2b5ce45f4f0de1ca", "is_disabled": 0, "rental_uris": {"android": "https://dc.lft.to/lastmile_qr_scan", "ios": "https://dc.lft.to/lastmile_qr_scan"}, "fusion_lon": 0.0, "lat": 38.911054, "bike_id": "42222198afa5e48d2b5ce45f4f0de1ca", "type": "electric_scooter", "is_reserved": 0, "lon": -77.01532933333333}, {"fusion_lat": 0.0, "name": "0fc0c199c123d4edcde7a49a0bddfdbe", "is_disabled": 0, "rental_uris": {"android": "https://dc.lft.to/lastmile_qr_scan", "ios": "https://dc.lft.to/lastmile_qr_scan"}, "fusion_lon": 0.0, "lat": 38.84503316666667, "bike_id": "0fc0c199c123d4edcde7a49a0bddfdbe", "type": "electric_bike", "is_reserved": 0, "lon": -76.99353633333334}, {"fusion_lat": 0.0, "name": "b58fd76871e427074a0b86944d79770d", "is_disabled": 0, "rental_uris": {"android": "https://dc.lft.to/lastmile_qr_scan", "ios": "https://dc.lft.to/lastmile_qr_scan"}, "fusion_lon": 0.0, "lat": 38.920592166666665, "bike_id": "b58fd76871e427074a0b86944d79770d", "type": "electric_scooter", "is_reserved": 0, "lon": -77.02537066666666}, {"fusion_lat": 0.0, "name": "0fd41da2d86808e3381af17bbbf515b8", "is_disabled": 0, "rental_uris": {"android": "https://dc.lft.to/lastmile_qr_scan", "ios": "https://dc.lft.to/lastmile_qr_scan"}, "fusion_lon": 0.0, "lat": 38.89754383333333, "bike_id": "0fd41da2d86808e3381af17bbbf515b8", "type": "electric_scooter", "is_reserved": 0, "lon": -77.03179183333333}, {"fusion_lat": 0.0, "name": "c7c1258c0140db153f883409881fed0c", "is_disabled": 0, "rental_uris": {"android": "https://dc.lft.to/lastmile_qr_scan", "ios": "https://dc.lft.to/lastmile_qr_scan"}, "fusion_lon": 0.0, "lat": 38.88129033333333, "bike_id": "c7c1258c0140db153f883409881fed0c", "type": "electric_bike", "is_reserved": 0, "lon": -77.0164535}, {"fusion_lat": 0.0, "name": "73f5ef5eaee9efbad13c9b71d87dc7d9", "is_disabled": 0, "rental_uris": {"android": "https://dc.lft.to/lastmile_qr_scan", "ios": "https://dc.lft.to/lastmile_qr_scan"}, "fusion_lon": 0.0, "lat": 38.926409166666666, "bike_id": "73f5ef5eaee9efbad13c9b71d87dc7d9", "type": "electric_scooter", "is_reserved": 0, "lon": -77.0332465}, {"fusion_lat": 0.0, "name": "e999a4b4d5cd09e4ffb915770c1662d2", "is_disabled": 0, "rental_uris": {"android": "https://dc.lft.to/lastmile_qr_scan", "ios": "https://dc.lft.to/lastmile_qr_scan"}, "fusion_lon": 0.0, "lat": 38.97499883333333, "bike_id": "e999a4b4d5cd09e4ffb915770c1662d2", "type": "electric_scooter", "is_reserved": 0, "lon": -77.0169815}, {"fusion_lat": 0.0, "name": "56714aa27326db8edf9b36b89daab992", "is_disabled": 0, "rental_uris": {"android": "https://dc.lft.to/lastmile_qr_scan", "ios": "https://dc.lft.to/lastmile_qr_scan"}, "fusion_lon": 0.0, "lat": 38.856551, "bike_id": "56714aa27326db8edf9b36b89daab992", "type": "electric_scooter", "is_reserved": 0, "lon": -76.996716}, {"fusion_lat": 0.0, "name": "5f04fdd7ab8738ed8d4501f50a0f5ca6", "is_disabled": 0, "rental_uris": {"android": "https://dc.lft.to/lastmile_qr_scan", "ios": "https://dc.lft.to/lastmile_qr_scan"}, "fusion_lon": 0.0, "lat": 38.969894833333335, "bike_id": "5f04fdd7ab8738ed8d4501f50a0f5ca6", "type": "electric_scooter", "is_reserved": 0, "lon": -77.01160866666666}, {"fusion_lat": 0.0, "name": "0fca8b7eea11106154e8518b11f646e1", "is_disabled": 0, "rental_uris": {"android": "https://dc.lft.to/lastmile_qr_scan", "ios": "https://dc.lft.to/lastmile_qr_scan"}, "fusion_lon": 0.0, "lat": 38.911108, "bike_id": "0fca8b7eea11106154e8518b11f646e1", "type": "electric_scooter", "is_reserved": 0, "lon": -77.02907783333333}, {"fusion_lat": 0.0, "name": "696d42fcd1606797202e49b56a391701", "is_disabled": 0, "rental_uris": {"android": "https://dc.lft.to/lastmile_qr_scan", "ios": "https://dc.lft.to/lastmile_qr_scan"}, "fusion_lon": 0.0, "lat": 38.930571, "bike_id": "696d42fcd1606797202e49b56a391701", "type": "electric_scooter", "is_reserved": 0, "lon": -77.04057166666666}, {"fusion_lat": 0.0, "name": "d425a4ad379d2e53f5dfb16e08c01ed8", "is_disabled": 0, "rental_uris": {"android": "https://dc.lft.to/lastmile_qr_scan", "ios": "https://dc.lft.to/lastmile_qr_scan"}, "fusion_lon": 0.0, "lat": 38.918179333333335, "bike_id": "d425a4ad379d2e53f5dfb16e08c01ed8", "type": "electric_scooter", "is_reserved": 0, "lon": -77.0121155}, {"fusion_lat": 0.0, "name": "f4f0adbb52efd9d83b8d9964c6bc4ffe", "is_disabled": 0, "rental_uris": {"android": "https://dc.lft.to/lastmile_qr_scan", "ios": "https://dc.lft.to/lastmile_qr_scan"}, "fusion_lon": 0.0, "lat": 38.909087, "bike_id": "f4f0adbb52efd9d83b8d9964c6bc4ffe", "type": "electric_scooter", "is_reserved": 0, "lon": -77.07281566666667}, {"fusion_lat": 0.0, "name": "851f5d77bdbfa578c458108e448d3214", "is_disabled": 0, "rental_uris": {"android": "https://dc.lft.to/lastmile_qr_scan", "ios": "https://dc.lft.to/lastmile_qr_scan"}, "fusion_lon": 0.0, "lat": 38.908386666666665, "bike_id": "851f5d77bdbfa578c458108e448d3214", "type": "electric_scooter", "is_reserved": 0, "lon": -77.04368}, {"fusion_lat": 0.0, "name": "7af754a361cd475c31363da7c2233fc1", "is_disabled": 0, "rental_uris": {"android": "https://dc.lft.to/lastmile_qr_scan", "ios": "https://dc.lft.to/lastmile_qr_scan"}, "fusion_lon": 0.0, "lat": 38.89729, "bike_id": "7af754a361cd475c31363da7c2233fc1", "type": "electric_scooter", "is_reserved": 0, "lon": -77.00378566666667}, {"fusion_lat": 0.0, "name": "723e17360ee3ad672481e4ea70e786c7", "is_disabled": 0, "rental_uris": {"android": "https://dc.lft.to/lastmile_qr_scan", "ios": "https://dc.lft.to/lastmile_qr_scan"}, "fusion_lon": 0.0, "lat": 38.9190525, "bike_id": "723e17360ee3ad672481e4ea70e786c7", "type": "electric_scooter", "is_reserved": 0, "lon": -77.00213566666666}, {"fusion_lat": 0.0, "name": "7ab55a81e73a06f6d4f5670d23e06f7c", "is_disabled": 0, "rental_uris": {"android": "https://dc.lft.to/lastmile_qr_scan", "ios": "https://dc.lft.to/lastmile_qr_scan"}, "fusion_lon": 0.0, "lat": 38.8968045, "bike_id": "7ab55a81e73a06f6d4f5670d23e06f7c", "type": "electric_scooter", "is_reserved": 0, "lon": -77.043319}, {"fusion_lat": 0.0, "name": "4f565a610eb0c9e95f6c259d64f66d45", "is_disabled": 0, "rental_uris": {"android": "https://dc.lft.to/lastmile_qr_scan", "ios": "https://dc.lft.to/lastmile_qr_scan"}, "fusion_lon": 0.0, "lat": 38.89107116666667, "bike_id": "4f565a610eb0c9e95f6c259d64f66d45", "type": "electric_scooter", "is_reserved": 0, "lon": -76.9438565}, {"fusion_lat": 0.0, "name": "9f6cc71288a91edd779f5bce161eca1a", "is_disabled": 0, "rental_uris": {"android": "https://dc.lft.to/lastmile_qr_scan", "ios": "https://dc.lft.to/lastmile_qr_scan"}, "fusion_lon": 0.0, "lat": 38.90695633333333, "bike_id": "9f6cc71288a91edd779f5bce161eca1a", "type": "electric_scooter", "is_reserved": 0, "lon": -77.0272315}, {"fusion_lat": 0.0, "name": "2b9ccb36261840c8cae0d54c46d83e7d", "is_disabled": 0, "rental_uris": {"android": "https://dc.lft.to/lastmile_qr_scan", "ios": "https://dc.lft.to/lastmile_qr_scan"}, "fusion_lon": 0.0, "lat": 38.91119116666667, "bike_id": "2b9ccb36261840c8cae0d54c46d83e7d", "type": "electric_scooter", "is_reserved": 0, "lon": -77.021008}, {"fusion_lat": 0.0, "name": "69907b9733d939fa3b69c6e49863536d", "is_disabled": 0, "rental_uris": {"android": "https://dc.lft.to/lastmile_qr_scan", "ios": "https://dc.lft.to/lastmile_qr_scan"}, "fusion_lon": 0.0, "lat": 38.897332, "bike_id": "69907b9733d939fa3b69c6e49863536d", "type": "electric_bike", "is_reserved": 0, "lon": -76.920494}, {"fusion_lat": 0.0, "name": "9bc5afee9600f2e7158bee7efc25bd2f", "is_disabled": 0, "rental_uris": {"android": "https://dc.lft.to/lastmile_qr_scan", "ios": "https://dc.lft.to/lastmile_qr_scan"}, "fusion_lon": 0.0, "lat": 38.926330166666666, "bike_id": "9bc5afee9600f2e7158bee7efc25bd2f", "type": "electric_scooter", "is_reserved": 0, "lon": -77.03932}, {"fusion_lat": 0.0, "name": "7bc57b1e310a1b0fd03c99ddeb045ed1", "is_disabled": 0, "rental_uris": {"android": "https://dc.lft.to/lastmile_qr_scan", "ios": "https://dc.lft.to/lastmile_qr_scan"}, "fusion_lon": 0.0, "lat": 38.925655, "bike_id": "7bc57b1e310a1b0fd03c99ddeb045ed1", "type": "electric_scooter", "is_reserved": 0, "lon": -77.03774416666667}, {"fusion_lat": 0.0, "name": "893372db677f727819b038b5b6676d86", "is_disabled": 0, "rental_uris": {"android": "https://dc.lft.to/lastmile_qr_scan", "ios": "https://dc.lft.to/lastmile_qr_scan"}, "fusion_lon": 0.0, "lat": 38.922913, "bike_id": "893372db677f727819b038b5b6676d86", "type": "electric_scooter", "is_reserved": 0, "lon": -76.99777316666666}, {"fusion_lat": 0.0, "name": "1fffcf4e9d1036c85441e6e660ec39a1", "is_disabled": 0, "rental_uris": {"android": "https://dc.lft.to/lastmile_qr_scan", "ios": "https://dc.lft.to/lastmile_qr_scan"}, "fusion_lon": 0.0, "lat": 38.9015285, "bike_id": "1fffcf4e9d1036c85441e6e660ec39a1", "type": "electric_scooter", "is_reserved": 0, "lon": -76.974043}, {"fusion_lat": 0.0, "name": "1f3338f226bd524636d67240d64a2ee1", "is_disabled": 0, "rental_uris": {"android": "https://dc.lft.to/lastmile_qr_scan", "ios": "https://dc.lft.to/lastmile_qr_scan"}, "fusion_lon": 0.0, "lat": 38.945217166666666, "bike_id": "1f3338f226bd524636d67240d64a2ee1", "type": "electric_scooter", "is_reserved": 0, "lon": -77.02271316666666}, {"fusion_lat": 0.0, "name": "f319e3cd267b4f1b8aa8cc1d6cd2e84f", "is_disabled": 0, "rental_uris": {"android": "https://dc.lft.to/lastmile_qr_scan", "ios": "https://dc.lft.to/lastmile_qr_scan"}, "fusion_lon": 0.0, "lat": 38.913346, "bike_id": "f319e3cd267b4f1b8aa8cc1d6cd2e84f", "type": "electric_scooter", "is_reserved": 0, "lon": -77.0485955}, {"fusion_lat": 0.0, "name": "c8f5e18b06d6035f7c4cf838c53e0d0f", "is_disabled": 0, "rental_uris": {"android": "https://dc.lft.to/lastmile_qr_scan", "ios": "https://dc.lft.to/lastmile_qr_scan"}, "fusion_lon": 0.0, "lat": 38.911099166666666, "bike_id": "c8f5e18b06d6035f7c4cf838c53e0d0f", "type": "electric_scooter", "is_reserved": 0, "lon": -77.03825783333333}, {"fusion_lat": 0.0, "name": "1f3b54c4c9aefd1c25f85e1f278313be", "is_disabled": 0, "rental_uris": {"android": "https://dc.lft.to/lastmile_qr_scan", "ios": "https://dc.lft.to/lastmile_qr_scan"}, "fusion_lon": 0.0, "lat": 38.90538, "bike_id": "1f3b54c4c9aefd1c25f85e1f278313be", "type": "electric_scooter", "is_reserved": 0, "lon": -77.02186983333333}, {"fusion_lat": 0.0, "name": "5e582cef6393cbee6a16437afcc45153", "is_disabled": 0, "rental_uris": {"android": "https://dc.lft.to/lastmile_qr_scan", "ios": "https://dc.lft.to/lastmile_qr_scan"}, "fusion_lon": 0.0, "lat": 38.9072715, "bike_id": "5e582cef6393cbee6a16437afcc45153", "type": "electric_scooter", "is_reserved": 0, "lon": -77.00705883333333}, {"fusion_lat": 0.0, "name": "0023ee64797266b533e57fe47eb0ba54", "is_disabled": 0, "rental_uris": {"android": "https://dc.lft.to/lastmile_qr_scan", "ios": "https://dc.lft.to/lastmile_qr_scan"}, "fusion_lon": 0.0, "lat": 38.90243383333333, "bike_id": "0023ee64797266b533e57fe47eb0ba54", "type": "electric_scooter", "is_reserved": 0, "lon": -77.060494}, {"fusion_lat": 0.0, "name": "4ccc8d6e8bca30e5d3c414b40a07a98e", "is_disabled": 0, "rental_uris": {"android": "https://dc.lft.to/lastmile_qr_scan", "ios": "https://dc.lft.to/lastmile_qr_scan"}, "fusion_lon": 0.0, "lat": 38.92821283333333, "bike_id": "4ccc8d6e8bca30e5d3c414b40a07a98e", "type": "electric_scooter", "is_reserved": 0, "lon": -77.02254516666666}, {"fusion_lat": 0.0, "name": "d5b5f1455038960e7b865ed2123eb836", "is_disabled": 0, "rental_uris": {"android": "https://dc.lft.to/lastmile_qr_scan", "ios": "https://dc.lft.to/lastmile_qr_scan"}, "fusion_lon": 0.0, "lat": 38.898362, "bike_id": "d5b5f1455038960e7b865ed2123eb836", "type": "electric_scooter", "is_reserved": 0, "lon": -76.93188366666666}, {"fusion_lat": 0.0, "name": "921dcd0236d9d7974140a57de0890771", "is_disabled": 0, "rental_uris": {"android": "https://dc.lft.to/lastmile_qr_scan", "ios": "https://dc.lft.to/lastmile_qr_scan"}, "fusion_lon": 0.0, "lat": 38.84054616666667, "bike_id": "921dcd0236d9d7974140a57de0890771", "type": "electric_scooter", "is_reserved": 0, "lon": -76.976678}, {"fusion_lat": 0.0, "name": "44a064aa1db55160e8092ec39106bd85", "is_disabled": 0, "rental_uris": {"android": "https://dc.lft.to/lastmile_qr_scan", "ios": "https://dc.lft.to/lastmile_qr_scan"}, "fusion_lon": 0.0, "lat": 38.89825716666667, "bike_id": "44a064aa1db55160e8092ec39106bd85", "type": "electric_scooter", "is_reserved": 0, "lon": -76.94652233333333}, {"fusion_lat": 0.0, "name": "e2e2c982ca9c810c8ea5562b8190235c", "is_disabled": 0, "rental_uris": {"android": "https://dc.lft.to/lastmile_qr_scan", "ios": "https://dc.lft.to/lastmile_qr_scan"}, "fusion_lon": 0.0, "lat": 38.904479333333335, "bike_id": "e2e2c982ca9c810c8ea5562b8190235c", "type": "electric_bike", "is_reserved": 0, "lon": -76.97426483333334}, {"fusion_lat": 0.0, "name": "49e81dc22844ad44d4099630a9db0006", "is_disabled": 0, "rental_uris": {"android": "https://dc.lft.to/lastmile_qr_scan", "ios": "https://dc.lft.to/lastmile_qr_scan"}, "fusion_lon": 0.0, "lat": 38.950823, "bike_id": "49e81dc22844ad44d4099630a9db0006", "type": "electric_scooter", "is_reserved": 0, "lon": -77.02822633333334}, {"fusion_lat": 0.0, "name": "6b7a3d3c6481d7afd7a830c23e5b55d8", "is_disabled": 0, "rental_uris": {"android": "https://dc.lft.to/lastmile_qr_scan", "ios": "https://dc.lft.to/lastmile_qr_scan"}, "fusion_lon": 0.0, "lat": 38.89230116666667, "bike_id": "6b7a3d3c6481d7afd7a830c23e5b55d8", "type": "electric_scooter", "is_reserved": 0, "lon": -77.021158}, {"fusion_lat": 0.0, "name": "6c0a5cba939433ec8942a4794782a2ba", "is_disabled": 0, "rental_uris": {"android": "https://dc.lft.to/lastmile_qr_scan", "ios": "https://dc.lft.to/lastmile_qr_scan"}, "fusion_lon": 0.0, "lat": 38.8974735, "bike_id": "6c0a5cba939433ec8942a4794782a2ba", "type": "electric_scooter", "is_reserved": 0, "lon": -77.04920216666666}, {"fusion_lat": 0.0, "name": "e7a44fbf111de725d37989aea3f8f823", "is_disabled": 0, "rental_uris": {"android": "https://dc.lft.to/lastmile_qr_scan", "ios": "https://dc.lft.to/lastmile_qr_scan"}, "fusion_lon": 0.0, "lat": 38.89773066666667, "bike_id": "e7a44fbf111de725d37989aea3f8f823", "type": "electric_scooter", "is_reserved": 0, "lon": -77.012144}, {"fusion_lat": 0.0, "name": "70a53a6457f55d53943bec1e663bcf08", "is_disabled": 0, "rental_uris": {"android": "https://dc.lft.to/lastmile_qr_scan", "ios": "https://dc.lft.to/lastmile_qr_scan"}, "fusion_lon": 0.0, "lat": 38.90336466666667, "bike_id": "70a53a6457f55d53943bec1e663bcf08", "type": "electric_scooter", "is_reserved": 0, "lon": -77.04468483333333}, {"fusion_lat": 0.0, "name": "99b40e6a2b0dbd80151c33fe18282d1f", "is_disabled": 0, "rental_uris": {"android": "https://dc.lft.to/lastmile_qr_scan", "ios": "https://dc.lft.to/lastmile_qr_scan"}, "fusion_lon": 0.0, "lat": 38.91286483333333, "bike_id": "99b40e6a2b0dbd80151c33fe18282d1f", "type": "electric_scooter", "is_reserved": 0, "lon": -77.02301933333334}, {"fusion_lat": 0.0, "name": "cc00ca02d5cf680eeeda4e797ae1c2e2", "is_disabled": 0, "rental_uris": {"android": "https://dc.lft.to/lastmile_qr_scan", "ios": "https://dc.lft.to/lastmile_qr_scan"}, "fusion_lon": 0.0, "lat": 38.860574166666666, "bike_id": "cc00ca02d5cf680eeeda4e797ae1c2e2", "type": "electric_scooter", "is_reserved": 0, "lon": -76.97126783333333}, {"fusion_lat": 0.0, "name": "c9079f962fd1a2c0c99ea8d649bfd46a", "is_disabled": 0, "rental_uris": {"android": "https://dc.lft.to/lastmile_qr_scan", "ios": "https://dc.lft.to/lastmile_qr_scan"}, "fusion_lon": 0.0, "lat": 38.914111166666665, "bike_id": "c9079f962fd1a2c0c99ea8d649bfd46a", "type": "electric_scooter", "is_reserved": 0, "lon": -77.02213633333334}, {"fusion_lat": 0.0, "name": "8a5c8ca1144052381ac3748d1a4c0900", "is_disabled": 0, "rental_uris": {"android": "https://dc.lft.to/lastmile_qr_scan", "ios": "https://dc.lft.to/lastmile_qr_scan"}, "fusion_lon": 0.0, "lat": 38.899182833333334, "bike_id": "8a5c8ca1144052381ac3748d1a4c0900", "type": "electric_scooter", "is_reserved": 0, "lon": -76.98541733333333}, {"fusion_lat": 0.0, "name": "c030129eaa01c838357e9abda173b180", "is_disabled": 0, "rental_uris": {"android": "https://dc.lft.to/lastmile_qr_scan", "ios": "https://dc.lft.to/lastmile_qr_scan"}, "fusion_lon": 0.0, "lat": 38.913465333333335, "bike_id": "c030129eaa01c838357e9abda173b180", "type": "electric_scooter", "is_reserved": 0, "lon": -77.0427195}, {"fusion_lat": 0.0, "name": "107e202fea6281cdd50e2d3ae13c4ef1", "is_disabled": 0, "rental_uris": {"android": "https://dc.lft.to/lastmile_qr_scan", "ios": "https://dc.lft.to/lastmile_qr_scan"}, "fusion_lon": 0.0, "lat": 38.95274933333334, "bike_id": "107e202fea6281cdd50e2d3ae13c4ef1", "type": "electric_scooter", "is_reserved": 0, "lon": -77.06870566666667}, {"fusion_lat": 0.0, "name": "a77db5a8b336ef1eaae1ab5c4dc02180", "is_disabled": 0, "rental_uris": {"android": "https://dc.lft.to/lastmile_qr_scan", "ios": "https://dc.lft.to/lastmile_qr_scan"}, "fusion_lon": 0.0, "lat": 38.928931166666665, "bike_id": "a77db5a8b336ef1eaae1ab5c4dc02180", "type": "electric_bike", "is_reserved": 0, "lon": -77.23177966666667}, {"fusion_lat": 0.0, "name": "1e60d54c6ded23a928f5b759e4819976", "is_disabled": 0, "rental_uris": {"android": "https://dc.lft.to/lastmile_qr_scan", "ios": "https://dc.lft.to/lastmile_qr_scan"}, "fusion_lon": 0.0, "lat": 38.90137683333333, "bike_id": "1e60d54c6ded23a928f5b759e4819976", "type": "electric_scooter", "is_reserved": 0, "lon": -77.00933966666666}, {"fusion_lat": 0.0, "name": "748e8776b6d5818882d120bce06f286d", "is_disabled": 0, "rental_uris": {"android": "https://dc.lft.to/lastmile_qr_scan", "ios": "https://dc.lft.to/lastmile_qr_scan"}, "fusion_lon": 0.0, "lat": 38.920643, "bike_id": "748e8776b6d5818882d120bce06f286d", "type": "electric_scooter", "is_reserved": 0, "lon": -77.0421415}, {"fusion_lat": 0.0, "name": "e87c27076df3422fd642243f1115c1cf", "is_disabled": 0, "rental_uris": {"android": "https://dc.lft.to/lastmile_qr_scan", "ios": "https://dc.lft.to/lastmile_qr_scan"}, "fusion_lon": 0.0, "lat": 38.933933, "bike_id": "e87c27076df3422fd642243f1115c1cf", "type": "electric_scooter", "is_reserved": 0, "lon": -77.05771516666667}, {"fusion_lat": 0.0, "name": "5e1835d78567dd0f007397fbd7ebbd34", "is_disabled": 0, "rental_uris": {"android": "https://dc.lft.to/lastmile_qr_scan", "ios": "https://dc.lft.to/lastmile_qr_scan"}, "fusion_lon": 0.0, "lat": 38.915381, "bike_id": "5e1835d78567dd0f007397fbd7ebbd34", "type": "electric_scooter", "is_reserved": 0, "lon": -76.98237716666667}, {"fusion_lat": 0.0, "name": "98ca67c44e732467e8c45854374c0404", "is_disabled": 0, "rental_uris": {"android": "https://dc.lft.to/lastmile_qr_scan", "ios": "https://dc.lft.to/lastmile_qr_scan"}, "fusion_lon": 0.0, "lat": 38.924954666666665, "bike_id": "98ca67c44e732467e8c45854374c0404", "type": "electric_scooter", "is_reserved": 0, "lon": -77.05113466666667}, {"fusion_lat": 0.0, "name": "bcfec73f598197aa1b29e2d465370366", "is_disabled": 0, "rental_uris": {"android": "https://dc.lft.to/lastmile_qr_scan", "ios": "https://dc.lft.to/lastmile_qr_scan"}, "fusion_lon": 0.0, "lat": 38.89231083333333, "bike_id": "bcfec73f598197aa1b29e2d465370366", "type": "electric_scooter", "is_reserved": 0, "lon": -77.03351566666667}, {"fusion_lat": 0.0, "name": "2393930e93897c7f1117d56060903196", "is_disabled": 0, "rental_uris": {"android": "https://dc.lft.to/lastmile_qr_scan", "ios": "https://dc.lft.to/lastmile_qr_scan"}, "fusion_lon": 0.0, "lat": 38.89888283333333, "bike_id": "2393930e93897c7f1117d56060903196", "type": "electric_scooter", "is_reserved": 0, "lon": -77.03937566666667}, {"fusion_lat": 0.0, "name": "d6a9f33174aec2b670af94e2d6b440e7", "is_disabled": 0, "rental_uris": {"android": "https://dc.lft.to/lastmile_qr_scan", "ios": "https://dc.lft.to/lastmile_qr_scan"}, "fusion_lon": 0.0, "lat": 38.90443416666667, "bike_id": "d6a9f33174aec2b670af94e2d6b440e7", "type": "electric_scooter", "is_reserved": 0, "lon": -76.97418866666666}, {"fusion_lat": 0.0, "name": "3f1ff488df8620e4ee87728f4d1097c5", "is_disabled": 0, "rental_uris": {"android": "https://dc.lft.to/lastmile_qr_scan", "ios": "https://dc.lft.to/lastmile_qr_scan"}, "fusion_lon": 0.0, "lat": 38.9022, "bike_id": "3f1ff488df8620e4ee87728f4d1097c5", "type": "electric_scooter", "is_reserved": 0, "lon": -76.99500066666667}, {"fusion_lat": 0.0, "name": "efd359c55ef19696317d61cc2c4cb356", "is_disabled": 0, "rental_uris": {"android": "https://dc.lft.to/lastmile_qr_scan", "ios": "https://dc.lft.to/lastmile_qr_scan"}, "fusion_lon": 0.0, "lat": 38.928607166666666, "bike_id": "efd359c55ef19696317d61cc2c4cb356", "type": "electric_scooter", "is_reserved": 0, "lon": -77.03214283333334}, {"fusion_lat": 0.0, "name": "9636436a795e25322c08fe818543b769", "is_disabled": 0, "rental_uris": {"android": "https://dc.lft.to/lastmile_qr_scan", "ios": "https://dc.lft.to/lastmile_qr_scan"}, "fusion_lon": 0.0, "lat": 38.907712833333335, "bike_id": "9636436a795e25322c08fe818543b769", "type": "electric_scooter", "is_reserved": 0, "lon": -77.03864766666666}, {"fusion_lat": 0.0, "name": "3fb8a15aaca581f6a516eedd8c991342", "is_disabled": 0, "rental_uris": {"android": "https://dc.lft.to/lastmile_qr_scan", "ios": "https://dc.lft.to/lastmile_qr_scan"}, "fusion_lon": 0.0, "lat": 38.953320166666664, "bike_id": "3fb8a15aaca581f6a516eedd8c991342", "type": "electric_bike", "is_reserved": 0, "lon": -76.9825675}, {"fusion_lat": 0.0, "name": "09c86316899c2aab9eac373db66edf22", "is_disabled": 0, "rental_uris": {"android": "https://dc.lft.to/lastmile_qr_scan", "ios": "https://dc.lft.to/lastmile_qr_scan"}, "fusion_lon": 0.0, "lat": 38.916333333333334, "bike_id": "09c86316899c2aab9eac373db66edf22", "type": "electric_scooter", "is_reserved": 0, "lon": -77.039877}, {"fusion_lat": 0.0, "name": "54d19d46895e71fd81f1d5edb6586d13", "is_disabled": 0, "rental_uris": {"android": "https://dc.lft.to/lastmile_qr_scan", "ios": "https://dc.lft.to/lastmile_qr_scan"}, "fusion_lon": 0.0, "lat": 38.897259166666664, "bike_id": "54d19d46895e71fd81f1d5edb6586d13", "type": "electric_scooter", "is_reserved": 0, "lon": -77.04301216666667}, {"fusion_lat": 0.0, "name": "48d1cb179b1944f3e407ce713588e5af", "is_disabled": 0, "rental_uris": {"android": "https://dc.lft.to/lastmile_qr_scan", "ios": "https://dc.lft.to/lastmile_qr_scan"}, "fusion_lon": 0.0, "lat": 38.925112, "bike_id": "48d1cb179b1944f3e407ce713588e5af", "type": "electric_scooter", "is_reserved": 0, "lon": -77.00215233333333}, {"fusion_lat": 0.0, "name": "a3d5597066b638c67e6b74e6d383255f", "is_disabled": 0, "rental_uris": {"android": "https://dc.lft.to/lastmile_qr_scan", "ios": "https://dc.lft.to/lastmile_qr_scan"}, "fusion_lon": 0.0, "lat": 38.91998866666667, "bike_id": "a3d5597066b638c67e6b74e6d383255f", "type": "electric_scooter", "is_reserved": 0, "lon": -77.07132733333333}, {"fusion_lat": 0.0, "name": "c6e50d5d11973b465d04aa6479edf87f", "is_disabled": 0, "rental_uris": {"android": "https://dc.lft.to/lastmile_qr_scan", "ios": "https://dc.lft.to/lastmile_qr_scan"}, "fusion_lon": 0.0, "lat": 38.920580666666666, "bike_id": "c6e50d5d11973b465d04aa6479edf87f", "type": "electric_bike", "is_reserved": 0, "lon": -77.04812033333333}, {"fusion_lat": 0.0, "name": "046a81ad2738088ecc28394464ccaf90", "is_disabled": 0, "rental_uris": {"android": "https://dc.lft.to/lastmile_qr_scan", "ios": "https://dc.lft.to/lastmile_qr_scan"}, "fusion_lon": 0.0, "lat": 38.913941, "bike_id": "046a81ad2738088ecc28394464ccaf90", "type": "electric_scooter", "is_reserved": 0, "lon": -77.0332855}, {"fusion_lat": 0.0, "name": "26576c5d4c586183f7484986dbdf87c4", "is_disabled": 0, "rental_uris": {"android": "https://dc.lft.to/lastmile_qr_scan", "ios": "https://dc.lft.to/lastmile_qr_scan"}, "fusion_lon": 0.0, "lat": 38.906092, "bike_id": "26576c5d4c586183f7484986dbdf87c4", "type": "electric_scooter", "is_reserved": 0, "lon": -77.05686183333333}, {"fusion_lat": 0.0, "name": "17ef1bd8b01018ed3cd17613b7d9c92b", "is_disabled": 0, "rental_uris": {"android": "https://dc.lft.to/lastmile_qr_scan", "ios": "https://dc.lft.to/lastmile_qr_scan"}, "fusion_lon": 0.0, "lat": 38.900257, "bike_id": "17ef1bd8b01018ed3cd17613b7d9c92b", "type": "electric_scooter", "is_reserved": 0, "lon": -77.00029}, {"fusion_lat": 0.0, "name": "226972537a27881dcf408f76aaa46c04", "is_disabled": 0, "rental_uris": {"android": "https://dc.lft.to/lastmile_qr_scan", "ios": "https://dc.lft.to/lastmile_qr_scan"}, "fusion_lon": 0.0, "lat": 38.923191, "bike_id": "226972537a27881dcf408f76aaa46c04", "type": "electric_scooter", "is_reserved": 0, "lon": -77.02138533333333}, {"fusion_lat": 0.0, "name": "40e319d251b3b359ee3efc94e81d82ee", "is_disabled": 0, "rental_uris": {"android": "https://dc.lft.to/lastmile_qr_scan", "ios": "https://dc.lft.to/lastmile_qr_scan"}, "fusion_lon": 0.0, "lat": 38.930572166666664, "bike_id": "40e319d251b3b359ee3efc94e81d82ee", "type": "electric_scooter", "is_reserved": 0, "lon": -77.02324733333333}, {"fusion_lat": 0.0, "name": "530df75f2ada630705e7d878e3191a53", "is_disabled": 0, "rental_uris": {"android": "https://dc.lft.to/lastmile_qr_scan", "ios": "https://dc.lft.to/lastmile_qr_scan"}, "fusion_lon": 0.0, "lat": 38.84085283333334, "bike_id": "530df75f2ada630705e7d878e3191a53", "type": "electric_bike", "is_reserved": 0, "lon": -76.97030383333333}, {"fusion_lat": 0.0, "name": "d0d51326b3551724ea86506acda50085", "is_disabled": 0, "rental_uris": {"android": "https://dc.lft.to/lastmile_qr_scan", "ios": "https://dc.lft.to/lastmile_qr_scan"}, "fusion_lon": 0.0, "lat": 38.9065015, "bike_id": "d0d51326b3551724ea86506acda50085", "type": "electric_scooter", "is_reserved": 0, "lon": -77.01138966666667}, {"fusion_lat": 0.0, "name": "a8239387ec62f61dd2382dffa4d0d9a6", "is_disabled": 0, "rental_uris": {"android": "https://dc.lft.to/lastmile_qr_scan", "ios": "https://dc.lft.to/lastmile_qr_scan"}, "fusion_lon": 0.0, "lat": 38.90557833333333, "bike_id": "a8239387ec62f61dd2382dffa4d0d9a6", "type": "electric_scooter", "is_reserved": 0, "lon": -77.005933}, {"fusion_lat": 0.0, "name": "a559b88d01a106974bd98581076295c4", "is_disabled": 0, "rental_uris": {"android": "https://dc.lft.to/lastmile_qr_scan", "ios": "https://dc.lft.to/lastmile_qr_scan"}, "fusion_lon": 0.0, "lat": 38.919661, "bike_id": "a559b88d01a106974bd98581076295c4", "type": "electric_scooter", "is_reserved": 0, "lon": -77.04513733333333}, {"fusion_lat": 0.0, "name": "d1b2c7b1bd6ffcbb6bebb50552bbef9b", "is_disabled": 0, "rental_uris": {"android": "https://dc.lft.to/lastmile_qr_scan", "ios": "https://dc.lft.to/lastmile_qr_scan"}, "fusion_lon": 0.0, "lat": 38.922401666666666, "bike_id": "d1b2c7b1bd6ffcbb6bebb50552bbef9b", "type": "electric_scooter", "is_reserved": 0, "lon": -77.01815283333333}, {"fusion_lat": 0.0, "name": "d7a4c927d48c2058c311d2e5d91bbaa9", "is_disabled": 0, "rental_uris": {"android": "https://dc.lft.to/lastmile_qr_scan", "ios": "https://dc.lft.to/lastmile_qr_scan"}, "fusion_lon": 0.0, "lat": 38.855495166666664, "bike_id": "d7a4c927d48c2058c311d2e5d91bbaa9", "type": "electric_scooter", "is_reserved": 0, "lon": -76.9875495}, {"fusion_lat": 0.0, "name": "dc72095d79612e15dfddde14ca0a4bf2", "is_disabled": 0, "rental_uris": {"android": "https://dc.lft.to/lastmile_qr_scan", "ios": "https://dc.lft.to/lastmile_qr_scan"}, "fusion_lon": 0.0, "lat": 38.924176, "bike_id": "dc72095d79612e15dfddde14ca0a4bf2", "type": "electric_scooter", "is_reserved": 0, "lon": -77.03642483333333}, {"fusion_lat": 0.0, "name": "db2c6de1625b96e892f542564c6ea73f", "is_disabled": 0, "rental_uris": {"android": "https://dc.lft.to/lastmile_qr_scan", "ios": "https://dc.lft.to/lastmile_qr_scan"}, "fusion_lon": 0.0, "lat": 38.920375166666666, "bike_id": "db2c6de1625b96e892f542564c6ea73f", "type": "electric_scooter", "is_reserved": 0, "lon": -77.01781933333334}, {"fusion_lat": 0.0, "name": "3ed2dfa7a181751ed6ac64f067e4a9b2", "is_disabled": 0, "rental_uris": {"android": "https://dc.lft.to/lastmile_qr_scan", "ios": "https://dc.lft.to/lastmile_qr_scan"}, "fusion_lon": 0.0, "lat": 38.92078816666667, "bike_id": "3ed2dfa7a181751ed6ac64f067e4a9b2", "type": "electric_bike", "is_reserved": 0, "lon": -76.98943883333334}, {"fusion_lat": 0.0, "name": "6ca6dd9ae31d3a74e6d292b53cc6f6d6", "is_disabled": 0, "rental_uris": {"android": "https://dc.lft.to/lastmile_qr_scan", "ios": "https://dc.lft.to/lastmile_qr_scan"}, "fusion_lon": 0.0, "lat": 38.902395, "bike_id": "6ca6dd9ae31d3a74e6d292b53cc6f6d6", "type": "electric_scooter", "is_reserved": 0, "lon": -77.05943383333333}, {"fusion_lat": 0.0, "name": "c64264824ca376a7f65073d8678be300", "is_disabled": 0, "rental_uris": {"android": "https://dc.lft.to/lastmile_qr_scan", "ios": "https://dc.lft.to/lastmile_qr_scan"}, "fusion_lon": 0.0, "lat": 38.918024, "bike_id": "c64264824ca376a7f65073d8678be300", "type": "electric_scooter", "is_reserved": 0, "lon": -77.04445016666666}, {"fusion_lat": 0.0, "name": "8a69fb8c661ae7847698b5ca8635583d", "is_disabled": 0, "rental_uris": {"android": "https://dc.lft.to/lastmile_qr_scan", "ios": "https://dc.lft.to/lastmile_qr_scan"}, "fusion_lon": 0.0, "lat": 38.8968765, "bike_id": "8a69fb8c661ae7847698b5ca8635583d", "type": "electric_scooter", "is_reserved": 0, "lon": -77.049117}, {"fusion_lat": 0.0, "name": "e0b333b18f2103c1a2ff14ea70be4902", "is_disabled": 0, "rental_uris": {"android": "https://dc.lft.to/lastmile_qr_scan", "ios": "https://dc.lft.to/lastmile_qr_scan"}, "fusion_lon": 0.0, "lat": 38.89504983333333, "bike_id": "e0b333b18f2103c1a2ff14ea70be4902", "type": "electric_scooter", "is_reserved": 0, "lon": -77.02184}, {"fusion_lat": 0.0, "name": "c01d551b1569f12b8343c47182e477d9", "is_disabled": 0, "rental_uris": {"android": "https://dc.lft.to/lastmile_qr_scan", "ios": "https://dc.lft.to/lastmile_qr_scan"}, "fusion_lon": 0.0, "lat": 38.94232133333333, "bike_id": "c01d551b1569f12b8343c47182e477d9", "type": "electric_scooter", "is_reserved": 0, "lon": -77.01383433333334}, {"fusion_lat": 0.0, "name": "3dc84fcb8ce22506dddf1d6a40faba5e", "is_disabled": 0, "rental_uris": {"android": "https://dc.lft.to/lastmile_qr_scan", "ios": "https://dc.lft.to/lastmile_qr_scan"}, "fusion_lon": 0.0, "lat": 38.9165545, "bike_id": "3dc84fcb8ce22506dddf1d6a40faba5e", "type": "electric_scooter", "is_reserved": 0, "lon": -77.02276483333333}, {"fusion_lat": 0.0, "name": "0f7d748d1148d37629d12703dce6bc4b", "is_disabled": 0, "rental_uris": {"android": "https://dc.lft.to/lastmile_qr_scan", "ios": "https://dc.lft.to/lastmile_qr_scan"}, "fusion_lon": 0.0, "lat": 38.937186833333335, "bike_id": "0f7d748d1148d37629d12703dce6bc4b", "type": "electric_scooter", "is_reserved": 0, "lon": -77.02463183333333}, {"fusion_lat": 0.0, "name": "412193978d00f2186d08eaee372cac7e", "is_disabled": 0, "rental_uris": {"android": "https://dc.lft.to/lastmile_qr_scan", "ios": "https://dc.lft.to/lastmile_qr_scan"}, "fusion_lon": 0.0, "lat": 38.9235855, "bike_id": "412193978d00f2186d08eaee372cac7e", "type": "electric_scooter", "is_reserved": 0, "lon": -77.0503805}, {"fusion_lat": 0.0, "name": "a7b834d62557d473090430292c4fad22", "is_disabled": 0, "rental_uris": {"android": "https://dc.lft.to/lastmile_qr_scan", "ios": "https://dc.lft.to/lastmile_qr_scan"}, "fusion_lon": 0.0, "lat": 38.88518066666666, "bike_id": "a7b834d62557d473090430292c4fad22", "type": "electric_scooter", "is_reserved": 0, "lon": -77.01519983333333}, {"fusion_lat": 0.0, "name": "060f7d3b684a87ff83cba0075f459851", "is_disabled": 0, "rental_uris": {"android": "https://dc.lft.to/lastmile_qr_scan", "ios": "https://dc.lft.to/lastmile_qr_scan"}, "fusion_lon": 0.0, "lat": 38.936440833333336, "bike_id": "060f7d3b684a87ff83cba0075f459851", "type": "electric_scooter", "is_reserved": 0, "lon": -77.03056516666666}, {"fusion_lat": 0.0, "name": "e4f138624eb69cbf476f437a04d36762", "is_disabled": 0, "rental_uris": {"android": "https://dc.lft.to/lastmile_qr_scan", "ios": "https://dc.lft.to/lastmile_qr_scan"}, "fusion_lon": 0.0, "lat": 38.92322716666666, "bike_id": "e4f138624eb69cbf476f437a04d36762", "type": "electric_scooter", "is_reserved": 0, "lon": -77.02692233333333}, {"fusion_lat": 0.0, "name": "55628fb0e2f75cd5919b169d9e762a2d", "is_disabled": 0, "rental_uris": {"android": "https://dc.lft.to/lastmile_qr_scan", "ios": "https://dc.lft.to/lastmile_qr_scan"}, "fusion_lon": 0.0, "lat": 38.93111316666667, "bike_id": "55628fb0e2f75cd5919b169d9e762a2d", "type": "electric_scooter", "is_reserved": 0, "lon": -77.02402566666666}, {"fusion_lat": 0.0, "name": "0173cff6af6fb16bd2b20dc945e2cdca", "is_disabled": 0, "rental_uris": {"android": "https://dc.lft.to/lastmile_qr_scan", "ios": "https://dc.lft.to/lastmile_qr_scan"}, "fusion_lon": 0.0, "lat": 38.915612333333335, "bike_id": "0173cff6af6fb16bd2b20dc945e2cdca", "type": "electric_scooter", "is_reserved": 0, "lon": -77.020927}, {"fusion_lat": 0.0, "name": "32baaf30dd65d308601b130db3c701a0", "is_disabled": 0, "rental_uris": {"android": "https://dc.lft.to/lastmile_qr_scan", "ios": "https://dc.lft.to/lastmile_qr_scan"}, "fusion_lon": 0.0, "lat": 38.905565333333335, "bike_id": "32baaf30dd65d308601b130db3c701a0", "type": "electric_scooter", "is_reserved": 0, "lon": -77.0058785}, {"fusion_lat": 0.0, "name": "8dd4cedd1d8f4324871564198295f47d", "is_disabled": 0, "rental_uris": {"android": "https://dc.lft.to/lastmile_qr_scan", "ios": "https://dc.lft.to/lastmile_qr_scan"}, "fusion_lon": 0.0, "lat": 38.9112555, "bike_id": "8dd4cedd1d8f4324871564198295f47d", "type": "electric_bike", "is_reserved": 0, "lon": -77.06579033333334}, {"fusion_lat": 0.0, "name": "159cdd9c84a4abcfe4aae5d05ecd6567", "is_disabled": 0, "rental_uris": {"android": "https://dc.lft.to/lastmile_qr_scan", "ios": "https://dc.lft.to/lastmile_qr_scan"}, "fusion_lon": 0.0, "lat": 38.9416455, "bike_id": "159cdd9c84a4abcfe4aae5d05ecd6567", "type": "electric_scooter", "is_reserved": 0, "lon": -77.02514166666667}, {"fusion_lat": 0.0, "name": "953ee36f74ca9502aca94232ec06e412", "is_disabled": 0, "rental_uris": {"android": "https://dc.lft.to/lastmile_qr_scan", "ios": "https://dc.lft.to/lastmile_qr_scan"}, "fusion_lon": 0.0, "lat": 38.88807416666667, "bike_id": "953ee36f74ca9502aca94232ec06e412", "type": "electric_scooter", "is_reserved": 0, "lon": -76.983625}, {"fusion_lat": 0.0, "name": "690c48e00defea897d81dd040d85e6e3", "is_disabled": 0, "rental_uris": {"android": "https://dc.lft.to/lastmile_qr_scan", "ios": "https://dc.lft.to/lastmile_qr_scan"}, "fusion_lon": 0.0, "lat": 38.913321, "bike_id": "690c48e00defea897d81dd040d85e6e3", "type": "electric_scooter", "is_reserved": 0, "lon": -77.04346516666666}, {"fusion_lat": 0.0, "name": "66f0d4e87344cb92d5c07338ebdbc181", "is_disabled": 0, "rental_uris": {"android": "https://dc.lft.to/lastmile_qr_scan", "ios": "https://dc.lft.to/lastmile_qr_scan"}, "fusion_lon": 0.0, "lat": 38.866405, "bike_id": "66f0d4e87344cb92d5c07338ebdbc181", "type": "electric_scooter", "is_reserved": 0, "lon": -76.98305366666666}, {"fusion_lat": 0.0, "name": "d85e156196335a706c221b340b2de4f5", "is_disabled": 0, "rental_uris": {"android": "https://dc.lft.to/lastmile_qr_scan", "ios": "https://dc.lft.to/lastmile_qr_scan"}, "fusion_lon": 0.0, "lat": 38.92550966666667, "bike_id": "d85e156196335a706c221b340b2de4f5", "type": "electric_scooter", "is_reserved": 0, "lon": -76.98301366666666}, {"fusion_lat": 0.0, "name": "fbb15ddee9786879bc24c7ba48713e8c", "is_disabled": 0, "rental_uris": {"android": "https://dc.lft.to/lastmile_qr_scan", "ios": "https://dc.lft.to/lastmile_qr_scan"}, "fusion_lon": 0.0, "lat": 38.90199633333334, "bike_id": "fbb15ddee9786879bc24c7ba48713e8c", "type": "electric_scooter", "is_reserved": 0, "lon": -77.0163225}, {"fusion_lat": 0.0, "name": "0bc54505f781f0696a2b9c468efdb736", "is_disabled": 0, "rental_uris": {"android": "https://dc.lft.to/lastmile_qr_scan", "ios": "https://dc.lft.to/lastmile_qr_scan"}, "fusion_lon": 0.0, "lat": 38.926786, "bike_id": "0bc54505f781f0696a2b9c468efdb736", "type": "electric_scooter", "is_reserved": 0, "lon": -77.03145866666667}, {"fusion_lat": 0.0, "name": "48b1a99bdeaa5b22154823da07883d68", "is_disabled": 0, "rental_uris": {"android": "https://dc.lft.to/lastmile_qr_scan", "ios": "https://dc.lft.to/lastmile_qr_scan"}, "fusion_lon": 0.0, "lat": 38.9106205, "bike_id": "48b1a99bdeaa5b22154823da07883d68", "type": "electric_scooter", "is_reserved": 0, "lon": -77.0366795}, {"fusion_lat": 0.0, "name": "1a37b41dbe9a646f0932b420c94983f0", "is_disabled": 0, "rental_uris": {"android": "https://dc.lft.to/lastmile_qr_scan", "ios": "https://dc.lft.to/lastmile_qr_scan"}, "fusion_lon": 0.0, "lat": 38.8934925, "bike_id": "1a37b41dbe9a646f0932b420c94983f0", "type": "electric_scooter", "is_reserved": 0, "lon": -77.02817716666667}, {"fusion_lat": 0.0, "name": "194ee09ea7dc5e849152ee04ef2570e5", "is_disabled": 0, "rental_uris": {"android": "https://dc.lft.to/lastmile_qr_scan", "ios": "https://dc.lft.to/lastmile_qr_scan"}, "fusion_lon": 0.0, "lat": 38.90690133333333, "bike_id": "194ee09ea7dc5e849152ee04ef2570e5", "type": "electric_scooter", "is_reserved": 0, "lon": -77.074709}, {"fusion_lat": 0.0, "name": "273928a55a3cc5eaea37431f21bd8e9f", "is_disabled": 0, "rental_uris": {"android": "https://dc.lft.to/lastmile_qr_scan", "ios": "https://dc.lft.to/lastmile_qr_scan"}, "fusion_lon": 0.0, "lat": 38.91969666666667, "bike_id": "273928a55a3cc5eaea37431f21bd8e9f", "type": "electric_scooter", "is_reserved": 0, "lon": -77.0238245}, {"fusion_lat": 0.0, "name": "68fb96bfb26e9df6f84768406499be31", "is_disabled": 0, "rental_uris": {"android": "https://dc.lft.to/lastmile_qr_scan", "ios": "https://dc.lft.to/lastmile_qr_scan"}, "fusion_lon": 0.0, "lat": 38.820935666666664, "bike_id": "68fb96bfb26e9df6f84768406499be31", "type": "electric_bike", "is_reserved": 0, "lon": -77.0530325}, {"fusion_lat": 0.0, "name": "63de2c1f9043f493d82db3ca61d2f526", "is_disabled": 0, "rental_uris": {"android": "https://dc.lft.to/lastmile_qr_scan", "ios": "https://dc.lft.to/lastmile_qr_scan"}, "fusion_lon": 0.0, "lat": 38.87569333333333, "bike_id": "63de2c1f9043f493d82db3ca61d2f526", "type": "electric_scooter", "is_reserved": 0, "lon": -77.00935283333334}, {"fusion_lat": 0.0, "name": "98c9416213a97a8c6cfcf6d49d766e5a", "is_disabled": 0, "rental_uris": {"android": "https://dc.lft.to/lastmile_qr_scan", "ios": "https://dc.lft.to/lastmile_qr_scan"}, "fusion_lon": 0.0, "lat": 38.9279515, "bike_id": "98c9416213a97a8c6cfcf6d49d766e5a", "type": "electric_scooter", "is_reserved": 0, "lon": -76.95556633333334}, {"fusion_lat": 0.0, "name": "749391688e82322616ca09882638d67b", "is_disabled": 0, "rental_uris": {"android": "https://dc.lft.to/lastmile_qr_scan", "ios": "https://dc.lft.to/lastmile_qr_scan"}, "fusion_lon": 0.0, "lat": 38.89295516666667, "bike_id": "749391688e82322616ca09882638d67b", "type": "electric_scooter", "is_reserved": 0, "lon": -77.021518}, {"fusion_lat": 0.0, "name": "dea9982cf80db8f419fca88f4d655af9", "is_disabled": 0, "rental_uris": {"android": "https://dc.lft.to/lastmile_qr_scan", "ios": "https://dc.lft.to/lastmile_qr_scan"}, "fusion_lon": 0.0, "lat": 38.9204395, "bike_id": "dea9982cf80db8f419fca88f4d655af9", "type": "electric_scooter", "is_reserved": 0, "lon": -77.079825}, {"fusion_lat": 0.0, "name": "1807fad809307d8d8fea1e745dbc6424", "is_disabled": 0, "rental_uris": {"android": "https://dc.lft.to/lastmile_qr_scan", "ios": "https://dc.lft.to/lastmile_qr_scan"}, "fusion_lon": 0.0, "lat": 38.9320775, "bike_id": "1807fad809307d8d8fea1e745dbc6424", "type": "electric_scooter", "is_reserved": 0, "lon": -77.03862366666667}, {"fusion_lat": 0.0, "name": "2acc988d57a756457cfabedd2a3e073d", "is_disabled": 0, "rental_uris": {"android": "https://dc.lft.to/lastmile_qr_scan", "ios": "https://dc.lft.to/lastmile_qr_scan"}, "fusion_lon": 0.0, "lat": 38.908272, "bike_id": "2acc988d57a756457cfabedd2a3e073d", "type": "electric_scooter", "is_reserved": 0, "lon": -77.03202616666667}, {"fusion_lat": 0.0, "name": "90333a2f65af492381424ed30c86c296", "is_disabled": 0, "rental_uris": {"android": "https://dc.lft.to/lastmile_qr_scan", "ios": "https://dc.lft.to/lastmile_qr_scan"}, "fusion_lon": 0.0, "lat": 38.90484583333333, "bike_id": "90333a2f65af492381424ed30c86c296", "type": "electric_scooter", "is_reserved": 0, "lon": -76.9496515}, {"fusion_lat": 0.0, "name": "5a8d718b46c41835e536dba28f869fb3", "is_disabled": 0, "rental_uris": {"android": "https://dc.lft.to/lastmile_qr_scan", "ios": "https://dc.lft.to/lastmile_qr_scan"}, "fusion_lon": 0.0, "lat": 38.89737733333333, "bike_id": "5a8d718b46c41835e536dba28f869fb3", "type": "electric_scooter", "is_reserved": 0, "lon": -77.022048}, {"fusion_lat": 0.0, "name": "7f3b083fa6fa2370523d27136c752a30", "is_disabled": 0, "rental_uris": {"android": "https://dc.lft.to/lastmile_qr_scan", "ios": "https://dc.lft.to/lastmile_qr_scan"}, "fusion_lon": 0.0, "lat": 38.923010833333336, "bike_id": "7f3b083fa6fa2370523d27136c752a30", "type": "electric_scooter", "is_reserved": 0, "lon": -77.04141533333333}, {"fusion_lat": 0.0, "name": "eaacafdb6a9363c3106ec0f8b2dfb89a", "is_disabled": 0, "rental_uris": {"android": "https://dc.lft.to/lastmile_qr_scan", "ios": "https://dc.lft.to/lastmile_qr_scan"}, "fusion_lon": 0.0, "lat": 38.913341333333335, "bike_id": "eaacafdb6a9363c3106ec0f8b2dfb89a", "type": "electric_scooter", "is_reserved": 0, "lon": -77.043531}, {"fusion_lat": 0.0, "name": "b6978a048e6e58ead6faf6439db331ea", "is_disabled": 0, "rental_uris": {"android": "https://dc.lft.to/lastmile_qr_scan", "ios": "https://dc.lft.to/lastmile_qr_scan"}, "fusion_lon": 0.0, "lat": 38.915533333333336, "bike_id": "b6978a048e6e58ead6faf6439db331ea", "type": "electric_scooter", "is_reserved": 0, "lon": -77.03029266666667}, {"fusion_lat": 0.0, "name": "9f9509e0c9a3182bae36a7a6e68491c9", "is_disabled": 0, "rental_uris": {"android": "https://dc.lft.to/lastmile_qr_scan", "ios": "https://dc.lft.to/lastmile_qr_scan"}, "fusion_lon": 0.0, "lat": 38.94919483333334, "bike_id": "9f9509e0c9a3182bae36a7a6e68491c9", "type": "electric_scooter", "is_reserved": 0, "lon": -77.0185475}, {"fusion_lat": 0.0, "name": "35552785528a62e41a6834c6af1da926", "is_disabled": 0, "rental_uris": {"android": "https://dc.lft.to/lastmile_qr_scan", "ios": "https://dc.lft.to/lastmile_qr_scan"}, "fusion_lon": 0.0, "lat": 38.92444066666667, "bike_id": "35552785528a62e41a6834c6af1da926", "type": "electric_scooter", "is_reserved": 0, "lon": -77.05252883333333}, {"fusion_lat": 0.0, "name": "e8f2798832147b823d8797b1a0b0b463", "is_disabled": 0, "rental_uris": {"android": "https://dc.lft.to/lastmile_qr_scan", "ios": "https://dc.lft.to/lastmile_qr_scan"}, "fusion_lon": 0.0, "lat": 38.882428, "bike_id": "e8f2798832147b823d8797b1a0b0b463", "type": "electric_bike", "is_reserved": 0, "lon": -76.96262516666667}, {"fusion_lat": 0.0, "name": "cfb604186d3b1355e16155af032a119f", "is_disabled": 0, "rental_uris": {"android": "https://dc.lft.to/lastmile_qr_scan", "ios": "https://dc.lft.to/lastmile_qr_scan"}, "fusion_lon": 0.0, "lat": 38.90843266666667, "bike_id": "cfb604186d3b1355e16155af032a119f", "type": "electric_scooter", "is_reserved": 0, "lon": -77.0269885}, {"fusion_lat": 0.0, "name": "0221e064a658290232496aab3c7ffd3e", "is_disabled": 0, "rental_uris": {"android": "https://dc.lft.to/lastmile_qr_scan", "ios": "https://dc.lft.to/lastmile_qr_scan"}, "fusion_lon": 0.0, "lat": 38.98811466666667, "bike_id": "0221e064a658290232496aab3c7ffd3e", "type": "electric_bike", "is_reserved": 0, "lon": -77.02642816666666}, {"fusion_lat": 0.0, "name": "0e3d79a3336a4447c807efbdadf8e2ba", "is_disabled": 0, "rental_uris": {"android": "https://dc.lft.to/lastmile_qr_scan", "ios": "https://dc.lft.to/lastmile_qr_scan"}, "fusion_lon": 0.0, "lat": 38.915495, "bike_id": "0e3d79a3336a4447c807efbdadf8e2ba", "type": "electric_scooter", "is_reserved": 0, "lon": -77.02201966666667}, {"fusion_lat": 0.0, "name": "cffba6bfd5511bb4dad60cfec1d6d010", "is_disabled": 0, "rental_uris": {"android": "https://dc.lft.to/lastmile_qr_scan", "ios": "https://dc.lft.to/lastmile_qr_scan"}, "fusion_lon": 0.0, "lat": 38.91635733333333, "bike_id": "cffba6bfd5511bb4dad60cfec1d6d010", "type": "electric_scooter", "is_reserved": 0, "lon": -77.04782083333333}, {"fusion_lat": 0.0, "name": "48a833d82f40fa387e613910ae65b883", "is_disabled": 0, "rental_uris": {"android": "https://dc.lft.to/lastmile_qr_scan", "ios": "https://dc.lft.to/lastmile_qr_scan"}, "fusion_lon": 0.0, "lat": 38.873723166666664, "bike_id": "48a833d82f40fa387e613910ae65b883", "type": "electric_scooter", "is_reserved": 0, "lon": -77.0009245}, {"fusion_lat": 0.0, "name": "ca0f110e0c65dcc6d811cdcc8b5aa389", "is_disabled": 0, "rental_uris": {"android": "https://dc.lft.to/lastmile_qr_scan", "ios": "https://dc.lft.to/lastmile_qr_scan"}, "fusion_lon": 0.0, "lat": 38.899051, "bike_id": "ca0f110e0c65dcc6d811cdcc8b5aa389", "type": "electric_scooter", "is_reserved": 0, "lon": -77.03295483333333}, {"fusion_lat": 0.0, "name": "6bef7060bfef0aea8d884993ea2d653e", "is_disabled": 0, "rental_uris": {"android": "https://dc.lft.to/lastmile_qr_scan", "ios": "https://dc.lft.to/lastmile_qr_scan"}, "fusion_lon": 0.0, "lat": 38.944673, "bike_id": "6bef7060bfef0aea8d884993ea2d653e", "type": "electric_scooter", "is_reserved": 0, "lon": -77.0614355}, {"fusion_lat": 0.0, "name": "a42f213c62db0a8d4fe9aa7ea0431738", "is_disabled": 0, "rental_uris": {"android": "https://dc.lft.to/lastmile_qr_scan", "ios": "https://dc.lft.to/lastmile_qr_scan"}, "fusion_lon": 0.0, "lat": 38.92702716666667, "bike_id": "a42f213c62db0a8d4fe9aa7ea0431738", "type": "electric_scooter", "is_reserved": 0, "lon": -77.02078316666666}, {"fusion_lat": 0.0, "name": "4e486ec43ff2e28d32ff2153277e8bbc", "is_disabled": 0, "rental_uris": {"android": "https://dc.lft.to/lastmile_qr_scan", "ios": "https://dc.lft.to/lastmile_qr_scan"}, "fusion_lon": 0.0, "lat": 38.93972133333333, "bike_id": "4e486ec43ff2e28d32ff2153277e8bbc", "type": "electric_scooter", "is_reserved": 0, "lon": -77.03565566666667}, {"fusion_lat": 0.0, "name": "8e779ffa055ef7a707663ea4075da750", "is_disabled": 0, "rental_uris": {"android": "https://dc.lft.to/lastmile_qr_scan", "ios": "https://dc.lft.to/lastmile_qr_scan"}, "fusion_lon": 0.0, "lat": 38.884709666666666, "bike_id": "8e779ffa055ef7a707663ea4075da750", "type": "electric_scooter", "is_reserved": 0, "lon": -76.94985816666667}, {"fusion_lat": 0.0, "name": "d36e1bd32e0ed4410bed638cd2fba48d", "is_disabled": 0, "rental_uris": {"android": "https://dc.lft.to/lastmile_qr_scan", "ios": "https://dc.lft.to/lastmile_qr_scan"}, "fusion_lon": 0.0, "lat": 38.9612475, "bike_id": "d36e1bd32e0ed4410bed638cd2fba48d", "type": "electric_bike", "is_reserved": 0, "lon": -77.03280616666666}, {"fusion_lat": 0.0, "name": "7216a196581882ba658f830f8e32b365", "is_disabled": 0, "rental_uris": {"android": "https://dc.lft.to/lastmile_qr_scan", "ios": "https://dc.lft.to/lastmile_qr_scan"}, "fusion_lon": 0.0, "lat": 38.885105833333334, "bike_id": "7216a196581882ba658f830f8e32b365", "type": "electric_scooter", "is_reserved": 0, "lon": -76.92962566666667}, {"fusion_lat": 0.0, "name": "ac9df459cf14323e07c9a31f56607039", "is_disabled": 0, "rental_uris": {"android": "https://dc.lft.to/lastmile_qr_scan", "ios": "https://dc.lft.to/lastmile_qr_scan"}, "fusion_lon": 0.0, "lat": 38.8764075, "bike_id": "ac9df459cf14323e07c9a31f56607039", "type": "electric_scooter", "is_reserved": 0, "lon": -77.0011455}, {"fusion_lat": 0.0, "name": "85e9fae2f26dd74e97386920d9dc8001", "is_disabled": 0, "rental_uris": {"android": "https://dc.lft.to/lastmile_qr_scan", "ios": "https://dc.lft.to/lastmile_qr_scan"}, "fusion_lon": 0.0, "lat": 38.87855183333333, "bike_id": "85e9fae2f26dd74e97386920d9dc8001", "type": "electric_scooter", "is_reserved": 0, "lon": -77.00584766666667}, {"fusion_lat": 0.0, "name": "84c346a0ad4c80b2eb1a15df81ce5d79", "is_disabled": 0, "rental_uris": {"android": "https://dc.lft.to/lastmile_qr_scan", "ios": "https://dc.lft.to/lastmile_qr_scan"}, "fusion_lon": 0.0, "lat": 38.90851816666667, "bike_id": "84c346a0ad4c80b2eb1a15df81ce5d79", "type": "electric_scooter", "is_reserved": 0, "lon": -77.04540033333333}, {"fusion_lat": 0.0, "name": "247983959ddb3f6cff7fc9c4ed5bedcd", "is_disabled": 0, "rental_uris": {"android": "https://dc.lft.to/lastmile_qr_scan", "ios": "https://dc.lft.to/lastmile_qr_scan"}, "fusion_lon": 0.0, "lat": 38.883235166666665, "bike_id": "247983959ddb3f6cff7fc9c4ed5bedcd", "type": "electric_scooter", "is_reserved": 0, "lon": -77.01760716666666}, {"fusion_lat": 0.0, "name": "6e315854dd23d33a4c1ea2eaca681a22", "is_disabled": 0, "rental_uris": {"android": "https://dc.lft.to/lastmile_qr_scan", "ios": "https://dc.lft.to/lastmile_qr_scan"}, "fusion_lon": 0.0, "lat": 38.906684166666665, "bike_id": "6e315854dd23d33a4c1ea2eaca681a22", "type": "electric_scooter", "is_reserved": 0, "lon": -77.07515966666666}, {"fusion_lat": 0.0, "name": "21839308b0d7ac83e335dc88c128514c", "is_disabled": 0, "rental_uris": {"android": "https://dc.lft.to/lastmile_qr_scan", "ios": "https://dc.lft.to/lastmile_qr_scan"}, "fusion_lon": 0.0, "lat": 38.8728085, "bike_id": "21839308b0d7ac83e335dc88c128514c", "type": "electric_scooter", "is_reserved": 0, "lon": -77.0099285}, {"fusion_lat": 0.0, "name": "8e9f84484eb69a318cddcdb0862975aa", "is_disabled": 0, "rental_uris": {"android": "https://dc.lft.to/lastmile_qr_scan", "ios": "https://dc.lft.to/lastmile_qr_scan"}, "fusion_lon": 0.0, "lat": 38.90573666666667, "bike_id": "8e9f84484eb69a318cddcdb0862975aa", "type": "electric_scooter", "is_reserved": 0, "lon": -77.0220655}, {"fusion_lat": 0.0, "name": "5f6ebcd80b6636669133670f10e94e59", "is_disabled": 0, "rental_uris": {"android": "https://dc.lft.to/lastmile_qr_scan", "ios": "https://dc.lft.to/lastmile_qr_scan"}, "fusion_lon": 0.0, "lat": 38.926991, "bike_id": "5f6ebcd80b6636669133670f10e94e59", "type": "electric_scooter", "is_reserved": 0, "lon": -77.02108783333334}, {"fusion_lat": 0.0, "name": "8cde4ffe2d1a7d0c9b13854ef587b023", "is_disabled": 0, "rental_uris": {"android": "https://dc.lft.to/lastmile_qr_scan", "ios": "https://dc.lft.to/lastmile_qr_scan"}, "fusion_lon": 0.0, "lat": 38.88521883333333, "bike_id": "8cde4ffe2d1a7d0c9b13854ef587b023", "type": "electric_scooter", "is_reserved": 0, "lon": -77.0210555}, {"fusion_lat": 0.0, "name": "8a5fc0e9f65c2a1d0592d148ba06d46a", "is_disabled": 0, "rental_uris": {"android": "https://dc.lft.to/lastmile_qr_scan", "ios": "https://dc.lft.to/lastmile_qr_scan"}, "fusion_lon": 0.0, "lat": 38.902466, "bike_id": "8a5fc0e9f65c2a1d0592d148ba06d46a", "type": "electric_scooter", "is_reserved": 0, "lon": -77.02945716666666}, {"fusion_lat": 0.0, "name": "b31ca58ebd0b77d5c8d044815df32c05", "is_disabled": 0, "rental_uris": {"android": "https://dc.lft.to/lastmile_qr_scan", "ios": "https://dc.lft.to/lastmile_qr_scan"}, "fusion_lon": 0.0, "lat": 38.9093035, "bike_id": "b31ca58ebd0b77d5c8d044815df32c05", "type": "electric_scooter", "is_reserved": 0, "lon": -77.02130366666667}, {"fusion_lat": 0.0, "name": "08a5e7f3df010408218627dd41d32ff1", "is_disabled": 0, "rental_uris": {"android": "https://dc.lft.to/lastmile_qr_scan", "ios": "https://dc.lft.to/lastmile_qr_scan"}, "fusion_lon": 0.0, "lat": 38.889863166666665, "bike_id": "08a5e7f3df010408218627dd41d32ff1", "type": "electric_scooter", "is_reserved": 0, "lon": -76.9873495}, {"fusion_lat": 0.0, "name": "aab7571e7de805ad3f1e52420c329ae7", "is_disabled": 0, "rental_uris": {"android": "https://dc.lft.to/lastmile_qr_scan", "ios": "https://dc.lft.to/lastmile_qr_scan"}, "fusion_lon": 0.0, "lat": 38.90381716666667, "bike_id": "aab7571e7de805ad3f1e52420c329ae7", "type": "electric_scooter", "is_reserved": 0, "lon": -76.990124}, {"fusion_lat": 0.0, "name": "e53d66833deed2d358350e6c331770de", "is_disabled": 0, "rental_uris": {"android": "https://dc.lft.to/lastmile_qr_scan", "ios": "https://dc.lft.to/lastmile_qr_scan"}, "fusion_lon": 0.0, "lat": 38.898175333333334, "bike_id": "e53d66833deed2d358350e6c331770de", "type": "electric_scooter", "is_reserved": 0, "lon": -77.03158633333334}, {"fusion_lat": 0.0, "name": "ccb41a2a0e30ba28eee6ab55b7ad3576", "is_disabled": 0, "rental_uris": {"android": "https://dc.lft.to/lastmile_qr_scan", "ios": "https://dc.lft.to/lastmile_qr_scan"}, "fusion_lon": 0.0, "lat": 38.939325, "bike_id": "ccb41a2a0e30ba28eee6ab55b7ad3576", "type": "electric_scooter", "is_reserved": 0, "lon": -77.03329933333333}, {"fusion_lat": 0.0, "name": "de911ee339f4eaef2f211a3a4d4739a1", "is_disabled": 0, "rental_uris": {"android": "https://dc.lft.to/lastmile_qr_scan", "ios": "https://dc.lft.to/lastmile_qr_scan"}, "fusion_lon": 0.0, "lat": 38.862428666666666, "bike_id": "de911ee339f4eaef2f211a3a4d4739a1", "type": "electric_scooter", "is_reserved": 0, "lon": -76.994977}, {"fusion_lat": 0.0, "name": "b0b4c23198d4a39681429a3dc132cfec", "is_disabled": 0, "rental_uris": {"android": "https://dc.lft.to/lastmile_qr_scan", "ios": "https://dc.lft.to/lastmile_qr_scan"}, "fusion_lon": 0.0, "lat": 38.8534995, "bike_id": "b0b4c23198d4a39681429a3dc132cfec", "type": "electric_bike", "is_reserved": 0, "lon": -77.13467266666666}, {"fusion_lat": 0.0, "name": "fe7ebc4ce2a6bd599e72e7c774601011", "is_disabled": 0, "rental_uris": {"android": "https://dc.lft.to/lastmile_qr_scan", "ios": "https://dc.lft.to/lastmile_qr_scan"}, "fusion_lon": 0.0, "lat": 38.919764, "bike_id": "fe7ebc4ce2a6bd599e72e7c774601011", "type": "electric_scooter", "is_reserved": 0, "lon": -77.04167216666667}, {"fusion_lat": 0.0, "name": "d25a7c51cb563bf9d9d19a90e481e41d", "is_disabled": 0, "rental_uris": {"android": "https://dc.lft.to/lastmile_qr_scan", "ios": "https://dc.lft.to/lastmile_qr_scan"}, "fusion_lon": 0.0, "lat": 38.8865285, "bike_id": "d25a7c51cb563bf9d9d19a90e481e41d", "type": "electric_scooter", "is_reserved": 0, "lon": -77.00113933333333}, {"fusion_lat": 0.0, "name": "1721d05d21053d4923ca2f9907633030", "is_disabled": 0, "rental_uris": {"android": "https://dc.lft.to/lastmile_qr_scan", "ios": "https://dc.lft.to/lastmile_qr_scan"}, "fusion_lon": 0.0, "lat": 38.914551, "bike_id": "1721d05d21053d4923ca2f9907633030", "type": "electric_scooter", "is_reserved": 0, "lon": -77.00204633333334}, {"fusion_lat": 0.0, "name": "68d976794e67bb9cff398390cc05689f", "is_disabled": 0, "rental_uris": {"android": "https://dc.lft.to/lastmile_qr_scan", "ios": "https://dc.lft.to/lastmile_qr_scan"}, "fusion_lon": 0.0, "lat": 38.90975016666667, "bike_id": "68d976794e67bb9cff398390cc05689f", "type": "electric_scooter", "is_reserved": 0, "lon": -77.03389033333333}, {"fusion_lat": 0.0, "name": "5f4c4348efed1dc7db5c28c67e7bde22", "is_disabled": 0, "rental_uris": {"android": "https://dc.lft.to/lastmile_qr_scan", "ios": "https://dc.lft.to/lastmile_qr_scan"}, "fusion_lon": 0.0, "lat": 38.922664166666664, "bike_id": "5f4c4348efed1dc7db5c28c67e7bde22", "type": "electric_scooter", "is_reserved": 0, "lon": -76.99128283333333}, {"fusion_lat": 0.0, "name": "5d7d262482ef1331d9db0fa019bff1d4", "is_disabled": 0, "rental_uris": {"android": "https://dc.lft.to/lastmile_qr_scan", "ios": "https://dc.lft.to/lastmile_qr_scan"}, "fusion_lon": 0.0, "lat": 38.89731666666667, "bike_id": "5d7d262482ef1331d9db0fa019bff1d4", "type": "electric_scooter", "is_reserved": 0, "lon": -77.00432733333334}, {"fusion_lat": 0.0, "name": "882b90712d74c68673c8c9fe6d26788b", "is_disabled": 0, "rental_uris": {"android": "https://dc.lft.to/lastmile_qr_scan", "ios": "https://dc.lft.to/lastmile_qr_scan"}, "fusion_lon": 0.0, "lat": 38.89629516666667, "bike_id": "882b90712d74c68673c8c9fe6d26788b", "type": "electric_scooter", "is_reserved": 0, "lon": -77.03225566666667}, {"fusion_lat": 0.0, "name": "ca1f3640d39eaa93cbf2ef8f5e321ee7", "is_disabled": 0, "rental_uris": {"android": "https://dc.lft.to/lastmile_qr_scan", "ios": "https://dc.lft.to/lastmile_qr_scan"}, "fusion_lon": 0.0, "lat": 38.8641345, "bike_id": "ca1f3640d39eaa93cbf2ef8f5e321ee7", "type": "electric_scooter", "is_reserved": 0, "lon": -76.974677}, {"fusion_lat": 0.0, "name": "5e167f3a9711ae8a9861f7075a2c99fd", "is_disabled": 0, "rental_uris": {"android": "https://dc.lft.to/lastmile_qr_scan", "ios": "https://dc.lft.to/lastmile_qr_scan"}, "fusion_lon": 0.0, "lat": 38.897781, "bike_id": "5e167f3a9711ae8a9861f7075a2c99fd", "type": "electric_scooter", "is_reserved": 0, "lon": -76.93111833333333}, {"fusion_lat": 0.0, "name": "b4f34245619e84ab5cae45256b8f542a", "is_disabled": 0, "rental_uris": {"android": "https://dc.lft.to/lastmile_qr_scan", "ios": "https://dc.lft.to/lastmile_qr_scan"}, "fusion_lon": 0.0, "lat": 38.94990583333333, "bike_id": "b4f34245619e84ab5cae45256b8f542a", "type": "electric_scooter", "is_reserved": 0, "lon": -77.06695133333334}, {"fusion_lat": 0.0, "name": "04d8a1cf0b5c89610a8642a255f6f175", "is_disabled": 0, "rental_uris": {"android": "https://dc.lft.to/lastmile_qr_scan", "ios": "https://dc.lft.to/lastmile_qr_scan"}, "fusion_lon": 0.0, "lat": 38.94128633333333, "bike_id": "04d8a1cf0b5c89610a8642a255f6f175", "type": "electric_scooter", "is_reserved": 0, "lon": -77.0154685}, {"fusion_lat": 0.0, "name": "f6039db7292401aa9a90ff29a5a8202a", "is_disabled": 0, "rental_uris": {"android": "https://dc.lft.to/lastmile_qr_scan", "ios": "https://dc.lft.to/lastmile_qr_scan"}, "fusion_lon": 0.0, "lat": 38.90060533333333, "bike_id": "f6039db7292401aa9a90ff29a5a8202a", "type": "electric_scooter", "is_reserved": 0, "lon": -77.05030516666666}, {"fusion_lat": 0.0, "name": "1113fc4bd7f9344d5c1475f16828b6ff", "is_disabled": 0, "rental_uris": {"android": "https://dc.lft.to/lastmile_qr_scan", "ios": "https://dc.lft.to/lastmile_qr_scan"}, "fusion_lon": 0.0, "lat": 38.95635683333333, "bike_id": "1113fc4bd7f9344d5c1475f16828b6ff", "type": "electric_scooter", "is_reserved": 0, "lon": -77.03303316666667}, {"fusion_lat": 0.0, "name": "c1b442f9e099791cf19a31e4513b1eec", "is_disabled": 0, "rental_uris": {"android": "https://dc.lft.to/lastmile_qr_scan", "ios": "https://dc.lft.to/lastmile_qr_scan"}, "fusion_lon": 0.0, "lat": 38.88295983333333, "bike_id": "c1b442f9e099791cf19a31e4513b1eec", "type": "electric_bike", "is_reserved": 0, "lon": -77.03024833333333}, {"fusion_lat": 0.0, "name": "3580e5ae11dd7463727376b08a3f55e1", "is_disabled": 0, "rental_uris": {"android": "https://dc.lft.to/lastmile_qr_scan", "ios": "https://dc.lft.to/lastmile_qr_scan"}, "fusion_lon": 0.0, "lat": 38.910157833333336, "bike_id": "3580e5ae11dd7463727376b08a3f55e1", "type": "electric_scooter", "is_reserved": 0, "lon": -77.03857666666667}, {"fusion_lat": 0.0, "name": "83ae1b1ba5a056cf4cc6979028abea59", "is_disabled": 0, "rental_uris": {"android": "https://dc.lft.to/lastmile_qr_scan", "ios": "https://dc.lft.to/lastmile_qr_scan"}, "fusion_lon": 0.0, "lat": 38.9501765, "bike_id": "83ae1b1ba5a056cf4cc6979028abea59", "type": "electric_scooter", "is_reserved": 0, "lon": -77.0334865}, {"fusion_lat": 0.0, "name": "054d6a39b4b44b7e8a63c72bbf50ce4a", "is_disabled": 0, "rental_uris": {"android": "https://dc.lft.to/lastmile_qr_scan", "ios": "https://dc.lft.to/lastmile_qr_scan"}, "fusion_lon": 0.0, "lat": 38.92495783333333, "bike_id": "054d6a39b4b44b7e8a63c72bbf50ce4a", "type": "electric_scooter", "is_reserved": 0, "lon": -77.0217015}, {"fusion_lat": 0.0, "name": "ce69add40fce1edd983b6059c87594ce", "is_disabled": 0, "rental_uris": {"android": "https://dc.lft.to/lastmile_qr_scan", "ios": "https://dc.lft.to/lastmile_qr_scan"}, "fusion_lon": 0.0, "lat": 38.9270415, "bike_id": "ce69add40fce1edd983b6059c87594ce", "type": "electric_scooter", "is_reserved": 0, "lon": -77.0232205}, {"fusion_lat": 0.0, "name": "1cf8c3599f4cb80544485a7324098665", "is_disabled": 0, "rental_uris": {"android": "https://dc.lft.to/lastmile_qr_scan", "ios": "https://dc.lft.to/lastmile_qr_scan"}, "fusion_lon": 0.0, "lat": 38.94091366666667, "bike_id": "1cf8c3599f4cb80544485a7324098665", "type": "electric_scooter", "is_reserved": 0, "lon": -77.02320266666666}, {"fusion_lat": 0.0, "name": "a8312f338f4361e04c5f84c4f0dd7dc2", "is_disabled": 0, "rental_uris": {"android": "https://dc.lft.to/lastmile_qr_scan", "ios": "https://dc.lft.to/lastmile_qr_scan"}, "fusion_lon": 0.0, "lat": 38.939006, "bike_id": "a8312f338f4361e04c5f84c4f0dd7dc2", "type": "electric_scooter", "is_reserved": 0, "lon": -77.03334583333333}, {"fusion_lat": 0.0, "name": "cc6c77ecd0fbdc1a52597f9d3daba11a", "is_disabled": 0, "rental_uris": {"android": "https://dc.lft.to/lastmile_qr_scan", "ios": "https://dc.lft.to/lastmile_qr_scan"}, "fusion_lon": 0.0, "lat": 38.900772333333336, "bike_id": "cc6c77ecd0fbdc1a52597f9d3daba11a", "type": "electric_scooter", "is_reserved": 0, "lon": -76.983412}, {"fusion_lat": 0.0, "name": "6e60b24b92315daec376f9236d8a6ab5", "is_disabled": 0, "rental_uris": {"android": "https://dc.lft.to/lastmile_qr_scan", "ios": "https://dc.lft.to/lastmile_qr_scan"}, "fusion_lon": 0.0, "lat": 38.9328105, "bike_id": "6e60b24b92315daec376f9236d8a6ab5", "type": "electric_scooter", "is_reserved": 0, "lon": -77.02751416666666}, {"fusion_lat": 0.0, "name": "d9fb674a62720f1ab681d09877089072", "is_disabled": 0, "rental_uris": {"android": "https://dc.lft.to/lastmile_qr_scan", "ios": "https://dc.lft.to/lastmile_qr_scan"}, "fusion_lon": 0.0, "lat": 38.90321383333333, "bike_id": "d9fb674a62720f1ab681d09877089072", "type": "electric_scooter", "is_reserved": 0, "lon": -77.02895366666667}, {"fusion_lat": 0.0, "name": "c8095a1a0696e268728110b29fe446f8", "is_disabled": 0, "rental_uris": {"android": "https://dc.lft.to/lastmile_qr_scan", "ios": "https://dc.lft.to/lastmile_qr_scan"}, "fusion_lon": 0.0, "lat": 38.95595183333333, "bike_id": "c8095a1a0696e268728110b29fe446f8", "type": "electric_bike", "is_reserved": 0, "lon": -77.01028233333334}, {"fusion_lat": 0.0, "name": "e71aac096a4e4dd0bf91d7377d89d6b2", "is_disabled": 0, "rental_uris": {"android": "https://dc.lft.to/lastmile_qr_scan", "ios": "https://dc.lft.to/lastmile_qr_scan"}, "fusion_lon": 0.0, "lat": 38.87243316666667, "bike_id": "e71aac096a4e4dd0bf91d7377d89d6b2", "type": "electric_scooter", "is_reserved": 0, "lon": -76.97727666666667}, {"fusion_lat": 0.0, "name": "36fa25e44b30795ebfc89d906a090456", "is_disabled": 0, "rental_uris": {"android": "https://dc.lft.to/lastmile_qr_scan", "ios": "https://dc.lft.to/lastmile_qr_scan"}, "fusion_lon": 0.0, "lat": 38.91412666666667, "bike_id": "36fa25e44b30795ebfc89d906a090456", "type": "electric_scooter", "is_reserved": 0, "lon": -77.022151}, {"fusion_lat": 0.0, "name": "7a106598dc747ed86fa02804a402adab", "is_disabled": 0, "rental_uris": {"android": "https://dc.lft.to/lastmile_qr_scan", "ios": "https://dc.lft.to/lastmile_qr_scan"}, "fusion_lon": 0.0, "lat": 38.98765983333333, "bike_id": "7a106598dc747ed86fa02804a402adab", "type": "electric_bike", "is_reserved": 0, "lon": -77.14057566666666}, {"fusion_lat": 0.0, "name": "44706a3dd1910372083d3aae66d697d4", "is_disabled": 0, "rental_uris": {"android": "https://dc.lft.to/lastmile_qr_scan", "ios": "https://dc.lft.to/lastmile_qr_scan"}, "fusion_lon": 0.0, "lat": 38.89198583333334, "bike_id": "44706a3dd1910372083d3aae66d697d4", "type": "electric_scooter", "is_reserved": 0, "lon": -77.01653}, {"fusion_lat": 0.0, "name": "e42a63796c6888cca013fa43825d04b6", "is_disabled": 0, "rental_uris": {"android": "https://dc.lft.to/lastmile_qr_scan", "ios": "https://dc.lft.to/lastmile_qr_scan"}, "fusion_lon": 0.0, "lat": 38.916988333333336, "bike_id": "e42a63796c6888cca013fa43825d04b6", "type": "electric_scooter", "is_reserved": 0, "lon": -77.035873}, {"fusion_lat": 0.0, "name": "13066c23b1a410cab67212d29aac4dda", "is_disabled": 0, "rental_uris": {"android": "https://dc.lft.to/lastmile_qr_scan", "ios": "https://dc.lft.to/lastmile_qr_scan"}, "fusion_lon": 0.0, "lat": 38.8974805, "bike_id": "13066c23b1a410cab67212d29aac4dda", "type": "electric_scooter", "is_reserved": 0, "lon": -77.04405}, {"fusion_lat": 0.0, "name": "5f6b0932974db93d76b7040fb278f175", "is_disabled": 0, "rental_uris": {"android": "https://dc.lft.to/lastmile_qr_scan", "ios": "https://dc.lft.to/lastmile_qr_scan"}, "fusion_lon": 0.0, "lat": 38.90408383333333, "bike_id": "5f6b0932974db93d76b7040fb278f175", "type": "electric_scooter", "is_reserved": 0, "lon": -76.9732945}, {"fusion_lat": 0.0, "name": "905b2e336795e7a084df2c939efc3a62", "is_disabled": 0, "rental_uris": {"android": "https://dc.lft.to/lastmile_qr_scan", "ios": "https://dc.lft.to/lastmile_qr_scan"}, "fusion_lon": 0.0, "lat": 38.91037216666667, "bike_id": "905b2e336795e7a084df2c939efc3a62", "type": "electric_scooter", "is_reserved": 0, "lon": -77.06420883333334}, {"fusion_lat": 0.0, "name": "085948005b54fe369b74475eb18c346c", "is_disabled": 0, "rental_uris": {"android": "https://dc.lft.to/lastmile_qr_scan", "ios": "https://dc.lft.to/lastmile_qr_scan"}, "fusion_lon": 0.0, "lat": 38.911287, "bike_id": "085948005b54fe369b74475eb18c346c", "type": "electric_scooter", "is_reserved": 0, "lon": -77.02193416666667}, {"fusion_lat": 0.0, "name": "6b3067c471a72e3997aa8745013e35b6", "is_disabled": 0, "rental_uris": {"android": "https://dc.lft.to/lastmile_qr_scan", "ios": "https://dc.lft.to/lastmile_qr_scan"}, "fusion_lon": 0.0, "lat": 38.920632, "bike_id": "6b3067c471a72e3997aa8745013e35b6", "type": "electric_scooter", "is_reserved": 0, "lon": -77.04215733333334}, {"fusion_lat": 0.0, "name": "f88fe5f75aa0b91ecfb99a60f2d3219a", "is_disabled": 0, "rental_uris": {"android": "https://dc.lft.to/lastmile_qr_scan", "ios": "https://dc.lft.to/lastmile_qr_scan"}, "fusion_lon": 0.0, "lat": 38.90882466666667, "bike_id": "f88fe5f75aa0b91ecfb99a60f2d3219a", "type": "electric_scooter", "is_reserved": 0, "lon": -77.04416416666666}, {"fusion_lat": 0.0, "name": "e80cc20f0cb70af0594b88e307af4593", "is_disabled": 0, "rental_uris": {"android": "https://dc.lft.to/lastmile_qr_scan", "ios": "https://dc.lft.to/lastmile_qr_scan"}, "fusion_lon": 0.0, "lat": 38.8947415, "bike_id": "e80cc20f0cb70af0594b88e307af4593", "type": "electric_scooter", "is_reserved": 0, "lon": -77.03955666666667}, {"fusion_lat": 0.0, "name": "314aebe834dfaeb304f349b867dd680e", "is_disabled": 0, "rental_uris": {"android": "https://dc.lft.to/lastmile_qr_scan", "ios": "https://dc.lft.to/lastmile_qr_scan"}, "fusion_lon": 0.0, "lat": 38.91814633333333, "bike_id": "314aebe834dfaeb304f349b867dd680e", "type": "electric_scooter", "is_reserved": 0, "lon": -77.03276766666667}, {"fusion_lat": 0.0, "name": "f49db9d03bffa4288a465a014f66bd92", "is_disabled": 0, "rental_uris": {"android": "https://dc.lft.to/lastmile_qr_scan", "ios": "https://dc.lft.to/lastmile_qr_scan"}, "fusion_lon": 0.0, "lat": 38.91912933333333, "bike_id": "f49db9d03bffa4288a465a014f66bd92", "type": "electric_scooter", "is_reserved": 0, "lon": -77.03312933333333}, {"fusion_lat": 0.0, "name": "43773329f3c2b0fdaf4720b2ceb6a970", "is_disabled": 0, "rental_uris": {"android": "https://dc.lft.to/lastmile_qr_scan", "ios": "https://dc.lft.to/lastmile_qr_scan"}, "fusion_lon": 0.0, "lat": 38.916635666666664, "bike_id": "43773329f3c2b0fdaf4720b2ceb6a970", "type": "electric_scooter", "is_reserved": 0, "lon": -77.04197716666667}, {"fusion_lat": 0.0, "name": "5869635bdaea34de25dc88189c4773d6", "is_disabled": 0, "rental_uris": {"android": "https://dc.lft.to/lastmile_qr_scan", "ios": "https://dc.lft.to/lastmile_qr_scan"}, "fusion_lon": 0.0, "lat": 38.93532483333333, "bike_id": "5869635bdaea34de25dc88189c4773d6", "type": "electric_scooter", "is_reserved": 0, "lon": -77.02352233333333}, {"fusion_lat": 0.0, "name": "1412b72f97b8a6a992669d13abe59a5d", "is_disabled": 0, "rental_uris": {"android": "https://dc.lft.to/lastmile_qr_scan", "ios": "https://dc.lft.to/lastmile_qr_scan"}, "fusion_lon": 0.0, "lat": 38.93460783333333, "bike_id": "1412b72f97b8a6a992669d13abe59a5d", "type": "electric_scooter", "is_reserved": 0, "lon": -77.05780983333334}, {"fusion_lat": 0.0, "name": "40dfb7ba3aab6ee1f0717f0e11225528", "is_disabled": 0, "rental_uris": {"android": "https://dc.lft.to/lastmile_qr_scan", "ios": "https://dc.lft.to/lastmile_qr_scan"}, "fusion_lon": 0.0, "lat": 38.92250816666667, "bike_id": "40dfb7ba3aab6ee1f0717f0e11225528", "type": "electric_bike", "is_reserved": 0, "lon": -77.07028283333334}, {"fusion_lat": 0.0, "name": "70464c8e4e129e1f78df0f81b8671950", "is_disabled": 0, "rental_uris": {"android": "https://dc.lft.to/lastmile_qr_scan", "ios": "https://dc.lft.to/lastmile_qr_scan"}, "fusion_lon": 0.0, "lat": 38.897427666666665, "bike_id": "70464c8e4e129e1f78df0f81b8671950", "type": "electric_scooter", "is_reserved": 0, "lon": -77.03193566666667}, {"fusion_lat": 0.0, "name": "8dcd20212dcc1425a4fefab7b158dd3a", "is_disabled": 0, "rental_uris": {"android": "https://dc.lft.to/lastmile_qr_scan", "ios": "https://dc.lft.to/lastmile_qr_scan"}, "fusion_lon": 0.0, "lat": 38.9210615, "bike_id": "8dcd20212dcc1425a4fefab7b158dd3a", "type": "electric_scooter", "is_reserved": 0, "lon": -77.04689116666667}, {"fusion_lat": 0.0, "name": "3013597b12d5e38e2c6375141b8d4ff0", "is_disabled": 0, "rental_uris": {"android": "https://dc.lft.to/lastmile_qr_scan", "ios": "https://dc.lft.to/lastmile_qr_scan"}, "fusion_lon": 0.0, "lat": 38.915599, "bike_id": "3013597b12d5e38e2c6375141b8d4ff0", "type": "electric_scooter", "is_reserved": 0, "lon": -77.0316185}, {"fusion_lat": 0.0, "name": "2e7b80fbe8a5af7a259bc3f1f870c7c8", "is_disabled": 0, "rental_uris": {"android": "https://dc.lft.to/lastmile_qr_scan", "ios": "https://dc.lft.to/lastmile_qr_scan"}, "fusion_lon": 0.0, "lat": 38.912375, "bike_id": "2e7b80fbe8a5af7a259bc3f1f870c7c8", "type": "electric_scooter", "is_reserved": 0, "lon": -77.04864583333334}, {"fusion_lat": 0.0, "name": "b18ee353c9a0b2a5598bfc670c46b606", "is_disabled": 0, "rental_uris": {"android": "https://dc.lft.to/lastmile_qr_scan", "ios": "https://dc.lft.to/lastmile_qr_scan"}, "fusion_lon": 0.0, "lat": 38.842752833333336, "bike_id": "b18ee353c9a0b2a5598bfc670c46b606", "type": "electric_bike", "is_reserved": 0, "lon": -76.988503}, {"fusion_lat": 0.0, "name": "8b30825ece8766a417f7aac8a0f43351", "is_disabled": 0, "rental_uris": {"android": "https://dc.lft.to/lastmile_qr_scan", "ios": "https://dc.lft.to/lastmile_qr_scan"}, "fusion_lon": 0.0, "lat": 38.92457516666666, "bike_id": "8b30825ece8766a417f7aac8a0f43351", "type": "electric_scooter", "is_reserved": 0, "lon": -77.02408416666667}, {"fusion_lat": 0.0, "name": "230c6e478bcf874da0c2cdc236398f8c", "is_disabled": 0, "rental_uris": {"android": "https://dc.lft.to/lastmile_qr_scan", "ios": "https://dc.lft.to/lastmile_qr_scan"}, "fusion_lon": 0.0, "lat": 38.93365133333333, "bike_id": "230c6e478bcf874da0c2cdc236398f8c", "type": "electric_scooter", "is_reserved": 0, "lon": -77.03084066666666}, {"fusion_lat": 0.0, "name": "60c488b8925087a5d5ae9689c9d5d618", "is_disabled": 0, "rental_uris": {"android": "https://dc.lft.to/lastmile_qr_scan", "ios": "https://dc.lft.to/lastmile_qr_scan"}, "fusion_lon": 0.0, "lat": 38.90572433333333, "bike_id": "60c488b8925087a5d5ae9689c9d5d618", "type": "electric_scooter", "is_reserved": 0, "lon": -77.02202}, {"fusion_lat": 0.0, "name": "acfb9fedd4db111059081d7a85e802f7", "is_disabled": 0, "rental_uris": {"android": "https://dc.lft.to/lastmile_qr_scan", "ios": "https://dc.lft.to/lastmile_qr_scan"}, "fusion_lon": 0.0, "lat": 38.887169, "bike_id": "acfb9fedd4db111059081d7a85e802f7", "type": "electric_scooter", "is_reserved": 0, "lon": -76.99687366666667}, {"fusion_lat": 0.0, "name": "227d671d4b5d8a4f76f81eeb07508ebf", "is_disabled": 0, "rental_uris": {"android": "https://dc.lft.to/lastmile_qr_scan", "ios": "https://dc.lft.to/lastmile_qr_scan"}, "fusion_lon": 0.0, "lat": 38.89007316666667, "bike_id": "227d671d4b5d8a4f76f81eeb07508ebf", "type": "electric_scooter", "is_reserved": 0, "lon": -76.93746366666667}, {"fusion_lat": 0.0, "name": "7fac7e09fe3417ef7a0a10c3da772a48", "is_disabled": 0, "rental_uris": {"android": "https://dc.lft.to/lastmile_qr_scan", "ios": "https://dc.lft.to/lastmile_qr_scan"}, "fusion_lon": 0.0, "lat": 38.91107483333333, "bike_id": "7fac7e09fe3417ef7a0a10c3da772a48", "type": "electric_scooter", "is_reserved": 0, "lon": -77.03828766666666}, {"fusion_lat": 0.0, "name": "b764f43b66b5e9efdc43529eae24bd0f", "is_disabled": 0, "rental_uris": {"android": "https://dc.lft.to/lastmile_qr_scan", "ios": "https://dc.lft.to/lastmile_qr_scan"}, "fusion_lon": 0.0, "lat": 38.937017, "bike_id": "b764f43b66b5e9efdc43529eae24bd0f", "type": "electric_scooter", "is_reserved": 0, "lon": -77.06105166666667}, {"fusion_lat": 0.0, "name": "4ba97b1056b0580286e5dc63b24d16df", "is_disabled": 0, "rental_uris": {"android": "https://dc.lft.to/lastmile_qr_scan", "ios": "https://dc.lft.to/lastmile_qr_scan"}, "fusion_lon": 0.0, "lat": 38.9325465, "bike_id": "4ba97b1056b0580286e5dc63b24d16df", "type": "electric_scooter", "is_reserved": 0, "lon": -77.0326705}, {"fusion_lat": 0.0, "name": "da81231363e4c9e116c339d69647fdea", "is_disabled": 0, "rental_uris": {"android": "https://dc.lft.to/lastmile_qr_scan", "ios": "https://dc.lft.to/lastmile_qr_scan"}, "fusion_lon": 0.0, "lat": 38.899402, "bike_id": "da81231363e4c9e116c339d69647fdea", "type": "electric_scooter", "is_reserved": 0, "lon": -76.98149033333334}, {"fusion_lat": 0.0, "name": "35363a32d02553a4aeb032689121f8a0", "is_disabled": 0, "rental_uris": {"android": "https://dc.lft.to/lastmile_qr_scan", "ios": "https://dc.lft.to/lastmile_qr_scan"}, "fusion_lon": 0.0, "lat": 38.93971116666667, "bike_id": "35363a32d02553a4aeb032689121f8a0", "type": "electric_scooter", "is_reserved": 0, "lon": -77.03256516666667}, {"fusion_lat": 0.0, "name": "ee9b934ae22e17daef7678d0f92999a9", "is_disabled": 0, "rental_uris": {"android": "https://dc.lft.to/lastmile_qr_scan", "ios": "https://dc.lft.to/lastmile_qr_scan"}, "fusion_lon": 0.0, "lat": 38.884139833333336, "bike_id": "ee9b934ae22e17daef7678d0f92999a9", "type": "electric_scooter", "is_reserved": 0, "lon": -76.98623883333333}, {"fusion_lat": 0.0, "name": "718017612d7e8f517253727a80c1542e", "is_disabled": 0, "rental_uris": {"android": "https://dc.lft.to/lastmile_qr_scan", "ios": "https://dc.lft.to/lastmile_qr_scan"}, "fusion_lon": 0.0, "lat": 38.92435566666666, "bike_id": "718017612d7e8f517253727a80c1542e", "type": "electric_scooter", "is_reserved": 0, "lon": -77.03411566666666}, {"fusion_lat": 0.0, "name": "12610c36f1aae69220c996a65ca286bd", "is_disabled": 0, "rental_uris": {"android": "https://dc.lft.to/lastmile_qr_scan", "ios": "https://dc.lft.to/lastmile_qr_scan"},