{"data": {"bikes": [{"bike_id": "10f0f67b283942a01c3ee5757d699617", "fusion_lon": 0.0, "type": "electric_scooter", "name": "10f0f67b283942a01c3ee5757d699617", "rental_uris": {"android": "https://dc.lft.to/lastmile_qr_scan", "ios": "https://dc.lft.to/lastmile_qr_scan"}, "fusion_lat": 0.0, "lat": 38.9210535, "is_disabled": 0, "lon": -77.036664, "is_reserved": 0}, {"bike_id": "8f84cde2824a5fa6c2cb2f6c5a5ffee1", "fusion_lon": 0.0, "type": "electric_bike", "name": "8f84cde2824a5fa6c2cb2f6c5a5ffee1", "rental_uris": {"android": "https://dc.lft.to/lastmile_qr_scan", "ios": "https://dc.lft.to/lastmile_qr_scan"}, "fusion_lat": 0.0, "lat": 38.93215566666667, "is_disabled": 0, "lon": -77.0234785, "is_reserved": 0}, {"bike_id": "0b03291b23b9ad0d53f71b916228a25a", "fusion_lon": 0.0, "type": "electric_scooter", "name": "0b03291b23b9ad0d53f71b916228a25a", "rental_uris": {"android": "https://dc.lft.to/lastmile_qr_scan", "ios": "https://dc.lft.to/lastmile_qr_scan"}, "fusion_lat": 0.0, "lat": 38.90284833333333, "is_disabled": 0, "lon": -77.036445, "is_reserved": 0}, {"bike_id": "428cc302b119c7a8a9c7b9828cb19d81", "fusion_lon": 0.0, "type": "electric_scooter", "name": "428cc302b119c7a8a9c7b9828cb19d81", "rental_uris": {"android": "https://dc.lft.to/lastmile_qr_scan", "ios": "https://dc.lft.to/lastmile_qr_scan"}, "fusion_lat": 0.0, "lat": 38.91133033333333, "is_disabled": 0, "lon": -77.02178366666666, "is_reserved": 0}, {"bike_id": "980be16127d338be8af8f7136bd522f9", "fusion_lon": 0.0, "type": "electric_scooter", "name": "980be16127d338be8af8f7136bd522f9", "rental_uris": {"android": "https://dc.lft.to/lastmile_qr_scan", "ios": "https://dc.lft.to/lastmile_qr_scan"}, "fusion_lat": 0.0, "lat": 38.91876083333333, "is_disabled": 0, "lon": -77.0376105, "is_reserved": 0}, {"bike_id": "f116c3050d28142b0d3d8ef89d01f4d6", "fusion_lon": 0.0, "type": "electric_scooter", "name": "f116c3050d28142b0d3d8ef89d01f4d6", "rental_uris": {"android": "https://dc.lft.to/lastmile_qr_scan", "ios": "https://dc.lft.to/lastmile_qr_scan"}, "fusion_lat": 0.0, "lat": 38.928843, "is_disabled": 0, "lon": -77.02708383333334, "is_reserved": 0}, {"bike_id": "6a1dd42689906b31034f9c705a038465", "fusion_lon": 0.0, "type": "electric_scooter", "name": "6a1dd42689906b31034f9c705a038465", "rental_uris": {"android": "https://dc.lft.to/lastmile_qr_scan", "ios": "https://dc.lft.to/lastmile_qr_scan"}, "fusion_lat": 0.0, "lat": 38.91834983333333, "is_disabled": 0, "lon": -77.03213233333334, "is_reserved": 0}, {"bike_id": "2bb1c5a17267783da6665c2e1029cc02", "fusion_lon": 0.0, "type": "electric_scooter", "name": "2bb1c5a17267783da6665c2e1029cc02", "rental_uris": {"android": "https://dc.lft.to/lastmile_qr_scan", "ios": "https://dc.lft.to/lastmile_qr_scan"}, "fusion_lat": 0.0, "lat": 38.91421833333333, "is_disabled": 0, "lon": -77.03819233333333, "is_reserved": 0}, {"bike_id": "3ac8fb088b90484879667f3d987b1a16", "fusion_lon": 0.0, "type": "electric_bike", "name": "3ac8fb088b90484879667f3d987b1a16", "rental_uris": {"android": "https://dc.lft.to/lastmile_qr_scan", "ios": "https://dc.lft.to/lastmile_qr_scan"}, "fusion_lat": 0.0, "lat": 38.85065383333333, "is_disabled": 0, "lon": -76.9733025, "is_reserved": 0}, {"bike_id": "bf08b5c45652166ff99e64e8e03e26c7", "fusion_lon": 0.0, "type": "electric_scooter", "name": "bf08b5c45652166ff99e64e8e03e26c7", "rental_uris": {"android": "https://dc.lft.to/lastmile_qr_scan", "ios": "https://dc.lft.to/lastmile_qr_scan"}, "fusion_lat": 0.0, "lat": 38.9101595, "is_disabled": 0, "lon": -77.05273966666667, "is_reserved": 0}, {"bike_id": "2c427d4d8573329879f868a26bc60f7d", "fusion_lon": 0.0, "type": "electric_scooter", "name": "2c427d4d8573329879f868a26bc60f7d", "rental_uris": {"android": "https://dc.lft.to/lastmile_qr_scan", "ios": "https://dc.lft.to/lastmile_qr_scan"}, "fusion_lat": 0.0, "lat": 38.900427666666666, "is_disabled": 0, "lon": -77.044755, "is_reserved": 0}, {"bike_id": "fbdee1b976dac60b9fdec1baea379113", "fusion_lon": 0.0, "type": "electric_scooter", "name": "fbdee1b976dac60b9fdec1baea379113", "rental_uris": {"android": "https://dc.lft.to/lastmile_qr_scan", "ios": "https://dc.lft.to/lastmile_qr_scan"}, "fusion_lat": 0.0, "lat": 38.91058983333333, "is_disabled": 0, "lon": -77.02202483333333, "is_reserved": 0}, {"bike_id": "e2f70c2c3871e7022b131276c8ea4839", "fusion_lon": 0.0, "type": "electric_scooter", "name": "e2f70c2c3871e7022b131276c8ea4839", "rental_uris": {"android": "https://dc.lft.to/lastmile_qr_scan", "ios": "https://dc.lft.to/lastmile_qr_scan"}, "fusion_lat": 0.0, "lat": 38.900209333333336, "is_disabled": 0, "lon": -77.053255, "is_reserved": 0}, {"bike_id": "b366d406eacfa305185bf82bf1d28329", "fusion_lon": 0.0, "type": "electric_scooter", "name": "b366d406eacfa305185bf82bf1d28329", "rental_uris": {"android": "https://dc.lft.to/lastmile_qr_scan", "ios": "https://dc.lft.to/lastmile_qr_scan"}, "fusion_lat": 0.0, "lat": 38.905681333333334, "is_disabled": 0, "lon": -77.00600816666666, "is_reserved": 0}, {"bike_id": "ff77fbd42ef67f69ba5f8326e09d8960", "fusion_lon": 0.0, "type": "electric_scooter", "name": "ff77fbd42ef67f69ba5f8326e09d8960", "rental_uris": {"android": "https://dc.lft.to/lastmile_qr_scan", "ios": "https://dc.lft.to/lastmile_qr_scan"}, "fusion_lat": 0.0, "lat": 38.94134316666667, "is_disabled": 0, "lon": -77.09205033333333, "is_reserved": 0}, {"bike_id": "0e9091f3c2fc0a9c478119cdd6f1cfb4", "fusion_lon": 0.0, "type": "electric_scooter", "name": "0e9091f3c2fc0a9c478119cdd6f1cfb4", "rental_uris": {"android": "https://dc.lft.to/lastmile_qr_scan", "ios": "https://dc.lft.to/lastmile_qr_scan"}, "fusion_lat": 0.0, "lat": 38.955688333333335, "is_disabled": 0, "lon": -77.00632833333333, "is_reserved": 0}, {"bike_id": "184236dc3ed4568c2c4c0d38ed6972ad", "fusion_lon": 0.0, "type": "electric_scooter", "name": "184236dc3ed4568c2c4c0d38ed6972ad", "rental_uris": {"android": "https://dc.lft.to/lastmile_qr_scan", "ios": "https://dc.lft.to/lastmile_qr_scan"}, "fusion_lat": 0.0, "lat": 38.927847666666665, "is_disabled": 0, "lon": -77.02313133333334, "is_reserved": 0}, {"bike_id": "6986b5cfadf870e6fa8589c5b98694c7", "fusion_lon": 0.0, "type": "electric_scooter", "name": "6986b5cfadf870e6fa8589c5b98694c7", "rental_uris": {"android": "https://dc.lft.to/lastmile_qr_scan", "ios": "https://dc.lft.to/lastmile_qr_scan"}, "fusion_lat": 0.0, "lat": 38.90506833333333, "is_disabled": 0, "lon": -77.04054283333333, "is_reserved": 0}, {"bike_id": "428e5891e9d83c4f3786cfd35f3082f2", "fusion_lon": 0.0, "type": "electric_scooter", "name": "428e5891e9d83c4f3786cfd35f3082f2", "rental_uris": {"android": "https://dc.lft.to/lastmile_qr_scan", "ios": "https://dc.lft.to/lastmile_qr_scan"}, "fusion_lat": 0.0, "lat": 38.91755833333333, "is_disabled": 0, "lon": -77.0248805, "is_reserved": 0}, {"bike_id": "93f152f88bcccec0818e3b54b54cc40e", "fusion_lon": 0.0, "type": "electric_bike", "name": "93f152f88bcccec0818e3b54b54cc40e", "rental_uris": {"android": "https://dc.lft.to/lastmile_qr_scan", "ios": "https://dc.lft.to/lastmile_qr_scan"}, "fusion_lat": 0.0, "lat": 38.85217683333333, "is_disabled": 0, "lon": -77.12956, "is_reserved": 0}, {"bike_id": "f2d3c79983af64114dd0cd80d5d9f8df", "fusion_lon": 0.0, "type": "electric_scooter", "name": "f2d3c79983af64114dd0cd80d5d9f8df", "rental_uris": {"android": "https://dc.lft.to/lastmile_qr_scan", "ios": "https://dc.lft.to/lastmile_qr_scan"}, "fusion_lat": 0.0, "lat": 38.9132105, "is_disabled": 0, "lon": -77.01409483333333, "is_reserved": 0}, {"bike_id": "c4ae8423679953162fff46e60f82110a", "fusion_lon": 0.0, "type": "electric_scooter", "name": "c4ae8423679953162fff46e60f82110a", "rental_uris": {"android": "https://dc.lft.to/lastmile_qr_scan", "ios": "https://dc.lft.to/lastmile_qr_scan"}, "fusion_lat": 0.0, "lat": 38.912564333333336, "is_disabled": 0, "lon": -77.00932316666666, "is_reserved": 0}, {"bike_id": "4c55f909992eb528a97f4effb96767ad", "fusion_lon": 0.0, "type": "electric_scooter", "name": "4c55f909992eb528a97f4effb96767ad", "rental_uris": {"android": "https://dc.lft.to/lastmile_qr_scan", "ios": "https://dc.lft.to/lastmile_qr_scan"}, "fusion_lat": 0.0, "lat": 38.89689283333333, "is_disabled": 0, "lon": -76.94212083333333, "is_reserved": 0}, {"bike_id": "849be3ed3fa0d88efbe5ba54d33619f9", "fusion_lon": 0.0, "type": "electric_scooter", "name": "849be3ed3fa0d88efbe5ba54d33619f9", "rental_uris": {"android": "https://dc.lft.to/lastmile_qr_scan", "ios": "https://dc.lft.to/lastmile_qr_scan"}, "fusion_lat": 0.0, "lat": 38.919176, "is_disabled": 0, "lon": -77.03371016666667, "is_reserved": 0}, {"bike_id": "9becd81362243e1aa2e8555cee3faa95", "fusion_lon": 0.0, "type": "electric_bike", "name": "9becd81362243e1aa2e8555cee3faa95", "rental_uris": {"android": "https://dc.lft.to/lastmile_qr_scan", "ios": "https://dc.lft.to/lastmile_qr_scan"}, "fusion_lat": 0.0, "lat": 38.865955, "is_disabled": 0, "lon": -76.93226083333333, "is_reserved": 0}, {"bike_id": "468a0fb43e18b9e66ad5c68c197430db", "fusion_lon": 0.0, "type": "electric_scooter", "name": "468a0fb43e18b9e66ad5c68c197430db", "rental_uris": {"android": "https://dc.lft.to/lastmile_qr_scan", "ios": "https://dc.lft.to/lastmile_qr_scan"}, "fusion_lat": 0.0, "lat": 38.89483216666667, "is_disabled": 0, "lon": -76.99516116666666, "is_reserved": 0}, {"bike_id": "0420f9e0910f3d108113ffa17832a456", "fusion_lon": 0.0, "type": "electric_scooter", "name": "0420f9e0910f3d108113ffa17832a456", "rental_uris": {"android": "https://dc.lft.to/lastmile_qr_scan", "ios": "https://dc.lft.to/lastmile_qr_scan"}, "fusion_lat": 0.0, "lat": 38.92795316666667, "is_disabled": 0, "lon": -77.02726083333333, "is_reserved": 0}, {"bike_id": "22c8d878e82bd2d7e5d08ce6a9c3da18", "fusion_lon": 0.0, "type": "electric_bike", "name": "22c8d878e82bd2d7e5d08ce6a9c3da18", "rental_uris": {"android": "https://dc.lft.to/lastmile_qr_scan", "ios": "https://dc.lft.to/lastmile_qr_scan"}, "fusion_lat": 0.0, "lat": 38.9037545, "is_disabled": 0, "lon": -77.01779333333333, "is_reserved": 0}, {"bike_id": "feed9e595607634b39b6a7925a1e3354", "fusion_lon": 0.0, "type": "electric_scooter", "name": "feed9e595607634b39b6a7925a1e3354", "rental_uris": {"android": "https://dc.lft.to/lastmile_qr_scan", "ios": "https://dc.lft.to/lastmile_qr_scan"}, "fusion_lat": 0.0, "lat": 38.9006945, "is_disabled": 0, "lon": -77.0020875, "is_reserved": 0}, {"bike_id": "ac3b0f4209755370ee3fc3f26634de9d", "fusion_lon": 0.0, "type": "electric_scooter", "name": "ac3b0f4209755370ee3fc3f26634de9d", "rental_uris": {"android": "https://dc.lft.to/lastmile_qr_scan", "ios": "https://dc.lft.to/lastmile_qr_scan"}, "fusion_lat": 0.0, "lat": 38.91924016666667, "is_disabled": 0, "lon": -77.04634383333334, "is_reserved": 0}, {"bike_id": "afd2bbaaf61f8f6489a6ba2cd6c27c20", "fusion_lon": 0.0, "type": "electric_scooter", "name": "afd2bbaaf61f8f6489a6ba2cd6c27c20", "rental_uris": {"android": "https://dc.lft.to/lastmile_qr_scan", "ios": "https://dc.lft.to/lastmile_qr_scan"}, "fusion_lat": 0.0, "lat": 38.928259, "is_disabled": 0, "lon": -77.02257966666667, "is_reserved": 0}, {"bike_id": "2fe99dc41718d0243caedeab53023a42", "fusion_lon": 0.0, "type": "electric_scooter", "name": "2fe99dc41718d0243caedeab53023a42", "rental_uris": {"android": "https://dc.lft.to/lastmile_qr_scan", "ios": "https://dc.lft.to/lastmile_qr_scan"}, "fusion_lat": 0.0, "lat": 38.925705666666666, "is_disabled": 0, "lon": -77.0526195, "is_reserved": 0}, {"bike_id": "331461bdbe4000398516b3782fdf9a3c", "fusion_lon": 0.0, "type": "electric_scooter", "name": "331461bdbe4000398516b3782fdf9a3c", "rental_uris": {"android": "https://dc.lft.to/lastmile_qr_scan", "ios": "https://dc.lft.to/lastmile_qr_scan"}, "fusion_lat": 0.0, "lat": 38.88021466666667, "is_disabled": 0, "lon": -76.98067483333334, "is_reserved": 0}, {"bike_id": "308d9c3e1409eaeb7782a413637b7748", "fusion_lon": 0.0, "type": "electric_scooter", "name": "308d9c3e1409eaeb7782a413637b7748", "rental_uris": {"android": "https://dc.lft.to/lastmile_qr_scan", "ios": "https://dc.lft.to/lastmile_qr_scan"}, "fusion_lat": 0.0, "lat": 38.92268633333333, "is_disabled": 0, "lon": -77.036844, "is_reserved": 0}, {"bike_id": "c13c1e1b9a88249c925a2c3474874010", "fusion_lon": 0.0, "type": "electric_scooter", "name": "c13c1e1b9a88249c925a2c3474874010", "rental_uris": {"android": "https://dc.lft.to/lastmile_qr_scan", "ios": "https://dc.lft.to/lastmile_qr_scan"}, "fusion_lat": 0.0, "lat": 38.89231016666667, "is_disabled": 0, "lon": -77.05000583333333, "is_reserved": 0}, {"bike_id": "abb40aba8c1230d31463df53fb6ad472", "fusion_lon": 0.0, "type": "electric_scooter", "name": "abb40aba8c1230d31463df53fb6ad472", "rental_uris": {"android": "https://dc.lft.to/lastmile_qr_scan", "ios": "https://dc.lft.to/lastmile_qr_scan"}, "fusion_lat": 0.0, "lat": 38.930650666666665, "is_disabled": 0, "lon": -77.028079, "is_reserved": 0}, {"bike_id": "34e573917b7ec303b8712f4276418a49", "fusion_lon": 0.0, "type": "electric_scooter", "name": "34e573917b7ec303b8712f4276418a49", "rental_uris": {"android": "https://dc.lft.to/lastmile_qr_scan", "ios": "https://dc.lft.to/lastmile_qr_scan"}, "fusion_lat": 0.0, "lat": 38.8751175, "is_disabled": 0, "lon": -77.01739483333333, "is_reserved": 0}, {"bike_id": "3c261174824b6c4801727106c4b04b66", "fusion_lon": 0.0, "type": "electric_scooter", "name": "3c261174824b6c4801727106c4b04b66", "rental_uris": {"android": "https://dc.lft.to/lastmile_qr_scan", "ios": "https://dc.lft.to/lastmile_qr_scan"}, "fusion_lat": 0.0, "lat": 38.84621333333333, "is_disabled": 0, "lon": -76.99630683333334, "is_reserved": 0}, {"bike_id": "0235786be9b6f2bae9ffcd83ced0923c", "fusion_lon": 0.0, "type": "electric_scooter", "name": "0235786be9b6f2bae9ffcd83ced0923c", "rental_uris": {"android": "https://dc.lft.to/lastmile_qr_scan", "ios": "https://dc.lft.to/lastmile_qr_scan"}, "fusion_lat": 0.0, "lat": 38.88768266666666, "is_disabled": 0, "lon": -76.92711433333334, "is_reserved": 0}, {"bike_id": "f5ac00a31206ecba272b87472a5fac66", "fusion_lon": 0.0, "type": "electric_scooter", "name": "f5ac00a31206ecba272b87472a5fac66", "rental_uris": {"android": "https://dc.lft.to/lastmile_qr_scan", "ios": "https://dc.lft.to/lastmile_qr_scan"}, "fusion_lat": 0.0, "lat": 38.917055833333336, "is_disabled": 0, "lon": -77.00119766666667, "is_reserved": 0}, {"bike_id": "d2c78c2cc44abf4c1366960d32796a90", "fusion_lon": 0.0, "type": "electric_bike", "name": "d2c78c2cc44abf4c1366960d32796a90", "rental_uris": {"android": "https://dc.lft.to/lastmile_qr_scan", "ios": "https://dc.lft.to/lastmile_qr_scan"}, "fusion_lat": 0.0, "lat": 38.895682666666666, "is_disabled": 0, "lon": -77.12738216666666, "is_reserved": 0}, {"bike_id": "951e512db139d694448219fab303f4a3", "fusion_lon": 0.0, "type": "electric_scooter", "name": "951e512db139d694448219fab303f4a3", "rental_uris": {"android": "https://dc.lft.to/lastmile_qr_scan", "ios": "https://dc.lft.to/lastmile_qr_scan"}, "fusion_lat": 0.0, "lat": 38.937000166666664, "is_disabled": 0, "lon": -77.0559595, "is_reserved": 0}, {"bike_id": "57d3494260e6a17be8119a2ebfb3c629", "fusion_lon": 0.0, "type": "electric_scooter", "name": "57d3494260e6a17be8119a2ebfb3c629", "rental_uris": {"android": "https://dc.lft.to/lastmile_qr_scan", "ios": "https://dc.lft.to/lastmile_qr_scan"}, "fusion_lat": 0.0, "lat": 38.9094355, "is_disabled": 0, "lon": -77.02690966666667, "is_reserved": 0}, {"bike_id": "53043812da8cff6c6470d66226388d48", "fusion_lon": 0.0, "type": "electric_scooter", "name": "53043812da8cff6c6470d66226388d48", "rental_uris": {"android": "https://dc.lft.to/lastmile_qr_scan", "ios": "https://dc.lft.to/lastmile_qr_scan"}, "fusion_lat": 0.0, "lat": 38.926892333333335, "is_disabled": 0, "lon": -77.0664695, "is_reserved": 0}, {"bike_id": "83aa44f8c3f4eab5b1a7e93e36547757", "fusion_lon": 0.0, "type": "electric_scooter", "name": "83aa44f8c3f4eab5b1a7e93e36547757", "rental_uris": {"android": "https://dc.lft.to/lastmile_qr_scan", "ios": "https://dc.lft.to/lastmile_qr_scan"}, "fusion_lat": 0.0, "lat": 38.90561016666667, "is_disabled": 0, "lon": -77.01676683333334, "is_reserved": 0}, {"bike_id": "1225bc16d8f225cab50a151b5179a298", "fusion_lon": 0.0, "type": "electric_bike", "name": "1225bc16d8f225cab50a151b5179a298", "rental_uris": {"android": "https://dc.lft.to/lastmile_qr_scan", "ios": "https://dc.lft.to/lastmile_qr_scan"}, "fusion_lat": 0.0, "lat": 38.96263, "is_disabled": 0, "lon": -77.01076966666666, "is_reserved": 0}, {"bike_id": "05e14882427aac3a60b4997b0a8b4a89", "fusion_lon": 0.0, "type": "electric_bike", "name": "05e14882427aac3a60b4997b0a8b4a89", "rental_uris": {"android": "https://dc.lft.to/lastmile_qr_scan", "ios": "https://dc.lft.to/lastmile_qr_scan"}, "fusion_lat": 0.0, "lat": 38.88531066666667, "is_disabled": 0, "lon": -76.9357225, "is_reserved": 0}, {"bike_id": "20f859a3388d095ea7996ddd6d0b5484", "fusion_lon": 0.0, "type": "electric_scooter", "name": "20f859a3388d095ea7996ddd6d0b5484", "rental_uris": {"android": "https://dc.lft.to/lastmile_qr_scan", "ios": "https://dc.lft.to/lastmile_qr_scan"}, "fusion_lat": 0.0, "lat": 38.927876166666664, "is_disabled": 0, "lon": -77.0307625, "is_reserved": 0}, {"bike_id": "c50584d01fe5340f2c74b39cbc64b131", "fusion_lon": 0.0, "type": "electric_scooter", "name": "c50584d01fe5340f2c74b39cbc64b131", "rental_uris": {"android": "https://dc.lft.to/lastmile_qr_scan", "ios": "https://dc.lft.to/lastmile_qr_scan"}, "fusion_lat": 0.0, "lat": 38.93355616666667, "is_disabled": 0, "lon": -77.0372705, "is_reserved": 0}, {"bike_id": "d500345c8a8d6878e17e6778066f1099", "fusion_lon": 0.0, "type": "electric_bike", "name": "d500345c8a8d6878e17e6778066f1099", "rental_uris": {"android": "https://dc.lft.to/lastmile_qr_scan", "ios": "https://dc.lft.to/lastmile_qr_scan"}, "fusion_lat": 0.0, "lat": 38.90570966666667, "is_disabled": 0, "lon": -77.01704033333333, "is_reserved": 0}, {"bike_id": "a656f663e25b9e427a65e806e481b3fe", "fusion_lon": 0.0, "type": "electric_scooter", "name": "a656f663e25b9e427a65e806e481b3fe", "rental_uris": {"android": "https://dc.lft.to/lastmile_qr_scan", "ios": "https://dc.lft.to/lastmile_qr_scan"}, "fusion_lat": 0.0, "lat": 38.93383933333333, "is_disabled": 0, "lon": -77.03106916666667, "is_reserved": 0}, {"bike_id": "47211be5e65298def4ff35c2eb32b1d1", "fusion_lon": 0.0, "type": "electric_scooter", "name": "47211be5e65298def4ff35c2eb32b1d1", "rental_uris": {"android": "https://dc.lft.to/lastmile_qr_scan", "ios": "https://dc.lft.to/lastmile_qr_scan"}, "fusion_lat": 0.0, "lat": 38.90231933333333, "is_disabled": 0, "lon": -77.02943366666666, "is_reserved": 0}, {"bike_id": "f6441ada6db92c6aeb5a3c8b4f1c304f", "fusion_lon": 0.0, "type": "electric_scooter", "name": "f6441ada6db92c6aeb5a3c8b4f1c304f", "rental_uris": {"android": "https://dc.lft.to/lastmile_qr_scan", "ios": "https://dc.lft.to/lastmile_qr_scan"}, "fusion_lat": 0.0, "lat": 38.854603833333336, "is_disabled": 0, "lon": -76.98614383333333, "is_reserved": 0}, {"bike_id": "26849883a1b0c86ac9575c45ee5cf3a4", "fusion_lon": 0.0, "type": "electric_scooter", "name": "26849883a1b0c86ac9575c45ee5cf3a4", "rental_uris": {"android": "https://dc.lft.to/lastmile_qr_scan", "ios": "https://dc.lft.to/lastmile_qr_scan"}, "fusion_lat": 0.0, "lat": 38.91769566666667, "is_disabled": 0, "lon": -77.04060466666667, "is_reserved": 0}, {"bike_id": "b625cc7d540c07876fb9a6ebfe58ef00", "fusion_lon": 0.0, "type": "electric_scooter", "name": "b625cc7d540c07876fb9a6ebfe58ef00", "rental_uris": {"android": "https://dc.lft.to/lastmile_qr_scan", "ios": "https://dc.lft.to/lastmile_qr_scan"}, "fusion_lat": 0.0, "lat": 38.902748, "is_disabled": 0, "lon": -77.0320815, "is_reserved": 0}, {"bike_id": "32d494915f1158cd93e796e08933abac", "fusion_lon": 0.0, "type": "electric_scooter", "name": "32d494915f1158cd93e796e08933abac", "rental_uris": {"android": "https://dc.lft.to/lastmile_qr_scan", "ios": "https://dc.lft.to/lastmile_qr_scan"}, "fusion_lat": 0.0, "lat": 38.91050033333333, "is_disabled": 0, "lon": -77.0092275, "is_reserved": 0}, {"bike_id": "fa77ddd0d609bc37f18ced7c3c981ce7", "fusion_lon": 0.0, "type": "electric_bike", "name": "fa77ddd0d609bc37f18ced7c3c981ce7", "rental_uris": {"android": "https://dc.lft.to/lastmile_qr_scan", "ios": "https://dc.lft.to/lastmile_qr_scan"}, "fusion_lat": 0.0, "lat": 38.839185, "is_disabled": 0, "lon": -76.9983565, "is_reserved": 0}, {"bike_id": "be61d4a382e18f3f1411e82e5321e450", "fusion_lon": 0.0, "type": "electric_scooter", "name": "be61d4a382e18f3f1411e82e5321e450", "rental_uris": {"android": "https://dc.lft.to/lastmile_qr_scan", "ios": "https://dc.lft.to/lastmile_qr_scan"}, "fusion_lat": 0.0, "lat": 38.88744483333333, "is_disabled": 0, "lon": -77.02827133333334, "is_reserved": 0}, {"bike_id": "7df87b72dcaf42f822e2cf6f9ce39fc2", "fusion_lon": 0.0, "type": "electric_bike", "name": "7df87b72dcaf42f822e2cf6f9ce39fc2", "rental_uris": {"android": "https://dc.lft.to/lastmile_qr_scan", "ios": "https://dc.lft.to/lastmile_qr_scan"}, "fusion_lat": 0.0, "lat": 38.91922433333333, "is_disabled": 0, "lon": -77.0705485, "is_reserved": 0}, {"bike_id": "f708a59ffe4b1fa918fe1e137212d913", "fusion_lon": 0.0, "type": "electric_scooter", "name": "f708a59ffe4b1fa918fe1e137212d913", "rental_uris": {"android": "https://dc.lft.to/lastmile_qr_scan", "ios": "https://dc.lft.to/lastmile_qr_scan"}, "fusion_lat": 0.0, "lat": 38.903788666666664, "is_disabled": 0, "lon": -76.98024066666666, "is_reserved": 0}, {"bike_id": "1f1587271d788d832f91ba0652cdef29", "fusion_lon": 0.0, "type": "electric_scooter", "name": "1f1587271d788d832f91ba0652cdef29", "rental_uris": {"android": "https://dc.lft.to/lastmile_qr_scan", "ios": "https://dc.lft.to/lastmile_qr_scan"}, "fusion_lat": 0.0, "lat": 38.90624916666667, "is_disabled": 0, "lon": -77.0045745, "is_reserved": 0}, {"bike_id": "e208fa44afd7d813daca7efe97bf2884", "fusion_lon": 0.0, "type": "electric_scooter", "name": "e208fa44afd7d813daca7efe97bf2884", "rental_uris": {"android": "https://dc.lft.to/lastmile_qr_scan", "ios": "https://dc.lft.to/lastmile_qr_scan"}, "fusion_lat": 0.0, "lat": 38.92057766666667, "is_disabled": 0, "lon": -77.03390266666666, "is_reserved": 0}, {"bike_id": "603d7562fb67254aa5f78c0fc94bab58", "fusion_lon": 0.0, "type": "electric_bike", "name": "603d7562fb67254aa5f78c0fc94bab58", "rental_uris": {"android": "https://dc.lft.to/lastmile_qr_scan", "ios": "https://dc.lft.to/lastmile_qr_scan"}, "fusion_lat": 0.0, "lat": 38.7998885, "is_disabled": 0, "lon": -77.12981983333333, "is_reserved": 0}, {"bike_id": "7f8a251b27b64a1a455660b7291e74f3", "fusion_lon": 0.0, "type": "electric_scooter", "name": "7f8a251b27b64a1a455660b7291e74f3", "rental_uris": {"android": "https://dc.lft.to/lastmile_qr_scan", "ios": "https://dc.lft.to/lastmile_qr_scan"}, "fusion_lat": 0.0, "lat": 38.905082166666666, "is_disabled": 0, "lon": -77.01694283333333, "is_reserved": 0}, {"bike_id": "b7d747e1a1181ff8cd636c9b6b6e94b1", "fusion_lon": 0.0, "type": "electric_scooter", "name": "b7d747e1a1181ff8cd636c9b6b6e94b1", "rental_uris": {"android": "https://dc.lft.to/lastmile_qr_scan", "ios": "https://dc.lft.to/lastmile_qr_scan"}, "fusion_lat": 0.0, "lat": 38.896755166666665, "is_disabled": 0, "lon": -76.94718683333333, "is_reserved": 0}, {"bike_id": "05d81731e1227dcb4f2460c35abc0043", "fusion_lon": 0.0, "type": "electric_bike", "name": "05d81731e1227dcb4f2460c35abc0043", "rental_uris": {"android": "https://dc.lft.to/lastmile_qr_scan", "ios": "https://dc.lft.to/lastmile_qr_scan"}, "fusion_lat": 0.0, "lat": 38.879773166666666, "is_disabled": 0, "lon": -76.916003, "is_reserved": 0}, {"bike_id": "6000a1c5f94ed818a30ce11bf9732c7e", "fusion_lon": 0.0, "type": "electric_bike", "name": "6000a1c5f94ed818a30ce11bf9732c7e", "rental_uris": {"android": "https://dc.lft.to/lastmile_qr_scan", "ios": "https://dc.lft.to/lastmile_qr_scan"}, "fusion_lat": 0.0, "lat": 38.86530716666667, "is_disabled": 0, "lon": -77.12817733333333, "is_reserved": 0}, {"bike_id": "36624041bf3d57f38213cf22155e1d26", "fusion_lon": 0.0, "type": "electric_scooter", "name": "36624041bf3d57f38213cf22155e1d26", "rental_uris": {"android": "https://dc.lft.to/lastmile_qr_scan", "ios": "https://dc.lft.to/lastmile_qr_scan"}, "fusion_lat": 0.0, "lat": 38.90569, "is_disabled": 0, "lon": -77.04010966666667, "is_reserved": 0}, {"bike_id": "d2a41e16a9aa7ce1cc98adb518b85d09", "fusion_lon": 0.0, "type": "electric_scooter", "name": "d2a41e16a9aa7ce1cc98adb518b85d09", "rental_uris": {"android": "https://dc.lft.to/lastmile_qr_scan", "ios": "https://dc.lft.to/lastmile_qr_scan"}, "fusion_lat": 0.0, "lat": 38.9291145, "is_disabled": 0, "lon": -77.0639495, "is_reserved": 0}, {"bike_id": "854fa3ded503c2479f39d707ee8e2d06", "fusion_lon": 0.0, "type": "electric_scooter", "name": "854fa3ded503c2479f39d707ee8e2d06", "rental_uris": {"android": "https://dc.lft.to/lastmile_qr_scan", "ios": "https://dc.lft.to/lastmile_qr_scan"}, "fusion_lat": 0.0, "lat": 38.9403015, "is_disabled": 0, "lon": -77.06889416666667, "is_reserved": 0}, {"bike_id": "0ad6708044db004cf5779674897033c9", "fusion_lon": 0.0, "type": "electric_bike", "name": "0ad6708044db004cf5779674897033c9", "rental_uris": {"android": "https://dc.lft.to/lastmile_qr_scan", "ios": "https://dc.lft.to/lastmile_qr_scan"}, "fusion_lat": 0.0, "lat": 38.9284705, "is_disabled": 0, "lon": -77.02057133333334, "is_reserved": 0}, {"bike_id": "3ca930b6594a9cec055f6773fac59be4", "fusion_lon": 0.0, "type": "electric_bike", "name": "3ca930b6594a9cec055f6773fac59be4", "rental_uris": {"android": "https://dc.lft.to/lastmile_qr_scan", "ios": "https://dc.lft.to/lastmile_qr_scan"}, "fusion_lat": 0.0, "lat": 38.824501166666664, "is_disabled": 0, "lon": -77.07043466666667, "is_reserved": 0}, {"bike_id": "b255020ad8573029efba4a113ef30078", "fusion_lon": 0.0, "type": "electric_scooter", "name": "b255020ad8573029efba4a113ef30078", "rental_uris": {"android": "https://dc.lft.to/lastmile_qr_scan", "ios": "https://dc.lft.to/lastmile_qr_scan"}, "fusion_lat": 0.0, "lat": 38.9000175, "is_disabled": 0, "lon": -77.0020045, "is_reserved": 0}, {"bike_id": "1867cd37102844a2c7a8edd7e7f35d05", "fusion_lon": 0.0, "type": "electric_scooter", "name": "1867cd37102844a2c7a8edd7e7f35d05", "rental_uris": {"android": "https://dc.lft.to/lastmile_qr_scan", "ios": "https://dc.lft.to/lastmile_qr_scan"}, "fusion_lat": 0.0, "lat": 38.91715466666667, "is_disabled": 0, "lon": -77.032125, "is_reserved": 0}, {"bike_id": "1a3de82d912ddeff59ac7208ea02c14e", "fusion_lon": 0.0, "type": "electric_scooter", "name": "1a3de82d912ddeff59ac7208ea02c14e", "rental_uris": {"android": "https://dc.lft.to/lastmile_qr_scan", "ios": "https://dc.lft.to/lastmile_qr_scan"}, "fusion_lat": 0.0, "lat": 38.917876166666666, "is_disabled": 0, "lon": -76.97335383333333, "is_reserved": 0}, {"bike_id": "082ea679f48d1ce57e687388a3168c8a", "fusion_lon": 0.0, "type": "electric_scooter", "name": "082ea679f48d1ce57e687388a3168c8a", "rental_uris": {"android": "https://dc.lft.to/lastmile_qr_scan", "ios": "https://dc.lft.to/lastmile_qr_scan"}, "fusion_lat": 0.0, "lat": 38.918176833333334, "is_disabled": 0, "lon": -77.024874, "is_reserved": 0}, {"bike_id": "3484a84e3ecffbd89f2e00ba00cb73d9", "fusion_lon": 0.0, "type": "electric_bike", "name": "3484a84e3ecffbd89f2e00ba00cb73d9", "rental_uris": {"android": "https://dc.lft.to/lastmile_qr_scan", "ios": "https://dc.lft.to/lastmile_qr_scan"}, "fusion_lat": 0.0, "lat": 39.0994415, "is_disabled": 0, "lon": -77.18796516666667, "is_reserved": 0}, {"bike_id": "d659561798c3bf5a43d5cd6fa14d7fac", "fusion_lon": 0.0, "type": "electric_bike", "name": "d659561798c3bf5a43d5cd6fa14d7fac", "rental_uris": {"android": "https://dc.lft.to/lastmile_qr_scan", "ios": "https://dc.lft.to/lastmile_qr_scan"}, "fusion_lat": 0.0, "lat": 38.99966666666667, "is_disabled": 0, "lon": -77.05122066666667, "is_reserved": 0}, {"bike_id": "37a9014a40aae105cb097fcde5be98b7", "fusion_lon": 0.0, "type": "electric_scooter", "name": "37a9014a40aae105cb097fcde5be98b7", "rental_uris": {"android": "https://dc.lft.to/lastmile_qr_scan", "ios": "https://dc.lft.to/lastmile_qr_scan"}, "fusion_lat": 0.0, "lat": 38.877056, "is_disabled": 0, "lon": -77.00291566666667, "is_reserved": 0}, {"bike_id": "238c19ec68576d85826c81c6c67826bf", "fusion_lon": 0.0, "type": "electric_bike", "name": "238c19ec68576d85826c81c6c67826bf", "rental_uris": {"android": "https://dc.lft.to/lastmile_qr_scan", "ios": "https://dc.lft.to/lastmile_qr_scan"}, "fusion_lat": 0.0, "lat": 38.872344166666664, "is_disabled": 0, "lon": -76.93199216666666, "is_reserved": 0}, {"bike_id": "c278f0deabc03fea88830ac07d82ac29", "fusion_lon": 0.0, "type": "electric_scooter", "name": "c278f0deabc03fea88830ac07d82ac29", "rental_uris": {"android": "https://dc.lft.to/lastmile_qr_scan", "ios": "https://dc.lft.to/lastmile_qr_scan"}, "fusion_lat": 0.0, "lat": 38.88678766666666, "is_disabled": 0, "lon": -76.952387, "is_reserved": 0}, {"bike_id": "8f7836414f78cb3c1a6ed5f7cdea85fe", "fusion_lon": 0.0, "type": "electric_scooter", "name": "8f7836414f78cb3c1a6ed5f7cdea85fe", "rental_uris": {"android": "https://dc.lft.to/lastmile_qr_scan", "ios": "https://dc.lft.to/lastmile_qr_scan"}, "fusion_lat": 0.0, "lat": 38.917323333333336, "is_disabled": 0, "lon": -77.0192175, "is_reserved": 0}, {"bike_id": "52dd9bfb11eb55c64aaa2680b34431ce", "fusion_lon": 0.0, "type": "electric_scooter", "name": "52dd9bfb11eb55c64aaa2680b34431ce", "rental_uris": {"android": "https://dc.lft.to/lastmile_qr_scan", "ios": "https://dc.lft.to/lastmile_qr_scan"}, "fusion_lat": 0.0, "lat": 38.95650883333333, "is_disabled": 0, "lon": -77.032922, "is_reserved": 0}, {"bike_id": "f29b7a81b8a618de6c4cfdebb6bfc8be", "fusion_lon": 0.0, "type": "electric_scooter", "name": "f29b7a81b8a618de6c4cfdebb6bfc8be", "rental_uris": {"android": "https://dc.lft.to/lastmile_qr_scan", "ios": "https://dc.lft.to/lastmile_qr_scan"}, "fusion_lat": 0.0, "lat": 38.950033, "is_disabled": 0, "lon": -77.02708366666667, "is_reserved": 0}, {"bike_id": "2f42126c6b25eb19e5d028d917e186f6", "fusion_lon": 0.0, "type": "electric_scooter", "name": "2f42126c6b25eb19e5d028d917e186f6", "rental_uris": {"android": "https://dc.lft.to/lastmile_qr_scan", "ios": "https://dc.lft.to/lastmile_qr_scan"}, "fusion_lat": 0.0, "lat": 38.919866166666665, "is_disabled": 0, "lon": -77.03267233333334, "is_reserved": 0}, {"bike_id": "c0cbfe227a17d4d5cfc336574bd3867a", "fusion_lon": 0.0, "type": "electric_scooter", "name": "c0cbfe227a17d4d5cfc336574bd3867a", "rental_uris": {"android": "https://dc.lft.to/lastmile_qr_scan", "ios": "https://dc.lft.to/lastmile_qr_scan"}, "fusion_lat": 0.0, "lat": 38.90241066666667, "is_disabled": 0, "lon": -77.00203966666666, "is_reserved": 0}, {"bike_id": "f677e25434e4e1465b393a10bd17b741", "fusion_lon": 0.0, "type": "electric_scooter", "name": "f677e25434e4e1465b393a10bd17b741", "rental_uris": {"android": "https://dc.lft.to/lastmile_qr_scan", "ios": "https://dc.lft.to/lastmile_qr_scan"}, "fusion_lat": 0.0, "lat": 38.9048205, "is_disabled": 0, "lon": -77.03859716666666, "is_reserved": 0}, {"bike_id": "d0cb9280e8c766fc498c2b97e433c164", "fusion_lon": 0.0, "type": "electric_bike", "name": "d0cb9280e8c766fc498c2b97e433c164", "rental_uris": {"android": "https://dc.lft.to/lastmile_qr_scan", "ios": "https://dc.lft.to/lastmile_qr_scan"}, "fusion_lat": 0.0, "lat": 38.841071666666664, "is_disabled": 0, "lon": -77.089381, "is_reserved": 0}, {"bike_id": "4b0365e7169f6c74fdd704b2938dfe3c", "fusion_lon": 0.0, "type": "electric_scooter", "name": "4b0365e7169f6c74fdd704b2938dfe3c", "rental_uris": {"android": "https://dc.lft.to/lastmile_qr_scan", "ios": "https://dc.lft.to/lastmile_qr_scan"}, "fusion_lat": 0.0, "lat": 38.92500783333333, "is_disabled": 0, "lon": -77.02253216666666, "is_reserved": 0}, {"bike_id": "94318e4ed78fcea689f20e66c804214b", "fusion_lon": 0.0, "type": "electric_scooter", "name": "94318e4ed78fcea689f20e66c804214b", "rental_uris": {"android": "https://dc.lft.to/lastmile_qr_scan", "ios": "https://dc.lft.to/lastmile_qr_scan"}, "fusion_lat": 0.0, "lat": 38.902447333333335, "is_disabled": 0, "lon": -77.01973566666666, "is_reserved": 0}, {"bike_id": "3fd80bd75ba194df5fe6c867ec46608a", "fusion_lon": 0.0, "type": "electric_scooter", "name": "3fd80bd75ba194df5fe6c867ec46608a", "rental_uris": {"android": "https://dc.lft.to/lastmile_qr_scan", "ios": "https://dc.lft.to/lastmile_qr_scan"}, "fusion_lat": 0.0, "lat": 38.95627016666667, "is_disabled": 0, "lon": -77.0299025, "is_reserved": 0}, {"bike_id": "81a8f9061f96c7bb06584b4854d242bd", "fusion_lon": 0.0, "type": "electric_scooter", "name": "81a8f9061f96c7bb06584b4854d242bd", "rental_uris": {"android": "https://dc.lft.to/lastmile_qr_scan", "ios": "https://dc.lft.to/lastmile_qr_scan"}, "fusion_lat": 0.0, "lat": 38.90559416666667, "is_disabled": 0, "lon": -77.02794866666666, "is_reserved": 0}, {"bike_id": "9c6b77158118c0eb95cfe05cd7d3737e", "fusion_lon": 0.0, "type": "electric_bike", "name": "9c6b77158118c0eb95cfe05cd7d3737e", "rental_uris": {"android": "https://dc.lft.to/lastmile_qr_scan", "ios": "https://dc.lft.to/lastmile_qr_scan"}, "fusion_lat": 0.0, "lat": 38.812385666666664, "is_disabled": 0, "lon": -77.0407055, "is_reserved": 0}, {"bike_id": "ae7b5da80ed325e1a64f8af90879515f", "fusion_lon": 0.0, "type": "electric_bike", "name": "ae7b5da80ed325e1a64f8af90879515f", "rental_uris": {"android": "https://dc.lft.to/lastmile_qr_scan", "ios": "https://dc.lft.to/lastmile_qr_scan"}, "fusion_lat": 0.0, "lat": 38.9240985, "is_disabled": 0, "lon": -77.05041166666666, "is_reserved": 0}, {"bike_id": "6ff1c8284b54bb672373737431e2caf5", "fusion_lon": 0.0, "type": "electric_bike", "name": "6ff1c8284b54bb672373737431e2caf5", "rental_uris": {"android": "https://dc.lft.to/lastmile_qr_scan", "ios": "https://dc.lft.to/lastmile_qr_scan"}, "fusion_lat": 0.0, "lat": 38.96226816666667, "is_disabled": 0, "lon": -77.02623983333334, "is_reserved": 0}, {"bike_id": "db32b2ed040fc4dd02cabd7a466b6faf", "fusion_lon": 0.0, "type": "electric_scooter", "name": "db32b2ed040fc4dd02cabd7a466b6faf", "rental_uris": {"android": "https://dc.lft.to/lastmile_qr_scan", "ios": "https://dc.lft.to/lastmile_qr_scan"}, "fusion_lat": 0.0, "lat": 38.950701, "is_disabled": 0, "lon": -77.06539033333334, "is_reserved": 0}, {"bike_id": "4d8000a08e005c750f832520dde1b9d1", "fusion_lon": 0.0, "type": "electric_scooter", "name": "4d8000a08e005c750f832520dde1b9d1", "rental_uris": {"android": "https://dc.lft.to/lastmile_qr_scan", "ios": "https://dc.lft.to/lastmile_qr_scan"}, "fusion_lat": 0.0, "lat": 38.86677616666667, "is_disabled": 0, "lon": -76.98890016666667, "is_reserved": 0}, {"bike_id": "87aed52098c64d52593f064fc39d94de", "fusion_lon": 0.0, "type": "electric_bike", "name": "87aed52098c64d52593f064fc39d94de", "rental_uris": {"android": "https://dc.lft.to/lastmile_qr_scan", "ios": "https://dc.lft.to/lastmile_qr_scan"}, "fusion_lat": 0.0, "lat": 39.0890325, "is_disabled": 0, "lon": -77.17845983333333, "is_reserved": 0}, {"bike_id": "bcf3699fb78adf4471e1729f38f9463f", "fusion_lon": 0.0, "type": "electric_scooter", "name": "bcf3699fb78adf4471e1729f38f9463f", "rental_uris": {"android": "https://dc.lft.to/lastmile_qr_scan", "ios": "https://dc.lft.to/lastmile_qr_scan"}, "fusion_lat": 0.0, "lat": 38.88602566666667, "is_disabled": 0, "lon": -76.99455233333333, "is_reserved": 0}, {"bike_id": "aa1a953b09c57b2f60d94e2d89ea4040", "fusion_lon": 0.0, "type": "electric_scooter", "name": "aa1a953b09c57b2f60d94e2d89ea4040", "rental_uris": {"android": "https://dc.lft.to/lastmile_qr_scan", "ios": "https://dc.lft.to/lastmile_qr_scan"}, "fusion_lat": 0.0, "lat": 38.945761166666664, "is_disabled": 0, "lon": -77.03462183333333, "is_reserved": 0}, {"bike_id": "6074db85b08e75695114c3da88ae85f4", "fusion_lon": 0.0, "type": "electric_scooter", "name": "6074db85b08e75695114c3da88ae85f4", "rental_uris": {"android": "https://dc.lft.to/lastmile_qr_scan", "ios": "https://dc.lft.to/lastmile_qr_scan"}, "fusion_lat": 0.0, "lat": 38.91680983333333, "is_disabled": 0, "lon": -77.029697, "is_reserved": 0}, {"bike_id": "991eec2aa2c163133cb9251e48389c6f", "fusion_lon": 0.0, "type": "electric_scooter", "name": "991eec2aa2c163133cb9251e48389c6f", "rental_uris": {"android": "https://dc.lft.to/lastmile_qr_scan", "ios": "https://dc.lft.to/lastmile_qr_scan"}, "fusion_lat": 0.0, "lat": 38.94100433333333, "is_disabled": 0, "lon": -77.02540316666666, "is_reserved": 0}, {"bike_id": "517c293f49819db5670739f7cc0e482e", "fusion_lon": 0.0, "type": "electric_scooter", "name": "517c293f49819db5670739f7cc0e482e", "rental_uris": {"android": "https://dc.lft.to/lastmile_qr_scan", "ios": "https://dc.lft.to/lastmile_qr_scan"}, "fusion_lat": 0.0, "lat": 38.91550866666667, "is_disabled": 0, "lon": -77.023252, "is_reserved": 0}, {"bike_id": "c57533649fca4cbd644de21f34008132", "fusion_lon": 0.0, "type": "electric_scooter", "name": "c57533649fca4cbd644de21f34008132", "rental_uris": {"android": "https://dc.lft.to/lastmile_qr_scan", "ios": "https://dc.lft.to/lastmile_qr_scan"}, "fusion_lat": 0.0, "lat": 38.8850855, "is_disabled": 0, "lon": -77.03343666666666, "is_reserved": 0}, {"bike_id": "b5f6c25388d8ebbaba87d04ca3206f82", "fusion_lon": 0.0, "type": "electric_scooter", "name": "b5f6c25388d8ebbaba87d04ca3206f82", "rental_uris": {"android": "https://dc.lft.to/lastmile_qr_scan", "ios": "https://dc.lft.to/lastmile_qr_scan"}, "fusion_lat": 0.0, "lat": 38.892323166666664, "is_disabled": 0, "lon": -77.049992, "is_reserved": 0}, {"bike_id": "eb101983a4647c83924f46b324995467", "fusion_lon": 0.0, "type": "electric_bike", "name": "eb101983a4647c83924f46b324995467", "rental_uris": {"android": "https://dc.lft.to/lastmile_qr_scan", "ios": "https://dc.lft.to/lastmile_qr_scan"}, "fusion_lat": 0.0, "lat": 38.856241833333335, "is_disabled": 0, "lon": -77.08547316666667, "is_reserved": 0}, {"bike_id": "45268c5b71102513994e4c04751029ca", "fusion_lon": 0.0, "type": "electric_scooter", "name": "45268c5b71102513994e4c04751029ca", "rental_uris": {"android": "https://dc.lft.to/lastmile_qr_scan", "ios": "https://dc.lft.to/lastmile_qr_scan"}, "fusion_lat": 0.0, "lat": 38.910282333333335, "is_disabled": 0, "lon": -77.032824, "is_reserved": 0}, {"bike_id": "f7cf154658cc7cc96518e24f4465c037", "fusion_lon": 0.0, "type": "electric_scooter", "name": "f7cf154658cc7cc96518e24f4465c037", "rental_uris": {"android": "https://dc.lft.to/lastmile_qr_scan", "ios": "https://dc.lft.to/lastmile_qr_scan"}, "fusion_lat": 0.0, "lat": 38.96502016666667, "is_disabled": 0, "lon": -77.02853683333333, "is_reserved": 0}, {"bike_id": "de0ef66f03320ce797fe38d30955cc42", "fusion_lon": 0.0, "type": "electric_scooter", "name": "de0ef66f03320ce797fe38d30955cc42", "rental_uris": {"android": "https://dc.lft.to/lastmile_qr_scan", "ios": "https://dc.lft.to/lastmile_qr_scan"}, "fusion_lat": 0.0, "lat": 38.939906, "is_disabled": 0, "lon": -77.0328135, "is_reserved": 0}, {"bike_id": "3f5571a245b54d4918d7825b035e8ef9", "fusion_lon": 0.0, "type": "electric_scooter", "name": "3f5571a245b54d4918d7825b035e8ef9", "rental_uris": {"android": "https://dc.lft.to/lastmile_qr_scan", "ios": "https://dc.lft.to/lastmile_qr_scan"}, "fusion_lat": 0.0, "lat": 38.9057445, "is_disabled": 0, "lon": -76.9763235, "is_reserved": 0}, {"bike_id": "ac6a84441134839e4af8df28b809e469", "fusion_lon": 0.0, "type": "electric_scooter", "name": "ac6a84441134839e4af8df28b809e469", "rental_uris": {"android": "https://dc.lft.to/lastmile_qr_scan", "ios": "https://dc.lft.to/lastmile_qr_scan"}, "fusion_lat": 0.0, "lat": 38.8950525, "is_disabled": 0, "lon": -77.011007, "is_reserved": 0}, {"bike_id": "9071825d4ce864b1edf75532df69d011", "fusion_lon": 0.0, "type": "electric_scooter", "name": "9071825d4ce864b1edf75532df69d011", "rental_uris": {"android": "https://dc.lft.to/lastmile_qr_scan", "ios": "https://dc.lft.to/lastmile_qr_scan"}, "fusion_lat": 0.0, "lat": 38.918781833333334, "is_disabled": 0, "lon": -77.041846, "is_reserved": 0}, {"bike_id": "666fd1175dadf1dd88f36910138eaefb", "fusion_lon": 0.0, "type": "electric_scooter", "name": "666fd1175dadf1dd88f36910138eaefb", "rental_uris": {"android": "https://dc.lft.to/lastmile_qr_scan", "ios": "https://dc.lft.to/lastmile_qr_scan"}, "fusion_lat": 0.0, "lat": 38.882191666666664, "is_disabled": 0, "lon": -76.98680466666667, "is_reserved": 0}, {"bike_id": "962784ee3c20992e30b521741ca0e0be", "fusion_lon": 0.0, "type": "electric_scooter", "name": "962784ee3c20992e30b521741ca0e0be", "rental_uris": {"android": "https://dc.lft.to/lastmile_qr_scan", "ios": "https://dc.lft.to/lastmile_qr_scan"}, "fusion_lat": 0.0, "lat": 38.91851183333333, "is_disabled": 0, "lon": -76.9656015, "is_reserved": 0}, {"bike_id": "dd5beb075372250edf24941a437c3a04", "fusion_lon": 0.0, "type": "electric_scooter", "name": "dd5beb075372250edf24941a437c3a04", "rental_uris": {"android": "https://dc.lft.to/lastmile_qr_scan", "ios": "https://dc.lft.to/lastmile_qr_scan"}, "fusion_lat": 0.0, "lat": 38.902213, "is_disabled": 0, "lon": -77.00213033333333, "is_reserved": 0}, {"bike_id": "021cee388496299886de36dd9287adff", "fusion_lon": 0.0, "type": "electric_scooter", "name": "021cee388496299886de36dd9287adff", "rental_uris": {"android": "https://dc.lft.to/lastmile_qr_scan", "ios": "https://dc.lft.to/lastmile_qr_scan"}, "fusion_lat": 0.0, "lat": 38.952154666666665, "is_disabled": 0, "lon": -77.06781433333333, "is_reserved": 0}, {"bike_id": "f0d7a04b2508c70d841081f1a4112e77", "fusion_lon": 0.0, "type": "electric_scooter", "name": "f0d7a04b2508c70d841081f1a4112e77", "rental_uris": {"android": "https://dc.lft.to/lastmile_qr_scan", "ios": "https://dc.lft.to/lastmile_qr_scan"}, "fusion_lat": 0.0, "lat": 38.949962, "is_disabled": 0, "lon": -77.01843583333333, "is_reserved": 0}, {"bike_id": "200b6489f534a97f559f0cf2e7dbcfe2", "fusion_lon": 0.0, "type": "electric_scooter", "name": "200b6489f534a97f559f0cf2e7dbcfe2", "rental_uris": {"android": "https://dc.lft.to/lastmile_qr_scan", "ios": "https://dc.lft.to/lastmile_qr_scan"}, "fusion_lat": 0.0, "lat": 38.9304225, "is_disabled": 0, "lon": -77.03304366666667, "is_reserved": 0}, {"bike_id": "149ac57b53db8a90478dac7fd5786895", "fusion_lon": 0.0, "type": "electric_scooter", "name": "149ac57b53db8a90478dac7fd5786895", "rental_uris": {"android": "https://dc.lft.to/lastmile_qr_scan", "ios": "https://dc.lft.to/lastmile_qr_scan"}, "fusion_lat": 0.0, "lat": 38.91930033333333, "is_disabled": 0, "lon": -77.03182166666667, "is_reserved": 0}, {"bike_id": "f910ce39542682e4c81a27411ba09656", "fusion_lon": 0.0, "type": "electric_scooter", "name": "f910ce39542682e4c81a27411ba09656", "rental_uris": {"android": "https://dc.lft.to/lastmile_qr_scan", "ios": "https://dc.lft.to/lastmile_qr_scan"}, "fusion_lat": 0.0, "lat": 38.93960916666666, "is_disabled": 0, "lon": -77.02497533333333, "is_reserved": 0}, {"bike_id": "71a811a7970628fd54e8fe16cd578834", "fusion_lon": 0.0, "type": "electric_scooter", "name": "71a811a7970628fd54e8fe16cd578834", "rental_uris": {"android": "https://dc.lft.to/lastmile_qr_scan", "ios": "https://dc.lft.to/lastmile_qr_scan"}, "fusion_lat": 0.0, "lat": 38.9287755, "is_disabled": 0, "lon": -77.02817233333333, "is_reserved": 0}, {"bike_id": "02003e2033d6de1326bf61815e4a842f", "fusion_lon": 0.0, "type": "electric_scooter", "name": "02003e2033d6de1326bf61815e4a842f", "rental_uris": {"android": "https://dc.lft.to/lastmile_qr_scan", "ios": "https://dc.lft.to/lastmile_qr_scan"}, "fusion_lat": 0.0, "lat": 38.92129683333334, "is_disabled": 0, "lon": -77.04431583333333, "is_reserved": 0}, {"bike_id": "8241ef08c25cd7a14a80d18fd50db505", "fusion_lon": 0.0, "type": "electric_scooter", "name": "8241ef08c25cd7a14a80d18fd50db505", "rental_uris": {"android": "https://dc.lft.to/lastmile_qr_scan", "ios": "https://dc.lft.to/lastmile_qr_scan"}, "fusion_lat": 0.0, "lat": 38.95519316666667, "is_disabled": 0, "lon": -77.00740833333333, "is_reserved": 0}, {"bike_id": "26e252ccd6932b949f72ce623ad0094b", "fusion_lon": 0.0, "type": "electric_scooter", "name": "26e252ccd6932b949f72ce623ad0094b", "rental_uris": {"android": "https://dc.lft.to/lastmile_qr_scan", "ios": "https://dc.lft.to/lastmile_qr_scan"}, "fusion_lat": 0.0, "lat": 38.9054525, "is_disabled": 0, "lon": -77.0219905, "is_reserved": 0}, {"bike_id": "1562d308ee47b83dfa53cb5f164b2248", "fusion_lon": 0.0, "type": "electric_scooter", "name": "1562d308ee47b83dfa53cb5f164b2248", "rental_uris": {"android": "https://dc.lft.to/lastmile_qr_scan", "ios": "https://dc.lft.to/lastmile_qr_scan"}, "fusion_lat": 0.0, "lat": 38.924260333333336, "is_disabled": 0, "lon": -77.02007566666667, "is_reserved": 0}, {"bike_id": "e47f8af24ce92f0a23203606b11c4cfb", "fusion_lon": 0.0, "type": "electric_scooter", "name": "e47f8af24ce92f0a23203606b11c4cfb", "rental_uris": {"android": "https://dc.lft.to/lastmile_qr_scan", "ios": "https://dc.lft.to/lastmile_qr_scan"}, "fusion_lat": 0.0, "lat": 38.89742, "is_disabled": 0, "lon": -77.00043533333333, "is_reserved": 0}, {"bike_id": "6b2fd0311f616d242f17baf89b0de7bd", "fusion_lon": 0.0, "type": "electric_scooter", "name": "6b2fd0311f616d242f17baf89b0de7bd", "rental_uris": {"android": "https://dc.lft.to/lastmile_qr_scan", "ios": "https://dc.lft.to/lastmile_qr_scan"}, "fusion_lat": 0.0, "lat": 38.885038333333334, "is_disabled": 0, "lon": -77.03351516666666, "is_reserved": 0}, {"bike_id": "4063bf606632c56402ed42f325cacafa", "fusion_lon": 0.0, "type": "electric_scooter", "name": "4063bf606632c56402ed42f325cacafa", "rental_uris": {"android": "https://dc.lft.to/lastmile_qr_scan", "ios": "https://dc.lft.to/lastmile_qr_scan"}, "fusion_lat": 0.0, "lat": 38.921621333333334, "is_disabled": 0, "lon": -77.03388533333333, "is_reserved": 0}, {"bike_id": "5c176b6e7d6799c47d3fc845be69b3d4", "fusion_lon": 0.0, "type": "electric_scooter", "name": "5c176b6e7d6799c47d3fc845be69b3d4", "rental_uris": {"android": "https://dc.lft.to/lastmile_qr_scan", "ios": "https://dc.lft.to/lastmile_qr_scan"}, "fusion_lat": 0.0, "lat": 38.938821833333336, "is_disabled": 0, "lon": -77.03285966666667, "is_reserved": 0}, {"bike_id": "6e9b03c27b495e74cb9bc8d3c083911e", "fusion_lon": 0.0, "type": "electric_scooter", "name": "6e9b03c27b495e74cb9bc8d3c083911e", "rental_uris": {"android": "https://dc.lft.to/lastmile_qr_scan", "ios": "https://dc.lft.to/lastmile_qr_scan"}, "fusion_lat": 0.0, "lat": 38.883001666666665, "is_disabled": 0, "lon": -76.9485275, "is_reserved": 0}, {"bike_id": "55476a657ada9076b4c967ea16dad4a8", "fusion_lon": 0.0, "type": "electric_scooter", "name": "55476a657ada9076b4c967ea16dad4a8", "rental_uris": {"android": "https://dc.lft.to/lastmile_qr_scan", "ios": "https://dc.lft.to/lastmile_qr_scan"}, "fusion_lat": 0.0, "lat": 38.89485833333333, "is_disabled": 0, "lon": -76.94845133333334, "is_reserved": 0}, {"bike_id": "4c7349161d9119169a8e73386a0e9d61", "fusion_lon": 0.0, "type": "electric_scooter", "name": "4c7349161d9119169a8e73386a0e9d61", "rental_uris": {"android": "https://dc.lft.to/lastmile_qr_scan", "ios": "https://dc.lft.to/lastmile_qr_scan"}, "fusion_lat": 0.0, "lat": 38.8575275, "is_disabled": 0, "lon": -76.9932055, "is_reserved": 0}, {"bike_id": "b201e3b8ae3e7fedb2075bc45f813c9f", "fusion_lon": 0.0, "type": "electric_scooter", "name": "b201e3b8ae3e7fedb2075bc45f813c9f", "rental_uris": {"android": "https://dc.lft.to/lastmile_qr_scan", "ios": "https://dc.lft.to/lastmile_qr_scan"}, "fusion_lat": 0.0, "lat": 38.92125266666667, "is_disabled": 0, "lon": -77.04577216666667, "is_reserved": 0}, {"bike_id": "38218c28990f0e86f8c95176d93f2711", "fusion_lon": 0.0, "type": "electric_scooter", "name": "38218c28990f0e86f8c95176d93f2711", "rental_uris": {"android": "https://dc.lft.to/lastmile_qr_scan", "ios": "https://dc.lft.to/lastmile_qr_scan"}, "fusion_lat": 0.0, "lat": 38.89689966666667, "is_disabled": 0, "lon": -76.99271166666666, "is_reserved": 0}, {"bike_id": "541ea1308331ae4603dc362d8359b30a", "fusion_lon": 0.0, "type": "electric_scooter", "name": "541ea1308331ae4603dc362d8359b30a", "rental_uris": {"android": "https://dc.lft.to/lastmile_qr_scan", "ios": "https://dc.lft.to/lastmile_qr_scan"}, "fusion_lat": 0.0, "lat": 38.944153, "is_disabled": 0, "lon": -77.0552035, "is_reserved": 0}, {"bike_id": "388caaa6010ba81742262b1b4e375fd9", "fusion_lon": 0.0, "type": "electric_scooter", "name": "388caaa6010ba81742262b1b4e375fd9", "rental_uris": {"android": "https://dc.lft.to/lastmile_qr_scan", "ios": "https://dc.lft.to/lastmile_qr_scan"}, "fusion_lat": 0.0, "lat": 38.9268765, "is_disabled": 0, "lon": -77.03600316666666, "is_reserved": 0}, {"bike_id": "3bc598be1262169251b221b97faf7d95", "fusion_lon": 0.0, "type": "electric_scooter", "name": "3bc598be1262169251b221b97faf7d95", "rental_uris": {"android": "https://dc.lft.to/lastmile_qr_scan", "ios": "https://dc.lft.to/lastmile_qr_scan"}, "fusion_lat": 0.0, "lat": 38.918213333333334, "is_disabled": 0, "lon": -77.03451166666666, "is_reserved": 0}, {"bike_id": "40ea68b941c4ca0b9bf56af3ea5741aa", "fusion_lon": 0.0, "type": "electric_scooter", "name": "40ea68b941c4ca0b9bf56af3ea5741aa", "rental_uris": {"android": "https://dc.lft.to/lastmile_qr_scan", "ios": "https://dc.lft.to/lastmile_qr_scan"}, "fusion_lat": 0.0, "lat": 38.898833333333336, "is_disabled": 0, "lon": -76.93173583333333, "is_reserved": 0}, {"bike_id": "58a94a4ac7b7f8827023389cf7ffb2f1", "fusion_lon": 0.0, "type": "electric_scooter", "name": "58a94a4ac7b7f8827023389cf7ffb2f1", "rental_uris": {"android": "https://dc.lft.to/lastmile_qr_scan", "ios": "https://dc.lft.to/lastmile_qr_scan"}, "fusion_lat": 0.0, "lat": 38.9177175, "is_disabled": 0, "lon": -77.01460566666667, "is_reserved": 0}, {"bike_id": "106f0788455542a059357f826c31dbdc", "fusion_lon": 0.0, "type": "electric_scooter", "name": "106f0788455542a059357f826c31dbdc", "rental_uris": {"android": "https://dc.lft.to/lastmile_qr_scan", "ios": "https://dc.lft.to/lastmile_qr_scan"}, "fusion_lat": 0.0, "lat": 38.89485083333334, "is_disabled": 0, "lon": -76.995155, "is_reserved": 0}, {"bike_id": "1cba2cbf8ed88e01ece9def7af804a60", "fusion_lon": 0.0, "type": "electric_scooter", "name": "1cba2cbf8ed88e01ece9def7af804a60", "rental_uris": {"android": "https://dc.lft.to/lastmile_qr_scan", "ios": "https://dc.lft.to/lastmile_qr_scan"}, "fusion_lat": 0.0, "lat": 38.926263, "is_disabled": 0, "lon": -77.05297466666667, "is_reserved": 0}, {"bike_id": "f5822bc03bed860d766a5b1a237b255b", "fusion_lon": 0.0, "type": "electric_scooter", "name": "f5822bc03bed860d766a5b1a237b255b", "rental_uris": {"android": "https://dc.lft.to/lastmile_qr_scan", "ios": "https://dc.lft.to/lastmile_qr_scan"}, "fusion_lat": 0.0, "lat": 38.93482316666667, "is_disabled": 0, "lon": -77.02412166666667, "is_reserved": 0}, {"bike_id": "65f2b2f50b7ddb077771d1c896fafb89", "fusion_lon": 0.0, "type": "electric_scooter", "name": "65f2b2f50b7ddb077771d1c896fafb89", "rental_uris": {"android": "https://dc.lft.to/lastmile_qr_scan", "ios": "https://dc.lft.to/lastmile_qr_scan"}, "fusion_lat": 0.0, "lat": 38.904803666666666, "is_disabled": 0, "lon": -77.01993366666666, "is_reserved": 0}, {"bike_id": "6b8da6f1230900931d7c02347bb343a0", "fusion_lon": 0.0, "type": "electric_scooter", "name": "6b8da6f1230900931d7c02347bb343a0", "rental_uris": {"android": "https://dc.lft.to/lastmile_qr_scan", "ios": "https://dc.lft.to/lastmile_qr_scan"}, "fusion_lat": 0.0, "lat": 38.9002945, "is_disabled": 0, "lon": -76.99870716666666, "is_reserved": 0}, {"bike_id": "b5fd6f2f04834c648cd7a7f20793b219", "fusion_lon": 0.0, "type": "electric_scooter", "name": "b5fd6f2f04834c648cd7a7f20793b219", "rental_uris": {"android": "https://dc.lft.to/lastmile_qr_scan", "ios": "https://dc.lft.to/lastmile_qr_scan"}, "fusion_lat": 0.0, "lat": 38.86506383333333, "is_disabled": 0, "lon": -76.99000866666667, "is_reserved": 0}, {"bike_id": "11455382a93c4aad826a4c89348f6e5a", "fusion_lon": 0.0, "type": "electric_scooter", "name": "11455382a93c4aad826a4c89348f6e5a", "rental_uris": {"android": "https://dc.lft.to/lastmile_qr_scan", "ios": "https://dc.lft.to/lastmile_qr_scan"}, "fusion_lat": 0.0, "lat": 38.90140016666667, "is_disabled": 0, "lon": -76.9941945, "is_reserved": 0}, {"bike_id": "7050a610ad7ff9be38b92638c4572aee", "fusion_lon": 0.0, "type": "electric_scooter", "name": "7050a610ad7ff9be38b92638c4572aee", "rental_uris": {"android": "https://dc.lft.to/lastmile_qr_scan", "ios": "https://dc.lft.to/lastmile_qr_scan"}, "fusion_lat": 0.0, "lat": 38.898551166666664, "is_disabled": 0, "lon": -76.97666183333334, "is_reserved": 0}, {"bike_id": "7355423f3d82111d6963cb3bbbdaf327", "fusion_lon": 0.0, "type": "electric_scooter", "name": "7355423f3d82111d6963cb3bbbdaf327", "rental_uris": {"android": "https://dc.lft.to/lastmile_qr_scan", "ios": "https://dc.lft.to/lastmile_qr_scan"}, "fusion_lat": 0.0, "lat": 38.8996695, "is_disabled": 0, "lon": -76.9343215, "is_reserved": 0}, {"bike_id": "1f7bab0c4fa07a3fd170079dacce5830", "fusion_lon": 0.0, "type": "electric_scooter", "name": "1f7bab0c4fa07a3fd170079dacce5830", "rental_uris": {"android": "https://dc.lft.to/lastmile_qr_scan", "ios": "https://dc.lft.to/lastmile_qr_scan"}, "fusion_lat": 0.0, "lat": 38.90803983333333, "is_disabled": 0, "lon": -77.05143166666667, "is_reserved": 0}, {"bike_id": "4cd5ebb16bbbe13fe875de1c3f600b1f", "fusion_lon": 0.0, "type": "electric_scooter", "name": "4cd5ebb16bbbe13fe875de1c3f600b1f", "rental_uris": {"android": "https://dc.lft.to/lastmile_qr_scan", "ios": "https://dc.lft.to/lastmile_qr_scan"}, "fusion_lat": 0.0, "lat": 38.914809, "is_disabled": 0, "lon": -77.01453183333334, "is_reserved": 0}, {"bike_id": "ed88e18a4904fb7cd86a7a22c87cb049", "fusion_lon": 0.0, "type": "electric_scooter", "name": "ed88e18a4904fb7cd86a7a22c87cb049", "rental_uris": {"android": "https://dc.lft.to/lastmile_qr_scan", "ios": "https://dc.lft.to/lastmile_qr_scan"}, "fusion_lat": 0.0, "lat": 38.933242666666665, "is_disabled": 0, "lon": -76.99093016666667, "is_reserved": 0}, {"bike_id": "d8eedc25fbf57398e6466904bd8943ea", "fusion_lon": 0.0, "type": "electric_scooter", "name": "d8eedc25fbf57398e6466904bd8943ea", "rental_uris": {"android": "https://dc.lft.to/lastmile_qr_scan", "ios": "https://dc.lft.to/lastmile_qr_scan"}, "fusion_lat": 0.0, "lat": 38.91796433333333, "is_disabled": 0, "lon": -77.023151, "is_reserved": 0}, {"bike_id": "20e9c1505c56c2f1e76deffc68697d9a", "fusion_lon": 0.0, "type": "electric_scooter", "name": "20e9c1505c56c2f1e76deffc68697d9a", "rental_uris": {"android": "https://dc.lft.to/lastmile_qr_scan", "ios": "https://dc.lft.to/lastmile_qr_scan"}, "fusion_lat": 0.0, "lat": 38.911085666666665, "is_disabled": 0, "lon": -77.042273, "is_reserved": 0}, {"bike_id": "370f704f22a5f55dffe30ef460db6110", "fusion_lon": 0.0, "type": "electric_scooter", "name": "370f704f22a5f55dffe30ef460db6110", "rental_uris": {"android": "https://dc.lft.to/lastmile_qr_scan", "ios": "https://dc.lft.to/lastmile_qr_scan"}, "fusion_lat": 0.0, "lat": 38.863736, "is_disabled": 0, "lon": -76.97454833333333, "is_reserved": 0}, {"bike_id": "b53549f97b6b133c90e77d79d7e04d02", "fusion_lon": 0.0, "type": "electric_scooter", "name": "b53549f97b6b133c90e77d79d7e04d02", "rental_uris": {"android": "https://dc.lft.to/lastmile_qr_scan", "ios": "https://dc.lft.to/lastmile_qr_scan"}, "fusion_lat": 0.0, "lat": 38.92500666666667, "is_disabled": 0, "lon": -77.043373, "is_reserved": 0}, {"bike_id": "a4ec3d926818a665ea03a96349fdc1c0", "fusion_lon": 0.0, "type": "electric_scooter", "name": "a4ec3d926818a665ea03a96349fdc1c0", "rental_uris": {"android": "https://dc.lft.to/lastmile_qr_scan", "ios": "https://dc.lft.to/lastmile_qr_scan"}, "fusion_lat": 0.0, "lat": 38.88027183333333, "is_disabled": 0, "lon": -76.988238, "is_reserved": 0}, {"bike_id": "2f2dbfd98404a7184d6c1608e304be57", "fusion_lon": 0.0, "type": "electric_scooter", "name": "2f2dbfd98404a7184d6c1608e304be57", "rental_uris": {"android": "https://dc.lft.to/lastmile_qr_scan", "ios": "https://dc.lft.to/lastmile_qr_scan"}, "fusion_lat": 0.0, "lat": 38.902761, "is_disabled": 0, "lon": -77.03471183333333, "is_reserved": 0}, {"bike_id": "7db2e688be5aaa6f48d706698ea68cd3", "fusion_lon": 0.0, "type": "electric_scooter", "name": "7db2e688be5aaa6f48d706698ea68cd3", "rental_uris": {"android": "https://dc.lft.to/lastmile_qr_scan", "ios": "https://dc.lft.to/lastmile_qr_scan"}, "fusion_lat": 0.0, "lat": 38.89961, "is_disabled": 0, "lon": -77.03363133333333, "is_reserved": 0}, {"bike_id": "ecf2bc1c8f562df51b8474abe945febb", "fusion_lon": 0.0, "type": "electric_scooter", "name": "ecf2bc1c8f562df51b8474abe945febb", "rental_uris": {"android": "https://dc.lft.to/lastmile_qr_scan", "ios": "https://dc.lft.to/lastmile_qr_scan"}, "fusion_lat": 0.0, "lat": 38.915974, "is_disabled": 0, "lon": -77.03660783333333, "is_reserved": 0}, {"bike_id": "29f0b36e7a17f16caeea54c843d0947e", "fusion_lon": 0.0, "type": "electric_scooter", "name": "29f0b36e7a17f16caeea54c843d0947e", "rental_uris": {"android": "https://dc.lft.to/lastmile_qr_scan", "ios": "https://dc.lft.to/lastmile_qr_scan"}, "fusion_lat": 0.0, "lat": 38.90678116666667, "is_disabled": 0, "lon": -77.02720866666667, "is_reserved": 0}, {"bike_id": "1b08e32471f4108b4485509a8b88b1c0", "fusion_lon": 0.0, "type": "electric_scooter", "name": "1b08e32471f4108b4485509a8b88b1c0", "rental_uris": {"android": "https://dc.lft.to/lastmile_qr_scan", "ios": "https://dc.lft.to/lastmile_qr_scan"}, "fusion_lat": 0.0, "lat": 38.905113, "is_disabled": 0, "lon": -77.04351216666667, "is_reserved": 0}, {"bike_id": "c9b7162d510107048d94ba55e1052cf4", "fusion_lon": 0.0, "type": "electric_scooter", "name": "c9b7162d510107048d94ba55e1052cf4", "rental_uris": {"android": "https://dc.lft.to/lastmile_qr_scan", "ios": "https://dc.lft.to/lastmile_qr_scan"}, "fusion_lat": 0.0, "lat": 38.901769, "is_disabled": 0, "lon": -76.98080516666667, "is_reserved": 0}, {"bike_id": "3f9e4b78c00c76ee110bd8856abcc5be", "fusion_lon": 0.0, "type": "electric_scooter", "name": "3f9e4b78c00c76ee110bd8856abcc5be", "rental_uris": {"android": "https://dc.lft.to/lastmile_qr_scan", "ios": "https://dc.lft.to/lastmile_qr_scan"}, "fusion_lat": 0.0, "lat": 38.881148833333334, "is_disabled": 0, "lon": -77.026392, "is_reserved": 0}, {"bike_id": "f78c61d3d694e46e5fec50a6f32d6981", "fusion_lon": 0.0, "type": "electric_scooter", "name": "f78c61d3d694e46e5fec50a6f32d6981", "rental_uris": {"android": "https://dc.lft.to/lastmile_qr_scan", "ios": "https://dc.lft.to/lastmile_qr_scan"}, "fusion_lat": 0.0, "lat": 38.91822616666666, "is_disabled": 0, "lon": -77.03845866666667, "is_reserved": 0}, {"bike_id": "0790bca90dcd3a1670b8eac58f0d621d", "fusion_lon": 0.0, "type": "electric_scooter", "name": "0790bca90dcd3a1670b8eac58f0d621d", "rental_uris": {"android": "https://dc.lft.to/lastmile_qr_scan", "ios": "https://dc.lft.to/lastmile_qr_scan"}, "fusion_lat": 0.0, "lat": 38.90252666666667, "is_disabled": 0, "lon": -77.03949933333334, "is_reserved": 0}, {"bike_id": "5e9a149e7ec854724035cb40d91b82f0", "fusion_lon": 0.0, "type": "electric_scooter", "name": "5e9a149e7ec854724035cb40d91b82f0", "rental_uris": {"android": "https://dc.lft.to/lastmile_qr_scan", "ios": "https://dc.lft.to/lastmile_qr_scan"}, "fusion_lat": 0.0, "lat": 38.9007895, "is_disabled": 0, "lon": -76.9301755, "is_reserved": 0}, {"bike_id": "cbb5cc1fd40aae8ac925d9287c621bd4", "fusion_lon": 0.0, "type": "electric_scooter", "name": "cbb5cc1fd40aae8ac925d9287c621bd4", "rental_uris": {"android": "https://dc.lft.to/lastmile_qr_scan", "ios": "https://dc.lft.to/lastmile_qr_scan"}, "fusion_lat": 0.0, "lat": 38.884338666666665, "is_disabled": 0, "lon": -76.95756283333333, "is_reserved": 0}, {"bike_id": "631814c968e427814d3b9ca509e7e88d", "fusion_lon": 0.0, "type": "electric_scooter", "name": "631814c968e427814d3b9ca509e7e88d", "rental_uris": {"android": "https://dc.lft.to/lastmile_qr_scan", "ios": "https://dc.lft.to/lastmile_qr_scan"}, "fusion_lat": 0.0, "lat": 38.90147533333333, "is_disabled": 0, "lon": -77.03305133333333, "is_reserved": 0}, {"bike_id": "8ce24419e1c5758778ccd9b1156bba2e", "fusion_lon": 0.0, "type": "electric_scooter", "name": "8ce24419e1c5758778ccd9b1156bba2e", "rental_uris": {"android": "https://dc.lft.to/lastmile_qr_scan", "ios": "https://dc.lft.to/lastmile_qr_scan"}, "fusion_lat": 0.0, "lat": 38.926198666666664, "is_disabled": 0, "lon": -77.043273, "is_reserved": 0}, {"bike_id": "733dae745df1441ea31a7aa03b5a463f", "fusion_lon": 0.0, "type": "electric_scooter", "name": "733dae745df1441ea31a7aa03b5a463f", "rental_uris": {"android": "https://dc.lft.to/lastmile_qr_scan", "ios": "https://dc.lft.to/lastmile_qr_scan"}, "fusion_lat": 0.0, "lat": 38.90256183333333, "is_disabled": 0, "lon": -77.01752283333333, "is_reserved": 0}, {"bike_id": "ad36592e7e902a0ef3eb49e1ecd6239a", "fusion_lon": 0.0, "type": "electric_scooter", "name": "ad36592e7e902a0ef3eb49e1ecd6239a", "rental_uris": {"android": "https://dc.lft.to/lastmile_qr_scan", "ios": "https://dc.lft.to/lastmile_qr_scan"}, "fusion_lat": 0.0, "lat": 38.916540499999996, "is_disabled": 0, "lon": -76.98231883333334, "is_reserved": 0}, {"bike_id": "aff3bed5a97574023d325ec8744fe2f6", "fusion_lon": 0.0, "type": "electric_scooter", "name": "aff3bed5a97574023d325ec8744fe2f6", "rental_uris": {"android": "https://dc.lft.to/lastmile_qr_scan", "ios": "https://dc.lft.to/lastmile_qr_scan"}, "fusion_lat": 0.0, "lat": 38.860993, "is_disabled": 0, "lon": -76.98595866666666, "is_reserved": 0}, {"bike_id": "15e57bdf9ab2971443e9e2b4f6ac8d30", "fusion_lon": 0.0, "type": "electric_scooter", "name": "15e57bdf9ab2971443e9e2b4f6ac8d30", "rental_uris": {"android": "https://dc.lft.to/lastmile_qr_scan", "ios": "https://dc.lft.to/lastmile_qr_scan"}, "fusion_lat": 0.0, "lat": 38.87114566666666, "is_disabled": 0, "lon": -77.01073533333333, "is_reserved": 0}, {"bike_id": "ba9e924fa5f0552b255bcb6868addfbd", "fusion_lon": 0.0, "type": "electric_scooter", "name": "ba9e924fa5f0552b255bcb6868addfbd", "rental_uris": {"android": "https://dc.lft.to/lastmile_qr_scan", "ios": "https://dc.lft.to/lastmile_qr_scan"}, "fusion_lat": 0.0, "lat": 38.91924366666667, "is_disabled": 0, "lon": -77.03182433333333, "is_reserved": 0}, {"bike_id": "fef01c5778b119819f8ed049f2855359", "fusion_lon": 0.0, "type": "electric_scooter", "name": "fef01c5778b119819f8ed049f2855359", "rental_uris": {"android": "https://dc.lft.to/lastmile_qr_scan", "ios": "https://dc.lft.to/lastmile_qr_scan"}, "fusion_lat": 0.0, "lat": 38.918161166666664, "is_disabled": 0, "lon": -77.04005216666667, "is_reserved": 0}, {"bike_id": "e2a12bc0f2397a8172ac7141c7e4a77a", "fusion_lon": 0.0, "type": "electric_scooter", "name": "e2a12bc0f2397a8172ac7141c7e4a77a", "rental_uris": {"android": "https://dc.lft.to/lastmile_qr_scan", "ios": "https://dc.lft.to/lastmile_qr_scan"}, "fusion_lat": 0.0, "lat": 38.900309166666666, "is_disabled": 0, "lon": -76.98782783333333, "is_reserved": 0}, {"bike_id": "1315bafc0c304887d3dffa02bd61ac66", "fusion_lon": 0.0, "type": "electric_scooter", "name": "1315bafc0c304887d3dffa02bd61ac66", "rental_uris": {"android": "https://dc.lft.to/lastmile_qr_scan", "ios": "https://dc.lft.to/lastmile_qr_scan"}, "fusion_lat": 0.0, "lat": 38.90021483333334, "is_disabled": 0, "lon": -77.00163366666666, "is_reserved": 0}, {"bike_id": "531abcb136df7f118ba1d6546d11af6f", "fusion_lon": 0.0, "type": "electric_scooter", "name": "531abcb136df7f118ba1d6546d11af6f", "rental_uris": {"android": "https://dc.lft.to/lastmile_qr_scan", "ios": "https://dc.lft.to/lastmile_qr_scan"}, "fusion_lat": 0.0, "lat": 38.904438666666664, "is_disabled": 0, "lon": -76.9755945, "is_reserved": 0}, {"bike_id": "1d59d7d28ee78d83fa8837a72f3f8439", "fusion_lon": 0.0, "type": "electric_bike", "name": "1d59d7d28ee78d83fa8837a72f3f8439", "rental_uris": {"android": "https://dc.lft.to/lastmile_qr_scan", "ios": "https://dc.lft.to/lastmile_qr_scan"}, "fusion_lat": 0.0, "lat": 38.80846433333333, "is_disabled": 0, "lon": -77.083666, "is_reserved": 0}, {"bike_id": "cbb9884e2c931a68e5d975bff71bb7d7", "fusion_lon": 0.0, "type": "electric_scooter", "name": "cbb9884e2c931a68e5d975bff71bb7d7", "rental_uris": {"android": "https://dc.lft.to/lastmile_qr_scan", "ios": "https://dc.lft.to/lastmile_qr_scan"}, "fusion_lat": 0.0, "lat": 38.919317166666666, "is_disabled": 0, "lon": -77.0459405, "is_reserved": 0}, {"bike_id": "8768da2b384396634eee2bed1d61b5c0", "fusion_lon": 0.0, "type": "electric_scooter", "name": "8768da2b384396634eee2bed1d61b5c0", "rental_uris": {"android": "https://dc.lft.to/lastmile_qr_scan", "ios": "https://dc.lft.to/lastmile_qr_scan"}, "fusion_lat": 0.0, "lat": 38.860337, "is_disabled": 0, "lon": -76.98375066666667, "is_reserved": 0}, {"bike_id": "d8d0863c5ce197df01e451d1b077f90d", "fusion_lon": 0.0, "type": "electric_bike", "name": "d8d0863c5ce197df01e451d1b077f90d", "rental_uris": {"android": "https://dc.lft.to/lastmile_qr_scan", "ios": "https://dc.lft.to/lastmile_qr_scan"}, "fusion_lat": 0.0, "lat": 38.91936716666667, "is_disabled": 0, "lon": -76.9750285, "is_reserved": 0}, {"bike_id": "3936f56801f806de82a50d46dac69f01", "fusion_lon": 0.0, "type": "electric_scooter", "name": "3936f56801f806de82a50d46dac69f01", "rental_uris": {"android": "https://dc.lft.to/lastmile_qr_scan", "ios": "https://dc.lft.to/lastmile_qr_scan"}, "fusion_lat": 0.0, "lat": 38.915586, "is_disabled": 0, "lon": -77.038361, "is_reserved": 0}, {"bike_id": "cb6d6b88a434423dcbb05fa18e922a95", "fusion_lon": 0.0, "type": "electric_scooter", "name": "cb6d6b88a434423dcbb05fa18e922a95", "rental_uris": {"android": "https://dc.lft.to/lastmile_qr_scan", "ios": "https://dc.lft.to/lastmile_qr_scan"}, "fusion_lat": 0.0, "lat": 38.923908, "is_disabled": 0, "lon": -77.04086816666667, "is_reserved": 0}, {"bike_id": "9a15560d8a4699415694cc51326a44ec", "fusion_lon": 0.0, "type": "electric_scooter", "name": "9a15560d8a4699415694cc51326a44ec", "rental_uris": {"android": "https://dc.lft.to/lastmile_qr_scan", "ios": "https://dc.lft.to/lastmile_qr_scan"}, "fusion_lat": 0.0, "lat": 38.9463165, "is_disabled": 0, "lon": -77.01841683333333, "is_reserved": 0}, {"bike_id": "4e26f99bfe9a7ce2003e41836cc67826", "fusion_lon": 0.0, "type": "electric_scooter", "name": "4e26f99bfe9a7ce2003e41836cc67826", "rental_uris": {"android": "https://dc.lft.to/lastmile_qr_scan", "ios": "https://dc.lft.to/lastmile_qr_scan"}, "fusion_lat": 0.0, "lat": 38.95846066666667, "is_disabled": 0, "lon": -77.02904883333333, "is_reserved": 0}, {"bike_id": "16da4857af578c4716e03fb8efaaac4e", "fusion_lon": 0.0, "type": "electric_scooter", "name": "16da4857af578c4716e03fb8efaaac4e", "rental_uris": {"android": "https://dc.lft.to/lastmile_qr_scan", "ios": "https://dc.lft.to/lastmile_qr_scan"}, "fusion_lat": 0.0, "lat": 38.89619116666667, "is_disabled": 0, "lon": -76.9993405, "is_reserved": 0}, {"bike_id": "dd29d7fe5e4257258b2b0f80ff348216", "fusion_lon": 0.0, "type": "electric_bike", "name": "dd29d7fe5e4257258b2b0f80ff348216", "rental_uris": {"android": "https://dc.lft.to/lastmile_qr_scan", "ios": "https://dc.lft.to/lastmile_qr_scan"}, "fusion_lat": 0.0, "lat": 38.909743666666664, "is_disabled": 0, "lon": -77.08823833333334, "is_reserved": 0}, {"bike_id": "d32f1348d6dd487701c6264d2dead9d8", "fusion_lon": 0.0, "type": "electric_scooter", "name": "d32f1348d6dd487701c6264d2dead9d8", "rental_uris": {"android": "https://dc.lft.to/lastmile_qr_scan", "ios": "https://dc.lft.to/lastmile_qr_scan"}, "fusion_lat": 0.0, "lat": 38.914938166666666, "is_disabled": 0, "lon": -77.01208466666667, "is_reserved": 0}, {"bike_id": "4d61c5e7b05262fc9db653d4b257e460", "fusion_lon": 0.0, "type": "electric_scooter", "name": "4d61c5e7b05262fc9db653d4b257e460", "rental_uris": {"android": "https://dc.lft.to/lastmile_qr_scan", "ios": "https://dc.lft.to/lastmile_qr_scan"}, "fusion_lat": 0.0, "lat": 38.908789, "is_disabled": 0, "lon": -77.03266683333334, "is_reserved": 0}, {"bike_id": "ea95d34db5712720d18f0ad7ec164ba0", "fusion_lon": 0.0, "type": "electric_scooter", "name": "ea95d34db5712720d18f0ad7ec164ba0", "rental_uris": {"android": "https://dc.lft.to/lastmile_qr_scan", "ios": "https://dc.lft.to/lastmile_qr_scan"}, "fusion_lat": 0.0, "lat": 38.88481916666667, "is_disabled": 0, "lon": -77.02347366666666, "is_reserved": 0}, {"bike_id": "303b05ff595744cd4527f2f739af2c9f", "fusion_lon": 0.0, "type": "electric_scooter", "name": "303b05ff595744cd4527f2f739af2c9f", "rental_uris": {"android": "https://dc.lft.to/lastmile_qr_scan", "ios": "https://dc.lft.to/lastmile_qr_scan"}, "fusion_lat": 0.0, "lat": 38.867081666666664, "is_disabled": 0, "lon": -76.987315, "is_reserved": 0}, {"bike_id": "dad92494db016765c7c5a73d6129c9a6", "fusion_lon": 0.0, "type": "electric_scooter", "name": "dad92494db016765c7c5a73d6129c9a6", "rental_uris": {"android": "https://dc.lft.to/lastmile_qr_scan", "ios": "https://dc.lft.to/lastmile_qr_scan"}, "fusion_lat": 0.0, "lat": 38.90242, "is_disabled": 0, "lon": -77.03292266666666, "is_reserved": 0}, {"bike_id": "c6fc723cc937be9102f113b4940f10df", "fusion_lon": 0.0, "type": "electric_scooter", "name": "c6fc723cc937be9102f113b4940f10df", "rental_uris": {"android": "https://dc.lft.to/lastmile_qr_scan", "ios": "https://dc.lft.to/lastmile_qr_scan"}, "fusion_lat": 0.0, "lat": 38.908584, "is_disabled": 0, "lon": -77.02352766666667, "is_reserved": 0}, {"bike_id": "cf82dd27d63aed1dd771c6413c60983e", "fusion_lon": 0.0, "type": "electric_scooter", "name": "cf82dd27d63aed1dd771c6413c60983e", "rental_uris": {"android": "https://dc.lft.to/lastmile_qr_scan", "ios": "https://dc.lft.to/lastmile_qr_scan"}, "fusion_lat": 0.0, "lat": 38.8586795, "is_disabled": 0, "lon": -76.99032533333333, "is_reserved": 0}, {"bike_id": "ca99c67a43890284f2f2be8d7582d46e", "fusion_lon": 0.0, "type": "electric_scooter", "name": "ca99c67a43890284f2f2be8d7582d46e", "rental_uris": {"android": "https://dc.lft.to/lastmile_qr_scan", "ios": "https://dc.lft.to/lastmile_qr_scan"}, "fusion_lat": 0.0, "lat": 38.887410333333335, "is_disabled": 0, "lon": -77.02403516666666, "is_reserved": 0}, {"bike_id": "b7cabd55840f3ff7c3db0d0a81c0c241", "fusion_lon": 0.0, "type": "electric_scooter", "name": "b7cabd55840f3ff7c3db0d0a81c0c241", "rental_uris": {"android": "https://dc.lft.to/lastmile_qr_scan", "ios": "https://dc.lft.to/lastmile_qr_scan"}, "fusion_lat": 0.0, "lat": 38.92278833333334, "is_disabled": 0, "lon": -77.04390516666666, "is_reserved": 0}, {"bike_id": "81e7fbfb0641a141a0273b35ab0e8235", "fusion_lon": 0.0, "type": "electric_scooter", "name": "81e7fbfb0641a141a0273b35ab0e8235", "rental_uris": {"android": "https://dc.lft.to/lastmile_qr_scan", "ios": "https://dc.lft.to/lastmile_qr_scan"}, "fusion_lat": 0.0, "lat": 38.908128166666664, "is_disabled": 0, "lon": -77.01820783333334, "is_reserved": 0}, {"bike_id": "e6183fda396cc337271e23ffbbee809c", "fusion_lon": 0.0, "type": "electric_bike", "name": "e6183fda396cc337271e23ffbbee809c", "rental_uris": {"android": "https://dc.lft.to/lastmile_qr_scan", "ios": "https://dc.lft.to/lastmile_qr_scan"}, "fusion_lat": 0.0, "lat": 38.937032, "is_disabled": 0, "lon": -77.0298495, "is_reserved": 0}, {"bike_id": "e114d49ba97cbfdbafb7f2550a095427", "fusion_lon": 0.0, "type": "electric_scooter", "name": "e114d49ba97cbfdbafb7f2550a095427", "rental_uris": {"android": "https://dc.lft.to/lastmile_qr_scan", "ios": "https://dc.lft.to/lastmile_qr_scan"}, "fusion_lat": 0.0, "lat": 38.91487216666667, "is_disabled": 0, "lon": -77.03213166666667, "is_reserved": 0}, {"bike_id": "6f53fbf9910dd821a6811027078b5fc1", "fusion_lon": 0.0, "type": "electric_scooter", "name": "6f53fbf9910dd821a6811027078b5fc1", "rental_uris": {"android": "https://dc.lft.to/lastmile_qr_scan", "ios": "https://dc.lft.to/lastmile_qr_scan"}, "fusion_lat": 0.0, "lat": 38.918026166666664, "is_disabled": 0, "lon": -77.03437933333333, "is_reserved": 0}, {"bike_id": "079f8b61fec3b35ae41e03b92e1dccf5", "fusion_lon": 0.0, "type": "electric_scooter", "name": "079f8b61fec3b35ae41e03b92e1dccf5", "rental_uris": {"android": "https://dc.lft.to/lastmile_qr_scan", "ios": "https://dc.lft.to/lastmile_qr_scan"}, "fusion_lat": 0.0, "lat": 38.876489166666666, "is_disabled": 0, "lon": -76.96505616666667, "is_reserved": 0}, {"bike_id": "43899171b3fc183683fbafd361ceeb23", "fusion_lon": 0.0, "type": "electric_bike", "name": "43899171b3fc183683fbafd361ceeb23", "rental_uris": {"android": "https://dc.lft.to/lastmile_qr_scan", "ios": "https://dc.lft.to/lastmile_qr_scan"}, "fusion_lat": 0.0, "lat": 39.0520745, "is_disabled": 0, "lon": -77.10913416666666, "is_reserved": 0}, {"bike_id": "aafd11757063c8f44fa3275ae553ff4e", "fusion_lon": 0.0, "type": "electric_scooter", "name": "aafd11757063c8f44fa3275ae553ff4e", "rental_uris": {"android": "https://dc.lft.to/lastmile_qr_scan", "ios": "https://dc.lft.to/lastmile_qr_scan"}, "fusion_lat": 0.0, "lat": 38.871096, "is_disabled": 0, "lon": -77.01072366666666, "is_reserved": 0}, {"bike_id": "ae36cf18c9013de4151e8458a0954525", "fusion_lon": 0.0, "type": "electric_scooter", "name": "ae36cf18c9013de4151e8458a0954525", "rental_uris": {"android": "https://dc.lft.to/lastmile_qr_scan", "ios": "https://dc.lft.to/lastmile_qr_scan"}, "fusion_lat": 0.0, "lat": 38.90034833333333, "is_disabled": 0, "lon": -77.0321015, "is_reserved": 0}, {"bike_id": "7447db8fd25334f2febdf2c08fca2cb7", "fusion_lon": 0.0, "type": "electric_scooter", "name": "7447db8fd25334f2febdf2c08fca2cb7", "rental_uris": {"android": "https://dc.lft.to/lastmile_qr_scan", "ios": "https://dc.lft.to/lastmile_qr_scan"}, "fusion_lat": 0.0, "lat": 38.918532, "is_disabled": 0, "lon": -76.96556683333333, "is_reserved": 0}, {"bike_id": "767b9c4562cf99be45bbf22e01670880", "fusion_lon": 0.0, "type": "electric_scooter", "name": "767b9c4562cf99be45bbf22e01670880", "rental_uris": {"android": "https://dc.lft.to/lastmile_qr_scan", "ios": "https://dc.lft.to/lastmile_qr_scan"}, "fusion_lat": 0.0, "lat": 38.92558066666667, "is_disabled": 0, "lon": -77.05290983333333, "is_reserved": 0}, {"bike_id": "261ee3d0644109520e22336e6554f830", "fusion_lon": 0.0, "type": "electric_scooter", "name": "261ee3d0644109520e22336e6554f830", "rental_uris": {"android": "https://dc.lft.to/lastmile_qr_scan", "ios": "https://dc.lft.to/lastmile_qr_scan"}, "fusion_lat": 0.0, "lat": 38.90763583333333, "is_disabled": 0, "lon": -77.03222383333333, "is_reserved": 0}, {"bike_id": "f7f64cd4ed9a970de93ff8e223b6dda5", "fusion_lon": 0.0, "type": "electric_bike", "name": "f7f64cd4ed9a970de93ff8e223b6dda5", "rental_uris": {"android": "https://dc.lft.to/lastmile_qr_scan", "ios": "https://dc.lft.to/lastmile_qr_scan"}, "fusion_lat": 0.0, "lat": 38.96352133333333, "is_disabled": 0, "lon": -77.01066766666666, "is_reserved": 0}, {"bike_id": "b0c00874fa781675e636e56855a85096", "fusion_lon": 0.0, "type": "electric_scooter", "name": "b0c00874fa781675e636e56855a85096", "rental_uris": {"android": "https://dc.lft.to/lastmile_qr_scan", "ios": "https://dc.lft.to/lastmile_qr_scan"}, "fusion_lat": 0.0, "lat": 38.92516783333333, "is_disabled": 0, "lon": -77.0235755, "is_reserved": 0}, {"bike_id": "e62d6078cae8a28d6f974a2a88a475d8", "fusion_lon": 0.0, "type": "electric_scooter", "name": "e62d6078cae8a28d6f974a2a88a475d8", "rental_uris": {"android": "https://dc.lft.to/lastmile_qr_scan", "ios": "https://dc.lft.to/lastmile_qr_scan"}, "fusion_lat": 0.0, "lat": 38.927126666666666, "is_disabled": 0, "lon": -77.0405075, "is_reserved": 0}, {"bike_id": "f9c1f590af21f0284f8a3192c6ab6d41", "fusion_lon": 0.0, "type": "electric_scooter", "name": "f9c1f590af21f0284f8a3192c6ab6d41", "rental_uris": {"android": "https://dc.lft.to/lastmile_qr_scan", "ios": "https://dc.lft.to/lastmile_qr_scan"}, "fusion_lat": 0.0, "lat": 38.87647916666667, "is_disabled": 0, "lon": -76.96505666666667, "is_reserved": 0}, {"bike_id": "471441edb9352a116c23418b52b4a1aa", "fusion_lon": 0.0, "type": "electric_bike", "name": "471441edb9352a116c23418b52b4a1aa", "rental_uris": {"android": "https://dc.lft.to/lastmile_qr_scan", "ios": "https://dc.lft.to/lastmile_qr_scan"}, "fusion_lat": 0.0, "lat": 39.10565666666667, "is_disabled": 0, "lon": -77.1526835, "is_reserved": 0}, {"bike_id": "f48a6607876831802f8faf6b5250c261", "fusion_lon": 0.0, "type": "electric_scooter", "name": "f48a6607876831802f8faf6b5250c261", "rental_uris": {"android": "https://dc.lft.to/lastmile_qr_scan", "ios": "https://dc.lft.to/lastmile_qr_scan"}, "fusion_lat": 0.0, "lat": 38.861714, "is_disabled": 0, "lon": -76.983287, "is_reserved": 0}, {"bike_id": "04159a4d569a0a60c6a3bd0d9b1f5ab3", "fusion_lon": 0.0, "type": "electric_scooter", "name": "04159a4d569a0a60c6a3bd0d9b1f5ab3", "rental_uris": {"android": "https://dc.lft.to/lastmile_qr_scan", "ios": "https://dc.lft.to/lastmile_qr_scan"}, "fusion_lat": 0.0, "lat": 38.915553, "is_disabled": 0, "lon": -77.030332, "is_reserved": 0}, {"bike_id": "4925ef64de411c4502a81a2847643b54", "fusion_lon": 0.0, "type": "electric_scooter", "name": "4925ef64de411c4502a81a2847643b54", "rental_uris": {"android": "https://dc.lft.to/lastmile_qr_scan", "ios": "https://dc.lft.to/lastmile_qr_scan"}, "fusion_lat": 0.0, "lat": 38.8843225, "is_disabled": 0, "lon": -76.957587, "is_reserved": 0}, {"bike_id": "2d01a72af2ece0611be597744c76b4b5", "fusion_lon": 0.0, "type": "electric_scooter", "name": "2d01a72af2ece0611be597744c76b4b5", "rental_uris": {"android": "https://dc.lft.to/lastmile_qr_scan", "ios": "https://dc.lft.to/lastmile_qr_scan"}, "fusion_lat": 0.0, "lat": 38.918209, "is_disabled": 0, "lon": -77.0345765, "is_reserved": 0}, {"bike_id": "28c49c2e265a98b5413109b92797d739", "fusion_lon": 0.0, "type": "electric_scooter", "name": "28c49c2e265a98b5413109b92797d739", "rental_uris": {"android": "https://dc.lft.to/lastmile_qr_scan", "ios": "https://dc.lft.to/lastmile_qr_scan"}, "fusion_lat": 0.0, "lat": 38.914201166666665, "is_disabled": 0, "lon": -77.03143483333334, "is_reserved": 0}, {"bike_id": "a564b5efba61a9ede47c93e112c3205a", "fusion_lon": 0.0, "type": "electric_scooter", "name": "a564b5efba61a9ede47c93e112c3205a", "rental_uris": {"android": "https://dc.lft.to/lastmile_qr_scan", "ios": "https://dc.lft.to/lastmile_qr_scan"}, "fusion_lat": 0.0, "lat": 38.95705133333333, "is_disabled": 0, "lon": -77.02408, "is_reserved": 0}, {"bike_id": "13cd50b88f383ac0ca67eef00fe821fc", "fusion_lon": 0.0, "type": "electric_scooter", "name": "13cd50b88f383ac0ca67eef00fe821fc", "rental_uris": {"android": "https://dc.lft.to/lastmile_qr_scan", "ios": "https://dc.lft.to/lastmile_qr_scan"}, "fusion_lat": 0.0, "lat": 38.863550833333335, "is_disabled": 0, "lon": -76.99093433333333, "is_reserved": 0}, {"bike_id": "a99116a31a1b2bfc983e0dfb5ff42bbb", "fusion_lon": 0.0, "type": "electric_scooter", "name": "a99116a31a1b2bfc983e0dfb5ff42bbb", "rental_uris": {"android": "https://dc.lft.to/lastmile_qr_scan", "ios": "https://dc.lft.to/lastmile_qr_scan"}, "fusion_lat": 0.0, "lat": 38.887408666666666, "is_disabled": 0, "lon": -77.02825883333334, "is_reserved": 0}, {"bike_id": "7b8671f9c47c7696834d191cb6a68d0a", "fusion_lon": 0.0, "type": "electric_scooter", "name": "7b8671f9c47c7696834d191cb6a68d0a", "rental_uris": {"android": "https://dc.lft.to/lastmile_qr_scan", "ios": "https://dc.lft.to/lastmile_qr_scan"}, "fusion_lat": 0.0, "lat": 38.939814, "is_disabled": 0, "lon": -77.0270265, "is_reserved": 0}, {"bike_id": "de63fc6297c097206066983641cd22c6", "fusion_lon": 0.0, "type": "electric_bike", "name": "de63fc6297c097206066983641cd22c6", "rental_uris": {"android": "https://dc.lft.to/lastmile_qr_scan", "ios": "https://dc.lft.to/lastmile_qr_scan"}, "fusion_lat": 0.0, "lat": 38.93532416666667, "is_disabled": 0, "lon": -77.05214783333334, "is_reserved": 0}, {"bike_id": "ebb9dc9bb0e4de05b521eea5573f0f64", "fusion_lon": 0.0, "type": "electric_scooter", "name": "ebb9dc9bb0e4de05b521eea5573f0f64", "rental_uris": {"android": "https://dc.lft.to/lastmile_qr_scan", "ios": "https://dc.lft.to/lastmile_qr_scan"}, "fusion_lat": 0.0, "lat": 38.919953666666665, "is_disabled": 0, "lon": -77.07188983333333, "is_reserved": 0}, {"bike_id": "d8698c61703c3b705e911f8db95bcaf9", "fusion_lon": 0.0, "type": "electric_scooter", "name": "d8698c61703c3b705e911f8db95bcaf9", "rental_uris": {"android": "https://dc.lft.to/lastmile_qr_scan", "ios": "https://dc.lft.to/lastmile_qr_scan"}, "fusion_lat": 0.0, "lat": 38.902323, "is_disabled": 0, "lon": -77.020723, "is_reserved": 0}, {"bike_id": "7d7e9bca52c7ac6228843274dd435c8f", "fusion_lon": 0.0, "type": "electric_scooter", "name": "7d7e9bca52c7ac6228843274dd435c8f", "rental_uris": {"android": "https://dc.lft.to/lastmile_qr_scan", "ios": "https://dc.lft.to/lastmile_qr_scan"}, "fusion_lat": 0.0, "lat": 38.9359765, "is_disabled": 0, "lon": -77.03520516666667, "is_reserved": 0}, {"bike_id": "f9e40e741d9e80ada4bc44df8230f378", "fusion_lon": 0.0, "type": "electric_scooter", "name": "f9e40e741d9e80ada4bc44df8230f378", "rental_uris": {"android": "https://dc.lft.to/lastmile_qr_scan", "ios": "https://dc.lft.to/lastmile_qr_scan"}, "fusion_lat": 0.0, "lat": 38.9004165, "is_disabled": 0, "lon": -76.99366533333334, "is_reserved": 0}, {"bike_id": "11a4e8f217338d7150379b4bcc8a1e43", "fusion_lon": 0.0, "type": "electric_scooter", "name": "11a4e8f217338d7150379b4bcc8a1e43", "rental_uris": {"android": "https://dc.lft.to/lastmile_qr_scan", "ios": "https://dc.lft.to/lastmile_qr_scan"}, "fusion_lat": 0.0, "lat": 38.9298865, "is_disabled": 0, "lon": -77.0323215, "is_reserved": 0}, {"bike_id": "b524457595709f27114e44cfc1d68b86", "fusion_lon": 0.0, "type": "electric_scooter", "name": "b524457595709f27114e44cfc1d68b86", "rental_uris": {"android": "https://dc.lft.to/lastmile_qr_scan", "ios": "https://dc.lft.to/lastmile_qr_scan"}, "fusion_lat": 0.0, "lat": 38.85320733333333, "is_disabled": 0, "lon": -76.98006083333334, "is_reserved": 0}, {"bike_id": "32773595ad69144cc9149245a0992651", "fusion_lon": 0.0, "type": "electric_scooter", "name": "32773595ad69144cc9149245a0992651", "rental_uris": {"android": "https://dc.lft.to/lastmile_qr_scan", "ios": "https://dc.lft.to/lastmile_qr_scan"}, "fusion_lat": 0.0, "lat": 38.88350583333333, "is_disabled": 0, "lon": -77.0258295, "is_reserved": 0}, {"bike_id": "ecf18f3a0490790cd856365f7ac41ee7", "fusion_lon": 0.0, "type": "electric_scooter", "name": "ecf18f3a0490790cd856365f7ac41ee7", "rental_uris": {"android": "https://dc.lft.to/lastmile_qr_scan", "ios": "https://dc.lft.to/lastmile_qr_scan"}, "fusion_lat": 0.0, "lat": 38.87911916666667, "is_disabled": 0, "lon": -76.991589, "is_reserved": 0}, {"bike_id": "9c0057d0c47a50096e29648a65984da0", "fusion_lon": 0.0, "type": "electric_scooter", "name": "9c0057d0c47a50096e29648a65984da0", "rental_uris": {"android": "https://dc.lft.to/lastmile_qr_scan", "ios": "https://dc.lft.to/lastmile_qr_scan"}, "fusion_lat": 0.0, "lat": 38.929532, "is_disabled": 0, "lon": -77.03416466666667, "is_reserved": 0}, {"bike_id": "20e7f0a2e581cc0c8250aa52e0dfda9d", "fusion_lon": 0.0, "type": "electric_scooter", "name": "20e7f0a2e581cc0c8250aa52e0dfda9d", "rental_uris": {"android": "https://dc.lft.to/lastmile_qr_scan", "ios": "https://dc.lft.to/lastmile_qr_scan"}, "fusion_lat": 0.0, "lat": 38.916670833333335, "is_disabled": 0, "lon": -77.0192055, "is_reserved": 0}, {"bike_id": "ba6785d721e6e5e1c89ea370aa5d9128", "fusion_lon": 0.0, "type": "electric_scooter", "name": "ba6785d721e6e5e1c89ea370aa5d9128", "rental_uris": {"android": "https://dc.lft.to/lastmile_qr_scan", "ios": "https://dc.lft.to/lastmile_qr_scan"}, "fusion_lat": 0.0, "lat": 38.907236, "is_disabled": 0, "lon": -77.0428965, "is_reserved": 0}, {"bike_id": "790bf0598e8ce324077ff42db1d79b37", "fusion_lon": 0.0, "type": "electric_scooter", "name": "790bf0598e8ce324077ff42db1d79b37", "rental_uris": {"android": "https://dc.lft.to/lastmile_qr_scan", "ios": "https://dc.lft.to/lastmile_qr_scan"}, "fusion_lat": 0.0, "lat": 38.91110666666667, "is_disabled": 0, "lon": -77.0481335, "is_reserved": 0}, {"bike_id": "61b180d07c26e67abd501196e48ade0a", "fusion_lon": 0.0, "type": "electric_scooter", "name": "61b180d07c26e67abd501196e48ade0a", "rental_uris": {"android": "https://dc.lft.to/lastmile_qr_scan", "ios": "https://dc.lft.to/lastmile_qr_scan"}, "fusion_lat": 0.0, "lat": 38.9155485, "is_disabled": 0, "lon": -77.0263245, "is_reserved": 0}, {"bike_id": "c3ff9aeeaa6c34b95e07636cc345c131", "fusion_lon": 0.0, "type": "electric_scooter", "name": "c3ff9aeeaa6c34b95e07636cc345c131", "rental_uris": {"android": "https://dc.lft.to/lastmile_qr_scan", "ios": "https://dc.lft.to/lastmile_qr_scan"}, "fusion_lat": 0.0, "lat": 38.922731166666665, "is_disabled": 0, "lon": -77.0297145, "is_reserved": 0}, {"bike_id": "a75673561887b058ffcbbe9326755811", "fusion_lon": 0.0, "type": "electric_scooter", "name": "a75673561887b058ffcbbe9326755811", "rental_uris": {"android": "https://dc.lft.to/lastmile_qr_scan", "ios": "https://dc.lft.to/lastmile_qr_scan"}, "fusion_lat": 0.0, "lat": 38.91574216666667, "is_disabled": 0, "lon": -77.0467485, "is_reserved": 0}, {"bike_id": "70db18311e987a8d0334cf24f8368fdf", "fusion_lon": 0.0, "type": "electric_scooter", "name": "70db18311e987a8d0334cf24f8368fdf", "rental_uris": {"android": "https://dc.lft.to/lastmile_qr_scan", "ios": "https://dc.lft.to/lastmile_qr_scan"}, "fusion_lat": 0.0, "lat": 38.90565433333333, "is_disabled": 0, "lon": -77.02413766666666, "is_reserved": 0}, {"bike_id": "64eceda555e45de63689b821b5555a28", "fusion_lon": 0.0, "type": "electric_scooter", "name": "64eceda555e45de63689b821b5555a28", "rental_uris": {"android": "https://dc.lft.to/lastmile_qr_scan", "ios": "https://dc.lft.to/lastmile_qr_scan"}, "fusion_lat": 0.0, "lat": 38.88045733333333, "is_disabled": 0, "lon": -77.03065566666666, "is_reserved": 0}, {"bike_id": "ea7aff42da29f37fb9f6d4c0ad34f22d", "fusion_lon": 0.0, "type": "electric_scooter", "name": "ea7aff42da29f37fb9f6d4c0ad34f22d", "rental_uris": {"android": "https://dc.lft.to/lastmile_qr_scan", "ios": "https://dc.lft.to/lastmile_qr_scan"}, "fusion_lat": 0.0, "lat": 38.90962, "is_disabled": 0, "lon": -77.02411866666667, "is_reserved": 0}, {"bike_id": "853a4cc2c442fbbf0d206deced80cc68", "fusion_lon": 0.0, "type": "electric_bike", "name": "853a4cc2c442fbbf0d206deced80cc68", "rental_uris": {"android": "https://dc.lft.to/lastmile_qr_scan", "ios": "https://dc.lft.to/lastmile_qr_scan"}, "fusion_lat": 0.0, "lat": 38.869107166666666, "is_disabled": 0, "lon": -77.13182066666667, "is_reserved": 0}, {"bike_id": "578caa38684520d63ca9a5ebbab7e98a", "fusion_lon": 0.0, "type": "electric_bike", "name": "578caa38684520d63ca9a5ebbab7e98a", "rental_uris": {"android": "https://dc.lft.to/lastmile_qr_scan", "ios": "https://dc.lft.to/lastmile_qr_scan"}, "fusion_lat": 0.0, "lat": 38.99678483333334, "is_disabled": 0, "lon": -77.03809166666667, "is_reserved": 0}, {"bike_id": "20970d37eb92213ac61d9c39c9df468c", "fusion_lon": 0.0, "type": "electric_scooter", "name": "20970d37eb92213ac61d9c39c9df468c", "rental_uris": {"android": "https://dc.lft.to/lastmile_qr_scan", "ios": "https://dc.lft.to/lastmile_qr_scan"}, "fusion_lat": 0.0, "lat": 38.89443083333333, "is_disabled": 0, "lon": -76.94779233333334, "is_reserved": 0}, {"bike_id": "935391a722ca6505856779b0d83d8f3f", "fusion_lon": 0.0, "type": "electric_scooter", "name": "935391a722ca6505856779b0d83d8f3f", "rental_uris": {"android": "https://dc.lft.to/lastmile_qr_scan", "ios": "https://dc.lft.to/lastmile_qr_scan"}, "fusion_lat": 0.0, "lat": 38.8818975, "is_disabled": 0, "lon": -77.00357066666666, "is_reserved": 0}, {"bike_id": "f567b00f313ace84d64f1bd25c78a6cc", "fusion_lon": 0.0, "type": "electric_scooter", "name": "f567b00f313ace84d64f1bd25c78a6cc", "rental_uris": {"android": "https://dc.lft.to/lastmile_qr_scan", "ios": "https://dc.lft.to/lastmile_qr_scan"}, "fusion_lat": 0.0, "lat": 38.875314333333336, "is_disabled": 0, "lon": -77.00063016666667, "is_reserved": 0}, {"bike_id": "659f6a89bedf4aa01b82474583d72c29", "fusion_lon": 0.0, "type": "electric_scooter", "name": "659f6a89bedf4aa01b82474583d72c29", "rental_uris": {"android": "https://dc.lft.to/lastmile_qr_scan", "ios": "https://dc.lft.to/lastmile_qr_scan"}, "fusion_lat": 0.0, "lat": 38.8842035, "is_disabled": 0, "lon": -76.995441, "is_reserved": 0}, {"bike_id": "e8e309637e3290e2b48a711f7f3219f8", "fusion_lon": 0.0, "type": "electric_scooter", "name": "e8e309637e3290e2b48a711f7f3219f8", "rental_uris": {"android": "https://dc.lft.to/lastmile_qr_scan", "ios": "https://dc.lft.to/lastmile_qr_scan"}, "fusion_lat": 0.0, "lat": 38.92677, "is_disabled": 0, "lon": -77.007537, "is_reserved": 0}, {"bike_id": "f4a8729d95778b0d2f72c475ddde9f05", "fusion_lon": 0.0, "type": "electric_scooter", "name": "f4a8729d95778b0d2f72c475ddde9f05", "rental_uris": {"android": "https://dc.lft.to/lastmile_qr_scan", "ios": "https://dc.lft.to/lastmile_qr_scan"}, "fusion_lat": 0.0, "lat": 38.909720166666666, "is_disabled": 0, "lon": -77.04045, "is_reserved": 0}, {"bike_id": "25fba74c599e3a28c25a42fa75aed34d", "fusion_lon": 0.0, "type": "electric_scooter", "name": "25fba74c599e3a28c25a42fa75aed34d", "rental_uris": {"android": "https://dc.lft.to/lastmile_qr_scan", "ios": "https://dc.lft.to/lastmile_qr_scan"}, "fusion_lat": 0.0, "lat": 38.90034833333333, "is_disabled": 0, "lon": -76.99623983333333, "is_reserved": 0}, {"bike_id": "314a09714ed3e939e7950ada0ab79eea", "fusion_lon": 0.0, "type": "electric_scooter", "name": "314a09714ed3e939e7950ada0ab79eea", "rental_uris": {"android": "https://dc.lft.to/lastmile_qr_scan", "ios": "https://dc.lft.to/lastmile_qr_scan"}, "fusion_lat": 0.0, "lat": 38.92891633333333, "is_disabled": 0, "lon": -77.005275, "is_reserved": 0}, {"bike_id": "a5d500f012e2a6590dc6f2c9947c7d55", "fusion_lon": 0.0, "type": "electric_scooter", "name": "a5d500f012e2a6590dc6f2c9947c7d55", "rental_uris": {"android": "https://dc.lft.to/lastmile_qr_scan", "ios": "https://dc.lft.to/lastmile_qr_scan"}, "fusion_lat": 0.0, "lat": 38.86443633333333, "is_disabled": 0, "lon": -76.9899955, "is_reserved": 0}, {"bike_id": "ca5e67c8d7d61b288d9af6d881c9b65a", "fusion_lon": 0.0, "type": "electric_scooter", "name": "ca5e67c8d7d61b288d9af6d881c9b65a", "rental_uris": {"android": "https://dc.lft.to/lastmile_qr_scan", "ios": "https://dc.lft.to/lastmile_qr_scan"}, "fusion_lat": 0.0, "lat": 38.93587566666667, "is_disabled": 0, "lon": -77.0193805, "is_reserved": 0}, {"bike_id": "5eb6a069ace50c539de5b36e21010f4c", "fusion_lon": 0.0, "type": "electric_scooter", "name": "5eb6a069ace50c539de5b36e21010f4c", "rental_uris": {"android": "https://dc.lft.to/lastmile_qr_scan", "ios": "https://dc.lft.to/lastmile_qr_scan"}, "fusion_lat": 0.0, "lat": 38.8995895, "is_disabled": 0, "lon": -76.98566133333334, "is_reserved": 0}, {"bike_id": "56f14d2d2d8e87ea8c42ba88c5c0f5c8", "fusion_lon": 0.0, "type": "electric_scooter", "name": "56f14d2d2d8e87ea8c42ba88c5c0f5c8", "rental_uris": {"android": "https://dc.lft.to/lastmile_qr_scan", "ios": "https://dc.lft.to/lastmile_qr_scan"}, "fusion_lat": 0.0, "lat": 38.962074666666666, "is_disabled": 0, "lon": -77.02341383333334, "is_reserved": 0}, {"bike_id": "1ab3987ccb40e4ea2f22e419e905ea8b", "fusion_lon": 0.0, "type": "electric_scooter", "name": "1ab3987ccb40e4ea2f22e419e905ea8b", "rental_uris": {"android": "https://dc.lft.to/lastmile_qr_scan", "ios": "https://dc.lft.to/lastmile_qr_scan"}, "fusion_lat": 0.0, "lat": 38.93370933333333, "is_disabled": 0, "lon": -77.05732366666666, "is_reserved": 0}, {"bike_id": "51cfbd518f6819c98dd569e7d1102f28", "fusion_lon": 0.0, "type": "electric_scooter", "name": "51cfbd518f6819c98dd569e7d1102f28", "rental_uris": {"android": "https://dc.lft.to/lastmile_qr_scan", "ios": "https://dc.lft.to/lastmile_qr_scan"}, "fusion_lat": 0.0, "lat": 38.9361385, "is_disabled": 0, "lon": -77.03659933333333, "is_reserved": 0}, {"bike_id": "f83e473f5579d0659a1871f4ae9d9f75", "fusion_lon": 0.0, "type": "electric_scooter", "name": "f83e473f5579d0659a1871f4ae9d9f75", "rental_uris": {"android": "https://dc.lft.to/lastmile_qr_scan", "ios": "https://dc.lft.to/lastmile_qr_scan"}, "fusion_lat": 0.0, "lat": 38.92000083333333, "is_disabled": 0, "lon": -77.039673, "is_reserved": 0}, {"bike_id": "e32975fa2303304fbdd9ac4676efd22e", "fusion_lon": 0.0, "type": "electric_scooter", "name": "e32975fa2303304fbdd9ac4676efd22e", "rental_uris": {"android": "https://dc.lft.to/lastmile_qr_scan", "ios": "https://dc.lft.to/lastmile_qr_scan"}, "fusion_lat": 0.0, "lat": 38.90201066666667, "is_disabled": 0, "lon": -77.02373116666666, "is_reserved": 0}, {"bike_id": "866a46629f9ff931f14dada7d525a418", "fusion_lon": 0.0, "type": "electric_scooter", "name": "866a46629f9ff931f14dada7d525a418", "rental_uris": {"android": "https://dc.lft.to/lastmile_qr_scan", "ios": "https://dc.lft.to/lastmile_qr_scan"}, "fusion_lat": 0.0, "lat": 38.90820516666667, "is_disabled": 0, "lon": -77.03947933333333, "is_reserved": 0}, {"bike_id": "3d069ff658a00fa76f0daa64f7d0d008", "fusion_lon": 0.0, "type": "electric_scooter", "name": "3d069ff658a00fa76f0daa64f7d0d008", "rental_uris": {"android": "https://dc.lft.to/lastmile_qr_scan", "ios": "https://dc.lft.to/lastmile_qr_scan"}, "fusion_lat": 0.0, "lat": 38.89870883333333, "is_disabled": 0, "lon": -76.94663283333334, "is_reserved": 0}, {"bike_id": "eca65fd00e53bb8c903e48f45ab48db2", "fusion_lon": 0.0, "type": "electric_scooter", "name": "eca65fd00e53bb8c903e48f45ab48db2", "rental_uris": {"android": "https://dc.lft.to/lastmile_qr_scan", "ios": "https://dc.lft.to/lastmile_qr_scan"}, "fusion_lat": 0.0, "lat": 38.930799666666665, "is_disabled": 0, "lon": -77.02791683333334, "is_reserved": 0}, {"bike_id": "23a553e817fbccb5f50bb783f3a5048a", "fusion_lon": 0.0, "type": "electric_scooter", "name": "23a553e817fbccb5f50bb783f3a5048a", "rental_uris": {"android": "https://dc.lft.to/lastmile_qr_scan", "ios": "https://dc.lft.to/lastmile_qr_scan"}, "fusion_lat": 0.0, "lat": 38.92130366666667, "is_disabled": 0, "lon": -77.0468655, "is_reserved": 0}, {"bike_id": "e4e00df9a97f0f3af0dd03997cffe840", "fusion_lon": 0.0, "type": "electric_scooter", "name": "e4e00df9a97f0f3af0dd03997cffe840", "rental_uris": {"android": "https://dc.lft.to/lastmile_qr_scan", "ios": "https://dc.lft.to/lastmile_qr_scan"}, "fusion_lat": 0.0, "lat": 38.914303333333336, "is_disabled": 0, "lon": -77.0020055, "is_reserved": 0}, {"bike_id": "326fc6e7bd36299994c989b15865fb2b", "fusion_lon": 0.0, "type": "electric_scooter", "name": "326fc6e7bd36299994c989b15865fb2b", "rental_uris": {"android": "https://dc.lft.to/lastmile_qr_scan", "ios": "https://dc.lft.to/lastmile_qr_scan"}, "fusion_lat": 0.0, "lat": 38.912527, "is_disabled": 0, "lon": -77.04734216666667, "is_reserved": 0}, {"bike_id": "d458b4c8db0180b8d058fbe31157f04d", "fusion_lon": 0.0, "type": "electric_scooter", "name": "d458b4c8db0180b8d058fbe31157f04d", "rental_uris": {"android": "https://dc.lft.to/lastmile_qr_scan", "ios": "https://dc.lft.to/lastmile_qr_scan"}, "fusion_lat": 0.0, "lat": 38.92247016666666, "is_disabled": 0, "lon": -77.09964933333333, "is_reserved": 0}, {"bike_id": "f4a5c911fb183db94778fe9bd3447956", "fusion_lon": 0.0, "type": "electric_scooter", "name": "f4a5c911fb183db94778fe9bd3447956", "rental_uris": {"android": "https://dc.lft.to/lastmile_qr_scan", "ios": "https://dc.lft.to/lastmile_qr_scan"}, "fusion_lat": 0.0, "lat": 38.921222666666665, "is_disabled": 0, "lon": -77.03660283333333, "is_reserved": 0}, {"bike_id": "26919f7d33a0fae23360d83508864887", "fusion_lon": 0.0, "type": "electric_scooter", "name": "26919f7d33a0fae23360d83508864887", "rental_uris": {"android": "https://dc.lft.to/lastmile_qr_scan", "ios": "https://dc.lft.to/lastmile_qr_scan"}, "fusion_lat": 0.0, "lat": 38.92230433333334, "is_disabled": 0, "lon": -77.0464, "is_reserved": 0}, {"bike_id": "1ffc6896e6542d7c844033eb48c2253f", "fusion_lon": 0.0, "type": "electric_scooter", "name": "1ffc6896e6542d7c844033eb48c2253f", "rental_uris": {"android": "https://dc.lft.to/lastmile_qr_scan", "ios": "https://dc.lft.to/lastmile_qr_scan"}, "fusion_lat": 0.0, "lat": 38.8874625, "is_disabled": 0, "lon": -77.01601883333333, "is_reserved": 0}, {"bike_id": "3e74d7dd2acc1ccf616edc05601fcc21", "fusion_lon": 0.0, "type": "electric_scooter", "name": "3e74d7dd2acc1ccf616edc05601fcc21", "rental_uris": {"android": "https://dc.lft.to/lastmile_qr_scan", "ios": "https://dc.lft.to/lastmile_qr_scan"}, "fusion_lat": 0.0, "lat": 38.91268, "is_disabled": 0, "lon": -77.02233183333334, "is_reserved": 0}, {"bike_id": "ee78b330bf7bc1eb9bb0641975e1074f", "fusion_lon": 0.0, "type": "electric_scooter", "name": "ee78b330bf7bc1eb9bb0641975e1074f", "rental_uris": {"android": "https://dc.lft.to/lastmile_qr_scan", "ios": "https://dc.lft.to/lastmile_qr_scan"}, "fusion_lat": 0.0, "lat": 38.9267925, "is_disabled": 0, "lon": -77.07834683333333, "is_reserved": 0}, {"bike_id": "e5565b97225f4917b32983dcdbeb1470", "fusion_lon": 0.0, "type": "electric_scooter", "name": "e5565b97225f4917b32983dcdbeb1470", "rental_uris": {"android": "https://dc.lft.to/lastmile_qr_scan", "ios": "https://dc.lft.to/lastmile_qr_scan"}, "fusion_lat": 0.0, "lat": 38.88734566666667, "is_disabled": 0, "lon": -77.0226625, "is_reserved": 0}, {"bike_id": "e28f128d924b1565ab56084b85d5c7ab", "fusion_lon": 0.0, "type": "electric_scooter", "name": "e28f128d924b1565ab56084b85d5c7ab", "rental_uris": {"android": "https://dc.lft.to/lastmile_qr_scan", "ios": "https://dc.lft.to/lastmile_qr_scan"}, "fusion_lat": 0.0, "lat": 38.886213, "is_disabled": 0, "lon": -77.02181316666666, "is_reserved": 0}, {"bike_id": "98cf94bb2ac8ab9f8fdebf9b58a5150b", "fusion_lon": 0.0, "type": "electric_bike", "name": "98cf94bb2ac8ab9f8fdebf9b58a5150b", "rental_uris": {"android": "https://dc.lft.to/lastmile_qr_scan", "ios": "https://dc.lft.to/lastmile_qr_scan"}, "fusion_lat": 0.0, "lat": 38.94206666666667, "is_disabled": 0, "lon": -76.966283, "is_reserved": 0}, {"bike_id": "314501b597342cc02833496ac4033caa", "fusion_lon": 0.0, "type": "electric_scooter", "name": "314501b597342cc02833496ac4033caa", "rental_uris": {"android": "https://dc.lft.to/lastmile_qr_scan", "ios": "https://dc.lft.to/lastmile_qr_scan"}, "fusion_lat": 0.0, "lat": 38.900164833333335, "is_disabled": 0, "lon": -76.98698949999999, "is_reserved": 0}, {"bike_id": "266994785d3f77c547092ce40a7c5e12", "fusion_lon": 0.0, "type": "electric_scooter", "name": "266994785d3f77c547092ce40a7c5e12", "rental_uris": {"android": "https://dc.lft.to/lastmile_qr_scan", "ios": "https://dc.lft.to/lastmile_qr_scan"}, "fusion_lat": 0.0, "lat": 38.9386225, "is_disabled": 0, "lon": -77.0265055, "is_reserved": 0}, {"bike_id": "d0508ec2944acc013558d7957d1979d1", "fusion_lon": 0.0, "type": "electric_scooter", "name": "d0508ec2944acc013558d7957d1979d1", "rental_uris": {"android": "https://dc.lft.to/lastmile_qr_scan", "ios": "https://dc.lft.to/lastmile_qr_scan"}, "fusion_lat": 0.0, "lat": 38.899988666666665, "is_disabled": 0, "lon": -77.0457845, "is_reserved": 0}, {"bike_id": "a53e4777c9f51ded744cbca859b861be", "fusion_lon": 0.0, "type": "electric_scooter", "name": "a53e4777c9f51ded744cbca859b861be", "rental_uris": {"android": "https://dc.lft.to/lastmile_qr_scan", "ios": "https://dc.lft.to/lastmile_qr_scan"}, "fusion_lat": 0.0, "lat": 38.9171245, "is_disabled": 0, "lon": -77.04034383333334, "is_reserved": 0}, {"bike_id": "1c3f9aa4e85e444fb274e5490d1fb806", "fusion_lon": 0.0, "type": "electric_scooter", "name": "1c3f9aa4e85e444fb274e5490d1fb806", "rental_uris": {"android": "https://dc.lft.to/lastmile_qr_scan", "ios": "https://dc.lft.to/lastmile_qr_scan"}, "fusion_lat": 0.0, "lat": 38.931353333333334, "is_disabled": 0, "lon": -77.078507, "is_reserved": 0}, {"bike_id": "1625e7788b6c1706007fda72d0643461", "fusion_lon": 0.0, "type": "electric_bike", "name": "1625e7788b6c1706007fda72d0643461", "rental_uris": {"android": "https://dc.lft.to/lastmile_qr_scan", "ios": "https://dc.lft.to/lastmile_qr_scan"}, "fusion_lat": 0.0, "lat": 38.953286, "is_disabled": 0, "lon": -76.95439583333334, "is_reserved": 0}, {"bike_id": "6a45b850cf6da57ba638d1f9bbe5f016", "fusion_lon": 0.0, "type": "electric_scooter", "name": "6a45b850cf6da57ba638d1f9bbe5f016", "rental_uris": {"android": "https://dc.lft.to/lastmile_qr_scan", "ios": "https://dc.lft.to/lastmile_qr_scan"}, "fusion_lat": 0.0, "lat": 38.899850666666666, "is_disabled": 0, "lon": -76.99264666666667, "is_reserved": 0}, {"bike_id": "b0d13688b384ac49a379227b96454b22", "fusion_lon": 0.0, "type": "electric_scooter", "name": "b0d13688b384ac49a379227b96454b22", "rental_uris": {"android": "https://dc.lft.to/lastmile_qr_scan", "ios": "https://dc.lft.to/lastmile_qr_scan"}, "fusion_lat": 0.0, "lat": 38.9289885, "is_disabled": 0, "lon": -77.03745316666667, "is_reserved": 0},