{"data": {"bikes": [{"lon": -76.97099883333334, "is_disabled": 0, "lat": 38.8706125, "fusion_lat": 0.0, "is_reserved": 0, "rental_uris": {"ios": "https://dc.lft.to/lastmile_qr_scan", "android": "https://dc.lft.to/lastmile_qr_scan"}, "fusion_lon": 0.0, "type": "electric_scooter", "bike_id": "492a5ed355dbc8fb817d46de866d2a8c", "name": "492a5ed355dbc8fb817d46de866d2a8c"}, {"lon": -77.02230833333333, "is_disabled": 0, "lat": 38.91558, "fusion_lat": 0.0, "is_reserved": 0, "rental_uris": {"ios": "https://dc.lft.to/lastmile_qr_scan", "android": "https://dc.lft.to/lastmile_qr_scan"}, "fusion_lon": 0.0, "type": "electric_scooter", "bike_id": "cd1758027a6bf4f983e46a923abe9df9", "name": "cd1758027a6bf4f983e46a923abe9df9"}, {"lon": -77.03156783333333, "is_disabled": 0, "lat": 38.964413, "fusion_lat": 0.0, "is_reserved": 0, "rental_uris": {"ios": "https://dc.lft.to/lastmile_qr_scan", "android": "https://dc.lft.to/lastmile_qr_scan"}, "fusion_lon": 0.0, "type": "electric_bike", "bike_id": "bd060017117e73d44d5ef64aeab1ceb4", "name": "bd060017117e73d44d5ef64aeab1ceb4"}, {"lon": -77.02227733333334, "is_disabled": 0, "lat": 38.93475733333333, "fusion_lat": 0.0, "is_reserved": 0, "rental_uris": {"ios": "https://dc.lft.to/lastmile_qr_scan", "android": "https://dc.lft.to/lastmile_qr_scan"}, "fusion_lon": 0.0, "type": "electric_scooter", "bike_id": "fb59dd3b81e89823d5c7538f5640f764", "name": "fb59dd3b81e89823d5c7538f5640f764"}, {"lon": -76.94639016666666, "is_disabled": 0, "lat": 38.898659333333335, "fusion_lat": 0.0, "is_reserved": 0, "rental_uris": {"ios": "https://dc.lft.to/lastmile_qr_scan", "android": "https://dc.lft.to/lastmile_qr_scan"}, "fusion_lon": 0.0, "type": "electric_scooter", "bike_id": "8b52658f7d4efa25d96ff74adb24498b", "name": "8b52658f7d4efa25d96ff74adb24498b"}, {"lon": -76.9525325, "is_disabled": 0, "lat": 38.9069445, "fusion_lat": 0.0, "is_reserved": 0, "rental_uris": {"ios": "https://dc.lft.to/lastmile_qr_scan", "android": "https://dc.lft.to/lastmile_qr_scan"}, "fusion_lon": 0.0, "type": "electric_bike", "bike_id": "35e09c86d4b1e2c14128daacf19a57f1", "name": "35e09c86d4b1e2c14128daacf19a57f1"}, {"lon": -77.03284466666666, "is_disabled": 0, "lat": 38.922462333333335, "fusion_lat": 0.0, "is_reserved": 0, "rental_uris": {"ios": "https://dc.lft.to/lastmile_qr_scan", "android": "https://dc.lft.to/lastmile_qr_scan"}, "fusion_lon": 0.0, "type": "electric_scooter", "bike_id": "7d89cdaba88cdf2565a2964efe56c0d4", "name": "7d89cdaba88cdf2565a2964efe56c0d4"}, {"lon": -77.0258605, "is_disabled": 0, "lat": 38.942098333333334, "fusion_lat": 0.0, "is_reserved": 0, "rental_uris": {"ios": "https://dc.lft.to/lastmile_qr_scan", "android": "https://dc.lft.to/lastmile_qr_scan"}, "fusion_lon": 0.0, "type": "electric_scooter", "bike_id": "3a14470928a1fadae96ab7ae03d661f5", "name": "3a14470928a1fadae96ab7ae03d661f5"}, {"lon": -77.20139283333333, "is_disabled": 0, "lat": 38.92215366666667, "fusion_lat": 0.0, "is_reserved": 0, "rental_uris": {"ios": "https://dc.lft.to/lastmile_qr_scan", "android": "https://dc.lft.to/lastmile_qr_scan"}, "fusion_lon": 0.0, "type": "electric_bike", "bike_id": "634b29277abf36ec1216e64600419f4a", "name": "634b29277abf36ec1216e64600419f4a"}, {"lon": -77.09143133333333, "is_disabled": 0, "lat": 38.86150333333333, "fusion_lat": 0.0, "is_reserved": 0, "rental_uris": {"ios": "https://dc.lft.to/lastmile_qr_scan", "android": "https://dc.lft.to/lastmile_qr_scan"}, "fusion_lon": 0.0, "type": "electric_bike", "bike_id": "68d1d7e6dfbe8ef4eb51751f988681bc", "name": "68d1d7e6dfbe8ef4eb51751f988681bc"}, {"lon": -77.04671883333333, "is_disabled": 0, "lat": 38.89324366666666, "fusion_lat": 0.0, "is_reserved": 0, "rental_uris": {"ios": "https://dc.lft.to/lastmile_qr_scan", "android": "https://dc.lft.to/lastmile_qr_scan"}, "fusion_lon": 0.0, "type": "electric_scooter", "bike_id": "d7715003cad756dfa29f85e177fe4dad", "name": "d7715003cad756dfa29f85e177fe4dad"}, {"lon": -77.04743466666666, "is_disabled": 0, "lat": 38.918693166666664, "fusion_lat": 0.0, "is_reserved": 0, "rental_uris": {"ios": "https://dc.lft.to/lastmile_qr_scan", "android": "https://dc.lft.to/lastmile_qr_scan"}, "fusion_lon": 0.0, "type": "electric_scooter", "bike_id": "ba071c4783e52d8e19df1bd17b446a77", "name": "ba071c4783e52d8e19df1bd17b446a77"}, {"lon": -77.05744516666667, "is_disabled": 0, "lat": 38.933891333333335, "fusion_lat": 0.0, "is_reserved": 0, "rental_uris": {"ios": "https://dc.lft.to/lastmile_qr_scan", "android": "https://dc.lft.to/lastmile_qr_scan"}, "fusion_lon": 0.0, "type": "electric_scooter", "bike_id": "154553ee0539ca4f6493d0030ff3a073", "name": "154553ee0539ca4f6493d0030ff3a073"}, {"lon": -77.02405666666667, "is_disabled": 0, "lat": 38.91759033333334, "fusion_lat": 0.0, "is_reserved": 0, "rental_uris": {"ios": "https://dc.lft.to/lastmile_qr_scan", "android": "https://dc.lft.to/lastmile_qr_scan"}, "fusion_lon": 0.0, "type": "electric_scooter", "bike_id": "332c37dfd76b842adf2cdc24154cfaf0", "name": "332c37dfd76b842adf2cdc24154cfaf0"}, {"lon": -77.02436283333333, "is_disabled": 0, "lat": 38.9189545, "fusion_lat": 0.0, "is_reserved": 0, "rental_uris": {"ios": "https://dc.lft.to/lastmile_qr_scan", "android": "https://dc.lft.to/lastmile_qr_scan"}, "fusion_lon": 0.0, "type": "electric_scooter", "bike_id": "cc3b3fe411b212c20b2ed4a96b81bbe2", "name": "cc3b3fe411b212c20b2ed4a96b81bbe2"}, {"lon": -77.05730416666667, "is_disabled": 0, "lat": 38.93364233333333, "fusion_lat": 0.0, "is_reserved": 0, "rental_uris": {"ios": "https://dc.lft.to/lastmile_qr_scan", "android": "https://dc.lft.to/lastmile_qr_scan"}, "fusion_lon": 0.0, "type": "electric_scooter", "bike_id": "2d5eb6affb1798bb6173cc21e13dce6c", "name": "2d5eb6affb1798bb6173cc21e13dce6c"}, {"lon": -77.03522716666667, "is_disabled": 0, "lat": 38.9225465, "fusion_lat": 0.0, "is_reserved": 0, "rental_uris": {"ios": "https://dc.lft.to/lastmile_qr_scan", "android": "https://dc.lft.to/lastmile_qr_scan"}, "fusion_lon": 0.0, "type": "electric_scooter", "bike_id": "d699e5c36bdae1a381dc7b80a74b957b", "name": "d699e5c36bdae1a381dc7b80a74b957b"}, {"lon": -77.0020735, "is_disabled": 0, "lat": 38.96555816666667, "fusion_lat": 0.0, "is_reserved": 0, "rental_uris": {"ios": "https://dc.lft.to/lastmile_qr_scan", "android": "https://dc.lft.to/lastmile_qr_scan"}, "fusion_lon": 0.0, "type": "electric_scooter", "bike_id": "cfa977d183afbdbe9f6521555834d787", "name": "cfa977d183afbdbe9f6521555834d787"}, {"lon": -77.04263266666666, "is_disabled": 0, "lat": 38.910374833333336, "fusion_lat": 0.0, "is_reserved": 0, "rental_uris": {"ios": "https://dc.lft.to/lastmile_qr_scan", "android": "https://dc.lft.to/lastmile_qr_scan"}, "fusion_lon": 0.0, "type": "electric_scooter", "bike_id": "0bbc990229acea8833b328ebd190ca91", "name": "0bbc990229acea8833b328ebd190ca91"}, {"lon": -77.01945516666666, "is_disabled": 0, "lat": 38.92423, "fusion_lat": 0.0, "is_reserved": 0, "rental_uris": {"ios": "https://dc.lft.to/lastmile_qr_scan", "android": "https://dc.lft.to/lastmile_qr_scan"}, "fusion_lon": 0.0, "type": "electric_scooter", "bike_id": "61ddf84c81ce475274ecbfd6d8a68702", "name": "61ddf84c81ce475274ecbfd6d8a68702"}, {"lon": -77.0273545, "is_disabled": 0, "lat": 38.933484666666665, "fusion_lat": 0.0, "is_reserved": 0, "rental_uris": {"ios": "https://dc.lft.to/lastmile_qr_scan", "android": "https://dc.lft.to/lastmile_qr_scan"}, "fusion_lon": 0.0, "type": "electric_scooter", "bike_id": "01f45a4d973bd6682433c6a4c9b916be", "name": "01f45a4d973bd6682433c6a4c9b916be"}, {"lon": -77.038914, "is_disabled": 0, "lat": 38.923278, "fusion_lat": 0.0, "is_reserved": 0, "rental_uris": {"ios": "https://dc.lft.to/lastmile_qr_scan", "android": "https://dc.lft.to/lastmile_qr_scan"}, "fusion_lon": 0.0, "type": "electric_scooter", "bike_id": "596332a9465cec141cecaf02df8c35bd", "name": "596332a9465cec141cecaf02df8c35bd"}, {"lon": -77.02707466666666, "is_disabled": 0, "lat": 38.91958116666667, "fusion_lat": 0.0, "is_reserved": 0, "rental_uris": {"ios": "https://dc.lft.to/lastmile_qr_scan", "android": "https://dc.lft.to/lastmile_qr_scan"}, "fusion_lon": 0.0, "type": "electric_scooter", "bike_id": "b9eb4ce2decad2d17126b8f2877bdb63", "name": "b9eb4ce2decad2d17126b8f2877bdb63"}, {"lon": -77.0644745, "is_disabled": 0, "lat": 38.946069, "fusion_lat": 0.0, "is_reserved": 0, "rental_uris": {"ios": "https://dc.lft.to/lastmile_qr_scan", "android": "https://dc.lft.to/lastmile_qr_scan"}, "fusion_lon": 0.0, "type": "electric_scooter", "bike_id": "0026d672ba28762cbd5082bbab7288cf", "name": "0026d672ba28762cbd5082bbab7288cf"}, {"lon": -77.0020145, "is_disabled": 0, "lat": 38.915975, "fusion_lat": 0.0, "is_reserved": 0, "rental_uris": {"ios": "https://dc.lft.to/lastmile_qr_scan", "android": "https://dc.lft.to/lastmile_qr_scan"}, "fusion_lon": 0.0, "type": "electric_scooter", "bike_id": "70ed944fa6d5f98b45a05130a5a6dc64", "name": "70ed944fa6d5f98b45a05130a5a6dc64"}, {"lon": -77.04815916666666, "is_disabled": 0, "lat": 38.902274, "fusion_lat": 0.0, "is_reserved": 0, "rental_uris": {"ios": "https://dc.lft.to/lastmile_qr_scan", "android": "https://dc.lft.to/lastmile_qr_scan"}, "fusion_lon": 0.0, "type": "electric_scooter", "bike_id": "3a5aaadd8f838ccbe27c6034f4bd9fc9", "name": "3a5aaadd8f838ccbe27c6034f4bd9fc9"}, {"lon": -77.0253295, "is_disabled": 0, "lat": 38.941150666666665, "fusion_lat": 0.0, "is_reserved": 0, "rental_uris": {"ios": "https://dc.lft.to/lastmile_qr_scan", "android": "https://dc.lft.to/lastmile_qr_scan"}, "fusion_lon": 0.0, "type": "electric_scooter", "bike_id": "0086dbcf6ac0ef9020e1319b51330560", "name": "0086dbcf6ac0ef9020e1319b51330560"}, {"lon": -77.01842383333333, "is_disabled": 0, "lat": 38.946290166666664, "fusion_lat": 0.0, "is_reserved": 0, "rental_uris": {"ios": "https://dc.lft.to/lastmile_qr_scan", "android": "https://dc.lft.to/lastmile_qr_scan"}, "fusion_lon": 0.0, "type": "electric_scooter", "bike_id": "6fbeb5fb47a166c14bd41f7dac90115e", "name": "6fbeb5fb47a166c14bd41f7dac90115e"}, {"lon": -77.0269625, "is_disabled": 0, "lat": 38.89440416666667, "fusion_lat": 0.0, "is_reserved": 0, "rental_uris": {"ios": "https://dc.lft.to/lastmile_qr_scan", "android": "https://dc.lft.to/lastmile_qr_scan"}, "fusion_lon": 0.0, "type": "electric_scooter", "bike_id": "1b4e4fad6f72d7d54537a517f5886653", "name": "1b4e4fad6f72d7d54537a517f5886653"}, {"lon": -77.0221165, "is_disabled": 0, "lat": 38.91268933333333, "fusion_lat": 0.0, "is_reserved": 0, "rental_uris": {"ios": "https://dc.lft.to/lastmile_qr_scan", "android": "https://dc.lft.to/lastmile_qr_scan"}, "fusion_lon": 0.0, "type": "electric_scooter", "bike_id": "5c1b32dde2bb42ce6216c4b6411909c4", "name": "5c1b32dde2bb42ce6216c4b6411909c4"}, {"lon": -77.05085216666667, "is_disabled": 0, "lat": 38.92340883333333, "fusion_lat": 0.0, "is_reserved": 0, "rental_uris": {"ios": "https://dc.lft.to/lastmile_qr_scan", "android": "https://dc.lft.to/lastmile_qr_scan"}, "fusion_lon": 0.0, "type": "electric_scooter", "bike_id": "7533af0dc950807f14053aee2cc1d52b", "name": "7533af0dc950807f14053aee2cc1d52b"}, {"lon": -77.00340983333334, "is_disabled": 0, "lat": 38.8952435, "fusion_lat": 0.0, "is_reserved": 0, "rental_uris": {"ios": "https://dc.lft.to/lastmile_qr_scan", "android": "https://dc.lft.to/lastmile_qr_scan"}, "fusion_lon": 0.0, "type": "electric_scooter", "bike_id": "5187b7277ff090924a78a8ff2c2dcc78", "name": "5187b7277ff090924a78a8ff2c2dcc78"}, {"lon": -76.95059066666667, "is_disabled": 0, "lat": 38.8932365, "fusion_lat": 0.0, "is_reserved": 0, "rental_uris": {"ios": "https://dc.lft.to/lastmile_qr_scan", "android": "https://dc.lft.to/lastmile_qr_scan"}, "fusion_lon": 0.0, "type": "electric_scooter", "bike_id": "ea08cabcbf4e66dddeefafbd7de47c79", "name": "ea08cabcbf4e66dddeefafbd7de47c79"}, {"lon": -77.04343933333334, "is_disabled": 0, "lat": 38.8738625, "fusion_lat": 0.0, "is_reserved": 0, "rental_uris": {"ios": "https://dc.lft.to/lastmile_qr_scan", "android": "https://dc.lft.to/lastmile_qr_scan"}, "fusion_lon": 0.0, "type": "electric_scooter", "bike_id": "45bb5f6e5a8817e211bac63db5f8a8e6", "name": "45bb5f6e5a8817e211bac63db5f8a8e6"}, {"lon": -77.017634, "is_disabled": 0, "lat": 38.87716983333333, "fusion_lat": 0.0, "is_reserved": 0, "rental_uris": {"ios": "https://dc.lft.to/lastmile_qr_scan", "android": "https://dc.lft.to/lastmile_qr_scan"}, "fusion_lon": 0.0, "type": "electric_scooter", "bike_id": "be7f3af44432ddeb2778057ca9db8360", "name": "be7f3af44432ddeb2778057ca9db8360"}, {"lon": -77.050294, "is_disabled": 0, "lat": 38.92363, "fusion_lat": 0.0, "is_reserved": 0, "rental_uris": {"ios": "https://dc.lft.to/lastmile_qr_scan", "android": "https://dc.lft.to/lastmile_qr_scan"}, "fusion_lon": 0.0, "type": "electric_scooter", "bike_id": "d610421a29363c0f002e37281165b1eb", "name": "d610421a29363c0f002e37281165b1eb"}, {"lon": -77.04395833333334, "is_disabled": 0, "lat": 38.922226333333334, "fusion_lat": 0.0, "is_reserved": 0, "rental_uris": {"ios": "https://dc.lft.to/lastmile_qr_scan", "android": "https://dc.lft.to/lastmile_qr_scan"}, "fusion_lon": 0.0, "type": "electric_scooter", "bike_id": "d0422b13e6119fe032ed187ce6e2c38e", "name": "d0422b13e6119fe032ed187ce6e2c38e"}, {"lon": -77.00311883333333, "is_disabled": 0, "lat": 38.87722333333333, "fusion_lat": 0.0, "is_reserved": 0, "rental_uris": {"ios": "https://dc.lft.to/lastmile_qr_scan", "android": "https://dc.lft.to/lastmile_qr_scan"}, "fusion_lon": 0.0, "type": "electric_scooter", "bike_id": "07195d8a73a71a34ca2bc2d478d58093", "name": "07195d8a73a71a34ca2bc2d478d58093"}, {"lon": -77.01954433333333, "is_disabled": 0, "lat": 38.893504166666666, "fusion_lat": 0.0, "is_reserved": 0, "rental_uris": {"ios": "https://dc.lft.to/lastmile_qr_scan", "android": "https://dc.lft.to/lastmile_qr_scan"}, "fusion_lon": 0.0, "type": "electric_scooter", "bike_id": "9b20d71e080b150c59cfba9767426a03", "name": "9b20d71e080b150c59cfba9767426a03"}, {"lon": -77.04173533333334, "is_disabled": 0, "lat": 38.913929, "fusion_lat": 0.0, "is_reserved": 0, "rental_uris": {"ios": "https://dc.lft.to/lastmile_qr_scan", "android": "https://dc.lft.to/lastmile_qr_scan"}, "fusion_lon": 0.0, "type": "electric_scooter", "bike_id": "bf1efa6384c039d74bb74153d3d3f1cb", "name": "bf1efa6384c039d74bb74153d3d3f1cb"}, {"lon": -77.03586383333334, "is_disabled": 0, "lat": 38.942419, "fusion_lat": 0.0, "is_reserved": 0, "rental_uris": {"ios": "https://dc.lft.to/lastmile_qr_scan", "android": "https://dc.lft.to/lastmile_qr_scan"}, "fusion_lon": 0.0, "type": "electric_scooter", "bike_id": "23745336a686e2b76081b0efa7b252ee", "name": "23745336a686e2b76081b0efa7b252ee"}, {"lon": -77.03431033333334, "is_disabled": 0, "lat": 38.90569083333333, "fusion_lat": 0.0, "is_reserved": 0, "rental_uris": {"ios": "https://dc.lft.to/lastmile_qr_scan", "android": "https://dc.lft.to/lastmile_qr_scan"}, "fusion_lon": 0.0, "type": "electric_scooter", "bike_id": "764c61013265e2b6e96f06d2242b1a27", "name": "764c61013265e2b6e96f06d2242b1a27"}, {"lon": -77.03911533333333, "is_disabled": 0, "lat": 38.92412316666667, "fusion_lat": 0.0, "is_reserved": 0, "rental_uris": {"ios": "https://dc.lft.to/lastmile_qr_scan", "android": "https://dc.lft.to/lastmile_qr_scan"}, "fusion_lon": 0.0, "type": "electric_scooter", "bike_id": "ff0e08a4d19fc6ccb20be88888bc0cea", "name": "ff0e08a4d19fc6ccb20be88888bc0cea"}, {"lon": -77.037853, "is_disabled": 0, "lat": 38.9065415, "fusion_lat": 0.0, "is_reserved": 0, "rental_uris": {"ios": "https://dc.lft.to/lastmile_qr_scan", "android": "https://dc.lft.to/lastmile_qr_scan"}, "fusion_lon": 0.0, "type": "electric_scooter", "bike_id": "d60876eaf6b6b49eadc4f2bc5181d52c", "name": "d60876eaf6b6b49eadc4f2bc5181d52c"}, {"lon": -77.03331366666667, "is_disabled": 0, "lat": 38.920425333333334, "fusion_lat": 0.0, "is_reserved": 0, "rental_uris": {"ios": "https://dc.lft.to/lastmile_qr_scan", "android": "https://dc.lft.to/lastmile_qr_scan"}, "fusion_lon": 0.0, "type": "electric_scooter", "bike_id": "cf77d8b82513c3b7e5a4f605ae3bc43b", "name": "cf77d8b82513c3b7e5a4f605ae3bc43b"}, {"lon": -76.95757366666666, "is_disabled": 0, "lat": 38.88432783333333, "fusion_lat": 0.0, "is_reserved": 0, "rental_uris": {"ios": "https://dc.lft.to/lastmile_qr_scan", "android": "https://dc.lft.to/lastmile_qr_scan"}, "fusion_lon": 0.0, "type": "electric_scooter", "bike_id": "070e681f010f0751ea2a7b19618a4bc5", "name": "070e681f010f0751ea2a7b19618a4bc5"}, {"lon": -77.05743333333334, "is_disabled": 0, "lat": 38.933922333333335, "fusion_lat": 0.0, "is_reserved": 0, "rental_uris": {"ios": "https://dc.lft.to/lastmile_qr_scan", "android": "https://dc.lft.to/lastmile_qr_scan"}, "fusion_lon": 0.0, "type": "electric_scooter", "bike_id": "93eb4d2fb3ea1710ed8c48ab321ee660", "name": "93eb4d2fb3ea1710ed8c48ab321ee660"}, {"lon": -77.03869433333334, "is_disabled": 0, "lat": 38.921515, "fusion_lat": 0.0, "is_reserved": 0, "rental_uris": {"ios": "https://dc.lft.to/lastmile_qr_scan", "android": "https://dc.lft.to/lastmile_qr_scan"}, "fusion_lon": 0.0, "type": "electric_scooter", "bike_id": "85d9c6581e9b7f47e53248a1e819afc3", "name": "85d9c6581e9b7f47e53248a1e819afc3"}, {"lon": -77.02314566666666, "is_disabled": 0, "lat": 38.91631483333333, "fusion_lat": 0.0, "is_reserved": 0, "rental_uris": {"ios": "https://dc.lft.to/lastmile_qr_scan", "android": "https://dc.lft.to/lastmile_qr_scan"}, "fusion_lon": 0.0, "type": "electric_scooter", "bike_id": "f6dd4f6c6d48e074cb3f173bd5ed7804", "name": "f6dd4f6c6d48e074cb3f173bd5ed7804"}, {"lon": -77.0247135, "is_disabled": 0, "lat": 38.897213666666666, "fusion_lat": 0.0, "is_reserved": 0, "rental_uris": {"ios": "https://dc.lft.to/lastmile_qr_scan", "android": "https://dc.lft.to/lastmile_qr_scan"}, "fusion_lon": 0.0, "type": "electric_scooter", "bike_id": "4e1580b2ac21f25549c56762c8bfe7ac", "name": "4e1580b2ac21f25549c56762c8bfe7ac"}, {"lon": -76.94893183333333, "is_disabled": 0, "lat": 38.895314666666664, "fusion_lat": 0.0, "is_reserved": 0, "rental_uris": {"ios": "https://dc.lft.to/lastmile_qr_scan", "android": "https://dc.lft.to/lastmile_qr_scan"}, "fusion_lon": 0.0, "type": "electric_scooter", "bike_id": "a75653fe277d89e724ae045cfada9324", "name": "a75653fe277d89e724ae045cfada9324"}, {"lon": -76.99141866666666, "is_disabled": 0, "lat": 38.908669, "fusion_lat": 0.0, "is_reserved": 0, "rental_uris": {"ios": "https://dc.lft.to/lastmile_qr_scan", "android": "https://dc.lft.to/lastmile_qr_scan"}, "fusion_lon": 0.0, "type": "electric_bike", "bike_id": "b101aeeb86779955a956829fd7957e00", "name": "b101aeeb86779955a956829fd7957e00"}, {"lon": -76.94887466666667, "is_disabled": 0, "lat": 38.895297166666666, "fusion_lat": 0.0, "is_reserved": 0, "rental_uris": {"ios": "https://dc.lft.to/lastmile_qr_scan", "android": "https://dc.lft.to/lastmile_qr_scan"}, "fusion_lon": 0.0, "type": "electric_scooter", "bike_id": "a498b2ca31b597b8330b9a05e71da05c", "name": "a498b2ca31b597b8330b9a05e71da05c"}, {"lon": -77.03197266666666, "is_disabled": 0, "lat": 38.8924, "fusion_lat": 0.0, "is_reserved": 0, "rental_uris": {"ios": "https://dc.lft.to/lastmile_qr_scan", "android": "https://dc.lft.to/lastmile_qr_scan"}, "fusion_lon": 0.0, "type": "electric_scooter", "bike_id": "7ab06f402ab73e4f0563dfb8a4df3a84", "name": "7ab06f402ab73e4f0563dfb8a4df3a84"}, {"lon": -77.0320805, "is_disabled": 0, "lat": 38.8923195, "fusion_lat": 0.0, "is_reserved": 0, "rental_uris": {"ios": "https://dc.lft.to/lastmile_qr_scan", "android": "https://dc.lft.to/lastmile_qr_scan"}, "fusion_lon": 0.0, "type": "electric_scooter", "bike_id": "97842f62a6436dac404aa1f8ce855eea", "name": "97842f62a6436dac404aa1f8ce855eea"}, {"lon": -77.03302833333333, "is_disabled": 0, "lat": 38.92890416666667, "fusion_lat": 0.0, "is_reserved": 0, "rental_uris": {"ios": "https://dc.lft.to/lastmile_qr_scan", "android": "https://dc.lft.to/lastmile_qr_scan"}, "fusion_lon": 0.0, "type": "electric_scooter", "bike_id": "3d64df7a87697d82b8d42da786cb9b9c", "name": "3d64df7a87697d82b8d42da786cb9b9c"}, {"lon": -77.03339966666667, "is_disabled": 0, "lat": 38.915623833333335, "fusion_lat": 0.0, "is_reserved": 0, "rental_uris": {"ios": "https://dc.lft.to/lastmile_qr_scan", "android": "https://dc.lft.to/lastmile_qr_scan"}, "fusion_lon": 0.0, "type": "electric_scooter", "bike_id": "70a2263ece0af39a27ddf87c14fabe2b", "name": "70a2263ece0af39a27ddf87c14fabe2b"}, {"lon": -77.04875566666666, "is_disabled": 0, "lat": 38.909822, "fusion_lat": 0.0, "is_reserved": 0, "rental_uris": {"ios": "https://dc.lft.to/lastmile_qr_scan", "android": "https://dc.lft.to/lastmile_qr_scan"}, "fusion_lon": 0.0, "type": "electric_scooter", "bike_id": "1bc1cb0d7ec79d4bb466fed2a4592b0e", "name": "1bc1cb0d7ec79d4bb466fed2a4592b0e"}, {"lon": -76.91598233333333, "is_disabled": 0, "lat": 38.879848333333335, "fusion_lat": 0.0, "is_reserved": 0, "rental_uris": {"ios": "https://dc.lft.to/lastmile_qr_scan", "android": "https://dc.lft.to/lastmile_qr_scan"}, "fusion_lon": 0.0, "type": "electric_bike", "bike_id": "b884ec2adc3dd5c7bbad86a52cbf90bc", "name": "b884ec2adc3dd5c7bbad86a52cbf90bc"}, {"lon": -76.9853685, "is_disabled": 0, "lat": 38.909534666666666, "fusion_lat": 0.0, "is_reserved": 0, "rental_uris": {"ios": "https://dc.lft.to/lastmile_qr_scan", "android": "https://dc.lft.to/lastmile_qr_scan"}, "fusion_lon": 0.0, "type": "electric_scooter", "bike_id": "291b4f8373ef9efb1d99c6b8adce37ad", "name": "291b4f8373ef9efb1d99c6b8adce37ad"}, {"lon": -76.99163533333333, "is_disabled": 0, "lat": 38.901415, "fusion_lat": 0.0, "is_reserved": 0, "rental_uris": {"ios": "https://dc.lft.to/lastmile_qr_scan", "android": "https://dc.lft.to/lastmile_qr_scan"}, "fusion_lon": 0.0, "type": "electric_scooter", "bike_id": "17fc11bd6f1fe51cd8ee41d54111ca17", "name": "17fc11bd6f1fe51cd8ee41d54111ca17"}, {"lon": -77.05262083333334, "is_disabled": 0, "lat": 38.927767333333335, "fusion_lat": 0.0, "is_reserved": 0, "rental_uris": {"ios": "https://dc.lft.to/lastmile_qr_scan", "android": "https://dc.lft.to/lastmile_qr_scan"}, "fusion_lon": 0.0, "type": "electric_scooter", "bike_id": "2db4ef612802d07b19473fc8e1e88b72", "name": "2db4ef612802d07b19473fc8e1e88b72"}, {"lon": -77.0141515, "is_disabled": 0, "lat": 38.92809733333333, "fusion_lat": 0.0, "is_reserved": 0, "rental_uris": {"ios": "https://dc.lft.to/lastmile_qr_scan", "android": "https://dc.lft.to/lastmile_qr_scan"}, "fusion_lon": 0.0, "type": "electric_scooter", "bike_id": "d35d4064c2919b5ba459de045a8a7416", "name": "d35d4064c2919b5ba459de045a8a7416"}, {"lon": -77.02405883333333, "is_disabled": 0, "lat": 38.909644, "fusion_lat": 0.0, "is_reserved": 0, "rental_uris": {"ios": "https://dc.lft.to/lastmile_qr_scan", "android": "https://dc.lft.to/lastmile_qr_scan"}, "fusion_lon": 0.0, "type": "electric_scooter", "bike_id": "915bbff97dc1187f04bc741f7cbaf1b2", "name": "915bbff97dc1187f04bc741f7cbaf1b2"}, {"lon": -77.03450883333333, "is_disabled": 0, "lat": 38.907371166666664, "fusion_lat": 0.0, "is_reserved": 0, "rental_uris": {"ios": "https://dc.lft.to/lastmile_qr_scan", "android": "https://dc.lft.to/lastmile_qr_scan"}, "fusion_lon": 0.0, "type": "electric_scooter", "bike_id": "eda4e3f20710ecd0760a43f8a719330f", "name": "eda4e3f20710ecd0760a43f8a719330f"}, {"lon": -77.0216525, "is_disabled": 0, "lat": 38.92503766666667, "fusion_lat": 0.0, "is_reserved": 0, "rental_uris": {"ios": "https://dc.lft.to/lastmile_qr_scan", "android": "https://dc.lft.to/lastmile_qr_scan"}, "fusion_lon": 0.0, "type": "electric_scooter", "bike_id": "553647c13b8f0e964c14f4e7a9e1003b", "name": "553647c13b8f0e964c14f4e7a9e1003b"}, {"lon": -77.02492233333334, "is_disabled": 0, "lat": 38.94183616666667, "fusion_lat": 0.0, "is_reserved": 0, "rental_uris": {"ios": "https://dc.lft.to/lastmile_qr_scan", "android": "https://dc.lft.to/lastmile_qr_scan"}, "fusion_lon": 0.0, "type": "electric_scooter", "bike_id": "08b5b1274ed8b5cc4a1df890537a7174", "name": "08b5b1274ed8b5cc4a1df890537a7174"}, {"lon": -77.01139883333333, "is_disabled": 0, "lat": 38.90641566666667, "fusion_lat": 0.0, "is_reserved": 0, "rental_uris": {"ios": "https://dc.lft.to/lastmile_qr_scan", "android": "https://dc.lft.to/lastmile_qr_scan"}, "fusion_lon": 0.0, "type": "electric_scooter", "bike_id": "b1d84c4ac48571305f708ef615ac84ed", "name": "b1d84c4ac48571305f708ef615ac84ed"}, {"lon": -77.03548066666667, "is_disabled": 0, "lat": 38.91259683333333, "fusion_lat": 0.0, "is_reserved": 0, "rental_uris": {"ios": "https://dc.lft.to/lastmile_qr_scan", "android": "https://dc.lft.to/lastmile_qr_scan"}, "fusion_lon": 0.0, "type": "electric_scooter", "bike_id": "7cd9ed4cac82f15824200502df9e6c9d", "name": "7cd9ed4cac82f15824200502df9e6c9d"}, {"lon": -77.02367583333333, "is_disabled": 0, "lat": 38.906764333333335, "fusion_lat": 0.0, "is_reserved": 0, "rental_uris": {"ios": "https://dc.lft.to/lastmile_qr_scan", "android": "https://dc.lft.to/lastmile_qr_scan"}, "fusion_lon": 0.0, "type": "electric_scooter", "bike_id": "eb3e2724d9249d189bbbae9baf5b0571", "name": "eb3e2724d9249d189bbbae9baf5b0571"}, {"lon": -76.99501116666667, "is_disabled": 0, "lat": 38.86245316666667, "fusion_lat": 0.0, "is_reserved": 0, "rental_uris": {"ios": "https://dc.lft.to/lastmile_qr_scan", "android": "https://dc.lft.to/lastmile_qr_scan"}, "fusion_lon": 0.0, "type": "electric_scooter", "bike_id": "e6305594a5223597256f931053fbc9b8", "name": "e6305594a5223597256f931053fbc9b8"}, {"lon": -77.00577516666667, "is_disabled": 0, "lat": 38.90547333333333, "fusion_lat": 0.0, "is_reserved": 0, "rental_uris": {"ios": "https://dc.lft.to/lastmile_qr_scan", "android": "https://dc.lft.to/lastmile_qr_scan"}, "fusion_lon": 0.0, "type": "electric_scooter", "bike_id": "8cac2539df276eecb77ce6eff37523e5", "name": "8cac2539df276eecb77ce6eff37523e5"}, {"lon": -77.00583616666667, "is_disabled": 0, "lat": 38.90635833333333, "fusion_lat": 0.0, "is_reserved": 0, "rental_uris": {"ios": "https://dc.lft.to/lastmile_qr_scan", "android": "https://dc.lft.to/lastmile_qr_scan"}, "fusion_lon": 0.0, "type": "electric_scooter", "bike_id": "72481491f2a54689e5d2dfb6bc959535", "name": "72481491f2a54689e5d2dfb6bc959535"}, {"lon": -77.00664116666667, "is_disabled": 0, "lat": 38.871490333333334, "fusion_lat": 0.0, "is_reserved": 0, "rental_uris": {"ios": "https://dc.lft.to/lastmile_qr_scan", "android": "https://dc.lft.to/lastmile_qr_scan"}, "fusion_lon": 0.0, "type": "electric_scooter", "bike_id": "d4a4dbdd52a4e62ea85a599d0da75b82", "name": "d4a4dbdd52a4e62ea85a599d0da75b82"}, {"lon": -77.036777, "is_disabled": 0, "lat": 38.922631833333334, "fusion_lat": 0.0, "is_reserved": 0, "rental_uris": {"ios": "https://dc.lft.to/lastmile_qr_scan", "android": "https://dc.lft.to/lastmile_qr_scan"}, "fusion_lon": 0.0, "type": "electric_scooter", "bike_id": "9344e38cdb905d893480d78f40b17ca2", "name": "9344e38cdb905d893480d78f40b17ca2"}, {"lon": -77.03938066666667, "is_disabled": 0, "lat": 38.90952133333333, "fusion_lat": 0.0, "is_reserved": 0, "rental_uris": {"ios": "https://dc.lft.to/lastmile_qr_scan", "android": "https://dc.lft.to/lastmile_qr_scan"}, "fusion_lon": 0.0, "type": "electric_scooter", "bike_id": "4d43f3d64cc1fa5db84c17d7930e0eb1", "name": "4d43f3d64cc1fa5db84c17d7930e0eb1"}, {"lon": -76.948261, "is_disabled": 0, "lat": 38.884101666666666, "fusion_lat": 0.0, "is_reserved": 0, "rental_uris": {"ios": "https://dc.lft.to/lastmile_qr_scan", "android": "https://dc.lft.to/lastmile_qr_scan"}, "fusion_lon": 0.0, "type": "electric_scooter", "bike_id": "7600526f3d21db649eab7b7820f52f22", "name": "7600526f3d21db649eab7b7820f52f22"}, {"lon": -77.0237835, "is_disabled": 0, "lat": 38.891975333333335, "fusion_lat": 0.0, "is_reserved": 0, "rental_uris": {"ios": "https://dc.lft.to/lastmile_qr_scan", "android": "https://dc.lft.to/lastmile_qr_scan"}, "fusion_lon": 0.0, "type": "electric_scooter", "bike_id": "f69786dddd4a07fb05118046c4b1a37a", "name": "f69786dddd4a07fb05118046c4b1a37a"}, {"lon": -77.03479816666666, "is_disabled": 0, "lat": 38.9233625, "fusion_lat": 0.0, "is_reserved": 0, "rental_uris": {"ios": "https://dc.lft.to/lastmile_qr_scan", "android": "https://dc.lft.to/lastmile_qr_scan"}, "fusion_lon": 0.0, "type": "electric_scooter", "bike_id": "2d2fb0c662f99cc3a310a7df028e6927", "name": "2d2fb0c662f99cc3a310a7df028e6927"}, {"lon": -77.0429155, "is_disabled": 0, "lat": 38.83096366666667, "fusion_lat": 0.0, "is_reserved": 0, "rental_uris": {"ios": "https://dc.lft.to/lastmile_qr_scan", "android": "https://dc.lft.to/lastmile_qr_scan"}, "fusion_lon": 0.0, "type": "electric_bike", "bike_id": "0016f7a479c93da5872e3364ec62c918", "name": "0016f7a479c93da5872e3364ec62c918"}, {"lon": -77.05744983333334, "is_disabled": 0, "lat": 38.933985, "fusion_lat": 0.0, "is_reserved": 0, "rental_uris": {"ios": "https://dc.lft.to/lastmile_qr_scan", "android": "https://dc.lft.to/lastmile_qr_scan"}, "fusion_lon": 0.0, "type": "electric_scooter", "bike_id": "c78f89937c9ab89a9bb0177ae743a10a", "name": "c78f89937c9ab89a9bb0177ae743a10a"}, {"lon": -77.02199533333334, "is_disabled": 0, "lat": 38.91133683333334, "fusion_lat": 0.0, "is_reserved": 0, "rental_uris": {"ios": "https://dc.lft.to/lastmile_qr_scan", "android": "https://dc.lft.to/lastmile_qr_scan"}, "fusion_lon": 0.0, "type": "electric_scooter", "bike_id": "250299262df49355faf6c44ca2ecc2fd", "name": "250299262df49355faf6c44ca2ecc2fd"}, {"lon": -77.026245, "is_disabled": 0, "lat": 38.896263166666664, "fusion_lat": 0.0, "is_reserved": 0, "rental_uris": {"ios": "https://dc.lft.to/lastmile_qr_scan", "android": "https://dc.lft.to/lastmile_qr_scan"}, "fusion_lon": 0.0, "type": "electric_scooter", "bike_id": "5840cab26d680b2f3766a8aaab4aff27", "name": "5840cab26d680b2f3766a8aaab4aff27"}, {"lon": -77.02824166666667, "is_disabled": 0, "lat": 38.893437, "fusion_lat": 0.0, "is_reserved": 0, "rental_uris": {"ios": "https://dc.lft.to/lastmile_qr_scan", "android": "https://dc.lft.to/lastmile_qr_scan"}, "fusion_lon": 0.0, "type": "electric_scooter", "bike_id": "3661cf6385067b8cd01c52e290781fd5", "name": "3661cf6385067b8cd01c52e290781fd5"}, {"lon": -77.01945233333333, "is_disabled": 0, "lat": 38.9241875, "fusion_lat": 0.0, "is_reserved": 0, "rental_uris": {"ios": "https://dc.lft.to/lastmile_qr_scan", "android": "https://dc.lft.to/lastmile_qr_scan"}, "fusion_lon": 0.0, "type": "electric_scooter", "bike_id": "2da740f3f3d4ad649a44477532a6950f", "name": "2da740f3f3d4ad649a44477532a6950f"}, {"lon": -77.03626616666666, "is_disabled": 0, "lat": 38.931639, "fusion_lat": 0.0, "is_reserved": 0, "rental_uris": {"ios": "https://dc.lft.to/lastmile_qr_scan", "android": "https://dc.lft.to/lastmile_qr_scan"}, "fusion_lon": 0.0, "type": "electric_scooter", "bike_id": "d67411c9d45c27a338767b994e6f2b58", "name": "d67411c9d45c27a338767b994e6f2b58"}, {"lon": -77.0138675, "is_disabled": 0, "lat": 38.91907666666667, "fusion_lat": 0.0, "is_reserved": 0, "rental_uris": {"ios": "https://dc.lft.to/lastmile_qr_scan", "android": "https://dc.lft.to/lastmile_qr_scan"}, "fusion_lon": 0.0, "type": "electric_scooter", "bike_id": "68b4b1c71dc4b7dffce1eb341c8036c8", "name": "68b4b1c71dc4b7dffce1eb341c8036c8"}, {"lon": -77.0298225, "is_disabled": 0, "lat": 38.897317666666666, "fusion_lat": 0.0, "is_reserved": 0, "rental_uris": {"ios": "https://dc.lft.to/lastmile_qr_scan", "android": "https://dc.lft.to/lastmile_qr_scan"}, "fusion_lon": 0.0, "type": "electric_scooter", "bike_id": "f5ac6f4ab74339f817bb8edb6ebb5455", "name": "f5ac6f4ab74339f817bb8edb6ebb5455"}, {"lon": -77.02959083333333, "is_disabled": 0, "lat": 38.916848333333334, "fusion_lat": 0.0, "is_reserved": 0, "rental_uris": {"ios": "https://dc.lft.to/lastmile_qr_scan", "android": "https://dc.lft.to/lastmile_qr_scan"}, "fusion_lon": 0.0, "type": "electric_scooter", "bike_id": "52ee2b58b53ea7ac2ebb990ed7618a9b", "name": "52ee2b58b53ea7ac2ebb990ed7618a9b"}, {"lon": -77.01347333333334, "is_disabled": 0, "lat": 38.91915916666667, "fusion_lat": 0.0, "is_reserved": 0, "rental_uris": {"ios": "https://dc.lft.to/lastmile_qr_scan", "android": "https://dc.lft.to/lastmile_qr_scan"}, "fusion_lon": 0.0, "type": "electric_scooter", "bike_id": "c7c0f8ac6f2774c6172e83e085d4d131", "name": "c7c0f8ac6f2774c6172e83e085d4d131"}, {"lon": -76.978813, "is_disabled": 0, "lat": 38.901914833333336, "fusion_lat": 0.0, "is_reserved": 0, "rental_uris": {"ios": "https://dc.lft.to/lastmile_qr_scan", "android": "https://dc.lft.to/lastmile_qr_scan"}, "fusion_lon": 0.0, "type": "electric_scooter", "bike_id": "1e0e2a428d9498c0ad311a5da967a249", "name": "1e0e2a428d9498c0ad311a5da967a249"}, {"lon": -77.005729, "is_disabled": 0, "lat": 38.905323333333335, "fusion_lat": 0.0, "is_reserved": 0, "rental_uris": {"ios": "https://dc.lft.to/lastmile_qr_scan", "android": "https://dc.lft.to/lastmile_qr_scan"}, "fusion_lon": 0.0, "type": "electric_scooter", "bike_id": "cacc5bbc424090da26405d2058ac437e", "name": "cacc5bbc424090da26405d2058ac437e"}, {"lon": -77.01223766666666, "is_disabled": 0, "lat": 38.91422033333333, "fusion_lat": 0.0, "is_reserved": 0, "rental_uris": {"ios": "https://dc.lft.to/lastmile_qr_scan", "android": "https://dc.lft.to/lastmile_qr_scan"}, "fusion_lon": 0.0, "type": "electric_scooter", "bike_id": "c254e4617cb9d5e68618a55f9262ec3a", "name": "c254e4617cb9d5e68618a55f9262ec3a"}, {"lon": -77.030556, "is_disabled": 0, "lat": 38.929667, "fusion_lat": 0.0, "is_reserved": 0, "rental_uris": {"ios": "https://dc.lft.to/lastmile_qr_scan", "android": "https://dc.lft.to/lastmile_qr_scan"}, "fusion_lon": 0.0, "type": "electric_bike", "bike_id": "a0d822aaf3766a25668132c855464a98", "name": "a0d822aaf3766a25668132c855464a98"}, {"lon": -76.99396966666667, "is_disabled": 0, "lat": 38.910021666666665, "fusion_lat": 0.0, "is_reserved": 0, "rental_uris": {"ios": "https://dc.lft.to/lastmile_qr_scan", "android": "https://dc.lft.to/lastmile_qr_scan"}, "fusion_lon": 0.0, "type": "electric_scooter", "bike_id": "8e9c1df4a1e2cb7d55a958f9f3a35c67", "name": "8e9c1df4a1e2cb7d55a958f9f3a35c67"}, {"lon": -77.027377, "is_disabled": 0, "lat": 38.901007666666665, "fusion_lat": 0.0, "is_reserved": 0, "rental_uris": {"ios": "https://dc.lft.to/lastmile_qr_scan", "android": "https://dc.lft.to/lastmile_qr_scan"}, "fusion_lon": 0.0, "type": "electric_scooter", "bike_id": "7697fb1afeadd9b7442a5287ea5c8bcf", "name": "7697fb1afeadd9b7442a5287ea5c8bcf"}, {"lon": -77.02231583333334, "is_disabled": 0, "lat": 38.89196283333333, "fusion_lat": 0.0, "is_reserved": 0, "rental_uris": {"ios": "https://dc.lft.to/lastmile_qr_scan", "android": "https://dc.lft.to/lastmile_qr_scan"}, "fusion_lon": 0.0, "type": "electric_scooter", "bike_id": "db6193ea3da63a04dfb256412ff184cf", "name": "db6193ea3da63a04dfb256412ff184cf"}, {"lon": -77.02693466666666, "is_disabled": 0, "lat": 38.908745333333336, "fusion_lat": 0.0, "is_reserved": 0, "rental_uris": {"ios": "https://dc.lft.to/lastmile_qr_scan", "android": "https://dc.lft.to/lastmile_qr_scan"}, "fusion_lon": 0.0, "type": "electric_scooter", "bike_id": "9c07f3c6657451dd74056c72b628be34", "name": "9c07f3c6657451dd74056c72b628be34"}, {"lon": -77.03427883333333, "is_disabled": 0, "lat": 38.91912816666667, "fusion_lat": 0.0, "is_reserved": 0, "rental_uris": {"ios": "https://dc.lft.to/lastmile_qr_scan", "android": "https://dc.lft.to/lastmile_qr_scan"}, "fusion_lon": 0.0, "type": "electric_scooter", "bike_id": "40fd5aefa7baf41ffeb295b0dcdcc253", "name": "40fd5aefa7baf41ffeb295b0dcdcc253"}, {"lon": -77.0376365, "is_disabled": 0, "lat": 38.91874766666667, "fusion_lat": 0.0, "is_reserved": 0, "rental_uris": {"ios": "https://dc.lft.to/lastmile_qr_scan", "android": "https://dc.lft.to/lastmile_qr_scan"}, "fusion_lon": 0.0, "type": "electric_scooter", "bike_id": "ae2c238f9dcc5cdaf2aa45e68b9f71ad", "name": "ae2c238f9dcc5cdaf2aa45e68b9f71ad"}, {"lon": -77.01330533333334, "is_disabled": 0, "lat": 38.92615883333333, "fusion_lat": 0.0, "is_reserved": 0, "rental_uris": {"ios": "https://dc.lft.to/lastmile_qr_scan", "android": "https://dc.lft.to/lastmile_qr_scan"}, "fusion_lon": 0.0, "type": "electric_scooter", "bike_id": "6518e58b6b547b0de6b3fd58ab0288a0", "name": "6518e58b6b547b0de6b3fd58ab0288a0"}, {"lon": -77.069377, "is_disabled": 0, "lat": 38.9520985, "fusion_lat": 0.0, "is_reserved": 0, "rental_uris": {"ios": "https://dc.lft.to/lastmile_qr_scan", "android": "https://dc.lft.to/lastmile_qr_scan"}, "fusion_lon": 0.0, "type": "electric_scooter", "bike_id": "eec1f39b77d6ee8821402cc881adfc0a", "name": "eec1f39b77d6ee8821402cc881adfc0a"}, {"lon": -77.05150883333333, "is_disabled": 0, "lat": 38.9237515, "fusion_lat": 0.0, "is_reserved": 0, "rental_uris": {"ios": "https://dc.lft.to/lastmile_qr_scan", "android": "https://dc.lft.to/lastmile_qr_scan"}, "fusion_lon": 0.0, "type": "electric_scooter", "bike_id": "f9c1e04003bfad31b9eaa2d4264748e1", "name": "f9c1e04003bfad31b9eaa2d4264748e1"}, {"lon": -77.03270766666667, "is_disabled": 0, "lat": 38.92755833333333, "fusion_lat": 0.0, "is_reserved": 0, "rental_uris": {"ios": "https://dc.lft.to/lastmile_qr_scan", "android": "https://dc.lft.to/lastmile_qr_scan"}, "fusion_lon": 0.0, "type": "electric_scooter", "bike_id": "7d672d3ae5e4da7349eb2167f8071fa3", "name": "7d672d3ae5e4da7349eb2167f8071fa3"}, {"lon": -77.03524416666667, "is_disabled": 0, "lat": 38.922388, "fusion_lat": 0.0, "is_reserved": 0, "rental_uris": {"ios": "https://dc.lft.to/lastmile_qr_scan", "android": "https://dc.lft.to/lastmile_qr_scan"}, "fusion_lon": 0.0, "type": "electric_scooter", "bike_id": "c8bfd38554338ab20f207d5830f2d0dd", "name": "c8bfd38554338ab20f207d5830f2d0dd"}, {"lon": -77.0080015, "is_disabled": 0, "lat": 38.94913233333333, "fusion_lat": 0.0, "is_reserved": 0, "rental_uris": {"ios": "https://dc.lft.to/lastmile_qr_scan", "android": "https://dc.lft.to/lastmile_qr_scan"}, "fusion_lon": 0.0, "type": "electric_bike", "bike_id": "0bfbbb886f58535e681bf9e2e5fd4edf", "name": "0bfbbb886f58535e681bf9e2e5fd4edf"}, {"lon": -77.00518483333333, "is_disabled": 0, "lat": 38.87471083333333, "fusion_lat": 0.0, "is_reserved": 0, "rental_uris": {"ios": "https://dc.lft.to/lastmile_qr_scan", "android": "https://dc.lft.to/lastmile_qr_scan"}, "fusion_lon": 0.0, "type": "electric_scooter", "bike_id": "88c25e6abdfc18ba8f703a80ad054647", "name": "88c25e6abdfc18ba8f703a80ad054647"}, {"lon": -77.04674316666667, "is_disabled": 0, "lat": 38.903471833333334, "fusion_lat": 0.0, "is_reserved": 0, "rental_uris": {"ios": "https://dc.lft.to/lastmile_qr_scan", "android": "https://dc.lft.to/lastmile_qr_scan"}, "fusion_lon": 0.0, "type": "electric_scooter", "bike_id": "af5d8b82ad44f7aaa215e2167141f102", "name": "af5d8b82ad44f7aaa215e2167141f102"}, {"lon": -77.018778, "is_disabled": 0, "lat": 38.87434483333333, "fusion_lat": 0.0, "is_reserved": 0, "rental_uris": {"ios": "https://dc.lft.to/lastmile_qr_scan", "android": "https://dc.lft.to/lastmile_qr_scan"}, "fusion_lon": 0.0, "type": "electric_scooter", "bike_id": "781bc6632b0b8863cc12a534acbbba12", "name": "781bc6632b0b8863cc12a534acbbba12"}, {"lon": -77.08428283333333, "is_disabled": 0, "lat": 38.9318715, "fusion_lat": 0.0, "is_reserved": 0, "rental_uris": {"ios": "https://dc.lft.to/lastmile_qr_scan", "android": "https://dc.lft.to/lastmile_qr_scan"}, "fusion_lon": 0.0, "type": "electric_scooter", "bike_id": "4c351beeb1a7b81fc07436badb5193a4", "name": "4c351beeb1a7b81fc07436badb5193a4"}, {"lon": -77.04151366666666, "is_disabled": 0, "lat": 38.901315, "fusion_lat": 0.0, "is_reserved": 0, "rental_uris": {"ios": "https://dc.lft.to/lastmile_qr_scan", "android": "https://dc.lft.to/lastmile_qr_scan"}, "fusion_lon": 0.0, "type": "electric_scooter", "bike_id": "321f548b5349da94b1ed4c09577eff6f", "name": "321f548b5349da94b1ed4c09577eff6f"}, {"lon": -77.03212983333333, "is_disabled": 0, "lat": 38.92861116666667, "fusion_lat": 0.0, "is_reserved": 0, "rental_uris": {"ios": "https://dc.lft.to/lastmile_qr_scan", "android": "https://dc.lft.to/lastmile_qr_scan"}, "fusion_lon": 0.0, "type": "electric_scooter", "bike_id": "8610fde86bbc1c891ae8a958f3b50216", "name": "8610fde86bbc1c891ae8a958f3b50216"}, {"lon": -77.04536833333333, "is_disabled": 0, "lat": 38.91326183333334, "fusion_lat": 0.0, "is_reserved": 0, "rental_uris": {"ios": "https://dc.lft.to/lastmile_qr_scan", "android": "https://dc.lft.to/lastmile_qr_scan"}, "fusion_lon": 0.0, "type": "electric_scooter", "bike_id": "4342962b28c2e263f911cfd2a3d07297", "name": "4342962b28c2e263f911cfd2a3d07297"}, {"lon": -76.94571366666666, "is_disabled": 0, "lat": 38.8662295, "fusion_lat": 0.0, "is_reserved": 0, "rental_uris": {"ios": "https://dc.lft.to/lastmile_qr_scan", "android": "https://dc.lft.to/lastmile_qr_scan"}, "fusion_lon": 0.0, "type": "electric_bike", "bike_id": "0cfd8fd9748624a95fa7091dd962e2b8", "name": "0cfd8fd9748624a95fa7091dd962e2b8"}, {"lon": -77.006761, "is_disabled": 0, "lat": 38.8716485, "fusion_lat": 0.0, "is_reserved": 0, "rental_uris": {"ios": "https://dc.lft.to/lastmile_qr_scan", "android": "https://dc.lft.to/lastmile_qr_scan"}, "fusion_lon": 0.0, "type": "electric_scooter", "bike_id": "44e1300f3fe090f6155508fb2aa4fb6a", "name": "44e1300f3fe090f6155508fb2aa4fb6a"}, {"lon": -76.948928, "is_disabled": 0, "lat": 38.89531383333333, "fusion_lat": 0.0, "is_reserved": 0, "rental_uris": {"ios": "https://dc.lft.to/lastmile_qr_scan", "android": "https://dc.lft.to/lastmile_qr_scan"}, "fusion_lon": 0.0, "type": "electric_scooter", "bike_id": "af6a88e0ba6b782eca38014874b3278b", "name": "af6a88e0ba6b782eca38014874b3278b"}, {"lon": -77.02402583333334, "is_disabled": 0, "lat": 38.915462, "fusion_lat": 0.0, "is_reserved": 0, "rental_uris": {"ios": "https://dc.lft.to/lastmile_qr_scan", "android": "https://dc.lft.to/lastmile_qr_scan"}, "fusion_lon": 0.0, "type": "electric_scooter", "bike_id": "c14adaea0ecf6e415b2329a855d832ce", "name": "c14adaea0ecf6e415b2329a855d832ce"}, {"lon": -77.03250666666666, "is_disabled": 0, "lat": 38.939627, "fusion_lat": 0.0, "is_reserved": 0, "rental_uris": {"ios": "https://dc.lft.to/lastmile_qr_scan", "android": "https://dc.lft.to/lastmile_qr_scan"}, "fusion_lon": 0.0, "type": "electric_scooter", "bike_id": "20f22995e5de7a978d436ecba87668bb", "name": "20f22995e5de7a978d436ecba87668bb"}, {"lon": -77.0066255, "is_disabled": 0, "lat": 38.871512333333335, "fusion_lat": 0.0, "is_reserved": 0, "rental_uris": {"ios": "https://dc.lft.to/lastmile_qr_scan", "android": "https://dc.lft.to/lastmile_qr_scan"}, "fusion_lon": 0.0, "type": "electric_scooter", "bike_id": "cd66b5a1868044adf7e68e9356cba8f7", "name": "cd66b5a1868044adf7e68e9356cba8f7"}, {"lon": -76.94634066666667, "is_disabled": 0, "lat": 38.89835516666667, "fusion_lat": 0.0, "is_reserved": 0, "rental_uris": {"ios": "https://dc.lft.to/lastmile_qr_scan", "android": "https://dc.lft.to/lastmile_qr_scan"}, "fusion_lon": 0.0, "type": "electric_scooter", "bike_id": "6c611a625f03dcba0af622156af29db0", "name": "6c611a625f03dcba0af622156af29db0"}, {"lon": -77.017849, "is_disabled": 0, "lat": 38.915024833333334, "fusion_lat": 0.0, "is_reserved": 0, "rental_uris": {"ios": "https://dc.lft.to/lastmile_qr_scan", "android": "https://dc.lft.to/lastmile_qr_scan"}, "fusion_lon": 0.0, "type": "electric_scooter", "bike_id": "22f84880acae18d014421416149cf0c1", "name": "22f84880acae18d014421416149cf0c1"}, {"lon": -77.00048283333334, "is_disabled": 0, "lat": 38.923252166666664, "fusion_lat": 0.0, "is_reserved": 0, "rental_uris": {"ios": "https://dc.lft.to/lastmile_qr_scan", "android": "https://dc.lft.to/lastmile_qr_scan"}, "fusion_lon": 0.0, "type": "electric_scooter", "bike_id": "6a1d59b789713626fe1bb9b8b22d2670", "name": "6a1d59b789713626fe1bb9b8b22d2670"}, {"lon": -76.99776983333334, "is_disabled": 0, "lat": 38.90895916666667, "fusion_lat": 0.0, "is_reserved": 0, "rental_uris": {"ios": "https://dc.lft.to/lastmile_qr_scan", "android": "https://dc.lft.to/lastmile_qr_scan"}, "fusion_lon": 0.0, "type": "electric_scooter", "bike_id": "00b59494ca6c083980de9cebd9dd76b9", "name": "00b59494ca6c083980de9cebd9dd76b9"}, {"lon": -77.02192416666666, "is_disabled": 0, "lat": 38.904126166666664, "fusion_lat": 0.0, "is_reserved": 0, "rental_uris": {"ios": "https://dc.lft.to/lastmile_qr_scan", "android": "https://dc.lft.to/lastmile_qr_scan"}, "fusion_lon": 0.0, "type": "electric_scooter", "bike_id": "d6998638f0e609728d96273d25f15c47", "name": "d6998638f0e609728d96273d25f15c47"}, {"lon": -77.02469266666667, "is_disabled": 0, "lat": 38.938528833333336, "fusion_lat": 0.0, "is_reserved": 0, "rental_uris": {"ios": "https://dc.lft.to/lastmile_qr_scan", "android": "https://dc.lft.to/lastmile_qr_scan"}, "fusion_lon": 0.0, "type": "electric_scooter", "bike_id": "2ed5b2870adee88a74fa6e4e965f15af", "name": "2ed5b2870adee88a74fa6e4e965f15af"}, {"lon": -77.021171, "is_disabled": 0, "lat": 38.91411266666667, "fusion_lat": 0.0, "is_reserved": 0, "rental_uris": {"ios": "https://dc.lft.to/lastmile_qr_scan", "android": "https://dc.lft.to/lastmile_qr_scan"}, "fusion_lon": 0.0, "type": "electric_scooter", "bike_id": "5a82e953daeee83922dc50505bd9af2f", "name": "5a82e953daeee83922dc50505bd9af2f"}, {"lon": -77.023851, "is_disabled": 0, "lat": 38.920459, "fusion_lat": 0.0, "is_reserved": 0, "rental_uris": {"ios": "https://dc.lft.to/lastmile_qr_scan", "android": "https://dc.lft.to/lastmile_qr_scan"}, "fusion_lon": 0.0, "type": "electric_scooter", "bike_id": "7099cf386d5b55982920ad7f5f59b02e", "name": "7099cf386d5b55982920ad7f5f59b02e"}, {"lon": -76.94935133333334, "is_disabled": 0, "lat": 38.893612166666664, "fusion_lat": 0.0, "is_reserved": 0, "rental_uris": {"ios": "https://dc.lft.to/lastmile_qr_scan", "android": "https://dc.lft.to/lastmile_qr_scan"}, "fusion_lon": 0.0, "type": "electric_scooter", "bike_id": "968ad530554a93f9ae7ff7325eb791b3", "name": "968ad530554a93f9ae7ff7325eb791b3"}, {"lon": -77.02965683333333, "is_disabled": 0, "lat": 38.90154166666667, "fusion_lat": 0.0, "is_reserved": 0, "rental_uris": {"ios": "https://dc.lft.to/lastmile_qr_scan", "android": "https://dc.lft.to/lastmile_qr_scan"}, "fusion_lon": 0.0, "type": "electric_scooter", "bike_id": "a70e9a4266b11e694cac2eadd74857aa", "name": "a70e9a4266b11e694cac2eadd74857aa"}, {"lon": -77.04870083333333, "is_disabled": 0, "lat": 38.90973916666667, "fusion_lat": 0.0, "is_reserved": 0, "rental_uris": {"ios": "https://dc.lft.to/lastmile_qr_scan", "android": "https://dc.lft.to/lastmile_qr_scan"}, "fusion_lon": 0.0, "type": "electric_scooter", "bike_id": "4453d6d6c47320a37ab3e1fa3cb95d60", "name": "4453d6d6c47320a37ab3e1fa3cb95d60"}, {"lon": -77.05042516666667, "is_disabled": 0, "lat": 38.923459333333334, "fusion_lat": 0.0, "is_reserved": 0, "rental_uris": {"ios": "https://dc.lft.to/lastmile_qr_scan", "android": "https://dc.lft.to/lastmile_qr_scan"}, "fusion_lon": 0.0, "type": "electric_scooter", "bike_id": "da0c4fa6a78458375266cac965271a55", "name": "da0c4fa6a78458375266cac965271a55"}, {"lon": -77.032582, "is_disabled": 0, "lat": 38.93970066666667, "fusion_lat": 0.0, "is_reserved": 0, "rental_uris": {"ios": "https://dc.lft.to/lastmile_qr_scan", "android": "https://dc.lft.to/lastmile_qr_scan"}, "fusion_lon": 0.0, "type": "electric_scooter", "bike_id": "6061f901e22ebcd5eeee3fd63741bb61", "name": "6061f901e22ebcd5eeee3fd63741bb61"}, {"lon": -77.10859933333333, "is_disabled": 0, "lat": 38.845993666666665, "fusion_lat": 0.0, "is_reserved": 0, "rental_uris": {"ios": "https://dc.lft.to/lastmile_qr_scan", "android": "https://dc.lft.to/lastmile_qr_scan"}, "fusion_lon": 0.0, "type": "electric_bike", "bike_id": "7acc05257aeef7707547f0bba29387d5", "name": "7acc05257aeef7707547f0bba29387d5"}, {"lon": -76.99128716666667, "is_disabled": 0, "lat": 38.84643166666667, "fusion_lat": 0.0, "is_reserved": 0, "rental_uris": {"ios": "https://dc.lft.to/lastmile_qr_scan", "android": "https://dc.lft.to/lastmile_qr_scan"}, "fusion_lon": 0.0, "type": "electric_scooter", "bike_id": "900871962d27c6eb5e180d2f05024777", "name": "900871962d27c6eb5e180d2f05024777"}, {"lon": -76.99498616666666, "is_disabled": 0, "lat": 38.8216545, "fusion_lat": 0.0, "is_reserved": 0, "rental_uris": {"ios": "https://dc.lft.to/lastmile_qr_scan", "android": "https://dc.lft.to/lastmile_qr_scan"}, "fusion_lon": 0.0, "type": "electric_bike", "bike_id": "cd56eefd875e16c2e45c27277d490cfe", "name": "cd56eefd875e16c2e45c27277d490cfe"}, {"lon": -76.99750283333333, "is_disabled": 0, "lat": 38.877391833333334, "fusion_lat": 0.0, "is_reserved": 0, "rental_uris": {"ios": "https://dc.lft.to/lastmile_qr_scan", "android": "https://dc.lft.to/lastmile_qr_scan"}, "fusion_lon": 0.0, "type": "electric_scooter", "bike_id": "ab1eef4827891933dd4bfe7742d3dd9e", "name": "ab1eef4827891933dd4bfe7742d3dd9e"}, {"lon": -77.03027216666666, "is_disabled": 0, "lat": 38.9225005, "fusion_lat": 0.0, "is_reserved": 0, "rental_uris": {"ios": "https://dc.lft.to/lastmile_qr_scan", "android": "https://dc.lft.to/lastmile_qr_scan"}, "fusion_lon": 0.0, "type": "electric_scooter", "bike_id": "e8e84e7c15081ab8c2b8a3dfcb235569", "name": "e8e84e7c15081ab8c2b8a3dfcb235569"}, {"lon": -77.02356266666666, "is_disabled": 0, "lat": 38.899871166666664, "fusion_lat": 0.0, "is_reserved": 0, "rental_uris": {"ios": "https://dc.lft.to/lastmile_qr_scan", "android": "https://dc.lft.to/lastmile_qr_scan"}, "fusion_lon": 0.0, "type": "electric_scooter", "bike_id": "182928e133dcc177dec8f6691261bcd7", "name": "182928e133dcc177dec8f6691261bcd7"}, {"lon": -77.00344, "is_disabled": 0, "lat": 38.9028685, "fusion_lat": 0.0, "is_reserved": 0, "rental_uris": {"ios": "https://dc.lft.to/lastmile_qr_scan", "android": "https://dc.lft.to/lastmile_qr_scan"}, "fusion_lon": 0.0, "type": "electric_scooter", "bike_id": "a28e35fdb54df2f6f18ab2e11365934c", "name": "a28e35fdb54df2f6f18ab2e11365934c"}, {"lon": -77.0417255, "is_disabled": 0, "lat": 38.91126716666667, "fusion_lat": 0.0, "is_reserved": 0, "rental_uris": {"ios": "https://dc.lft.to/lastmile_qr_scan", "android": "https://dc.lft.to/lastmile_qr_scan"}, "fusion_lon": 0.0, "type": "electric_scooter", "bike_id": "4c530043ec59253dd42494c9f0137b55", "name": "4c530043ec59253dd42494c9f0137b55"}, {"lon": -77.0477095, "is_disabled": 0, "lat": 38.917573833333336, "fusion_lat": 0.0, "is_reserved": 0, "rental_uris": {"ios": "https://dc.lft.to/lastmile_qr_scan", "android": "https://dc.lft.to/lastmile_qr_scan"}, "fusion_lon": 0.0, "type": "electric_scooter", "bike_id": "eaedd04febe25dd43dc59947b33b2971", "name": "eaedd04febe25dd43dc59947b33b2971"}, {"lon": -77.04179683333334, "is_disabled": 0, "lat": 38.92047516666667, "fusion_lat": 0.0, "is_reserved": 0, "rental_uris": {"ios": "https://dc.lft.to/lastmile_qr_scan", "android": "https://dc.lft.to/lastmile_qr_scan"}, "fusion_lon": 0.0, "type": "electric_scooter", "bike_id": "caa86f18deb606131e90e53a492e629c", "name": "caa86f18deb606131e90e53a492e629c"}, {"lon": -77.03422383333333, "is_disabled": 0, "lat": 38.907993, "fusion_lat": 0.0, "is_reserved": 0, "rental_uris": {"ios": "https://dc.lft.to/lastmile_qr_scan", "android": "https://dc.lft.to/lastmile_qr_scan"}, "fusion_lon": 0.0, "type": "electric_scooter", "bike_id": "ac331a544876219a6b399cb3755f3f4d", "name": "ac331a544876219a6b399cb3755f3f4d"}, {"lon": -77.0383105, "is_disabled": 0, "lat": 38.90772483333333, "fusion_lat": 0.0, "is_reserved": 0, "rental_uris": {"ios": "https://dc.lft.to/lastmile_qr_scan", "android": "https://dc.lft.to/lastmile_qr_scan"}, "fusion_lon": 0.0, "type": "electric_scooter", "bike_id": "560e8830267a2dcd45c7ca277f8215f5", "name": "560e8830267a2dcd45c7ca277f8215f5"}, {"lon": -76.99866266666666, "is_disabled": 0, "lat": 38.844264333333335, "fusion_lat": 0.0, "is_reserved": 0, "rental_uris": {"ios": "https://dc.lft.to/lastmile_qr_scan", "android": "https://dc.lft.to/lastmile_qr_scan"}, "fusion_lon": 0.0, "type": "electric_scooter", "bike_id": "4275b03c4879bafd155ce5b0f0b74995", "name": "4275b03c4879bafd155ce5b0f0b74995"}, {"lon": -77.001979, "is_disabled": 0, "lat": 38.96502266666667, "fusion_lat": 0.0, "is_reserved": 0, "rental_uris": {"ios": "https://dc.lft.to/lastmile_qr_scan", "android": "https://dc.lft.to/lastmile_qr_scan"}, "fusion_lon": 0.0, "type": "electric_scooter", "bike_id": "6b88255ed9ab7f0ab3394be13e666ae9", "name": "6b88255ed9ab7f0ab3394be13e666ae9"}, {"lon": -77.04430966666666, "is_disabled": 0, "lat": 38.90958333333333, "fusion_lat": 0.0, "is_reserved": 0, "rental_uris": {"ios": "https://dc.lft.to/lastmile_qr_scan", "android": "https://dc.lft.to/lastmile_qr_scan"}, "fusion_lon": 0.0, "type": "electric_scooter", "bike_id": "7cee4b3f93ddb74d65b05182f54eebfe", "name": "7cee4b3f93ddb74d65b05182f54eebfe"}, {"lon": -77.00196416666667, "is_disabled": 0, "lat": 38.902313666666664, "fusion_lat": 0.0, "is_reserved": 0, "rental_uris": {"ios": "https://dc.lft.to/lastmile_qr_scan", "android": "https://dc.lft.to/lastmile_qr_scan"}, "fusion_lon": 0.0, "type": "electric_scooter", "bike_id": "67d7b855c3d3d3b00fbb3d896c91eebd", "name": "67d7b855c3d3d3b00fbb3d896c91eebd"}, {"lon": -77.0197465, "is_disabled": 0, "lat": 38.876808, "fusion_lat": 0.0, "is_reserved": 0, "rental_uris": {"ios": "https://dc.lft.to/lastmile_qr_scan", "android": "https://dc.lft.to/lastmile_qr_scan"}, "fusion_lon": 0.0, "type": "electric_scooter", "bike_id": "0239bdb72a118293a5337595bdf0dca6", "name": "0239bdb72a118293a5337595bdf0dca6"}, {"lon": -77.029781, "is_disabled": 0, "lat": 38.986942666666664, "fusion_lat": 0.0, "is_reserved": 0, "rental_uris": {"ios": "https://dc.lft.to/lastmile_qr_scan", "android": "https://dc.lft.to/lastmile_qr_scan"}, "fusion_lon": 0.0, "type": "electric_scooter", "bike_id": "bc2b395ac6de553a7050206f770e87c0", "name": "bc2b395ac6de553a7050206f770e87c0"}, {"lon": -77.03191583333333, "is_disabled": 0, "lat": 38.9132735, "fusion_lat": 0.0, "is_reserved": 0, "rental_uris": {"ios": "https://dc.lft.to/lastmile_qr_scan", "android": "https://dc.lft.to/lastmile_qr_scan"}, "fusion_lon": 0.0, "type": "electric_scooter", "bike_id": "46d1e81d551716a394e1cedbbc338698", "name": "46d1e81d551716a394e1cedbbc338698"}, {"lon": -77.03176933333333, "is_disabled": 0, "lat": 38.90885733333333, "fusion_lat": 0.0, "is_reserved": 0, "rental_uris": {"ios": "https://dc.lft.to/lastmile_qr_scan", "android": "https://dc.lft.to/lastmile_qr_scan"}, "fusion_lon": 0.0, "type": "electric_scooter", "bike_id": "1a8ed00a4395eced2769b388b4b05570", "name": "1a8ed00a4395eced2769b388b4b05570"}, {"lon": -76.99994633333333, "is_disabled": 0, "lat": 38.9640565, "fusion_lat": 0.0, "is_reserved": 0, "rental_uris": {"ios": "https://dc.lft.to/lastmile_qr_scan", "android": "https://dc.lft.to/lastmile_qr_scan"}, "fusion_lon": 0.0, "type": "electric_bike", "bike_id": "3909c33a6a7966d3cb65b2c2f961a1dc", "name": "3909c33a6a7966d3cb65b2c2f961a1dc"}, {"lon": -76.9954685, "is_disabled": 0, "lat": 38.90027716666667, "fusion_lat": 0.0, "is_reserved": 0, "rental_uris": {"ios": "https://dc.lft.to/lastmile_qr_scan", "android": "https://dc.lft.to/lastmile_qr_scan"}, "fusion_lon": 0.0, "type": "electric_scooter", "bike_id": "d0f49df2d9037751ce1e121520bda378", "name": "d0f49df2d9037751ce1e121520bda378"}, {"lon": -77.04870216666667, "is_disabled": 0, "lat": 38.9040785, "fusion_lat": 0.0, "is_reserved": 0, "rental_uris": {"ios": "https://dc.lft.to/lastmile_qr_scan", "android": "https://dc.lft.to/lastmile_qr_scan"}, "fusion_lon": 0.0, "type": "electric_scooter", "bike_id": "f0567da8888198a3d35d285cdc9a05ce", "name": "f0567da8888198a3d35d285cdc9a05ce"}, {"lon": -77.04682666666666, "is_disabled": 0, "lat": 38.89552283333333, "fusion_lat": 0.0, "is_reserved": 0, "rental_uris": {"ios": "https://dc.lft.to/lastmile_qr_scan", "android": "https://dc.lft.to/lastmile_qr_scan"}, "fusion_lon": 0.0, "type": "electric_scooter", "bike_id": "d26ef9a4727beea5f1263035163a390a", "name": "d26ef9a4727beea5f1263035163a390a"}, {"lon": -77.06298433333333, "is_disabled": 0, "lat": 38.90399933333333, "fusion_lat": 0.0, "is_reserved": 0, "rental_uris": {"ios": "https://dc.lft.to/lastmile_qr_scan", "android": "https://dc.lft.to/lastmile_qr_scan"}, "fusion_lon": 0.0, "type": "electric_scooter", "bike_id": "eaca763a3a778790fa4548ae8f7b29cc", "name": "eaca763a3a778790fa4548ae8f7b29cc"}, {"lon": -77.03879183333333, "is_disabled": 0, "lat": 38.93253133333333, "fusion_lat": 0.0, "is_reserved": 0, "rental_uris": {"ios": "https://dc.lft.to/lastmile_qr_scan", "android": "https://dc.lft.to/lastmile_qr_scan"}, "fusion_lon": 0.0, "type": "electric_scooter", "bike_id": "3c588c1a369bea8cdfffb4ef08da0511", "name": "3c588c1a369bea8cdfffb4ef08da0511"}, {"lon": -77.02797766666667, "is_disabled": 0, "lat": 38.8990935, "fusion_lat": 0.0, "is_reserved": 0, "rental_uris": {"ios": "https://dc.lft.to/lastmile_qr_scan", "android": "https://dc.lft.to/lastmile_qr_scan"}, "fusion_lon": 0.0, "type": "electric_scooter", "bike_id": "38ef77eb0e1cd7ea08dbff121c838d2f", "name": "38ef77eb0e1cd7ea08dbff121c838d2f"}, {"lon": -77.048158, "is_disabled": 0, "lat": 38.909581833333334, "fusion_lat": 0.0, "is_reserved": 0, "rental_uris": {"ios": "https://dc.lft.to/lastmile_qr_scan", "android": "https://dc.lft.to/lastmile_qr_scan"}, "fusion_lon": 0.0, "type": "electric_scooter", "bike_id": "283a1bd94ca21c3d7002b6e0cf953554", "name": "283a1bd94ca21c3d7002b6e0cf953554"}, {"lon": -77.037331, "is_disabled": 0, "lat": 38.920237, "fusion_lat": 0.0, "is_reserved": 0, "rental_uris": {"ios": "https://dc.lft.to/lastmile_qr_scan", "android": "https://dc.lft.to/lastmile_qr_scan"}, "fusion_lon": 0.0, "type": "electric_scooter", "bike_id": "ab5515c5f420a0cf3efc332bada78e47", "name": "ab5515c5f420a0cf3efc332bada78e47"}, {"lon": -77.04338683333333, "is_disabled": 0, "lat": 38.907313, "fusion_lat": 0.0, "is_reserved": 0, "rental_uris": {"ios": "https://dc.lft.to/lastmile_qr_scan", "android": "https://dc.lft.to/lastmile_qr_scan"}, "fusion_lon": 0.0, "type": "electric_scooter", "bike_id": "0fac855cc3d87d99d776a7a095521c4d", "name": "0fac855cc3d87d99d776a7a095521c4d"}, {"lon": -77.0349755, "is_disabled": 0, "lat": 38.917063666666664, "fusion_lat": 0.0, "is_reserved": 0, "rental_uris": {"ios": "https://dc.lft.to/lastmile_qr_scan", "android": "https://dc.lft.to/lastmile_qr_scan"}, "fusion_lon": 0.0, "type": "electric_scooter", "bike_id": "0d7442e3d40477bd5dc701348123fc41", "name": "0d7442e3d40477bd5dc701348123fc41"}, {"lon": -77.0391585, "is_disabled": 0, "lat": 38.917026166666666, "fusion_lat": 0.0, "is_reserved": 0, "rental_uris": {"ios": "https://dc.lft.to/lastmile_qr_scan", "android": "https://dc.lft.to/lastmile_qr_scan"}, "fusion_lon": 0.0, "type": "electric_scooter", "bike_id": "6bd02c151dd9695e80e40626f744d5df", "name": "6bd02c151dd9695e80e40626f744d5df"}, {"lon": -77.036615, "is_disabled": 0, "lat": 38.92258616666667, "fusion_lat": 0.0, "is_reserved": 0, "rental_uris": {"ios": "https://dc.lft.to/lastmile_qr_scan", "android": "https://dc.lft.to/lastmile_qr_scan"}, "fusion_lon": 0.0, "type": "electric_scooter", "bike_id": "a66a774b2f297f5148281f9d4cc89d1e", "name": "a66a774b2f297f5148281f9d4cc89d1e"}, {"lon": -77.0231335, "is_disabled": 0, "lat": 38.90953966666667, "fusion_lat": 0.0, "is_reserved": 0, "rental_uris": {"ios": "https://dc.lft.to/lastmile_qr_scan", "android": "https://dc.lft.to/lastmile_qr_scan"}, "fusion_lon": 0.0, "type": "electric_scooter", "bike_id": "4269f977a6ee85fdaab8f67ff20b0c32", "name": "4269f977a6ee85fdaab8f67ff20b0c32"}, {"lon": -77.04164183333333, "is_disabled": 0, "lat": 38.911268166666666, "fusion_lat": 0.0, "is_reserved": 0, "rental_uris": {"ios": "https://dc.lft.to/lastmile_qr_scan", "android": "https://dc.lft.to/lastmile_qr_scan"}, "fusion_lon": 0.0, "type": "electric_scooter", "bike_id": "379b4831d74241fac06c4ef444300c1d", "name": "379b4831d74241fac06c4ef444300c1d"}, {"lon": -77.020074, "is_disabled": 0, "lat": 38.91405133333333, "fusion_lat": 0.0, "is_reserved": 0, "rental_uris": {"ios": "https://dc.lft.to/lastmile_qr_scan", "android": "https://dc.lft.to/lastmile_qr_scan"}, "fusion_lon": 0.0, "type": "electric_scooter", "bike_id": "8de4c36e10132bdd45c79118450c08aa", "name": "8de4c36e10132bdd45c79118450c08aa"}, {"lon": -77.02361966666666, "is_disabled": 0, "lat": 38.8961185, "fusion_lat": 0.0, "is_reserved": 0, "rental_uris": {"ios": "https://dc.lft.to/lastmile_qr_scan", "android": "https://dc.lft.to/lastmile_qr_scan"}, "fusion_lon": 0.0, "type": "electric_scooter", "bike_id": "9550caee82e1f1ddfe186b7a29d9dc38", "name": "9550caee82e1f1ddfe186b7a29d9dc38"}, {"lon": -77.00312733333334, "is_disabled": 0, "lat": 38.877263, "fusion_lat": 0.0, "is_reserved": 0, "rental_uris": {"ios": "https://dc.lft.to/lastmile_qr_scan", "android": "https://dc.lft.to/lastmile_qr_scan"}, "fusion_lon": 0.0, "type": "electric_scooter", "bike_id": "5bf2d99bae04a5455b945ecaec5906d5", "name": "5bf2d99bae04a5455b945ecaec5906d5"}, {"lon": -77.02486383333333, "is_disabled": 0, "lat": 38.941803166666666, "fusion_lat": 0.0, "is_reserved": 0, "rental_uris": {"ios": "https://dc.lft.to/lastmile_qr_scan", "android": "https://dc.lft.to/lastmile_qr_scan"}, "fusion_lon": 0.0, "type": "electric_scooter", "bike_id": "a185e07c00fc50aa726c0c406cedab14", "name": "a185e07c00fc50aa726c0c406cedab14"}, {"lon": -77.04019616666666, "is_disabled": 0, "lat": 38.9035825, "fusion_lat": 0.0, "is_reserved": 0, "rental_uris": {"ios": "https://dc.lft.to/lastmile_qr_scan", "android": "https://dc.lft.to/lastmile_qr_scan"}, "fusion_lon": 0.0, "type": "electric_scooter", "bike_id": "415b25d4bc6b61dd64b34779602fe8b4", "name": "415b25d4bc6b61dd64b34779602fe8b4"}, {"lon": -77.053285, "is_disabled": 0, "lat": 38.902697, "fusion_lat": 0.0, "is_reserved": 0, "rental_uris": {"ios": "https://dc.lft.to/lastmile_qr_scan", "android": "https://dc.lft.to/lastmile_qr_scan"}, "fusion_lon": 0.0, "type": "electric_scooter", "bike_id": "cad2f2e1ae60d000c3d551637deba6b3", "name": "cad2f2e1ae60d000c3d551637deba6b3"}, {"lon": -77.02236266666667, "is_disabled": 0, "lat": 38.92242733333333, "fusion_lat": 0.0, "is_reserved": 0, "rental_uris": {"ios": "https://dc.lft.to/lastmile_qr_scan", "android": "https://dc.lft.to/lastmile_qr_scan"}, "fusion_lon": 0.0, "type": "electric_scooter", "bike_id": "6d585bca0a5547d183541cb601b75b6a", "name": "6d585bca0a5547d183541cb601b75b6a"}, {"lon": -77.02309533333333, "is_disabled": 0, "lat": 38.9178095, "fusion_lat": 0.0, "is_reserved": 0, "rental_uris": {"ios": "https://dc.lft.to/lastmile_qr_scan", "android": "https://dc.lft.to/lastmile_qr_scan"}, "fusion_lon": 0.0, "type": "electric_scooter", "bike_id": "d38ea3af12749f22d9a1c8fc8baffea9", "name": "d38ea3af12749f22d9a1c8fc8baffea9"}, {"lon": -77.0507155, "is_disabled": 0, "lat": 38.92535933333333, "fusion_lat": 0.0, "is_reserved": 0, "rental_uris": {"ios": "https://dc.lft.to/lastmile_qr_scan", "android": "https://dc.lft.to/lastmile_qr_scan"}, "fusion_lon": 0.0, "type": "electric_scooter", "bike_id": "ff6b7fb1f16f17fcaf764bc65dfd181e", "name": "ff6b7fb1f16f17fcaf764bc65dfd181e"}, {"lon": -76.98573633333334, "is_disabled": 0, "lat": 38.866833166666666, "fusion_lat": 0.0, "is_reserved": 0, "rental_uris": {"ios": "https://dc.lft.to/lastmile_qr_scan", "android": "https://dc.lft.to/lastmile_qr_scan"}, "fusion_lon": 0.0, "type": "electric_scooter", "bike_id": "a98e5a3f580d8e33e1c12e175d73d57a", "name": "a98e5a3f580d8e33e1c12e175d73d57a"}, {"lon": -77.01311316666667, "is_disabled": 0, "lat": 38.90141216666667, "fusion_lat": 0.0, "is_reserved": 0, "rental_uris": {"ios": "https://dc.lft.to/lastmile_qr_scan", "android": "https://dc.lft.to/lastmile_qr_scan"}, "fusion_lon": 0.0, "type": "electric_scooter", "bike_id": "4c8ccb7ffca97de1da496d8fc86523fd", "name": "4c8ccb7ffca97de1da496d8fc86523fd"}, {"lon": -76.97976866666667, "is_disabled": 0, "lat": 38.8974305, "fusion_lat": 0.0, "is_reserved": 0, "rental_uris": {"ios": "https://dc.lft.to/lastmile_qr_scan", "android": "https://dc.lft.to/lastmile_qr_scan"}, "fusion_lon": 0.0, "type": "electric_scooter", "bike_id": "669e2766f1b9e67fed065ffe14b061ed", "name": "669e2766f1b9e67fed065ffe14b061ed"}, {"lon": -77.03185466666666, "is_disabled": 0, "lat": 38.90698416666667, "fusion_lat": 0.0, "is_reserved": 0, "rental_uris": {"ios": "https://dc.lft.to/lastmile_qr_scan", "android": "https://dc.lft.to/lastmile_qr_scan"}, "fusion_lon": 0.0, "type": "electric_scooter", "bike_id": "92d8a1b2dec09f8cc64159cb0ba77553", "name": "92d8a1b2dec09f8cc64159cb0ba77553"}, {"lon": -76.98597883333333, "is_disabled": 0, "lat": 38.9036765, "fusion_lat": 0.0, "is_reserved": 0, "rental_uris": {"ios": "https://dc.lft.to/lastmile_qr_scan", "android": "https://dc.lft.to/lastmile_qr_scan"}, "fusion_lon": 0.0, "type": "electric_scooter", "bike_id": "417c2d1437d12fce4884ccc1f846a972", "name": "417c2d1437d12fce4884ccc1f846a972"}, {"lon": -77.0339665, "is_disabled": 0, "lat": 38.926331833333336, "fusion_lat": 0.0, "is_reserved": 0, "rental_uris": {"ios": "https://dc.lft.to/lastmile_qr_scan", "android": "https://dc.lft.to/lastmile_qr_scan"}, "fusion_lon": 0.0, "type": "electric_scooter", "bike_id": "9b9e2b8b40a399fd49b137ab38971317", "name": "9b9e2b8b40a399fd49b137ab38971317"}, {"lon": -77.02681316666667, "is_disabled": 0, "lat": 38.904505666666665, "fusion_lat": 0.0, "is_reserved": 0, "rental_uris": {"ios": "https://dc.lft.to/lastmile_qr_scan", "android": "https://dc.lft.to/lastmile_qr_scan"}, "fusion_lon": 0.0, "type": "electric_scooter", "bike_id": "94a202cf13bc620502de9b0eb9e3795f", "name": "94a202cf13bc620502de9b0eb9e3795f"}, {"lon": -77.02386183333333, "is_disabled": 0, "lat": 38.98969266666667, "fusion_lat": 0.0, "is_reserved": 0, "rental_uris": {"ios": "https://dc.lft.to/lastmile_qr_scan", "android": "https://dc.lft.to/lastmile_qr_scan"}, "fusion_lon": 0.0, "type": "electric_bike", "bike_id": "89a21bfcb3ae2244946408af759af677", "name": "89a21bfcb3ae2244946408af759af677"}, {"lon": -77.02707266666667, "is_disabled": 0, "lat": 38.908729, "fusion_lat": 0.0, "is_reserved": 0, "rental_uris": {"ios": "https://dc.lft.to/lastmile_qr_scan", "android": "https://dc.lft.to/lastmile_qr_scan"}, "fusion_lon": 0.0, "type": "electric_scooter", "bike_id": "f26ca01281f676a66068c7f7ffde3339", "name": "f26ca01281f676a66068c7f7ffde3339"}, {"lon": -77.04817316666667, "is_disabled": 0, "lat": 38.9162115, "fusion_lat": 0.0, "is_reserved": 0, "rental_uris": {"ios": "https://dc.lft.to/lastmile_qr_scan", "android": "https://dc.lft.to/lastmile_qr_scan"}, "fusion_lon": 0.0, "type": "electric_scooter", "bike_id": "7823a2f1fda7d9cf3e71b77691a1d93e", "name": "7823a2f1fda7d9cf3e71b77691a1d93e"}, {"lon": -77.0297895, "is_disabled": 0, "lat": 38.90716616666667, "fusion_lat": 0.0, "is_reserved": 0, "rental_uris": {"ios": "https://dc.lft.to/lastmile_qr_scan", "android": "https://dc.lft.to/lastmile_qr_scan"}, "fusion_lon": 0.0, "type": "electric_scooter", "bike_id": "f82af7397f9d3dd392e50332aead3447", "name": "f82af7397f9d3dd392e50332aead3447"}, {"lon": -77.03519883333334, "is_disabled": 0, "lat": 38.93588416666667, "fusion_lat": 0.0, "is_reserved": 0, "rental_uris": {"ios": "https://dc.lft.to/lastmile_qr_scan", "android": "https://dc.lft.to/lastmile_qr_scan"}, "fusion_lon": 0.0, "type": "electric_scooter", "bike_id": "a710897383dac0d9d744b5d8abf5a924", "name": "a710897383dac0d9d744b5d8abf5a924"}, {"lon": -77.0215075, "is_disabled": 0, "lat": 38.898946, "fusion_lat": 0.0, "is_reserved": 0, "rental_uris": {"ios": "https://dc.lft.to/lastmile_qr_scan", "android": "https://dc.lft.to/lastmile_qr_scan"}, "fusion_lon": 0.0, "type": "electric_scooter", "bike_id": "97298facdeb73212bcc27e64c0613cce", "name": "97298facdeb73212bcc27e64c0613cce"}, {"lon": -77.13471383333334, "is_disabled": 0, "lat": 38.85358433333333, "fusion_lat": 0.0, "is_reserved": 0, "rental_uris": {"ios": "https://dc.lft.to/lastmile_qr_scan", "android": "https://dc.lft.to/lastmile_qr_scan"}, "fusion_lon": 0.0, "type": "electric_bike", "bike_id": "fbf6ea02cc1f0f0c4cf9eca8585eb36d", "name": "fbf6ea02cc1f0f0c4cf9eca8585eb36d"}, {"lon": -77.0727125, "is_disabled": 0, "lat": 38.9347745, "fusion_lat": 0.0, "is_reserved": 0, "rental_uris": {"ios": "https://dc.lft.to/lastmile_qr_scan", "android": "https://dc.lft.to/lastmile_qr_scan"}, "fusion_lon": 0.0, "type": "electric_scooter", "bike_id": "e455a5b591afac52aaa4715146f2faa0", "name": "e455a5b591afac52aaa4715146f2faa0"}, {"lon": -77.02132883333333, "is_disabled": 0, "lat": 38.915488333333336, "fusion_lat": 0.0, "is_reserved": 0, "rental_uris": {"ios": "https://dc.lft.to/lastmile_qr_scan", "android": "https://dc.lft.to/lastmile_qr_scan"}, "fusion_lon": 0.0, "type": "electric_scooter", "bike_id": "c9cb40fcfb482b684294de1b843aed46", "name": "c9cb40fcfb482b684294de1b843aed46"}, {"lon": -77.0515405, "is_disabled": 0, "lat": 38.92378, "fusion_lat": 0.0, "is_reserved": 0, "rental_uris": {"ios": "https://dc.lft.to/lastmile_qr_scan", "android": "https://dc.lft.to/lastmile_qr_scan"}, "fusion_lon": 0.0, "type": "electric_scooter", "bike_id": "fba0106e7427d811928af50842a2ffeb", "name": "fba0106e7427d811928af50842a2ffeb"}, {"lon": -76.98683916666667, "is_disabled": 0, "lat": 38.8775375, "fusion_lat": 0.0, "is_reserved": 0, "rental_uris": {"ios": "https://dc.lft.to/lastmile_qr_scan", "android": "https://dc.lft.to/lastmile_qr_scan"}, "fusion_lon": 0.0, "type": "electric_scooter", "bike_id": "028ec0bfea0169e79e0b3c71c0299363", "name": "028ec0bfea0169e79e0b3c71c0299363"}, {"lon": -77.02738816666667, "is_disabled": 0, "lat": 38.932146833333334, "fusion_lat": 0.0, "is_reserved": 0, "rental_uris": {"ios": "https://dc.lft.to/lastmile_qr_scan", "android": "https://dc.lft.to/lastmile_qr_scan"}, "fusion_lon": 0.0, "type": "electric_scooter", "bike_id": "b1c0b2710ee91533429a09436895ce0b", "name": "b1c0b2710ee91533429a09436895ce0b"}, {"lon": -77.01210633333334, "is_disabled": 0, "lat": 38.90617533333333, "fusion_lat": 0.0, "is_reserved": 0, "rental_uris": {"ios": "https://dc.lft.to/lastmile_qr_scan", "android": "https://dc.lft.to/lastmile_qr_scan"}, "fusion_lon": 0.0, "type": "electric_scooter", "bike_id": "7609281b2aa06da79b39a30cfce5578e", "name": "7609281b2aa06da79b39a30cfce5578e"}, {"lon": -77.03361083333333, "is_disabled": 0, "lat": 38.921442166666665, "fusion_lat": 0.0, "is_reserved": 0, "rental_uris": {"ios": "https://dc.lft.to/lastmile_qr_scan", "android": "https://dc.lft.to/lastmile_qr_scan"}, "fusion_lon": 0.0, "type": "electric_scooter", "bike_id": "75c6ef6456a155ea5579b6aa28e5cc13", "name": "75c6ef6456a155ea5579b6aa28e5cc13"}, {"lon": -77.03412083333333, "is_disabled": 0, "lat": 38.909554166666666, "fusion_lat": 0.0, "is_reserved": 0, "rental_uris": {"ios": "https://dc.lft.to/lastmile_qr_scan", "android": "https://dc.lft.to/lastmile_qr_scan"}, "fusion_lon": 0.0, "type": "electric_scooter", "bike_id": "63ad89d373ab09b8e131ade0d0df6475", "name": "63ad89d373ab09b8e131ade0d0df6475"}, {"lon": -77.04512216666667, "is_disabled": 0, "lat": 38.923115333333335, "fusion_lat": 0.0, "is_reserved": 0, "rental_uris": {"ios": "https://dc.lft.to/lastmile_qr_scan", "android": "https://dc.lft.to/lastmile_qr_scan"}, "fusion_lon": 0.0, "type": "electric_scooter", "bike_id": "535412700e0664c1a864fe147cc12958", "name": "535412700e0664c1a864fe147cc12958"}, {"lon": -77.02770366666667, "is_disabled": 0, "lat": 38.9286125, "fusion_lat": 0.0, "is_reserved": 0, "rental_uris": {"ios": "https://dc.lft.to/lastmile_qr_scan", "android": "https://dc.lft.to/lastmile_qr_scan"}, "fusion_lon": 0.0, "type": "electric_scooter", "bike_id": "c38fad440f937f8c0d13a8a5a3574493", "name": "c38fad440f937f8c0d13a8a5a3574493"}, {"lon": -76.95661766666667, "is_disabled": 0, "lat": 38.8846455, "fusion_lat": 0.0, "is_reserved": 0, "rental_uris": {"ios": "https://dc.lft.to/lastmile_qr_scan", "android": "https://dc.lft.to/lastmile_qr_scan"}, "fusion_lon": 0.0, "type": "electric_bike", "bike_id": "020c8437b3aa3e79029c347b56c0296f", "name": "020c8437b3aa3e79029c347b56c0296f"}, {"lon": -77.02409933333334, "is_disabled": 0, "lat": 38.914206, "fusion_lat": 0.0, "is_reserved": 0, "rental_uris": {"ios": "https://dc.lft.to/lastmile_qr_scan", "android": "https://dc.lft.to/lastmile_qr_scan"}, "fusion_lon": 0.0, "type": "electric_scooter", "bike_id": "b9cffbdcca298d0e8c8ebeab8ccd7b23", "name": "b9cffbdcca298d0e8c8ebeab8ccd7b23"}, {"lon": -77.02297233333333, "is_disabled": 0, "lat": 38.92742116666667, "fusion_lat": 0.0, "is_reserved": 0, "rental_uris": {"ios": "https://dc.lft.to/lastmile_qr_scan", "android": "https://dc.lft.to/lastmile_qr_scan"}, "fusion_lon": 0.0, "type": "electric_scooter", "bike_id": "40780891057f216f7278b6198d3d31d1", "name": "40780891057f216f7278b6198d3d31d1"}, {"lon": -77.03792916666667, "is_disabled": 0, "lat": 38.9022925, "fusion_lat": 0.0, "is_reserved": 0, "rental_uris": {"ios": "https://dc.lft.to/lastmile_qr_scan", "android": "https://dc.lft.to/lastmile_qr_scan"}, "fusion_lon": 0.0, "type": "electric_scooter", "bike_id": "1f86e08d9e56259fad7f85b7a8c7aae4", "name": "1f86e08d9e56259fad7f85b7a8c7aae4"}, {"lon": -76.93027233333333, "is_disabled": 0, "lat": 38.8957105, "fusion_lat": 0.0, "is_reserved": 0, "rental_uris": {"ios": "https://dc.lft.to/lastmile_qr_scan", "android": "https://dc.lft.to/lastmile_qr_scan"}, "fusion_lon": 0.0, "type": "electric_scooter", "bike_id": "1d36a81fd9cbbd2c9da3c9f3305a2452", "name": "1d36a81fd9cbbd2c9da3c9f3305a2452"}, {"lon": -76.99618666666667, "is_disabled": 0, "lat": 38.88443066666667, "fusion_lat": 0.0, "is_reserved": 0, "rental_uris": {"ios": "https://dc.lft.to/lastmile_qr_scan", "android": "https://dc.lft.to/lastmile_qr_scan"}, "fusion_lon": 0.0, "type": "electric_scooter", "bike_id": "7f1789bf8c24f81d5ebb7cc19ba99f58", "name": "7f1789bf8c24f81d5ebb7cc19ba99f58"}, {"lon": -76.946283, "is_disabled": 0, "lat": 38.832427, "fusion_lat": 0.0, "is_reserved": 0, "rental_uris": {"ios": "https://dc.lft.to/lastmile_qr_scan", "android": "https://dc.lft.to/lastmile_qr_scan"}, "fusion_lon": 0.0, "type": "electric_bike", "bike_id": "ca62cf69665bb3ae05193555f5e60ca6", "name": "ca62cf69665bb3ae05193555f5e60ca6"}, {"lon": -77.01137616666666, "is_disabled": 0, "lat": 38.90645583333333, "fusion_lat": 0.0, "is_reserved": 0, "rental_uris": {"ios": "https://dc.lft.to/lastmile_qr_scan", "android": "https://dc.lft.to/lastmile_qr_scan"}, "fusion_lon": 0.0, "type": "electric_scooter", "bike_id": "35d8e992d096228e2d9782395db71843", "name": "35d8e992d096228e2d9782395db71843"}, {"lon": -77.04317983333334, "is_disabled": 0, "lat": 39.034373333333335, "fusion_lat": 0.0, "is_reserved": 0, "rental_uris": {"ios": "https://dc.lft.to/lastmile_qr_scan", "android": "https://dc.lft.to/lastmile_qr_scan"}, "fusion_lon": 0.0, "type": "electric_bike", "bike_id": "93346192e3061fd4162f5986be19495b", "name": "93346192e3061fd4162f5986be19495b"}, {"lon": -77.04351216666667, "is_disabled": 0, "lat": 38.914710166666666, "fusion_lat": 0.0, "is_reserved": 0, "rental_uris": {"ios": "https://dc.lft.to/lastmile_qr_scan", "android": "https://dc.lft.to/lastmile_qr_scan"}, "fusion_lon": 0.0, "type": "electric_scooter", "bike_id": "6e33b9d14cb8f8fadf17c8f48214c390", "name": "6e33b9d14cb8f8fadf17c8f48214c390"}, {"lon": -77.041543, "is_disabled": 0, "lat": 38.9072, "fusion_lat": 0.0, "is_reserved": 0, "rental_uris": {"ios": "https://dc.lft.to/lastmile_qr_scan", "android": "https://dc.lft.to/lastmile_qr_scan"}, "fusion_lon": 0.0, "type": "electric_scooter", "bike_id": "544ce516ec01918c5913ab4d5d901859", "name": "544ce516ec01918c5913ab4d5d901859"}, {"lon": -76.9778305, "is_disabled": 0, "lat": 38.90570833333334, "fusion_lat": 0.0, "is_reserved": 0, "rental_uris": {"ios": "https://dc.lft.to/lastmile_qr_scan", "android": "https://dc.lft.to/lastmile_qr_scan"}, "fusion_lon": 0.0, "type": "electric_scooter", "bike_id": "3491a7e71cf19ea7ceb7d484c52d047b", "name": "3491a7e71cf19ea7ceb7d484c52d047b"}, {"lon": -77.01221916666667, "is_disabled": 0, "lat": 38.92404166666667, "fusion_lat": 0.0, "is_reserved": 0, "rental_uris": {"ios": "https://dc.lft.to/lastmile_qr_scan", "android": "https://dc.lft.to/lastmile_qr_scan"}, "fusion_lon": 0.0, "type": "electric_scooter", "bike_id": "a2ad16751c467228ae1dba0e07f81121", "name": "a2ad16751c467228ae1dba0e07f81121"}, {"lon": -77.03320216666667, "is_disabled": 0, "lat": 38.92147766666667, "fusion_lat": 0.0, "is_reserved": 0, "rental_uris": {"ios": "https://dc.lft.to/lastmile_qr_scan", "android": "https://dc.lft.to/lastmile_qr_scan"}, "fusion_lon": 0.0, "type": "electric_scooter", "bike_id": "eb1df678c30a8098969a416ffcfee0d1", "name": "eb1df678c30a8098969a416ffcfee0d1"}, {"lon": -77.0220715, "is_disabled": 0, "lat": 38.91559933333333, "fusion_lat": 0.0, "is_reserved": 0, "rental_uris": {"ios": "https://dc.lft.to/lastmile_qr_scan", "android": "https://dc.lft.to/lastmile_qr_scan"}, "fusion_lon": 0.0, "type": "electric_scooter", "bike_id": "9e548db0194b44bc46df0fd9951bbf8d", "name": "9e548db0194b44bc46df0fd9951bbf8d"}, {"lon": -77.0489255, "is_disabled": 0, "lat": 38.900568, "fusion_lat": 0.0, "is_reserved": 0, "rental_uris": {"ios": "https://dc.lft.to/lastmile_qr_scan", "android": "https://dc.lft.to/lastmile_qr_scan"}, "fusion_lon": 0.0, "type": "electric_scooter", "bike_id": "5863d0bb5612284f36456d3efc34c12a", "name": "5863d0bb5612284f36456d3efc34c12a"}, {"lon": -77.04176583333333, "is_disabled": 0, "lat": 38.9112235, "fusion_lat": 0.0, "is_reserved": 0, "rental_uris": {"ios": "https://dc.lft.to/lastmile_qr_scan", "android": "https://dc.lft.to/lastmile_qr_scan"}, "fusion_lon": 0.0, "type": "electric_scooter", "bike_id": "f4daf06c79df62e922add3f5bd9ddb56", "name": "f4daf06c79df62e922add3f5bd9ddb56"}, {"lon": -77.0352525, "is_disabled": 0, "lat": 38.92238566666666, "fusion_lat": 0.0, "is_reserved": 0, "rental_uris": {"ios": "https://dc.lft.to/lastmile_qr_scan", "android": "https://dc.lft.to/lastmile_qr_scan"}, "fusion_lon": 0.0, "type": "electric_scooter", "bike_id": "79d03884343665e7bf98de9cc49c9a06", "name": "79d03884343665e7bf98de9cc49c9a06"}, {"lon": -77.03421833333333, "is_disabled": 0, "lat": 38.905713, "fusion_lat": 0.0, "is_reserved": 0, "rental_uris": {"ios": "https://dc.lft.to/lastmile_qr_scan", "android": "https://dc.lft.to/lastmile_qr_scan"}, "fusion_lon": 0.0, "type": "electric_scooter", "bike_id": "c658e4efe7b495f2a73c67a3c4d0a3ab", "name": "c658e4efe7b495f2a73c67a3c4d0a3ab"}, {"lon": -76.978591, "is_disabled": 0, "lat": 38.86749016666667, "fusion_lat": 0.0, "is_reserved": 0, "rental_uris": {"ios": "https://dc.lft.to/lastmile_qr_scan", "android": "https://dc.lft.to/lastmile_qr_scan"}, "fusion_lon": 0.0, "type": "electric_scooter", "bike_id": "23b32b6864af271cd8bef5b2f11a30cf", "name": "23b32b6864af271cd8bef5b2f11a30cf"}, {"lon": -77.03945216666666, "is_disabled": 0, "lat": 38.91415383333333, "fusion_lat": 0.0, "is_reserved": 0, "rental_uris": {"ios": "https://dc.lft.to/lastmile_qr_scan", "android": "https://dc.lft.to/lastmile_qr_scan"}, "fusion_lon": 0.0, "type": "electric_scooter", "bike_id": "7997d32559e1c067be794094cb2e9b44", "name": "7997d32559e1c067be794094cb2e9b44"}, {"lon": -77.02554783333333, "is_disabled": 0, "lat": 38.99717366666667, "fusion_lat": 0.0, "is_reserved": 0, "rental_uris": {"ios": "https://dc.lft.to/lastmile_qr_scan", "android": "https://dc.lft.to/lastmile_qr_scan"}, "fusion_lon": 0.0, "type": "electric_bike", "bike_id": "5baaabb890d4ff3362d240b896b9e9d8", "name": "5baaabb890d4ff3362d240b896b9e9d8"}, {"lon": -76.98082883333333, "is_disabled": 0, "lat": 38.926279, "fusion_lat": 0.0, "is_reserved": 0, "rental_uris": {"ios": "https://dc.lft.to/lastmile_qr_scan", "android": "https://dc.lft.to/lastmile_qr_scan"}, "fusion_lon": 0.0, "type": "electric_scooter", "bike_id": "41a7de864df0e84b50984be044d984e2", "name": "41a7de864df0e84b50984be044d984e2"}, {"lon": -77.02081683333333, "is_disabled": 0, "lat": 38.927099, "fusion_lat": 0.0, "is_reserved": 0, "rental_uris": {"ios": "https://dc.lft.to/lastmile_qr_scan", "android": "https://dc.lft.to/lastmile_qr_scan"}, "fusion_lon": 0.0, "type": "electric_scooter", "bike_id": "94c97a4cb5a1b4d916a163c4a4ee31be", "name": "94c97a4cb5a1b4d916a163c4a4ee31be"}, {"lon": -77.00111083333333, "is_disabled": 0, "lat": 38.873687833333335, "fusion_lat": 0.0, "is_reserved": 0, "rental_uris": {"ios": "https://dc.lft.to/lastmile_qr_scan", "android": "https://dc.lft.to/lastmile_qr_scan"}, "fusion_lon": 0.0, "type": "electric_scooter", "bike_id": "bfb83e9a325f0f829d83bfd5e7da1aa1", "name": "bfb83e9a325f0f829d83bfd5e7da1aa1"}, {"lon": -77.032782, "is_disabled": 0, "lat": 38.928151, "fusion_lat": 0.0, "is_reserved": 0, "rental_uris": {"ios": "https://dc.lft.to/lastmile_qr_scan", "android": "https://dc.lft.to/lastmile_qr_scan"}, "fusion_lon": 0.0, "type": "electric_scooter", "bike_id": "0b531e2e0276a998fc10ad6aa5b77e4b", "name": "0b531e2e0276a998fc10ad6aa5b77e4b"}, {"lon": -77.00328166666667, "is_disabled": 0, "lat": 38.919251833333334, "fusion_lat": 0.0, "is_reserved": 0, "rental_uris": {"ios": "https://dc.lft.to/lastmile_qr_scan", "android": "https://dc.lft.to/lastmile_qr_scan"}, "fusion_lon": 0.0, "type": "electric_scooter", "bike_id": "8288d07f9ccd092dc1847b1abb87bef4", "name": "8288d07f9ccd092dc1847b1abb87bef4"}, {"lon": -76.98016783333334, "is_disabled": 0, "lat": 38.85315083333333, "fusion_lat": 0.0, "is_reserved": 0, "rental_uris": {"ios": "https://dc.lft.to/lastmile_qr_scan", "android": "https://dc.lft.to/lastmile_qr_scan"}, "fusion_lon": 0.0, "type": "electric_scooter", "bike_id": "0b3c887b903cecaa5ab8bae6e8ff8b74", "name": "0b3c887b903cecaa5ab8bae6e8ff8b74"}, {"lon": -76.96910266666667, "is_disabled": 0, "lat": 38.8742305, "fusion_lat": 0.0, "is_reserved": 0, "rental_uris": {"ios": "https://dc.lft.to/lastmile_qr_scan", "android": "https://dc.lft.to/lastmile_qr_scan"}, "fusion_lon": 0.0, "type": "electric_scooter", "bike_id": "7c631df20d0e95465cf3c60bd8e22614", "name": "7c631df20d0e95465cf3c60bd8e22614"}, {"lon": -77.02188283333334, "is_disabled": 0, "lat": 38.89632816666666, "fusion_lat": 0.0, "is_reserved": 0, "rental_uris": {"ios": "https://dc.lft.to/lastmile_qr_scan", "android": "https://dc.lft.to/lastmile_qr_scan"}, "fusion_lon": 0.0, "type": "electric_scooter", "bike_id": "d298d3e1f014dc8165e31f20843a68c8", "name": "d298d3e1f014dc8165e31f20843a68c8"}, {"lon": -77.04457366666666, "is_disabled": 0, "lat": 38.911164666666664, "fusion_lat": 0.0, "is_reserved": 0, "rental_uris": {"ios": "https://dc.lft.to/lastmile_qr_scan", "android": "https://dc.lft.to/lastmile_qr_scan"}, "fusion_lon": 0.0, "type": "electric_scooter", "bike_id": "090c16d3c14e7cd4893c38689f9c337a", "name": "090c16d3c14e7cd4893c38689f9c337a"}, {"lon": -77.015359, "is_disabled": 0, "lat": 38.950325, "fusion_lat": 0.0, "is_reserved": 0, "rental_uris": {"ios": "https://dc.lft.to/lastmile_qr_scan", "android": "https://dc.lft.to/lastmile_qr_scan"}, "fusion_lon": 0.0, "type": "electric_bike", "bike_id": "471961f01b58f4d6ab75e58ad23633e6", "name": "471961f01b58f4d6ab75e58ad23633e6"}, {"lon": -76.94257866666666, "is_disabled": 0, "lat": 38.8984885, "fusion_lat": 0.0, "is_reserved": 0, "rental_uris": {"ios": "https://dc.lft.to/lastmile_qr_scan", "android": "https://dc.lft.to/lastmile_qr_scan"}, "fusion_lon": 0.0, "type": "electric_scooter", "bike_id": "fd1ae2427ed280411d837f6b6a01307d", "name": "fd1ae2427ed280411d837f6b6a01307d"}, {"lon": -77.01942133333333, "is_disabled": 0, "lat": 38.8836515, "fusion_lat": 0.0, "is_reserved": 0, "rental_uris": {"ios": "https://dc.lft.to/lastmile_qr_scan", "android": "https://dc.lft.to/lastmile_qr_scan"}, "fusion_lon": 0.0, "type": "electric_scooter", "bike_id": "604712b6619bd81127dcf6ea65ca5917", "name": "604712b6619bd81127dcf6ea65ca5917"}, {"lon": -76.92680416666667, "is_disabled": 0, "lat": 38.8884885, "fusion_lat": 0.0, "is_reserved": 0, "rental_uris": {"ios": "https://dc.lft.to/lastmile_qr_scan", "android": "https://dc.lft.to/lastmile_qr_scan"}, "fusion_lon": 0.0, "type": "electric_scooter", "bike_id": "e790b896ab059cb1177fc60d699309ad", "name": "e790b896ab059cb1177fc60d699309ad"}, {"lon": -76.99556166666666, "is_disabled": 0, "lat": 38.93991716666667, "fusion_lat": 0.0, "is_reserved": 0, "rental_uris": {"ios": "https://dc.lft.to/lastmile_qr_scan", "android": "https://dc.lft.to/lastmile_qr_scan"}, "fusion_lon": 0.0, "type": "electric_bike", "bike_id": "20b3f14061c5674b0e8d8a920cfa5258", "name": "20b3f14061c5674b0e8d8a920cfa5258"}, {"lon": -76.98416183333333, "is_disabled": 0, "lat": 38.913878, "fusion_lat": 0.0, "is_reserved": 0, "rental_uris": {"ios": "https://dc.lft.to/lastmile_qr_scan", "android": "https://dc.lft.to/lastmile_qr_scan"}, "fusion_lon": 0.0, "type": "electric_scooter", "bike_id": "9bbe6420d8743ac21a7a0ed45dc5c7de", "name": "9bbe6420d8743ac21a7a0ed45dc5c7de"}, {"lon": -77.02470116666667, "is_disabled": 0, "lat": 38.918810666666666, "fusion_lat": 0.0, "is_reserved": 0, "rental_uris": {"ios": "https://dc.lft.to/lastmile_qr_scan", "android": "https://dc.lft.to/lastmile_qr_scan"}, "fusion_lon": 0.0, "type": "electric_scooter", "bike_id": "c0868a0523446d92504ff65146d41725", "name": "c0868a0523446d92504ff65146d41725"}, {"lon": -77.00583266666666, "is_disabled": 0, "lat": 38.87569083333333, "fusion_lat": 0.0, "is_reserved": 0, "rental_uris": {"ios": "https://dc.lft.to/lastmile_qr_scan", "android": "https://dc.lft.to/lastmile_qr_scan"}, "fusion_lon": 0.0, "type": "electric_scooter", "bike_id": "b8639d0f8591e28bafc8ff11fd664130", "name": "b8639d0f8591e28bafc8ff11fd664130"}, {"lon": -77.0567265, "is_disabled": 0, "lat": 38.923312833333334, "fusion_lat": 0.0, "is_reserved": 0, "rental_uris": {"ios": "https://dc.lft.to/lastmile_qr_scan", "android": "https://dc.lft.to/lastmile_qr_scan"}, "fusion_lon": 0.0, "type": "electric_scooter", "bike_id": "2d65d5ea4eab8b8e3c736f58421e338c", "name": "2d65d5ea4eab8b8e3c736f58421e338c"}, {"lon": -76.96988516666667, "is_disabled": 0, "lat": 38.878654833333336, "fusion_lat": 0.0, "is_reserved": 0, "rental_uris": {"ios": "https://dc.lft.to/lastmile_qr_scan", "android": "https://dc.lft.to/lastmile_qr_scan"}, "fusion_lon": 0.0, "type": "electric_scooter", "bike_id": "41f57c25606b99e2d317d1f0260489fa", "name": "41f57c25606b99e2d317d1f0260489fa"}, {"lon": -77.05329533333334, "is_disabled": 0, "lat": 38.904227666666664, "fusion_lat": 0.0, "is_reserved": 0, "rental_uris": {"ios": "https://dc.lft.to/lastmile_qr_scan", "android": "https://dc.lft.to/lastmile_qr_scan"}, "fusion_lon": 0.0, "type": "electric_scooter", "bike_id": "f3b28573d3a461d4b696f107f054ab5a", "name": "f3b28573d3a461d4b696f107f054ab5a"}, {"lon": -76.98422466666666, "is_disabled": 0, "lat": 38.92641233333333, "fusion_lat": 0.0, "is_reserved": 0, "rental_uris": {"ios": "https://dc.lft.to/lastmile_qr_scan", "android": "https://dc.lft.to/lastmile_qr_scan"}, "fusion_lon": 0.0, "type": "electric_bike", "bike_id": "7b2d461a1db2074d0c36a901843e32cd", "name": "7b2d461a1db2074d0c36a901843e32cd"}, {"lon": -77.02191933333333, "is_disabled": 0, "lat": 38.92680683333333, "fusion_lat": 0.0, "is_reserved": 0, "rental_uris": {"ios": "https://dc.lft.to/lastmile_qr_scan", "android": "https://dc.lft.to/lastmile_qr_scan"}, "fusion_lon": 0.0, "type": "electric_scooter", "bike_id": "f5bd99375f9f0b699fa2f9f9b792eee0", "name": "f5bd99375f9f0b699fa2f9f9b792eee0"}, {"lon": -77.024219, "is_disabled": 0, "lat": 38.919092, "fusion_lat": 0.0, "is_reserved": 0, "rental_uris": {"ios": "https://dc.lft.to/lastmile_qr_scan", "android": "https://dc.lft.to/lastmile_qr_scan"}, "fusion_lon": 0.0, "type": "electric_scooter", "bike_id": "2c3826ab0097e01a9cba6271d1b85682", "name": "2c3826ab0097e01a9cba6271d1b85682"}, {"lon": -77.0175925, "is_disabled": 0, "lat": 38.877099666666666, "fusion_lat": 0.0, "is_reserved": 0, "rental_uris": {"ios": "https://dc.lft.to/lastmile_qr_scan", "android": "https://dc.lft.to/lastmile_qr_scan"}, "fusion_lon": 0.0, "type": "electric_scooter", "bike_id": "caaab5627767a53ae17f66b9d1f56941", "name": "caaab5627767a53ae17f66b9d1f56941"}, {"lon": -76.97411233333334, "is_disabled": 0, "lat": 38.902060166666665, "fusion_lat": 0.0, "is_reserved": 0, "rental_uris": {"ios": "https://dc.lft.to/lastmile_qr_scan", "android": "https://dc.lft.to/lastmile_qr_scan"}, "fusion_lon": 0.0, "type": "electric_bike", "bike_id": "40b518e7ddc7a99d5376562ec0d4fd91", "name": "40b518e7ddc7a99d5376562ec0d4fd91"}, {"lon": -76.95205616666667, "is_disabled": 0, "lat": 38.936726, "fusion_lat": 0.0, "is_reserved": 0, "rental_uris": {"ios": "https://dc.lft.to/lastmile_qr_scan", "android": "https://dc.lft.to/lastmile_qr_scan"}, "fusion_lon": 0.0, "type": "electric_bike", "bike_id": "fef84ed0c79d7e10ae568bdd044a521b", "name": "fef84ed0c79d7e10ae568bdd044a521b"}, {"lon": -77.22536733333334, "is_disabled": 0, "lat": 38.92454216666667, "fusion_lat": 0.0, "is_reserved": 0, "rental_uris": {"ios": "https://dc.lft.to/lastmile_qr_scan", "android": "https://dc.lft.to/lastmile_qr_scan"}, "fusion_lon": 0.0, "type": "electric_bike", "bike_id": "b0f14002d6d63bb041db7b14363934e2", "name": "b0f14002d6d63bb041db7b14363934e2"}, {"lon": -77.02421116666666, "is_disabled": 0, "lat": 38.92644716666667, "fusion_lat": 0.0, "is_reserved": 0, "rental_uris": {"ios": "https://dc.lft.to/lastmile_qr_scan", "android": "https://dc.lft.to/lastmile_qr_scan"}, "fusion_lon": 0.0, "type": "electric_scooter", "bike_id": "660428b8589d60cd7f8635908cf39ed9", "name": "660428b8589d60cd7f8635908cf39ed9"}, {"lon": -77.01605783333333, "is_disabled": 0, "lat": 38.917575, "fusion_lat": 0.0, "is_reserved": 0, "rental_uris": {"ios": "https://dc.lft.to/lastmile_qr_scan", "android": "https://dc.lft.to/lastmile_qr_scan"}, "fusion_lon": 0.0, "type": "electric_bike", "bike_id": "81a95932e70229d8b1099e7e2679c46d", "name": "81a95932e70229d8b1099e7e2679c46d"}, {"lon": -76.994735, "is_disabled": 0, "lat": 38.929979, "fusion_lat": 0.0, "is_reserved": 0, "rental_uris": {"ios": "https://dc.lft.to/lastmile_qr_scan", "android": "https://dc.lft.to/lastmile_qr_scan"}, "fusion_lon": 0.0, "type": "electric_scooter", "bike_id": "1a4187c7d646bad196cec84146eff0b2", "name": "1a4187c7d646bad196cec84146eff0b2"}, {"lon": -77.03379433333333, "is_disabled": 0, "lat": 38.92053666666666, "fusion_lat": 0.0, "is_reserved": 0, "rental_uris": {"ios": "https://dc.lft.to/lastmile_qr_scan", "android": "https://dc.lft.to/lastmile_qr_scan"}, "fusion_lon": 0.0, "type": "electric_scooter", "bike_id": "665c6088fd95b1d23ca427123ec3ab7a", "name": "665c6088fd95b1d23ca427123ec3ab7a"}, {"lon": -77.033344, "is_disabled": 0, "lat": 38.94181716666667, "fusion_lat": 0.0, "is_reserved": 0, "rental_uris": {"ios": "https://dc.lft.to/lastmile_qr_scan", "android": "https://dc.lft.to/lastmile_qr_scan"}, "fusion_lon": 0.0, "type": "electric_scooter", "bike_id": "7108830505d333468a48d9748f84ac12", "name": "7108830505d333468a48d9748f84ac12"}, {"lon": -77.0434865, "is_disabled": 0, "lat": 38.914691166666664, "fusion_lat": 0.0, "is_reserved": 0, "rental_uris": {"ios": "https://dc.lft.to/lastmile_qr_scan", "android": "https://dc.lft.to/lastmile_qr_scan"}, "fusion_lon": 0.0, "type": "electric_scooter", "bike_id": "644200c600286eaa4950effab7f43d3f", "name": "644200c600286eaa4950effab7f43d3f"}, {"lon": -77.01307766666666, "is_disabled": 0, "lat": 38.90047966666667, "fusion_lat": 0.0, "is_reserved": 0, "rental_uris": {"ios": "https://dc.lft.to/lastmile_qr_scan", "android": "https://dc.lft.to/lastmile_qr_scan"}, "fusion_lon": 0.0, "type": "electric_scooter", "bike_id": "ac58e5ba35e3337dbe9e18a4800b4f87", "name": "ac58e5ba35e3337dbe9e18a4800b4f87"}, {"lon": -77.00962683333333, "is_disabled": 0, "lat": 38.9065685, "fusion_lat": 0.0, "is_reserved": 0, "rental_uris": {"ios": "https://dc.lft.to/lastmile_qr_scan", "android": "https://dc.lft.to/lastmile_qr_scan"}, "fusion_lon": 0.0, "type": "electric_scooter", "bike_id": "5878a6009a389b7193708f742cc4d194", "name": "5878a6009a389b7193708f742cc4d194"}, {"lon": -77.03844283333333, "is_disabled": 0, "lat": 38.94194383333333, "fusion_lat": 0.0, "is_reserved": 0, "rental_uris": {"ios": "https://dc.lft.to/lastmile_qr_scan", "android": "https://dc.lft.to/lastmile_qr_scan"}, "fusion_lon": 0.0, "type": "electric_scooter", "bike_id": "12a4143feb26b89afacd7d29af58a120", "name": "12a4143feb26b89afacd7d29af58a120"}, {"lon": -77.01759033333333, "is_disabled": 0, "lat": 38.87688566666667, "fusion_lat": 0.0, "is_reserved": 0, "rental_uris": {"ios": "https://dc.lft.to/lastmile_qr_scan", "android": "https://dc.lft.to/lastmile_qr_scan"}, "fusion_lon": 0.0, "type": "electric_scooter", "bike_id": "4fb7b976f957b5ec2ee0db4e8123aaf1", "name": "4fb7b976f957b5ec2ee0db4e8123aaf1"}, {"lon": -77.02828883333333, "is_disabled": 0, "lat": 38.8865285, "fusion_lat": 0.0, "is_reserved": 0, "rental_uris": {"ios": "https://dc.lft.to/lastmile_qr_scan", "android": "https://dc.lft.to/lastmile_qr_scan"}, "fusion_lon": 0.0, "type": "electric_scooter", "bike_id": "39e7c834cb769685df891be86a59980d", "name": "39e7c834cb769685df891be86a59980d"}, {"lon": -77.02569566666666, "is_disabled": 0, "lat": 38.89744183333333, "fusion_lat": 0.0, "is_reserved": 0, "rental_uris": {"ios": "https://dc.lft.to/lastmile_qr_scan", "android": "https://dc.lft.to/lastmile_qr_scan"}, "fusion_lon": 0.0, "type": "electric_scooter", "bike_id": "6c2ee039c16751f4085ed4374e4574ee", "name": "6c2ee039c16751f4085ed4374e4574ee"}, {"lon": -77.00600983333334, "is_disabled": 0, "lat": 38.87586833333334, "fusion_lat": 0.0, "is_reserved": 0, "rental_uris": {"ios": "https://dc.lft.to/lastmile_qr_scan", "android": "https://dc.lft.to/lastmile_qr_scan"}, "fusion_lon": 0.0, "type": "electric_scooter", "bike_id": "05cf6b0a51beb6751ca602aac46b4458", "name": "05cf6b0a51beb6751ca602aac46b4458"}, {"lon": -77.03219683333333, "is_disabled": 0, "lat": 38.907005833333336, "fusion_lat": 0.0, "is_reserved": 0, "rental_uris": {"ios": "https://dc.lft.to/lastmile_qr_scan", "android": "https://dc.lft.to/lastmile_qr_scan"}, "fusion_lon": 0.0, "type": "electric_scooter", "bike_id": "0d046f29162b66c0898fc3a88424166c", "name": "0d046f29162b66c0898fc3a88424166c"}, {"lon": -77.03444133333333, "is_disabled": 0, "lat": 38.90283016666667, "fusion_lat": 0.0, "is_reserved": 0, "rental_uris": {"ios": "https://dc.lft.to/lastmile_qr_scan", "android": "https://dc.lft.to/lastmile_qr_scan"}, "fusion_lon": 0.0, "type": "electric_scooter", "bike_id": "1153999867d90800ca5821a27d383595", "name": "1153999867d90800ca5821a27d383595"}, {"lon": -77.02222883333333, "is_disabled": 0, "lat": 38.8921955, "fusion_lat": 0.0, "is_reserved": 0, "rental_uris": {"ios": "https://dc.lft.to/lastmile_qr_scan", "android": "https://dc.lft.to/lastmile_qr_scan"}, "fusion_lon": 0.0, "type": "electric_scooter", "bike_id": "cd7cdfc635e8bad6a256607fa567b659", "name": "cd7cdfc635e8bad6a256607fa567b659"}, {"lon": -77.03828083333333, "is_disabled": 0, "lat": 38.931310333333336, "fusion_lat": 0.0, "is_reserved": 0, "rental_uris": {"ios": "https://dc.lft.to/lastmile_qr_scan", "android": "https://dc.lft.to/lastmile_qr_scan"}, "fusion_lon": 0.0, "type": "electric_scooter", "bike_id": "331b171d5e3ee15ba91664cd810112ef", "name": "331b171d5e3ee15ba91664cd810112ef"}, {"lon": -77.062685, "is_disabled": 0, "lat": 38.9057355, "fusion_lat": 0.0, "is_reserved": 0, "rental_uris": {"ios": "https://dc.lft.to/lastmile_qr_scan", "android": "https://dc.lft.to/lastmile_qr_scan"}, "fusion_lon": 0.0, "type": "electric_scooter", "bike_id": "968a0db5bd07ae0aea8236fe4fd0a387", "name": "968a0db5bd07ae0aea8236fe4fd0a387"}, {"lon": -77.03183833333334, "is_disabled": 0, "lat": 38.91714233333333, "fusion_lat": 0.0, "is_reserved": 0, "rental_uris": {"ios": "https://dc.lft.to/lastmile_qr_scan", "android": "https://dc.lft.to/lastmile_qr_scan"}, "fusion_lon": 0.0, "type": "electric_scooter", "bike_id": "f891214ca7806909aaadddc70ca64f27", "name": "f891214ca7806909aaadddc70ca64f27"}, {"lon": -77.02873383333333, "is_disabled": 0, "lat": 38.89342766666667, "fusion_lat": 0.0, "is_reserved": 0, "rental_uris": {"ios": "https://dc.lft.to/lastmile_qr_scan", "android": "https://dc.lft.to/lastmile_qr_scan"}, "fusion_lon": 0.0, "type": "electric_scooter", "bike_id": "126fdd797974d0c409c2946c8466dcae", "name": "126fdd797974d0c409c2946c8466dcae"}, {"lon": -77.013265, "is_disabled": 0, "lat": 38.92956816666667, "fusion_lat": 0.0, "is_reserved": 0, "rental_uris": {"ios": "https://dc.lft.to/lastmile_qr_scan", "android": "https://dc.lft.to/lastmile_qr_scan"}, "fusion_lon": 0.0, "type": "electric_bike", "bike_id": "2c722a9cd2e9da9047f4807901043da1", "name": "2c722a9cd2e9da9047f4807901043da1"}, {"lon": -76.9871865, "is_disabled": 0, "lat": 38.86625083333333, "fusion_lat": 0.0, "is_reserved": 0, "rental_uris": {"ios": "https://dc.lft.to/lastmile_qr_scan", "android": "https://dc.lft.to/lastmile_qr_scan"}, "fusion_lon": 0.0, "type": "electric_scooter", "bike_id": "8815d805549be71f81542fc260abb377", "name": "8815d805549be71f81542fc260abb377"}, {"lon": -77.0483395, "is_disabled": 0, "lat": 38.91609916666667, "fusion_lat": 0.0, "is_reserved": 0, "rental_uris": {"ios": "https://dc.lft.to/lastmile_qr_scan", "android": "https://dc.lft.to/lastmile_qr_scan"}, "fusion_lon": 0.0, "type": "electric_scooter", "bike_id": "8d9d83c30b2d9779c1a1f8dacfdb5aa7", "name": "8d9d83c30b2d9779c1a1f8dacfdb5aa7"}, {"lon": -77.0239885, "is_disabled": 0, "lat": 38.905707, "fusion_lat": 0.0, "is_reserved": 0, "rental_uris": {"ios": "https://dc.lft.to/lastmile_qr_scan", "android": "https://dc.lft.to/lastmile_qr_scan"}, "fusion_lon": 0.0, "type": "electric_scooter", "bike_id": "9cc4ce229d81b65bd43b34db74afa262", "name": "9cc4ce229d81b65bd43b34db74afa262"}, {"lon": -77.02293166666666, "is_disabled": 0, "lat": 38.896972, "fusion_lat": 0.0, "is_reserved": 0, "rental_uris": {"ios": "https://dc.lft.to/lastmile_qr_scan", "android": "https://dc.lft.to/lastmile_qr_scan"}, "fusion_lon": 0.0, "type": "electric_scooter", "bike_id": "618bd33f21deb6e1c366769d6b2d2d99", "name": "618bd33f21deb6e1c366769d6b2d2d99"}, {"lon": -76.98573716666667, "is_disabled": 0, "lat": 38.86684066666667, "fusion_lat": 0.0, "is_reserved": 0, "rental_uris": {"ios": "https://dc.lft.to/lastmile_qr_scan", "android": "https://dc.lft.to/lastmile_qr_scan"}, "fusion_lon": 0.0, "type": "electric_scooter", "bike_id": "97f229c2250938cbb7c38c59517f4621", "name": "97f229c2250938cbb7c38c59517f4621"}, {"lon": -77.01366366666667, "is_disabled": 0, "lat": 38.8864035, "fusion_lat": 0.0, "is_reserved": 0, "rental_uris": {"ios": "https://dc.lft.to/lastmile_qr_scan", "android": "https://dc.lft.to/lastmile_qr_scan"}, "fusion_lon": 0.0, "type": "electric_scooter", "bike_id": "9656657969a93e4005d198bf44d6ece4", "name": "9656657969a93e4005d198bf44d6ece4"}, {"lon": -77.02885666666667, "is_disabled": 0, "lat": 38.901285666666666, "fusion_lat": 0.0, "is_reserved": 0, "rental_uris": {"ios": "https://dc.lft.to/lastmile_qr_scan", "android": "https://dc.lft.to/lastmile_qr_scan"}, "fusion_lon": 0.0, "type": "electric_scooter", "bike_id": "2541b6709db14bba738a37bfc634f60f", "name": "2541b6709db14bba738a37bfc634f60f"}, {"lon": -77.02451266666667, "is_disabled": 0, "lat": 38.9483605, "fusion_lat": 0.0, "is_reserved": 0, "rental_uris": {"ios": "https://dc.lft.to/lastmile_qr_scan", "android": "https://dc.lft.to/lastmile_qr_scan"}, "fusion_lon": 0.0, "type": "electric_scooter", "bike_id": "e3804fa37bb42e748124d787e3d7b612", "name": "e3804fa37bb42e748124d787e3d7b612"}, {"lon": -77.023771, "is_disabled": 0, "lat": 38.90193633333333, "fusion_lat": 0.0, "is_reserved": 0, "rental_uris": {"ios": "https://dc.lft.to/lastmile_qr_scan", "android": "https://dc.lft.to/lastmile_qr_scan"}, "fusion_lon": 0.0, "type": "electric_scooter", "bike_id": "56b8031dc7b8f6d3c80a8c8ab9cb3f26", "name": "56b8031dc7b8f6d3c80a8c8ab9cb3f26"}, {"lon": -77.00686133333333, "is_disabled": 0, "lat": 38.900098166666666, "fusion_lat": 0.0, "is_reserved": 0, "rental_uris": {"ios": "https://dc.lft.to/lastmile_qr_scan", "android": "https://dc.lft.to/lastmile_qr_scan"}, "fusion_lon": 0.0, "type": "electric_scooter", "bike_id": "0a01dece6254d3e7ece2d967dbf656ef", "name": "0a01dece6254d3e7ece2d967dbf656ef"}, {"lon": -77.04291366666666, "is_disabled": 0, "lat": 38.908591333333334, "fusion_lat": 0.0, "is_reserved": 0, "rental_uris": {"ios": "https://dc.lft.to/lastmile_qr_scan", "android": "https://dc.lft.to/lastmile_qr_scan"}, "fusion_lon": 0.0, "type": "electric_scooter", "bike_id": "3625e6c398dca151b25632ac8a4a0a13", "name": "3625e6c398dca151b25632ac8a4a0a13"}, {"lon": -77.01489116666667, "is_disabled": 0, "lat": 38.892201166666666, "fusion_lat": 0.0, "is_reserved": 0, "rental_uris": {"ios": "https://dc.lft.to/lastmile_qr_scan", "android": "https://dc.lft.to/lastmile_qr_scan"}, "fusion_lon": 0.0, "type": "electric_scooter", "bike_id": "8da1a545ba51aa9858904d854c14f227", "name": "8da1a545ba51aa9858904d854c14f227"},