{"data": {"bikes": [{"is_disabled": 0, "fusion_lon": 0.0, "fusion_lat": 0.0, "lat": 38.909573333333334, "type": "electric_scooter", "lon": -77.0455585, "bike_id": "15c014e0cd8f1408b7d7b9db6dfab63a", "rental_uris": {"android": "https://dc.lft.to/lastmile_qr_scan", "ios": "https://dc.lft.to/lastmile_qr_scan"}, "name": "15c014e0cd8f1408b7d7b9db6dfab63a", "is_reserved": 0}, {"is_disabled": 0, "fusion_lon": 0.0, "fusion_lat": 0.0, "lat": 39.03880316666667, "type": "electric_bike", "lon": -77.10909416666667, "bike_id": "e8e8fc810423a3cbf81f268e99e9bb3f", "rental_uris": {"android": "https://dc.lft.to/lastmile_qr_scan", "ios": "https://dc.lft.to/lastmile_qr_scan"}, "name": "e8e8fc810423a3cbf81f268e99e9bb3f", "is_reserved": 0}, {"is_disabled": 0, "fusion_lon": 0.0, "fusion_lat": 0.0, "lat": 38.922617833333334, "type": "electric_scooter", "lon": -77.03679383333333, "bike_id": "5678c36df729ec28baf0e9035a979e4c", "rental_uris": {"android": "https://dc.lft.to/lastmile_qr_scan", "ios": "https://dc.lft.to/lastmile_qr_scan"}, "name": "5678c36df729ec28baf0e9035a979e4c", "is_reserved": 0}, {"is_disabled": 0, "fusion_lon": 0.0, "fusion_lat": 0.0, "lat": 38.99267016666667, "type": "electric_scooter", "lon": -77.03605816666666, "bike_id": "5e01a271ca080f41a38ab0bc09663e3b", "rental_uris": {"android": "https://dc.lft.to/lastmile_qr_scan", "ios": "https://dc.lft.to/lastmile_qr_scan"}, "name": "5e01a271ca080f41a38ab0bc09663e3b", "is_reserved": 0}, {"is_disabled": 0, "fusion_lon": 0.0, "fusion_lat": 0.0, "lat": 38.9094015, "type": "electric_scooter", "lon": -77.04737916666667, "bike_id": "72cc1530154a360e881346576df45ead", "rental_uris": {"android": "https://dc.lft.to/lastmile_qr_scan", "ios": "https://dc.lft.to/lastmile_qr_scan"}, "name": "72cc1530154a360e881346576df45ead", "is_reserved": 0}, {"is_disabled": 0, "fusion_lon": 0.0, "fusion_lat": 0.0, "lat": 38.936702833333335, "type": "electric_bike", "lon": -76.9520525, "bike_id": "6768e9859525e0052768b0b75c035e1d", "rental_uris": {"android": "https://dc.lft.to/lastmile_qr_scan", "ios": "https://dc.lft.to/lastmile_qr_scan"}, "name": "6768e9859525e0052768b0b75c035e1d", "is_reserved": 0}, {"is_disabled": 0, "fusion_lon": 0.0, "fusion_lat": 0.0, "lat": 38.9347875, "type": "electric_scooter", "lon": -77.07268883333333, "bike_id": "061fd000e910b9a070615dc2bb15d684", "rental_uris": {"android": "https://dc.lft.to/lastmile_qr_scan", "ios": "https://dc.lft.to/lastmile_qr_scan"}, "name": "061fd000e910b9a070615dc2bb15d684", "is_reserved": 0}, {"is_disabled": 0, "fusion_lon": 0.0, "fusion_lat": 0.0, "lat": 38.91704933333333, "type": "electric_scooter", "lon": -77.05123616666667, "bike_id": "d2683931544906e1dd6b90c3dcbbccaa", "rental_uris": {"android": "https://dc.lft.to/lastmile_qr_scan", "ios": "https://dc.lft.to/lastmile_qr_scan"}, "name": "d2683931544906e1dd6b90c3dcbbccaa", "is_reserved": 0}, {"is_disabled": 0, "fusion_lon": 0.0, "fusion_lat": 0.0, "lat": 38.885795, "type": "electric_scooter", "lon": -76.91907233333333, "bike_id": "beffd2b403c30276224f1bcfe350eefa", "rental_uris": {"android": "https://dc.lft.to/lastmile_qr_scan", "ios": "https://dc.lft.to/lastmile_qr_scan"}, "name": "beffd2b403c30276224f1bcfe350eefa", "is_reserved": 0}, {"is_disabled": 0, "fusion_lon": 0.0, "fusion_lat": 0.0, "lat": 38.915467, "type": "electric_scooter", "lon": -77.03852816666667, "bike_id": "1375286e0d48b9f0d6eec38aca7b2f7e", "rental_uris": {"android": "https://dc.lft.to/lastmile_qr_scan", "ios": "https://dc.lft.to/lastmile_qr_scan"}, "name": "1375286e0d48b9f0d6eec38aca7b2f7e", "is_reserved": 0}, {"is_disabled": 0, "fusion_lon": 0.0, "fusion_lat": 0.0, "lat": 38.91038016666667, "type": "electric_scooter", "lon": -77.04254066666667, "bike_id": "6de79d5b70cd0b654131b1e65d02365f", "rental_uris": {"android": "https://dc.lft.to/lastmile_qr_scan", "ios": "https://dc.lft.to/lastmile_qr_scan"}, "name": "6de79d5b70cd0b654131b1e65d02365f", "is_reserved": 0}, {"is_disabled": 0, "fusion_lon": 0.0, "fusion_lat": 0.0, "lat": 38.9241825, "type": "electric_scooter", "lon": -77.03529416666667, "bike_id": "969f3d564dbb51508ad2f7453434de43", "rental_uris": {"android": "https://dc.lft.to/lastmile_qr_scan", "ios": "https://dc.lft.to/lastmile_qr_scan"}, "name": "969f3d564dbb51508ad2f7453434de43", "is_reserved": 0}, {"is_disabled": 0, "fusion_lon": 0.0, "fusion_lat": 0.0, "lat": 39.088424, "type": "electric_bike", "lon": -77.17799333333333, "bike_id": "401fbf66a6296fcb121dd591e2c8c24a", "rental_uris": {"android": "https://dc.lft.to/lastmile_qr_scan", "ios": "https://dc.lft.to/lastmile_qr_scan"}, "name": "401fbf66a6296fcb121dd591e2c8c24a", "is_reserved": 0}, {"is_disabled": 0, "fusion_lon": 0.0, "fusion_lat": 0.0, "lat": 38.903401, "type": "electric_scooter", "lon": -76.975723, "bike_id": "c11827aade454e968c28efc412289e20", "rental_uris": {"android": "https://dc.lft.to/lastmile_qr_scan", "ios": "https://dc.lft.to/lastmile_qr_scan"}, "name": "c11827aade454e968c28efc412289e20", "is_reserved": 0}, {"is_disabled": 0, "fusion_lon": 0.0, "fusion_lat": 0.0, "lat": 38.95558116666667, "type": "electric_scooter", "lon": -77.06989983333334, "bike_id": "4c0da63bdabf74bdff921cad0d81a5b0", "rental_uris": {"android": "https://dc.lft.to/lastmile_qr_scan", "ios": "https://dc.lft.to/lastmile_qr_scan"}, "name": "4c0da63bdabf74bdff921cad0d81a5b0", "is_reserved": 0}, {"is_disabled": 0, "fusion_lon": 0.0, "fusion_lat": 0.0, "lat": 38.90104516666667, "type": "electric_scooter", "lon": -77.01997, "bike_id": "2e9b8d10d6c34dc1ae0a996f962dac7d", "rental_uris": {"android": "https://dc.lft.to/lastmile_qr_scan", "ios": "https://dc.lft.to/lastmile_qr_scan"}, "name": "2e9b8d10d6c34dc1ae0a996f962dac7d", "is_reserved": 0}, {"is_disabled": 0, "fusion_lon": 0.0, "fusion_lat": 0.0, "lat": 38.8900955, "type": "electric_scooter", "lon": -77.0405035, "bike_id": "f40ab07644da9cf40b8f9ad6d3deb797", "rental_uris": {"android": "https://dc.lft.to/lastmile_qr_scan", "ios": "https://dc.lft.to/lastmile_qr_scan"}, "name": "f40ab07644da9cf40b8f9ad6d3deb797", "is_reserved": 0}, {"is_disabled": 0, "fusion_lon": 0.0, "fusion_lat": 0.0, "lat": 38.896464, "type": "electric_scooter", "lon": -77.03220383333333, "bike_id": "c6020ea3640e0d8322a6e930f6390d17", "rental_uris": {"android": "https://dc.lft.to/lastmile_qr_scan", "ios": "https://dc.lft.to/lastmile_qr_scan"}, "name": "c6020ea3640e0d8322a6e930f6390d17", "is_reserved": 0}, {"is_disabled": 0, "fusion_lon": 0.0, "fusion_lat": 0.0, "lat": 38.876601, "type": "electric_scooter", "lon": -77.00903066666666, "bike_id": "a80dbf3d695082b565378b1e78c6def3", "rental_uris": {"android": "https://dc.lft.to/lastmile_qr_scan", "ios": "https://dc.lft.to/lastmile_qr_scan"}, "name": "a80dbf3d695082b565378b1e78c6def3", "is_reserved": 0}, {"is_disabled": 0, "fusion_lon": 0.0, "fusion_lat": 0.0, "lat": 38.883647833333335, "type": "electric_scooter", "lon": -76.9948715, "bike_id": "4ed0033a03314d2179b613991c556ccd", "rental_uris": {"android": "https://dc.lft.to/lastmile_qr_scan", "ios": "https://dc.lft.to/lastmile_qr_scan"}, "name": "4ed0033a03314d2179b613991c556ccd", "is_reserved": 0}, {"is_disabled": 0, "fusion_lon": 0.0, "fusion_lat": 0.0, "lat": 38.8840995, "type": "electric_scooter", "lon": -76.95414516666666, "bike_id": "5713e54138d9a95368e80c8fc3b76342", "rental_uris": {"android": "https://dc.lft.to/lastmile_qr_scan", "ios": "https://dc.lft.to/lastmile_qr_scan"}, "name": "5713e54138d9a95368e80c8fc3b76342", "is_reserved": 0}, {"is_disabled": 0, "fusion_lon": 0.0, "fusion_lat": 0.0, "lat": 38.914959833333334, "type": "electric_scooter", "lon": -77.0345815, "bike_id": "b8b5d712ad8b9cabc82dbe66a62d5c08", "rental_uris": {"android": "https://dc.lft.to/lastmile_qr_scan", "ios": "https://dc.lft.to/lastmile_qr_scan"}, "name": "b8b5d712ad8b9cabc82dbe66a62d5c08", "is_reserved": 0}, {"is_disabled": 0, "fusion_lon": 0.0, "fusion_lat": 0.0, "lat": 38.897440833333334, "type": "electric_scooter", "lon": -77.00431283333333, "bike_id": "2fbef005595c2915d6eed107b3cba2ad", "rental_uris": {"android": "https://dc.lft.to/lastmile_qr_scan", "ios": "https://dc.lft.to/lastmile_qr_scan"}, "name": "2fbef005595c2915d6eed107b3cba2ad", "is_reserved": 0}, {"is_disabled": 0, "fusion_lon": 0.0, "fusion_lat": 0.0, "lat": 38.906426333333336, "type": "electric_scooter", "lon": -77.04867766666666, "bike_id": "cadb191d724fb75c5aa5fff479055c4d", "rental_uris": {"android": "https://dc.lft.to/lastmile_qr_scan", "ios": "https://dc.lft.to/lastmile_qr_scan"}, "name": "cadb191d724fb75c5aa5fff479055c4d", "is_reserved": 0}, {"is_disabled": 0, "fusion_lon": 0.0, "fusion_lat": 0.0, "lat": 38.882024, "type": "electric_scooter", "lon": -76.927066, "bike_id": "4ac435e59bff50fd0d03d2187c242804", "rental_uris": {"android": "https://dc.lft.to/lastmile_qr_scan", "ios": "https://dc.lft.to/lastmile_qr_scan"}, "name": "4ac435e59bff50fd0d03d2187c242804", "is_reserved": 0}, {"is_disabled": 0, "fusion_lon": 0.0, "fusion_lat": 0.0, "lat": 38.9297485, "type": "electric_scooter", "lon": -77.04147566666667, "bike_id": "e5af67e6a407b8a5aa1a0dc82988f693", "rental_uris": {"android": "https://dc.lft.to/lastmile_qr_scan", "ios": "https://dc.lft.to/lastmile_qr_scan"}, "name": "e5af67e6a407b8a5aa1a0dc82988f693", "is_reserved": 0}, {"is_disabled": 0, "fusion_lon": 0.0, "fusion_lat": 0.0, "lat": 38.94983666666667, "type": "electric_scooter", "lon": -77.02702766666667, "bike_id": "1328d472704ff66f3aa78a20dc29571c", "rental_uris": {"android": "https://dc.lft.to/lastmile_qr_scan", "ios": "https://dc.lft.to/lastmile_qr_scan"}, "name": "1328d472704ff66f3aa78a20dc29571c", "is_reserved": 0}, {"is_disabled": 0, "fusion_lon": 0.0, "fusion_lat": 0.0, "lat": 38.91649183333333, "type": "electric_scooter", "lon": -77.02277466666666, "bike_id": "2300ca18413e5927da61f9de021b26ac", "rental_uris": {"android": "https://dc.lft.to/lastmile_qr_scan", "ios": "https://dc.lft.to/lastmile_qr_scan"}, "name": "2300ca18413e5927da61f9de021b26ac", "is_reserved": 0}, {"is_disabled": 0, "fusion_lon": 0.0, "fusion_lat": 0.0, "lat": 38.91749933333333, "type": "electric_scooter", "lon": -77.0415375, "bike_id": "482245d68d858d5ad635de26410a5dae", "rental_uris": {"android": "https://dc.lft.to/lastmile_qr_scan", "ios": "https://dc.lft.to/lastmile_qr_scan"}, "name": "482245d68d858d5ad635de26410a5dae", "is_reserved": 0}, {"is_disabled": 0, "fusion_lon": 0.0, "fusion_lat": 0.0, "lat": 38.91551116666667, "type": "electric_scooter", "lon": -77.046134, "bike_id": "30a2331a6d10dbfd153628b3b7aba455", "rental_uris": {"android": "https://dc.lft.to/lastmile_qr_scan", "ios": "https://dc.lft.to/lastmile_qr_scan"}, "name": "30a2331a6d10dbfd153628b3b7aba455", "is_reserved": 0}, {"is_disabled": 0, "fusion_lon": 0.0, "fusion_lat": 0.0, "lat": 38.90032983333333, "type": "electric_scooter", "lon": -77.0269675, "bike_id": "f17b8d2bf9d2b8b87a1f49a3ab41feb4", "rental_uris": {"android": "https://dc.lft.to/lastmile_qr_scan", "ios": "https://dc.lft.to/lastmile_qr_scan"}, "name": "f17b8d2bf9d2b8b87a1f49a3ab41feb4", "is_reserved": 0}, {"is_disabled": 0, "fusion_lon": 0.0, "fusion_lat": 0.0, "lat": 38.900891333333334, "type": "electric_scooter", "lon": -77.0445075, "bike_id": "af6a019f9533c6a343738ddbd4fa8658", "rental_uris": {"android": "https://dc.lft.to/lastmile_qr_scan", "ios": "https://dc.lft.to/lastmile_qr_scan"}, "name": "af6a019f9533c6a343738ddbd4fa8658", "is_reserved": 0}, {"is_disabled": 0, "fusion_lon": 0.0, "fusion_lat": 0.0, "lat": 38.91335133333333, "type": "electric_scooter", "lon": -77.0417625, "bike_id": "33d72bd7ebf80f045d8ff061111893a0", "rental_uris": {"android": "https://dc.lft.to/lastmile_qr_scan", "ios": "https://dc.lft.to/lastmile_qr_scan"}, "name": "33d72bd7ebf80f045d8ff061111893a0", "is_reserved": 0}, {"is_disabled": 0, "fusion_lon": 0.0, "fusion_lat": 0.0, "lat": 38.9056175, "type": "electric_scooter", "lon": -77.06605483333334, "bike_id": "f7713df28dc8bb7a314f393e427af0e7", "rental_uris": {"android": "https://dc.lft.to/lastmile_qr_scan", "ios": "https://dc.lft.to/lastmile_qr_scan"}, "name": "f7713df28dc8bb7a314f393e427af0e7", "is_reserved": 0}, {"is_disabled": 0, "fusion_lon": 0.0, "fusion_lat": 0.0, "lat": 38.912418, "type": "electric_scooter", "lon": -76.98446866666667, "bike_id": "22ec76b79f967cb86aef611cb8562468", "rental_uris": {"android": "https://dc.lft.to/lastmile_qr_scan", "ios": "https://dc.lft.to/lastmile_qr_scan"}, "name": "22ec76b79f967cb86aef611cb8562468", "is_reserved": 0}, {"is_disabled": 0, "fusion_lon": 0.0, "fusion_lat": 0.0, "lat": 38.870780833333335, "type": "electric_bike", "lon": -77.1434085, "bike_id": "c9845089ebaeaec5d9a99d5dbcb251af", "rental_uris": {"android": "https://dc.lft.to/lastmile_qr_scan", "ios": "https://dc.lft.to/lastmile_qr_scan"}, "name": "c9845089ebaeaec5d9a99d5dbcb251af", "is_reserved": 0}, {"is_disabled": 0, "fusion_lon": 0.0, "fusion_lat": 0.0, "lat": 38.87974716666667, "type": "electric_scooter", "lon": -77.02427066666667, "bike_id": "c6ee864d2236e19cbf8e80aa0c234552", "rental_uris": {"android": "https://dc.lft.to/lastmile_qr_scan", "ios": "https://dc.lft.to/lastmile_qr_scan"}, "name": "c6ee864d2236e19cbf8e80aa0c234552", "is_reserved": 0}, {"is_disabled": 0, "fusion_lon": 0.0, "fusion_lat": 0.0, "lat": 38.91311916666667, "type": "electric_scooter", "lon": -77.03195916666667, "bike_id": "97daecae07bc2dbeb22d472ef94d0dac", "rental_uris": {"android": "https://dc.lft.to/lastmile_qr_scan", "ios": "https://dc.lft.to/lastmile_qr_scan"}, "name": "97daecae07bc2dbeb22d472ef94d0dac", "is_reserved": 0}, {"is_disabled": 0, "fusion_lon": 0.0, "fusion_lat": 0.0, "lat": 38.94921016666667, "type": "electric_scooter", "lon": -77.01858833333333, "bike_id": "7915f88b24264078e48a79b575ceed87", "rental_uris": {"android": "https://dc.lft.to/lastmile_qr_scan", "ios": "https://dc.lft.to/lastmile_qr_scan"}, "name": "7915f88b24264078e48a79b575ceed87", "is_reserved": 0}, {"is_disabled": 0, "fusion_lon": 0.0, "fusion_lat": 0.0, "lat": 38.9175815, "type": "electric_scooter", "lon": -77.00497166666666, "bike_id": "6c7020d8734f406de7f096cc76400969", "rental_uris": {"android": "https://dc.lft.to/lastmile_qr_scan", "ios": "https://dc.lft.to/lastmile_qr_scan"}, "name": "6c7020d8734f406de7f096cc76400969", "is_reserved": 0}, {"is_disabled": 0, "fusion_lon": 0.0, "fusion_lat": 0.0, "lat": 38.92169066666666, "type": "electric_scooter", "lon": -77.0552765, "bike_id": "0bfc921494820babcc3b9fd78a2d3959", "rental_uris": {"android": "https://dc.lft.to/lastmile_qr_scan", "ios": "https://dc.lft.to/lastmile_qr_scan"}, "name": "0bfc921494820babcc3b9fd78a2d3959", "is_reserved": 0}, {"is_disabled": 0, "fusion_lon": 0.0, "fusion_lat": 0.0, "lat": 38.89541666666667, "type": "electric_scooter", "lon": -77.0089135, "bike_id": "122f7621883d4391e3d4c215914044fe", "rental_uris": {"android": "https://dc.lft.to/lastmile_qr_scan", "ios": "https://dc.lft.to/lastmile_qr_scan"}, "name": "122f7621883d4391e3d4c215914044fe", "is_reserved": 0}, {"is_disabled": 0, "fusion_lon": 0.0, "fusion_lat": 0.0, "lat": 38.8935115, "type": "electric_scooter", "lon": -76.949418, "bike_id": "ea7c8ebe9e8577393630209f101e5c1d", "rental_uris": {"android": "https://dc.lft.to/lastmile_qr_scan", "ios": "https://dc.lft.to/lastmile_qr_scan"}, "name": "ea7c8ebe9e8577393630209f101e5c1d", "is_reserved": 0}, {"is_disabled": 0, "fusion_lon": 0.0, "fusion_lat": 0.0, "lat": 38.901594333333335, "type": "electric_scooter", "lon": -77.05910383333334, "bike_id": "57c56a82afdd5877298a141a27db0c79", "rental_uris": {"android": "https://dc.lft.to/lastmile_qr_scan", "ios": "https://dc.lft.to/lastmile_qr_scan"}, "name": "57c56a82afdd5877298a141a27db0c79", "is_reserved": 0}, {"is_disabled": 0, "fusion_lon": 0.0, "fusion_lat": 0.0, "lat": 38.928724333333335, "type": "electric_scooter", "lon": -77.03337283333333, "bike_id": "b149ddba89ad7f1917ccf4d5c293bff2", "rental_uris": {"android": "https://dc.lft.to/lastmile_qr_scan", "ios": "https://dc.lft.to/lastmile_qr_scan"}, "name": "b149ddba89ad7f1917ccf4d5c293bff2", "is_reserved": 0}, {"is_disabled": 0, "fusion_lon": 0.0, "fusion_lat": 0.0, "lat": 38.920567, "type": "electric_scooter", "lon": -77.02439416666667, "bike_id": "1a83d33a93b082ab1d4d9f5bc9088a49", "rental_uris": {"android": "https://dc.lft.to/lastmile_qr_scan", "ios": "https://dc.lft.to/lastmile_qr_scan"}, "name": "1a83d33a93b082ab1d4d9f5bc9088a49", "is_reserved": 0}, {"is_disabled": 0, "fusion_lon": 0.0, "fusion_lat": 0.0, "lat": 38.90620116666667, "type": "electric_scooter", "lon": -77.03208933333333, "bike_id": "2af53906a961af973ee38e2e9085d9b9", "rental_uris": {"android": "https://dc.lft.to/lastmile_qr_scan", "ios": "https://dc.lft.to/lastmile_qr_scan"}, "name": "2af53906a961af973ee38e2e9085d9b9", "is_reserved": 0}, {"is_disabled": 0, "fusion_lon": 0.0, "fusion_lat": 0.0, "lat": 38.929338, "type": "electric_scooter", "lon": -77.0164745, "bike_id": "a2ef103535f3f6ada146ad4bd6003076", "rental_uris": {"android": "https://dc.lft.to/lastmile_qr_scan", "ios": "https://dc.lft.to/lastmile_qr_scan"}, "name": "a2ef103535f3f6ada146ad4bd6003076", "is_reserved": 0}, {"is_disabled": 0, "fusion_lon": 0.0, "fusion_lat": 0.0, "lat": 38.957462, "type": "electric_scooter", "lon": -77.024313, "bike_id": "c379394da4175b64beb182cb0e99e6e0", "rental_uris": {"android": "https://dc.lft.to/lastmile_qr_scan", "ios": "https://dc.lft.to/lastmile_qr_scan"}, "name": "c379394da4175b64beb182cb0e99e6e0", "is_reserved": 0}, {"is_disabled": 0, "fusion_lon": 0.0, "fusion_lat": 0.0, "lat": 38.909726166666665, "type": "electric_scooter", "lon": -77.08557233333333, "bike_id": "40bcaf4b54cd73715ec74886a7a61798", "rental_uris": {"android": "https://dc.lft.to/lastmile_qr_scan", "ios": "https://dc.lft.to/lastmile_qr_scan"}, "name": "40bcaf4b54cd73715ec74886a7a61798", "is_reserved": 0}, {"is_disabled": 0, "fusion_lon": 0.0, "fusion_lat": 0.0, "lat": 38.8672085, "type": "electric_scooter", "lon": -76.97916333333333, "bike_id": "7af03213ec8238d84ca3186b3b81757f", "rental_uris": {"android": "https://dc.lft.to/lastmile_qr_scan", "ios": "https://dc.lft.to/lastmile_qr_scan"}, "name": "7af03213ec8238d84ca3186b3b81757f", "is_reserved": 0}, {"is_disabled": 0, "fusion_lon": 0.0, "fusion_lat": 0.0, "lat": 38.93536433333333, "type": "electric_scooter", "lon": -77.02376316666667, "bike_id": "b7e50f594c214689b24f90560116d558", "rental_uris": {"android": "https://dc.lft.to/lastmile_qr_scan", "ios": "https://dc.lft.to/lastmile_qr_scan"}, "name": "b7e50f594c214689b24f90560116d558", "is_reserved": 0}, {"is_disabled": 0, "fusion_lon": 0.0, "fusion_lat": 0.0, "lat": 38.93297283333333, "type": "electric_scooter", "lon": -77.02444533333333, "bike_id": "6947827e0c9a63f505559ecfa8469507", "rental_uris": {"android": "https://dc.lft.to/lastmile_qr_scan", "ios": "https://dc.lft.to/lastmile_qr_scan"}, "name": "6947827e0c9a63f505559ecfa8469507", "is_reserved": 0}, {"is_disabled": 0, "fusion_lon": 0.0, "fusion_lat": 0.0, "lat": 38.9847875, "type": "electric_scooter", "lon": -77.02648866666667, "bike_id": "19e0d9a0596b304eaff106629914998c", "rental_uris": {"android": "https://dc.lft.to/lastmile_qr_scan", "ios": "https://dc.lft.to/lastmile_qr_scan"}, "name": "19e0d9a0596b304eaff106629914998c", "is_reserved": 0}, {"is_disabled": 0, "fusion_lon": 0.0, "fusion_lat": 0.0, "lat": 38.8845875, "type": "electric_scooter", "lon": -76.954037, "bike_id": "56be234750247b70df3a3ccac3b77e9e", "rental_uris": {"android": "https://dc.lft.to/lastmile_qr_scan", "ios": "https://dc.lft.to/lastmile_qr_scan"}, "name": "56be234750247b70df3a3ccac3b77e9e", "is_reserved": 0}, {"is_disabled": 0, "fusion_lon": 0.0, "fusion_lat": 0.0, "lat": 38.89670983333333, "type": "electric_scooter", "lon": -77.02315583333333, "bike_id": "c7a79cc2ab02633c373c58d51f36bfcf", "rental_uris": {"android": "https://dc.lft.to/lastmile_qr_scan", "ios": "https://dc.lft.to/lastmile_qr_scan"}, "name": "c7a79cc2ab02633c373c58d51f36bfcf", "is_reserved": 0}, {"is_disabled": 0, "fusion_lon": 0.0, "fusion_lat": 0.0, "lat": 38.91341166666667, "type": "electric_scooter", "lon": -77.05215066666666, "bike_id": "9df6db3674505ba7adba3dcbe2b0ea90", "rental_uris": {"android": "https://dc.lft.to/lastmile_qr_scan", "ios": "https://dc.lft.to/lastmile_qr_scan"}, "name": "9df6db3674505ba7adba3dcbe2b0ea90", "is_reserved": 0}, {"is_disabled": 0, "fusion_lon": 0.0, "fusion_lat": 0.0, "lat": 38.933399333333334, "type": "electric_scooter", "lon": -77.04130616666667, "bike_id": "61e3199acaf84d2fb11a8fe98aeeda93", "rental_uris": {"android": "https://dc.lft.to/lastmile_qr_scan", "ios": "https://dc.lft.to/lastmile_qr_scan"}, "name": "61e3199acaf84d2fb11a8fe98aeeda93", "is_reserved": 0}, {"is_disabled": 0, "fusion_lon": 0.0, "fusion_lat": 0.0, "lat": 38.93024116666667, "type": "electric_scooter", "lon": -77.03450666666667, "bike_id": "231f78368be0fa860951b739c5e1df35", "rental_uris": {"android": "https://dc.lft.to/lastmile_qr_scan", "ios": "https://dc.lft.to/lastmile_qr_scan"}, "name": "231f78368be0fa860951b739c5e1df35", "is_reserved": 0}, {"is_disabled": 0, "fusion_lon": 0.0, "fusion_lat": 0.0, "lat": 38.927976666666666, "type": "electric_scooter", "lon": -77.053703, "bike_id": "e36c93807dcb7080aa3e1506044e1b69", "rental_uris": {"android": "https://dc.lft.to/lastmile_qr_scan", "ios": "https://dc.lft.to/lastmile_qr_scan"}, "name": "e36c93807dcb7080aa3e1506044e1b69", "is_reserved": 0}, {"is_disabled": 0, "fusion_lon": 0.0, "fusion_lat": 0.0, "lat": 38.90284883333333, "type": "electric_scooter", "lon": -77.02426716666666, "bike_id": "068a73a1cbd844aa9c954a5639ce2958", "rental_uris": {"android": "https://dc.lft.to/lastmile_qr_scan", "ios": "https://dc.lft.to/lastmile_qr_scan"}, "name": "068a73a1cbd844aa9c954a5639ce2958", "is_reserved": 0}, {"is_disabled": 0, "fusion_lon": 0.0, "fusion_lat": 0.0, "lat": 38.939651833333336, "type": "electric_scooter", "lon": -77.0328065, "bike_id": "cecd78ee499837f5610b0c321092c2f2", "rental_uris": {"android": "https://dc.lft.to/lastmile_qr_scan", "ios": "https://dc.lft.to/lastmile_qr_scan"}, "name": "cecd78ee499837f5610b0c321092c2f2", "is_reserved": 0}, {"is_disabled": 0, "fusion_lon": 0.0, "fusion_lat": 0.0, "lat": 38.95614333333333, "type": "electric_scooter", "lon": -77.02759583333334, "bike_id": "34e233772172681c4e9fdd4eaf31c7f9", "rental_uris": {"android": "https://dc.lft.to/lastmile_qr_scan", "ios": "https://dc.lft.to/lastmile_qr_scan"}, "name": "34e233772172681c4e9fdd4eaf31c7f9", "is_reserved": 0}, {"is_disabled": 0, "fusion_lon": 0.0, "fusion_lat": 0.0, "lat": 38.82445583333333, "type": "electric_bike", "lon": -77.070414, "bike_id": "12cfb1f2504c90f23eb0848aa0c0dcba", "rental_uris": {"android": "https://dc.lft.to/lastmile_qr_scan", "ios": "https://dc.lft.to/lastmile_qr_scan"}, "name": "12cfb1f2504c90f23eb0848aa0c0dcba", "is_reserved": 0}, {"is_disabled": 0, "fusion_lon": 0.0, "fusion_lat": 0.0, "lat": 38.897385166666666, "type": "electric_scooter", "lon": -77.000421, "bike_id": "e75e27033b1130e04e191a11c6d582ba", "rental_uris": {"android": "https://dc.lft.to/lastmile_qr_scan", "ios": "https://dc.lft.to/lastmile_qr_scan"}, "name": "e75e27033b1130e04e191a11c6d582ba", "is_reserved": 0}, {"is_disabled": 0, "fusion_lon": 0.0, "fusion_lat": 0.0, "lat": 38.898338833333334, "type": "electric_scooter", "lon": -76.9463165, "bike_id": "3356ce45e1d691b4fb91b0dd45a63fad", "rental_uris": {"android": "https://dc.lft.to/lastmile_qr_scan", "ios": "https://dc.lft.to/lastmile_qr_scan"}, "name": "3356ce45e1d691b4fb91b0dd45a63fad", "is_reserved": 0}, {"is_disabled": 0, "fusion_lon": 0.0, "fusion_lat": 0.0, "lat": 38.82779516666667, "type": "electric_bike", "lon": -77.11077383333334, "bike_id": "e0078627b0038f625df539f6aaaf58c3", "rental_uris": {"android": "https://dc.lft.to/lastmile_qr_scan", "ios": "https://dc.lft.to/lastmile_qr_scan"}, "name": "e0078627b0038f625df539f6aaaf58c3", "is_reserved": 0}, {"is_disabled": 0, "fusion_lon": 0.0, "fusion_lat": 0.0, "lat": 38.91596966666667, "type": "electric_scooter", "lon": -77.0235005, "bike_id": "70b85e0ee5ed2177a653dbd5f38eeae8", "rental_uris": {"android": "https://dc.lft.to/lastmile_qr_scan", "ios": "https://dc.lft.to/lastmile_qr_scan"}, "name": "70b85e0ee5ed2177a653dbd5f38eeae8", "is_reserved": 0}, {"is_disabled": 0, "fusion_lon": 0.0, "fusion_lat": 0.0, "lat": 38.8587215, "type": "electric_scooter", "lon": -76.99023316666667, "bike_id": "7b219dfba33ca27118c4d096ee503bcb", "rental_uris": {"android": "https://dc.lft.to/lastmile_qr_scan", "ios": "https://dc.lft.to/lastmile_qr_scan"}, "name": "7b219dfba33ca27118c4d096ee503bcb", "is_reserved": 0}, {"is_disabled": 0, "fusion_lon": 0.0, "fusion_lat": 0.0, "lat": 38.936641333333334, "type": "electric_scooter", "lon": -77.032602, "bike_id": "eb1f6701245fe34dfde812a690dee760", "rental_uris": {"android": "https://dc.lft.to/lastmile_qr_scan", "ios": "https://dc.lft.to/lastmile_qr_scan"}, "name": "eb1f6701245fe34dfde812a690dee760", "is_reserved": 0}, {"is_disabled": 0, "fusion_lon": 0.0, "fusion_lat": 0.0, "lat": 38.904725666666664, "type": "electric_bike", "lon": -77.01887383333333, "bike_id": "0089388664cbe396a2b3e290356c301c", "rental_uris": {"android": "https://dc.lft.to/lastmile_qr_scan", "ios": "https://dc.lft.to/lastmile_qr_scan"}, "name": "0089388664cbe396a2b3e290356c301c", "is_reserved": 0}, {"is_disabled": 0, "fusion_lon": 0.0, "fusion_lat": 0.0, "lat": 38.96557266666667, "type": "electric_bike", "lon": -77.02296466666667, "bike_id": "d1e78b33106c54273642e9bec9dce1a4", "rental_uris": {"android": "https://dc.lft.to/lastmile_qr_scan", "ios": "https://dc.lft.to/lastmile_qr_scan"}, "name": "d1e78b33106c54273642e9bec9dce1a4", "is_reserved": 0}, {"is_disabled": 0, "fusion_lon": 0.0, "fusion_lat": 0.0, "lat": 38.92365616666667, "type": "electric_scooter", "lon": -77.05030333333333, "bike_id": "e4fab4dd2f4f97e4b2e06335f55418c5", "rental_uris": {"android": "https://dc.lft.to/lastmile_qr_scan", "ios": "https://dc.lft.to/lastmile_qr_scan"}, "name": "e4fab4dd2f4f97e4b2e06335f55418c5", "is_reserved": 0}, {"is_disabled": 0, "fusion_lon": 0.0, "fusion_lat": 0.0, "lat": 38.913569833333334, "type": "electric_scooter", "lon": -77.03964783333333, "bike_id": "00051c0e9a814d683ee87fe65fc5f955", "rental_uris": {"android": "https://dc.lft.to/lastmile_qr_scan", "ios": "https://dc.lft.to/lastmile_qr_scan"}, "name": "00051c0e9a814d683ee87fe65fc5f955", "is_reserved": 0}, {"is_disabled": 0, "fusion_lon": 0.0, "fusion_lat": 0.0, "lat": 38.89408933333333, "type": "electric_scooter", "lon": -77.021534, "bike_id": "c11802ad2f944de4f5baac29a69b098d", "rental_uris": {"android": "https://dc.lft.to/lastmile_qr_scan", "ios": "https://dc.lft.to/lastmile_qr_scan"}, "name": "c11802ad2f944de4f5baac29a69b098d", "is_reserved": 0}, {"is_disabled": 0, "fusion_lon": 0.0, "fusion_lat": 0.0, "lat": 38.903144833333336, "type": "electric_scooter", "lon": -77.02871616666667, "bike_id": "24e362c4934b8416899d9c9f96fcdd4c", "rental_uris": {"android": "https://dc.lft.to/lastmile_qr_scan", "ios": "https://dc.lft.to/lastmile_qr_scan"}, "name": "24e362c4934b8416899d9c9f96fcdd4c", "is_reserved": 0}, {"is_disabled": 0, "fusion_lon": 0.0, "fusion_lat": 0.0, "lat": 38.907482333333334, "type": "electric_scooter", "lon": -77.00267033333333, "bike_id": "e959afa5fe9f37881a270c0aeaf0209f", "rental_uris": {"android": "https://dc.lft.to/lastmile_qr_scan", "ios": "https://dc.lft.to/lastmile_qr_scan"}, "name": "e959afa5fe9f37881a270c0aeaf0209f", "is_reserved": 0}, {"is_disabled": 0, "fusion_lon": 0.0, "fusion_lat": 0.0, "lat": 38.901882666666666, "type": "electric_scooter", "lon": -77.05933733333333, "bike_id": "e103ad32f2b9eab8c3e832c26b7b7463", "rental_uris": {"android": "https://dc.lft.to/lastmile_qr_scan", "ios": "https://dc.lft.to/lastmile_qr_scan"}, "name": "e103ad32f2b9eab8c3e832c26b7b7463", "is_reserved": 0}, {"is_disabled": 0, "fusion_lon": 0.0, "fusion_lat": 0.0, "lat": 38.918955, "type": "electric_scooter", "lon": -77.0446465, "bike_id": "39032180d526af8ab52bd8bc22b7c452", "rental_uris": {"android": "https://dc.lft.to/lastmile_qr_scan", "ios": "https://dc.lft.to/lastmile_qr_scan"}, "name": "39032180d526af8ab52bd8bc22b7c452", "is_reserved": 0}, {"is_disabled": 0, "fusion_lon": 0.0, "fusion_lat": 0.0, "lat": 38.923095, "type": "electric_scooter", "lon": -77.03105616666667, "bike_id": "b5e2e6b40dd44945648165f7c5c544a5", "rental_uris": {"android": "https://dc.lft.to/lastmile_qr_scan", "ios": "https://dc.lft.to/lastmile_qr_scan"}, "name": "b5e2e6b40dd44945648165f7c5c544a5", "is_reserved": 0}, {"is_disabled": 0, "fusion_lon": 0.0, "fusion_lat": 0.0, "lat": 38.90344733333333, "type": "electric_scooter", "lon": -77.0252235, "bike_id": "6204eb9fe9d3bcd6330d22613b0f08be", "rental_uris": {"android": "https://dc.lft.to/lastmile_qr_scan", "ios": "https://dc.lft.to/lastmile_qr_scan"}, "name": "6204eb9fe9d3bcd6330d22613b0f08be", "is_reserved": 0}, {"is_disabled": 0, "fusion_lon": 0.0, "fusion_lat": 0.0, "lat": 38.90443633333334, "type": "electric_scooter", "lon": -77.0612095, "bike_id": "dd792e1c3b22d1a67c2ba843d629f8c3", "rental_uris": {"android": "https://dc.lft.to/lastmile_qr_scan", "ios": "https://dc.lft.to/lastmile_qr_scan"}, "name": "dd792e1c3b22d1a67c2ba843d629f8c3", "is_reserved": 0}, {"is_disabled": 0, "fusion_lon": 0.0, "fusion_lat": 0.0, "lat": 38.89538816666666, "type": "electric_scooter", "lon": -77.0404295, "bike_id": "e621fc9b19031af4ad908f3ec4c92817", "rental_uris": {"android": "https://dc.lft.to/lastmile_qr_scan", "ios": "https://dc.lft.to/lastmile_qr_scan"}, "name": "e621fc9b19031af4ad908f3ec4c92817", "is_reserved": 0}, {"is_disabled": 0, "fusion_lon": 0.0, "fusion_lat": 0.0, "lat": 38.914174833333334, "type": "electric_scooter", "lon": -77.03072766666666, "bike_id": "d34bfce2e14433244be7495816c445ce", "rental_uris": {"android": "https://dc.lft.to/lastmile_qr_scan", "ios": "https://dc.lft.to/lastmile_qr_scan"}, "name": "d34bfce2e14433244be7495816c445ce", "is_reserved": 0}, {"is_disabled": 0, "fusion_lon": 0.0, "fusion_lat": 0.0, "lat": 38.93101466666667, "type": "electric_scooter", "lon": -77.03268133333333, "bike_id": "ed2a7bbdcca5e76a4adeb9bfe53dc791", "rental_uris": {"android": "https://dc.lft.to/lastmile_qr_scan", "ios": "https://dc.lft.to/lastmile_qr_scan"}, "name": "ed2a7bbdcca5e76a4adeb9bfe53dc791", "is_reserved": 0}, {"is_disabled": 0, "fusion_lon": 0.0, "fusion_lat": 0.0, "lat": 38.928220833333334, "type": "electric_scooter", "lon": -77.02153033333333, "bike_id": "64c9d9e715e4cc95c721e42b0e5ad407", "rental_uris": {"android": "https://dc.lft.to/lastmile_qr_scan", "ios": "https://dc.lft.to/lastmile_qr_scan"}, "name": "64c9d9e715e4cc95c721e42b0e5ad407", "is_reserved": 0}, {"is_disabled": 0, "fusion_lon": 0.0, "fusion_lat": 0.0, "lat": 38.89674383333333, "type": "electric_scooter", "lon": -76.97623766666666, "bike_id": "e610597e41919ef39f9d6606bb7ca8bb", "rental_uris": {"android": "https://dc.lft.to/lastmile_qr_scan", "ios": "https://dc.lft.to/lastmile_qr_scan"}, "name": "e610597e41919ef39f9d6606bb7ca8bb", "is_reserved": 0}, {"is_disabled": 0, "fusion_lon": 0.0, "fusion_lat": 0.0, "lat": 38.900202, "type": "electric_scooter", "lon": -77.05565983333334, "bike_id": "eb3fcc6abcd09a99bc83916c3a783912", "rental_uris": {"android": "https://dc.lft.to/lastmile_qr_scan", "ios": "https://dc.lft.to/lastmile_qr_scan"}, "name": "eb3fcc6abcd09a99bc83916c3a783912", "is_reserved": 0}, {"is_disabled": 0, "fusion_lon": 0.0, "fusion_lat": 0.0, "lat": 38.9602215, "type": "electric_bike", "lon": -77.04247816666667, "bike_id": "86516ebb7f82c04c666fc0aa1d91a1c2", "rental_uris": {"android": "https://dc.lft.to/lastmile_qr_scan", "ios": "https://dc.lft.to/lastmile_qr_scan"}, "name": "86516ebb7f82c04c666fc0aa1d91a1c2", "is_reserved": 0}, {"is_disabled": 0, "fusion_lon": 0.0, "fusion_lat": 0.0, "lat": 38.91820533333333, "type": "electric_scooter", "lon": -77.027156, "bike_id": "1ba15a38fb6331f29ebd68a0daec8aaf", "rental_uris": {"android": "https://dc.lft.to/lastmile_qr_scan", "ios": "https://dc.lft.to/lastmile_qr_scan"}, "name": "1ba15a38fb6331f29ebd68a0daec8aaf", "is_reserved": 0}, {"is_disabled": 0, "fusion_lon": 0.0, "fusion_lat": 0.0, "lat": 38.9184055, "type": "electric_scooter", "lon": -77.03445316666667, "bike_id": "db8276b36db6c549bc2b5fb0f8aabfd5", "rental_uris": {"android": "https://dc.lft.to/lastmile_qr_scan", "ios": "https://dc.lft.to/lastmile_qr_scan"}, "name": "db8276b36db6c549bc2b5fb0f8aabfd5", "is_reserved": 0}, {"is_disabled": 0, "fusion_lon": 0.0, "fusion_lat": 0.0, "lat": 38.90245483333333, "type": "electric_bike", "lon": -76.97015316666666, "bike_id": "a9dc0c47dd36e592b9e7651af65824e0", "rental_uris": {"android": "https://dc.lft.to/lastmile_qr_scan", "ios": "https://dc.lft.to/lastmile_qr_scan"}, "name": "a9dc0c47dd36e592b9e7651af65824e0", "is_reserved": 0}, {"is_disabled": 0, "fusion_lon": 0.0, "fusion_lat": 0.0, "lat": 38.9131425, "type": "electric_scooter", "lon": -77.031847, "bike_id": "fb249bf75a3fa1432b8124d960a870ee", "rental_uris": {"android": "https://dc.lft.to/lastmile_qr_scan", "ios": "https://dc.lft.to/lastmile_qr_scan"}, "name": "fb249bf75a3fa1432b8124d960a870ee", "is_reserved": 0}, {"is_disabled": 0, "fusion_lon": 0.0, "fusion_lat": 0.0, "lat": 38.970543166666666, "type": "electric_bike", "lon": -77.03085416666667, "bike_id": "032a36c387d76a2de465b312e2e8eb4f", "rental_uris": {"android": "https://dc.lft.to/lastmile_qr_scan", "ios": "https://dc.lft.to/lastmile_qr_scan"}, "name": "032a36c387d76a2de465b312e2e8eb4f", "is_reserved": 0}, {"is_disabled": 0, "fusion_lon": 0.0, "fusion_lat": 0.0, "lat": 38.92275383333333, "type": "electric_scooter", "lon": -77.04214033333334, "bike_id": "2cbfefbc365743fd108af134918eb84c", "rental_uris": {"android": "https://dc.lft.to/lastmile_qr_scan", "ios": "https://dc.lft.to/lastmile_qr_scan"}, "name": "2cbfefbc365743fd108af134918eb84c", "is_reserved": 0}, {"is_disabled": 0, "fusion_lon": 0.0, "fusion_lat": 0.0, "lat": 38.876247666666664, "type": "electric_scooter", "lon": -76.965372, "bike_id": "f97f15f708b5bd48e50f0d7b9f3697cb", "rental_uris": {"android": "https://dc.lft.to/lastmile_qr_scan", "ios": "https://dc.lft.to/lastmile_qr_scan"}, "name": "f97f15f708b5bd48e50f0d7b9f3697cb", "is_reserved": 0}, {"is_disabled": 0, "fusion_lon": 0.0, "fusion_lat": 0.0, "lat": 38.914328833333336, "type": "electric_scooter", "lon": -77.029516, "bike_id": "88b01c19ee8c704517f0fc205832c5a1", "rental_uris": {"android": "https://dc.lft.to/lastmile_qr_scan", "ios": "https://dc.lft.to/lastmile_qr_scan"}, "name": "88b01c19ee8c704517f0fc205832c5a1", "is_reserved": 0}, {"is_disabled": 0, "fusion_lon": 0.0, "fusion_lat": 0.0, "lat": 38.89736633333333, "type": "electric_scooter", "lon": -77.0242365, "bike_id": "263fb4dd4509e74c4625dcc8f6eb877a", "rental_uris": {"android": "https://dc.lft.to/lastmile_qr_scan", "ios": "https://dc.lft.to/lastmile_qr_scan"}, "name": "263fb4dd4509e74c4625dcc8f6eb877a", "is_reserved": 0}, {"is_disabled": 0, "fusion_lon": 0.0, "fusion_lat": 0.0, "lat": 38.91184533333333, "type": "electric_scooter", "lon": -77.03809633333333, "bike_id": "f2589a620186c574484730afdd867185", "rental_uris": {"android": "https://dc.lft.to/lastmile_qr_scan", "ios": "https://dc.lft.to/lastmile_qr_scan"}, "name": "f2589a620186c574484730afdd867185", "is_reserved": 0}, {"is_disabled": 0, "fusion_lon": 0.0, "fusion_lat": 0.0, "lat": 38.98829516666667, "type": "electric_bike", "lon": -76.98753033333334, "bike_id": "5811641d565c123dcd3bf4e8dd84e85b", "rental_uris": {"android": "https://dc.lft.to/lastmile_qr_scan", "ios": "https://dc.lft.to/lastmile_qr_scan"}, "name": "5811641d565c123dcd3bf4e8dd84e85b", "is_reserved": 0}, {"is_disabled": 0, "fusion_lon": 0.0, "fusion_lat": 0.0, "lat": 38.941958166666666, "type": "electric_scooter", "lon": -77.02576, "bike_id": "9f34fb2b03c2659cc6595de88d2726d1", "rental_uris": {"android": "https://dc.lft.to/lastmile_qr_scan", "ios": "https://dc.lft.to/lastmile_qr_scan"}, "name": "9f34fb2b03c2659cc6595de88d2726d1", "is_reserved": 0}, {"is_disabled": 0, "fusion_lon": 0.0, "fusion_lat": 0.0, "lat": 38.89746483333333, "type": "electric_scooter", "lon": -77.02677066666666, "bike_id": "e6cf6045dddb16cab10f36d904518669", "rental_uris": {"android": "https://dc.lft.to/lastmile_qr_scan", "ios": "https://dc.lft.to/lastmile_qr_scan"}, "name": "e6cf6045dddb16cab10f36d904518669", "is_reserved": 0}, {"is_disabled": 0, "fusion_lon": 0.0, "fusion_lat": 0.0, "lat": 38.91031266666667, "type": "electric_scooter", "lon": -77.03842633333333, "bike_id": "d1a71d3ac6d6df6f3323fff5d87b98ba", "rental_uris": {"android": "https://dc.lft.to/lastmile_qr_scan", "ios": "https://dc.lft.to/lastmile_qr_scan"}, "name": "d1a71d3ac6d6df6f3323fff5d87b98ba", "is_reserved": 0}, {"is_disabled": 0, "fusion_lon": 0.0, "fusion_lat": 0.0, "lat": 38.909017166666665, "type": "electric_scooter", "lon": -76.99862466666667, "bike_id": "eb12e66c43618e739043b263fc8029d7", "rental_uris": {"android": "https://dc.lft.to/lastmile_qr_scan", "ios": "https://dc.lft.to/lastmile_qr_scan"}, "name": "eb12e66c43618e739043b263fc8029d7", "is_reserved": 0}, {"is_disabled": 0, "fusion_lon": 0.0, "fusion_lat": 0.0, "lat": 38.8827825, "type": "electric_scooter", "lon": -76.98777183333333, "bike_id": "f0a52652a2effb4a0b230f5ffa700763", "rental_uris": {"android": "https://dc.lft.to/lastmile_qr_scan", "ios": "https://dc.lft.to/lastmile_qr_scan"}, "name": "f0a52652a2effb4a0b230f5ffa700763", "is_reserved": 0}, {"is_disabled": 0, "fusion_lon": 0.0, "fusion_lat": 0.0, "lat": 38.89226033333333, "type": "electric_scooter", "lon": -77.02575183333333, "bike_id": "f39b643f4d2435c7727e49186452bb00", "rental_uris": {"android": "https://dc.lft.to/lastmile_qr_scan", "ios": "https://dc.lft.to/lastmile_qr_scan"}, "name": "f39b643f4d2435c7727e49186452bb00", "is_reserved": 0}, {"is_disabled": 0, "fusion_lon": 0.0, "fusion_lat": 0.0, "lat": 38.92580866666667, "type": "electric_scooter", "lon": -76.99488166666667, "bike_id": "ba1dd8f2286f4029d969a7a2b9d60f9e", "rental_uris": {"android": "https://dc.lft.to/lastmile_qr_scan", "ios": "https://dc.lft.to/lastmile_qr_scan"}, "name": "ba1dd8f2286f4029d969a7a2b9d60f9e", "is_reserved": 0}, {"is_disabled": 0, "fusion_lon": 0.0, "fusion_lat": 0.0, "lat": 38.927508833333334, "type": "electric_scooter", "lon": -77.033558, "bike_id": "bbc7ee464de22cec42fd5f55ed72aefa", "rental_uris": {"android": "https://dc.lft.to/lastmile_qr_scan", "ios": "https://dc.lft.to/lastmile_qr_scan"}, "name": "bbc7ee464de22cec42fd5f55ed72aefa", "is_reserved": 0}, {"is_disabled": 0, "fusion_lon": 0.0, "fusion_lat": 0.0, "lat": 38.91276916666666, "type": "electric_scooter", "lon": -77.03846033333333, "bike_id": "3d224348fc94f35ae16a2d4b9d54c6cc", "rental_uris": {"android": "https://dc.lft.to/lastmile_qr_scan", "ios": "https://dc.lft.to/lastmile_qr_scan"}, "name": "3d224348fc94f35ae16a2d4b9d54c6cc", "is_reserved": 0}, {"is_disabled": 0, "fusion_lon": 0.0, "fusion_lat": 0.0, "lat": 38.90176266666667, "type": "electric_scooter", "lon": -77.05314433333334, "bike_id": "726295aa5dc79c6ea1b8a765d2d227d8", "rental_uris": {"android": "https://dc.lft.to/lastmile_qr_scan", "ios": "https://dc.lft.to/lastmile_qr_scan"}, "name": "726295aa5dc79c6ea1b8a765d2d227d8", "is_reserved": 0}, {"is_disabled": 0, "fusion_lon": 0.0, "fusion_lat": 0.0, "lat": 38.884229500000004, "type": "electric_scooter", "lon": -77.01981, "bike_id": "e3c8e526f57be515b27a2d5bcec6d7ce", "rental_uris": {"android": "https://dc.lft.to/lastmile_qr_scan", "ios": "https://dc.lft.to/lastmile_qr_scan"}, "name": "e3c8e526f57be515b27a2d5bcec6d7ce", "is_reserved": 0}, {"is_disabled": 0, "fusion_lon": 0.0, "fusion_lat": 0.0, "lat": 38.939444, "type": "electric_scooter", "lon": -77.03613066666666, "bike_id": "60c48359bbfd47312f5ebd62ae9705bb", "rental_uris": {"android": "https://dc.lft.to/lastmile_qr_scan", "ios": "https://dc.lft.to/lastmile_qr_scan"}, "name": "60c48359bbfd47312f5ebd62ae9705bb", "is_reserved": 0}, {"is_disabled": 0, "fusion_lon": 0.0, "fusion_lat": 0.0, "lat": 38.903388, "type": "electric_scooter", "lon": -77.02593783333333, "bike_id": "fd6a5ce53da8dd0386503c01357fcb4d", "rental_uris": {"android": "https://dc.lft.to/lastmile_qr_scan", "ios": "https://dc.lft.to/lastmile_qr_scan"}, "name": "fd6a5ce53da8dd0386503c01357fcb4d", "is_reserved": 0}, {"is_disabled": 0, "fusion_lon": 0.0, "fusion_lat": 0.0, "lat": 38.925812666666666, "type": "electric_scooter", "lon": -77.03776116666667, "bike_id": "5c5430ec82d5cb490021c541240ee388", "rental_uris": {"android": "https://dc.lft.to/lastmile_qr_scan", "ios": "https://dc.lft.to/lastmile_qr_scan"}, "name": "5c5430ec82d5cb490021c541240ee388", "is_reserved": 0}, {"is_disabled": 0, "fusion_lon": 0.0, "fusion_lat": 0.0, "lat": 38.9096085, "type": "electric_scooter", "lon": -77.04845066666667, "bike_id": "3f7c3dbbd060eb573961036623807545", "rental_uris": {"android": "https://dc.lft.to/lastmile_qr_scan", "ios": "https://dc.lft.to/lastmile_qr_scan"}, "name": "3f7c3dbbd060eb573961036623807545", "is_reserved": 0}, {"is_disabled": 0, "fusion_lon": 0.0, "fusion_lat": 0.0, "lat": 38.89475016666667, "type": "electric_scooter", "lon": -76.933033, "bike_id": "bcc0ad2892e458e2dc87253e83f07d3b", "rental_uris": {"android": "https://dc.lft.to/lastmile_qr_scan", "ios": "https://dc.lft.to/lastmile_qr_scan"}, "name": "bcc0ad2892e458e2dc87253e83f07d3b", "is_reserved": 0}, {"is_disabled": 0, "fusion_lon": 0.0, "fusion_lat": 0.0, "lat": 38.89478533333333, "type": "electric_scooter", "lon": -77.02145816666666, "bike_id": "26a9716c6ab7a736875546a4bed34d24", "rental_uris": {"android": "https://dc.lft.to/lastmile_qr_scan", "ios": "https://dc.lft.to/lastmile_qr_scan"}, "name": "26a9716c6ab7a736875546a4bed34d24", "is_reserved": 0}, {"is_disabled": 0, "fusion_lon": 0.0, "fusion_lat": 0.0, "lat": 38.898035666666665, "type": "electric_scooter", "lon": -77.0118205, "bike_id": "2364eb0b2835871ffabb6122ec3dde2b", "rental_uris": {"android": "https://dc.lft.to/lastmile_qr_scan", "ios": "https://dc.lft.to/lastmile_qr_scan"}, "name": "2364eb0b2835871ffabb6122ec3dde2b", "is_reserved": 0}, {"is_disabled": 0, "fusion_lon": 0.0, "fusion_lat": 0.0, "lat": 38.87897233333333, "type": "electric_scooter", "lon": -76.9352355, "bike_id": "a440bba704c927c53855573146bf0924", "rental_uris": {"android": "https://dc.lft.to/lastmile_qr_scan", "ios": "https://dc.lft.to/lastmile_qr_scan"}, "name": "a440bba704c927c53855573146bf0924", "is_reserved": 0}, {"is_disabled": 0, "fusion_lon": 0.0, "fusion_lat": 0.0, "lat": 38.94303883333333, "type": "electric_scooter", "lon": -77.025317, "bike_id": "78dd45c99f1de78f267c0670d1ef9044", "rental_uris": {"android": "https://dc.lft.to/lastmile_qr_scan", "ios": "https://dc.lft.to/lastmile_qr_scan"}, "name": "78dd45c99f1de78f267c0670d1ef9044", "is_reserved": 0}, {"is_disabled": 0, "fusion_lon": 0.0, "fusion_lat": 0.0, "lat": 38.92605366666667, "type": "electric_scooter", "lon": -77.02152133333334, "bike_id": "7d7ccc7fad3f2e0ecb91025db4feef9a", "rental_uris": {"android": "https://dc.lft.to/lastmile_qr_scan", "ios": "https://dc.lft.to/lastmile_qr_scan"}, "name": "7d7ccc7fad3f2e0ecb91025db4feef9a", "is_reserved": 0}, {"is_disabled": 0, "fusion_lon": 0.0, "fusion_lat": 0.0, "lat": 38.8847965, "type": "electric_scooter", "lon": -77.01983016666667, "bike_id": "23ed59cb15068fbe52e81c4892247c85", "rental_uris": {"android": "https://dc.lft.to/lastmile_qr_scan", "ios": "https://dc.lft.to/lastmile_qr_scan"}, "name": "23ed59cb15068fbe52e81c4892247c85", "is_reserved": 0}, {"is_disabled": 0, "fusion_lon": 0.0, "fusion_lat": 0.0, "lat": 38.936622666666665, "type": "electric_scooter", "lon": -77.0326475, "bike_id": "293981317d07875dc8459dfe993c2a42", "rental_uris": {"android": "https://dc.lft.to/lastmile_qr_scan", "ios": "https://dc.lft.to/lastmile_qr_scan"}, "name": "293981317d07875dc8459dfe993c2a42", "is_reserved": 0}, {"is_disabled": 0, "fusion_lon": 0.0, "fusion_lat": 0.0, "lat": 38.92191916666667, "type": "electric_scooter", "lon": -76.9975405, "bike_id": "d5ca4cd50af71b8b4787bc9e27617332", "rental_uris": {"android": "https://dc.lft.to/lastmile_qr_scan", "ios": "https://dc.lft.to/lastmile_qr_scan"}, "name": "d5ca4cd50af71b8b4787bc9e27617332", "is_reserved": 0}, {"is_disabled": 0, "fusion_lon": 0.0, "fusion_lat": 0.0, "lat": 38.931807666666664, "type": "electric_scooter", "lon": -77.07255133333334, "bike_id": "9d819e9dccc1beaab80d4ad1dbf99651", "rental_uris": {"android": "https://dc.lft.to/lastmile_qr_scan", "ios": "https://dc.lft.to/lastmile_qr_scan"}, "name": "9d819e9dccc1beaab80d4ad1dbf99651", "is_reserved": 0}, {"is_disabled": 0, "fusion_lon": 0.0, "fusion_lat": 0.0, "lat": 38.90828066666667, "type": "electric_scooter", "lon": -77.03193283333333, "bike_id": "bdafe6a345baed0cc9944c474d5acc2c", "rental_uris": {"android": "https://dc.lft.to/lastmile_qr_scan", "ios": "https://dc.lft.to/lastmile_qr_scan"}, "name": "bdafe6a345baed0cc9944c474d5acc2c", "is_reserved": 0}, {"is_disabled": 0, "fusion_lon": 0.0, "fusion_lat": 0.0, "lat": 38.89969, "type": "electric_bike", "lon": -76.986704, "bike_id": "d0f46c14be9463cc062e60aa5177edc4", "rental_uris": {"android": "https://dc.lft.to/lastmile_qr_scan", "ios": "https://dc.lft.to/lastmile_qr_scan"}, "name": "d0f46c14be9463cc062e60aa5177edc4", "is_reserved": 0}, {"is_disabled": 0, "fusion_lon": 0.0, "fusion_lat": 0.0, "lat": 38.898950666666664, "type": "electric_scooter", "lon": -77.05288066666667, "bike_id": "e38ac74f0243910dd3a646a466c6136a", "rental_uris": {"android": "https://dc.lft.to/lastmile_qr_scan", "ios": "https://dc.lft.to/lastmile_qr_scan"}, "name": "e38ac74f0243910dd3a646a466c6136a", "is_reserved": 0}, {"is_disabled": 0, "fusion_lon": 0.0, "fusion_lat": 0.0, "lat": 38.898432666666665, "type": "electric_scooter", "lon": -76.94630533333333, "bike_id": "eb61534a444a317e8bffada9ff9c7439", "rental_uris": {"android": "https://dc.lft.to/lastmile_qr_scan", "ios": "https://dc.lft.to/lastmile_qr_scan"}, "name": "eb61534a444a317e8bffada9ff9c7439", "is_reserved": 0}, {"is_disabled": 0, "fusion_lon": 0.0, "fusion_lat": 0.0, "lat": 38.90312866666667, "type": "electric_scooter", "lon": -76.98240616666666, "bike_id": "069f91800d2af3a0efce0563d9e691b7", "rental_uris": {"android": "https://dc.lft.to/lastmile_qr_scan", "ios": "https://dc.lft.to/lastmile_qr_scan"}, "name": "069f91800d2af3a0efce0563d9e691b7", "is_reserved": 0}, {"is_disabled": 0, "fusion_lon": 0.0, "fusion_lat": 0.0, "lat": 38.96652483333333, "type": "electric_bike", "lon": -76.93021383333334, "bike_id": "13275f1e006aee5fb873d490725c14fd", "rental_uris": {"android": "https://dc.lft.to/lastmile_qr_scan", "ios": "https://dc.lft.to/lastmile_qr_scan"}, "name": "13275f1e006aee5fb873d490725c14fd", "is_reserved": 0}, {"is_disabled": 0, "fusion_lon": 0.0, "fusion_lat": 0.0, "lat": 38.925073166666664, "type": "electric_scooter", "lon": -77.03877316666667, "bike_id": "12eda363a7a2fe524306bd814889d8c4", "rental_uris": {"android": "https://dc.lft.to/lastmile_qr_scan", "ios": "https://dc.lft.to/lastmile_qr_scan"}, "name": "12eda363a7a2fe524306bd814889d8c4", "is_reserved": 0}, {"is_disabled": 0, "fusion_lon": 0.0, "fusion_lat": 0.0, "lat": 38.879834333333335, "type": "electric_bike", "lon": -76.91597333333333, "bike_id": "8e759e29c6f6eb8cf2e38cbef922f4d7", "rental_uris": {"android": "https://dc.lft.to/lastmile_qr_scan", "ios": "https://dc.lft.to/lastmile_qr_scan"}, "name": "8e759e29c6f6eb8cf2e38cbef922f4d7", "is_reserved": 0}, {"is_disabled": 0, "fusion_lon": 0.0, "fusion_lat": 0.0, "lat": 38.89843716666667, "type": "electric_scooter", "lon": -77.0282655, "bike_id": "f6046dcb6a5a2eba905ec4505b21093e", "rental_uris": {"android": "https://dc.lft.to/lastmile_qr_scan", "ios": "https://dc.lft.to/lastmile_qr_scan"}, "name": "f6046dcb6a5a2eba905ec4505b21093e", "is_reserved": 0}, {"is_disabled": 0, "fusion_lon": 0.0, "fusion_lat": 0.0, "lat": 38.88871833333333, "type": "electric_scooter", "lon": -77.03998466666667, "bike_id": "cbffc5a20d48bebef715ae0314a33159", "rental_uris": {"android": "https://dc.lft.to/lastmile_qr_scan", "ios": "https://dc.lft.to/lastmile_qr_scan"}, "name": "cbffc5a20d48bebef715ae0314a33159", "is_reserved": 0}, {"is_disabled": 0, "fusion_lon": 0.0, "fusion_lat": 0.0, "lat": 38.93324333333333, "type": "electric_scooter", "lon": -77.08191416666666, "bike_id": "4dee94e3e45774b909a60e7121818f30", "rental_uris": {"android": "https://dc.lft.to/lastmile_qr_scan", "ios": "https://dc.lft.to/lastmile_qr_scan"}, "name": "4dee94e3e45774b909a60e7121818f30", "is_reserved": 0}, {"is_disabled": 0, "fusion_lon": 0.0, "fusion_lat": 0.0, "lat": 38.930077, "type": "electric_scooter", "lon": -77.03274216666667, "bike_id": "977e41f209af30c3a52f56c50cf028a8", "rental_uris": {"android": "https://dc.lft.to/lastmile_qr_scan", "ios": "https://dc.lft.to/lastmile_qr_scan"}, "name": "977e41f209af30c3a52f56c50cf028a8", "is_reserved": 0}, {"is_disabled": 0, "fusion_lon": 0.0, "fusion_lat": 0.0, "lat": 38.9210235, "type": "electric_scooter", "lon": -77.04360566666666, "bike_id": "c1534e1d9bcd8ffc0522f3ba6a599504", "rental_uris": {"android": "https://dc.lft.to/lastmile_qr_scan", "ios": "https://dc.lft.to/lastmile_qr_scan"}, "name": "c1534e1d9bcd8ffc0522f3ba6a599504", "is_reserved": 0}, {"is_disabled": 0, "fusion_lon": 0.0, "fusion_lat": 0.0, "lat": 38.858011, "type": "electric_bike", "lon": -76.98748133333333, "bike_id": "e21a0f21d8d9e1106c12d3ba86e47555", "rental_uris": {"android": "https://dc.lft.to/lastmile_qr_scan", "ios": "https://dc.lft.to/lastmile_qr_scan"}, "name": "e21a0f21d8d9e1106c12d3ba86e47555", "is_reserved": 0}, {"is_disabled": 0, "fusion_lon": 0.0, "fusion_lat": 0.0, "lat": 38.90440266666667, "type": "electric_scooter", "lon": -77.04350633333334, "bike_id": "db04029baf110d83e8a6130617fa8bfe", "rental_uris": {"android": "https://dc.lft.to/lastmile_qr_scan", "ios": "https://dc.lft.to/lastmile_qr_scan"}, "name": "db04029baf110d83e8a6130617fa8bfe", "is_reserved": 0}, {"is_disabled": 0, "fusion_lon": 0.0, "fusion_lat": 0.0, "lat": 38.902855333333335, "type": "electric_scooter", "lon": -77.03438566666667, "bike_id": "b6fabada961ebbf71e5c96389fd6e681", "rental_uris": {"android": "https://dc.lft.to/lastmile_qr_scan", "ios": "https://dc.lft.to/lastmile_qr_scan"}, "name": "b6fabada961ebbf71e5c96389fd6e681", "is_reserved": 0}, {"is_disabled": 0, "fusion_lon": 0.0, "fusion_lat": 0.0, "lat": 38.9847815, "type": "electric_scooter", "lon": -77.0264425, "bike_id": "5396b52dc9909db1c613f1527f7a1cbc", "rental_uris": {"android": "https://dc.lft.to/lastmile_qr_scan", "ios": "https://dc.lft.to/lastmile_qr_scan"}, "name": "5396b52dc9909db1c613f1527f7a1cbc", "is_reserved": 0}, {"is_disabled": 0, "fusion_lon": 0.0, "fusion_lat": 0.0, "lat": 38.911173, "type": "electric_scooter", "lon": -76.99770483333333, "bike_id": "bd7374b56c7f223216a436566a5135c2", "rental_uris": {"android": "https://dc.lft.to/lastmile_qr_scan", "ios": "https://dc.lft.to/lastmile_qr_scan"}, "name": "bd7374b56c7f223216a436566a5135c2", "is_reserved": 0}, {"is_disabled": 0, "fusion_lon": 0.0, "fusion_lat": 0.0, "lat": 38.91152183333333, "type": "electric_scooter", "lon": -77.08787083333333, "bike_id": "59976c39ab230aed6031820fe73b6777", "rental_uris": {"android": "https://dc.lft.to/lastmile_qr_scan", "ios": "https://dc.lft.to/lastmile_qr_scan"}, "name": "59976c39ab230aed6031820fe73b6777", "is_reserved": 0}, {"is_disabled": 0, "fusion_lon": 0.0, "fusion_lat": 0.0, "lat": 38.915503, "type": "electric_scooter", "lon": -77.038558, "bike_id": "b368907247b28ea32988f687179df96c", "rental_uris": {"android": "https://dc.lft.to/lastmile_qr_scan", "ios": "https://dc.lft.to/lastmile_qr_scan"}, "name": "b368907247b28ea32988f687179df96c", "is_reserved": 0}, {"is_disabled": 0, "fusion_lon": 0.0, "fusion_lat": 0.0, "lat": 38.921086, "type": "electric_scooter", "lon": -77.03118483333333, "bike_id": "3d50aff54282666f396ef86b9b13479e", "rental_uris": {"android": "https://dc.lft.to/lastmile_qr_scan", "ios": "https://dc.lft.to/lastmile_qr_scan"}, "name": "3d50aff54282666f396ef86b9b13479e", "is_reserved": 0}, {"is_disabled": 0, "fusion_lon": 0.0, "fusion_lat": 0.0, "lat": 38.90621383333333, "type": "electric_scooter", "lon": -77.05135966666667, "bike_id": "e61b6b69a91b4512ea08a8eac38fff7c", "rental_uris": {"android": "https://dc.lft.to/lastmile_qr_scan", "ios": "https://dc.lft.to/lastmile_qr_scan"}, "name": "e61b6b69a91b4512ea08a8eac38fff7c", "is_reserved": 0}, {"is_disabled": 0, "fusion_lon": 0.0, "fusion_lat": 0.0, "lat": 38.9325255, "type": "electric_scooter", "lon": -77.03256766666667, "bike_id": "ba8b22665a4302e5aded66cfaa56190f", "rental_uris": {"android": "https://dc.lft.to/lastmile_qr_scan", "ios": "https://dc.lft.to/lastmile_qr_scan"}, "name": "ba8b22665a4302e5aded66cfaa56190f", "is_reserved": 0}, {"is_disabled": 0, "fusion_lon": 0.0, "fusion_lat": 0.0, "lat": 38.905187166666664, "type": "electric_scooter", "lon": -77.0511505, "bike_id": "4d0dd05ecc2187e7a67036c2c6be559e", "rental_uris": {"android": "https://dc.lft.to/lastmile_qr_scan", "ios": "https://dc.lft.to/lastmile_qr_scan"}, "name": "4d0dd05ecc2187e7a67036c2c6be559e", "is_reserved": 0}, {"is_disabled": 0, "fusion_lon": 0.0, "fusion_lat": 0.0, "lat": 38.86588116666667, "type": "electric_scooter", "lon": -76.987169, "bike_id": "f7cccbbc7ecd4e1151d44337461721f3", "rental_uris": {"android": "https://dc.lft.to/lastmile_qr_scan", "ios": "https://dc.lft.to/lastmile_qr_scan"}, "name": "f7cccbbc7ecd4e1151d44337461721f3", "is_reserved": 0}, {"is_disabled": 0, "fusion_lon": 0.0, "fusion_lat": 0.0, "lat": 38.916952333333334, "type": "electric_scooter", "lon": -77.0282225, "bike_id": "b105ccf72ae9e8443f35877b8f435aea", "rental_uris": {"android": "https://dc.lft.to/lastmile_qr_scan", "ios": "https://dc.lft.to/lastmile_qr_scan"}, "name": "b105ccf72ae9e8443f35877b8f435aea", "is_reserved": 0}, {"is_disabled": 0, "fusion_lon": 0.0, "fusion_lat": 0.0, "lat": 38.94976533333333, "type": "electric_scooter", "lon": -77.09440333333333, "bike_id": "9701355c1470db29a87553b79a02ba59", "rental_uris": {"android": "https://dc.lft.to/lastmile_qr_scan", "ios": "https://dc.lft.to/lastmile_qr_scan"}, "name": "9701355c1470db29a87553b79a02ba59", "is_reserved": 0}, {"is_disabled": 0, "fusion_lon": 0.0, "fusion_lat": 0.0, "lat": 38.87666633333333, "type": "electric_scooter", "lon": -76.93199183333333, "bike_id": "74fdf86eed43ecdbbbf34768a15bb8d7", "rental_uris": {"android": "https://dc.lft.to/lastmile_qr_scan", "ios": "https://dc.lft.to/lastmile_qr_scan"}, "name": "74fdf86eed43ecdbbbf34768a15bb8d7", "is_reserved": 0}, {"is_disabled": 0, "fusion_lon": 0.0, "fusion_lat": 0.0, "lat": 38.93390866666667, "type": "electric_scooter", "lon": -77.04541616666667, "bike_id": "b412193cd1a98498be80b21cab54765c", "rental_uris": {"android": "https://dc.lft.to/lastmile_qr_scan", "ios": "https://dc.lft.to/lastmile_qr_scan"}, "name": "b412193cd1a98498be80b21cab54765c", "is_reserved": 0}, {"is_disabled": 0, "fusion_lon": 0.0, "fusion_lat": 0.0, "lat": 38.94538266666667, "type": "electric_bike", "lon": -77.344614, "bike_id": "8e4b204ebd3406c68ec0374b759a8ff4", "rental_uris": {"android": "https://dc.lft.to/lastmile_qr_scan", "ios": "https://dc.lft.to/lastmile_qr_scan"}, "name": "8e4b204ebd3406c68ec0374b759a8ff4", "is_reserved": 0}, {"is_disabled": 0, "fusion_lon": 0.0, "fusion_lat": 0.0, "lat": 38.8987475, "type": "electric_scooter", "lon": -77.01992566666667, "bike_id": "77e6cf5fa9296eea6a803b1bcc31025b", "rental_uris": {"android": "https://dc.lft.to/lastmile_qr_scan", "ios": "https://dc.lft.to/lastmile_qr_scan"}, "name": "77e6cf5fa9296eea6a803b1bcc31025b", "is_reserved": 0}, {"is_disabled": 0, "fusion_lon": 0.0, "fusion_lat": 0.0, "lat": 38.90024866666667, "type": "electric_scooter", "lon": -77.02385016666666, "bike_id": "d2476a3d81738fcec94646168aec07a0", "rental_uris": {"android": "https://dc.lft.to/lastmile_qr_scan", "ios": "https://dc.lft.to/lastmile_qr_scan"}, "name": "d2476a3d81738fcec94646168aec07a0", "is_reserved": 0}, {"is_disabled": 0, "fusion_lon": 0.0, "fusion_lat": 0.0, "lat": 38.922202, "type": "electric_scooter", "lon": -77.042439, "bike_id": "1815f24ba8675106435c9bbe901e51f2", "rental_uris": {"android": "https://dc.lft.to/lastmile_qr_scan", "ios": "https://dc.lft.to/lastmile_qr_scan"}, "name": "1815f24ba8675106435c9bbe901e51f2", "is_reserved": 0}, {"is_disabled": 0, "fusion_lon": 0.0, "fusion_lat": 0.0, "lat": 38.87824033333333, "type": "electric_scooter", "lon": -76.963185, "bike_id": "d0bc1b5557df70c277b49cfdbd65c41d", "rental_uris": {"android": "https://dc.lft.to/lastmile_qr_scan", "ios": "https://dc.lft.to/lastmile_qr_scan"}, "name": "d0bc1b5557df70c277b49cfdbd65c41d", "is_reserved": 0}, {"is_disabled": 0, "fusion_lon": 0.0, "fusion_lat": 0.0, "lat": 38.911108, "type": "electric_scooter", "lon": -77.05042983333334, "bike_id": "906cd3919578f09056d73ec7b26f2cf7", "rental_uris": {"android": "https://dc.lft.to/lastmile_qr_scan", "ios": "https://dc.lft.to/lastmile_qr_scan"}, "name": "906cd3919578f09056d73ec7b26f2cf7", "is_reserved": 0}, {"is_disabled": 0, "fusion_lon": 0.0, "fusion_lat": 0.0, "lat": 38.9518135, "type": "electric_scooter", "lon": -77.0276765, "bike_id": "d8c6232bc7397f40c787abc7f507c27e", "rental_uris": {"android": "https://dc.lft.to/lastmile_qr_scan", "ios": "https://dc.lft.to/lastmile_qr_scan"}, "name": "d8c6232bc7397f40c787abc7f507c27e", "is_reserved": 0}, {"is_disabled": 0, "fusion_lon": 0.0, "fusion_lat": 0.0, "lat": 38.89703133333333, "type": "electric_bike", "lon": -77.04521766666667, "bike_id": "7e1e42a711426e1b261520e68faca323", "rental_uris": {"android": "https://dc.lft.to/lastmile_qr_scan", "ios": "https://dc.lft.to/lastmile_qr_scan"}, "name": "7e1e42a711426e1b261520e68faca323", "is_reserved": 0}, {"is_disabled": 0, "fusion_lon": 0.0, "fusion_lat": 0.0, "lat": 38.915661166666666, "type": "electric_scooter", "lon": -77.04169266666666, "bike_id": "879fb49bd70097663befc2a45d6ff402", "rental_uris": {"android": "https://dc.lft.to/lastmile_qr_scan", "ios": "https://dc.lft.to/lastmile_qr_scan"}, "name": "879fb49bd70097663befc2a45d6ff402", "is_reserved": 0}, {"is_disabled": 0, "fusion_lon": 0.0, "fusion_lat": 0.0, "lat": 38.892338333333335, "type": "electric_scooter", "lon": -77.05002566666667, "bike_id": "8a80c4778286f7f58b65b6a3b6ea0116", "rental_uris": {"android": "https://dc.lft.to/lastmile_qr_scan", "ios": "https://dc.lft.to/lastmile_qr_scan"}, "name": "8a80c4778286f7f58b65b6a3b6ea0116", "is_reserved": 0}, {"is_disabled": 0, "fusion_lon": 0.0, "fusion_lat": 0.0, "lat": 38.9171325, "type": "electric_scooter", "lon": -77.02789316666667, "bike_id": "24328e8eab630c3f41ddd750bc5ba205", "rental_uris": {"android": "https://dc.lft.to/lastmile_qr_scan", "ios": "https://dc.lft.to/lastmile_qr_scan"}, "name": "24328e8eab630c3f41ddd750bc5ba205", "is_reserved": 0}, {"is_disabled": 0, "fusion_lon": 0.0, "fusion_lat": 0.0, "lat": 38.902764, "type": "electric_scooter", "lon": -77.021719, "bike_id": "ecfe5484e9cae7ba7d70b9428ae0c9b7", "rental_uris": {"android": "https://dc.lft.to/lastmile_qr_scan", "ios": "https://dc.lft.to/lastmile_qr_scan"}, "name": "ecfe5484e9cae7ba7d70b9428ae0c9b7", "is_reserved": 0}, {"is_disabled": 0, "fusion_lon": 0.0, "fusion_lat": 0.0, "lat": 38.8773545, "type": "electric_scooter", "lon": -77.01745466666667, "bike_id": "45ef8f2d8dfed22656fe3561c0a863d9", "rental_uris": {"android": "https://dc.lft.to/lastmile_qr_scan", "ios": "https://dc.lft.to/lastmile_qr_scan"}, "name": "45ef8f2d8dfed22656fe3561c0a863d9", "is_reserved": 0}, {"is_disabled": 0, "fusion_lon": 0.0, "fusion_lat": 0.0, "lat": 38.9074025, "type": "electric_scooter", "lon": -77.02181316666666, "bike_id": "21ddbd0a21e6c3167775adcd4a145b9c", "rental_uris": {"android": "https://dc.lft.to/lastmile_qr_scan", "ios": "https://dc.lft.to/lastmile_qr_scan"}, "name": "21ddbd0a21e6c3167775adcd4a145b9c", "is_reserved": 0}, {"is_disabled": 0, "fusion_lon": 0.0, "fusion_lat": 0.0, "lat": 39.0412525, "type": "electric_bike", "lon": -76.98907316666667, "bike_id": "2c033cf7fae05399a5be7cd0bad8b485", "rental_uris": {"android": "https://dc.lft.to/lastmile_qr_scan", "ios": "https://dc.lft.to/lastmile_qr_scan"}, "name": "2c033cf7fae05399a5be7cd0bad8b485", "is_reserved": 0}, {"is_disabled": 0, "fusion_lon": 0.0, "fusion_lat": 0.0, "lat": 38.897914666666665, "type": "electric_scooter", "lon": -77.01199466666667, "bike_id": "000654b46fa6bccd43b6e42d2502a964", "rental_uris": {"android": "https://dc.lft.to/lastmile_qr_scan", "ios": "https://dc.lft.to/lastmile_qr_scan"}, "name": "000654b46fa6bccd43b6e42d2502a964", "is_reserved": 0}, {"is_disabled": 0, "fusion_lon": 0.0, "fusion_lat": 0.0, "lat": 38.88049933333333, "type": "electric_scooter", "lon": -77.0036635, "bike_id": "51cb2cca2bd0b38ea0647b548ea9f057", "rental_uris": {"android": "https://dc.lft.to/lastmile_qr_scan", "ios": "https://dc.lft.to/lastmile_qr_scan"}, "name": "51cb2cca2bd0b38ea0647b548ea9f057", "is_reserved": 0}, {"is_disabled": 0, "fusion_lon": 0.0, "fusion_lat": 0.0, "lat": 38.939644, "type": "electric_scooter", "lon": -77.03276766666667, "bike_id": "c3ab437ccde9a7ca8bf8630fd2a98198", "rental_uris": {"android": "https://dc.lft.to/lastmile_qr_scan", "ios": "https://dc.lft.to/lastmile_qr_scan"}, "name": "c3ab437ccde9a7ca8bf8630fd2a98198", "is_reserved": 0}, {"is_disabled": 0, "fusion_lon": 0.0, "fusion_lat": 0.0, "lat": 38.906447166666666, "type": "electric_scooter", "lon": -77.04136766666667, "bike_id": "da2a3b71677e4352677bf4e77e551584", "rental_uris": {"android": "https://dc.lft.to/lastmile_qr_scan", "ios": "https://dc.lft.to/lastmile_qr_scan"}, "name": "da2a3b71677e4352677bf4e77e551584", "is_reserved": 0}, {"is_disabled": 0, "fusion_lon": 0.0, "fusion_lat": 0.0, "lat": 38.8923415, "type": "electric_scooter", "lon": -77.03212516666666, "bike_id": "ceaea68111688fb5ec6ce7edb155587d", "rental_uris": {"android": "https://dc.lft.to/lastmile_qr_scan", "ios": "https://dc.lft.to/lastmile_qr_scan"}, "name": "ceaea68111688fb5ec6ce7edb155587d", "is_reserved": 0}, {"is_disabled": 0, "fusion_lon": 0.0, "fusion_lat": 0.0, "lat": 38.9010295, "type": "electric_scooter", "lon": -77.019895, "bike_id": "adfc419e15bdeef6c269012cabb80ab2", "rental_uris": {"android": "https://dc.lft.to/lastmile_qr_scan", "ios": "https://dc.lft.to/lastmile_qr_scan"}, "name": "adfc419e15bdeef6c269012cabb80ab2", "is_reserved": 0}, {"is_disabled": 0, "fusion_lon": 0.0, "fusion_lat": 0.0, "lat": 38.936618, "type": "electric_scooter", "lon": -77.03257933333333, "bike_id": "e7cb92ad5b726e5965f3e091b38acaba", "rental_uris": {"android": "https://dc.lft.to/lastmile_qr_scan", "ios": "https://dc.lft.to/lastmile_qr_scan"}, "name": "e7cb92ad5b726e5965f3e091b38acaba", "is_reserved": 0}, {"is_disabled": 0, "fusion_lon": 0.0, "fusion_lat": 0.0, "lat": 38.90540133333333, "type": "electric_scooter", "lon": -77.02212616666667, "bike_id": "a80d6140ea5c8abc1eb6d13f843c6509", "rental_uris": {"android": "https://dc.lft.to/lastmile_qr_scan", "ios": "https://dc.lft.to/lastmile_qr_scan"}, "name": "a80d6140ea5c8abc1eb6d13f843c6509", "is_reserved": 0}, {"is_disabled": 0, "fusion_lon": 0.0, "fusion_lat": 0.0, "lat": 38.89217333333333, "type": "electric_scooter", "lon": -76.9574335, "bike_id": "b68a3e2df2ef67a5c7bd8a4fbf914aad", "rental_uris": {"android": "https://dc.lft.to/lastmile_qr_scan", "ios": "https://dc.lft.to/lastmile_qr_scan"}, "name": "b68a3e2df2ef67a5c7bd8a4fbf914aad", "is_reserved": 0}, {"is_disabled": 0, "fusion_lon": 0.0, "fusion_lat": 0.0, "lat": 38.90940283333333, "type": "electric_scooter", "lon": -77.046578, "bike_id": "e9e5b412475c8dff1613b7f7dec50835", "rental_uris": {"android": "https://dc.lft.to/lastmile_qr_scan", "ios": "https://dc.lft.to/lastmile_qr_scan"}, "name": "e9e5b412475c8dff1613b7f7dec50835", "is_reserved": 0}, {"is_disabled": 0, "fusion_lon": 0.0, "fusion_lat": 0.0, "lat": 38.99091933333333, "type": "electric_bike", "lon": -76.87494516666666, "bike_id": "18999c7cd81a9428d18dd6da930e1f87", "rental_uris": {"android": "https://dc.lft.to/lastmile_qr_scan", "ios": "https://dc.lft.to/lastmile_qr_scan"}, "name": "18999c7cd81a9428d18dd6da930e1f87", "is_reserved": 0}, {"is_disabled": 0, "fusion_lon": 0.0, "fusion_lat": 0.0, "lat": 38.901414333333335, "type": "electric_scooter", "lon": -77.0006985, "bike_id": "33bf35bd313321545543744156a29cca", "rental_uris": {"android": "https://dc.lft.to/lastmile_qr_scan", "ios": "https://dc.lft.to/lastmile_qr_scan"}, "name": "33bf35bd313321545543744156a29cca", "is_reserved": 0}, {"is_disabled": 0, "fusion_lon": 0.0, "fusion_lat": 0.0, "lat": 38.910213166666665, "type": "electric_scooter", "lon": -77.0075935, "bike_id": "8cd18361398099a45a9eb936e3f09367", "rental_uris": {"android": "https://dc.lft.to/lastmile_qr_scan", "ios": "https://dc.lft.to/lastmile_qr_scan"}, "name": "8cd18361398099a45a9eb936e3f09367", "is_reserved": 0}, {"is_disabled": 0, "fusion_lon": 0.0, "fusion_lat": 0.0, "lat": 38.8965205, "type": "electric_scooter", "lon": -77.03219116666666, "bike_id": "035a0ad1c569be5fb8cf26c3fdaf4b08", "rental_uris": {"android": "https://dc.lft.to/lastmile_qr_scan", "ios": "https://dc.lft.to/lastmile_qr_scan"}, "name": "035a0ad1c569be5fb8cf26c3fdaf4b08", "is_reserved": 0}, {"is_disabled": 0, "fusion_lon": 0.0, "fusion_lat": 0.0, "lat": 38.89679533333333, "type": "electric_scooter", "lon": -77.05123366666666, "bike_id": "d4b581323c9d265c1f8e3597d985036c", "rental_uris": {"android": "https://dc.lft.to/lastmile_qr_scan", "ios": "https://dc.lft.to/lastmile_qr_scan"}, "name": "d4b581323c9d265c1f8e3597d985036c", "is_reserved": 0}, {"is_disabled": 0, "fusion_lon": 0.0, "fusion_lat": 0.0, "lat": 38.87621933333333, "type": "electric_scooter", "lon": -76.96541633333334, "bike_id": "a31f06608f9ac7fc6c5540995e603c13", "rental_uris": {"android": "https://dc.lft.to/lastmile_qr_scan", "ios": "https://dc.lft.to/lastmile_qr_scan"}, "name": "a31f06608f9ac7fc6c5540995e603c13", "is_reserved": 0}, {"is_disabled": 0, "fusion_lon": 0.0, "fusion_lat": 0.0, "lat": 38.89011, "type": "electric_scooter", "lon": -77.03322566666667, "bike_id": "92d71cca739c24da737c64090676b2d0", "rental_uris": {"android": "https://dc.lft.to/lastmile_qr_scan", "ios": "https://dc.lft.to/lastmile_qr_scan"}, "name": "92d71cca739c24da737c64090676b2d0", "is_reserved": 0}, {"is_disabled": 0, "fusion_lon": 0.0, "fusion_lat": 0.0, "lat": 38.9016815, "type": "electric_scooter", "lon": -77.0257705, "bike_id": "eac37cd9f1b2d444c74da62316f7d46d", "rental_uris": {"android": "https://dc.lft.to/lastmile_qr_scan", "ios": "https://dc.lft.to/lastmile_qr_scan"}, "name": "eac37cd9f1b2d444c74da62316f7d46d", "is_reserved": 0}, {"is_disabled": 0, "fusion_lon": 0.0, "fusion_lat": 0.0, "lat": 38.905964, "type": "electric_scooter", "lon": -77.04112433333333, "bike_id": "c4daeacefa3636b13cc5d9d64c1da6da", "rental_uris": {"android": "https://dc.lft.to/lastmile_qr_scan", "ios": "https://dc.lft.to/lastmile_qr_scan"}, "name": "c4daeacefa3636b13cc5d9d64c1da6da", "is_reserved": 0}, {"is_disabled": 0, "fusion_lon": 0.0, "fusion_lat": 0.0, "lat": 38.92645383333333, "type": "electric_scooter", "lon": -77.0371925, "bike_id": "fab1d6db8a0814ea793dd061a5254ea1", "rental_uris": {"android": "https://dc.lft.to/lastmile_qr_scan", "ios": "https://dc.lft.to/lastmile_qr_scan"}, "name": "fab1d6db8a0814ea793dd061a5254ea1", "is_reserved": 0}, {"is_disabled": 0, "fusion_lon": 0.0, "fusion_lat": 0.0, "lat": 38.909712666666664, "type": "electric_scooter", "lon": -77.067682, "bike_id": "50eecfa3c21eb34a7a43941ccafd084b", "rental_uris": {"android": "https://dc.lft.to/lastmile_qr_scan", "ios": "https://dc.lft.to/lastmile_qr_scan"}, "name": "50eecfa3c21eb34a7a43941ccafd084b", "is_reserved": 0}, {"is_disabled": 0, "fusion_lon": 0.0, "fusion_lat": 0.0, "lat": 38.886008833333335, "type": "electric_scooter", "lon": -77.01981316666667, "bike_id": "d57cf32248abc0f21f1c5589af849c91", "rental_uris": {"android": "https://dc.lft.to/lastmile_qr_scan", "ios": "https://dc.lft.to/lastmile_qr_scan"}, "name": "d57cf32248abc0f21f1c5589af849c91", "is_reserved": 0}, {"is_disabled": 0, "fusion_lon": 0.0, "fusion_lat": 0.0, "lat": 38.9206525, "type": "electric_scooter", "lon": -77.0436105, "bike_id": "e42af87b9cd08e10e226f6cf6fded81f", "rental_uris": {"android": "https://dc.lft.to/lastmile_qr_scan", "ios": "https://dc.lft.to/lastmile_qr_scan"}, "name": "e42af87b9cd08e10e226f6cf6fded81f", "is_reserved": 0}, {"is_disabled": 0, "fusion_lon": 0.0, "fusion_lat": 0.0, "lat": 38.96817883333333, "type": "electric_scooter", "lon": -77.00889416666666, "bike_id": "23ee6956fa8a362e04a4cd84dbb4bdf3", "rental_uris": {"android": "https://dc.lft.to/lastmile_qr_scan", "ios": "https://dc.lft.to/lastmile_qr_scan"}, "name": "23ee6956fa8a362e04a4cd84dbb4bdf3", "is_reserved": 0}, {"is_disabled": 0, "fusion_lon": 0.0, "fusion_lat": 0.0, "lat": 38.914592, "type": "electric_scooter", "lon": -77.01992633333333, "bike_id": "296e994ea8cec1e1c6e544cad81d4a57", "rental_uris": {"android": "https://dc.lft.to/lastmile_qr_scan", "ios": "https://dc.lft.to/lastmile_qr_scan"}, "name": "296e994ea8cec1e1c6e544cad81d4a57", "is_reserved": 0}, {"is_disabled": 0, "fusion_lon": 0.0, "fusion_lat": 0.0, "lat": 38.909709166666666, "type": "electric_scooter", "lon": -77.03938283333333, "bike_id": "18157bf86c7a179ce8f4ca1cdb7c1e7b", "rental_uris": {"android": "https://dc.lft.to/lastmile_qr_scan", "ios": "https://dc.lft.to/lastmile_qr_scan"}, "name": "18157bf86c7a179ce8f4ca1cdb7c1e7b", "is_reserved": 0}, {"is_disabled": 0, "fusion_lon": 0.0, "fusion_lat": 0.0, "lat": 38.9038905, "type": "electric_scooter", "lon": -77.004744, "bike_id": "588ed3c467bda68551446dc071ead94b", "rental_uris": {"android": "https://dc.lft.to/lastmile_qr_scan", "ios": "https://dc.lft.to/lastmile_qr_scan"}, "name": "588ed3c467bda68551446dc071ead94b", "is_reserved": 0}, {"is_disabled": 0, "fusion_lon": 0.0, "fusion_lat": 0.0, "lat": 39.05207383333333, "type": "electric_bike", "lon": -77.0440675, "bike_id": "383e7f22b1513e40da15ec6dfef5daba", "rental_uris": {"android": "https://dc.lft.to/lastmile_qr_scan", "ios": "https://dc.lft.to/lastmile_qr_scan"}, "name": "383e7f22b1513e40da15ec6dfef5daba", "is_reserved": 0}, {"is_disabled": 0, "fusion_lon": 0.0, "fusion_lat": 0.0, "lat": 38.889945166666664, "type": "electric_scooter", "lon": -77.00050883333333, "bike_id": "2891492933e355ecb9a63902dfb2c272", "rental_uris": {"android": "https://dc.lft.to/lastmile_qr_scan", "ios": "https://dc.lft.to/lastmile_qr_scan"}, "name": "2891492933e355ecb9a63902dfb2c272", "is_reserved": 0}, {"is_disabled": 0, "fusion_lon": 0.0, "fusion_lat": 0.0, "lat": 38.9411085, "type": "electric_scooter", "lon": -77.0773215, "bike_id": "109dcb808612dedd646b5dde8635a2cb", "rental_uris": {"android": "https://dc.lft.to/lastmile_qr_scan", "ios": "https://dc.lft.to/lastmile_qr_scan"}, "name": "109dcb808612dedd646b5dde8635a2cb", "is_reserved": 0}, {"is_disabled": 0, "fusion_lon": 0.0, "fusion_lat": 0.0, "lat": 38.920396, "type": "electric_scooter", "lon": -77.04179783333333, "bike_id": "ee3fa571c9b210b673d0bdadd2d82220", "rental_uris": {"android": "https://dc.lft.to/lastmile_qr_scan", "ios": "https://dc.lft.to/lastmile_qr_scan"}, "name": "ee3fa571c9b210b673d0bdadd2d82220", "is_reserved": 0}, {"is_disabled": 0, "fusion_lon": 0.0, "fusion_lat": 0.0, "lat": 38.89793916666667, "type": "electric_scooter", "lon": -77.02403066666666, "bike_id": "4a24e67f8219e5b0e7c91eb946b485c2", "rental_uris": {"android": "https://dc.lft.to/lastmile_qr_scan", "ios": "https://dc.lft.to/lastmile_qr_scan"}, "name": "4a24e67f8219e5b0e7c91eb946b485c2", "is_reserved": 0}, {"is_disabled": 0, "fusion_lon": 0.0, "fusion_lat": 0.0, "lat": 38.8863, "type": "electric_bike", "lon": -77.092406, "bike_id": "d09e88bee37c24c1290f777efdf38c61", "rental_uris": {"android": "https://dc.lft.to/lastmile_qr_scan", "ios": "https://dc.lft.to/lastmile_qr_scan"}, "name": "d09e88bee37c24c1290f777efdf38c61", "is_reserved": 0}, {"is_disabled": 0, "fusion_lon": 0.0, "fusion_lat": 0.0, "lat": 38.89729833333333, "type": "electric_bike", "lon": -76.90542166666667, "bike_id": "2e24edab95c890374b8f031f7736f216", "rental_uris": {"android": "https://dc.lft.to/lastmile_qr_scan", "ios": "https://dc.lft.to/lastmile_qr_scan"}, "name": "2e24edab95c890374b8f031f7736f216", "is_reserved": 0}, {"is_disabled": 0, "fusion_lon": 0.0, "fusion_lat": 0.0, "lat": 38.902068166666666, "type": "electric_scooter", "lon": -76.98203416666666, "bike_id": "2f7428e9e0668a589c7d4d7fb9d6be14", "rental_uris": {"android": "https://dc.lft.to/lastmile_qr_scan", "ios": "https://dc.lft.to/lastmile_qr_scan"}, "name": "2f7428e9e0668a589c7d4d7fb9d6be14", "is_reserved": 0}, {"is_disabled": 0, "fusion_lon": 0.0, "fusion_lat": 0.0, "lat": 38.911170166666665, "type": "electric_scooter", "lon": -77.0361825, "bike_id": "4e8b4b1729a66dff1bae958c883917e3", "rental_uris": {"android": "https://dc.lft.to/lastmile_qr_scan", "ios": "https://dc.lft.to/lastmile_qr_scan"}, "name": "4e8b4b1729a66dff1bae958c883917e3", "is_reserved": 0}, {"is_disabled": 0, "fusion_lon": 0.0, "fusion_lat": 0.0, "lat": 38.88042866666667, "type": "electric_bike", "lon": -76.99016066666667, "bike_id": "859bdd063561326a59e147879a03de85", "rental_uris": {"android": "https://dc.lft.to/lastmile_qr_scan", "ios": "https://dc.lft.to/lastmile_qr_scan"}, "name": "859bdd063561326a59e147879a03de85", "is_reserved": 0}, {"is_disabled": 0, "fusion_lon": 0.0, "fusion_lat": 0.0, "lat": 38.8993455, "type": "electric_scooter", "lon": -77.04029266666667, "bike_id": "fadc4dade3fc11a69ade7553359ed588", "rental_uris": {"android": "https://dc.lft.to/lastmile_qr_scan", "ios": "https://dc.lft.to/lastmile_qr_scan"}, "name": "fadc4dade3fc11a69ade7553359ed588", "is_reserved": 0}, {"is_disabled": 0, "fusion_lon": 0.0, "fusion_lat": 0.0, "lat": 38.90033533333333, "type": "electric_scooter", "lon": -76.99940466666666, "bike_id": "af4e95c58cb2d8f0ce415b1cc09c1621", "rental_uris": {"android": "https://dc.lft.to/lastmile_qr_scan", "ios": "https://dc.lft.to/lastmile_qr_scan"}, "name": "af4e95c58cb2d8f0ce415b1cc09c1621", "is_reserved": 0}, {"is_disabled": 0, "fusion_lon": 0.0, "fusion_lat": 0.0, "lat": 38.84300416666667, "type": "electric_bike", "lon": -77.07639333333333, "bike_id": "8782094733868a1831e39cedbb6cbc10", "rental_uris": {"android": "https://dc.lft.to/lastmile_qr_scan", "ios": "https://dc.lft.to/lastmile_qr_scan"}, "name": "8782094733868a1831e39cedbb6cbc10", "is_reserved": 0}, {"is_disabled": 0, "fusion_lon": 0.0, "fusion_lat": 0.0, "lat": 38.898274, "type": "electric_scooter", "lon": -77.033447, "bike_id": "7c2b31aeb30d37a83fbbe9cff7f7ed1c", "rental_uris": {"android": "https://dc.lft.to/lastmile_qr_scan", "ios": "https://dc.lft.to/lastmile_qr_scan"}, "name": "7c2b31aeb30d37a83fbbe9cff7f7ed1c", "is_reserved": 0}, {"is_disabled": 0, "fusion_lon": 0.0, "fusion_lat": 0.0, "lat": 38.924162833333334, "type": "electric_scooter", "lon": -77.0506875, "bike_id": "101abb98710f31b6c409e8e852244caa", "rental_uris": {"android": "https://dc.lft.to/lastmile_qr_scan", "ios": "https://dc.lft.to/lastmile_qr_scan"}, "name": "101abb98710f31b6c409e8e852244caa", "is_reserved": 0}, {"is_disabled": 0, "fusion_lon": 0.0, "fusion_lat": 0.0, "lat": 38.866252, "type": "electric_scooter", "lon": -76.98714483333333, "bike_id": "db8f42c10b17e13eff0c5430a2580021", "rental_uris": {"android": "https://dc.lft.to/lastmile_qr_scan", "ios": "https://dc.lft.to/lastmile_qr_scan"}, "name": "db8f42c10b17e13eff0c5430a2580021", "is_reserved": 0}, {"is_disabled": 0, "fusion_lon": 0.0, "fusion_lat": 0.0, "lat": 38.89735816666666, "type": "electric_scooter", "lon": -77.0468225, "bike_id": "c9171792eed11152d7af36d5af83a77e", "rental_uris": {"android": "https://dc.lft.to/lastmile_qr_scan", "ios": "https://dc.lft.to/lastmile_qr_scan"}, "name": "c9171792eed11152d7af36d5af83a77e", "is_reserved": 0}, {"is_disabled": 0, "fusion_lon": 0.0, "fusion_lat": 0.0, "lat": 38.8769485, "type": "electric_scooter", "lon": -77.01616, "bike_id": "7c141316b86e8485c347fd5348fd1cc5", "rental_uris": {"android": "https://dc.lft.to/lastmile_qr_scan", "ios": "https://dc.lft.to/lastmile_qr_scan"}, "name": "7c141316b86e8485c347fd5348fd1cc5", "is_reserved": 0}, {"is_disabled": 0, "fusion_lon": 0.0, "fusion_lat": 0.0, "lat": 38.90067333333333, "type": "electric_scooter", "lon": -77.03939683333333, "bike_id": "aac04f04ba1dd03169b4151770330e05", "rental_uris": {"android": "https://dc.lft.to/lastmile_qr_scan", "ios": "https://dc.lft.to/lastmile_qr_scan"}, "name": "aac04f04ba1dd03169b4151770330e05", "is_reserved": 0}, {"is_disabled": 0, "fusion_lon": 0.0, "fusion_lat": 0.0, "lat": 38.9185465, "type": "electric_bike", "lon": -76.960907, "bike_id": "2758c47bffe4413f835231bf23ee7c45", "rental_uris": {"android": "https://dc.lft.to/lastmile_qr_scan", "ios": "https://dc.lft.to/lastmile_qr_scan"}, "name": "2758c47bffe4413f835231bf23ee7c45", "is_reserved": 0}, {"is_disabled": 0, "fusion_lon": 0.0, "fusion_lat": 0.0, "lat": 38.918790333333334, "type": "electric_scooter", "lon": -77.0430895, "bike_id": "21cd0d82ff91cf4fc4ccc98c091f7bce", "rental_uris": {"android": "https://dc.lft.to/lastmile_qr_scan", "ios": "https://dc.lft.to/lastmile_qr_scan"}, "name": "21cd0d82ff91cf4fc4ccc98c091f7bce", "is_reserved": 0}, {"is_disabled": 0, "fusion_lon": 0.0, "fusion_lat": 0.0, "lat": 38.9348325, "type": "electric_scooter", "lon": -77.072715, "bike_id": "d3d7004887ddc6e755ea76656ca0da14", "rental_uris": {"android": "https://dc.lft.to/lastmile_qr_scan", "ios": "https://dc.lft.to/lastmile_qr_scan"}, "name": "d3d7004887ddc6e755ea76656ca0da14", "is_reserved": 0}, {"is_disabled": 0, "fusion_lon": 0.0, "fusion_lat": 0.0, "lat": 38.9192945, "type": "electric_scooter", "lon": -77.02593883333333, "bike_id": "ab98b0116b96da249bfc77db894a502f", "rental_uris": {"android": "https://dc.lft.to/lastmile_qr_scan", "ios": "https://dc.lft.to/lastmile_qr_scan"}, "name": "ab98b0116b96da249bfc77db894a502f", "is_reserved": 0}, {"is_disabled": 0, "fusion_lon": 0.0, "fusion_lat": 0.0, "lat": 38.86248466666667, "type": "electric_scooter", "lon": -76.9949815, "bike_id": "650a046809d9e09b7cd0c44230ef8f1a", "rental_uris": {"android": "https://dc.lft.to/lastmile_qr_scan", "ios": "https://dc.lft.to/lastmile_qr_scan"}, "name": "650a046809d9e09b7cd0c44230ef8f1a", "is_reserved": 0}, {"is_disabled": 0, "fusion_lon": 0.0, "fusion_lat": 0.0, "lat": 38.9389175, "type": "electric_scooter", "lon": -77.07767433333333, "bike_id": "d3df00f247f75375ae04fd2b2e54fb22", "rental_uris": {"android": "https://dc.lft.to/lastmile_qr_scan", "ios": "https://dc.lft.to/lastmile_qr_scan"}, "name": "d3df00f247f75375ae04fd2b2e54fb22", "is_reserved": 0}, {"is_disabled": 0, "fusion_lon": 0.0, "fusion_lat": 0.0, "lat": 38.905299666666664, "type": "electric_scooter", "lon": -77.0582435, "bike_id": "47f363e44e67f477841b2c628feb5b58", "rental_uris": {"android": "https://dc.lft.to/lastmile_qr_scan", "ios": "https://dc.lft.to/lastmile_qr_scan"}, "name": "47f363e44e67f477841b2c628feb5b58", "is_reserved": 0}, {"is_disabled": 0, "fusion_lon": 0.0, "fusion_lat": 0.0, "lat": 38.916918333333335, "type": "electric_scooter", "lon": -77.03688516666666, "bike_id": "3a598f38066a5334ae884dc11dc70da0", "rental_uris": {"android": "https://dc.lft.to/lastmile_qr_scan", "ios": "https://dc.lft.to/lastmile_qr_scan"}, "name": "3a598f38066a5334ae884dc11dc70da0", "is_reserved": 0}, {"is_disabled": 0, "fusion_lon": 0.0, "fusion_lat": 0.0, "lat": 38.93178916666667, "type": "electric_scooter", "lon": -77.072552, "bike_id": "03527a8726420d726837dba88d2d2163", "rental_uris": {"android": "https://dc.lft.to/lastmile_qr_scan", "ios": "https://dc.lft.to/lastmile_qr_scan"}, "name": "03527a8726420d726837dba88d2d2163", "is_reserved": 0}, {"is_disabled": 0, "fusion_lon": 0.0, "fusion_lat": 0.0, "lat": 38.89877883333333, "type": "electric_scooter", "lon": -77.03311816666667, "bike_id": "1915c2c6cdc3fecd24c70a3255ba6893", "rental_uris": {"android": "https://dc.lft.to/lastmile_qr_scan", "ios": "https://dc.lft.to/lastmile_qr_scan"}, "name": "1915c2c6cdc3fecd24c70a3255ba6893", "is_reserved": 0}, {"is_disabled": 0, "fusion_lon": 0.0, "fusion_lat": 0.0, "lat": 38.94551416666667, "type": "electric_scooter", "lon": -77.04244433333334, "bike_id": "e0544421a89ac463f0981a72e649a481", "rental_uris": {"android": "https://dc.lft.to/lastmile_qr_scan", "ios": "https://dc.lft.to/lastmile_qr_scan"}, "name": "e0544421a89ac463f0981a72e649a481", "is_reserved": 0}, {"is_disabled": 0, "fusion_lon": 0.0, "fusion_lat": 0.0, "lat": 38.8429, "type": "electric_bike", "lon": -77.11426016666667, "bike_id": "dd53dca62a604dae2fc9ee05b0db2c47", "rental_uris": {"android": "https://dc.lft.to/lastmile_qr_scan", "ios": "https://dc.lft.to/lastmile_qr_scan"}, "name": "dd53dca62a604dae2fc9ee05b0db2c47", "is_reserved": 0}, {"is_disabled": 0, "fusion_lon": 0.0, "fusion_lat": 0.0, "lat": 38.926708, "type": "electric_scooter", "lon": -77.04295383333333, "bike_id": "77551ce0f3e6c5c795222c71013ba9d0", "rental_uris": {"android": "https://dc.lft.to/lastmile_qr_scan", "ios": "https://dc.lft.to/lastmile_qr_scan"}, "name": "77551ce0f3e6c5c795222c71013ba9d0", "is_reserved": 0}, {"is_disabled": 0, "fusion_lon": 0.0, "fusion_lat": 0.0, "lat": 38.968321333333336, "type": "electric_scooter", "lon": -77.01512633333333, "bike_id": "48d015157708063214b02b2a250d21f5", "rental_uris": {"android": "https://dc.lft.to/lastmile_qr_scan", "ios": "https://dc.lft.to/lastmile_qr_scan"}, "name": "48d015157708063214b02b2a250d21f5", "is_reserved": 0}, {"is_disabled": 0, "fusion_lon": 0.0, "fusion_lat": 0.0, "lat": 38.93327416666666, "type": "electric_scooter", "lon": -77.02920816666666, "bike_id": "23b40481c47b2f86176ef106b00d2373", "rental_uris": {"android": "https://dc.lft.to/lastmile_qr_scan", "ios": "https://dc.lft.to/lastmile_qr_scan"}, "name": "23b40481c47b2f86176ef106b00d2373", "is_reserved": 0}, {"is_disabled": 0, "fusion_lon": 0.0, "fusion_lat": 0.0, "lat": 38.92903, "type": "electric_scooter", "lon": -77.03247083333333, "bike_id": "aa9c091b873290109c838add21248c18", "rental_uris": {"android": "https://dc.lft.to/lastmile_qr_scan", "ios": "https://dc.lft.to/lastmile_qr_scan"}, "name": "aa9c091b873290109c838add21248c18", "is_reserved": 0}, {"is_disabled": 0, "fusion_lon": 0.0, "fusion_lat": 0.0, "lat": 38.91392716666667, "type": "electric_scooter", "lon": -77.00048633333333, "bike_id": "c73f7262a7f4070a11f2880fbbad8834", "rental_uris": {"android": "https://dc.lft.to/lastmile_qr_scan", "ios": "https://dc.lft.to/lastmile_qr_scan"}, "name": "c73f7262a7f4070a11f2880fbbad8834", "is_reserved": 0}, {"is_disabled": 0, "fusion_lon": 0.0, "fusion_lat": 0.0, "lat": 38.897374, "type": "electric_scooter", "lon": -77.02730333333334, "bike_id": "fd68b89813822b5990e01da650427d42", "rental_uris": {"android": "https://dc.lft.to/lastmile_qr_scan", "ios": "https://dc.lft.to/lastmile_qr_scan"}, "name": "fd68b89813822b5990e01da650427d42", "is_reserved": 0}, {"is_disabled": 0, "fusion_lon": 0.0, "fusion_lat": 0.0, "lat": 38.935307, "type": "electric_scooter", "lon": -77.02068333333334, "bike_id": "e3b202f4244f13b148a1e81fd629dba7", "rental_uris": {"android": "https://dc.lft.to/lastmile_qr_scan", "ios": "https://dc.lft.to/lastmile_qr_scan"}, "name": "e3b202f4244f13b148a1e81fd629dba7", "is_reserved": 0}, {"is_disabled": 0, "fusion_lon": 0.0, "fusion_lat": 0.0, "lat": 38.91412666666667, "type": "electric_scooter", "lon": -77.03068816666666, "bike_id": "7390807005fd20398d67870a5d723a31", "rental_uris": {"android": "https://dc.lft.to/lastmile_qr_scan", "ios": "https://dc.lft.to/lastmile_qr_scan"}, "name": "7390807005fd20398d67870a5d723a31", "is_reserved": 0}, {"is_disabled": 0, "fusion_lon": 0.0, "fusion_lat": 0.0, "lat": 38.941989666666665, "type": "electric_scooter", "lon": -77.0257565, "bike_id": "a592b4962f87fb73f07486253c48ede3", "rental_uris": {"android": "https://dc.lft.to/lastmile_qr_scan", "ios": "https://dc.lft.to/lastmile_qr_scan"}, "name": "a592b4962f87fb73f07486253c48ede3", "is_reserved": 0}, {"is_disabled": 0, "fusion_lon": 0.0, "fusion_lat": 0.0, "lat": 38.909666666666666, "type": "electric_scooter", "lon": -77.0445635, "bike_id": "120d2388ca0ba76c9eaf89a1b7945d6a", "rental_uris": {"android": "https://dc.lft.to/lastmile_qr_scan", "ios": "https://dc.lft.to/lastmile_qr_scan"}, "name": "120d2388ca0ba76c9eaf89a1b7945d6a", "is_reserved": 0}, {"is_disabled": 0, "fusion_lon": 0.0, "fusion_lat": 0.0, "lat": 38.952132166666665, "type": "electric_scooter", "lon": -77.00343533333333, "bike_id": "82bc7f844417d1f71e0b4686e13fbe8f", "rental_uris": {"android": "https://dc.lft.to/lastmile_qr_scan", "ios": "https://dc.lft.to/lastmile_qr_scan"}, "name": "82bc7f844417d1f71e0b4686e13fbe8f", "is_reserved": 0}, {"is_disabled": 0, "fusion_lon": 0.0, "fusion_lat": 0.0, "lat": 38.9386365, "type": "electric_scooter", "lon": -77.02648783333333, "bike_id": "e2c360fa75005d7130d7b79112f7c77a", "rental_uris": {"android": "https://dc.lft.to/lastmile_qr_scan", "ios": "https://dc.lft.to/lastmile_qr_scan"}, "name": "e2c360fa75005d7130d7b79112f7c77a", "is_reserved": 0}, {"is_disabled": 0, "fusion_lon": 0.0, "fusion_lat": 0.0, "lat": 38.914160833333334, "type": "electric_scooter", "lon": -77.03093266666667, "bike_id": "88ca82e589106e9451773caf5b71cb79", "rental_uris": {"android": "https://dc.lft.to/lastmile_qr_scan", "ios": "https://dc.lft.to/lastmile_qr_scan"}, "name": "88ca82e589106e9451773caf5b71cb79", "is_reserved": 0}, {"is_disabled": 0, "fusion_lon": 0.0, "fusion_lat": 0.0, "lat": 38.872895, "type": "electric_scooter", "lon": -76.9772605, "bike_id": "1b1de3da893f7e3844376d8bc1f59722", "rental_uris": {"android": "https://dc.lft.to/lastmile_qr_scan", "ios": "https://dc.lft.to/lastmile_qr_scan"}, "name": "1b1de3da893f7e3844376d8bc1f59722", "is_reserved": 0}, {"is_disabled": 0, "fusion_lon": 0.0, "fusion_lat": 0.0, "lat": 38.8246945, "type": "electric_bike", "lon": -77.07080516666667, "bike_id": "6f876d662b01bdd9c68292b69adcb845", "rental_uris": {"android": "https://dc.lft.to/lastmile_qr_scan", "ios": "https://dc.lft.to/lastmile_qr_scan"}, "name": "6f876d662b01bdd9c68292b69adcb845", "is_reserved": 0}, {"is_disabled": 0, "fusion_lon": 0.0, "fusion_lat": 0.0, "lat": 38.92595266666667, "type": "electric_bike", "lon": -76.8890605, "bike_id": "e8d47c862784e2155d43d2b71bc7235c", "rental_uris": {"android": "https://dc.lft.to/lastmile_qr_scan", "ios": "https://dc.lft.to/lastmile_qr_scan"}, "name": "e8d47c862784e2155d43d2b71bc7235c", "is_reserved": 0}, {"is_disabled": 0, "fusion_lon": 0.0, "fusion_lat": 0.0, "lat": 38.89477183333333, "type": "electric_scooter", "lon": -77.02116866666667, "bike_id": "22b9c4c51d1886d508555aee4815035a", "rental_uris": {"android": "https://dc.lft.to/lastmile_qr_scan", "ios": "https://dc.lft.to/lastmile_qr_scan"}, "name": "22b9c4c51d1886d508555aee4815035a", "is_reserved": 0}, {"is_disabled": 0, "fusion_lon": 0.0, "fusion_lat": 0.0, "lat": 38.89237683333333, "type": "electric_bike", "lon": -76.95224083333333, "bike_id": "6669f03c9fe3b0113cc2a1f95332d817", "rental_uris": {"android": "https://dc.lft.to/lastmile_qr_scan", "ios": "https://dc.lft.to/lastmile_qr_scan"}, "name": "6669f03c9fe3b0113cc2a1f95332d817", "is_reserved": 0}, {"is_disabled": 0, "fusion_lon": 0.0, "fusion_lat": 0.0, "lat": 38.908507, "type": "electric_scooter", "lon": -77.07154866666667, "bike_id": "9bca05f2b524989532d04323a78892bc", "rental_uris": {"android": "https://dc.lft.to/lastmile_qr_scan", "ios": "https://dc.lft.to/lastmile_qr_scan"}, "name": "9bca05f2b524989532d04323a78892bc", "is_reserved": 0}, {"is_disabled": 0, "fusion_lon": 0.0, "fusion_lat": 0.0, "lat": 38.88747166666667, "type": "electric_scooter", "lon": -77.0154005, "bike_id": "5dfefb9d5323cb2ad9feee946bc7dca0", "rental_uris": {"android": "https://dc.lft.to/lastmile_qr_scan", "ios": "https://dc.lft.to/lastmile_qr_scan"}, "name": "5dfefb9d5323cb2ad9feee946bc7dca0", "is_reserved": 0}, {"is_disabled": 0, "fusion_lon": 0.0, "fusion_lat": 0.0, "lat": 38.92057833333333, "type": "electric_scooter", "lon": -77.0425815, "bike_id": "2740d5ce93ad58992869a2687eb1436e", "rental_uris": {"android": "https://dc.lft.to/lastmile_qr_scan", "ios": "https://dc.lft.to/lastmile_qr_scan"}, "name": "2740d5ce93ad58992869a2687eb1436e", "is_reserved": 0}, {"is_disabled": 0, "fusion_lon": 0.0, "fusion_lat": 0.0, "lat": 38.91108583333333, "type": "electric_scooter", "lon": -77.03216516666667, "bike_id": "d991de19222b6b39fecd99fa3476a25b", "rental_uris": {"android": "https://dc.lft.to/lastmile_qr_scan", "ios": "https://dc.lft.to/lastmile_qr_scan"}, "name": "d991de19222b6b39fecd99fa3476a25b", "is_reserved": 0}, {"is_disabled": 0, "fusion_lon": 0.0, "fusion_lat": 0.0, "lat": 38.895664833333335, "type": "electric_bike", "lon": -77.127366, "bike_id": "fefa829f31585c9677015207f5e1ea17", "rental_uris": {"android": "https://dc.lft.to/lastmile_qr_scan", "ios": "https://dc.lft.to/lastmile_qr_scan"}, "name": "fefa829f31585c9677015207f5e1ea17", "is_reserved": 0}, {"is_disabled": 0, "fusion_lon": 0.0, "fusion_lat": 0.0, "lat": 38.902627333333335, "type": "electric_scooter", "lon": -77.04058716666667, "bike_id": "d9c4a8da4b032dcd16af64a66b8dd19f", "rental_uris": {"android": "https://dc.lft.to/lastmile_qr_scan", "ios": "https://dc.lft.to/lastmile_qr_scan"}, "name": "d9c4a8da4b032dcd16af64a66b8dd19f", "is_reserved": 0}, {"is_disabled": 0, "fusion_lon": 0.0, "fusion_lat": 0.0, "lat": 38.937619833333336, "type": "electric_scooter", "lon": -77.0249775, "bike_id": "63a4102896bad74efdf598295d7d0729", "rental_uris": {"android": "https://dc.lft.to/lastmile_qr_scan", "ios": "https://dc.lft.to/lastmile_qr_scan"}, "name": "63a4102896bad74efdf598295d7d0729", "is_reserved": 0}, {"is_disabled": 0, "fusion_lon": 0.0, "fusion_lat": 0.0, "lat": 38.9170615, "type": "electric_scooter", "lon": -77.02910616666666, "bike_id": "5bf8f19cc2da5f7de28adbed1339d11b", "rental_uris": {"android": "https://dc.lft.to/lastmile_qr_scan", "ios": "https://dc.lft.to/lastmile_qr_scan"}, "name": "5bf8f19cc2da5f7de28adbed1339d11b", "is_reserved": 0}, {"is_disabled": 0, "fusion_lon": 0.0, "fusion_lat": 0.0, "lat": 38.90961133333333, "type": "electric_scooter", "lon": -77.04768366666667, "bike_id": "7040f356aefee171e294626e21da05be", "rental_uris": {"android": "https://dc.lft.to/lastmile_qr_scan", "ios": "https://dc.lft.to/lastmile_qr_scan"}, "name": "7040f356aefee171e294626e21da05be", "is_reserved": 0}, {"is_disabled": 0, "fusion_lon": 0.0, "fusion_lat": 0.0, "lat": 38.91049733333333, "type": "electric_scooter", "lon": -77.043485, "bike_id": "600e95c644888c921062b1cc055d9405", "rental_uris": {"android": "https://dc.lft.to/lastmile_qr_scan", "ios": "https://dc.lft.to/lastmile_qr_scan"}, "name": "600e95c644888c921062b1cc055d9405", "is_reserved": 0}, {"is_disabled": 0, "fusion_lon": 0.0, "fusion_lat": 0.0, "lat": 38.892270333333336, "type": "electric_scooter", "lon": -77.02176633333333, "bike_id": "4c166a06f9c05c2b1961413e0fee5921", "rental_uris": {"android": "https://dc.lft.to/lastmile_qr_scan", "ios": "https://dc.lft.to/lastmile_qr_scan"}, "name": "4c166a06f9c05c2b1961413e0fee5921", "is_reserved": 0}, {"is_disabled": 0, "fusion_lon": 0.0, "fusion_lat": 0.0, "lat": 38.90294166666666, "type": "electric_scooter", "lon": -77.02120683333334, "bike_id": "c53ebc26c2dc3589021e75b8c6865181", "rental_uris": {"android": "https://dc.lft.to/lastmile_qr_scan", "ios": "https://dc.lft.to/lastmile_qr_scan"}, "name": "c53ebc26c2dc3589021e75b8c6865181", "is_reserved": 0}, {"is_disabled": 0, "fusion_lon": 0.0, "fusion_lat": 0.0, "lat": 38.905199833333334, "type": "electric_scooter", "lon": -77.05118116666667, "bike_id": "da9757e083f3b348d72e3de003952717", "rental_uris": {"android": "https://dc.lft.to/lastmile_qr_scan", "ios": "https://dc.lft.to/lastmile_qr_scan"}, "name": "da9757e083f3b348d72e3de003952717", "is_reserved": 0}, {"is_disabled": 0, "fusion_lon": 0.0, "fusion_lat": 0.0, "lat": 38.907731166666665, "type": "electric_scooter", "lon": -77.03267366666667, "bike_id": "02bc00c8ba82a7d6ded588e94e1a634e", "rental_uris": {"android": "https://dc.lft.to/lastmile_qr_scan", "ios": "https://dc.lft.to/lastmile_qr_scan"}, "name": "02bc00c8ba82a7d6ded588e94e1a634e", "is_reserved": 0}, {"is_disabled": 0, "fusion_lon": 0.0, "fusion_lat": 0.0, "lat": 38.95722766666667, "type": "electric_scooter", "lon": -77.03094166666666, "bike_id": "d8db1032fbfca42a4de22a5de65dd5e6", "rental_uris": {"android": "https://dc.lft.to/lastmile_qr_scan", "ios": "https://dc.lft.to/lastmile_qr_scan"}, "name": "d8db1032fbfca42a4de22a5de65dd5e6", "is_reserved": 0}, {"is_disabled": 0, "fusion_lon": 0.0, "fusion_lat": 0.0, "lat": 38.89924366666666, "type": "electric_scooter", "lon": -77.01630583333333, "bike_id": "caadd31afd06a705e775b5f2632c707b", "rental_uris": {"android": "https://dc.lft.to/lastmile_qr_scan", "ios": "https://dc.lft.to/lastmile_qr_scan"}, "name": "caadd31afd06a705e775b5f2632c707b", "is_reserved": 0}, {"is_disabled": 0, "fusion_lon": 0.0, "fusion_lat": 0.0, "lat": 38.88823433333334, "type": "electric_bike", "lon": -77.12739316666666, "bike_id": "286670423aeb63b72a77465ff3148cab", "rental_uris": {"android": "https://dc.lft.to/lastmile_qr_scan", "ios": "https://dc.lft.to/lastmile_qr_scan"}, "name": "286670423aeb63b72a77465ff3148cab", "is_reserved": 0}, {"is_disabled": 0, "fusion_lon": 0.0, "fusion_lat": 0.0, "lat": 38.91538933333333, "type": "electric_scooter", "lon": -77.03201566666667, "bike_id": "f8cc4b71baeac8604d3a6919c4a6be43", "rental_uris": {"android": "https://dc.lft.to/lastmile_qr_scan", "ios": "https://dc.lft.to/lastmile_qr_scan"}, "name": "f8cc4b71baeac8604d3a6919c4a6be43", "is_reserved": 0}, {"is_disabled": 0, "fusion_lon": 0.0, "fusion_lat": 0.0, "lat": 38.97575033333333, "type": "electric_bike", "lon": -76.964048, "bike_id": "284692a09c9699de0ff97419eeedd880", "rental_uris": {"android": "https://dc.lft.to/lastmile_qr_scan", "ios": "https://dc.lft.to/lastmile_qr_scan"}, "name": "284692a09c9699de0ff97419eeedd880", "is_reserved": 0}, {"is_disabled": 0, "fusion_lon": 0.0, "fusion_lat": 0.0, "lat": 38.8553425, "type": "electric_bike", "lon": -77.1069665, "bike_id": "de1f1b8f61cd862f493aa205562277fb", "rental_uris": {"android": "https://dc.lft.to/lastmile_qr_scan", "ios": "https://dc.lft.to/lastmile_qr_scan"}, "name": "de1f1b8f61cd862f493aa205562277fb", "is_reserved": 0}, {"is_disabled": 0, "fusion_lon": 0.0, "fusion_lat": 0.0, "lat": 38.894763166666664, "type": "electric_scooter", "lon": -77.02122133333333, "bike_id": "93e97cf1b700e1cc750afd31824f8a3f", "rental_uris": {"android": "https://dc.lft.to/lastmile_qr_scan", "ios": "https://dc.lft.to/lastmile_qr_scan"}, "name": "93e97cf1b700e1cc750afd31824f8a3f", "is_reserved": 0}, {"is_disabled": 0, "fusion_lon": 0.0, "fusion_lat": 0.0, "lat": 38.9909085, "type": "electric_bike", "lon": -76.87494216666667, "bike_id": "7298d9d84c0e2673d21327290642ba29", "rental_uris": {"android": "https://dc.lft.to/lastmile_qr_scan", "ios": "https://dc.lft.to/lastmile_qr_scan"}, "name": "7298d9d84c0e2673d21327290642ba29", "is_reserved": 0}, {"is_disabled": 0, "fusion_lon": 0.0, "fusion_lat": 0.0, "lat": 38.9280825, "type": "electric_scooter", "lon": -77.03638133333334, "bike_id": "8eb24a66ffb0a30743bed9a8aef92eb9", "rental_uris": {"android": "https://dc.lft.to/lastmile_qr_scan", "ios": "https://dc.lft.to/lastmile_qr_scan"}, "name": "8eb24a66ffb0a30743bed9a8aef92eb9", "is_reserved": 0}, {"is_disabled": 0, "fusion_lon": 0.0, "fusion_lat": 0.0, "lat": 38.927144, "type": "electric_scooter", "lon": -77.04046433333333, "bike_id": "c30a79a00d26d245b8ee7c7fbef8907c", "rental_uris": {"android": "https://dc.lft.to/lastmile_qr_scan", "ios": "https://dc.lft.to/lastmile_qr_scan"}, "name": "c30a79a00d26d245b8ee7c7fbef8907c", "is_reserved": 0}, {"is_disabled": 0, "fusion_lon": 0.0, "fusion_lat": 0.0, "lat": 38.917246666666664, "type": "electric_scooter", "lon": -77.0365905, "bike_id": "0c4a488e5851cb8d52b88993199b3c56", "rental_uris": {"android": "https://dc.lft.to/lastmile_qr_scan", "ios": "https://dc.lft.to/lastmile_qr_scan"}, "name": "0c4a488e5851cb8d52b88993199b3c56", "is_reserved": 0}, {"is_disabled": 0, "fusion_lon": 0.0, "fusion_lat": 0.0, "lat": 38.90043516666667, "type": "electric_scooter", "lon": -77.0078995, "bike_id": "4df63a03ada938055258838d72fbbf49", "rental_uris": {"android": "https://dc.lft.to/lastmile_qr_scan", "ios": "https://dc.lft.to/lastmile_qr_scan"}, "name": "4df63a03ada938055258838d72fbbf49", "is_reserved": 0}, {"is_disabled": 0, "fusion_lon": 0.0, "fusion_lat": 0.0, "lat": 38.91949533333333, "type": "electric_scooter", "lon": -77.01395766666667, "bike_id": "73ae8742316e33185d099e34547cdfcd", "rental_uris": {"android": "https://dc.lft.to/lastmile_qr_scan", "ios": "https://dc.lft.to/lastmile_qr_scan"}, "name": "73ae8742316e33185d099e34547cdfcd", "is_reserved": 0}, {"is_disabled": 0, "fusion_lon": 0.0, "fusion_lat": 0.0, "lat": 38.92091533333333, "type": "electric_scooter", "lon": -77.025306, "bike_id": "88dad1d0bdcad40aace2b71edbf39f0c", "rental_uris": {"android": "https://dc.lft.to/lastmile_qr_scan", "ios": "https://dc.lft.to/lastmile_qr_scan"}, "name": "88dad1d0bdcad40aace2b71edbf39f0c", "is_reserved": 0}, {"is_disabled": 0, "fusion_lon": 0.0, "fusion_lat": 0.0, "lat": 38.90516866666667, "type": "electric_scooter", "lon": -77.0511385, "bike_id": "3bc176e7da1157e3757d63e76ace9a0e", "rental_uris": {"android": "https://dc.lft.to/lastmile_qr_scan", "ios": "https://dc.lft.to/lastmile_qr_scan"}, "name": "3bc176e7da1157e3757d63e76ace9a0e", "is_reserved": 0}, {"is_disabled": 0, "fusion_lon": 0.0, "fusion_lat": 0.0, "lat": 38.90367366666667, "type": "electric_scooter", "lon": -77.0344125, "bike_id": "a16be0f54c8b950141b22ae8df621acc", "rental_uris": {"android": "https://dc.lft.to/lastmile_qr_scan", "ios": "https://dc.lft.to/lastmile_qr_scan"}, "name": "a16be0f54c8b950141b22ae8df621acc", "is_reserved": 0}, {"is_disabled": 0, "fusion_lon": 0.0, "fusion_lat": 0.0, "lat": 38.9223305, "type": "electric_scooter", "lon": -77.03315833333333, "bike_id": "14de883a8f64c4b0654660708a150110", "rental_uris": {"android": "https://dc.lft.to/lastmile_qr_scan", "ios": "https://dc.lft.to/lastmile_qr_scan"}, "name": "14de883a8f64c4b0654660708a150110", "is_reserved": 0}, {"is_disabled": 0, "fusion_lon": 0.0, "fusion_lat": 0.0, "lat": 38.887391, "type": "electric_scooter", "lon": -77.01531683333333, "bike_id": "bdeb5d401dfaa372fe471b6b90273bad", "rental_uris": {"android": "https://dc.lft.to/lastmile_qr_scan", "ios": "https://dc.lft.to/lastmile_qr_scan"}, "name": "bdeb5d401dfaa372fe471b6b90273bad", "is_reserved": 0}, {"is_disabled": 0, "fusion_lon": 0.0, "fusion_lat": 0.0, "lat": 38.91695, "type": "electric_scooter", "lon": -77.0363305, "bike_id": "1f46bc8a0a5e72f59ee546204c611deb", "rental_uris": {"android": "https://dc.lft.to/lastmile_qr_scan", "ios": "https://dc.lft.to/lastmile_qr_scan"}, "name": "1f46bc8a0a5e72f59ee546204c611deb", "is_reserved": 0}, {"is_disabled": 0, "fusion_lon": 0.0, "fusion_lat": 0.0, "lat": 38.80297016666667, "type": "electric_bike", "lon": -77.03986433333333, "bike_id": "800841845de91c2badb42a103dad9f4b", "rental_uris": {"android": "https://dc.lft.to/lastmile_qr_scan", "ios": "https://dc.lft.to/lastmile_qr_scan"}, "name": "800841845de91c2badb42a103dad9f4b", "is_reserved": 0}, {"is_disabled": 0, "fusion_lon": 0.0, "fusion_lat": 0.0, "lat": 38.90043333333333, "type": "electric_scooter", "lon": -76.92269466666667, "bike_id": "ea5846d982d06a293eb39dfec3d1ce6a", "rental_uris": {"android": "https://dc.lft.to/lastmile_qr_scan", "ios": "https://dc.lft.to/lastmile_qr_scan"}, "name": "ea5846d982d06a293eb39dfec3d1ce6a", "is_reserved": 0}, {"is_disabled": 0, "fusion_lon": 0.0, "fusion_lat": 0.0, "lat": 38.928661, "type": "electric_scooter", "lon": -77.01403266666667, "bike_id": "efbb6246ac10680424089b9fe7d558ca", "rental_uris": {"android": "https://dc.lft.to/lastmile_qr_scan", "ios": "https://dc.lft.to/lastmile_qr_scan"}, "name": "efbb6246ac10680424089b9fe7d558ca", "is_reserved": 0}, {"is_disabled": 0, "fusion_lon": 0.0, "fusion_lat": 0.0, "lat": 38.8956, "type": "electric_scooter", "lon": -77.046721, "bike_id": "484cae4d65ffab52b2fd21524e8bcba3", "rental_uris": {"android": "https://dc.lft.to/lastmile_qr_scan", "ios": "https://dc.lft.to/lastmile_qr_scan"}, "name": "484cae4d65ffab52b2fd21524e8bcba3", "is_reserved": 0},