{"data": {"bikes": [{"bike_id": "bb16079c8dc61b89c6407d1faf1247a8", "lat": 38.878963166666665, "is_reserved": 0, "fusion_lat": 0.0, "rental_uris": {"android": "https://dc.lft.to/lastmile_qr_scan", "ios": "https://dc.lft.to/lastmile_qr_scan"}, "fusion_lon": 0.0, "name": "bb16079c8dc61b89c6407d1faf1247a8", "lon": -77.01585266666666, "is_disabled": 0, "type": "electric_bike"}, {"bike_id": "582407708578af5f985fb9663a17a3bb", "lat": 38.89719066666667, "is_reserved": 0, "fusion_lat": 0.0, "rental_uris": {"android": "https://dc.lft.to/lastmile_qr_scan", "ios": "https://dc.lft.to/lastmile_qr_scan"}, "fusion_lon": 0.0, "name": "582407708578af5f985fb9663a17a3bb", "lon": -77.0246505, "is_disabled": 0, "type": "electric_scooter"}, {"bike_id": "228697a951c2ad59c410f12bc8f43817", "lat": 38.8724305, "is_reserved": 0, "fusion_lat": 0.0, "rental_uris": {"android": "https://dc.lft.to/lastmile_qr_scan", "ios": "https://dc.lft.to/lastmile_qr_scan"}, "fusion_lon": 0.0, "name": "228697a951c2ad59c410f12bc8f43817", "lon": -76.97733316666667, "is_disabled": 0, "type": "electric_scooter"}, {"bike_id": "8c160cf589cd9cfda509eb2e7655223f", "lat": 38.919654, "is_reserved": 0, "fusion_lat": 0.0, "rental_uris": {"android": "https://dc.lft.to/lastmile_qr_scan", "ios": "https://dc.lft.to/lastmile_qr_scan"}, "fusion_lon": 0.0, "name": "8c160cf589cd9cfda509eb2e7655223f", "lon": -77.01791216666666, "is_disabled": 0, "type": "electric_scooter"}, {"bike_id": "58dd4511128f0a80ce8532b8f44e0794", "lat": 38.9110985, "is_reserved": 0, "fusion_lat": 0.0, "rental_uris": {"android": "https://dc.lft.to/lastmile_qr_scan", "ios": "https://dc.lft.to/lastmile_qr_scan"}, "fusion_lon": 0.0, "name": "58dd4511128f0a80ce8532b8f44e0794", "lon": -77.04506116666667, "is_disabled": 0, "type": "electric_scooter"}, {"bike_id": "a0787de0da6ffcfb58e97f06bc2689b6", "lat": 38.885285333333336, "is_reserved": 0, "fusion_lat": 0.0, "rental_uris": {"android": "https://dc.lft.to/lastmile_qr_scan", "ios": "https://dc.lft.to/lastmile_qr_scan"}, "fusion_lon": 0.0, "name": "a0787de0da6ffcfb58e97f06bc2689b6", "lon": -76.998219, "is_disabled": 0, "type": "electric_scooter"}, {"bike_id": "1ca8fb57a8655a6b99c241d5cef89c2a", "lat": 38.973983833333335, "is_reserved": 0, "fusion_lat": 0.0, "rental_uris": {"android": "https://dc.lft.to/lastmile_qr_scan", "ios": "https://dc.lft.to/lastmile_qr_scan"}, "fusion_lon": 0.0, "name": "1ca8fb57a8655a6b99c241d5cef89c2a", "lon": -77.06459883333333, "is_disabled": 0, "type": "electric_bike"}, {"bike_id": "0123c20b7a46f4f63bbe97fabc32768e", "lat": 38.915538166666664, "is_reserved": 0, "fusion_lat": 0.0, "rental_uris": {"android": "https://dc.lft.to/lastmile_qr_scan", "ios": "https://dc.lft.to/lastmile_qr_scan"}, "fusion_lon": 0.0, "name": "0123c20b7a46f4f63bbe97fabc32768e", "lon": -77.00646233333333, "is_disabled": 0, "type": "electric_scooter"}, {"bike_id": "7ec199ecd623589f0359ca171c44f5f9", "lat": 38.91177016666666, "is_reserved": 0, "fusion_lat": 0.0, "rental_uris": {"android": "https://dc.lft.to/lastmile_qr_scan", "ios": "https://dc.lft.to/lastmile_qr_scan"}, "fusion_lon": 0.0, "name": "7ec199ecd623589f0359ca171c44f5f9", "lon": -77.01215533333334, "is_disabled": 0, "type": "electric_scooter"}, {"bike_id": "4847cabea51869bd62ade504c68cc536", "lat": 38.901106666666664, "is_reserved": 0, "fusion_lat": 0.0, "rental_uris": {"android": "https://dc.lft.to/lastmile_qr_scan", "ios": "https://dc.lft.to/lastmile_qr_scan"}, "fusion_lon": 0.0, "name": "4847cabea51869bd62ade504c68cc536", "lon": -77.02795116666667, "is_disabled": 0, "type": "electric_scooter"}, {"bike_id": "47444e3325d66ae0a5d6678d76fe0aa8", "lat": 38.8737915, "is_reserved": 0, "fusion_lat": 0.0, "rental_uris": {"android": "https://dc.lft.to/lastmile_qr_scan", "ios": "https://dc.lft.to/lastmile_qr_scan"}, "fusion_lon": 0.0, "name": "47444e3325d66ae0a5d6678d76fe0aa8", "lon": -77.00067866666667, "is_disabled": 0, "type": "electric_scooter"}, {"bike_id": "a29fb6b6b9572580369e355deaa40aba", "lat": 38.95789033333333, "is_reserved": 0, "fusion_lat": 0.0, "rental_uris": {"android": "https://dc.lft.to/lastmile_qr_scan", "ios": "https://dc.lft.to/lastmile_qr_scan"}, "fusion_lon": 0.0, "name": "a29fb6b6b9572580369e355deaa40aba", "lon": -77.0321895, "is_disabled": 0, "type": "electric_scooter"}, {"bike_id": "fc047e8ab54c85ed91b6aee991775475", "lat": 38.88443266666667, "is_reserved": 0, "fusion_lat": 0.0, "rental_uris": {"android": "https://dc.lft.to/lastmile_qr_scan", "ios": "https://dc.lft.to/lastmile_qr_scan"}, "fusion_lon": 0.0, "name": "fc047e8ab54c85ed91b6aee991775475", "lon": -77.02520016666666, "is_disabled": 0, "type": "electric_scooter"}, {"bike_id": "912a880f74478a7f1b4d9521da0ee979", "lat": 38.897278666666665, "is_reserved": 0, "fusion_lat": 0.0, "rental_uris": {"android": "https://dc.lft.to/lastmile_qr_scan", "ios": "https://dc.lft.to/lastmile_qr_scan"}, "fusion_lon": 0.0, "name": "912a880f74478a7f1b4d9521da0ee979", "lon": -77.01767466666666, "is_disabled": 0, "type": "electric_scooter"}, {"bike_id": "db4a2ccb4a0a74c9aa05477cabbbd428", "lat": 38.93294483333333, "is_reserved": 0, "fusion_lat": 0.0, "rental_uris": {"android": "https://dc.lft.to/lastmile_qr_scan", "ios": "https://dc.lft.to/lastmile_qr_scan"}, "fusion_lon": 0.0, "name": "db4a2ccb4a0a74c9aa05477cabbbd428", "lon": -77.0855015, "is_disabled": 0, "type": "electric_scooter"}, {"bike_id": "3fc0187cc7ead1b226d27f6d25533cd2", "lat": 38.91682733333333, "is_reserved": 0, "fusion_lat": 0.0, "rental_uris": {"android": "https://dc.lft.to/lastmile_qr_scan", "ios": "https://dc.lft.to/lastmile_qr_scan"}, "fusion_lon": 0.0, "name": "3fc0187cc7ead1b226d27f6d25533cd2", "lon": -77.02958183333334, "is_disabled": 0, "type": "electric_scooter"}, {"bike_id": "64d54b50d7abc53601c367efc2d8f162", "lat": 38.8935745, "is_reserved": 0, "fusion_lat": 0.0, "rental_uris": {"android": "https://dc.lft.to/lastmile_qr_scan", "ios": "https://dc.lft.to/lastmile_qr_scan"}, "fusion_lon": 0.0, "name": "64d54b50d7abc53601c367efc2d8f162", "lon": -77.02220533333333, "is_disabled": 0, "type": "electric_scooter"}, {"bike_id": "9ce67cd741c8d1d5c28aaba708159ff8", "lat": 38.89487666666667, "is_reserved": 0, "fusion_lat": 0.0, "rental_uris": {"android": "https://dc.lft.to/lastmile_qr_scan", "ios": "https://dc.lft.to/lastmile_qr_scan"}, "fusion_lon": 0.0, "name": "9ce67cd741c8d1d5c28aaba708159ff8", "lon": -77.021753, "is_disabled": 0, "type": "electric_scooter"}, {"bike_id": "b2b681a69da1531accc70c251e77f705", "lat": 38.91740433333333, "is_reserved": 0, "fusion_lat": 0.0, "rental_uris": {"android": "https://dc.lft.to/lastmile_qr_scan", "ios": "https://dc.lft.to/lastmile_qr_scan"}, "fusion_lon": 0.0, "name": "b2b681a69da1531accc70c251e77f705", "lon": -77.02118766666666, "is_disabled": 0, "type": "electric_scooter"}, {"bike_id": "31410e0ce3082a5a542042d9dbdf6229", "lat": 38.926996333333335, "is_reserved": 0, "fusion_lat": 0.0, "rental_uris": {"android": "https://dc.lft.to/lastmile_qr_scan", "ios": "https://dc.lft.to/lastmile_qr_scan"}, "fusion_lon": 0.0, "name": "31410e0ce3082a5a542042d9dbdf6229", "lon": -77.03568183333333, "is_disabled": 0, "type": "electric_scooter"}, {"bike_id": "5fc687410dc3c0e9284310cc5b22b444", "lat": 38.844311166666664, "is_reserved": 0, "fusion_lat": 0.0, "rental_uris": {"android": "https://dc.lft.to/lastmile_qr_scan", "ios": "https://dc.lft.to/lastmile_qr_scan"}, "fusion_lon": 0.0, "name": "5fc687410dc3c0e9284310cc5b22b444", "lon": -76.99872, "is_disabled": 0, "type": "electric_scooter"}, {"bike_id": "46ac0bbed11764089267af740760dccd", "lat": 38.950033, "is_reserved": 0, "fusion_lat": 0.0, "rental_uris": {"android": "https://dc.lft.to/lastmile_qr_scan", "ios": "https://dc.lft.to/lastmile_qr_scan"}, "fusion_lon": 0.0, "name": "46ac0bbed11764089267af740760dccd", "lon": -77.01845, "is_disabled": 0, "type": "electric_scooter"}, {"bike_id": "df4a6fe65262d62b09e62fa4aebed08c", "lat": 38.906793, "is_reserved": 0, "fusion_lat": 0.0, "rental_uris": {"android": "https://dc.lft.to/lastmile_qr_scan", "ios": "https://dc.lft.to/lastmile_qr_scan"}, "fusion_lon": 0.0, "name": "df4a6fe65262d62b09e62fa4aebed08c", "lon": -77.06068433333333, "is_disabled": 0, "type": "electric_scooter"}, {"bike_id": "4aad7f3c62434902b567abf49480e790", "lat": 38.905333166666665, "is_reserved": 0, "fusion_lat": 0.0, "rental_uris": {"android": "https://dc.lft.to/lastmile_qr_scan", "ios": "https://dc.lft.to/lastmile_qr_scan"}, "fusion_lon": 0.0, "name": "4aad7f3c62434902b567abf49480e790", "lon": -77.04473483333334, "is_disabled": 0, "type": "electric_scooter"}, {"bike_id": "5d9f28d4d03ff5c9a4df1af2101a5d79", "lat": 38.8551195, "is_reserved": 0, "fusion_lat": 0.0, "rental_uris": {"android": "https://dc.lft.to/lastmile_qr_scan", "ios": "https://dc.lft.to/lastmile_qr_scan"}, "fusion_lon": 0.0, "name": "5d9f28d4d03ff5c9a4df1af2101a5d79", "lon": -77.12034533333333, "is_disabled": 0, "type": "electric_bike"}, {"bike_id": "5cf5c8e17027f440c089f184c44143b9", "lat": 38.92471716666667, "is_reserved": 0, "fusion_lat": 0.0, "rental_uris": {"android": "https://dc.lft.to/lastmile_qr_scan", "ios": "https://dc.lft.to/lastmile_qr_scan"}, "fusion_lon": 0.0, "name": "5cf5c8e17027f440c089f184c44143b9", "lon": -77.0289325, "is_disabled": 0, "type": "electric_scooter"}, {"bike_id": "baee1fbde78843aa80782b2513b153e7", "lat": 38.8973545, "is_reserved": 0, "fusion_lat": 0.0, "rental_uris": {"android": "https://dc.lft.to/lastmile_qr_scan", "ios": "https://dc.lft.to/lastmile_qr_scan"}, "fusion_lon": 0.0, "name": "baee1fbde78843aa80782b2513b153e7", "lon": -77.026875, "is_disabled": 0, "type": "electric_scooter"}, {"bike_id": "c59084549d32b39c8dde4b472dce1790", "lat": 38.835786666666664, "is_reserved": 0, "fusion_lat": 0.0, "rental_uris": {"android": "https://dc.lft.to/lastmile_qr_scan", "ios": "https://dc.lft.to/lastmile_qr_scan"}, "fusion_lon": 0.0, "name": "c59084549d32b39c8dde4b472dce1790", "lon": -77.00132366666666, "is_disabled": 0, "type": "electric_scooter"}, {"bike_id": "9833e2e63f55353f549d090a62c350f4", "lat": 38.89460566666666, "is_reserved": 0, "fusion_lat": 0.0, "rental_uris": {"android": "https://dc.lft.to/lastmile_qr_scan", "ios": "https://dc.lft.to/lastmile_qr_scan"}, "fusion_lon": 0.0, "name": "9833e2e63f55353f549d090a62c350f4", "lon": -77.00344766666667, "is_disabled": 0, "type": "electric_scooter"}, {"bike_id": "2d3b626aa6513d0e88975c90a1a7a45e", "lat": 38.90871283333333, "is_reserved": 0, "fusion_lat": 0.0, "rental_uris": {"android": "https://dc.lft.to/lastmile_qr_scan", "ios": "https://dc.lft.to/lastmile_qr_scan"}, "fusion_lon": 0.0, "name": "2d3b626aa6513d0e88975c90a1a7a45e", "lon": -76.9979035, "is_disabled": 0, "type": "electric_scooter"}, {"bike_id": "a43b98affae4029962059787950ed288", "lat": 38.92890533333333, "is_reserved": 0, "fusion_lat": 0.0, "rental_uris": {"android": "https://dc.lft.to/lastmile_qr_scan", "ios": "https://dc.lft.to/lastmile_qr_scan"}, "fusion_lon": 0.0, "name": "a43b98affae4029962059787950ed288", "lon": -77.03244833333333, "is_disabled": 0, "type": "electric_scooter"}, {"bike_id": "c0fc3059e38c1e940e9a2c382dddc55b", "lat": 38.92155283333334, "is_reserved": 0, "fusion_lat": 0.0, "rental_uris": {"android": "https://dc.lft.to/lastmile_qr_scan", "ios": "https://dc.lft.to/lastmile_qr_scan"}, "fusion_lon": 0.0, "name": "c0fc3059e38c1e940e9a2c382dddc55b", "lon": -77.033192, "is_disabled": 0, "type": "electric_scooter"}, {"bike_id": "0e6ed229938d657e6af26cdd14960e5d", "lat": 38.899680000000004, "is_reserved": 0, "fusion_lat": 0.0, "rental_uris": {"android": "https://dc.lft.to/lastmile_qr_scan", "ios": "https://dc.lft.to/lastmile_qr_scan"}, "fusion_lon": 0.0, "name": "0e6ed229938d657e6af26cdd14960e5d", "lon": -77.0035615, "is_disabled": 0, "type": "electric_bike"}, {"bike_id": "7e1c737318e96119bd90e56549e5e3ee", "lat": 38.89219383333333, "is_reserved": 0, "fusion_lat": 0.0, "rental_uris": {"android": "https://dc.lft.to/lastmile_qr_scan", "ios": "https://dc.lft.to/lastmile_qr_scan"}, "fusion_lon": 0.0, "name": "7e1c737318e96119bd90e56549e5e3ee", "lon": -77.02230516666667, "is_disabled": 0, "type": "electric_scooter"}, {"bike_id": "1e830ebca5fd4102707e05b472905721", "lat": 38.898519, "is_reserved": 0, "fusion_lat": 0.0, "rental_uris": {"android": "https://dc.lft.to/lastmile_qr_scan", "ios": "https://dc.lft.to/lastmile_qr_scan"}, "fusion_lon": 0.0, "name": "1e830ebca5fd4102707e05b472905721", "lon": -77.01632833333333, "is_disabled": 0, "type": "electric_scooter"}, {"bike_id": "41971b86001f256660bec63bbf4bfbf3", "lat": 38.905998, "is_reserved": 0, "fusion_lat": 0.0, "rental_uris": {"android": "https://dc.lft.to/lastmile_qr_scan", "ios": "https://dc.lft.to/lastmile_qr_scan"}, "fusion_lon": 0.0, "name": "41971b86001f256660bec63bbf4bfbf3", "lon": -77.0069855, "is_disabled": 0, "type": "electric_scooter"}, {"bike_id": "0836deaa0c324f2100a8639ea2eeadeb", "lat": 38.8966245, "is_reserved": 0, "fusion_lat": 0.0, "rental_uris": {"android": "https://dc.lft.to/lastmile_qr_scan", "ios": "https://dc.lft.to/lastmile_qr_scan"}, "fusion_lon": 0.0, "name": "0836deaa0c324f2100a8639ea2eeadeb", "lon": -77.023645, "is_disabled": 0, "type": "electric_scooter"}, {"bike_id": "5c599b2cadee03abad092eb4a06d93a9", "lat": 38.8873055, "is_reserved": 0, "fusion_lat": 0.0, "rental_uris": {"android": "https://dc.lft.to/lastmile_qr_scan", "ios": "https://dc.lft.to/lastmile_qr_scan"}, "fusion_lon": 0.0, "name": "5c599b2cadee03abad092eb4a06d93a9", "lon": -77.0283785, "is_disabled": 0, "type": "electric_scooter"}, {"bike_id": "64c60e78720c9dd438d2c2b603f8bd2a", "lat": 38.90449783333333, "is_reserved": 0, "fusion_lat": 0.0, "rental_uris": {"android": "https://dc.lft.to/lastmile_qr_scan", "ios": "https://dc.lft.to/lastmile_qr_scan"}, "fusion_lon": 0.0, "name": "64c60e78720c9dd438d2c2b603f8bd2a", "lon": -77.044749, "is_disabled": 0, "type": "electric_scooter"}, {"bike_id": "542bc5aa9741bd129f2319c952a4f6f7", "lat": 38.89805366666667, "is_reserved": 0, "fusion_lat": 0.0, "rental_uris": {"android": "https://dc.lft.to/lastmile_qr_scan", "ios": "https://dc.lft.to/lastmile_qr_scan"}, "fusion_lon": 0.0, "name": "542bc5aa9741bd129f2319c952a4f6f7", "lon": -77.01219166666667, "is_disabled": 0, "type": "electric_scooter"}, {"bike_id": "63a5793cf5bcd4d928cb077130af65a9", "lat": 38.903449333333334, "is_reserved": 0, "fusion_lat": 0.0, "rental_uris": {"android": "https://dc.lft.to/lastmile_qr_scan", "ios": "https://dc.lft.to/lastmile_qr_scan"}, "fusion_lon": 0.0, "name": "63a5793cf5bcd4d928cb077130af65a9", "lon": -76.98508583333333, "is_disabled": 0, "type": "electric_scooter"}, {"bike_id": "4c6cd9d9c9d58e154b7950a408617b20", "lat": 38.920038, "is_reserved": 0, "fusion_lat": 0.0, "rental_uris": {"android": "https://dc.lft.to/lastmile_qr_scan", "ios": "https://dc.lft.to/lastmile_qr_scan"}, "fusion_lon": 0.0, "name": "4c6cd9d9c9d58e154b7950a408617b20", "lon": -77.02205533333333, "is_disabled": 0, "type": "electric_scooter"}, {"bike_id": "cf39914c4cdcf727c2de6bc2fcb61cbd", "lat": 38.98766666666667, "is_reserved": 0, "fusion_lat": 0.0, "rental_uris": {"android": "https://dc.lft.to/lastmile_qr_scan", "ios": "https://dc.lft.to/lastmile_qr_scan"}, "fusion_lon": 0.0, "name": "cf39914c4cdcf727c2de6bc2fcb61cbd", "lon": -77.14060783333333, "is_disabled": 0, "type": "electric_bike"}, {"bike_id": "5b7551e5ed30720639ed735287beb0dc", "lat": 38.884948, "is_reserved": 0, "fusion_lat": 0.0, "rental_uris": {"android": "https://dc.lft.to/lastmile_qr_scan", "ios": "https://dc.lft.to/lastmile_qr_scan"}, "fusion_lon": 0.0, "name": "5b7551e5ed30720639ed735287beb0dc", "lon": -77.00735033333333, "is_disabled": 0, "type": "electric_scooter"}, {"bike_id": "fc15bd77eed8206c1c6f0971b0be05d6", "lat": 38.923277666666664, "is_reserved": 0, "fusion_lat": 0.0, "rental_uris": {"android": "https://dc.lft.to/lastmile_qr_scan", "ios": "https://dc.lft.to/lastmile_qr_scan"}, "fusion_lon": 0.0, "name": "fc15bd77eed8206c1c6f0971b0be05d6", "lon": -77.00889733333334, "is_disabled": 0, "type": "electric_scooter"}, {"bike_id": "47158de34172b7782ec2054fe7259384", "lat": 38.8971045, "is_reserved": 0, "fusion_lat": 0.0, "rental_uris": {"android": "https://dc.lft.to/lastmile_qr_scan", "ios": "https://dc.lft.to/lastmile_qr_scan"}, "fusion_lon": 0.0, "name": "47158de34172b7782ec2054fe7259384", "lon": -77.0237315, "is_disabled": 0, "type": "electric_scooter"}, {"bike_id": "08bc896616793d7098806909404c3523", "lat": 38.935285666666665, "is_reserved": 0, "fusion_lat": 0.0, "rental_uris": {"android": "https://dc.lft.to/lastmile_qr_scan", "ios": "https://dc.lft.to/lastmile_qr_scan"}, "fusion_lon": 0.0, "name": "08bc896616793d7098806909404c3523", "lon": -77.0236035, "is_disabled": 0, "type": "electric_scooter"}, {"bike_id": "ffea457108cbf12f33569236e2663a12", "lat": 38.92483033333333, "is_reserved": 0, "fusion_lat": 0.0, "rental_uris": {"android": "https://dc.lft.to/lastmile_qr_scan", "ios": "https://dc.lft.to/lastmile_qr_scan"}, "fusion_lon": 0.0, "name": "ffea457108cbf12f33569236e2663a12", "lon": -77.031795, "is_disabled": 0, "type": "electric_scooter"}, {"bike_id": "9b1c2b2fe3824e8ffaf5dbec2e5c4032", "lat": 38.9203125, "is_reserved": 0, "fusion_lat": 0.0, "rental_uris": {"android": "https://dc.lft.to/lastmile_qr_scan", "ios": "https://dc.lft.to/lastmile_qr_scan"}, "fusion_lon": 0.0, "name": "9b1c2b2fe3824e8ffaf5dbec2e5c4032", "lon": -77.00305483333334, "is_disabled": 0, "type": "electric_scooter"}, {"bike_id": "896744eb7fb2aa12dc225c1c8ae0e5e8", "lat": 38.9165215, "is_reserved": 0, "fusion_lat": 0.0, "rental_uris": {"android": "https://dc.lft.to/lastmile_qr_scan", "ios": "https://dc.lft.to/lastmile_qr_scan"}, "fusion_lon": 0.0, "name": "896744eb7fb2aa12dc225c1c8ae0e5e8", "lon": -76.979161, "is_disabled": 0, "type": "electric_scooter"}, {"bike_id": "032ef3f089d51685623980774921c08c", "lat": 38.91840366666667, "is_reserved": 0, "fusion_lat": 0.0, "rental_uris": {"android": "https://dc.lft.to/lastmile_qr_scan", "ios": "https://dc.lft.to/lastmile_qr_scan"}, "fusion_lon": 0.0, "name": "032ef3f089d51685623980774921c08c", "lon": -77.0321265, "is_disabled": 0, "type": "electric_scooter"}, {"bike_id": "964edf148c9e5174df3e2115a20977aa", "lat": 38.928638666666664, "is_reserved": 0, "fusion_lat": 0.0, "rental_uris": {"android": "https://dc.lft.to/lastmile_qr_scan", "ios": "https://dc.lft.to/lastmile_qr_scan"}, "fusion_lon": 0.0, "name": "964edf148c9e5174df3e2115a20977aa", "lon": -77.03441766666667, "is_disabled": 0, "type": "electric_scooter"}, {"bike_id": "b867410d5202e30f099e39d056ababa1", "lat": 38.92647733333333, "is_reserved": 0, "fusion_lat": 0.0, "rental_uris": {"android": "https://dc.lft.to/lastmile_qr_scan", "ios": "https://dc.lft.to/lastmile_qr_scan"}, "fusion_lon": 0.0, "name": "b867410d5202e30f099e39d056ababa1", "lon": -77.0247775, "is_disabled": 0, "type": "electric_scooter"}, {"bike_id": "ca1dfa88f5a9f11a0b0d845ee0d181fe", "lat": 38.897165, "is_reserved": 0, "fusion_lat": 0.0, "rental_uris": {"android": "https://dc.lft.to/lastmile_qr_scan", "ios": "https://dc.lft.to/lastmile_qr_scan"}, "fusion_lon": 0.0, "name": "ca1dfa88f5a9f11a0b0d845ee0d181fe", "lon": -77.02843883333334, "is_disabled": 0, "type": "electric_scooter"}, {"bike_id": "5a67b0bd2c121cbf2fa3e9fc6cfce44a", "lat": 38.90041, "is_reserved": 0, "fusion_lat": 0.0, "rental_uris": {"android": "https://dc.lft.to/lastmile_qr_scan", "ios": "https://dc.lft.to/lastmile_qr_scan"}, "fusion_lon": 0.0, "name": "5a67b0bd2c121cbf2fa3e9fc6cfce44a", "lon": -77.02593366666666, "is_disabled": 0, "type": "electric_scooter"}, {"bike_id": "c3d2d2a86d72aadd1262b29b18f60d1d", "lat": 38.902578166666665, "is_reserved": 0, "fusion_lat": 0.0, "rental_uris": {"android": "https://dc.lft.to/lastmile_qr_scan", "ios": "https://dc.lft.to/lastmile_qr_scan"}, "fusion_lon": 0.0, "name": "c3d2d2a86d72aadd1262b29b18f60d1d", "lon": -77.054115, "is_disabled": 0, "type": "electric_scooter"}, {"bike_id": "dfb500d314149bc5c76e8fae676a1510", "lat": 38.86654766666667, "is_reserved": 0, "fusion_lat": 0.0, "rental_uris": {"android": "https://dc.lft.to/lastmile_qr_scan", "ios": "https://dc.lft.to/lastmile_qr_scan"}, "fusion_lon": 0.0, "name": "dfb500d314149bc5c76e8fae676a1510", "lon": -76.98890583333333, "is_disabled": 0, "type": "electric_scooter"}, {"bike_id": "282d85610220c81701b66abc97c06d80", "lat": 38.925785166666664, "is_reserved": 0, "fusion_lat": 0.0, "rental_uris": {"android": "https://dc.lft.to/lastmile_qr_scan", "ios": "https://dc.lft.to/lastmile_qr_scan"}, "fusion_lon": 0.0, "name": "282d85610220c81701b66abc97c06d80", "lon": -77.05422583333333, "is_disabled": 0, "type": "electric_scooter"}, {"bike_id": "c77d6f1c3681a0a35694c1bce0ceebb4", "lat": 38.85421233333334, "is_reserved": 0, "fusion_lat": 0.0, "rental_uris": {"android": "https://dc.lft.to/lastmile_qr_scan", "ios": "https://dc.lft.to/lastmile_qr_scan"}, "fusion_lon": 0.0, "name": "c77d6f1c3681a0a35694c1bce0ceebb4", "lon": -77.12077783333334, "is_disabled": 0, "type": "electric_bike"}, {"bike_id": "df10e4aa6cb66baa35ef18acbd48ae52", "lat": 38.84611316666667, "is_reserved": 0, "fusion_lat": 0.0, "rental_uris": {"android": "https://dc.lft.to/lastmile_qr_scan", "ios": "https://dc.lft.to/lastmile_qr_scan"}, "fusion_lon": 0.0, "name": "df10e4aa6cb66baa35ef18acbd48ae52", "lon": -76.969136, "is_disabled": 0, "type": "electric_bike"}, {"bike_id": "74b33fb50c6d51436351748a096560de", "lat": 38.899562833333334, "is_reserved": 0, "fusion_lat": 0.0, "rental_uris": {"android": "https://dc.lft.to/lastmile_qr_scan", "ios": "https://dc.lft.to/lastmile_qr_scan"}, "fusion_lon": 0.0, "name": "74b33fb50c6d51436351748a096560de", "lon": -76.975348, "is_disabled": 0, "type": "electric_scooter"}, {"bike_id": "35da70f2f046aab790be361610f9ce1f", "lat": 38.89934516666667, "is_reserved": 0, "fusion_lat": 0.0, "rental_uris": {"android": "https://dc.lft.to/lastmile_qr_scan", "ios": "https://dc.lft.to/lastmile_qr_scan"}, "fusion_lon": 0.0, "name": "35da70f2f046aab790be361610f9ce1f", "lon": -77.02939083333334, "is_disabled": 0, "type": "electric_scooter"}, {"bike_id": "9e72115c297800f06f87b077f47de958", "lat": 38.90417383333333, "is_reserved": 0, "fusion_lat": 0.0, "rental_uris": {"android": "https://dc.lft.to/lastmile_qr_scan", "ios": "https://dc.lft.to/lastmile_qr_scan"}, "fusion_lon": 0.0, "name": "9e72115c297800f06f87b077f47de958", "lon": -77.0534555, "is_disabled": 0, "type": "electric_scooter"}, {"bike_id": "50afd51831f531a025ffba1f4a3411f1", "lat": 38.904177, "is_reserved": 0, "fusion_lat": 0.0, "rental_uris": {"android": "https://dc.lft.to/lastmile_qr_scan", "ios": "https://dc.lft.to/lastmile_qr_scan"}, "fusion_lon": 0.0, "name": "50afd51831f531a025ffba1f4a3411f1", "lon": -76.97374933333333, "is_disabled": 0, "type": "electric_scooter"}, {"bike_id": "5b2b408b00c35cad173a2babcf1af7be", "lat": 38.86566883333333, "is_reserved": 0, "fusion_lat": 0.0, "rental_uris": {"android": "https://dc.lft.to/lastmile_qr_scan", "ios": "https://dc.lft.to/lastmile_qr_scan"}, "fusion_lon": 0.0, "name": "5b2b408b00c35cad173a2babcf1af7be", "lon": -76.98214283333333, "is_disabled": 0, "type": "electric_scooter"}, {"bike_id": "f5984c45114542022836b331dce696be", "lat": 38.905646833333336, "is_reserved": 0, "fusion_lat": 0.0, "rental_uris": {"android": "https://dc.lft.to/lastmile_qr_scan", "ios": "https://dc.lft.to/lastmile_qr_scan"}, "fusion_lon": 0.0, "name": "f5984c45114542022836b331dce696be", "lon": -77.04174766666667, "is_disabled": 0, "type": "electric_scooter"}, {"bike_id": "2726d5a40dca9b326be1f04d63c1b1fc", "lat": 38.90026483333333, "is_reserved": 0, "fusion_lat": 0.0, "rental_uris": {"android": "https://dc.lft.to/lastmile_qr_scan", "ios": "https://dc.lft.to/lastmile_qr_scan"}, "fusion_lon": 0.0, "name": "2726d5a40dca9b326be1f04d63c1b1fc", "lon": -76.99905583333333, "is_disabled": 0, "type": "electric_scooter"}, {"bike_id": "c999b7a386c98b08f0f7e6b65dd7678e", "lat": 38.8922095, "is_reserved": 0, "fusion_lat": 0.0, "rental_uris": {"android": "https://dc.lft.to/lastmile_qr_scan", "ios": "https://dc.lft.to/lastmile_qr_scan"}, "fusion_lon": 0.0, "name": "c999b7a386c98b08f0f7e6b65dd7678e", "lon": -77.024578, "is_disabled": 0, "type": "electric_scooter"}, {"bike_id": "66b19c138f6d7da72f833d3e4d9c4857", "lat": 38.91540716666667, "is_reserved": 0, "fusion_lat": 0.0, "rental_uris": {"android": "https://dc.lft.to/lastmile_qr_scan", "ios": "https://dc.lft.to/lastmile_qr_scan"}, "fusion_lon": 0.0, "name": "66b19c138f6d7da72f833d3e4d9c4857", "lon": -77.0121995, "is_disabled": 0, "type": "electric_scooter"}, {"bike_id": "87c264956e4eb3ff811a351fea04b9cd", "lat": 38.88711883333333, "is_reserved": 0, "fusion_lat": 0.0, "rental_uris": {"android": "https://dc.lft.to/lastmile_qr_scan", "ios": "https://dc.lft.to/lastmile_qr_scan"}, "fusion_lon": 0.0, "name": "87c264956e4eb3ff811a351fea04b9cd", "lon": -77.021964, "is_disabled": 0, "type": "electric_scooter"}, {"bike_id": "c423299a625d60bee4157d4a998defe5", "lat": 38.907992, "is_reserved": 0, "fusion_lat": 0.0, "rental_uris": {"android": "https://dc.lft.to/lastmile_qr_scan", "ios": "https://dc.lft.to/lastmile_qr_scan"}, "fusion_lon": 0.0, "name": "c423299a625d60bee4157d4a998defe5", "lon": -77.03447133333333, "is_disabled": 0, "type": "electric_scooter"}, {"bike_id": "d951be5d7f4fdb6ee33353878078d156", "lat": 38.91327916666667, "is_reserved": 0, "fusion_lat": 0.0, "rental_uris": {"android": "https://dc.lft.to/lastmile_qr_scan", "ios": "https://dc.lft.to/lastmile_qr_scan"}, "fusion_lon": 0.0, "name": "d951be5d7f4fdb6ee33353878078d156", "lon": -77.03184633333333, "is_disabled": 0, "type": "electric_scooter"}, {"bike_id": "16d99cb00939bac92c56b2fbb6540e48", "lat": 38.90827866666667, "is_reserved": 0, "fusion_lat": 0.0, "rental_uris": {"android": "https://dc.lft.to/lastmile_qr_scan", "ios": "https://dc.lft.to/lastmile_qr_scan"}, "fusion_lon": 0.0, "name": "16d99cb00939bac92c56b2fbb6540e48", "lon": -76.9969255, "is_disabled": 0, "type": "electric_scooter"}, {"bike_id": "355b710ac457e7e3db003ef3018073b3", "lat": 38.905598, "is_reserved": 0, "fusion_lat": 0.0, "rental_uris": {"android": "https://dc.lft.to/lastmile_qr_scan", "ios": "https://dc.lft.to/lastmile_qr_scan"}, "fusion_lon": 0.0, "name": "355b710ac457e7e3db003ef3018073b3", "lon": -77.006024, "is_disabled": 0, "type": "electric_scooter"}, {"bike_id": "2200fce3c91576dfc7d474adb3b05cc6", "lat": 38.907132833333335, "is_reserved": 0, "fusion_lat": 0.0, "rental_uris": {"android": "https://dc.lft.to/lastmile_qr_scan", "ios": "https://dc.lft.to/lastmile_qr_scan"}, "fusion_lon": 0.0, "name": "2200fce3c91576dfc7d474adb3b05cc6", "lon": -77.02510883333333, "is_disabled": 0, "type": "electric_scooter"}, {"bike_id": "8140f867798cc34aa6a57897a3a7181e", "lat": 38.904258166666665, "is_reserved": 0, "fusion_lat": 0.0, "rental_uris": {"android": "https://dc.lft.to/lastmile_qr_scan", "ios": "https://dc.lft.to/lastmile_qr_scan"}, "fusion_lon": 0.0, "name": "8140f867798cc34aa6a57897a3a7181e", "lon": -77.04653883333333, "is_disabled": 0, "type": "electric_scooter"}, {"bike_id": "e132e37df551d4463ad0c4be9f13581e", "lat": 38.900192833333335, "is_reserved": 0, "fusion_lat": 0.0, "rental_uris": {"android": "https://dc.lft.to/lastmile_qr_scan", "ios": "https://dc.lft.to/lastmile_qr_scan"}, "fusion_lon": 0.0, "name": "e132e37df551d4463ad0c4be9f13581e", "lon": -77.01198416666666, "is_disabled": 0, "type": "electric_scooter"}, {"bike_id": "8c3f6ae78a35d6667d606e0452b9b225", "lat": 38.896939833333334, "is_reserved": 0, "fusion_lat": 0.0, "rental_uris": {"android": "https://dc.lft.to/lastmile_qr_scan", "ios": "https://dc.lft.to/lastmile_qr_scan"}, "fusion_lon": 0.0, "name": "8c3f6ae78a35d6667d606e0452b9b225", "lon": -77.02290833333333, "is_disabled": 0, "type": "electric_scooter"}, {"bike_id": "bc3cf5792b08824c83384be5648bba2a", "lat": 38.86624366666667, "is_reserved": 0, "fusion_lat": 0.0, "rental_uris": {"android": "https://dc.lft.to/lastmile_qr_scan", "ios": "https://dc.lft.to/lastmile_qr_scan"}, "fusion_lon": 0.0, "name": "bc3cf5792b08824c83384be5648bba2a", "lon": -76.98724033333333, "is_disabled": 0, "type": "electric_scooter"}, {"bike_id": "4adbb462eacaa2afe5b743c72013859c", "lat": 38.935496666666666, "is_reserved": 0, "fusion_lat": 0.0, "rental_uris": {"android": "https://dc.lft.to/lastmile_qr_scan", "ios": "https://dc.lft.to/lastmile_qr_scan"}, "fusion_lon": 0.0, "name": "4adbb462eacaa2afe5b743c72013859c", "lon": -77.074847, "is_disabled": 0, "type": "electric_scooter"}, {"bike_id": "2f2163370dcbbd19d529f2f744a385ac", "lat": 38.884792833333336, "is_reserved": 0, "fusion_lat": 0.0, "rental_uris": {"android": "https://dc.lft.to/lastmile_qr_scan", "ios": "https://dc.lft.to/lastmile_qr_scan"}, "fusion_lon": 0.0, "name": "2f2163370dcbbd19d529f2f744a385ac", "lon": -77.12776166666667, "is_disabled": 0, "type": "electric_bike"}, {"bike_id": "86466448e77ea990450e6efa4ed5e1bc", "lat": 38.903325, "is_reserved": 0, "fusion_lat": 0.0, "rental_uris": {"android": "https://dc.lft.to/lastmile_qr_scan", "ios": "https://dc.lft.to/lastmile_qr_scan"}, "fusion_lon": 0.0, "name": "86466448e77ea990450e6efa4ed5e1bc", "lon": -77.03836183333334, "is_disabled": 0, "type": "electric_scooter"}, {"bike_id": "82ac7169be9bd29d8253f869b4cbb1e5", "lat": 38.97202266666667, "is_reserved": 0, "fusion_lat": 0.0, "rental_uris": {"android": "https://dc.lft.to/lastmile_qr_scan", "ios": "https://dc.lft.to/lastmile_qr_scan"}, "fusion_lon": 0.0, "name": "82ac7169be9bd29d8253f869b4cbb1e5", "lon": -77.02662783333334, "is_disabled": 0, "type": "electric_scooter"}, {"bike_id": "bfffb02e9a49d8db2bb42b0a0ea9e518", "lat": 38.920549666666666, "is_reserved": 0, "fusion_lat": 0.0, "rental_uris": {"android": "https://dc.lft.to/lastmile_qr_scan", "ios": "https://dc.lft.to/lastmile_qr_scan"}, "fusion_lon": 0.0, "name": "bfffb02e9a49d8db2bb42b0a0ea9e518", "lon": -77.03393016666666, "is_disabled": 0, "type": "electric_scooter"}, {"bike_id": "ff45b3fc8fc7af8165d661961ce2a3e3", "lat": 38.900428833333336, "is_reserved": 0, "fusion_lat": 0.0, "rental_uris": {"android": "https://dc.lft.to/lastmile_qr_scan", "ios": "https://dc.lft.to/lastmile_qr_scan"}, "fusion_lon": 0.0, "name": "ff45b3fc8fc7af8165d661961ce2a3e3", "lon": -77.03835316666667, "is_disabled": 0, "type": "electric_scooter"}, {"bike_id": "208ed8ecf89ab4812fea30488b06242c", "lat": 38.91571183333333, "is_reserved": 0, "fusion_lat": 0.0, "rental_uris": {"android": "https://dc.lft.to/lastmile_qr_scan", "ios": "https://dc.lft.to/lastmile_qr_scan"}, "fusion_lon": 0.0, "name": "208ed8ecf89ab4812fea30488b06242c", "lon": -77.01243916666667, "is_disabled": 0, "type": "electric_scooter"}, {"bike_id": "73a568f9e8c479a3badc8f4a3f4a8872", "lat": 38.938825666666666, "is_reserved": 0, "fusion_lat": 0.0, "rental_uris": {"android": "https://dc.lft.to/lastmile_qr_scan", "ios": "https://dc.lft.to/lastmile_qr_scan"}, "fusion_lon": 0.0, "name": "73a568f9e8c479a3badc8f4a3f4a8872", "lon": -77.02463166666666, "is_disabled": 0, "type": "electric_scooter"}, {"bike_id": "625ae89a0f387e7cc47010002111be41", "lat": 38.905498, "is_reserved": 0, "fusion_lat": 0.0, "rental_uris": {"android": "https://dc.lft.to/lastmile_qr_scan", "ios": "https://dc.lft.to/lastmile_qr_scan"}, "fusion_lon": 0.0, "name": "625ae89a0f387e7cc47010002111be41", "lon": -77.04096066666666, "is_disabled": 0, "type": "electric_scooter"}, {"bike_id": "aede2709912a2d6fac44c35045437487", "lat": 38.899482, "is_reserved": 0, "fusion_lat": 0.0, "rental_uris": {"android": "https://dc.lft.to/lastmile_qr_scan", "ios": "https://dc.lft.to/lastmile_qr_scan"}, "fusion_lon": 0.0, "name": "aede2709912a2d6fac44c35045437487", "lon": -77.04540233333333, "is_disabled": 0, "type": "electric_scooter"}, {"bike_id": "f00c1948597601d5f5ceb235d99116e5", "lat": 38.89983483333334, "is_reserved": 0, "fusion_lat": 0.0, "rental_uris": {"android": "https://dc.lft.to/lastmile_qr_scan", "ios": "https://dc.lft.to/lastmile_qr_scan"}, "fusion_lon": 0.0, "name": "f00c1948597601d5f5ceb235d99116e5", "lon": -77.055142, "is_disabled": 0, "type": "electric_scooter"}, {"bike_id": "dbe47ee23a630319efb13a7ae7f5b3d4", "lat": 38.92462916666667, "is_reserved": 0, "fusion_lat": 0.0, "rental_uris": {"android": "https://dc.lft.to/lastmile_qr_scan", "ios": "https://dc.lft.to/lastmile_qr_scan"}, "fusion_lon": 0.0, "name": "dbe47ee23a630319efb13a7ae7f5b3d4", "lon": -77.03911916666667, "is_disabled": 0, "type": "electric_scooter"}, {"bike_id": "a70ba9316a5400c3502f0e5586f3f3c5", "lat": 38.893987833333334, "is_reserved": 0, "fusion_lat": 0.0, "rental_uris": {"android": "https://dc.lft.to/lastmile_qr_scan", "ios": "https://dc.lft.to/lastmile_qr_scan"}, "fusion_lon": 0.0, "name": "a70ba9316a5400c3502f0e5586f3f3c5", "lon": -77.02132966666667, "is_disabled": 0, "type": "electric_scooter"}, {"bike_id": "6af01067d0d901ecceefe3f87c94648a", "lat": 38.92348883333333, "is_reserved": 0, "fusion_lat": 0.0, "rental_uris": {"android": "https://dc.lft.to/lastmile_qr_scan", "ios": "https://dc.lft.to/lastmile_qr_scan"}, "fusion_lon": 0.0, "name": "6af01067d0d901ecceefe3f87c94648a", "lon": -77.04145366666667, "is_disabled": 0, "type": "electric_scooter"}, {"bike_id": "cc755e8b643f3e1eff59e403af55b84c", "lat": 38.838859, "is_reserved": 0, "fusion_lat": 0.0, "rental_uris": {"android": "https://dc.lft.to/lastmile_qr_scan", "ios": "https://dc.lft.to/lastmile_qr_scan"}, "fusion_lon": 0.0, "name": "cc755e8b643f3e1eff59e403af55b84c", "lon": -77.00069166666667, "is_disabled": 0, "type": "electric_scooter"}, {"bike_id": "a501671ef8c5b5d05a6d555233771b6f", "lat": 38.90276566666667, "is_reserved": 0, "fusion_lat": 0.0, "rental_uris": {"android": "https://dc.lft.to/lastmile_qr_scan", "ios": "https://dc.lft.to/lastmile_qr_scan"}, "fusion_lon": 0.0, "name": "a501671ef8c5b5d05a6d555233771b6f", "lon": -77.006029, "is_disabled": 0, "type": "electric_scooter"}, {"bike_id": "d4ac40fd19772f15b81145c234714500", "lat": 38.92311, "is_reserved": 0, "fusion_lat": 0.0, "rental_uris": {"android": "https://dc.lft.to/lastmile_qr_scan", "ios": "https://dc.lft.to/lastmile_qr_scan"}, "fusion_lon": 0.0, "name": "d4ac40fd19772f15b81145c234714500", "lon": -77.04643883333334, "is_disabled": 0, "type": "electric_scooter"}, {"bike_id": "981fc1b6f23b1c646c9289517a25d494", "lat": 38.988603, "is_reserved": 0, "fusion_lat": 0.0, "rental_uris": {"android": "https://dc.lft.to/lastmile_qr_scan", "ios": "https://dc.lft.to/lastmile_qr_scan"}, "fusion_lon": 0.0, "name": "981fc1b6f23b1c646c9289517a25d494", "lon": -77.09560766666667, "is_disabled": 0, "type": "electric_bike"}, {"bike_id": "8ab6520910300625a0f0c94f434263eb", "lat": 38.85130983333333, "is_reserved": 0, "fusion_lat": 0.0, "rental_uris": {"android": "https://dc.lft.to/lastmile_qr_scan", "ios": "https://dc.lft.to/lastmile_qr_scan"}, "fusion_lon": 0.0, "name": "8ab6520910300625a0f0c94f434263eb", "lon": -76.971056, "is_disabled": 0, "type": "electric_scooter"}, {"bike_id": "dd06f89b0f7912e0b3c511ac2389cd6a", "lat": 38.94799, "is_reserved": 0, "fusion_lat": 0.0, "rental_uris": {"android": "https://dc.lft.to/lastmile_qr_scan", "ios": "https://dc.lft.to/lastmile_qr_scan"}, "fusion_lon": 0.0, "name": "dd06f89b0f7912e0b3c511ac2389cd6a", "lon": -76.95542683333333, "is_disabled": 0, "type": "electric_bike"}, {"bike_id": "465aa8cc47294e17670cea5fdffafb04", "lat": 38.941956, "is_reserved": 0, "fusion_lat": 0.0, "rental_uris": {"android": "https://dc.lft.to/lastmile_qr_scan", "ios": "https://dc.lft.to/lastmile_qr_scan"}, "fusion_lon": 0.0, "name": "465aa8cc47294e17670cea5fdffafb04", "lon": -77.03661366666667, "is_disabled": 0, "type": "electric_scooter"}, {"bike_id": "80ae9cdeea8c0637f23e28497086a18f", "lat": 38.96504566666667, "is_reserved": 0, "fusion_lat": 0.0, "rental_uris": {"android": "https://dc.lft.to/lastmile_qr_scan", "ios": "https://dc.lft.to/lastmile_qr_scan"}, "fusion_lon": 0.0, "name": "80ae9cdeea8c0637f23e28497086a18f", "lon": -77.02102416666666, "is_disabled": 0, "type": "electric_bike"}, {"bike_id": "3338c4dbb6dc863c6fe83da1c2af19a1", "lat": 38.8978465, "is_reserved": 0, "fusion_lat": 0.0, "rental_uris": {"android": "https://dc.lft.to/lastmile_qr_scan", "ios": "https://dc.lft.to/lastmile_qr_scan"}, "fusion_lon": 0.0, "name": "3338c4dbb6dc863c6fe83da1c2af19a1", "lon": -77.0336715, "is_disabled": 0, "type": "electric_scooter"}, {"bike_id": "c5162b43e2240017c72e3a6008ed9fcf", "lat": 38.9287065, "is_reserved": 0, "fusion_lat": 0.0, "rental_uris": {"android": "https://dc.lft.to/lastmile_qr_scan", "ios": "https://dc.lft.to/lastmile_qr_scan"}, "fusion_lon": 0.0, "name": "c5162b43e2240017c72e3a6008ed9fcf", "lon": -76.99032, "is_disabled": 0, "type": "electric_scooter"}, {"bike_id": "e95be014044bbb1081c86e8bb4843e8b", "lat": 39.01367833333333, "is_reserved": 0, "fusion_lat": 0.0, "rental_uris": {"android": "https://dc.lft.to/lastmile_qr_scan", "ios": "https://dc.lft.to/lastmile_qr_scan"}, "fusion_lon": 0.0, "name": "e95be014044bbb1081c86e8bb4843e8b", "lon": -76.92139133333333, "is_disabled": 0, "type": "electric_bike"}, {"bike_id": "e4974132c4b3252ce79db9b485f72b13", "lat": 38.887091, "is_reserved": 0, "fusion_lat": 0.0, "rental_uris": {"android": "https://dc.lft.to/lastmile_qr_scan", "ios": "https://dc.lft.to/lastmile_qr_scan"}, "fusion_lon": 0.0, "name": "e4974132c4b3252ce79db9b485f72b13", "lon": -77.01779266666667, "is_disabled": 0, "type": "electric_scooter"}, {"bike_id": "443650032704a44abd4957cce8d07649", "lat": 38.9142385, "is_reserved": 0, "fusion_lat": 0.0, "rental_uris": {"android": "https://dc.lft.to/lastmile_qr_scan", "ios": "https://dc.lft.to/lastmile_qr_scan"}, "fusion_lon": 0.0, "name": "443650032704a44abd4957cce8d07649", "lon": -77.0198815, "is_disabled": 0, "type": "electric_scooter"}, {"bike_id": "b2c8a155663be0e4ec87bfd7915a30a4", "lat": 38.92231233333333, "is_reserved": 0, "fusion_lat": 0.0, "rental_uris": {"android": "https://dc.lft.to/lastmile_qr_scan", "ios": "https://dc.lft.to/lastmile_qr_scan"}, "fusion_lon": 0.0, "name": "b2c8a155663be0e4ec87bfd7915a30a4", "lon": -77.01822566666667, "is_disabled": 0, "type": "electric_scooter"}, {"bike_id": "aa7616f19a2e09bcf23f6ab330243dd9", "lat": 38.9408725, "is_reserved": 0, "fusion_lat": 0.0, "rental_uris": {"android": "https://dc.lft.to/lastmile_qr_scan", "ios": "https://dc.lft.to/lastmile_qr_scan"}, "fusion_lon": 0.0, "name": "aa7616f19a2e09bcf23f6ab330243dd9", "lon": -77.02722616666667, "is_disabled": 0, "type": "electric_scooter"}, {"bike_id": "54008d4dccbb8dfba77893dd080efd8c", "lat": 38.905884666666665, "is_reserved": 0, "fusion_lat": 0.0, "rental_uris": {"android": "https://dc.lft.to/lastmile_qr_scan", "ios": "https://dc.lft.to/lastmile_qr_scan"}, "fusion_lon": 0.0, "name": "54008d4dccbb8dfba77893dd080efd8c", "lon": -77.02185483333334, "is_disabled": 0, "type": "electric_scooter"}, {"bike_id": "dfe0dbfb880f4669a6a19e981c11a15e", "lat": 38.90646383333333, "is_reserved": 0, "fusion_lat": 0.0, "rental_uris": {"android": "https://dc.lft.to/lastmile_qr_scan", "ios": "https://dc.lft.to/lastmile_qr_scan"}, "fusion_lon": 0.0, "name": "dfe0dbfb880f4669a6a19e981c11a15e", "lon": -77.0059775, "is_disabled": 0, "type": "electric_scooter"}, {"bike_id": "d924eb1477042d4cde8149c30d0e67e4", "lat": 38.91690716666667, "is_reserved": 0, "fusion_lat": 0.0, "rental_uris": {"android": "https://dc.lft.to/lastmile_qr_scan", "ios": "https://dc.lft.to/lastmile_qr_scan"}, "fusion_lon": 0.0, "name": "d924eb1477042d4cde8149c30d0e67e4", "lon": -77.03772983333333, "is_disabled": 0, "type": "electric_scooter"}, {"bike_id": "0ce0c3e179bfedfc3d9491d25356d338", "lat": 38.88541583333333, "is_reserved": 0, "fusion_lat": 0.0, "rental_uris": {"android": "https://dc.lft.to/lastmile_qr_scan", "ios": "https://dc.lft.to/lastmile_qr_scan"}, "fusion_lon": 0.0, "name": "0ce0c3e179bfedfc3d9491d25356d338", "lon": -77.00579583333334, "is_disabled": 0, "type": "electric_scooter"}, {"bike_id": "1b8c207e68d074d6a709ee37b518fdbf", "lat": 38.90311066666666, "is_reserved": 0, "fusion_lat": 0.0, "rental_uris": {"android": "https://dc.lft.to/lastmile_qr_scan", "ios": "https://dc.lft.to/lastmile_qr_scan"}, "fusion_lon": 0.0, "name": "1b8c207e68d074d6a709ee37b518fdbf", "lon": -77.0488945, "is_disabled": 0, "type": "electric_scooter"}, {"bike_id": "a16486bc73bf9916953cf94190147689", "lat": 38.91828366666667, "is_reserved": 0, "fusion_lat": 0.0, "rental_uris": {"android": "https://dc.lft.to/lastmile_qr_scan", "ios": "https://dc.lft.to/lastmile_qr_scan"}, "fusion_lon": 0.0, "name": "a16486bc73bf9916953cf94190147689", "lon": -77.0416105, "is_disabled": 0, "type": "electric_scooter"}, {"bike_id": "cfb4acfc7940f4200698f19813cef741", "lat": 38.917736833333336, "is_reserved": 0, "fusion_lat": 0.0, "rental_uris": {"android": "https://dc.lft.to/lastmile_qr_scan", "ios": "https://dc.lft.to/lastmile_qr_scan"}, "fusion_lon": 0.0, "name": "cfb4acfc7940f4200698f19813cef741", "lon": -77.029501, "is_disabled": 0, "type": "electric_scooter"}, {"bike_id": "95490d134199116eccde59d2191bda97", "lat": 38.908183, "is_reserved": 0, "fusion_lat": 0.0, "rental_uris": {"android": "https://dc.lft.to/lastmile_qr_scan", "ios": "https://dc.lft.to/lastmile_qr_scan"}, "fusion_lon": 0.0, "name": "95490d134199116eccde59d2191bda97", "lon": -76.99712983333333, "is_disabled": 0, "type": "electric_scooter"}, {"bike_id": "0b41f11b25ef9876f1aa0e535b18096d", "lat": 38.92443633333333, "is_reserved": 0, "fusion_lat": 0.0, "rental_uris": {"android": "https://dc.lft.to/lastmile_qr_scan", "ios": "https://dc.lft.to/lastmile_qr_scan"}, "fusion_lon": 0.0, "name": "0b41f11b25ef9876f1aa0e535b18096d", "lon": -77.225636, "is_disabled": 0, "type": "electric_bike"}, {"bike_id": "6478f802f35bc6a5284e228f03422ec9", "lat": 38.902053, "is_reserved": 0, "fusion_lat": 0.0, "rental_uris": {"android": "https://dc.lft.to/lastmile_qr_scan", "ios": "https://dc.lft.to/lastmile_qr_scan"}, "fusion_lon": 0.0, "name": "6478f802f35bc6a5284e228f03422ec9", "lon": -76.974146, "is_disabled": 0, "type": "electric_bike"}, {"bike_id": "23460be7af7635a604358becc0ba615c", "lat": 38.90680416666667, "is_reserved": 0, "fusion_lat": 0.0, "rental_uris": {"android": "https://dc.lft.to/lastmile_qr_scan", "ios": "https://dc.lft.to/lastmile_qr_scan"}, "fusion_lon": 0.0, "name": "23460be7af7635a604358becc0ba615c", "lon": -77.0237475, "is_disabled": 0, "type": "electric_scooter"}, {"bike_id": "c9d0869fffcf04c076e4b53858c84605", "lat": 38.906304166666665, "is_reserved": 0, "fusion_lat": 0.0, "rental_uris": {"android": "https://dc.lft.to/lastmile_qr_scan", "ios": "https://dc.lft.to/lastmile_qr_scan"}, "fusion_lon": 0.0, "name": "c9d0869fffcf04c076e4b53858c84605", "lon": -77.01009416666666, "is_disabled": 0, "type": "electric_scooter"}, {"bike_id": "a952985a497a66f0c756fa3430c19842", "lat": 38.927285833333336, "is_reserved": 0, "fusion_lat": 0.0, "rental_uris": {"android": "https://dc.lft.to/lastmile_qr_scan", "ios": "https://dc.lft.to/lastmile_qr_scan"}, "fusion_lon": 0.0, "name": "a952985a497a66f0c756fa3430c19842", "lon": -77.00561383333333, "is_disabled": 0, "type": "electric_scooter"}, {"bike_id": "985a018872b778a09f8531c02e570563", "lat": 38.90367483333333, "is_reserved": 0, "fusion_lat": 0.0, "rental_uris": {"android": "https://dc.lft.to/lastmile_qr_scan", "ios": "https://dc.lft.to/lastmile_qr_scan"}, "fusion_lon": 0.0, "name": "985a018872b778a09f8531c02e570563", "lon": -77.0293395, "is_disabled": 0, "type": "electric_scooter"}, {"bike_id": "995d000bc459235c773effd988e181ae", "lat": 38.91684333333333, "is_reserved": 0, "fusion_lat": 0.0, "rental_uris": {"android": "https://dc.lft.to/lastmile_qr_scan", "ios": "https://dc.lft.to/lastmile_qr_scan"}, "fusion_lon": 0.0, "name": "995d000bc459235c773effd988e181ae", "lon": -77.02957066666667, "is_disabled": 0, "type": "electric_scooter"}, {"bike_id": "8a9bdcd65af46b094413aac4c3af1bff", "lat": 38.905254166666666, "is_reserved": 0, "fusion_lat": 0.0, "rental_uris": {"android": "https://dc.lft.to/lastmile_qr_scan", "ios": "https://dc.lft.to/lastmile_qr_scan"}, "fusion_lon": 0.0, "name": "8a9bdcd65af46b094413aac4c3af1bff", "lon": -77.04191966666667, "is_disabled": 0, "type": "electric_scooter"}, {"bike_id": "48bc8e96c88510a929370615dda99141", "lat": 38.93669533333333, "is_reserved": 0, "fusion_lat": 0.0, "rental_uris": {"android": "https://dc.lft.to/lastmile_qr_scan", "ios": "https://dc.lft.to/lastmile_qr_scan"}, "fusion_lon": 0.0, "name": "48bc8e96c88510a929370615dda99141", "lon": -76.952099, "is_disabled": 0, "type": "electric_bike"}, {"bike_id": "98bafe7c13c5de37e391449bf33afdd0", "lat": 38.897291833333334, "is_reserved": 0, "fusion_lat": 0.0, "rental_uris": {"android": "https://dc.lft.to/lastmile_qr_scan", "ios": "https://dc.lft.to/lastmile_qr_scan"}, "fusion_lon": 0.0, "name": "98bafe7c13c5de37e391449bf33afdd0", "lon": -77.02167183333333, "is_disabled": 0, "type": "electric_scooter"}, {"bike_id": "6bb4a93b575fe368bc764c15cdc9a593", "lat": 38.926407166666664, "is_reserved": 0, "fusion_lat": 0.0, "rental_uris": {"android": "https://dc.lft.to/lastmile_qr_scan", "ios": "https://dc.lft.to/lastmile_qr_scan"}, "fusion_lon": 0.0, "name": "6bb4a93b575fe368bc764c15cdc9a593", "lon": -76.98426966666666, "is_disabled": 0, "type": "electric_bike"}, {"bike_id": "7397eb0fc6cdd22a9a1c1ab88f0d7cf8", "lat": 38.941947, "is_reserved": 0, "fusion_lat": 0.0, "rental_uris": {"android": "https://dc.lft.to/lastmile_qr_scan", "ios": "https://dc.lft.to/lastmile_qr_scan"}, "fusion_lon": 0.0, "name": "7397eb0fc6cdd22a9a1c1ab88f0d7cf8", "lon": -77.02435633333333, "is_disabled": 0, "type": "electric_scooter"}, {"bike_id": "a9cfd7b3bbb0864b9604a3c590fa129e", "lat": 38.93355366666667, "is_reserved": 0, "fusion_lat": 0.0, "rental_uris": {"android": "https://dc.lft.to/lastmile_qr_scan", "ios": "https://dc.lft.to/lastmile_qr_scan"}, "fusion_lon": 0.0, "name": "a9cfd7b3bbb0864b9604a3c590fa129e", "lon": -77.08581833333334, "is_disabled": 0, "type": "electric_scooter"}, {"bike_id": "4b3c08513e067a21a4a953070d4ab343", "lat": 38.878631, "is_reserved": 0, "fusion_lat": 0.0, "rental_uris": {"android": "https://dc.lft.to/lastmile_qr_scan", "ios": "https://dc.lft.to/lastmile_qr_scan"}, "fusion_lon": 0.0, "name": "4b3c08513e067a21a4a953070d4ab343", "lon": -77.017666, "is_disabled": 0, "type": "electric_scooter"}, {"bike_id": "132ef02ad82476c0aac0c27a4e8e3c9d", "lat": 38.89949416666666, "is_reserved": 0, "fusion_lat": 0.0, "rental_uris": {"android": "https://dc.lft.to/lastmile_qr_scan", "ios": "https://dc.lft.to/lastmile_qr_scan"}, "fusion_lon": 0.0, "name": "132ef02ad82476c0aac0c27a4e8e3c9d", "lon": -77.04827783333333, "is_disabled": 0, "type": "electric_bike"}, {"bike_id": "484efdddb2db1111dc3d77f99732b16f", "lat": 38.92051133333333, "is_reserved": 0, "fusion_lat": 0.0, "rental_uris": {"android": "https://dc.lft.to/lastmile_qr_scan", "ios": "https://dc.lft.to/lastmile_qr_scan"}, "fusion_lon": 0.0, "name": "484efdddb2db1111dc3d77f99732b16f", "lon": -77.02375983333333, "is_disabled": 0, "type": "electric_scooter"}, {"bike_id": "4bc9a34857cb7517b3baf978382b1d35", "lat": 38.901534, "is_reserved": 0, "fusion_lat": 0.0, "rental_uris": {"android": "https://dc.lft.to/lastmile_qr_scan", "ios": "https://dc.lft.to/lastmile_qr_scan"}, "fusion_lon": 0.0, "name": "4bc9a34857cb7517b3baf978382b1d35", "lon": -77.05921866666667, "is_disabled": 0, "type": "electric_scooter"}, {"bike_id": "fcf00cfd1c250fc17e76e3fd5b402f5f", "lat": 38.91773833333333, "is_reserved": 0, "fusion_lat": 0.0, "rental_uris": {"android": "https://dc.lft.to/lastmile_qr_scan", "ios": "https://dc.lft.to/lastmile_qr_scan"}, "fusion_lon": 0.0, "name": "fcf00cfd1c250fc17e76e3fd5b402f5f", "lon": -77.02952716666667, "is_disabled": 0, "type": "electric_scooter"}, {"bike_id": "6ade943751e1c1560ad2d32e3d9edf85", "lat": 38.8090865, "is_reserved": 0, "fusion_lat": 0.0, "rental_uris": {"android": "https://dc.lft.to/lastmile_qr_scan", "ios": "https://dc.lft.to/lastmile_qr_scan"}, "fusion_lon": 0.0, "name": "6ade943751e1c1560ad2d32e3d9edf85", "lon": -77.08654233333333, "is_disabled": 0, "type": "electric_bike"}, {"bike_id": "2065894a61e48a97e68ad126af16ab3c", "lat": 38.86507533333333, "is_reserved": 0, "fusion_lat": 0.0, "rental_uris": {"android": "https://dc.lft.to/lastmile_qr_scan", "ios": "https://dc.lft.to/lastmile_qr_scan"}, "fusion_lon": 0.0, "name": "2065894a61e48a97e68ad126af16ab3c", "lon": -76.99009833333334, "is_disabled": 0, "type": "electric_scooter"}, {"bike_id": "609024741937bbd4d8bf3957aa045667", "lat": 38.8923955, "is_reserved": 0, "fusion_lat": 0.0, "rental_uris": {"android": "https://dc.lft.to/lastmile_qr_scan", "ios": "https://dc.lft.to/lastmile_qr_scan"}, "fusion_lon": 0.0, "name": "609024741937bbd4d8bf3957aa045667", "lon": -76.9532885, "is_disabled": 0, "type": "electric_scooter"}, {"bike_id": "7954d4459f917ee02422abbfc5665136", "lat": 38.909567333333335, "is_reserved": 0, "fusion_lat": 0.0, "rental_uris": {"android": "https://dc.lft.to/lastmile_qr_scan", "ios": "https://dc.lft.to/lastmile_qr_scan"}, "fusion_lon": 0.0, "name": "7954d4459f917ee02422abbfc5665136", "lon": -77.03743516666667, "is_disabled": 0, "type": "electric_scooter"}, {"bike_id": "7e5c6d32562ccc9ca4024d7a3af46e7e", "lat": 38.90090633333333, "is_reserved": 0, "fusion_lat": 0.0, "rental_uris": {"android": "https://dc.lft.to/lastmile_qr_scan", "ios": "https://dc.lft.to/lastmile_qr_scan"}, "fusion_lon": 0.0, "name": "7e5c6d32562ccc9ca4024d7a3af46e7e", "lon": -76.98340683333333, "is_disabled": 0, "type": "electric_scooter"}, {"bike_id": "46257dde969a3790b49777fee09b3c15", "lat": 38.902574333333334, "is_reserved": 0, "fusion_lat": 0.0, "rental_uris": {"android": "https://dc.lft.to/lastmile_qr_scan", "ios": "https://dc.lft.to/lastmile_qr_scan"}, "fusion_lon": 0.0, "name": "46257dde969a3790b49777fee09b3c15", "lon": -77.03958483333334, "is_disabled": 0, "type": "electric_scooter"}, {"bike_id": "65eeeefbc3209b138e9fb874c58c2c92", "lat": 38.8924615, "is_reserved": 0, "fusion_lat": 0.0, "rental_uris": {"android": "https://dc.lft.to/lastmile_qr_scan", "ios": "https://dc.lft.to/lastmile_qr_scan"}, "fusion_lon": 0.0, "name": "65eeeefbc3209b138e9fb874c58c2c92", "lon": -77.0487955, "is_disabled": 0, "type": "electric_scooter"}, {"bike_id": "9672c14f0054980e4bc689463a1a3e12", "lat": 38.89898933333333, "is_reserved": 0, "fusion_lat": 0.0, "rental_uris": {"android": "https://dc.lft.to/lastmile_qr_scan", "ios": "https://dc.lft.to/lastmile_qr_scan"}, "fusion_lon": 0.0, "name": "9672c14f0054980e4bc689463a1a3e12", "lon": -77.04021283333333, "is_disabled": 0, "type": "electric_scooter"}, {"bike_id": "364a50f45c2f28eda969e8abf3e22dbd", "lat": 38.90748383333333, "is_reserved": 0, "fusion_lat": 0.0, "rental_uris": {"android": "https://dc.lft.to/lastmile_qr_scan", "ios": "https://dc.lft.to/lastmile_qr_scan"}, "fusion_lon": 0.0, "name": "364a50f45c2f28eda969e8abf3e22dbd", "lon": -77.03215866666666, "is_disabled": 0, "type": "electric_scooter"}, {"bike_id": "5895be1d7257a20884eb48f38cb98977", "lat": 38.87499783333333, "is_reserved": 0, "fusion_lat": 0.0, "rental_uris": {"android": "https://dc.lft.to/lastmile_qr_scan", "ios": "https://dc.lft.to/lastmile_qr_scan"}, "fusion_lon": 0.0, "name": "5895be1d7257a20884eb48f38cb98977", "lon": -77.01233683333334, "is_disabled": 0, "type": "electric_scooter"}, {"bike_id": "6320c0495210a35083826b1b5f3713ac", "lat": 38.897836833333336, "is_reserved": 0, "fusion_lat": 0.0, "rental_uris": {"android": "https://dc.lft.to/lastmile_qr_scan", "ios": "https://dc.lft.to/lastmile_qr_scan"}, "fusion_lon": 0.0, "name": "6320c0495210a35083826b1b5f3713ac", "lon": -77.03219883333334, "is_disabled": 0, "type": "electric_scooter"}, {"bike_id": "180d407a2982d46f564c02a4c1c3ad91", "lat": 38.90254616666667, "is_reserved": 0, "fusion_lat": 0.0, "rental_uris": {"android": "https://dc.lft.to/lastmile_qr_scan", "ios": "https://dc.lft.to/lastmile_qr_scan"}, "fusion_lon": 0.0, "name": "180d407a2982d46f564c02a4c1c3ad91", "lon": -77.02651316666666, "is_disabled": 0, "type": "electric_scooter"}, {"bike_id": "7ec581768abf803ba21dc8ebb18f7485", "lat": 38.9026355, "is_reserved": 0, "fusion_lat": 0.0, "rental_uris": {"android": "https://dc.lft.to/lastmile_qr_scan", "ios": "https://dc.lft.to/lastmile_qr_scan"}, "fusion_lon": 0.0, "name": "7ec581768abf803ba21dc8ebb18f7485", "lon": -77.00333683333334, "is_disabled": 0, "type": "electric_scooter"}, {"bike_id": "bf00621875e4d5f4143e6d97d7846287", "lat": 38.8746505, "is_reserved": 0, "fusion_lat": 0.0, "rental_uris": {"android": "https://dc.lft.to/lastmile_qr_scan", "ios": "https://dc.lft.to/lastmile_qr_scan"}, "fusion_lon": 0.0, "name": "bf00621875e4d5f4143e6d97d7846287", "lon": -77.00488633333333, "is_disabled": 0, "type": "electric_scooter"}, {"bike_id": "27ede520fe23d38ee57d1eab25ea902c", "lat": 38.87896833333333, "is_reserved": 0, "fusion_lat": 0.0, "rental_uris": {"android": "https://dc.lft.to/lastmile_qr_scan", "ios": "https://dc.lft.to/lastmile_qr_scan"}, "fusion_lon": 0.0, "name": "27ede520fe23d38ee57d1eab25ea902c", "lon": -77.00708583333333, "is_disabled": 0, "type": "electric_scooter"}, {"bike_id": "b6b3e313037e4239ef3723648468a5cd", "lat": 38.9138165, "is_reserved": 0, "fusion_lat": 0.0, "rental_uris": {"android": "https://dc.lft.to/lastmile_qr_scan", "ios": "https://dc.lft.to/lastmile_qr_scan"}, "fusion_lon": 0.0, "name": "b6b3e313037e4239ef3723648468a5cd", "lon": -77.03214216666667, "is_disabled": 0, "type": "electric_scooter"}, {"bike_id": "81c2b31d63f1877236c390c14af78a6c", "lat": 38.91110066666667, "is_reserved": 0, "fusion_lat": 0.0, "rental_uris": {"android": "https://dc.lft.to/lastmile_qr_scan", "ios": "https://dc.lft.to/lastmile_qr_scan"}, "fusion_lon": 0.0, "name": "81c2b31d63f1877236c390c14af78a6c", "lon": -77.043273, "is_disabled": 0, "type": "electric_scooter"}, {"bike_id": "5791d4d73a358995fc36a5d5c95ea631", "lat": 38.89999983333333, "is_reserved": 0, "fusion_lat": 0.0, "rental_uris": {"android": "https://dc.lft.to/lastmile_qr_scan", "ios": "https://dc.lft.to/lastmile_qr_scan"}, "fusion_lon": 0.0, "name": "5791d4d73a358995fc36a5d5c95ea631", "lon": -77.0403705, "is_disabled": 0, "type": "electric_scooter"}, {"bike_id": "a5653df1f4bc3521f81fbb86aff50aa4", "lat": 38.918689666666666, "is_reserved": 0, "fusion_lat": 0.0, "rental_uris": {"android": "https://dc.lft.to/lastmile_qr_scan", "ios": "https://dc.lft.to/lastmile_qr_scan"}, "fusion_lon": 0.0, "name": "a5653df1f4bc3521f81fbb86aff50aa4", "lon": -77.040468, "is_disabled": 0, "type": "electric_scooter"}, {"bike_id": "df3b724c58f06740e7cb56f3fbc93657", "lat": 38.907757333333336, "is_reserved": 0, "fusion_lat": 0.0, "rental_uris": {"android": "https://dc.lft.to/lastmile_qr_scan", "ios": "https://dc.lft.to/lastmile_qr_scan"}, "fusion_lon": 0.0, "name": "df3b724c58f06740e7cb56f3fbc93657", "lon": -77.07172416666667, "is_disabled": 0, "type": "electric_scooter"}, {"bike_id": "554f88e27057c5f68b2fb2b3702c429a", "lat": 38.858914166666665, "is_reserved": 0, "fusion_lat": 0.0, "rental_uris": {"android": "https://dc.lft.to/lastmile_qr_scan", "ios": "https://dc.lft.to/lastmile_qr_scan"}, "fusion_lon": 0.0, "name": "554f88e27057c5f68b2fb2b3702c429a", "lon": -77.11868216666667, "is_disabled": 0, "type": "electric_bike"}, {"bike_id": "613c2b0b76d7c798960fedbfac31fb6b", "lat": 38.881267, "is_reserved": 0, "fusion_lat": 0.0, "rental_uris": {"android": "https://dc.lft.to/lastmile_qr_scan", "ios": "https://dc.lft.to/lastmile_qr_scan"}, "fusion_lon": 0.0, "name": "613c2b0b76d7c798960fedbfac31fb6b", "lon": -76.995589, "is_disabled": 0, "type": "electric_bike"}, {"bike_id": "1d57669086954c23110c3611153f76f0", "lat": 38.904092166666665, "is_reserved": 0, "fusion_lat": 0.0, "rental_uris": {"android": "https://dc.lft.to/lastmile_qr_scan", "ios": "https://dc.lft.to/lastmile_qr_scan"}, "fusion_lon": 0.0, "name": "1d57669086954c23110c3611153f76f0", "lon": -76.97335516666666, "is_disabled": 0, "type": "electric_scooter"}, {"bike_id": "6729562bbb912d04a0210a564e82866b", "lat": 38.8867155, "is_reserved": 0, "fusion_lat": 0.0, "rental_uris": {"android": "https://dc.lft.to/lastmile_qr_scan", "ios": "https://dc.lft.to/lastmile_qr_scan"}, "fusion_lon": 0.0, "name": "6729562bbb912d04a0210a564e82866b", "lon": -77.01984766666666, "is_disabled": 0, "type": "electric_scooter"}, {"bike_id": "d88742c44fcdff5b82707312860ab9c0", "lat": 38.92127933333333, "is_reserved": 0, "fusion_lat": 0.0, "rental_uris": {"android": "https://dc.lft.to/lastmile_qr_scan", "ios": "https://dc.lft.to/lastmile_qr_scan"}, "fusion_lon": 0.0, "name": "d88742c44fcdff5b82707312860ab9c0", "lon": -77.04576116666667, "is_disabled": 0, "type": "electric_scooter"}, {"bike_id": "e124d6d434d0b689510c046ec2a19b37", "lat": 38.914684666666666, "is_reserved": 0, "fusion_lat": 0.0, "rental_uris": {"android": "https://dc.lft.to/lastmile_qr_scan", "ios": "https://dc.lft.to/lastmile_qr_scan"}, "fusion_lon": 0.0, "name": "e124d6d434d0b689510c046ec2a19b37", "lon": -77.04595683333334, "is_disabled": 0, "type": "electric_scooter"}, {"bike_id": "46d0122c74771b6da777ec044a89f0fc", "lat": 38.873610166666666, "is_reserved": 0, "fusion_lat": 0.0, "rental_uris": {"android": "https://dc.lft.to/lastmile_qr_scan", "ios": "https://dc.lft.to/lastmile_qr_scan"}, "fusion_lon": 0.0, "name": "46d0122c74771b6da777ec044a89f0fc", "lon": -76.970329, "is_disabled": 0, "type": "electric_scooter"}, {"bike_id": "2886fa889ed0a513cb24d55b96595342", "lat": 38.93331116666667, "is_reserved": 0, "fusion_lat": 0.0, "rental_uris": {"android": "https://dc.lft.to/lastmile_qr_scan", "ios": "https://dc.lft.to/lastmile_qr_scan"}, "fusion_lon": 0.0, "name": "2886fa889ed0a513cb24d55b96595342", "lon": -77.02848733333333, "is_disabled": 0, "type": "electric_scooter"}, {"bike_id": "c7fac4c05aad121e6356ef59d49fb73a", "lat": 38.898843166666666, "is_reserved": 0, "fusion_lat": 0.0, "rental_uris": {"android": "https://dc.lft.to/lastmile_qr_scan", "ios": "https://dc.lft.to/lastmile_qr_scan"}, "fusion_lon": 0.0, "name": "c7fac4c05aad121e6356ef59d49fb73a", "lon": -76.93181383333334, "is_disabled": 0, "type": "electric_scooter"}, {"bike_id": "6bb2b751592bf7aba81ee1544f08265b", "lat": 38.90962316666667, "is_reserved": 0, "fusion_lat": 0.0, "rental_uris": {"android": "https://dc.lft.to/lastmile_qr_scan", "ios": "https://dc.lft.to/lastmile_qr_scan"}, "fusion_lon": 0.0, "name": "6bb2b751592bf7aba81ee1544f08265b", "lon": -77.032904, "is_disabled": 0, "type": "electric_scooter"}, {"bike_id": "71b29835d2687a5de4353beae87aa00e", "lat": 38.884006166666666, "is_reserved": 0, "fusion_lat": 0.0, "rental_uris": {"android": "https://dc.lft.to/lastmile_qr_scan", "ios": "https://dc.lft.to/lastmile_qr_scan"}, "fusion_lon": 0.0, "name": "71b29835d2687a5de4353beae87aa00e", "lon": -77.02412933333333, "is_disabled": 0, "type": "electric_bike"}, {"bike_id": "fbe6b586268418106267e94b7189221f", "lat": 38.8874185, "is_reserved": 0, "fusion_lat": 0.0, "rental_uris": {"android": "https://dc.lft.to/lastmile_qr_scan", "ios": "https://dc.lft.to/lastmile_qr_scan"}, "fusion_lon": 0.0, "name": "fbe6b586268418106267e94b7189221f", "lon": -77.03169383333334, "is_disabled": 0, "type": "electric_scooter"}, {"bike_id": "ee601ee6b91df7e84a72105da898bee2", "lat": 38.895134666666664, "is_reserved": 0, "fusion_lat": 0.0, "rental_uris": {"android": "https://dc.lft.to/lastmile_qr_scan", "ios": "https://dc.lft.to/lastmile_qr_scan"}, "fusion_lon": 0.0, "name": "ee601ee6b91df7e84a72105da898bee2", "lon": -77.02291533333333, "is_disabled": 0, "type": "electric_scooter"}, {"bike_id": "475f0e0ddd65985ea24955bd7ed102e2", "lat": 38.89630366666667, "is_reserved": 0, "fusion_lat": 0.0, "rental_uris": {"android": "https://dc.lft.to/lastmile_qr_scan", "ios": "https://dc.lft.to/lastmile_qr_scan"}, "fusion_lon": 0.0, "name": "475f0e0ddd65985ea24955bd7ed102e2", "lon": -77.04488533333334, "is_disabled": 0, "type": "electric_scooter"}, {"bike_id": "0ccfad7fb5103c77fcbe83228daa978f", "lat": 38.900435333333334, "is_reserved": 0, "fusion_lat": 0.0, "rental_uris": {"android": "https://dc.lft.to/lastmile_qr_scan", "ios": "https://dc.lft.to/lastmile_qr_scan"}, "fusion_lon": 0.0, "name": "0ccfad7fb5103c77fcbe83228daa978f", "lon": -76.99154716666666, "is_disabled": 0, "type": "electric_scooter"}, {"bike_id": "23ff125910e7abe8f69f1cf8551d0147", "lat": 38.884918166666665, "is_reserved": 0, "fusion_lat": 0.0, "rental_uris": {"android": "https://dc.lft.to/lastmile_qr_scan", "ios": "https://dc.lft.to/lastmile_qr_scan"}, "fusion_lon": 0.0, "name": "23ff125910e7abe8f69f1cf8551d0147", "lon": -77.00729266666667, "is_disabled": 0, "type": "electric_scooter"}, {"bike_id": "519943df429adaa85a01944ff3be22e9", "lat": 38.92117616666667, "is_reserved": 0, "fusion_lat": 0.0, "rental_uris": {"android": "https://dc.lft.to/lastmile_qr_scan", "ios": "https://dc.lft.to/lastmile_qr_scan"}, "fusion_lon": 0.0, "name": "519943df429adaa85a01944ff3be22e9", "lon": -77.03664983333333, "is_disabled": 0, "type": "electric_scooter"}, {"bike_id": "3b3088508291391789a189e444d6803c", "lat": 38.9026875, "is_reserved": 0, "fusion_lat": 0.0, "rental_uris": {"android": "https://dc.lft.to/lastmile_qr_scan", "ios": "https://dc.lft.to/lastmile_qr_scan"}, "fusion_lon": 0.0, "name": "3b3088508291391789a189e444d6803c", "lon": -77.061733, "is_disabled": 0, "type": "electric_scooter"}, {"bike_id": "ccea6e02a255414d9deac714e075be7c", "lat": 38.903933, "is_reserved": 0, "fusion_lat": 0.0, "rental_uris": {"android": "https://dc.lft.to/lastmile_qr_scan", "ios": "https://dc.lft.to/lastmile_qr_scan"}, "fusion_lon": 0.0, "name": "ccea6e02a255414d9deac714e075be7c", "lon": -77.022094, "is_disabled": 0, "type": "electric_scooter"}, {"bike_id": "2aa176da351fbac36dcf1439e10ca418", "lat": 38.9024, "is_reserved": 0, "fusion_lat": 0.0, "rental_uris": {"android": "https://dc.lft.to/lastmile_qr_scan", "ios": "https://dc.lft.to/lastmile_qr_scan"}, "fusion_lon": 0.0, "name": "2aa176da351fbac36dcf1439e10ca418", "lon": -77.00199433333333, "is_disabled": 0, "type": "electric_scooter"}, {"bike_id": "c96217083e0a2e12239763832a017659", "lat": 38.966094, "is_reserved": 0, "fusion_lat": 0.0, "rental_uris": {"android": "https://dc.lft.to/lastmile_qr_scan", "ios": "https://dc.lft.to/lastmile_qr_scan"}, "fusion_lon": 0.0, "name": "c96217083e0a2e12239763832a017659", "lon": -77.0197685, "is_disabled": 0, "type": "electric_scooter"}, {"bike_id": "c530504efa027bed6412cac8a1a3c742", "lat": 38.8996775, "is_reserved": 0, "fusion_lat": 0.0, "rental_uris": {"android": "https://dc.lft.to/lastmile_qr_scan", "ios": "https://dc.lft.to/lastmile_qr_scan"}, "fusion_lon": 0.0, "name": "c530504efa027bed6412cac8a1a3c742", "lon": -77.020016, "is_disabled": 0, "type": "electric_scooter"}, {"bike_id": "49be99c98fcde786e87cca0fae61b08b", "lat": 38.90117383333333, "is_reserved": 0, "fusion_lat": 0.0, "rental_uris": {"android": "https://dc.lft.to/lastmile_qr_scan", "ios": "https://dc.lft.to/lastmile_qr_scan"}, "fusion_lon": 0.0, "name": "49be99c98fcde786e87cca0fae61b08b", "lon": -77.01888016666666, "is_disabled": 0, "type": "electric_scooter"}, {"bike_id": "123b530d8f73217be907703f5118e422", "lat": 38.91417383333334, "is_reserved": 0, "fusion_lat": 0.0, "rental_uris": {"android": "https://dc.lft.to/lastmile_qr_scan", "ios": "https://dc.lft.to/lastmile_qr_scan"}, "fusion_lon": 0.0, "name": "123b530d8f73217be907703f5118e422", "lon": -77.022308, "is_disabled": 0, "type": "electric_scooter"}, {"bike_id": "b7409ccc21bf3bd31d81a22401af3b4a", "lat": 38.894280333333334, "is_reserved": 0, "fusion_lat": 0.0, "rental_uris": {"android": "https://dc.lft.to/lastmile_qr_scan", "ios": "https://dc.lft.to/lastmile_qr_scan"}, "fusion_lon": 0.0, "name": "b7409ccc21bf3bd31d81a22401af3b4a", "lon": -77.03968566666667, "is_disabled": 0, "type": "electric_scooter"}, {"bike_id": "0c015f03fc7d829e7de343f62aa26517", "lat": 38.90800433333333, "is_reserved": 0, "fusion_lat": 0.0, "rental_uris": {"android": "https://dc.lft.to/lastmile_qr_scan", "ios": "https://dc.lft.to/lastmile_qr_scan"}, "fusion_lon": 0.0, "name": "0c015f03fc7d829e7de343f62aa26517", "lon": -77.0434855, "is_disabled": 0, "type": "electric_scooter"}, {"bike_id": "1c6aa18d5142c81c250b739a5861ca4c", "lat": 38.91739883333334, "is_reserved": 0, "fusion_lat": 0.0, "rental_uris": {"android": "https://dc.lft.to/lastmile_qr_scan", "ios": "https://dc.lft.to/lastmile_qr_scan"}, "fusion_lon": 0.0, "name": "1c6aa18d5142c81c250b739a5861ca4c", "lon": -77.03198633333334, "is_disabled": 0, "type": "electric_scooter"}, {"bike_id": "e750cfb61b74568474362b8583e34a9c", "lat": 38.9370245, "is_reserved": 0, "fusion_lat": 0.0, "rental_uris": {"android": "https://dc.lft.to/lastmile_qr_scan", "ios": "https://dc.lft.to/lastmile_qr_scan"}, "fusion_lon": 0.0, "name": "e750cfb61b74568474362b8583e34a9c", "lon": -77.02404066666666, "is_disabled": 0, "type": "electric_scooter"}, {"bike_id": "8c627b20ab0c7462aa1c1f5ecfa46dfc", "lat": 38.92062216666667, "is_reserved": 0, "fusion_lat": 0.0, "rental_uris": {"android": "https://dc.lft.to/lastmile_qr_scan", "ios": "https://dc.lft.to/lastmile_qr_scan"}, "fusion_lon": 0.0, "name": "8c627b20ab0c7462aa1c1f5ecfa46dfc", "lon": -77.0149075, "is_disabled": 0, "type": "electric_scooter"}, {"bike_id": "4306811a0694838edc031ef0dd42f5ad", "lat": 38.916211, "is_reserved": 0, "fusion_lat": 0.0, "rental_uris": {"android": "https://dc.lft.to/lastmile_qr_scan", "ios": "https://dc.lft.to/lastmile_qr_scan"}, "fusion_lon": 0.0, "name": "4306811a0694838edc031ef0dd42f5ad", "lon": -77.03045866666666, "is_disabled": 0, "type": "electric_scooter"}, {"bike_id": "da1d948fce48fbdbc3dbb255df1bf343", "lat": 38.92196533333333, "is_reserved": 0, "fusion_lat": 0.0, "rental_uris": {"android": "https://dc.lft.to/lastmile_qr_scan", "ios": "https://dc.lft.to/lastmile_qr_scan"}, "fusion_lon": 0.0, "name": "da1d948fce48fbdbc3dbb255df1bf343", "lon": -77.03410233333334, "is_disabled": 0, "type": "electric_scooter"}, {"bike_id": "7e487adc18fa406cb390b5b6beb86e33", "lat": 38.892332, "is_reserved": 0, "fusion_lat": 0.0, "rental_uris": {"android": "https://dc.lft.to/lastmile_qr_scan", "ios": "https://dc.lft.to/lastmile_qr_scan"}, "fusion_lon": 0.0, "name": "7e487adc18fa406cb390b5b6beb86e33", "lon": -77.04158133333334, "is_disabled": 0, "type": "electric_scooter"}, {"bike_id": "92a5012fb0ab6a865ddd348c094b1cb5", "lat": 38.873792333333334, "is_reserved": 0, "fusion_lat": 0.0, "rental_uris": {"android": "https://dc.lft.to/lastmile_qr_scan", "ios": "https://dc.lft.to/lastmile_qr_scan"}, "fusion_lon": 0.0, "name": "92a5012fb0ab6a865ddd348c094b1cb5", "lon": -77.00068933333333, "is_disabled": 0, "type": "electric_scooter"}, {"bike_id": "abbc1519a006a204ee0121ebfec74ae3", "lat": 38.910193, "is_reserved": 0, "fusion_lat": 0.0, "rental_uris": {"android": "https://dc.lft.to/lastmile_qr_scan", "ios": "https://dc.lft.to/lastmile_qr_scan"}, "fusion_lon": 0.0, "name": "abbc1519a006a204ee0121ebfec74ae3", "lon": -77.02768533333334, "is_disabled": 0, "type": "electric_scooter"}, {"bike_id": "f0fed756a01061ae5dba0c3ba6de3309", "lat": 38.903545333333334, "is_reserved": 0, "fusion_lat": 0.0, "rental_uris": {"android": "https://dc.lft.to/lastmile_qr_scan", "ios": "https://dc.lft.to/lastmile_qr_scan"}, "fusion_lon": 0.0, "name": "f0fed756a01061ae5dba0c3ba6de3309", "lon": -77.00343716666667, "is_disabled": 0, "type": "electric_scooter"}, {"bike_id": "ec6ff4fad3c4f370ca629d414ef74998", "lat": 38.90638716666667, "is_reserved": 0, "fusion_lat": 0.0, "rental_uris": {"android": "https://dc.lft.to/lastmile_qr_scan", "ios": "https://dc.lft.to/lastmile_qr_scan"}, "fusion_lon": 0.0, "name": "ec6ff4fad3c4f370ca629d414ef74998", "lon": -77.01637733333334, "is_disabled": 0, "type": "electric_scooter"}, {"bike_id": "e445bc2e5318fdf4bc43d63163dfc544", "lat": 38.9170585, "is_reserved": 0, "fusion_lat": 0.0, "rental_uris": {"android": "https://dc.lft.to/lastmile_qr_scan", "ios": "https://dc.lft.to/lastmile_qr_scan"}, "fusion_lon": 0.0, "name": "e445bc2e5318fdf4bc43d63163dfc544", "lon": -77.03471816666666, "is_disabled": 0, "type": "electric_scooter"}, {"bike_id": "a9d0baa62fc586361c0bd4feb8486137", "lat": 38.89937366666667, "is_reserved": 0, "fusion_lat": 0.0, "rental_uris": {"android": "https://dc.lft.to/lastmile_qr_scan", "ios": "https://dc.lft.to/lastmile_qr_scan"}, "fusion_lon": 0.0, "name": "a9d0baa62fc586361c0bd4feb8486137", "lon": -77.03150016666666, "is_disabled": 0, "type": "electric_scooter"}, {"bike_id": "632c20b9e7dcafa3a64c9432dab57315", "lat": 38.9222865, "is_reserved": 0, "fusion_lat": 0.0, "rental_uris": {"android": "https://dc.lft.to/lastmile_qr_scan", "ios": "https://dc.lft.to/lastmile_qr_scan"}, "fusion_lon": 0.0, "name": "632c20b9e7dcafa3a64c9432dab57315", "lon": -77.03881783333334, "is_disabled": 0, "type": "electric_scooter"}, {"bike_id": "fc909539b4eb011cada2d052de5a767c", "lat": 38.932257166666666, "is_reserved": 0, "fusion_lat": 0.0, "rental_uris": {"android": "https://dc.lft.to/lastmile_qr_scan", "ios": "https://dc.lft.to/lastmile_qr_scan"}, "fusion_lon": 0.0, "name": "fc909539b4eb011cada2d052de5a767c", "lon": -77.03864166666666, "is_disabled": 0, "type": "electric_scooter"}, {"bike_id": "b10cfa2967a2df62433c9b7ba3cd472c", "lat": 38.925049666666666, "is_reserved": 0, "fusion_lat": 0.0, "rental_uris": {"android": "https://dc.lft.to/lastmile_qr_scan", "ios": "https://dc.lft.to/lastmile_qr_scan"}, "fusion_lon": 0.0, "name": "b10cfa2967a2df62433c9b7ba3cd472c", "lon": -77.02331633333333, "is_disabled": 0, "type": "electric_scooter"}, {"bike_id": "038df773c0acd81f1d721b3a83834bde", "lat": 38.90031966666667, "is_reserved": 0, "fusion_lat": 0.0, "rental_uris": {"android": "https://dc.lft.to/lastmile_qr_scan", "ios": "https://dc.lft.to/lastmile_qr_scan"}, "fusion_lon": 0.0, "name": "038df773c0acd81f1d721b3a83834bde", "lon": -77.01186266666667, "is_disabled": 0, "type": "electric_scooter"}, {"bike_id": "9274efea573205d7a3fb68e1de548a2d", "lat": 38.871728833333336, "is_reserved": 0, "fusion_lat": 0.0, "rental_uris": {"android": "https://dc.lft.to/lastmile_qr_scan", "ios": "https://dc.lft.to/lastmile_qr_scan"}, "fusion_lon": 0.0, "name": "9274efea573205d7a3fb68e1de548a2d", "lon": -77.00683916666667, "is_disabled": 0, "type": "electric_scooter"}, {"bike_id": "a733751a8ed5e55292571fd0bcca84b7", "lat": 38.866762, "is_reserved": 0, "fusion_lat": 0.0, "rental_uris": {"android": "https://dc.lft.to/lastmile_qr_scan", "ios": "https://dc.lft.to/lastmile_qr_scan"}, "fusion_lon": 0.0, "name": "a733751a8ed5e55292571fd0bcca84b7", "lon": -76.98575666666666, "is_disabled": 0, "type": "electric_scooter"}, {"bike_id": "e811b1f23a6347cb71aa2af51fb1cad8", "lat": 38.900626833333334, "is_reserved": 0, "fusion_lat": 0.0, "rental_uris": {"android": "https://dc.lft.to/lastmile_qr_scan", "ios": "https://dc.lft.to/lastmile_qr_scan"}, "fusion_lon": 0.0, "name": "e811b1f23a6347cb71aa2af51fb1cad8", "lon": -77.02720283333333, "is_disabled": 0, "type": "electric_scooter"}, {"bike_id": "e6ec374e5eb1a5740b1ba5df1ecdb169", "lat": 38.9226275, "is_reserved": 0, "fusion_lat": 0.0, "rental_uris": {"android": "https://dc.lft.to/lastmile_qr_scan", "ios": "https://dc.lft.to/lastmile_qr_scan"}, "fusion_lon": 0.0, "name": "e6ec374e5eb1a5740b1ba5df1ecdb169", "lon": -77.03685566666667, "is_disabled": 0, "type": "electric_scooter"}, {"bike_id": "3c489609689fe7fe0e187f0b5cfb040e", "lat": 38.86680883333333, "is_reserved": 0, "fusion_lat": 0.0, "rental_uris": {"android": "https://dc.lft.to/lastmile_qr_scan", "ios": "https://dc.lft.to/lastmile_qr_scan"}, "fusion_lon": 0.0, "name": "3c489609689fe7fe0e187f0b5cfb040e", "lon": -76.98582383333333, "is_disabled": 0, "type": "electric_scooter"}, {"bike_id": "91f0774439910bc36ef30409b5c614bf", "lat": 38.93337616666667, "is_reserved": 0, "fusion_lat": 0.0, "rental_uris": {"android": "https://dc.lft.to/lastmile_qr_scan", "ios": "https://dc.lft.to/lastmile_qr_scan"}, "fusion_lon": 0.0, "name": "91f0774439910bc36ef30409b5c614bf", "lon": -77.06212783333334, "is_disabled": 0, "type": "electric_scooter"}, {"bike_id": "4a0842461c3d447e53d23bd34d918ee5", "lat": 38.916941666666666, "is_reserved": 0, "fusion_lat": 0.0, "rental_uris": {"android": "https://dc.lft.to/lastmile_qr_scan", "ios": "https://dc.lft.to/lastmile_qr_scan"}, "fusion_lon": 0.0, "name": "4a0842461c3d447e53d23bd34d918ee5", "lon": -77.04085283333333, "is_disabled": 0, "type": "electric_scooter"}, {"bike_id": "5df494123ad8610e50f0d9e2344c49c6", "lat": 38.907856833333334, "is_reserved": 0, "fusion_lat": 0.0, "rental_uris": {"android": "https://dc.lft.to/lastmile_qr_scan", "ios": "https://dc.lft.to/lastmile_qr_scan"}, "fusion_lon": 0.0, "name": "5df494123ad8610e50f0d9e2344c49c6", "lon": -77.031923, "is_disabled": 0, "type": "electric_scooter"}, {"bike_id": "33cd8db0cc6677f17bc3331c197ce23a", "lat": 38.925379166666666, "is_reserved": 0, "fusion_lat": 0.0, "rental_uris": {"android": "https://dc.lft.to/lastmile_qr_scan", "ios": "https://dc.lft.to/lastmile_qr_scan"}, "fusion_lon": 0.0, "name": "33cd8db0cc6677f17bc3331c197ce23a", "lon": -77.0213645, "is_disabled": 0, "type": "electric_scooter"}, {"bike_id": "fa44019cfb53148844e411316654ce4b", "lat": 38.914137333333336, "is_reserved": 0, "fusion_lat": 0.0, "rental_uris": {"android": "https://dc.lft.to/lastmile_qr_scan", "ios": "https://dc.lft.to/lastmile_qr_scan"}, "fusion_lon": 0.0, "name": "fa44019cfb53148844e411316654ce4b", "lon": -77.045047, "is_disabled": 0, "type": "electric_scooter"}, {"bike_id": "d4db68fa8fa96d7aaa4927897175c35d", "lat": 38.9391545, "is_reserved": 0, "fusion_lat": 0.0, "rental_uris": {"android": "https://dc.lft.to/lastmile_qr_scan", "ios": "https://dc.lft.to/lastmile_qr_scan"}, "fusion_lon": 0.0, "name": "d4db68fa8fa96d7aaa4927897175c35d", "lon": -77.06054433333334, "is_disabled": 0, "type": "electric_scooter"}, {"bike_id": "b83ffc49b301c24bf5532fdf25cf234a", "lat": 38.915894, "is_reserved": 0, "fusion_lat": 0.0, "rental_uris": {"android": "https://dc.lft.to/lastmile_qr_scan", "ios": "https://dc.lft.to/lastmile_qr_scan"}, "fusion_lon": 0.0, "name": "b83ffc49b301c24bf5532fdf25cf234a", "lon": -77.023032, "is_disabled": 0, "type": "electric_scooter"}, {"bike_id": "25dc67b25c1cb43af0a0933ec4a94f90", "lat": 38.950930666666665, "is_reserved": 0, "fusion_lat": 0.0, "rental_uris": {"android": "https://dc.lft.to/lastmile_qr_scan", "ios": "https://dc.lft.to/lastmile_qr_scan"}, "fusion_lon": 0.0, "name": "25dc67b25c1cb43af0a0933ec4a94f90", "lon": -77.08093, "is_disabled": 0, "type": "electric_bike"}, {"bike_id": "726bf4db3f550e12d587f2b273ee17e3", "lat": 38.8984615, "is_reserved": 0, "fusion_lat": 0.0, "rental_uris": {"android": "https://dc.lft.to/lastmile_qr_scan", "ios": "https://dc.lft.to/lastmile_qr_scan"}, "fusion_lon": 0.0, "name": "726bf4db3f550e12d587f2b273ee17e3", "lon": -77.03330283333334, "is_disabled": 0, "type": "electric_scooter"}, {"bike_id": "0d973fab9f408025e9e02c337f7a4bec", "lat": 38.89718366666666, "is_reserved": 0, "fusion_lat": 0.0, "rental_uris": {"android": "https://dc.lft.to/lastmile_qr_scan", "ios": "https://dc.lft.to/lastmile_qr_scan"}, "fusion_lon": 0.0, "name": "0d973fab9f408025e9e02c337f7a4bec", "lon": -76.98356866666667, "is_disabled": 0, "type": "electric_scooter"}, {"bike_id": "2ba3edf40cc35ae25a349cb97fe630ef", "lat": 38.92477616666667, "is_reserved": 0, "fusion_lat": 0.0, "rental_uris": {"android": "https://dc.lft.to/lastmile_qr_scan", "ios": "https://dc.lft.to/lastmile_qr_scan"}, "fusion_lon": 0.0, "name": "2ba3edf40cc35ae25a349cb97fe630ef", "lon": -77.0222, "is_disabled": 0, "type": "electric_scooter"}, {"bike_id": "e0b9d52e4e585abe32d617e8f0bf46d1", "lat": 38.937724, "is_reserved": 0, "fusion_lat": 0.0, "rental_uris": {"android": "https://dc.lft.to/lastmile_qr_scan", "ios": "https://dc.lft.to/lastmile_qr_scan"}, "fusion_lon": 0.0, "name": "e0b9d52e4e585abe32d617e8f0bf46d1", "lon": -77.019142, "is_disabled": 0, "type": "electric_bike"}, {"bike_id": "9c90d8afa36b10d1946ab4b53407e283", "lat": 38.914884666666666, "is_reserved": 0, "fusion_lat": 0.0, "rental_uris": {"android": "https://dc.lft.to/lastmile_qr_scan", "ios": "https://dc.lft.to/lastmile_qr_scan"}, "fusion_lon": 0.0, "name": "9c90d8afa36b10d1946ab4b53407e283", "lon": -77.02576116666667, "is_disabled": 0, "type": "electric_scooter"}, {"bike_id": "3b140a14d9e4f3566183f46fe13fd056", "lat": 38.89826383333333, "is_reserved": 0, "fusion_lat": 0.0, "rental_uris": {"android": "https://dc.lft.to/lastmile_qr_scan", "ios": "https://dc.lft.to/lastmile_qr_scan"}, "fusion_lon": 0.0, "name": "3b140a14d9e4f3566183f46fe13fd056", "lon": -77.017519, "is_disabled": 0, "type": "electric_scooter"}, {"bike_id": "8ceb8d86749d6e652f89a4eb30e76435", "lat": 38.8756335, "is_reserved": 0, "fusion_lat": 0.0, "rental_uris": {"android": "https://dc.lft.to/lastmile_qr_scan", "ios": "https://dc.lft.to/lastmile_qr_scan"}, "fusion_lon": 0.0, "name": "8ceb8d86749d6e652f89a4eb30e76435", "lon": -76.9586865, "is_disabled": 0, "type": "electric_scooter"}, {"bike_id": "8099687d2db325e7bfb38737d1e97ced", "lat": 38.91415216666667, "is_reserved": 0, "fusion_lat": 0.0, "rental_uris": {"android": "https://dc.lft.to/lastmile_qr_scan", "ios": "https://dc.lft.to/lastmile_qr_scan"}, "fusion_lon": 0.0, "name": "8099687d2db325e7bfb38737d1e97ced", "lon": -77.02614483333333, "is_disabled": 0, "type": "electric_scooter"}, {"bike_id": "f60cfc7b3c9dad35c663f85ff88e7b13", "lat": 39.037025166666666, "is_reserved": 0, "fusion_lat": 0.0, "rental_uris": {"android": "https://dc.lft.to/lastmile_qr_scan", "ios": "https://dc.lft.to/lastmile_qr_scan"}, "fusion_lon": 0.0, "name": "f60cfc7b3c9dad35c663f85ff88e7b13", "lon": -77.02865816666667, "is_disabled": 0, "type": "electric_bike"}, {"bike_id": "f57e3646197dd2f2b4cb2ceebb9abc33", "lat": 38.9153465, "is_reserved": 0, "fusion_lat": 0.0, "rental_uris": {"android": "https://dc.lft.to/lastmile_qr_scan", "ios": "https://dc.lft.to/lastmile_qr_scan"}, "fusion_lon": 0.0, "name": "f57e3646197dd2f2b4cb2ceebb9abc33", "lon": -77.01846066666667, "is_disabled": 0, "type": "electric_scooter"}, {"bike_id": "2da379f0803fa13b28cc1bd199a947fa", "lat": 38.9287455, "is_reserved": 0, "fusion_lat": 0.0, "rental_uris": {"android": "https://dc.lft.to/lastmile_qr_scan", "ios": "https://dc.lft.to/lastmile_qr_scan"}, "fusion_lon": 0.0, "name": "2da379f0803fa13b28cc1bd199a947fa", "lon": -77.026667, "is_disabled": 0, "type": "electric_scooter"}, {"bike_id": "faababcdb747736367458de412deea71", "lat": 38.91576366666666, "is_reserved": 0, "fusion_lat": 0.0, "rental_uris": {"android": "https://dc.lft.to/lastmile_qr_scan", "ios": "https://dc.lft.to/lastmile_qr_scan"}, "fusion_lon": 0.0, "name": "faababcdb747736367458de412deea71", "lon": -77.01950966666666, "is_disabled": 0, "type": "electric_scooter"}, {"bike_id": "b882990a9994f32906ad1236969a8126", "lat": 38.8717475, "is_reserved": 0, "fusion_lat": 0.0, "rental_uris": {"android": "https://dc.lft.to/lastmile_qr_scan", "ios": "https://dc.lft.to/lastmile_qr_scan"}, "fusion_lon": 0.0, "name": "b882990a9994f32906ad1236969a8126", "lon": -77.00631166666666, "is_disabled": 0, "type": "electric_scooter"}, {"bike_id": "fc65454c2dc9fc45cbc301cad26e72e3", "lat": 38.918428, "is_reserved": 0, "fusion_lat": 0.0, "rental_uris": {"android": "https://dc.lft.to/lastmile_qr_scan", "ios": "https://dc.lft.to/lastmile_qr_scan"}, "fusion_lon": 0.0, "name": "fc65454c2dc9fc45cbc301cad26e72e3", "lon": -77.06974066666666, "is_disabled": 0, "type": "electric_bike"}, {"bike_id": "a90a2178f810fa20ef7756ebc156063f", "lat": 38.89746866666667, "is_reserved": 0, "fusion_lat": 0.0, "rental_uris": {"android": "https://dc.lft.to/lastmile_qr_scan", "ios": "https://dc.lft.to/lastmile_qr_scan"}, "fusion_lon": 0.0, "name": "a90a2178f810fa20ef7756ebc156063f", "lon": -77.02993383333333, "is_disabled": 0, "type": "electric_scooter"}, {"bike_id": "e373ee41ceff4475c841fc153300a5de", "lat": 38.90641333333333, "is_reserved": 0, "fusion_lat": 0.0, "rental_uris": {"android": "https://dc.lft.to/lastmile_qr_scan", "ios": "https://dc.lft.to/lastmile_qr_scan"}, "fusion_lon": 0.0, "name": "e373ee41ceff4475c841fc153300a5de", "lon": -77.01440966666667, "is_disabled": 0, "type": "electric_scooter"}, {"bike_id": "6e98a4a1afc6371875fb9e47c091eb67", "lat": 38.903824166666666, "is_reserved": 0, "fusion_lat": 0.0, "rental_uris": {"android": "https://dc.lft.to/lastmile_qr_scan", "ios": "https://dc.lft.to/lastmile_qr_scan"}, "fusion_lon": 0.0, "name": "6e98a4a1afc6371875fb9e47c091eb67", "lon": -77.01846383333333, "is_disabled": 0, "type": "electric_scooter"}, {"bike_id": "610e91390c796e08e6f404efac43c613", "lat": 38.9023245, "is_reserved": 0, "fusion_lat": 0.0, "rental_uris": {"android": "https://dc.lft.to/lastmile_qr_scan", "ios": "https://dc.lft.to/lastmile_qr_scan"}, "fusion_lon": 0.0, "name": "610e91390c796e08e6f404efac43c613", "lon": -77.0295405, "is_disabled": 0, "type": "electric_scooter"}, {"bike_id": "38a0684d5e7981b6f5976a26775ffc3f", "lat": 38.8973425, "is_reserved": 0, "fusion_lat": 0.0, "rental_uris": {"android": "https://dc.lft.to/lastmile_qr_scan", "ios": "https://dc.lft.to/lastmile_qr_scan"}, "fusion_lon": 0.0, "name": "38a0684d5e7981b6f5976a26775ffc3f", "lon": -77.0094475, "is_disabled": 0, "type": "electric_scooter"}, {"bike_id": "3b416396444a5e8a9a166fa0b05dca81", "lat": 38.901634, "is_reserved": 0, "fusion_lat": 0.0, "rental_uris": {"android": "https://dc.lft.to/lastmile_qr_scan", "ios": "https://dc.lft.to/lastmile_qr_scan"}, "fusion_lon": 0.0, "name": "3b416396444a5e8a9a166fa0b05dca81", "lon": -77.0239035, "is_disabled": 0, "type": "electric_scooter"}, {"bike_id": "cfdc7b3076c1236fcce78f35f5ed5493", "lat": 38.921588166666666, "is_reserved": 0, "fusion_lat": 0.0, "rental_uris": {"android": "https://dc.lft.to/lastmile_qr_scan", "ios": "https://dc.lft.to/lastmile_qr_scan"}, "fusion_lon": 0.0, "name": "cfdc7b3076c1236fcce78f35f5ed5493", "lon": -77.03383933333333, "is_disabled": 0, "type": "electric_scooter"}, {"bike_id": "159b9fb169cd5277e08aa7181ffc6bc7", "lat": 38.90531083333333, "is_reserved": 0, "fusion_lat": 0.0, "rental_uris": {"android": "https://dc.lft.to/lastmile_qr_scan", "ios": "https://dc.lft.to/lastmile_qr_scan"}, "fusion_lon": 0.0, "name": "159b9fb169cd5277e08aa7181ffc6bc7", "lon": -77.059847, "is_disabled": 0, "type": "electric_scooter"}, {"bike_id": "43d8c0c68b7a53d2b4e880f4b977c88c", "lat": 38.90664133333333, "is_reserved": 0, "fusion_lat": 0.0, "rental_uris": {"android": "https://dc.lft.to/lastmile_qr_scan", "ios": "https://dc.lft.to/lastmile_qr_scan"}, "fusion_lon": 0.0, "name": "43d8c0c68b7a53d2b4e880f4b977c88c", "lon": -77.02699, "is_disabled": 0, "type": "electric_scooter"}, {"bike_id": "f693b85b4ffce7f8331f2bd964e563fa", "lat": 38.881856, "is_reserved": 0, "fusion_lat": 0.0, "rental_uris": {"android": "https://dc.lft.to/lastmile_qr_scan", "ios": "https://dc.lft.to/lastmile_qr_scan"}, "fusion_lon": 0.0, "name": "f693b85b4ffce7f8331f2bd964e563fa", "lon": -77.0207645, "is_disabled": 0, "type": "electric_scooter"}, {"bike_id": "e515291b1ef14db6fde01877947a082e", "lat": 38.915614833333336, "is_reserved": 0, "fusion_lat": 0.0, "rental_uris": {"android": "https://dc.lft.to/lastmile_qr_scan", "ios": "https://dc.lft.to/lastmile_qr_scan"}, "fusion_lon": 0.0, "name": "e515291b1ef14db6fde01877947a082e", "lon": -77.038306, "is_disabled": 0, "type": "electric_scooter"}, {"bike_id": "649dd508c88ffbd4324fecf45f1d55a3", "lat": 38.90280966666667, "is_reserved": 0, "fusion_lat": 0.0, "rental_uris": {"android": "https://dc.lft.to/lastmile_qr_scan", "ios": "https://dc.lft.to/lastmile_qr_scan"}, "fusion_lon": 0.0, "name": "649dd508c88ffbd4324fecf45f1d55a3", "lon": -77.03347666666667, "is_disabled": 0, "type": "electric_scooter"}, {"bike_id": "22496135381612671f39f9d7b5826749", "lat": 38.873796666666664, "is_reserved": 0, "fusion_lat": 0.0, "rental_uris": {"android": "https://dc.lft.to/lastmile_qr_scan", "ios": "https://dc.lft.to/lastmile_qr_scan"}, "fusion_lon": 0.0, "name": "22496135381612671f39f9d7b5826749", "lon": -77.00043733333334, "is_disabled": 0, "type": "electric_scooter"}, {"bike_id": "44c92688fc01d485b0c7ae30a6e68552", "lat": 38.901716, "is_reserved": 0, "fusion_lat": 0.0, "rental_uris": {"android": "https://dc.lft.to/lastmile_qr_scan", "ios": "https://dc.lft.to/lastmile_qr_scan"}, "fusion_lon": 0.0, "name": "44c92688fc01d485b0c7ae30a6e68552", "lon": -76.92659316666666, "is_disabled": 0, "type": "electric_scooter"}, {"bike_id": "8f4a4656080d5f7a72278f0c1abddf1f", "lat": 38.916854, "is_reserved": 0, "fusion_lat": 0.0, "rental_uris": {"android": "https://dc.lft.to/lastmile_qr_scan", "ios": "https://dc.lft.to/lastmile_qr_scan"}, "fusion_lon": 0.0, "name": "8f4a4656080d5f7a72278f0c1abddf1f", "lon": -77.037657, "is_disabled": 0, "type": "electric_scooter"}, {"bike_id": "6b7958625fdb4a05c6addd078a1f1489", "lat": 38.915297833333334, "is_reserved": 0, "fusion_lat": 0.0, "rental_uris": {"android": "https://dc.lft.to/lastmile_qr_scan", "ios": "https://dc.lft.to/lastmile_qr_scan"}, "fusion_lon": 0.0, "name": "6b7958625fdb4a05c6addd078a1f1489", "lon": -77.01981266666667, "is_disabled": 0, "type": "electric_scooter"}, {"bike_id": "21d42aa8ce58c9fbb15651e2e6caa786", "lat": 38.894772833333334, "is_reserved": 0, "fusion_lat": 0.0, "rental_uris": {"android": "https://dc.lft.to/lastmile_qr_scan", "ios": "https://dc.lft.to/lastmile_qr_scan"}, "fusion_lon": 0.0, "name": "21d42aa8ce58c9fbb15651e2e6caa786", "lon": -76.9486075, "is_disabled": 0, "type": "electric_scooter"}, {"bike_id": "5928fa548b2e9be53aa21d9b701bbb09", "lat": 38.920426666666664, "is_reserved": 0, "fusion_lat": 0.0, "rental_uris": {"android": "https://dc.lft.to/lastmile_qr_scan", "ios": "https://dc.lft.to/lastmile_qr_scan"}, "fusion_lon": 0.0, "name": "5928fa548b2e9be53aa21d9b701bbb09", "lon": -77.02578833333334, "is_disabled": 0, "type": "electric_scooter"}, {"bike_id": "b3f892f82dcc432eb8603b4b09a2c6bb", "lat": 38.892228333333335, "is_reserved": 0, "fusion_lat": 0.0, "rental_uris": {"android": "https://dc.lft.to/lastmile_qr_scan", "ios": "https://dc.lft.to/lastmile_qr_scan"}, "fusion_lon": 0.0, "name": "b3f892f82dcc432eb8603b4b09a2c6bb", "lon": -77.04368433333333, "is_disabled": 0, "type": "electric_scooter"}, {"bike_id": "1f5a5af9944423caab88b36ee6b94f7e", "lat": 38.87717466666667, "is_reserved": 0, "fusion_lat": 0.0, "rental_uris": {"android": "https://dc.lft.to/lastmile_qr_scan", "ios": "https://dc.lft.to/lastmile_qr_scan"}, "fusion_lon": 0.0, "name": "1f5a5af9944423caab88b36ee6b94f7e", "lon": -77.00534966666666, "is_disabled": 0, "type": "electric_scooter"}, {"bike_id": "08f714e0bc9ab4a6daa7d77657d231ed", "lat": 38.9402355, "is_reserved": 0, "fusion_lat": 0.0, "rental_uris": {"android": "https://dc.lft.to/lastmile_qr_scan", "ios": "https://dc.lft.to/lastmile_qr_scan"}, "fusion_lon": 0.0, "name": "08f714e0bc9ab4a6daa7d77657d231ed", "lon": -76.97605066666667, "is_disabled": 0, "type": "electric_scooter"}, {"bike_id": "cf975afaab0ac5ba901e5de710b0b15b", "lat": 38.93478666666667, "is_reserved": 0, "fusion_lat": 0.0, "rental_uris": {"android": "https://dc.lft.to/lastmile_qr_scan", "ios": "https://dc.lft.to/lastmile_qr_scan"}, "fusion_lon": 0.0, "name": "cf975afaab0ac5ba901e5de710b0b15b", "lon": -77.07263683333333, "is_disabled": 0, "type": "electric_scooter"}, {"bike_id": "473a176109c7ffab8170cc6b65494080", "lat": 38.900351666666666, "is_reserved": 0, "fusion_lat": 0.0, "rental_uris": {"android": "https://dc.lft.to/lastmile_qr_scan", "ios": "https://dc.lft.to/lastmile_qr_scan"}, "fusion_lon": 0.0, "name": "473a176109c7ffab8170cc6b65494080", "lon": -76.99844583333334, "is_disabled": 0, "type": "electric_scooter"}, {"bike_id": "65ce18126cc706e95c70087ac2b3e923", "lat": 38.932103, "is_reserved": 0, "fusion_lat": 0.0, "rental_uris": {"android": "https://dc.lft.to/lastmile_qr_scan", "ios": "https://dc.lft.to/lastmile_qr_scan"}, "fusion_lon": 0.0, "name": "65ce18126cc706e95c70087ac2b3e923", "lon": -77.03520566666667, "is_disabled": 0, "type": "electric_scooter"}, {"bike_id": "e08cb3c5e7de38047823744727b5ae5f", "lat": 38.90188366666667, "is_reserved": 0, "fusion_lat": 0.0, "rental_uris": {"android": "https://dc.lft.to/lastmile_qr_scan", "ios": "https://dc.lft.to/lastmile_qr_scan"}, "fusion_lon": 0.0, "name": "e08cb3c5e7de38047823744727b5ae5f", "lon": -77.046164, "is_disabled": 0, "type": "electric_scooter"}, {"bike_id": "3014c724f42faa4d2ffc35f6218cffc6", "lat": 38.906593, "is_reserved": 0, "fusion_lat": 0.0, "rental_uris": {"android": "https://dc.lft.to/lastmile_qr_scan", "ios": "https://dc.lft.to/lastmile_qr_scan"}, "fusion_lon": 0.0, "name": "3014c724f42faa4d2ffc35f6218cffc6", "lon": -77.04878016666666, "is_disabled": 0, "type": "electric_scooter"}, {"bike_id": "a0dc98176a16d0b36ee6719a125e0170", "lat": 38.89744183333333, "is_reserved": 0, "fusion_lat": 0.0, "rental_uris": {"android": "https://dc.lft.to/lastmile_qr_scan", "ios": "https://dc.lft.to/lastmile_qr_scan"}, "fusion_lon": 0.0, "name": "a0dc98176a16d0b36ee6719a125e0170", "lon": -77.02762383333334, "is_disabled": 0, "type": "electric_scooter"}, {"bike_id": "7438162c507ebd26f8f92f0fbb391786", "lat": 38.963028333333334, "is_reserved": 0, "fusion_lat": 0.0, "rental_uris": {"android": "https://dc.lft.to/lastmile_qr_scan", "ios": "https://dc.lft.to/lastmile_qr_scan"}, "fusion_lon": 0.0, "name": "7438162c507ebd26f8f92f0fbb391786", "lon": -77.01122383333333, "is_disabled": 0, "type": "electric_bike"}, {"bike_id": "cfbb7224e0df2406bff617f9a9771145", "lat": 38.903212, "is_reserved": 0, "fusion_lat": 0.0, "rental_uris": {"android": "https://dc.lft.to/lastmile_qr_scan", "ios": "https://dc.lft.to/lastmile_qr_scan"}, "fusion_lon": 0.0, "name": "cfbb7224e0df2406bff617f9a9771145", "lon": -77.016123, "is_disabled": 0, "type": "electric_scooter"}, {"bike_id": "967d879652275f5a601c800128124322", "lat": 38.905042, "is_reserved": 0, "fusion_lat": 0.0, "rental_uris": {"android": "https://dc.lft.to/lastmile_qr_scan", "ios": "https://dc.lft.to/lastmile_qr_scan"}, "fusion_lon": 0.0, "name": "967d879652275f5a601c800128124322", "lon": -77.04509216666666, "is_disabled": 0, "type": "electric_scooter"}, {"bike_id": "f5d9f9ad86b3c04f6700cedbf714b4c3", "lat": 38.91813416666667, "is_reserved": 0, "fusion_lat": 0.0, "rental_uris": {"android": "https://dc.lft.to/lastmile_qr_scan", "ios": "https://dc.lft.to/lastmile_qr_scan"}, "fusion_lon": 0.0, "name": "f5d9f9ad86b3c04f6700cedbf714b4c3", "lon": -77.032078, "is_disabled": 0, "type": "electric_scooter"}, {"bike_id": "9470157ed5489b918cb3c0cbf6e6e17d", "lat": 38.8624705, "is_reserved": 0, "fusion_lat": 0.0, "rental_uris": {"android": "https://dc.lft.to/lastmile_qr_scan", "ios": "https://dc.lft.to/lastmile_qr_scan"}, "fusion_lon": 0.0, "name": "9470157ed5489b918cb3c0cbf6e6e17d", "lon": -76.99503283333334, "is_disabled": 0, "type": "electric_scooter"}, {"bike_id": "16068a983d550f198f70ee6e5e936491", "lat": 38.8995065, "is_reserved": 0, "fusion_lat": 0.0, "rental_uris": {"android": "https://dc.lft.to/lastmile_qr_scan", "ios": "https://dc.lft.to/lastmile_qr_scan"}, "fusion_lon": 0.0, "name": "16068a983d550f198f70ee6e5e936491", "lon": -77.049783, "is_disabled": 0, "type": "electric_scooter"}, {"bike_id": "ba99b8eb638aeee0ffa5d1ab7692c7af", "lat": 38.93909766666667, "is_reserved": 0, "fusion_lat": 0.0, "rental_uris": {"android": "https://dc.lft.to/lastmile_qr_scan", "ios": "https://dc.lft.to/lastmile_qr_scan"}, "fusion_lon": 0.0, "name": "ba99b8eb638aeee0ffa5d1ab7692c7af", "lon": -77.060498, "is_disabled": 0, "type": "electric_scooter"}, {"bike_id": "e2e3ca3830340d25b184de1b680d48b0", "lat": 38.9158025, "is_reserved": 0, "fusion_lat": 0.0, "rental_uris": {"android": "https://dc.lft.to/lastmile_qr_scan", "ios": "https://dc.lft.to/lastmile_qr_scan"}, "fusion_lon": 0.0, "name": "e2e3ca3830340d25b184de1b680d48b0", "lon": -77.03187183333333, "is_disabled": 0, "type": "electric_scooter"}, {"bike_id": "6e17f98643c87f265a3c664958380f4e", "lat": 38.90025283333333, "is_reserved": 0, "fusion_lat": 0.0, "rental_uris": {"android": "https://dc.lft.to/lastmile_qr_scan", "ios": "https://dc.lft.to/lastmile_qr_scan"}, "fusion_lon": 0.0, "name": "6e17f98643c87f265a3c664958380f4e", "lon": -77.01199733333333, "is_disabled": 0, "type": "electric_scooter"}, {"bike_id": "df8c81d30732678fbc6c391c32d71a23", "lat": 38.86506383333333, "is_reserved": 0, "fusion_lat": 0.0, "rental_uris": {"android": "https://dc.lft.to/lastmile_qr_scan", "ios": "https://dc.lft.to/lastmile_qr_scan"}, "fusion_lon": 0.0, "name": "df8c81d30732678fbc6c391c32d71a23", "lon": -76.990089, "is_disabled": 0, "type": "electric_scooter"}, {"bike_id": "56dfc8d8d25ca86d45c5f33cc79a8845", "lat": 38.921924, "is_reserved": 0, "fusion_lat": 0.0, "rental_uris": {"android": "https://dc.lft.to/lastmile_qr_scan", "ios": "https://dc.lft.to/lastmile_qr_scan"}, "fusion_lon": 0.0, "name": "56dfc8d8d25ca86d45c5f33cc79a8845", "lon": -77.0402615, "is_disabled": 0, "type": "electric_scooter"}, {"bike_id": "9bf672e2614e0ed6d28618f79521cb07", "lat": 38.88750566666667, "is_reserved": 0, "fusion_lat": 0.0, "rental_uris": {"android": "https://dc.lft.to/lastmile_qr_scan", "ios": "https://dc.lft.to/lastmile_qr_scan"}, "fusion_lon": 0.0, "name": "9bf672e2614e0ed6d28618f79521cb07", "lon": -76.90084933333333, "is_disabled": 0, "type": "electric_bike"}, {"bike_id": "5c42e0360f2251f851b369d65d2e6c02", "lat": 38.87725233333333, "is_reserved": 0, "fusion_lat": 0.0, "rental_uris": {"android": "https://dc.lft.to/lastmile_qr_scan", "ios": "https://dc.lft.to/lastmile_qr_scan"}, "fusion_lon": 0.0, "name": "5c42e0360f2251f851b369d65d2e6c02", "lon": -77.0028625, "is_disabled": 0, "type": "electric_scooter"}, {"bike_id": "5b852309a3600661358e616950932092", "lat": 38.92643833333333, "is_reserved": 0, "fusion_lat": 0.0, "rental_uris": {"android": "https://dc.lft.to/lastmile_qr_scan", "ios": "https://dc.lft.to/lastmile_qr_scan"}, "fusion_lon": 0.0, "name": "5b852309a3600661358e616950932092", "lon": -77.03557516666666, "is_disabled": 0, "type": "electric_scooter"}, {"bike_id": "03bf4324b8747260fd078f37f8275b00", "lat": 38.862512, "is_reserved": 0, "fusion_lat": 0.0, "rental_uris": {"android": "https://dc.lft.to/lastmile_qr_scan", "ios": "https://dc.lft.to/lastmile_qr_scan"}, "fusion_lon": 0.0, "name": "03bf4324b8747260fd078f37f8275b00", "lon": -76.99265766666667, "is_disabled": 0, "type": "electric_scooter"}, {"bike_id": "f30983f9df5bdaf70f8fa40435280804", "lat": 38.88699316666667, "is_reserved": 0, "fusion_lat": 0.0, "rental_uris": {"android": "https://dc.lft.to/lastmile_qr_scan", "ios": "https://dc.lft.to/lastmile_qr_scan"}, "fusion_lon": 0.0, "name": "f30983f9df5bdaf70f8fa40435280804", "lon": -77.01376466666666, "is_disabled": 0, "type": "electric_scooter"}, {"bike_id": "bd6affedca407afe6ef6b9b0a770e704", "lat": 38.90571516666667, "is_reserved": 0, "fusion_lat": 0.0, "rental_uris": {"android": "https://dc.lft.to/lastmile_qr_scan", "ios": "https://dc.lft.to/lastmile_qr_scan"}, "fusion_lon": 0.0, "name": "bd6affedca407afe6ef6b9b0a770e704", "lon": -76.97630233333334, "is_disabled": 0, "type": "electric_scooter"}, {"bike_id": "4628c23fb236855911a3da370056fd70", "lat": 38.91864316666667, "is_reserved": 0, "fusion_lat": 0.0, "rental_uris": {"android": "https://dc.lft.to/lastmile_qr_scan", "ios": "https://dc.lft.to/lastmile_qr_scan"}, "fusion_lon": 0.0, "name": "4628c23fb236855911a3da370056fd70", "lon": -77.04062383333333, "is_disabled": 0, "type": "electric_scooter"}, {"bike_id": "d9f37595c3cdffe4780ccea893ceac71", "lat": 38.897228166666665, "is_reserved": 0, "fusion_lat": 0.0, "rental_uris": {"android": "https://dc.lft.to/lastmile_qr_scan", "ios": "https://dc.lft.to/lastmile_qr_scan"}, "fusion_lon": 0.0, "name": "d9f37595c3cdffe4780ccea893ceac71", "lon": -77.0217235, "is_disabled": 0, "type": "electric_scooter"}, {"bike_id": "a43f3cb26578597f2c4e62958cfd5256", "lat": 38.862486833333335, "is_reserved": 0, "fusion_lat": 0.0, "rental_uris": {"android": "https://dc.lft.to/lastmile_qr_scan", "ios": "https://dc.lft.to/lastmile_qr_scan"}, "fusion_lon": 0.0, "name": "a43f3cb26578597f2c4e62958cfd5256", "lon": -76.99557616666667, "is_disabled": 0, "type": "electric_scooter"}, {"bike_id": "4f8baaf3a7c95ac783a35a0673ec483d", "lat": 38.92318366666667, "is_reserved": 0, "fusion_lat": 0.0, "rental_uris": {"android": "https://dc.lft.to/lastmile_qr_scan", "ios": "https://dc.lft.to/lastmile_qr_scan"}, "fusion_lon": 0.0, "name": "4f8baaf3a7c95ac783a35a0673ec483d", "lon": -77.02140266666666, "is_disabled": 0, "type": "electric_scooter"}, {"bike_id": "fc5ef0bec8343eebf5db172f84d43725", "lat": 38.90451483333333, "is_reserved": 0, "fusion_lat": 0.0, "rental_uris": {"android": "https://dc.lft.to/lastmile_qr_scan", "ios": "https://dc.lft.to/lastmile_qr_scan"}, "fusion_lon": 0.0, "name": "fc5ef0bec8343eebf5db172f84d43725", "lon": -77.0532785, "is_disabled": 0, "type": "electric_scooter"}, {"bike_id": "3c9bb925aa11cbbe4b8d7ebf6c0e4b2e", "lat": 38.90985366666666, "is_reserved": 0, "fusion_lat": 0.0, "rental_uris": {"android": "https://dc.lft.to/lastmile_qr_scan", "ios": "https://dc.lft.to/lastmile_qr_scan"}, "fusion_lon": 0.0, "name": "3c9bb925aa11cbbe4b8d7ebf6c0e4b2e", "lon": -77.02194833333333, "is_disabled": 0, "type": "electric_scooter"}, {"bike_id": "c921eb73234e03d3934586289f5ab909", "lat": 38.92164483333333, "is_reserved": 0, "fusion_lat": 0.0, "rental_uris": {"android": "https://dc.lft.to/lastmile_qr_scan", "ios": "https://dc.lft.to/lastmile_qr_scan"}, "fusion_lon": 0.0, "name": "c921eb73234e03d3934586289f5ab909", "lon": -77.03338016666666, "is_disabled": 0, "type": "electric_scooter"}, {"bike_id": "2745ab0f792ad76d7d669984d135b679", "lat": 38.87466916666666, "is_reserved": 0, "fusion_lat": 0.0, "rental_uris": {"android": "https://dc.lft.to/lastmile_qr_scan", "ios": "https://dc.lft.to/lastmile_qr_scan"}, "fusion_lon": 0.0, "name": "2745ab0f792ad76d7d669984d135b679", "lon": -77.0048345, "is_disabled": 0, "type": "electric_scooter"}, {"bike_id": "725cb48494ffbd581d6862f51d02fcc3", "lat": 38.905454166666665, "is_reserved": 0, "fusion_lat": 0.0, "rental_uris": {"android": "https://dc.lft.to/lastmile_qr_scan", "ios": "https://dc.lft.to/lastmile_qr_scan"}, "fusion_lon": 0.0, "name": "725cb48494ffbd581d6862f51d02fcc3", "lon": -77.032466, "is_disabled": 0, "type": "electric_scooter"}, {"bike_id": "e7962d68a7a53af355801c73902dbe8e", "lat": 38.90101933333333, "is_reserved": 0, "fusion_lat": 0.0, "rental_uris": {"android": "https://dc.lft.to/lastmile_qr_scan", "ios": "https://dc.lft.to/lastmile_qr_scan"}, "fusion_lon": 0.0, "name": "e7962d68a7a53af355801c73902dbe8e", "lon": -77.051379, "is_disabled": 0, "type": "electric_scooter"}, {"bike_id": "ed2a739c64ce68b4efffafa557f7fab6", "lat": 38.90388516666667, "is_reserved": 0, "fusion_lat": 0.0, "rental_uris": {"android": "https://dc.lft.to/lastmile_qr_scan", "ios": "https://dc.lft.to/lastmile_qr_scan"}, "fusion_lon": 0.0, "name": "ed2a739c64ce68b4efffafa557f7fab6", "lon": -76.9894835, "is_disabled": 0, "type": "electric_scooter"}, {"bike_id": "05a2d760d72d8a98e17b3c41a61fbed1", "lat": 38.906400833333336, "is_reserved": 0, "fusion_lat": 0.0, "rental_uris": {"android": "https://dc.lft.to/lastmile_qr_scan", "ios": "https://dc.lft.to/lastmile_qr_scan"}, "fusion_lon": 0.0, "name": "05a2d760d72d8a98e17b3c41a61fbed1", "lon": -77.01831433333334, "is_disabled": 0, "type": "electric_scooter"}, {"bike_id": "7f33cd0c5fe151b540da59b99353d089", "lat": 38.90155016666667, "is_reserved": 0, "fusion_lat": 0.0, "rental_uris": {"android": "https://dc.lft.to/lastmile_qr_scan", "ios": "https://dc.lft.to/lastmile_qr_scan"}, "fusion_lon": 0.0, "name": "7f33cd0c5fe151b540da59b99353d089", "lon": -77.04767483333333, "is_disabled": 0, "type": "electric_scooter"}, {"bike_id": "4881a3bcf742c3e35fc3fc9c51ba58b8", "lat": 38.89876183333333, "is_reserved": 0, "fusion_lat": 0.0, "rental_uris": {"android": "https://dc.lft.to/lastmile_qr_scan", "ios": "https://dc.lft.to/lastmile_qr_scan"}, "fusion_lon": 0.0, "name": "4881a3bcf742c3e35fc3fc9c51ba58b8", "lon": -77.0487525, "is_disabled": 0, "type": "electric_scooter"}, {"bike_id": "e0d2470f635d81f10db5bcbb205241f8", "lat": 38.90621183333333, "is_reserved": 0, "fusion_lat": 0.0, "rental_uris": {"android": "https://dc.lft.to/lastmile_qr_scan", "ios": "https://dc.lft.to/lastmile_qr_scan"}, "fusion_lon": 0.0, "name": "e0d2470f635d81f10db5bcbb205241f8", "lon": -77.02802616666666, "is_disabled": 0, "type": "electric_scooter"},