{"data": {"bikes": [{"name": "c96d8254a812812b424d13d5767ca7c5", "fusion_lon": 0.0, "lat": 38.9189995, "is_reserved": 0, "type": "electric_scooter", "bike_id": "c96d8254a812812b424d13d5767ca7c5", "is_disabled": 0, "rental_uris": {"android": "https://dc.lft.to/lastmile_qr_scan", "ios": "https://dc.lft.to/lastmile_qr_scan"}, "lon": -76.98745883333333, "fusion_lat": 0.0}, {"name": "c7f853b2715ba2e16638442dc9c06ed3", "fusion_lon": 0.0, "lat": 38.898728, "is_reserved": 0, "type": "electric_scooter", "bike_id": "c7f853b2715ba2e16638442dc9c06ed3", "is_disabled": 0, "rental_uris": {"android": "https://dc.lft.to/lastmile_qr_scan", "ios": "https://dc.lft.to/lastmile_qr_scan"}, "lon": -76.94665866666666, "fusion_lat": 0.0}, {"name": "8bfec3c64de98be625c3600e7a103768", "fusion_lon": 0.0, "lat": 38.892275166666664, "is_reserved": 0, "type": "electric_scooter", "bike_id": "8bfec3c64de98be625c3600e7a103768", "is_disabled": 0, "rental_uris": {"android": "https://dc.lft.to/lastmile_qr_scan", "ios": "https://dc.lft.to/lastmile_qr_scan"}, "lon": -77.02366366666666, "fusion_lat": 0.0}, {"name": "8963b28953ffba4561b2fa811537925b", "fusion_lon": 0.0, "lat": 38.894140166666666, "is_reserved": 0, "type": "electric_scooter", "bike_id": "8963b28953ffba4561b2fa811537925b", "is_disabled": 0, "rental_uris": {"android": "https://dc.lft.to/lastmile_qr_scan", "ios": "https://dc.lft.to/lastmile_qr_scan"}, "lon": -77.02106033333334, "fusion_lat": 0.0}, {"name": "bf05d329f80de9a6f068e6528e1a2105", "fusion_lon": 0.0, "lat": 38.919001, "is_reserved": 0, "type": "electric_scooter", "bike_id": "bf05d329f80de9a6f068e6528e1a2105", "is_disabled": 0, "rental_uris": {"android": "https://dc.lft.to/lastmile_qr_scan", "ios": "https://dc.lft.to/lastmile_qr_scan"}, "lon": -77.02301783333333, "fusion_lat": 0.0}, {"name": "a9ec3979c014425e6685a925daefe6a1", "fusion_lon": 0.0, "lat": 38.899222333333334, "is_reserved": 0, "type": "electric_scooter", "bike_id": "a9ec3979c014425e6685a925daefe6a1", "is_disabled": 0, "rental_uris": {"android": "https://dc.lft.to/lastmile_qr_scan", "ios": "https://dc.lft.to/lastmile_qr_scan"}, "lon": -77.04116716666667, "fusion_lat": 0.0}, {"name": "f23dbf5e87a234eb003def7770c9d456", "fusion_lon": 0.0, "lat": 38.91701416666667, "is_reserved": 0, "type": "electric_scooter", "bike_id": "f23dbf5e87a234eb003def7770c9d456", "is_disabled": 0, "rental_uris": {"android": "https://dc.lft.to/lastmile_qr_scan", "ios": "https://dc.lft.to/lastmile_qr_scan"}, "lon": -77.031212, "fusion_lat": 0.0}, {"name": "bc2feb149711df14ac51efddb8b1489c", "fusion_lon": 0.0, "lat": 38.907742, "is_reserved": 0, "type": "electric_scooter", "bike_id": "bc2feb149711df14ac51efddb8b1489c", "is_disabled": 0, "rental_uris": {"android": "https://dc.lft.to/lastmile_qr_scan", "ios": "https://dc.lft.to/lastmile_qr_scan"}, "lon": -76.97830333333333, "fusion_lat": 0.0}, {"name": "b636ab2d8a24e41ad57972f1a3a11ad4", "fusion_lon": 0.0, "lat": 38.900817833333335, "is_reserved": 0, "type": "electric_scooter", "bike_id": "b636ab2d8a24e41ad57972f1a3a11ad4", "is_disabled": 0, "rental_uris": {"android": "https://dc.lft.to/lastmile_qr_scan", "ios": "https://dc.lft.to/lastmile_qr_scan"}, "lon": -77.03938233333334, "fusion_lat": 0.0}, {"name": "5c6182cfd44a2b3e9ca2a03400151aa2", "fusion_lon": 0.0, "lat": 38.906492, "is_reserved": 0, "type": "electric_scooter", "bike_id": "5c6182cfd44a2b3e9ca2a03400151aa2", "is_disabled": 0, "rental_uris": {"android": "https://dc.lft.to/lastmile_qr_scan", "ios": "https://dc.lft.to/lastmile_qr_scan"}, "lon": -77.0389185, "fusion_lat": 0.0}, {"name": "48039f1004e45c9618119890c48f3bcc", "fusion_lon": 0.0, "lat": 38.946306666666665, "is_reserved": 0, "type": "electric_scooter", "bike_id": "48039f1004e45c9618119890c48f3bcc", "is_disabled": 0, "rental_uris": {"android": "https://dc.lft.to/lastmile_qr_scan", "ios": "https://dc.lft.to/lastmile_qr_scan"}, "lon": -77.01844083333333, "fusion_lat": 0.0}, {"name": "34cc8d8b9f4b830d7411a044a5a7f33a", "fusion_lon": 0.0, "lat": 38.904095166666664, "is_reserved": 0, "type": "electric_scooter", "bike_id": "34cc8d8b9f4b830d7411a044a5a7f33a", "is_disabled": 0, "rental_uris": {"android": "https://dc.lft.to/lastmile_qr_scan", "ios": "https://dc.lft.to/lastmile_qr_scan"}, "lon": -77.02506183333334, "fusion_lat": 0.0}, {"name": "fab49779bfc0e17f2bc7981f1e4c7759", "fusion_lon": 0.0, "lat": 38.9056455, "is_reserved": 0, "type": "electric_scooter", "bike_id": "fab49779bfc0e17f2bc7981f1e4c7759", "is_disabled": 0, "rental_uris": {"android": "https://dc.lft.to/lastmile_qr_scan", "ios": "https://dc.lft.to/lastmile_qr_scan"}, "lon": -77.0059345, "fusion_lat": 0.0}, {"name": "43025595bab732b0e8d60477e9567c0f", "fusion_lon": 0.0, "lat": 38.90074333333333, "is_reserved": 0, "type": "electric_scooter", "bike_id": "43025595bab732b0e8d60477e9567c0f", "is_disabled": 0, "rental_uris": {"android": "https://dc.lft.to/lastmile_qr_scan", "ios": "https://dc.lft.to/lastmile_qr_scan"}, "lon": -77.04688416666667, "fusion_lat": 0.0}, {"name": "e61288757b5e00baf95fe010d4d7a110", "fusion_lon": 0.0, "lat": 38.915629833333334, "is_reserved": 0, "type": "electric_scooter", "bike_id": "e61288757b5e00baf95fe010d4d7a110", "is_disabled": 0, "rental_uris": {"android": "https://dc.lft.to/lastmile_qr_scan", "ios": "https://dc.lft.to/lastmile_qr_scan"}, "lon": -77.037696, "fusion_lat": 0.0}, {"name": "dba181461e1e93dcd34e4b5d564cfcc7", "fusion_lon": 0.0, "lat": 38.93677483333333, "is_reserved": 0, "type": "electric_scooter", "bike_id": "dba181461e1e93dcd34e4b5d564cfcc7", "is_disabled": 0, "rental_uris": {"android": "https://dc.lft.to/lastmile_qr_scan", "ios": "https://dc.lft.to/lastmile_qr_scan"}, "lon": -77.03592016666667, "fusion_lat": 0.0}, {"name": "005afc1cc46d425034c7461e03b33e39", "fusion_lon": 0.0, "lat": 38.921575833333335, "is_reserved": 0, "type": "electric_scooter", "bike_id": "005afc1cc46d425034c7461e03b33e39", "is_disabled": 0, "rental_uris": {"android": "https://dc.lft.to/lastmile_qr_scan", "ios": "https://dc.lft.to/lastmile_qr_scan"}, "lon": -77.02093183333334, "fusion_lat": 0.0}, {"name": "6b7f3bf090fea19b5cd87300bfc0fbe4", "fusion_lon": 0.0, "lat": 38.88609616666667, "is_reserved": 0, "type": "electric_scooter", "bike_id": "6b7f3bf090fea19b5cd87300bfc0fbe4", "is_disabled": 0, "rental_uris": {"android": "https://dc.lft.to/lastmile_qr_scan", "ios": "https://dc.lft.to/lastmile_qr_scan"}, "lon": -77.00482666666667, "fusion_lat": 0.0}, {"name": "f4ecf155b41f87108a6e93d8407147c4", "fusion_lon": 0.0, "lat": 38.92290583333333, "is_reserved": 0, "type": "electric_scooter", "bike_id": "f4ecf155b41f87108a6e93d8407147c4", "is_disabled": 0, "rental_uris": {"android": "https://dc.lft.to/lastmile_qr_scan", "ios": "https://dc.lft.to/lastmile_qr_scan"}, "lon": -77.0184315, "fusion_lat": 0.0}, {"name": "8c161e312a65f61a832436bbd5442cb1", "fusion_lon": 0.0, "lat": 38.96796766666667, "is_reserved": 0, "type": "electric_bike", "bike_id": "8c161e312a65f61a832436bbd5442cb1", "is_disabled": 0, "rental_uris": {"android": "https://dc.lft.to/lastmile_qr_scan", "ios": "https://dc.lft.to/lastmile_qr_scan"}, "lon": -77.00032966666667, "fusion_lat": 0.0}, {"name": "288e8c8c842b8fd77e2d1920b3296690", "fusion_lon": 0.0, "lat": 38.909758333333336, "is_reserved": 0, "type": "electric_scooter", "bike_id": "288e8c8c842b8fd77e2d1920b3296690", "is_disabled": 0, "rental_uris": {"android": "https://dc.lft.to/lastmile_qr_scan", "ios": "https://dc.lft.to/lastmile_qr_scan"}, "lon": -77.03597666666667, "fusion_lat": 0.0}, {"name": "3c42dcaa5e4d79df25db71fb4d4779cc", "fusion_lon": 0.0, "lat": 38.9005105, "is_reserved": 0, "type": "electric_scooter", "bike_id": "3c42dcaa5e4d79df25db71fb4d4779cc", "is_disabled": 0, "rental_uris": {"android": "https://dc.lft.to/lastmile_qr_scan", "ios": "https://dc.lft.to/lastmile_qr_scan"}, "lon": -77.04321183333333, "fusion_lat": 0.0}, {"name": "90c354d9f8741164e564692ad64cc758", "fusion_lon": 0.0, "lat": 38.86518133333333, "is_reserved": 0, "type": "electric_scooter", "bike_id": "90c354d9f8741164e564692ad64cc758", "is_disabled": 0, "rental_uris": {"android": "https://dc.lft.to/lastmile_qr_scan", "ios": "https://dc.lft.to/lastmile_qr_scan"}, "lon": -76.9901895, "fusion_lat": 0.0}, {"name": "57d9df858e4680cabc97acea78ae055d", "fusion_lon": 0.0, "lat": 38.9169915, "is_reserved": 0, "type": "electric_scooter", "bike_id": "57d9df858e4680cabc97acea78ae055d", "is_disabled": 0, "rental_uris": {"android": "https://dc.lft.to/lastmile_qr_scan", "ios": "https://dc.lft.to/lastmile_qr_scan"}, "lon": -77.031576, "fusion_lat": 0.0}, {"name": "a218a19add8fd0c3cfd441dfa0c4712b", "fusion_lon": 0.0, "lat": 38.9285025, "is_reserved": 0, "type": "electric_scooter", "bike_id": "a218a19add8fd0c3cfd441dfa0c4712b", "is_disabled": 0, "rental_uris": {"android": "https://dc.lft.to/lastmile_qr_scan", "ios": "https://dc.lft.to/lastmile_qr_scan"}, "lon": -77.0331435, "fusion_lat": 0.0}, {"name": "0b23148c8e35bc166e87feec538a04aa", "fusion_lon": 0.0, "lat": 38.900857333333335, "is_reserved": 0, "type": "electric_scooter", "bike_id": "0b23148c8e35bc166e87feec538a04aa", "is_disabled": 0, "rental_uris": {"android": "https://dc.lft.to/lastmile_qr_scan", "ios": "https://dc.lft.to/lastmile_qr_scan"}, "lon": -77.0500315, "fusion_lat": 0.0}, {"name": "f13e806fa682c6327df288cb60057479", "fusion_lon": 0.0, "lat": 38.92342466666667, "is_reserved": 0, "type": "electric_scooter", "bike_id": "f13e806fa682c6327df288cb60057479", "is_disabled": 0, "rental_uris": {"android": "https://dc.lft.to/lastmile_qr_scan", "ios": "https://dc.lft.to/lastmile_qr_scan"}, "lon": -77.05243166666666, "fusion_lat": 0.0}, {"name": "0bcb5e016a8e8ff3376f1cbdf1f5a1ee", "fusion_lon": 0.0, "lat": 38.91609916666667, "is_reserved": 0, "type": "electric_scooter", "bike_id": "0bcb5e016a8e8ff3376f1cbdf1f5a1ee", "is_disabled": 0, "rental_uris": {"android": "https://dc.lft.to/lastmile_qr_scan", "ios": "https://dc.lft.to/lastmile_qr_scan"}, "lon": -76.98369883333334, "fusion_lat": 0.0}, {"name": "53b147069d81fa577c8bf0ae8cd1afdf", "fusion_lon": 0.0, "lat": 38.996279666666666, "is_reserved": 0, "type": "electric_scooter", "bike_id": "53b147069d81fa577c8bf0ae8cd1afdf", "is_disabled": 0, "rental_uris": {"android": "https://dc.lft.to/lastmile_qr_scan", "ios": "https://dc.lft.to/lastmile_qr_scan"}, "lon": -77.03144233333333, "fusion_lat": 0.0}, {"name": "e6c902ecfd51ced02f97f751ddff8523", "fusion_lon": 0.0, "lat": 38.8717005, "is_reserved": 0, "type": "electric_scooter", "bike_id": "e6c902ecfd51ced02f97f751ddff8523", "is_disabled": 0, "rental_uris": {"android": "https://dc.lft.to/lastmile_qr_scan", "ios": "https://dc.lft.to/lastmile_qr_scan"}, "lon": -76.97741066666667, "fusion_lat": 0.0}, {"name": "3e306ecb79eb3d580401c184908bbe67", "fusion_lon": 0.0, "lat": 38.896065, "is_reserved": 0, "type": "electric_scooter", "bike_id": "3e306ecb79eb3d580401c184908bbe67", "is_disabled": 0, "rental_uris": {"android": "https://dc.lft.to/lastmile_qr_scan", "ios": "https://dc.lft.to/lastmile_qr_scan"}, "lon": -77.0259985, "fusion_lat": 0.0}, {"name": "3d4e494d2510297bc4b7be26c5e8a7f1", "fusion_lon": 0.0, "lat": 38.9161695, "is_reserved": 0, "type": "electric_scooter", "bike_id": "3d4e494d2510297bc4b7be26c5e8a7f1", "is_disabled": 0, "rental_uris": {"android": "https://dc.lft.to/lastmile_qr_scan", "ios": "https://dc.lft.to/lastmile_qr_scan"}, "lon": -77.02168916666666, "fusion_lat": 0.0}, {"name": "a2e9668ef0d01fd1182b36d2e993d8db", "fusion_lon": 0.0, "lat": 38.9258465, "is_reserved": 0, "type": "electric_scooter", "bike_id": "a2e9668ef0d01fd1182b36d2e993d8db", "is_disabled": 0, "rental_uris": {"android": "https://dc.lft.to/lastmile_qr_scan", "ios": "https://dc.lft.to/lastmile_qr_scan"}, "lon": -77.02608016666667, "fusion_lat": 0.0}, {"name": "58195b3b60e3a11bf384d946ef799f07", "fusion_lon": 0.0, "lat": 38.91710416666667, "is_reserved": 0, "type": "electric_scooter", "bike_id": "58195b3b60e3a11bf384d946ef799f07", "is_disabled": 0, "rental_uris": {"android": "https://dc.lft.to/lastmile_qr_scan", "ios": "https://dc.lft.to/lastmile_qr_scan"}, "lon": -77.03380966666667, "fusion_lat": 0.0}, {"name": "bad204139a1670b13a346e24b5ac2cb4", "fusion_lon": 0.0, "lat": 38.92493, "is_reserved": 0, "type": "electric_scooter", "bike_id": "bad204139a1670b13a346e24b5ac2cb4", "is_disabled": 0, "rental_uris": {"android": "https://dc.lft.to/lastmile_qr_scan", "ios": "https://dc.lft.to/lastmile_qr_scan"}, "lon": -77.02139933333333, "fusion_lat": 0.0}, {"name": "29815c4a4b29f95e1e7438fc8a4b056e", "fusion_lon": 0.0, "lat": 38.8983015, "is_reserved": 0, "type": "electric_scooter", "bike_id": "29815c4a4b29f95e1e7438fc8a4b056e", "is_disabled": 0, "rental_uris": {"android": "https://dc.lft.to/lastmile_qr_scan", "ios": "https://dc.lft.to/lastmile_qr_scan"}, "lon": -77.0333465, "fusion_lat": 0.0}, {"name": "9c4086a922adc0666a3c399f825c34e6", "fusion_lon": 0.0, "lat": 38.94116066666667, "is_reserved": 0, "type": "electric_scooter", "bike_id": "9c4086a922adc0666a3c399f825c34e6", "is_disabled": 0, "rental_uris": {"android": "https://dc.lft.to/lastmile_qr_scan", "ios": "https://dc.lft.to/lastmile_qr_scan"}, "lon": -77.07736066666666, "fusion_lat": 0.0}, {"name": "a0e38578ee4fae76cfceb8df4ee7cc6f", "fusion_lon": 0.0, "lat": 38.915615333333335, "is_reserved": 0, "type": "electric_scooter", "bike_id": "a0e38578ee4fae76cfceb8df4ee7cc6f", "is_disabled": 0, "rental_uris": {"android": "https://dc.lft.to/lastmile_qr_scan", "ios": "https://dc.lft.to/lastmile_qr_scan"}, "lon": -77.02431316666667, "fusion_lat": 0.0}, {"name": "1c6a8bf81edc4d993645d4317cc2238f", "fusion_lon": 0.0, "lat": 38.898420333333334, "is_reserved": 0, "type": "electric_scooter", "bike_id": "1c6a8bf81edc4d993645d4317cc2238f", "is_disabled": 0, "rental_uris": {"android": "https://dc.lft.to/lastmile_qr_scan", "ios": "https://dc.lft.to/lastmile_qr_scan"}, "lon": -77.043675, "fusion_lat": 0.0}, {"name": "53a9fc65eb9df814a2b1e01fb787406f", "fusion_lon": 0.0, "lat": 38.9163725, "is_reserved": 0, "type": "electric_scooter", "bike_id": "53a9fc65eb9df814a2b1e01fb787406f", "is_disabled": 0, "rental_uris": {"android": "https://dc.lft.to/lastmile_qr_scan", "ios": "https://dc.lft.to/lastmile_qr_scan"}, "lon": -77.0398905, "fusion_lat": 0.0}, {"name": "3d0e2ee8e92156e9c457257cc3b5bd66", "fusion_lon": 0.0, "lat": 38.919423, "is_reserved": 0, "type": "electric_scooter", "bike_id": "3d0e2ee8e92156e9c457257cc3b5bd66", "is_disabled": 0, "rental_uris": {"android": "https://dc.lft.to/lastmile_qr_scan", "ios": "https://dc.lft.to/lastmile_qr_scan"}, "lon": -77.0319325, "fusion_lat": 0.0}, {"name": "9d9c9e489d48cffd0e0c32404222ced7", "fusion_lon": 0.0, "lat": 38.9145975, "is_reserved": 0, "type": "electric_scooter", "bike_id": "9d9c9e489d48cffd0e0c32404222ced7", "is_disabled": 0, "rental_uris": {"android": "https://dc.lft.to/lastmile_qr_scan", "ios": "https://dc.lft.to/lastmile_qr_scan"}, "lon": -77.0713145, "fusion_lat": 0.0}, {"name": "a4946cac9825c9e8ef64f5221086656c", "fusion_lon": 0.0, "lat": 38.93638283333333, "is_reserved": 0, "type": "electric_scooter", "bike_id": "a4946cac9825c9e8ef64f5221086656c", "is_disabled": 0, "rental_uris": {"android": "https://dc.lft.to/lastmile_qr_scan", "ios": "https://dc.lft.to/lastmile_qr_scan"}, "lon": -77.05883966666667, "fusion_lat": 0.0}, {"name": "c8c87ed338734a203626652e5ad22da3", "fusion_lon": 0.0, "lat": 38.90565266666667, "is_reserved": 0, "type": "electric_scooter", "bike_id": "c8c87ed338734a203626652e5ad22da3", "is_disabled": 0, "rental_uris": {"android": "https://dc.lft.to/lastmile_qr_scan", "ios": "https://dc.lft.to/lastmile_qr_scan"}, "lon": -77.025049, "fusion_lat": 0.0}, {"name": "a1cac7f5c42ea2fc2d0a3c3a54cc7bcf", "fusion_lon": 0.0, "lat": 38.882685, "is_reserved": 0, "type": "electric_scooter", "bike_id": "a1cac7f5c42ea2fc2d0a3c3a54cc7bcf", "is_disabled": 0, "rental_uris": {"android": "https://dc.lft.to/lastmile_qr_scan", "ios": "https://dc.lft.to/lastmile_qr_scan"}, "lon": -76.99254616666667, "fusion_lat": 0.0}, {"name": "07349d54fbf79e708f16b41e4248edb1", "fusion_lon": 0.0, "lat": 38.905549666666666, "is_reserved": 0, "type": "electric_scooter", "bike_id": "07349d54fbf79e708f16b41e4248edb1", "is_disabled": 0, "rental_uris": {"android": "https://dc.lft.to/lastmile_qr_scan", "ios": "https://dc.lft.to/lastmile_qr_scan"}, "lon": -77.00290083333333, "fusion_lat": 0.0}, {"name": "8e012f72e948ce36f1d53ca04bfbcaf1", "fusion_lon": 0.0, "lat": 38.90838516666667, "is_reserved": 0, "type": "electric_scooter", "bike_id": "8e012f72e948ce36f1d53ca04bfbcaf1", "is_disabled": 0, "rental_uris": {"android": "https://dc.lft.to/lastmile_qr_scan", "ios": "https://dc.lft.to/lastmile_qr_scan"}, "lon": -77.02393466666666, "fusion_lat": 0.0}, {"name": "c12a9d12b638c99f326acb831a6e67a5", "fusion_lon": 0.0, "lat": 38.92413616666666, "is_reserved": 0, "type": "electric_scooter", "bike_id": "c12a9d12b638c99f326acb831a6e67a5", "is_disabled": 0, "rental_uris": {"android": "https://dc.lft.to/lastmile_qr_scan", "ios": "https://dc.lft.to/lastmile_qr_scan"}, "lon": -77.05169216666667, "fusion_lat": 0.0}, {"name": "bc7f36f1c0cbf5ea46a99d829e204037", "fusion_lon": 0.0, "lat": 38.907486, "is_reserved": 0, "type": "electric_scooter", "bike_id": "bc7f36f1c0cbf5ea46a99d829e204037", "is_disabled": 0, "rental_uris": {"android": "https://dc.lft.to/lastmile_qr_scan", "ios": "https://dc.lft.to/lastmile_qr_scan"}, "lon": -77.04356533333333, "fusion_lat": 0.0}, {"name": "11866abfcd5bf093051ab0e842ad7e96", "fusion_lon": 0.0, "lat": 38.905085, "is_reserved": 0, "type": "electric_scooter", "bike_id": "11866abfcd5bf093051ab0e842ad7e96", "is_disabled": 0, "rental_uris": {"android": "https://dc.lft.to/lastmile_qr_scan", "ios": "https://dc.lft.to/lastmile_qr_scan"}, "lon": -77.03868216666666, "fusion_lat": 0.0}, {"name": "8d30585f709d65aeace1a843557070c8", "fusion_lon": 0.0, "lat": 38.936396, "is_reserved": 0, "type": "electric_scooter", "bike_id": "8d30585f709d65aeace1a843557070c8", "is_disabled": 0, "rental_uris": {"android": "https://dc.lft.to/lastmile_qr_scan", "ios": "https://dc.lft.to/lastmile_qr_scan"}, "lon": -77.05881583333333, "fusion_lat": 0.0}, {"name": "6fc09d0e5ce90be7dffce9229c8c7bd2", "fusion_lon": 0.0, "lat": 38.912493, "is_reserved": 0, "type": "electric_scooter", "bike_id": "6fc09d0e5ce90be7dffce9229c8c7bd2", "is_disabled": 0, "rental_uris": {"android": "https://dc.lft.to/lastmile_qr_scan", "ios": "https://dc.lft.to/lastmile_qr_scan"}, "lon": -77.03412016666667, "fusion_lat": 0.0}, {"name": "629c2d8838248cc6633634c3b429643b", "fusion_lon": 0.0, "lat": 38.915605666666664, "is_reserved": 0, "type": "electric_scooter", "bike_id": "629c2d8838248cc6633634c3b429643b", "is_disabled": 0, "rental_uris": {"android": "https://dc.lft.to/lastmile_qr_scan", "ios": "https://dc.lft.to/lastmile_qr_scan"}, "lon": -77.025559, "fusion_lat": 0.0}, {"name": "9e444eccd810cf986fac9d5ddf30f78b", "fusion_lon": 0.0, "lat": 38.932748333333336, "is_reserved": 0, "type": "electric_scooter", "bike_id": "9e444eccd810cf986fac9d5ddf30f78b", "is_disabled": 0, "rental_uris": {"android": "https://dc.lft.to/lastmile_qr_scan", "ios": "https://dc.lft.to/lastmile_qr_scan"}, "lon": -77.04532883333333, "fusion_lat": 0.0}, {"name": "9c0a0ca348e8c9b7044491107fe773eb", "fusion_lon": 0.0, "lat": 38.86390333333333, "is_reserved": 0, "type": "electric_scooter", "bike_id": "9c0a0ca348e8c9b7044491107fe773eb", "is_disabled": 0, "rental_uris": {"android": "https://dc.lft.to/lastmile_qr_scan", "ios": "https://dc.lft.to/lastmile_qr_scan"}, "lon": -76.99045433333333, "fusion_lat": 0.0}, {"name": "d7cc11b4e3e1be54e0758c7054462fd0", "fusion_lon": 0.0, "lat": 38.9040475, "is_reserved": 0, "type": "electric_scooter", "bike_id": "d7cc11b4e3e1be54e0758c7054462fd0", "is_disabled": 0, "rental_uris": {"android": "https://dc.lft.to/lastmile_qr_scan", "ios": "https://dc.lft.to/lastmile_qr_scan"}, "lon": -77.06770433333334, "fusion_lat": 0.0}, {"name": "cafb85d9bdf4c1eab2436ff5f08c77f6", "fusion_lon": 0.0, "lat": 38.921971666666664, "is_reserved": 0, "type": "electric_scooter", "bike_id": "cafb85d9bdf4c1eab2436ff5f08c77f6", "is_disabled": 0, "rental_uris": {"android": "https://dc.lft.to/lastmile_qr_scan", "ios": "https://dc.lft.to/lastmile_qr_scan"}, "lon": -77.02094216666667, "fusion_lat": 0.0}, {"name": "fb2fb76a2eeee7be30cfddf7b068153b", "fusion_lon": 0.0, "lat": 38.91111433333333, "is_reserved": 0, "type": "electric_scooter", "bike_id": "fb2fb76a2eeee7be30cfddf7b068153b", "is_disabled": 0, "rental_uris": {"android": "https://dc.lft.to/lastmile_qr_scan", "ios": "https://dc.lft.to/lastmile_qr_scan"}, "lon": -77.0482845, "fusion_lat": 0.0}, {"name": "2554ec18f526cef76cd594f79de79dd3", "fusion_lon": 0.0, "lat": 38.913638666666664, "is_reserved": 0, "type": "electric_scooter", "bike_id": "2554ec18f526cef76cd594f79de79dd3", "is_disabled": 0, "rental_uris": {"android": "https://dc.lft.to/lastmile_qr_scan", "ios": "https://dc.lft.to/lastmile_qr_scan"}, "lon": -77.0693945, "fusion_lat": 0.0}, {"name": "61c7bebe9467e8f8439bcc8d98ef18bc", "fusion_lon": 0.0, "lat": 38.931212, "is_reserved": 0, "type": "electric_scooter", "bike_id": "61c7bebe9467e8f8439bcc8d98ef18bc", "is_disabled": 0, "rental_uris": {"android": "https://dc.lft.to/lastmile_qr_scan", "ios": "https://dc.lft.to/lastmile_qr_scan"}, "lon": -77.03035583333333, "fusion_lat": 0.0}, {"name": "b6c0b1d927c2ffe9a7939f346eeb1055", "fusion_lon": 0.0, "lat": 38.91636116666667, "is_reserved": 0, "type": "electric_scooter", "bike_id": "b6c0b1d927c2ffe9a7939f346eeb1055", "is_disabled": 0, "rental_uris": {"android": "https://dc.lft.to/lastmile_qr_scan", "ios": "https://dc.lft.to/lastmile_qr_scan"}, "lon": -77.038512, "fusion_lat": 0.0}, {"name": "cf784e09bc0da606edec17a8a68f9c00", "fusion_lon": 0.0, "lat": 38.924952, "is_reserved": 0, "type": "electric_scooter", "bike_id": "cf784e09bc0da606edec17a8a68f9c00", "is_disabled": 0, "rental_uris": {"android": "https://dc.lft.to/lastmile_qr_scan", "ios": "https://dc.lft.to/lastmile_qr_scan"}, "lon": -77.05254983333333, "fusion_lat": 0.0}, {"name": "0bd99d4d0807878c2ccafff8e8a9fcd0", "fusion_lon": 0.0, "lat": 38.902509333333334, "is_reserved": 0, "type": "electric_scooter", "bike_id": "0bd99d4d0807878c2ccafff8e8a9fcd0", "is_disabled": 0, "rental_uris": {"android": "https://dc.lft.to/lastmile_qr_scan", "ios": "https://dc.lft.to/lastmile_qr_scan"}, "lon": -77.00198016666667, "fusion_lat": 0.0}, {"name": "7acd6addee47d4bcb9f6181d46a5a71c", "fusion_lon": 0.0, "lat": 38.916578333333334, "is_reserved": 0, "type": "electric_scooter", "bike_id": "7acd6addee47d4bcb9f6181d46a5a71c", "is_disabled": 0, "rental_uris": {"android": "https://dc.lft.to/lastmile_qr_scan", "ios": "https://dc.lft.to/lastmile_qr_scan"}, "lon": -77.02008833333333, "fusion_lat": 0.0}, {"name": "9f781da1e632e87230ff3ce5eb67db30", "fusion_lon": 0.0, "lat": 38.90044016666667, "is_reserved": 0, "type": "electric_scooter", "bike_id": "9f781da1e632e87230ff3ce5eb67db30", "is_disabled": 0, "rental_uris": {"android": "https://dc.lft.to/lastmile_qr_scan", "ios": "https://dc.lft.to/lastmile_qr_scan"}, "lon": -76.988334, "fusion_lat": 0.0}, {"name": "3fc78f3ec636bf1da51da70e1d1db5b8", "fusion_lon": 0.0, "lat": 38.91631816666667, "is_reserved": 0, "type": "electric_scooter", "bike_id": "3fc78f3ec636bf1da51da70e1d1db5b8", "is_disabled": 0, "rental_uris": {"android": "https://dc.lft.to/lastmile_qr_scan", "ios": "https://dc.lft.to/lastmile_qr_scan"}, "lon": -77.025487, "fusion_lat": 0.0}, {"name": "a71399bdea80329384ac4991a689a5be", "fusion_lon": 0.0, "lat": 38.906533, "is_reserved": 0, "type": "electric_scooter", "bike_id": "a71399bdea80329384ac4991a689a5be", "is_disabled": 0, "rental_uris": {"android": "https://dc.lft.to/lastmile_qr_scan", "ios": "https://dc.lft.to/lastmile_qr_scan"}, "lon": -77.001958, "fusion_lat": 0.0}, {"name": "d595d6c67d6dd67383111413ad64489b", "fusion_lon": 0.0, "lat": 38.876659, "is_reserved": 0, "type": "electric_scooter", "bike_id": "d595d6c67d6dd67383111413ad64489b", "is_disabled": 0, "rental_uris": {"android": "https://dc.lft.to/lastmile_qr_scan", "ios": "https://dc.lft.to/lastmile_qr_scan"}, "lon": -77.01824383333333, "fusion_lat": 0.0}, {"name": "065c202fe3b0e7e5a09cca886d6b4614", "fusion_lon": 0.0, "lat": 38.90325283333333, "is_reserved": 0, "type": "electric_bike", "bike_id": "065c202fe3b0e7e5a09cca886d6b4614", "is_disabled": 0, "rental_uris": {"android": "https://dc.lft.to/lastmile_qr_scan", "ios": "https://dc.lft.to/lastmile_qr_scan"}, "lon": -76.972987, "fusion_lat": 0.0}, {"name": "8293e6edff066173c4846616a487d9b4", "fusion_lon": 0.0, "lat": 38.9020285, "is_reserved": 0, "type": "electric_scooter", "bike_id": "8293e6edff066173c4846616a487d9b4", "is_disabled": 0, "rental_uris": {"android": "https://dc.lft.to/lastmile_qr_scan", "ios": "https://dc.lft.to/lastmile_qr_scan"}, "lon": -77.02190316666666, "fusion_lat": 0.0}, {"name": "9920c9d0f8e260c976e3cc5b0ce59e52", "fusion_lon": 0.0, "lat": 38.8953825, "is_reserved": 0, "type": "electric_scooter", "bike_id": "9920c9d0f8e260c976e3cc5b0ce59e52", "is_disabled": 0, "rental_uris": {"android": "https://dc.lft.to/lastmile_qr_scan", "ios": "https://dc.lft.to/lastmile_qr_scan"}, "lon": -77.01101533333333, "fusion_lat": 0.0}, {"name": "6cac891e485b8ea154a6a2af0e8c9dd6", "fusion_lon": 0.0, "lat": 38.9043225, "is_reserved": 0, "type": "electric_scooter", "bike_id": "6cac891e485b8ea154a6a2af0e8c9dd6", "is_disabled": 0, "rental_uris": {"android": "https://dc.lft.to/lastmile_qr_scan", "ios": "https://dc.lft.to/lastmile_qr_scan"}, "lon": -77.0435785, "fusion_lat": 0.0}, {"name": "d37dbc0d34bccfc6d376fe84fd4f7387", "fusion_lon": 0.0, "lat": 38.9188945, "is_reserved": 0, "type": "electric_scooter", "bike_id": "d37dbc0d34bccfc6d376fe84fd4f7387", "is_disabled": 0, "rental_uris": {"android": "https://dc.lft.to/lastmile_qr_scan", "ios": "https://dc.lft.to/lastmile_qr_scan"}, "lon": -77.02481616666667, "fusion_lat": 0.0}, {"name": "c18973a946e87b460621e277c2b85fd9", "fusion_lon": 0.0, "lat": 38.86242433333334, "is_reserved": 0, "type": "electric_scooter", "bike_id": "c18973a946e87b460621e277c2b85fd9", "is_disabled": 0, "rental_uris": {"android": "https://dc.lft.to/lastmile_qr_scan", "ios": "https://dc.lft.to/lastmile_qr_scan"}, "lon": -76.99493283333334, "fusion_lat": 0.0}, {"name": "ee2d77843ad0877f49e163a1b4777c40", "fusion_lon": 0.0, "lat": 38.92359416666667, "is_reserved": 0, "type": "electric_scooter", "bike_id": "ee2d77843ad0877f49e163a1b4777c40", "is_disabled": 0, "rental_uris": {"android": "https://dc.lft.to/lastmile_qr_scan", "ios": "https://dc.lft.to/lastmile_qr_scan"}, "lon": -77.0423565, "fusion_lat": 0.0}, {"name": "20de46cb115f1cab4b8404030344ef0a", "fusion_lon": 0.0, "lat": 38.909608, "is_reserved": 0, "type": "electric_scooter", "bike_id": "20de46cb115f1cab4b8404030344ef0a", "is_disabled": 0, "rental_uris": {"android": "https://dc.lft.to/lastmile_qr_scan", "ios": "https://dc.lft.to/lastmile_qr_scan"}, "lon": -77.02692033333334, "fusion_lat": 0.0}, {"name": "65c73e1173b3b1bbc0b50d6d48741bf6", "fusion_lon": 0.0, "lat": 38.903549166666664, "is_reserved": 0, "type": "electric_scooter", "bike_id": "65c73e1173b3b1bbc0b50d6d48741bf6", "is_disabled": 0, "rental_uris": {"android": "https://dc.lft.to/lastmile_qr_scan", "ios": "https://dc.lft.to/lastmile_qr_scan"}, "lon": -77.037649, "fusion_lat": 0.0}, {"name": "29fb2396bdf7beec25f643c21511007b", "fusion_lon": 0.0, "lat": 38.916587166666666, "is_reserved": 0, "type": "electric_scooter", "bike_id": "29fb2396bdf7beec25f643c21511007b", "is_disabled": 0, "rental_uris": {"android": "https://dc.lft.to/lastmile_qr_scan", "ios": "https://dc.lft.to/lastmile_qr_scan"}, "lon": -77.0297335, "fusion_lat": 0.0}, {"name": "519095f22b56687635b665b68308a865", "fusion_lon": 0.0, "lat": 38.936397, "is_reserved": 0, "type": "electric_scooter", "bike_id": "519095f22b56687635b665b68308a865", "is_disabled": 0, "rental_uris": {"android": "https://dc.lft.to/lastmile_qr_scan", "ios": "https://dc.lft.to/lastmile_qr_scan"}, "lon": -77.05885383333333, "fusion_lat": 0.0}, {"name": "a5cd17892fd69c2a338ea9ddaa68dbde", "fusion_lon": 0.0, "lat": 38.902465166666666, "is_reserved": 0, "type": "electric_scooter", "bike_id": "a5cd17892fd69c2a338ea9ddaa68dbde", "is_disabled": 0, "rental_uris": {"android": "https://dc.lft.to/lastmile_qr_scan", "ios": "https://dc.lft.to/lastmile_qr_scan"}, "lon": -77.00196616666666, "fusion_lat": 0.0}, {"name": "85d46e52b7c8d8184bf3c26d453b0c3e", "fusion_lon": 0.0, "lat": 38.920157, "is_reserved": 0, "type": "electric_scooter", "bike_id": "85d46e52b7c8d8184bf3c26d453b0c3e", "is_disabled": 0, "rental_uris": {"android": "https://dc.lft.to/lastmile_qr_scan", "ios": "https://dc.lft.to/lastmile_qr_scan"}, "lon": -77.03889166666667, "fusion_lat": 0.0}, {"name": "091383b47fda5de11678c816ca438dee", "fusion_lon": 0.0, "lat": 38.95691216666667, "is_reserved": 0, "type": "electric_scooter", "bike_id": "091383b47fda5de11678c816ca438dee", "is_disabled": 0, "rental_uris": {"android": "https://dc.lft.to/lastmile_qr_scan", "ios": "https://dc.lft.to/lastmile_qr_scan"}, "lon": -77.0223425, "fusion_lat": 0.0}, {"name": "8e834aab37895e7b6abf0f676a3b73f9", "fusion_lon": 0.0, "lat": 38.9108625, "is_reserved": 0, "type": "electric_scooter", "bike_id": "8e834aab37895e7b6abf0f676a3b73f9", "is_disabled": 0, "rental_uris": {"android": "https://dc.lft.to/lastmile_qr_scan", "ios": "https://dc.lft.to/lastmile_qr_scan"}, "lon": -76.99270466666667, "fusion_lat": 0.0}, {"name": "4fd1c63a8cdaf64056493a38cd100b56", "fusion_lon": 0.0, "lat": 38.8012205, "is_reserved": 0, "type": "electric_bike", "bike_id": "4fd1c63a8cdaf64056493a38cd100b56", "is_disabled": 0, "rental_uris": {"android": "https://dc.lft.to/lastmile_qr_scan", "ios": "https://dc.lft.to/lastmile_qr_scan"}, "lon": -77.070417, "fusion_lat": 0.0}, {"name": "fe9b663c4387084afcba0264379c7866", "fusion_lon": 0.0, "lat": 38.927719333333336, "is_reserved": 0, "type": "electric_bike", "bike_id": "fe9b663c4387084afcba0264379c7866", "is_disabled": 0, "rental_uris": {"android": "https://dc.lft.to/lastmile_qr_scan", "ios": "https://dc.lft.to/lastmile_qr_scan"}, "lon": -77.0701505, "fusion_lat": 0.0}, {"name": "7eca1c47e5f6e5ab9475c24941f229e5", "fusion_lon": 0.0, "lat": 38.899654, "is_reserved": 0, "type": "electric_bike", "bike_id": "7eca1c47e5f6e5ab9475c24941f229e5", "is_disabled": 0, "rental_uris": {"android": "https://dc.lft.to/lastmile_qr_scan", "ios": "https://dc.lft.to/lastmile_qr_scan"}, "lon": -76.9867605, "fusion_lat": 0.0}, {"name": "4d5c51416e52b14c9bd59b9ef731eb25", "fusion_lon": 0.0, "lat": 38.83150966666667, "is_reserved": 0, "type": "electric_scooter", "bike_id": "4d5c51416e52b14c9bd59b9ef731eb25", "is_disabled": 0, "rental_uris": {"android": "https://dc.lft.to/lastmile_qr_scan", "ios": "https://dc.lft.to/lastmile_qr_scan"}, "lon": -77.05128616666667, "fusion_lat": 0.0}, {"name": "7fc064e52742bf4a98d26964cbf49f63", "fusion_lon": 0.0, "lat": 38.9280235, "is_reserved": 0, "type": "electric_scooter", "bike_id": "7fc064e52742bf4a98d26964cbf49f63", "is_disabled": 0, "rental_uris": {"android": "https://dc.lft.to/lastmile_qr_scan", "ios": "https://dc.lft.to/lastmile_qr_scan"}, "lon": -77.01414533333333, "fusion_lat": 0.0}, {"name": "64535f7ed3a2716690de975c40d28c74", "fusion_lon": 0.0, "lat": 38.91057983333334, "is_reserved": 0, "type": "electric_scooter", "bike_id": "64535f7ed3a2716690de975c40d28c74", "is_disabled": 0, "rental_uris": {"android": "https://dc.lft.to/lastmile_qr_scan", "ios": "https://dc.lft.to/lastmile_qr_scan"}, "lon": -77.04356, "fusion_lat": 0.0}, {"name": "dbcbf8890b71ddf471c24d288f6b33cf", "fusion_lon": 0.0, "lat": 38.936310166666665, "is_reserved": 0, "type": "electric_bike", "bike_id": "dbcbf8890b71ddf471c24d288f6b33cf", "is_disabled": 0, "rental_uris": {"android": "https://dc.lft.to/lastmile_qr_scan", "ios": "https://dc.lft.to/lastmile_qr_scan"}, "lon": -77.09026066666667, "fusion_lat": 0.0}, {"name": "1cdb9ff081440f570bdbf3bd05a9baec", "fusion_lon": 0.0, "lat": 38.87942616666667, "is_reserved": 0, "type": "electric_scooter", "bike_id": "1cdb9ff081440f570bdbf3bd05a9baec", "is_disabled": 0, "rental_uris": {"android": "https://dc.lft.to/lastmile_qr_scan", "ios": "https://dc.lft.to/lastmile_qr_scan"}, "lon": -77.0006925, "fusion_lat": 0.0}, {"name": "9d149f8d950fcca243229187aa1f2dbf", "fusion_lon": 0.0, "lat": 38.9060245, "is_reserved": 0, "type": "electric_scooter", "bike_id": "9d149f8d950fcca243229187aa1f2dbf", "is_disabled": 0, "rental_uris": {"android": "https://dc.lft.to/lastmile_qr_scan", "ios": "https://dc.lft.to/lastmile_qr_scan"}, "lon": -77.0411465, "fusion_lat": 0.0}, {"name": "e47d06280efad7102bdc2d40716ffefe", "fusion_lon": 0.0, "lat": 38.900581, "is_reserved": 0, "type": "electric_scooter", "bike_id": "e47d06280efad7102bdc2d40716ffefe", "is_disabled": 0, "rental_uris": {"android": "https://dc.lft.to/lastmile_qr_scan", "ios": "https://dc.lft.to/lastmile_qr_scan"}, "lon": -76.9194155, "fusion_lat": 0.0}, {"name": "65250642d20c69c92e2f47ed81b09eb0", "fusion_lon": 0.0, "lat": 38.90960283333333, "is_reserved": 0, "type": "electric_scooter", "bike_id": "65250642d20c69c92e2f47ed81b09eb0", "is_disabled": 0, "rental_uris": {"android": "https://dc.lft.to/lastmile_qr_scan", "ios": "https://dc.lft.to/lastmile_qr_scan"}, "lon": -77.02688183333333, "fusion_lat": 0.0}, {"name": "70aff142fe5cc209a7764f15cc1d8ce9", "fusion_lon": 0.0, "lat": 38.86389333333333, "is_reserved": 0, "type": "electric_scooter", "bike_id": "70aff142fe5cc209a7764f15cc1d8ce9", "is_disabled": 0, "rental_uris": {"android": "https://dc.lft.to/lastmile_qr_scan", "ios": "https://dc.lft.to/lastmile_qr_scan"}, "lon": -76.990427, "fusion_lat": 0.0}, {"name": "3f2d9fdb501e76f04e096f892134c3f5", "fusion_lon": 0.0, "lat": 38.90377316666667, "is_reserved": 0, "type": "electric_scooter", "bike_id": "3f2d9fdb501e76f04e096f892134c3f5", "is_disabled": 0, "rental_uris": {"android": "https://dc.lft.to/lastmile_qr_scan", "ios": "https://dc.lft.to/lastmile_qr_scan"}, "lon": -77.03660083333334, "fusion_lat": 0.0}, {"name": "fa0baaad139aa3ce444ddb1dd4ae0864", "fusion_lon": 0.0, "lat": 38.88505266666667, "is_reserved": 0, "type": "electric_scooter", "bike_id": "fa0baaad139aa3ce444ddb1dd4ae0864", "is_disabled": 0, "rental_uris": {"android": "https://dc.lft.to/lastmile_qr_scan", "ios": "https://dc.lft.to/lastmile_qr_scan"}, "lon": -77.005698, "fusion_lat": 0.0}, {"name": "d33216a5902900ad1e95b1eebcf6ad0b", "fusion_lon": 0.0, "lat": 38.907192333333334, "is_reserved": 0, "type": "electric_scooter", "bike_id": "d33216a5902900ad1e95b1eebcf6ad0b", "is_disabled": 0, "rental_uris": {"android": "https://dc.lft.to/lastmile_qr_scan", "ios": "https://dc.lft.to/lastmile_qr_scan"}, "lon": -77.03373533333334, "fusion_lat": 0.0}, {"name": "e47d2bec3d5cfbaaf4cdd5eadaccd30e", "fusion_lon": 0.0, "lat": 38.91732366666667, "is_reserved": 0, "type": "electric_scooter", "bike_id": "e47d2bec3d5cfbaaf4cdd5eadaccd30e", "is_disabled": 0, "rental_uris": {"android": "https://dc.lft.to/lastmile_qr_scan", "ios": "https://dc.lft.to/lastmile_qr_scan"}, "lon": -77.02506183333334, "fusion_lat": 0.0}, {"name": "4dfb1b2dfec23162b1aaf32cc49b2783", "fusion_lon": 0.0, "lat": 38.935399333333336, "is_reserved": 0, "type": "electric_scooter", "bike_id": "4dfb1b2dfec23162b1aaf32cc49b2783", "is_disabled": 0, "rental_uris": {"android": "https://dc.lft.to/lastmile_qr_scan", "ios": "https://dc.lft.to/lastmile_qr_scan"}, "lon": -77.03477183333334, "fusion_lat": 0.0}, {"name": "776bb18726562a06b8e0a8fd0509fca5", "fusion_lon": 0.0, "lat": 38.908351, "is_reserved": 0, "type": "electric_scooter", "bike_id": "776bb18726562a06b8e0a8fd0509fca5", "is_disabled": 0, "rental_uris": {"android": "https://dc.lft.to/lastmile_qr_scan", "ios": "https://dc.lft.to/lastmile_qr_scan"}, "lon": -77.0445655, "fusion_lat": 0.0}, {"name": "20db026d8d1ae03ddcf89efbd21dff81", "fusion_lon": 0.0, "lat": 38.9272195, "is_reserved": 0, "type": "electric_scooter", "bike_id": "20db026d8d1ae03ddcf89efbd21dff81", "is_disabled": 0, "rental_uris": {"android": "https://dc.lft.to/lastmile_qr_scan", "ios": "https://dc.lft.to/lastmile_qr_scan"}, "lon": -77.02099416666667, "fusion_lat": 0.0}, {"name": "14ebf1f0de3a54b90fc841dafd4681bc", "fusion_lon": 0.0, "lat": 38.95665733333333, "is_reserved": 0, "type": "electric_scooter", "bike_id": "14ebf1f0de3a54b90fc841dafd4681bc", "is_disabled": 0, "rental_uris": {"android": "https://dc.lft.to/lastmile_qr_scan", "ios": "https://dc.lft.to/lastmile_qr_scan"}, "lon": -77.01032933333333, "fusion_lat": 0.0}, {"name": "3f6d119c497e79a840d812a10981b653", "fusion_lon": 0.0, "lat": 38.92881766666667, "is_reserved": 0, "type": "electric_bike", "bike_id": "3f6d119c497e79a840d812a10981b653", "is_disabled": 0, "rental_uris": {"android": "https://dc.lft.to/lastmile_qr_scan", "ios": "https://dc.lft.to/lastmile_qr_scan"}, "lon": -77.0124165, "fusion_lat": 0.0}, {"name": "c29c94006aed49dd61afd9a09c49739b", "fusion_lon": 0.0, "lat": 38.907525666666665, "is_reserved": 0, "type": "electric_scooter", "bike_id": "c29c94006aed49dd61afd9a09c49739b", "is_disabled": 0, "rental_uris": {"android": "https://dc.lft.to/lastmile_qr_scan", "ios": "https://dc.lft.to/lastmile_qr_scan"}, "lon": -76.998862, "fusion_lat": 0.0}, {"name": "7a0ecc93d009d8d8bcefa2f8beb6fc93", "fusion_lon": 0.0, "lat": 38.911054666666665, "is_reserved": 0, "type": "electric_scooter", "bike_id": "7a0ecc93d009d8d8bcefa2f8beb6fc93", "is_disabled": 0, "rental_uris": {"android": "https://dc.lft.to/lastmile_qr_scan", "ios": "https://dc.lft.to/lastmile_qr_scan"}, "lon": -77.04201766666667, "fusion_lat": 0.0}, {"name": "72afc95a0b6497cc11eaf91ae8e085d3", "fusion_lon": 0.0, "lat": 38.91386383333333, "is_reserved": 0, "type": "electric_bike", "bike_id": "72afc95a0b6497cc11eaf91ae8e085d3", "is_disabled": 0, "rental_uris": {"android": "https://dc.lft.to/lastmile_qr_scan", "ios": "https://dc.lft.to/lastmile_qr_scan"}, "lon": -77.089237, "fusion_lat": 0.0}, {"name": "5742771499b82ed6aae9dc9652786847", "fusion_lon": 0.0, "lat": 38.892226666666666, "is_reserved": 0, "type": "electric_bike", "bike_id": "5742771499b82ed6aae9dc9652786847", "is_disabled": 0, "rental_uris": {"android": "https://dc.lft.to/lastmile_qr_scan", "ios": "https://dc.lft.to/lastmile_qr_scan"}, "lon": -76.97082916666666, "fusion_lat": 0.0}, {"name": "42da82ea096b1d652e9d5ea7b1341587", "fusion_lon": 0.0, "lat": 38.925089166666666, "is_reserved": 0, "type": "electric_scooter", "bike_id": "42da82ea096b1d652e9d5ea7b1341587", "is_disabled": 0, "rental_uris": {"android": "https://dc.lft.to/lastmile_qr_scan", "ios": "https://dc.lft.to/lastmile_qr_scan"}, "lon": -77.02703583333333, "fusion_lat": 0.0}, {"name": "39948630139f0a292c34d6bb8c23bf52", "fusion_lon": 0.0, "lat": 38.92819166666666, "is_reserved": 0, "type": "electric_scooter", "bike_id": "39948630139f0a292c34d6bb8c23bf52", "is_disabled": 0, "rental_uris": {"android": "https://dc.lft.to/lastmile_qr_scan", "ios": "https://dc.lft.to/lastmile_qr_scan"}, "lon": -77.0140695, "fusion_lat": 0.0}, {"name": "7af37c64e0d6a900fca40c5419c95007", "fusion_lon": 0.0, "lat": 38.844318, "is_reserved": 0, "type": "electric_scooter", "bike_id": "7af37c64e0d6a900fca40c5419c95007", "is_disabled": 0, "rental_uris": {"android": "https://dc.lft.to/lastmile_qr_scan", "ios": "https://dc.lft.to/lastmile_qr_scan"}, "lon": -76.99815733333334, "fusion_lat": 0.0}, {"name": "4aa255ff7e214d57ee68d2f42eaece26", "fusion_lon": 0.0, "lat": 38.834352, "is_reserved": 0, "type": "electric_bike", "bike_id": "4aa255ff7e214d57ee68d2f42eaece26", "is_disabled": 0, "rental_uris": {"android": "https://dc.lft.to/lastmile_qr_scan", "ios": "https://dc.lft.to/lastmile_qr_scan"}, "lon": -77.103545, "fusion_lat": 0.0}, {"name": "57c0e9afa6ccb027a7d0756db0baed98", "fusion_lon": 0.0, "lat": 38.919885, "is_reserved": 0, "type": "electric_scooter", "bike_id": "57c0e9afa6ccb027a7d0756db0baed98", "is_disabled": 0, "rental_uris": {"android": "https://dc.lft.to/lastmile_qr_scan", "ios": "https://dc.lft.to/lastmile_qr_scan"}, "lon": -77.0769795, "fusion_lat": 0.0}, {"name": "d7d6b898614011d612cc1298fa2e0d36", "fusion_lon": 0.0, "lat": 38.92253866666667, "is_reserved": 0, "type": "electric_scooter", "bike_id": "d7d6b898614011d612cc1298fa2e0d36", "is_disabled": 0, "rental_uris": {"android": "https://dc.lft.to/lastmile_qr_scan", "ios": "https://dc.lft.to/lastmile_qr_scan"}, "lon": -77.04276516666667, "fusion_lat": 0.0}, {"name": "80e487878ee0cd2303920b995fb33d12", "fusion_lon": 0.0, "lat": 38.995346, "is_reserved": 0, "type": "electric_bike", "bike_id": "80e487878ee0cd2303920b995fb33d12", "is_disabled": 0, "rental_uris": {"android": "https://dc.lft.to/lastmile_qr_scan", "ios": "https://dc.lft.to/lastmile_qr_scan"}, "lon": -77.06944133333333, "fusion_lat": 0.0}, {"name": "ba1ad9680fb2e6739ed100c45ead9694", "fusion_lon": 0.0, "lat": 38.895102333333334, "is_reserved": 0, "type": "electric_scooter", "bike_id": "ba1ad9680fb2e6739ed100c45ead9694", "is_disabled": 0, "rental_uris": {"android": "https://dc.lft.to/lastmile_qr_scan", "ios": "https://dc.lft.to/lastmile_qr_scan"}, "lon": -76.93472783333333, "fusion_lat": 0.0}, {"name": "81d52dc74ec0dc5b0d29d96a10fc66bd", "fusion_lon": 0.0, "lat": 38.911157, "is_reserved": 0, "type": "electric_scooter", "bike_id": "81d52dc74ec0dc5b0d29d96a10fc66bd", "is_disabled": 0, "rental_uris": {"android": "https://dc.lft.to/lastmile_qr_scan", "ios": "https://dc.lft.to/lastmile_qr_scan"}, "lon": -77.03830866666667, "fusion_lat": 0.0}, {"name": "e50ab0b46147f592b58954f8d44aee6a", "fusion_lon": 0.0, "lat": 38.882262, "is_reserved": 0, "type": "electric_bike", "bike_id": "e50ab0b46147f592b58954f8d44aee6a", "is_disabled": 0, "rental_uris": {"android": "https://dc.lft.to/lastmile_qr_scan", "ios": "https://dc.lft.to/lastmile_qr_scan"}, "lon": -77.1173695, "fusion_lat": 0.0}, {"name": "8f175657f29134959445cc548582603b", "fusion_lon": 0.0, "lat": 38.926242, "is_reserved": 0, "type": "electric_scooter", "bike_id": "8f175657f29134959445cc548582603b", "is_disabled": 0, "rental_uris": {"android": "https://dc.lft.to/lastmile_qr_scan", "ios": "https://dc.lft.to/lastmile_qr_scan"}, "lon": -77.04332316666667, "fusion_lat": 0.0}, {"name": "ffd445f9fd6dc605a6e60cc0cdaa9730", "fusion_lon": 0.0, "lat": 38.89226133333333, "is_reserved": 0, "type": "electric_scooter", "bike_id": "ffd445f9fd6dc605a6e60cc0cdaa9730", "is_disabled": 0, "rental_uris": {"android": "https://dc.lft.to/lastmile_qr_scan", "ios": "https://dc.lft.to/lastmile_qr_scan"}, "lon": -77.02230533333334, "fusion_lat": 0.0}, {"name": "13000ed822555250534acbbbcb6d4583", "fusion_lon": 0.0, "lat": 38.92240433333333, "is_reserved": 0, "type": "electric_scooter", "bike_id": "13000ed822555250534acbbbcb6d4583", "is_disabled": 0, "rental_uris": {"android": "https://dc.lft.to/lastmile_qr_scan", "ios": "https://dc.lft.to/lastmile_qr_scan"}, "lon": -77.03349916666667, "fusion_lat": 0.0}, {"name": "6dbc357d2fccd8734c3616626b0611da", "fusion_lon": 0.0, "lat": 38.91021383333333, "is_reserved": 0, "type": "electric_scooter", "bike_id": "6dbc357d2fccd8734c3616626b0611da", "is_disabled": 0, "rental_uris": {"android": "https://dc.lft.to/lastmile_qr_scan", "ios": "https://dc.lft.to/lastmile_qr_scan"}, "lon": -77.0091735, "fusion_lat": 0.0}, {"name": "a4477e04b216059801cb90844f4957d0", "fusion_lon": 0.0, "lat": 38.8935855, "is_reserved": 0, "type": "electric_scooter", "bike_id": "a4477e04b216059801cb90844f4957d0", "is_disabled": 0, "rental_uris": {"android": "https://dc.lft.to/lastmile_qr_scan", "ios": "https://dc.lft.to/lastmile_qr_scan"}, "lon": -76.94933333333333, "fusion_lat": 0.0}, {"name": "6643f9a3162bc8f5041086f89fbec55e", "fusion_lon": 0.0, "lat": 38.91418083333333, "is_reserved": 0, "type": "electric_scooter", "bike_id": "6643f9a3162bc8f5041086f89fbec55e", "is_disabled": 0, "rental_uris": {"android": "https://dc.lft.to/lastmile_qr_scan", "ios": "https://dc.lft.to/lastmile_qr_scan"}, "lon": -77.031752, "fusion_lat": 0.0}, {"name": "38d56791282031bcf29f7502d81371d1", "fusion_lon": 0.0, "lat": 38.89719933333333, "is_reserved": 0, "type": "electric_scooter", "bike_id": "38d56791282031bcf29f7502d81371d1", "is_disabled": 0, "rental_uris": {"android": "https://dc.lft.to/lastmile_qr_scan", "ios": "https://dc.lft.to/lastmile_qr_scan"}, "lon": -77.00802616666667, "fusion_lat": 0.0}, {"name": "5f2945737a78ee5cfa6b4eb62002c618", "fusion_lon": 0.0, "lat": 38.90009366666666, "is_reserved": 0, "type": "electric_scooter", "bike_id": "5f2945737a78ee5cfa6b4eb62002c618", "is_disabled": 0, "rental_uris": {"android": "https://dc.lft.to/lastmile_qr_scan", "ios": "https://dc.lft.to/lastmile_qr_scan"}, "lon": -76.9962915, "fusion_lat": 0.0}, {"name": "a149485985ab1463eb559285c2c656be", "fusion_lon": 0.0, "lat": 38.88247616666666, "is_reserved": 0, "type": "electric_bike", "bike_id": "a149485985ab1463eb559285c2c656be", "is_disabled": 0, "rental_uris": {"android": "https://dc.lft.to/lastmile_qr_scan", "ios": "https://dc.lft.to/lastmile_qr_scan"}, "lon": -76.96260383333333, "fusion_lat": 0.0}, {"name": "cbbbdb8a24c0a33666aabd5f14cd7de3", "fusion_lon": 0.0, "lat": 38.916363, "is_reserved": 0, "type": "electric_scooter", "bike_id": "cbbbdb8a24c0a33666aabd5f14cd7de3", "is_disabled": 0, "rental_uris": {"android": "https://dc.lft.to/lastmile_qr_scan", "ios": "https://dc.lft.to/lastmile_qr_scan"}, "lon": -77.03854233333334, "fusion_lat": 0.0}, {"name": "50c769d03c039b01890aec515b37ec5c", "fusion_lon": 0.0, "lat": 38.89497516666667, "is_reserved": 0, "type": "electric_bike", "bike_id": "50c769d03c039b01890aec515b37ec5c", "is_disabled": 0, "rental_uris": {"android": "https://dc.lft.to/lastmile_qr_scan", "ios": "https://dc.lft.to/lastmile_qr_scan"}, "lon": -77.07116283333333, "fusion_lat": 0.0}, {"name": "8e46b23cc34ecf38a9848b12bda77d78", "fusion_lon": 0.0, "lat": 39.043086, "is_reserved": 0, "type": "electric_bike", "bike_id": "8e46b23cc34ecf38a9848b12bda77d78", "is_disabled": 0, "rental_uris": {"android": "https://dc.lft.to/lastmile_qr_scan", "ios": "https://dc.lft.to/lastmile_qr_scan"}, "lon": -77.05160316666667, "fusion_lat": 0.0}, {"name": "fa4acc54dd50e324644ac62dbc41bd9c", "fusion_lon": 0.0, "lat": 38.9058345, "is_reserved": 0, "type": "electric_scooter", "bike_id": "fa4acc54dd50e324644ac62dbc41bd9c", "is_disabled": 0, "rental_uris": {"android": "https://dc.lft.to/lastmile_qr_scan", "ios": "https://dc.lft.to/lastmile_qr_scan"}, "lon": -77.0414195, "fusion_lat": 0.0}, {"name": "f725a337e2b816a25f9eb89e9510e425", "fusion_lon": 0.0, "lat": 38.860612833333334, "is_reserved": 0, "type": "electric_scooter", "bike_id": "f725a337e2b816a25f9eb89e9510e425", "is_disabled": 0, "rental_uris": {"android": "https://dc.lft.to/lastmile_qr_scan", "ios": "https://dc.lft.to/lastmile_qr_scan"}, "lon": -76.98504233333334, "fusion_lat": 0.0}, {"name": "0f8ac27143858c2a232821d2595e1512", "fusion_lon": 0.0, "lat": 38.89614866666667, "is_reserved": 0, "type": "electric_scooter", "bike_id": "0f8ac27143858c2a232821d2595e1512", "is_disabled": 0, "rental_uris": {"android": "https://dc.lft.to/lastmile_qr_scan", "ios": "https://dc.lft.to/lastmile_qr_scan"}, "lon": -77.04596616666667, "fusion_lat": 0.0}, {"name": "2fc3384bf807f101e776d17683a0bc58", "fusion_lon": 0.0, "lat": 38.92223583333333, "is_reserved": 0, "type": "electric_scooter", "bike_id": "2fc3384bf807f101e776d17683a0bc58", "is_disabled": 0, "rental_uris": {"android": "https://dc.lft.to/lastmile_qr_scan", "ios": "https://dc.lft.to/lastmile_qr_scan"}, "lon": -77.03668266666666, "fusion_lat": 0.0}, {"name": "c2c9ecd02580bce8328890cb5986b8f3", "fusion_lon": 0.0, "lat": 38.89231766666666, "is_reserved": 0, "type": "electric_scooter", "bike_id": "c2c9ecd02580bce8328890cb5986b8f3", "is_disabled": 0, "rental_uris": {"android": "https://dc.lft.to/lastmile_qr_scan", "ios": "https://dc.lft.to/lastmile_qr_scan"}, "lon": -77.04693433333334, "fusion_lat": 0.0}, {"name": "7097fecbf10becc657a6f6d3edbcbc15", "fusion_lon": 0.0, "lat": 38.9086415, "is_reserved": 0, "type": "electric_scooter", "bike_id": "7097fecbf10becc657a6f6d3edbcbc15", "is_disabled": 0, "rental_uris": {"android": "https://dc.lft.to/lastmile_qr_scan", "ios": "https://dc.lft.to/lastmile_qr_scan"}, "lon": -77.024134, "fusion_lat": 0.0}, {"name": "e1528af8387b449f1cd577a469959873", "fusion_lon": 0.0, "lat": 38.9067555, "is_reserved": 0, "type": "electric_scooter", "bike_id": "e1528af8387b449f1cd577a469959873", "is_disabled": 0, "rental_uris": {"android": "https://dc.lft.to/lastmile_qr_scan", "ios": "https://dc.lft.to/lastmile_qr_scan"}, "lon": -77.071198, "fusion_lat": 0.0}, {"name": "625ac0de685dbafaed3a4510325b2d58", "fusion_lon": 0.0, "lat": 38.91991216666667, "is_reserved": 0, "type": "electric_scooter", "bike_id": "625ac0de685dbafaed3a4510325b2d58", "is_disabled": 0, "rental_uris": {"android": "https://dc.lft.to/lastmile_qr_scan", "ios": "https://dc.lft.to/lastmile_qr_scan"}, "lon": -77.04180033333333, "fusion_lat": 0.0}, {"name": "ec530f8442fa15f5bc41b4a96781515c", "fusion_lon": 0.0, "lat": 38.902403, "is_reserved": 0, "type": "electric_scooter", "bike_id": "ec530f8442fa15f5bc41b4a96781515c", "is_disabled": 0, "rental_uris": {"android": "https://dc.lft.to/lastmile_qr_scan", "ios": "https://dc.lft.to/lastmile_qr_scan"}, "lon": -77.00896166666666, "fusion_lat": 0.0}, {"name": "b5f86be6a1042dc6090e58800e58bc3d", "fusion_lon": 0.0, "lat": 38.915434833333336, "is_reserved": 0, "type": "electric_scooter", "bike_id": "b5f86be6a1042dc6090e58800e58bc3d", "is_disabled": 0, "rental_uris": {"android": "https://dc.lft.to/lastmile_qr_scan", "ios": "https://dc.lft.to/lastmile_qr_scan"}, "lon": -76.9701315, "fusion_lat": 0.0}, {"name": "a58f3366090a2d73ab23f0f427f7067a", "fusion_lon": 0.0, "lat": 38.921700666666666, "is_reserved": 0, "type": "electric_scooter", "bike_id": "a58f3366090a2d73ab23f0f427f7067a", "is_disabled": 0, "rental_uris": {"android": "https://dc.lft.to/lastmile_qr_scan", "ios": "https://dc.lft.to/lastmile_qr_scan"}, "lon": -77.03261983333333, "fusion_lat": 0.0}, {"name": "b9666dba2660251869519ae7202e904e", "fusion_lon": 0.0, "lat": 38.910295, "is_reserved": 0, "type": "electric_scooter", "bike_id": "b9666dba2660251869519ae7202e904e", "is_disabled": 0, "rental_uris": {"android": "https://dc.lft.to/lastmile_qr_scan", "ios": "https://dc.lft.to/lastmile_qr_scan"}, "lon": -77.007562, "fusion_lat": 0.0}, {"name": "730fbdfeae92941f28b652dc82aae430", "fusion_lon": 0.0, "lat": 38.7961575, "is_reserved": 0, "type": "electric_bike", "bike_id": "730fbdfeae92941f28b652dc82aae430", "is_disabled": 0, "rental_uris": {"android": "https://dc.lft.to/lastmile_qr_scan", "ios": "https://dc.lft.to/lastmile_qr_scan"}, "lon": -76.997439, "fusion_lat": 0.0}, {"name": "e80adb7d21d73a8e458deeb7a51855a6", "fusion_lon": 0.0, "lat": 38.916983333333334, "is_reserved": 0, "type": "electric_scooter", "bike_id": "e80adb7d21d73a8e458deeb7a51855a6", "is_disabled": 0, "rental_uris": {"android": "https://dc.lft.to/lastmile_qr_scan", "ios": "https://dc.lft.to/lastmile_qr_scan"}, "lon": -77.02596566666666, "fusion_lat": 0.0}, {"name": "7548caf104eb47b3632d90fa171ab7c2", "fusion_lon": 0.0, "lat": 38.9323405, "is_reserved": 0, "type": "electric_scooter", "bike_id": "7548caf104eb47b3632d90fa171ab7c2", "is_disabled": 0, "rental_uris": {"android": "https://dc.lft.to/lastmile_qr_scan", "ios": "https://dc.lft.to/lastmile_qr_scan"}, "lon": -77.03869866666666, "fusion_lat": 0.0}, {"name": "7ea3f1da83cc7a874238c7aa9a29fb26", "fusion_lon": 0.0, "lat": 38.9078895, "is_reserved": 0, "type": "electric_scooter", "bike_id": "7ea3f1da83cc7a874238c7aa9a29fb26", "is_disabled": 0, "rental_uris": {"android": "https://dc.lft.to/lastmile_qr_scan", "ios": "https://dc.lft.to/lastmile_qr_scan"}, "lon": -77.00201116666666, "fusion_lat": 0.0}, {"name": "f395aa973ba6e88cea3c8ad89c19527d", "fusion_lon": 0.0, "lat": 38.89329466666667, "is_reserved": 0, "type": "electric_scooter", "bike_id": "f395aa973ba6e88cea3c8ad89c19527d", "is_disabled": 0, "rental_uris": {"android": "https://dc.lft.to/lastmile_qr_scan", "ios": "https://dc.lft.to/lastmile_qr_scan"}, "lon": -77.01814366666666, "fusion_lat": 0.0}, {"name": "efc39c2c9a39cafd6597ebc65103b839", "fusion_lon": 0.0, "lat": 38.92422466666667, "is_reserved": 0, "type": "electric_scooter", "bike_id": "efc39c2c9a39cafd6597ebc65103b839", "is_disabled": 0, "rental_uris": {"android": "https://dc.lft.to/lastmile_qr_scan", "ios": "https://dc.lft.to/lastmile_qr_scan"}, "lon": -77.05065483333334, "fusion_lat": 0.0}, {"name": "5dd15f2441b92d86bbb7cdd95ffe3609", "fusion_lon": 0.0, "lat": 38.88492083333333, "is_reserved": 0, "type": "electric_scooter", "bike_id": "5dd15f2441b92d86bbb7cdd95ffe3609", "is_disabled": 0, "rental_uris": {"android": "https://dc.lft.to/lastmile_qr_scan", "ios": "https://dc.lft.to/lastmile_qr_scan"}, "lon": -77.00920133333334, "fusion_lat": 0.0}, {"name": "66f527d004f5449beea90ad477bc702b", "fusion_lon": 0.0, "lat": 38.88897983333333, "is_reserved": 0, "type": "electric_scooter", "bike_id": "66f527d004f5449beea90ad477bc702b", "is_disabled": 0, "rental_uris": {"android": "https://dc.lft.to/lastmile_qr_scan", "ios": "https://dc.lft.to/lastmile_qr_scan"}, "lon": -76.947772, "fusion_lat": 0.0}, {"name": "f05588a9ba4d8e01bdfe6f23fce3643b", "fusion_lon": 0.0, "lat": 38.905914, "is_reserved": 0, "type": "electric_scooter", "bike_id": "f05588a9ba4d8e01bdfe6f23fce3643b", "is_disabled": 0, "rental_uris": {"android": "https://dc.lft.to/lastmile_qr_scan", "ios": "https://dc.lft.to/lastmile_qr_scan"}, "lon": -77.046793, "fusion_lat": 0.0}, {"name": "5103083c776e842042a0b1f4711b157d", "fusion_lon": 0.0, "lat": 38.94273783333333, "is_reserved": 0, "type": "electric_bike", "bike_id": "5103083c776e842042a0b1f4711b157d", "is_disabled": 0, "rental_uris": {"android": "https://dc.lft.to/lastmile_qr_scan", "ios": "https://dc.lft.to/lastmile_qr_scan"}, "lon": -77.0284005, "fusion_lat": 0.0}, {"name": "d931b5b97d339a8867b3ed51840cd7b3", "fusion_lon": 0.0, "lat": 38.900873, "is_reserved": 0, "type": "electric_scooter", "bike_id": "d931b5b97d339a8867b3ed51840cd7b3", "is_disabled": 0, "rental_uris": {"android": "https://dc.lft.to/lastmile_qr_scan", "ios": "https://dc.lft.to/lastmile_qr_scan"}, "lon": -76.98336933333333, "fusion_lat": 0.0}, {"name": "0f425a2ebecdd422345a71fe092ffc41", "fusion_lon": 0.0, "lat": 38.90525983333333, "is_reserved": 0, "type": "electric_scooter", "bike_id": "0f425a2ebecdd422345a71fe092ffc41", "is_disabled": 0, "rental_uris": {"android": "https://dc.lft.to/lastmile_qr_scan", "ios": "https://dc.lft.to/lastmile_qr_scan"}, "lon": -76.98093083333333, "fusion_lat": 0.0}, {"name": "342f1d06d3628d002b6b9d2f57878eda", "fusion_lon": 0.0, "lat": 38.935181, "is_reserved": 0, "type": "electric_scooter", "bike_id": "342f1d06d3628d002b6b9d2f57878eda", "is_disabled": 0, "rental_uris": {"android": "https://dc.lft.to/lastmile_qr_scan", "ios": "https://dc.lft.to/lastmile_qr_scan"}, "lon": -77.03287483333334, "fusion_lat": 0.0}, {"name": "e89103b7d0a6be8137e1ee2528423a1f", "fusion_lon": 0.0, "lat": 38.906440833333335, "is_reserved": 0, "type": "electric_scooter", "bike_id": "e89103b7d0a6be8137e1ee2528423a1f", "is_disabled": 0, "rental_uris": {"android": "https://dc.lft.to/lastmile_qr_scan", "ios": "https://dc.lft.to/lastmile_qr_scan"}, "lon": -77.03853333333333, "fusion_lat": 0.0}, {"name": "8bd476dcee84f7e06f2b54f0386bffda", "fusion_lon": 0.0, "lat": 38.9172365, "is_reserved": 0, "type": "electric_scooter", "bike_id": "8bd476dcee84f7e06f2b54f0386bffda", "is_disabled": 0, "rental_uris": {"android": "https://dc.lft.to/lastmile_qr_scan", "ios": "https://dc.lft.to/lastmile_qr_scan"}, "lon": -77.0184365, "fusion_lat": 0.0}, {"name": "d0672bcd2b770283b5543823cab02d80", "fusion_lon": 0.0, "lat": 38.857916333333336, "is_reserved": 0, "type": "electric_bike", "bike_id": "d0672bcd2b770283b5543823cab02d80", "is_disabled": 0, "rental_uris": {"android": "https://dc.lft.to/lastmile_qr_scan", "ios": "https://dc.lft.to/lastmile_qr_scan"}, "lon": -77.12019166666667, "fusion_lat": 0.0}, {"name": "855a34f51aa7138bf886ce4558435b4a", "fusion_lon": 0.0, "lat": 38.92318516666667, "is_reserved": 0, "type": "electric_scooter", "bike_id": "855a34f51aa7138bf886ce4558435b4a", "is_disabled": 0, "rental_uris": {"android": "https://dc.lft.to/lastmile_qr_scan", "ios": "https://dc.lft.to/lastmile_qr_scan"}, "lon": -77.04182933333334, "fusion_lat": 0.0}, {"name": "896ae952f802037614caae9fd36ef16a", "fusion_lon": 0.0, "lat": 38.86263533333333, "is_reserved": 0, "type": "electric_bike", "bike_id": "896ae952f802037614caae9fd36ef16a", "is_disabled": 0, "rental_uris": {"android": "https://dc.lft.to/lastmile_qr_scan", "ios": "https://dc.lft.to/lastmile_qr_scan"}, "lon": -76.98343533333333, "fusion_lat": 0.0}, {"name": "4ef184e636964bb1172ba8f09ad800e1", "fusion_lon": 0.0, "lat": 38.916808833333334, "is_reserved": 0, "type": "electric_scooter", "bike_id": "4ef184e636964bb1172ba8f09ad800e1", "is_disabled": 0, "rental_uris": {"android": "https://dc.lft.to/lastmile_qr_scan", "ios": "https://dc.lft.to/lastmile_qr_scan"}, "lon": -77.023311, "fusion_lat": 0.0}, {"name": "e18ca6709e1271eee1a4fc984fe5b6b5", "fusion_lon": 0.0, "lat": 38.89544683333333, "is_reserved": 0, "type": "electric_scooter", "bike_id": "e18ca6709e1271eee1a4fc984fe5b6b5", "is_disabled": 0, "rental_uris": {"android": "https://dc.lft.to/lastmile_qr_scan", "ios": "https://dc.lft.to/lastmile_qr_scan"}, "lon": -76.92949766666666, "fusion_lat": 0.0}, {"name": "82f27c05c0ce4b0249218fe6dc2f7010", "fusion_lon": 0.0, "lat": 38.90011633333334, "is_reserved": 0, "type": "electric_scooter", "bike_id": "82f27c05c0ce4b0249218fe6dc2f7010", "is_disabled": 0, "rental_uris": {"android": "https://dc.lft.to/lastmile_qr_scan", "ios": "https://dc.lft.to/lastmile_qr_scan"}, "lon": -77.026133, "fusion_lat": 0.0}, {"name": "617960017097f0b3bb56141ec828fdae", "fusion_lon": 0.0, "lat": 38.899302166666665, "is_reserved": 0, "type": "electric_scooter", "bike_id": "617960017097f0b3bb56141ec828fdae", "is_disabled": 0, "rental_uris": {"android": "https://dc.lft.to/lastmile_qr_scan", "ios": "https://dc.lft.to/lastmile_qr_scan"}, "lon": -77.0035975, "fusion_lat": 0.0}, {"name": "638d24ccb637efe9df49f3de6d972d5f", "fusion_lon": 0.0, "lat": 38.9297175, "is_reserved": 0, "type": "electric_scooter", "bike_id": "638d24ccb637efe9df49f3de6d972d5f", "is_disabled": 0, "rental_uris": {"android": "https://dc.lft.to/lastmile_qr_scan", "ios": "https://dc.lft.to/lastmile_qr_scan"}, "lon": -77.05519266666667, "fusion_lat": 0.0}, {"name": "4d5339ee75fd96acc1453e76e14762bf", "fusion_lon": 0.0, "lat": 38.90935966666667, "is_reserved": 0, "type": "electric_scooter", "bike_id": "4d5339ee75fd96acc1453e76e14762bf", "is_disabled": 0, "rental_uris": {"android": "https://dc.lft.to/lastmile_qr_scan", "ios": "https://dc.lft.to/lastmile_qr_scan"}, "lon": -77.02689, "fusion_lat": 0.0}, {"name": "8cb66981631a6c327e65cb9e87b99fde", "fusion_lon": 0.0, "lat": 38.89371383333334, "is_reserved": 0, "type": "electric_scooter", "bike_id": "8cb66981631a6c327e65cb9e87b99fde", "is_disabled": 0, "rental_uris": {"android": "https://dc.lft.to/lastmile_qr_scan", "ios": "https://dc.lft.to/lastmile_qr_scan"}, "lon": -77.01549916666667, "fusion_lat": 0.0}, {"name": "41f9f873241613f6a4ca2596ab8ceacf", "fusion_lon": 0.0, "lat": 38.90672966666666, "is_reserved": 0, "type": "electric_scooter", "bike_id": "41f9f873241613f6a4ca2596ab8ceacf", "is_disabled": 0, "rental_uris": {"android": "https://dc.lft.to/lastmile_qr_scan", "ios": "https://dc.lft.to/lastmile_qr_scan"}, "lon": -77.07139533333333, "fusion_lat": 0.0}, {"name": "f438f502dc3fedc32cd37d39d068176f", "fusion_lon": 0.0, "lat": 38.916882666666666, "is_reserved": 0, "type": "electric_scooter", "bike_id": "f438f502dc3fedc32cd37d39d068176f", "is_disabled": 0, "rental_uris": {"android": "https://dc.lft.to/lastmile_qr_scan", "ios": "https://dc.lft.to/lastmile_qr_scan"}, "lon": -77.04145933333334, "fusion_lat": 0.0}, {"name": "9d1cd8dcb364595d5e70d835a3017c3d", "fusion_lon": 0.0, "lat": 38.8492765, "is_reserved": 0, "type": "electric_bike", "bike_id": "9d1cd8dcb364595d5e70d835a3017c3d", "is_disabled": 0, "rental_uris": {"android": "https://dc.lft.to/lastmile_qr_scan", "ios": "https://dc.lft.to/lastmile_qr_scan"}, "lon": -77.07800533333334, "fusion_lat": 0.0}, {"name": "ea8172c41d9d660712c6afffc67bdf65", "fusion_lon": 0.0, "lat": 38.866596666666666, "is_reserved": 0, "type": "electric_scooter", "bike_id": "ea8172c41d9d660712c6afffc67bdf65", "is_disabled": 0, "rental_uris": {"android": "https://dc.lft.to/lastmile_qr_scan", "ios": "https://dc.lft.to/lastmile_qr_scan"}, "lon": -76.98887383333333, "fusion_lat": 0.0}, {"name": "fcf9f026a1f2b2e27bd481fe06d904d6", "fusion_lon": 0.0, "lat": 38.95656266666667, "is_reserved": 0, "type": "electric_bike", "bike_id": "fcf9f026a1f2b2e27bd481fe06d904d6", "is_disabled": 0, "rental_uris": {"android": "https://dc.lft.to/lastmile_qr_scan", "ios": "https://dc.lft.to/lastmile_qr_scan"}, "lon": -77.01281683333333, "fusion_lat": 0.0}, {"name": "aa5ba41d243c6334e89d7566e89ceedc", "fusion_lon": 0.0, "lat": 38.862458833333335, "is_reserved": 0, "type": "electric_scooter", "bike_id": "aa5ba41d243c6334e89d7566e89ceedc", "is_disabled": 0, "rental_uris": {"android": "https://dc.lft.to/lastmile_qr_scan", "ios": "https://dc.lft.to/lastmile_qr_scan"}, "lon": -76.994936, "fusion_lat": 0.0}, {"name": "20128d16855d2eb97f82ca22e830c9bd", "fusion_lon": 0.0, "lat": 38.9020775, "is_reserved": 0, "type": "electric_scooter", "bike_id": "20128d16855d2eb97f82ca22e830c9bd", "is_disabled": 0, "rental_uris": {"android": "https://dc.lft.to/lastmile_qr_scan", "ios": "https://dc.lft.to/lastmile_qr_scan"}, "lon": -77.02186283333333, "fusion_lat": 0.0}, {"name": "7eb16ff8b1559fc1fb928490f400df0b", "fusion_lon": 0.0, "lat": 38.9254055, "is_reserved": 0, "type": "electric_scooter", "bike_id": "7eb16ff8b1559fc1fb928490f400df0b", "is_disabled": 0, "rental_uris": {"android": "https://dc.lft.to/lastmile_qr_scan", "ios": "https://dc.lft.to/lastmile_qr_scan"}, "lon": -77.03291316666666, "fusion_lat": 0.0}, {"name": "f1589e3d3fde2e3b2cd76adcb5bb448c", "fusion_lon": 0.0, "lat": 38.8651825, "is_reserved": 0, "type": "electric_scooter", "bike_id": "f1589e3d3fde2e3b2cd76adcb5bb448c", "is_disabled": 0, "rental_uris": {"android": "https://dc.lft.to/lastmile_qr_scan", "ios": "https://dc.lft.to/lastmile_qr_scan"}, "lon": -76.97347116666667, "fusion_lat": 0.0}, {"name": "7240399723acd6db116c5b8a06993684", "fusion_lon": 0.0, "lat": 38.9051725, "is_reserved": 0, "type": "electric_scooter", "bike_id": "7240399723acd6db116c5b8a06993684", "is_disabled": 0, "rental_uris": {"android": "https://dc.lft.to/lastmile_qr_scan", "ios": "https://dc.lft.to/lastmile_qr_scan"}, "lon": -77.00136516666667, "fusion_lat": 0.0}, {"name": "1355a4c93560765024b50ca0a938682e", "fusion_lon": 0.0, "lat": 38.91195183333333, "is_reserved": 0, "type": "electric_scooter", "bike_id": "1355a4c93560765024b50ca0a938682e", "is_disabled": 0, "rental_uris": {"android": "https://dc.lft.to/lastmile_qr_scan", "ios": "https://dc.lft.to/lastmile_qr_scan"}, "lon": -77.03835633333334, "fusion_lat": 0.0}, {"name": "206911868e0db78d909b5cfc2675a4dc", "fusion_lon": 0.0, "lat": 38.86522333333333, "is_reserved": 0, "type": "electric_bike", "bike_id": "206911868e0db78d909b5cfc2675a4dc", "is_disabled": 0, "rental_uris": {"android": "https://dc.lft.to/lastmile_qr_scan", "ios": "https://dc.lft.to/lastmile_qr_scan"}, "lon": -76.97341483333334, "fusion_lat": 0.0}, {"name": "80aeadbcfecdd814052e2f68340141f2", "fusion_lon": 0.0, "lat": 38.928629, "is_reserved": 0, "type": "electric_scooter", "bike_id": "80aeadbcfecdd814052e2f68340141f2", "is_disabled": 0, "rental_uris": {"android": "https://dc.lft.to/lastmile_qr_scan", "ios": "https://dc.lft.to/lastmile_qr_scan"}, "lon": -77.036553, "fusion_lat": 0.0}, {"name": "5bd2ddc99403039ae6fe3f314eeee40e", "fusion_lon": 0.0, "lat": 38.8980985, "is_reserved": 0, "type": "electric_scooter", "bike_id": "5bd2ddc99403039ae6fe3f314eeee40e", "is_disabled": 0, "rental_uris": {"android": "https://dc.lft.to/lastmile_qr_scan", "ios": "https://dc.lft.to/lastmile_qr_scan"}, "lon": -77.02947516666667, "fusion_lat": 0.0}, {"name": "f78bb4fd8792eb30237ebe6572a98699", "fusion_lon": 0.0, "lat": 38.9216195, "is_reserved": 0, "type": "electric_scooter", "bike_id": "f78bb4fd8792eb30237ebe6572a98699", "is_disabled": 0, "rental_uris": {"android": "https://dc.lft.to/lastmile_qr_scan", "ios": "https://dc.lft.to/lastmile_qr_scan"}, "lon": -77.03517116666667, "fusion_lat": 0.0}, {"name": "51d40e466d654aca9507a869b7e2ea2e", "fusion_lon": 0.0, "lat": 38.911182333333336, "is_reserved": 0, "type": "electric_scooter", "bike_id": "51d40e466d654aca9507a869b7e2ea2e", "is_disabled": 0, "rental_uris": {"android": "https://dc.lft.to/lastmile_qr_scan", "ios": "https://dc.lft.to/lastmile_qr_scan"}, "lon": -77.04359266666667, "fusion_lat": 0.0}, {"name": "3250a9af3568b100f1089f55cfba6842", "fusion_lon": 0.0, "lat": 38.897264166666666, "is_reserved": 0, "type": "electric_scooter", "bike_id": "3250a9af3568b100f1089f55cfba6842", "is_disabled": 0, "rental_uris": {"android": "https://dc.lft.to/lastmile_qr_scan", "ios": "https://dc.lft.to/lastmile_qr_scan"}, "lon": -77.00785333333333, "fusion_lat": 0.0}, {"name": "258a7a9860cf4adf3492d278a441b18c", "fusion_lon": 0.0, "lat": 38.903777, "is_reserved": 0, "type": "electric_scooter", "bike_id": "258a7a9860cf4adf3492d278a441b18c", "is_disabled": 0, "rental_uris": {"android": "https://dc.lft.to/lastmile_qr_scan", "ios": "https://dc.lft.to/lastmile_qr_scan"}, "lon": -77.02951883333333, "fusion_lat": 0.0}, {"name": "264ad9c5d734aff19bee117348f4dca9", "fusion_lon": 0.0, "lat": 38.919954, "is_reserved": 0, "type": "electric_scooter", "bike_id": "264ad9c5d734aff19bee117348f4dca9", "is_disabled": 0, "rental_uris": {"android": "https://dc.lft.to/lastmile_qr_scan", "ios": "https://dc.lft.to/lastmile_qr_scan"}, "lon": -77.0239645, "fusion_lat": 0.0}, {"name": "c757de6b2effffcf6d5ccd61bad8911c", "fusion_lon": 0.0, "lat": 38.911447, "is_reserved": 0, "type": "electric_scooter", "bike_id": "c757de6b2effffcf6d5ccd61bad8911c", "is_disabled": 0, "rental_uris": {"android": "https://dc.lft.to/lastmile_qr_scan", "ios": "https://dc.lft.to/lastmile_qr_scan"}, "lon": -77.02394933333333, "fusion_lat": 0.0}, {"name": "9146e0bc44398999a1f344d3b958007b", "fusion_lon": 0.0, "lat": 38.9150265, "is_reserved": 0, "type": "electric_scooter", "bike_id": "9146e0bc44398999a1f344d3b958007b", "is_disabled": 0, "rental_uris": {"android": "https://dc.lft.to/lastmile_qr_scan", "ios": "https://dc.lft.to/lastmile_qr_scan"}, "lon": -77.04550383333333, "fusion_lat": 0.0}, {"name": "07ea3dc3129efb770fde740bd6843b70", "fusion_lon": 0.0, "lat": 38.98455933333334, "is_reserved": 0, "type": "electric_bike", "bike_id": "07ea3dc3129efb770fde740bd6843b70", "is_disabled": 0, "rental_uris": {"android": "https://dc.lft.to/lastmile_qr_scan", "ios": "https://dc.lft.to/lastmile_qr_scan"}, "lon": -77.02676516666666, "fusion_lat": 0.0}, {"name": "1a73ca6683e7bdc2663a8e38a0e0c6aa", "fusion_lon": 0.0, "lat": 38.916833, "is_reserved": 0, "type": "electric_scooter", "bike_id": "1a73ca6683e7bdc2663a8e38a0e0c6aa", "is_disabled": 0, "rental_uris": {"android": "https://dc.lft.to/lastmile_qr_scan", "ios": "https://dc.lft.to/lastmile_qr_scan"}, "lon": -77.036877, "fusion_lat": 0.0}, {"name": "bc2e1974b79b7a9797df3f016f152f57", "fusion_lon": 0.0, "lat": 38.90705616666666, "is_reserved": 0, "type": "electric_scooter", "bike_id": "bc2e1974b79b7a9797df3f016f152f57", "is_disabled": 0, "rental_uris": {"android": "https://dc.lft.to/lastmile_qr_scan", "ios": "https://dc.lft.to/lastmile_qr_scan"}, "lon": -77.03510433333334, "fusion_lat": 0.0}, {"name": "879d0972053d67165469c6f856732852", "fusion_lon": 0.0, "lat": 38.92000933333333, "is_reserved": 0, "type": "electric_scooter", "bike_id": "879d0972053d67165469c6f856732852", "is_disabled": 0, "rental_uris": {"android": "https://dc.lft.to/lastmile_qr_scan", "ios": "https://dc.lft.to/lastmile_qr_scan"}, "lon": -77.0240675, "fusion_lat": 0.0}, {"name": "5f8373046d546c97d2986bf1c0915d94", "fusion_lon": 0.0, "lat": 38.898579833333336, "is_reserved": 0, "type": "electric_scooter", "bike_id": "5f8373046d546c97d2986bf1c0915d94", "is_disabled": 0, "rental_uris": {"android": "https://dc.lft.to/lastmile_qr_scan", "ios": "https://dc.lft.to/lastmile_qr_scan"}, "lon": -77.0238395, "fusion_lat": 0.0}, {"name": "c262a934fe9f15e1f0ce5505a647a11b", "fusion_lon": 0.0, "lat": 38.9017915, "is_reserved": 0, "type": "electric_scooter", "bike_id": "c262a934fe9f15e1f0ce5505a647a11b", "is_disabled": 0, "rental_uris": {"android": "https://dc.lft.to/lastmile_qr_scan", "ios": "https://dc.lft.to/lastmile_qr_scan"}, "lon": -76.9830385, "fusion_lat": 0.0}, {"name": "92c50d67f8c260fa75dc180766c807ad", "fusion_lon": 0.0, "lat": 38.9238585, "is_reserved": 0, "type": "electric_scooter", "bike_id": "92c50d67f8c260fa75dc180766c807ad", "is_disabled": 0, "rental_uris": {"android": "https://dc.lft.to/lastmile_qr_scan", "ios": "https://dc.lft.to/lastmile_qr_scan"}, "lon": -77.02059, "fusion_lat": 0.0}, {"name": "fecb36e7c69661433fffadb503c9c1a9", "fusion_lon": 0.0, "lat": 38.866468166666664, "is_reserved": 0, "type": "electric_scooter", "bike_id": "fecb36e7c69661433fffadb503c9c1a9", "is_disabled": 0, "rental_uris": {"android": "https://dc.lft.to/lastmile_qr_scan", "ios": "https://dc.lft.to/lastmile_qr_scan"}, "lon": -76.982658, "fusion_lat": 0.0}, {"name": "6cc1ed638bf9d74ba06e7dcf756e178c", "fusion_lon": 0.0, "lat": 38.901904, "is_reserved": 0, "type": "electric_scooter", "bike_id": "6cc1ed638bf9d74ba06e7dcf756e178c", "is_disabled": 0, "rental_uris": {"android": "https://dc.lft.to/lastmile_qr_scan", "ios": "https://dc.lft.to/lastmile_qr_scan"}, "lon": -76.98822866666667, "fusion_lat": 0.0}, {"name": "949eae4175647ef0138fd0e0cda24a6b", "fusion_lon": 0.0, "lat": 38.90598683333333, "is_reserved": 0, "type": "electric_scooter", "bike_id": "949eae4175647ef0138fd0e0cda24a6b", "is_disabled": 0, "rental_uris": {"android": "https://dc.lft.to/lastmile_qr_scan", "ios": "https://dc.lft.to/lastmile_qr_scan"}, "lon": -77.041666, "fusion_lat": 0.0}, {"name": "36e1557db8c8db4e6724be4da4c77d70", "fusion_lon": 0.0, "lat": 38.912812333333335, "is_reserved": 0, "type": "electric_scooter", "bike_id": "36e1557db8c8db4e6724be4da4c77d70", "is_disabled": 0, "rental_uris": {"android": "https://dc.lft.to/lastmile_qr_scan", "ios": "https://dc.lft.to/lastmile_qr_scan"}, "lon": -77.04502433333333, "fusion_lat": 0.0}, {"name": "ac98d7d72a66545dae3448d99829b1d6", "fusion_lon": 0.0, "lat": 38.927665, "is_reserved": 0, "type": "electric_scooter", "bike_id": "ac98d7d72a66545dae3448d99829b1d6", "is_disabled": 0, "rental_uris": {"android": "https://dc.lft.to/lastmile_qr_scan", "ios": "https://dc.lft.to/lastmile_qr_scan"}, "lon": -77.03265833333333, "fusion_lat": 0.0}, {"name": "02faa13bba9c825c34a64bebafd58743", "fusion_lon": 0.0, "lat": 38.934335, "is_reserved": 0, "type": "electric_scooter", "bike_id": "02faa13bba9c825c34a64bebafd58743", "is_disabled": 0, "rental_uris": {"android": "https://dc.lft.to/lastmile_qr_scan", "ios": "https://dc.lft.to/lastmile_qr_scan"}, "lon": -77.045407, "fusion_lat": 0.0}, {"name": "38438a56cf3f0b5d625e6138a32f8d6e", "fusion_lon": 0.0, "lat": 38.903143166666666, "is_reserved": 0, "type": "electric_scooter", "bike_id": "38438a56cf3f0b5d625e6138a32f8d6e", "is_disabled": 0, "rental_uris": {"android": "https://dc.lft.to/lastmile_qr_scan", "ios": "https://dc.lft.to/lastmile_qr_scan"}, "lon": -77.022229, "fusion_lat": 0.0}, {"name": "84d329128b31e439f4e6c7d3f809bdd2", "fusion_lon": 0.0, "lat": 38.94207016666667, "is_reserved": 0, "type": "electric_scooter", "bike_id": "84d329128b31e439f4e6c7d3f809bdd2", "is_disabled": 0, "rental_uris": {"android": "https://dc.lft.to/lastmile_qr_scan", "ios": "https://dc.lft.to/lastmile_qr_scan"}, "lon": -77.02518683333334, "fusion_lat": 0.0}, {"name": "72237c4bd9a9f251207739e3d833adcf", "fusion_lon": 0.0, "lat": 38.90407283333333, "is_reserved": 0, "type": "electric_scooter", "bike_id": "72237c4bd9a9f251207739e3d833adcf", "is_disabled": 0, "rental_uris": {"android": "https://dc.lft.to/lastmile_qr_scan", "ios": "https://dc.lft.to/lastmile_qr_scan"}, "lon": -77.04340783333333, "fusion_lat": 0.0}, {"name": "8ebc8b9acf5d22287adee3783455bc76", "fusion_lon": 0.0, "lat": 38.949956, "is_reserved": 0, "type": "electric_scooter", "bike_id": "8ebc8b9acf5d22287adee3783455bc76", "is_disabled": 0, "rental_uris": {"android": "https://dc.lft.to/lastmile_qr_scan", "ios": "https://dc.lft.to/lastmile_qr_scan"}, "lon": -77.03329733333334, "fusion_lat": 0.0}, {"name": "c0c76bb8bd304961c72df9b087b66b6b", "fusion_lon": 0.0, "lat": 38.91722266666667, "is_reserved": 0, "type": "electric_scooter", "bike_id": "c0c76bb8bd304961c72df9b087b66b6b", "is_disabled": 0, "rental_uris": {"android": "https://dc.lft.to/lastmile_qr_scan", "ios": "https://dc.lft.to/lastmile_qr_scan"}, "lon": -77.028154, "fusion_lat": 0.0}, {"name": "4c661db6d311fb602ebad07e1cada6fc", "fusion_lon": 0.0, "lat": 38.9568785, "is_reserved": 0, "type": "electric_bike", "bike_id": "4c661db6d311fb602ebad07e1cada6fc", "is_disabled": 0, "rental_uris": {"android": "https://dc.lft.to/lastmile_qr_scan", "ios": "https://dc.lft.to/lastmile_qr_scan"}, "lon": -77.02231333333333, "fusion_lat": 0.0}, {"name": "cb6a03b51b106dd8bb2a2ccd2c1274aa", "fusion_lon": 0.0, "lat": 38.922372833333334, "is_reserved": 0, "type": "electric_scooter", "bike_id": "cb6a03b51b106dd8bb2a2ccd2c1274aa", "is_disabled": 0, "rental_uris": {"android": "https://dc.lft.to/lastmile_qr_scan", "ios": "https://dc.lft.to/lastmile_qr_scan"}, "lon": -77.04716116666667, "fusion_lat": 0.0}, {"name": "e73e4be7a7982b3daba2ed8435f7c7f1", "fusion_lon": 0.0, "lat": 38.918243333333336, "is_reserved": 0, "type": "electric_scooter", "bike_id": "e73e4be7a7982b3daba2ed8435f7c7f1", "is_disabled": 0, "rental_uris": {"android": "https://dc.lft.to/lastmile_qr_scan", "ios": "https://dc.lft.to/lastmile_qr_scan"}, "lon": -77.036714, "fusion_lat": 0.0}, {"name": "8482fa79d5d101b0270ba26965d8b2d5", "fusion_lon": 0.0, "lat": 38.886087833333335, "is_reserved": 0, "type": "electric_scooter", "bike_id": "8482fa79d5d101b0270ba26965d8b2d5", "is_disabled": 0, "rental_uris": {"android": "https://dc.lft.to/lastmile_qr_scan", "ios": "https://dc.lft.to/lastmile_qr_scan"}, "lon": -77.00136166666667, "fusion_lat": 0.0}, {"name": "87d69941b367b6029dacd45c6b4c9c9b", "fusion_lon": 0.0, "lat": 38.94984066666667, "is_reserved": 0, "type": "electric_scooter", "bike_id": "87d69941b367b6029dacd45c6b4c9c9b", "is_disabled": 0, "rental_uris": {"android": "https://dc.lft.to/lastmile_qr_scan", "ios": "https://dc.lft.to/lastmile_qr_scan"}, "lon": -77.02652133333333, "fusion_lat": 0.0}, {"name": "7433b9a04b50d1337d659f7273eacb14", "fusion_lon": 0.0, "lat": 38.928793, "is_reserved": 0, "type": "electric_bike", "bike_id": "7433b9a04b50d1337d659f7273eacb14", "is_disabled": 0, "rental_uris": {"android": "https://dc.lft.to/lastmile_qr_scan", "ios": "https://dc.lft.to/lastmile_qr_scan"}, "lon": -77.01238383333333, "fusion_lat": 0.0}, {"name": "77ad3b68c7e2a3a84b464f181fea8f4b", "fusion_lon": 0.0, "lat": 38.95845166666667, "is_reserved": 0, "type": "electric_scooter", "bike_id": "77ad3b68c7e2a3a84b464f181fea8f4b", "is_disabled": 0, "rental_uris": {"android": "https://dc.lft.to/lastmile_qr_scan", "ios": "https://dc.lft.to/lastmile_qr_scan"}, "lon": -77.02739216666667, "fusion_lat": 0.0}, {"name": "23eccca9685db90445edb480e911bf1c", "fusion_lon": 0.0, "lat": 38.91878583333333, "is_reserved": 0, "type": "electric_scooter", "bike_id": "23eccca9685db90445edb480e911bf1c", "is_disabled": 0, "rental_uris": {"android": "https://dc.lft.to/lastmile_qr_scan", "ios": "https://dc.lft.to/lastmile_qr_scan"}, "lon": -77.0438615, "fusion_lat": 0.0}, {"name": "01ac4f6ac205625d35ada9025a245bc9", "fusion_lon": 0.0, "lat": 38.8237365, "is_reserved": 0, "type": "electric_bike", "bike_id": "01ac4f6ac205625d35ada9025a245bc9", "is_disabled": 0, "rental_uris": {"android": "https://dc.lft.to/lastmile_qr_scan", "ios": "https://dc.lft.to/lastmile_qr_scan"}, "lon": -77.002226, "fusion_lat": 0.0}, {"name": "ee91046f24c6015771f2d840b2705e57", "fusion_lon": 0.0, "lat": 38.922822, "is_reserved": 0, "type": "electric_bike", "bike_id": "ee91046f24c6015771f2d840b2705e57", "is_disabled": 0, "rental_uris": {"android": "https://dc.lft.to/lastmile_qr_scan", "ios": "https://dc.lft.to/lastmile_qr_scan"}, "lon": -77.02347833333333, "fusion_lat": 0.0}, {"name": "78fc73bb6dc9f36bf4ffe94fb5891ba9", "fusion_lon": 0.0, "lat": 38.896139166666664, "is_reserved": 0, "type": "electric_scooter", "bike_id": "78fc73bb6dc9f36bf4ffe94fb5891ba9", "is_disabled": 0, "rental_uris": {"android": "https://dc.lft.to/lastmile_qr_scan", "ios": "https://dc.lft.to/lastmile_qr_scan"}, "lon": -77.02201033333333, "fusion_lat": 0.0}, {"name": "27d5aa870c83b630d03b8a86bc30775b", "fusion_lon": 0.0, "lat": 38.91861383333333, "is_reserved": 0, "type": "electric_scooter", "bike_id": "27d5aa870c83b630d03b8a86bc30775b", "is_disabled": 0, "rental_uris": {"android": "https://dc.lft.to/lastmile_qr_scan", "ios": "https://dc.lft.to/lastmile_qr_scan"}, "lon": -76.965512, "fusion_lat": 0.0}, {"name": "e7de626389aa2baadc5e0f871012b780", "fusion_lon": 0.0, "lat": 38.927009166666664, "is_reserved": 0, "type": "electric_scooter", "bike_id": "e7de626389aa2baadc5e0f871012b780", "is_disabled": 0, "rental_uris": {"android": "https://dc.lft.to/lastmile_qr_scan", "ios": "https://dc.lft.to/lastmile_qr_scan"}, "lon": -77.021038, "fusion_lat": 0.0}, {"name": "f29483e0f9f85532295c0ba5c3e08e82", "fusion_lon": 0.0, "lat": 38.89726183333333, "is_reserved": 0, "type": "electric_scooter", "bike_id": "f29483e0f9f85532295c0ba5c3e08e82", "is_disabled": 0, "rental_uris": {"android": "https://dc.lft.to/lastmile_qr_scan", "ios": "https://dc.lft.to/lastmile_qr_scan"}, "lon": -77.021407, "fusion_lat": 0.0}, {"name": "6aac9c0a7501928e6306e80b31f118b7", "fusion_lon": 0.0, "lat": 38.90949, "is_reserved": 0, "type": "electric_scooter", "bike_id": "6aac9c0a7501928e6306e80b31f118b7", "is_disabled": 0, "rental_uris": {"android": "https://dc.lft.to/lastmile_qr_scan", "ios": "https://dc.lft.to/lastmile_qr_scan"}, "lon": -77.049391, "fusion_lat": 0.0}, {"name": "be8b7ed144700188ee2a2549dad94a83", "fusion_lon": 0.0, "lat": 38.90676416666667, "is_reserved": 0, "type": "electric_scooter", "bike_id": "be8b7ed144700188ee2a2549dad94a83", "is_disabled": 0, "rental_uris": {"android": "https://dc.lft.to/lastmile_qr_scan", "ios": "https://dc.lft.to/lastmile_qr_scan"}, "lon": -77.03762966666666, "fusion_lat": 0.0}, {"name": "02ca17a98d8a085a59deb95c79f54c4e", "fusion_lon": 0.0, "lat": 38.91130833333333, "is_reserved": 0, "type": "electric_scooter", "bike_id": "02ca17a98d8a085a59deb95c79f54c4e", "is_disabled": 0, "rental_uris": {"android": "https://dc.lft.to/lastmile_qr_scan", "ios": "https://dc.lft.to/lastmile_qr_scan"}, "lon": -77.03831566666666, "fusion_lat": 0.0}, {"name": "0ceab8cfb9293c5afe665c03efae6b72", "fusion_lon": 0.0, "lat": 38.884805666666665, "is_reserved": 0, "type": "electric_scooter", "bike_id": "0ceab8cfb9293c5afe665c03efae6b72", "is_disabled": 0, "rental_uris": {"android": "https://dc.lft.to/lastmile_qr_scan", "ios": "https://dc.lft.to/lastmile_qr_scan"}, "lon": -77.032041, "fusion_lat": 0.0}, {"name": "082378bda21a2972702a912ae8f4b4cd", "fusion_lon": 0.0, "lat": 38.92230166666667, "is_reserved": 0, "type": "electric_scooter", "bike_id": "082378bda21a2972702a912ae8f4b4cd", "is_disabled": 0, "rental_uris": {"android": "https://dc.lft.to/lastmile_qr_scan", "ios": "https://dc.lft.to/lastmile_qr_scan"}, "lon": -77.044912, "fusion_lat": 0.0}, {"name": "77b720a8b50e2b4eb01489e3d657cc9a", "fusion_lon": 0.0, "lat": 38.911192166666666, "is_reserved": 0, "type": "electric_scooter", "bike_id": "77b720a8b50e2b4eb01489e3d657cc9a", "is_disabled": 0, "rental_uris": {"android": "https://dc.lft.to/lastmile_qr_scan", "ios": "https://dc.lft.to/lastmile_qr_scan"}, "lon": -77.00604, "fusion_lat": 0.0}, {"name": "aaf2efea15b150357e918b0d15552c81", "fusion_lon": 0.0, "lat": 38.88490183333333, "is_reserved": 0, "type": "electric_scooter", "bike_id": "aaf2efea15b150357e918b0d15552c81", "is_disabled": 0, "rental_uris": {"android": "https://dc.lft.to/lastmile_qr_scan", "ios": "https://dc.lft.to/lastmile_qr_scan"}, "lon": -77.00712933333334, "fusion_lat": 0.0}, {"name": "820e6f024dc86feb2937f745dee77925", "fusion_lon": 0.0, "lat": 38.92891683333333, "is_reserved": 0, "type": "electric_scooter", "bike_id": "820e6f024dc86feb2937f745dee77925", "is_disabled": 0, "rental_uris": {"android": "https://dc.lft.to/lastmile_qr_scan", "ios": "https://dc.lft.to/lastmile_qr_scan"}, "lon": -77.01366483333334, "fusion_lat": 0.0}, {"name": "dc2ab8b25a0efa1475b8f6fab9ddb430", "fusion_lon": 0.0, "lat": 38.9156445, "is_reserved": 0, "type": "electric_scooter", "bike_id": "dc2ab8b25a0efa1475b8f6fab9ddb430", "is_disabled": 0, "rental_uris": {"android": "https://dc.lft.to/lastmile_qr_scan", "ios": "https://dc.lft.to/lastmile_qr_scan"}, "lon": -77.0428535, "fusion_lat": 0.0}, {"name": "7735fe94a9d71bf6a1bb2d15503c9971", "fusion_lon": 0.0, "lat": 38.905640166666664, "is_reserved": 0, "type": "electric_scooter", "bike_id": "7735fe94a9d71bf6a1bb2d15503c9971", "is_disabled": 0, "rental_uris": {"android": "https://dc.lft.to/lastmile_qr_scan", "ios": "https://dc.lft.to/lastmile_qr_scan"}, "lon": -77.03450083333334, "fusion_lat": 0.0}, {"name": "667faf4a165d9bb512f8a30581bef1ce", "fusion_lon": 0.0, "lat": 38.89295833333333, "is_reserved": 0, "type": "electric_bike", "bike_id": "667faf4a165d9bb512f8a30581bef1ce", "is_disabled": 0, "rental_uris": {"android": "https://dc.lft.to/lastmile_qr_scan", "ios": "https://dc.lft.to/lastmile_qr_scan"}, "lon": -76.9762035, "fusion_lat": 0.0}, {"name": "47810e83ba1ef28b57f21cd181fe4727", "fusion_lon": 0.0, "lat": 38.9246375, "is_reserved": 0, "type": "electric_scooter", "bike_id": "47810e83ba1ef28b57f21cd181fe4727", "is_disabled": 0, "rental_uris": {"android": "https://dc.lft.to/lastmile_qr_scan", "ios": "https://dc.lft.to/lastmile_qr_scan"}, "lon": -77.027123, "fusion_lat": 0.0}, {"name": "f12730527ec3223ae3622ca5c9452218", "fusion_lon": 0.0, "lat": 38.9203895, "is_reserved": 0, "type": "electric_scooter", "bike_id": "f12730527ec3223ae3622ca5c9452218", "is_disabled": 0, "rental_uris": {"android": "https://dc.lft.to/lastmile_qr_scan", "ios": "https://dc.lft.to/lastmile_qr_scan"}, "lon": -77.025874, "fusion_lat": 0.0}, {"name": "c272864a711415249eda50716dc23175", "fusion_lon": 0.0, "lat": 38.9291835, "is_reserved": 0, "type": "electric_scooter", "bike_id": "c272864a711415249eda50716dc23175", "is_disabled": 0, "rental_uris": {"android": "https://dc.lft.to/lastmile_qr_scan", "ios": "https://dc.lft.to/lastmile_qr_scan"}, "lon": -77.0325145, "fusion_lat": 0.0}, {"name": "e1010237aea2a2829cf58764956061df", "fusion_lon": 0.0, "lat": 38.928220833333334, "is_reserved": 0, "type": "electric_scooter", "bike_id": "e1010237aea2a2829cf58764956061df", "is_disabled": 0, "rental_uris": {"android": "https://dc.lft.to/lastmile_qr_scan", "ios": "https://dc.lft.to/lastmile_qr_scan"}, "lon": -77.03637033333334, "fusion_lat": 0.0}, {"name": "b5748fcce376f87d835122b73ae73a4d", "fusion_lon": 0.0, "lat": 38.934058, "is_reserved": 0, "type": "electric_scooter", "bike_id": "b5748fcce376f87d835122b73ae73a4d", "is_disabled": 0, "rental_uris": {"android": "https://dc.lft.to/lastmile_qr_scan", "ios": "https://dc.lft.to/lastmile_qr_scan"}, "lon": -77.03994533333334, "fusion_lat": 0.0}, {"name": "ae402a9348d56cb022178dfdaf8333e7", "fusion_lon": 0.0, "lat": 38.88813866666667, "is_reserved": 0, "type": "electric_bike", "bike_id": "ae402a9348d56cb022178dfdaf8333e7", "is_disabled": 0, "rental_uris": {"android": "https://dc.lft.to/lastmile_qr_scan", "ios": "https://dc.lft.to/lastmile_qr_scan"}, "lon": -77.12635016666667, "fusion_lat": 0.0}, {"name": "d734d35f98b184827245884a4096d659", "fusion_lon": 0.0, "lat": 38.92462033333334, "is_reserved": 0, "type": "electric_scooter", "bike_id": "d734d35f98b184827245884a4096d659", "is_disabled": 0, "rental_uris": {"android": "https://dc.lft.to/lastmile_qr_scan", "ios": "https://dc.lft.to/lastmile_qr_scan"}, "lon": -77.07830516666667, "fusion_lat": 0.0}, {"name": "f9cceac59346b2e976fc9497b2a8c0bf", "fusion_lon": 0.0, "lat": 38.911157, "is_reserved": 0, "type": "electric_scooter", "bike_id": "f9cceac59346b2e976fc9497b2a8c0bf", "is_disabled": 0, "rental_uris": {"android": "https://dc.lft.to/lastmile_qr_scan", "ios": "https://dc.lft.to/lastmile_qr_scan"}, "lon": -77.04365033333333, "fusion_lat": 0.0}, {"name": "fc1fc63ddc40294f772ad1175b7e2811", "fusion_lon": 0.0, "lat": 38.88611866666667, "is_reserved": 0, "type": "electric_scooter", "bike_id": "fc1fc63ddc40294f772ad1175b7e2811", "is_disabled": 0, "rental_uris": {"android": "https://dc.lft.to/lastmile_qr_scan", "ios": "https://dc.lft.to/lastmile_qr_scan"}, "lon": -76.99513183333333, "fusion_lat": 0.0}, {"name": "5effe3fb71ffa8f0f8f696454357cb03", "fusion_lon": 0.0, "lat": 38.905028333333334, "is_reserved": 0, "type": "electric_scooter", "bike_id": "5effe3fb71ffa8f0f8f696454357cb03", "is_disabled": 0, "rental_uris": {"android": "https://dc.lft.to/lastmile_qr_scan", "ios": "https://dc.lft.to/lastmile_qr_scan"}, "lon": -77.020023, "fusion_lat": 0.0}, {"name": "20853d3b5a089996cf47c75c5b7cef5e", "fusion_lon": 0.0, "lat": 38.90274483333334, "is_reserved": 0, "type": "electric_scooter", "bike_id": "20853d3b5a089996cf47c75c5b7cef5e", "is_disabled": 0, "rental_uris": {"android": "https://dc.lft.to/lastmile_qr_scan", "ios": "https://dc.lft.to/lastmile_qr_scan"}, "lon": -77.05796283333333, "fusion_lat": 0.0}, {"name": "3ba7651dc3be524712d5545c22d8a1a1", "fusion_lon": 0.0, "lat": 38.89616183333333, "is_reserved": 0, "type": "electric_scooter", "bike_id": "3ba7651dc3be524712d5545c22d8a1a1", "is_disabled": 0, "rental_uris": {"android": "https://dc.lft.to/lastmile_qr_scan", "ios": "https://dc.lft.to/lastmile_qr_scan"}, "lon": -77.04470533333334, "fusion_lat": 0.0}, {"name": "8d0743d9d7beb57411fd04848ce5b345", "fusion_lon": 0.0, "lat": 38.9422275, "is_reserved": 0, "type": "electric_bike", "bike_id": "8d0743d9d7beb57411fd04848ce5b345", "is_disabled": 0, "rental_uris": {"android": "https://dc.lft.to/lastmile_qr_scan", "ios": "https://dc.lft.to/lastmile_qr_scan"}, "lon": -76.9662025, "fusion_lat": 0.0}, {"name": "fed090cca301cd9f7b27c14cc0ce9be5", "fusion_lon": 0.0, "lat": 38.933219666666666, "is_reserved": 0, "type": "electric_scooter", "bike_id": "fed090cca301cd9f7b27c14cc0ce9be5", "is_disabled": 0, "rental_uris": {"android": "https://dc.lft.to/lastmile_qr_scan", "ios": "https://dc.lft.to/lastmile_qr_scan"}, "lon": -77.03445216666667, "fusion_lat": 0.0}, {"name": "41cca8038c6331d564315168ccaaab9d", "fusion_lon": 0.0, "lat": 39.05507216666667, "is_reserved": 0, "type": "electric_bike", "bike_id": "41cca8038c6331d564315168ccaaab9d", "is_disabled": 0, "rental_uris": {"android": "https://dc.lft.to/lastmile_qr_scan", "ios": "https://dc.lft.to/lastmile_qr_scan"}, "lon": -77.0465635, "fusion_lat": 0.0}, {"name": "8124dcef7b7979f56e378ec2dd6a6833", "fusion_lon": 0.0, "lat": 38.929692333333335, "is_reserved": 0, "type": "electric_bike", "bike_id": "8124dcef7b7979f56e378ec2dd6a6833", "is_disabled": 0, "rental_uris": {"android": "https://dc.lft.to/lastmile_qr_scan", "ios": "https://dc.lft.to/lastmile_qr_scan"}, "lon": -77.18565983333333, "fusion_lat": 0.0}, {"name": "0461faba2d266edd7322c85abd68c833", "fusion_lon": 0.0, "lat": 38.921118666666665, "is_reserved": 0, "type": "electric_scooter", "bike_id": "0461faba2d266edd7322c85abd68c833", "is_disabled": 0, "rental_uris": {"android": "https://dc.lft.to/lastmile_qr_scan", "ios": "https://dc.lft.to/lastmile_qr_scan"}, "lon": -77.020517, "fusion_lat": 0.0}, {"name": "9187837203a712a99067e847ad2d44c1", "fusion_lon": 0.0, "lat": 38.917957333333334, "is_reserved": 0, "type": "electric_scooter", "bike_id": "9187837203a712a99067e847ad2d44c1", "is_disabled": 0, "rental_uris": {"android": "https://dc.lft.to/lastmile_qr_scan", "ios": "https://dc.lft.to/lastmile_qr_scan"}, "lon": -77.04220433333333, "fusion_lat": 0.0}, {"name": "a7bac3992ba707d77e2d710be26a92cf", "fusion_lon": 0.0, "lat": 38.92215433333333, "is_reserved": 0, "type": "electric_bike", "bike_id": "a7bac3992ba707d77e2d710be26a92cf", "is_disabled": 0, "rental_uris": {"android": "https://dc.lft.to/lastmile_qr_scan", "ios": "https://dc.lft.to/lastmile_qr_scan"}, "lon": -76.98801866666666, "fusion_lat": 0.0}, {"name": "f32d7380b92e72c60e869c392a255976", "fusion_lon": 0.0, "lat": 38.92042816666667, "is_reserved": 0, "type": "electric_scooter", "bike_id": "f32d7380b92e72c60e869c392a255976", "is_disabled": 0, "rental_uris": {"android": "https://dc.lft.to/lastmile_qr_scan", "ios": "https://dc.lft.to/lastmile_qr_scan"}, "lon": -77.0166945, "fusion_lat": 0.0}, {"name": "59a023c9f9bfda24a65a1c898ee6d5e4", "fusion_lon": 0.0, "lat": 38.92032783333333, "is_reserved": 0, "type": "electric_scooter", "bike_id": "59a023c9f9bfda24a65a1c898ee6d5e4", "is_disabled": 0, "rental_uris": {"android": "https://dc.lft.to/lastmile_qr_scan", "ios": "https://dc.lft.to/lastmile_qr_scan"}, "lon": -77.010064, "fusion_lat": 0.0}, {"name": "f3b411a21e4395c075069f5f432fccdb", "fusion_lon": 0.0, "lat": 38.888129166666666, "is_reserved": 0, "type": "electric_scooter", "bike_id": "f3b411a21e4395c075069f5f432fccdb", "is_disabled": 0, "rental_uris": {"android": "https://dc.lft.to/lastmile_qr_scan", "ios": "https://dc.lft.to/lastmile_qr_scan"}, "lon": -76.93346166666667, "fusion_lat": 0.0}, {"name": "d50272900fcbd32846a3d44698ba41ad", "fusion_lon": 0.0, "lat": 38.860940166666666, "is_reserved": 0, "type": "electric_bike", "bike_id": "d50272900fcbd32846a3d44698ba41ad", "is_disabled": 0, "rental_uris": {"android": "https://dc.lft.to/lastmile_qr_scan", "ios": "https://dc.lft.to/lastmile_qr_scan"}, "lon": -77.09593433333333, "fusion_lat": 0.0}, {"name": "1ef5ac6a714ddbeb4c78bc0be917cfb4", "fusion_lon": 0.0, "lat": 38.9037305, "is_reserved": 0, "type": "electric_scooter", "bike_id": "1ef5ac6a714ddbeb4c78bc0be917cfb4", "is_disabled": 0, "rental_uris": {"android": "https://dc.lft.to/lastmile_qr_scan", "ios": "https://dc.lft.to/lastmile_qr_scan"}, "lon": -77.0401325, "fusion_lat": 0.0}, {"name": "f7c9e3fe3ec410aa32c6a0e56d64f240", "fusion_lon": 0.0, "lat": 38.91836966666666, "is_reserved": 0, "type": "electric_scooter", "bike_id": "f7c9e3fe3ec410aa32c6a0e56d64f240", "is_disabled": 0, "rental_uris": {"android": "https://dc.lft.to/lastmile_qr_scan", "ios": "https://dc.lft.to/lastmile_qr_scan"}, "lon": -77.03171516666667, "fusion_lat": 0.0}, {"name": "5be380c35cd14c0ca9cbf4c6edb92fe9", "fusion_lon": 0.0, "lat": 38.89741166666667, "is_reserved": 0, "type": "electric_scooter", "bike_id": "5be380c35cd14c0ca9cbf4c6edb92fe9", "is_disabled": 0, "rental_uris": {"android": "https://dc.lft.to/lastmile_qr_scan", "ios": "https://dc.lft.to/lastmile_qr_scan"}, "lon": -77.04285533333334, "fusion_lat": 0.0}, {"name": "683f49049488da0a38c028061a9eef2f", "fusion_lon": 0.0, "lat": 38.885039166666665, "is_reserved": 0, "type": "electric_scooter", "bike_id": "683f49049488da0a38c028061a9eef2f", "is_disabled": 0, "rental_uris": {"android": "https://dc.lft.to/lastmile_qr_scan", "ios": "https://dc.lft.to/lastmile_qr_scan"}, "lon": -77.02092633333334, "fusion_lat": 0.0}, {"name": "6dd2e3c81ca73e5e5b8d0407204c6292", "fusion_lon": 0.0, "lat": 38.924795833333334, "is_reserved": 0, "type": "electric_scooter", "bike_id": "6dd2e3c81ca73e5e5b8d0407204c6292", "is_disabled": 0, "rental_uris": {"android": "https://dc.lft.to/lastmile_qr_scan", "ios": "https://dc.lft.to/lastmile_qr_scan"}, "lon": -77.02202683333333, "fusion_lat": 0.0}, {"name": "d7f1deab9eb2d54491b69e1d9ab02d10", "fusion_lon": 0.0, "lat": 38.914188, "is_reserved": 0, "type": "electric_scooter", "bike_id": "d7f1deab9eb2d54491b69e1d9ab02d10", "is_disabled": 0, "rental_uris": {"android": "https://dc.lft.to/lastmile_qr_scan", "ios": "https://dc.lft.to/lastmile_qr_scan"}, "lon": -77.02225716666666, "fusion_lat": 0.0}, {"name": "3829b490789097d8f138491150769e36", "fusion_lon": 0.0, "lat": 38.89629333333333, "is_reserved": 0, "type": "electric_scooter", "bike_id": "3829b490789097d8f138491150769e36", "is_disabled": 0, "rental_uris": {"android": "https://dc.lft.to/lastmile_qr_scan", "ios": "https://dc.lft.to/lastmile_qr_scan"}, "lon": -77.028433, "fusion_lat": 0.0}, {"name": "f2f2f8c4dea6d860d5d4813989113191", "fusion_lon": 0.0, "lat": 38.90361466666667, "is_reserved": 0, "type": "electric_scooter", "bike_id": "f2f2f8c4dea6d860d5d4813989113191", "is_disabled": 0, "rental_uris": {"android": "https://dc.lft.to/lastmile_qr_scan", "ios": "https://dc.lft.to/lastmile_qr_scan"}, "lon": -77.04629466666667, "fusion_lat": 0.0}, {"name": "d2e0d202d5a3d71e3ce9acd6e740b23b", "fusion_lon": 0.0, "lat": 38.93678833333333, "is_reserved": 0, "type": "electric_scooter", "bike_id": "d2e0d202d5a3d71e3ce9acd6e740b23b", "is_disabled": 0, "rental_uris": {"android": "https://dc.lft.to/lastmile_qr_scan", "ios": "https://dc.lft.to/lastmile_qr_scan"}, "lon": -77.035905, "fusion_lat": 0.0}, {"name": "5c5f746a5c9133cfbb70186422be19d3", "fusion_lon": 0.0, "lat": 38.917444, "is_reserved": 0, "type": "electric_scooter", "bike_id": "5c5f746a5c9133cfbb70186422be19d3", "is_disabled": 0, "rental_uris": {"android": "https://dc.lft.to/lastmile_qr_scan", "ios": "https://dc.lft.to/lastmile_qr_scan"}, "lon": -77.0344805, "fusion_lat": 0.0}, {"name": "ab79d401fe105f5f01636a615625507a", "fusion_lon": 0.0, "lat": 38.93687933333333, "is_reserved": 0, "type": "electric_scooter", "bike_id": "ab79d401fe105f5f01636a615625507a", "is_disabled": 0, "rental_uris": {"android": "https://dc.lft.to/lastmile_qr_scan", "ios": "https://dc.lft.to/lastmile_qr_scan"}, "lon": -77.02428133333333, "fusion_lat": 0.0}, {"name": "1faa82eafc128a460c7e849cd4ceed29", "fusion_lon": 0.0, "lat": 38.902717333333335, "is_reserved": 0, "type": "electric_scooter", "bike_id": "1faa82eafc128a460c7e849cd4ceed29", "is_disabled": 0, "rental_uris": {"android": "https://dc.lft.to/lastmile_qr_scan", "ios": "https://dc.lft.to/lastmile_qr_scan"}, "lon": -77.0397235, "fusion_lat": 0.0}, {"name": "89652a1753cb08af16eb45eab6728dcf", "fusion_lon": 0.0, "lat": 38.873016666666665, "is_reserved": 0, "type": "electric_bike", "bike_id": "89652a1753cb08af16eb45eab6728dcf", "is_disabled": 0, "rental_uris": {"android": "https://dc.lft.to/lastmile_qr_scan", "ios": "https://dc.lft.to/lastmile_qr_scan"}, "lon": -77.13932233333334, "fusion_lat": 0.0}, {"name": "0721aaae0a8d0dfb589dc818012ae084", "fusion_lon": 0.0, "lat": 38.912774166666665, "is_reserved": 0, "type": "electric_scooter", "bike_id": "0721aaae0a8d0dfb589dc818012ae084", "is_disabled": 0, "rental_uris": {"android": "https://dc.lft.to/lastmile_qr_scan", "ios": "https://dc.lft.to/lastmile_qr_scan"}, "lon": -77.0268965, "fusion_lat": 0.0}, {"name": "e7d01e382e53410e71bcea22135ae1f7", "fusion_lon": 0.0, "lat": 38.917748833333334, "is_reserved": 0, "type": "electric_scooter", "bike_id": "e7d01e382e53410e71bcea22135ae1f7", "is_disabled": 0, "rental_uris": {"android": "https://dc.lft.to/lastmile_qr_scan", "ios": "https://dc.lft.to/lastmile_qr_scan"}, "lon": -77.0365085, "fusion_lat": 0.0}, {"name": "741702130ce94c69d6f1c49fcf78e1df", "fusion_lon": 0.0, "lat": 38.897381, "is_reserved": 0, "type": "electric_scooter", "bike_id": "741702130ce94c69d6f1c49fcf78e1df", "is_disabled": 0, "rental_uris": {"android": "https://dc.lft.to/lastmile_qr_scan", "ios": "https://dc.lft.to/lastmile_qr_scan"}, "lon": -77.04401583333333, "fusion_lat": 0.0}, {"name": "e506dd6c94acb31d3fbf917005b1105b", "fusion_lon": 0.0, "lat": 38.944393166666664, "is_reserved": 0, "type": "electric_scooter", "bike_id": "e506dd6c94acb31d3fbf917005b1105b", "is_disabled": 0, "rental_uris": {"android": "https://dc.lft.to/lastmile_qr_scan", "ios": "https://dc.lft.to/lastmile_qr_scan"}, "lon": -77.06347533333333, "fusion_lat": 0.0}, {"name": "b4cc00087ce4b0c1011abe18089e1dfd", "fusion_lon": 0.0, "lat": 38.93621783333333, "is_reserved": 0, "type": "electric_scooter", "bike_id": "b4cc00087ce4b0c1011abe18089e1dfd", "is_disabled": 0, "rental_uris": {"android": "https://dc.lft.to/lastmile_qr_scan", "ios": "https://dc.lft.to/lastmile_qr_scan"}, "lon": -77.06756933333334, "fusion_lat": 0.0}, {"name": "d06ce5ecf52b8a8875003adb042f7b70", "fusion_lon": 0.0, "lat": 38.90154, "is_reserved": 0, "type": "electric_scooter", "bike_id": "d06ce5ecf52b8a8875003adb042f7b70", "is_disabled": 0, "rental_uris": {"android": "https://dc.lft.to/lastmile_qr_scan", "ios": "https://dc.lft.to/lastmile_qr_scan"}, "lon": -76.929872, "fusion_lat": 0.0}, {"name": "76083c3a0228b35c7503a294b0a79079", "fusion_lon": 0.0, "lat": 38.917794666666666, "is_reserved": 0, "type": "electric_scooter", "bike_id": "76083c3a0228b35c7503a294b0a79079", "is_disabled": 0, "rental_uris": {"android": "https://dc.lft.to/lastmile_qr_scan", "ios": "https://dc.lft.to/lastmile_qr_scan"}, "lon": -77.04767, "fusion_lat": 0.0}, {"name": "4885042b53b5897a1f8c504fd48dd8c6", "fusion_lon": 0.0, "lat": 38.874924, "is_reserved": 0, "type": "electric_scooter", "bike_id": "4885042b53b5897a1f8c504fd48dd8c6", "is_disabled": 0, "rental_uris": {"android": "https://dc.lft.to/lastmile_qr_scan", "ios": "https://dc.lft.to/lastmile_qr_scan"}, "lon": -76.9999365, "fusion_lat": 0.0}, {"name": "77d05a009ea77bf1c0d20f2699c940b6", "fusion_lon": 0.0, "lat": 38.92488, "is_reserved": 0, "type": "electric_scooter", "bike_id": "77d05a009ea77bf1c0d20f2699c940b6", "is_disabled": 0, "rental_uris": {"android": "https://dc.lft.to/lastmile_qr_scan", "ios": "https://dc.lft.to/lastmile_qr_scan"}, "lon": -77.0318315, "fusion_lat": 0.0}, {"name": "c5238ad06adc4db25903fb0931fb28e2", "fusion_lon": 0.0, "lat": 38.90782633333333, "is_reserved": 0, "type": "electric_scooter", "bike_id": "c5238ad06adc4db25903fb0931fb28e2", "is_disabled": 0, "rental_uris": {"android": "https://dc.lft.to/lastmile_qr_scan", "ios": "https://dc.lft.to/lastmile_qr_scan"}, "lon": -77.03831033333333, "fusion_lat": 0.0}, {"name": "8c3295268be1e91dc78ad128f62f33ec", "fusion_lon": 0.0, "lat": 38.874232, "is_reserved": 0, "type": "electric_scooter", "bike_id": "8c3295268be1e91dc78ad128f62f33ec", "is_disabled": 0, "rental_uris": {"android": "https://dc.lft.to/lastmile_qr_scan", "ios": "https://dc.lft.to/lastmile_qr_scan"}, "lon": -76.9677215, "fusion_lat": 0.0}, {"name": "cb95332670a27022e3bbf2d096620665", "fusion_lon": 0.0, "lat": 38.974013, "is_reserved": 0, "type": "electric_bike", "bike_id": "cb95332670a27022e3bbf2d096620665", "is_disabled": 0, "rental_uris": {"android": "https://dc.lft.to/lastmile_qr_scan", "ios": "https://dc.lft.to/lastmile_qr_scan"}, "lon": -77.06452416666667, "fusion_lat": 0.0}, {"name": "759cf9da4ff3aa9230d38dc431c3ba0e", "fusion_lon": 0.0, "lat": 38.92367733333333, "is_reserved": 0, "type": "electric_scooter", "bike_id": "759cf9da4ff3aa9230d38dc431c3ba0e", "is_disabled": 0, "rental_uris": {"android": "https://dc.lft.to/lastmile_qr_scan", "ios": "https://dc.lft.to/lastmile_qr_scan"}, "lon": -77.02979783333333, "fusion_lat": 0.0}, {"name": "9af7a933b7cf258dcd9fb63ece510641", "fusion_lon": 0.0, "lat": 38.927733833333335, "is_reserved": 0, "type": "electric_scooter", "bike_id": "9af7a933b7cf258dcd9fb63ece510641", "is_disabled": 0, "rental_uris": {"android": "https://dc.lft.to/lastmile_qr_scan", "ios": "https://dc.lft.to/lastmile_qr_scan"}, "lon": -77.04060916666667, "fusion_lat": 0.0}, {"name": "595853a8a721b4fdc200654cd8747d90", "fusion_lon": 0.0, "lat": 38.91709133333333, "is_reserved": 0, "type": "electric_scooter", "bike_id": "595853a8a721b4fdc200654cd8747d90", "is_disabled": 0, "rental_uris": {"android": "https://dc.lft.to/lastmile_qr_scan", "ios": "https://dc.lft.to/lastmile_qr_scan"}, "lon": -77.0388, "fusion_lat": 0.0}, {"name": "524c5d2af0906bf500c0d38b5564822c", "fusion_lon": 0.0, "lat": 38.909929, "is_reserved": 0, "type": "electric_scooter", "bike_id": "524c5d2af0906bf500c0d38b5564822c", "is_disabled": 0, "rental_uris": {"android": "https://dc.lft.to/lastmile_qr_scan", "ios": "https://dc.lft.to/lastmile_qr_scan"}, "lon": -77.032099, "fusion_lat": 0.0},