{"data": {"bikes": [{"lat": 38.8330065, "is_disabled": 0, "fusion_lat": 0.0, "name": "340f7215bc66a5ad0f69d80b543b3854", "type": "electric_bike", "lon": -77.08406916666667, "rental_uris": {"ios": "https://dc.lft.to/lastmile_qr_scan", "android": "https://dc.lft.to/lastmile_qr_scan"}, "bike_id": "340f7215bc66a5ad0f69d80b543b3854", "is_reserved": 0, "fusion_lon": 0.0}, {"lat": 38.90070033333333, "is_disabled": 0, "fusion_lat": 0.0, "name": "6928f0017451b3699f909cb3338a7945", "type": "electric_scooter", "lon": -77.04546933333333, "rental_uris": {"ios": "https://dc.lft.to/lastmile_qr_scan", "android": "https://dc.lft.to/lastmile_qr_scan"}, "bike_id": "6928f0017451b3699f909cb3338a7945", "is_reserved": 0, "fusion_lon": 0.0}, {"lat": 38.92248, "is_disabled": 0, "fusion_lat": 0.0, "name": "1ea6c20f9ee8e66633ffbd4333293260", "type": "electric_scooter", "lon": -77.03662133333333, "rental_uris": {"ios": "https://dc.lft.to/lastmile_qr_scan", "android": "https://dc.lft.to/lastmile_qr_scan"}, "bike_id": "1ea6c20f9ee8e66633ffbd4333293260", "is_reserved": 0, "fusion_lon": 0.0}, {"lat": 38.9226485, "is_disabled": 0, "fusion_lat": 0.0, "name": "8c1c54563207b8c18b72100b7839b0a4", "type": "electric_scooter", "lon": -77.019726, "rental_uris": {"ios": "https://dc.lft.to/lastmile_qr_scan", "android": "https://dc.lft.to/lastmile_qr_scan"}, "bike_id": "8c1c54563207b8c18b72100b7839b0a4", "is_reserved": 0, "fusion_lon": 0.0}, {"lat": 38.898471, "is_disabled": 0, "fusion_lat": 0.0, "name": "d1f5ec267a1b2ae8bdcf99f298865a97", "type": "electric_scooter", "lon": -76.92744866666666, "rental_uris": {"ios": "https://dc.lft.to/lastmile_qr_scan", "android": "https://dc.lft.to/lastmile_qr_scan"}, "bike_id": "d1f5ec267a1b2ae8bdcf99f298865a97", "is_reserved": 0, "fusion_lon": 0.0}, {"lat": 38.896905333333336, "is_disabled": 0, "fusion_lat": 0.0, "name": "a8d13f625a3090be7b97bbed901e05b7", "type": "electric_scooter", "lon": -77.04879033333333, "rental_uris": {"ios": "https://dc.lft.to/lastmile_qr_scan", "android": "https://dc.lft.to/lastmile_qr_scan"}, "bike_id": "a8d13f625a3090be7b97bbed901e05b7", "is_reserved": 0, "fusion_lon": 0.0}, {"lat": 38.8785385, "is_disabled": 0, "fusion_lat": 0.0, "name": "be138e89d448437041cf17e237ebf548", "type": "electric_scooter", "lon": -77.02282783333334, "rental_uris": {"ios": "https://dc.lft.to/lastmile_qr_scan", "android": "https://dc.lft.to/lastmile_qr_scan"}, "bike_id": "be138e89d448437041cf17e237ebf548", "is_reserved": 0, "fusion_lon": 0.0}, {"lat": 38.929701666666666, "is_disabled": 0, "fusion_lat": 0.0, "name": "9b006515bbb88f889335a280e4b63b3a", "type": "electric_scooter", "lon": -77.03147333333334, "rental_uris": {"ios": "https://dc.lft.to/lastmile_qr_scan", "android": "https://dc.lft.to/lastmile_qr_scan"}, "bike_id": "9b006515bbb88f889335a280e4b63b3a", "is_reserved": 0, "fusion_lon": 0.0}, {"lat": 38.9053545, "is_disabled": 0, "fusion_lat": 0.0, "name": "b40cab9ad025423faa9533d4ed2534d9", "type": "electric_scooter", "lon": -77.04749966666667, "rental_uris": {"ios": "https://dc.lft.to/lastmile_qr_scan", "android": "https://dc.lft.to/lastmile_qr_scan"}, "bike_id": "b40cab9ad025423faa9533d4ed2534d9", "is_reserved": 0, "fusion_lon": 0.0}, {"lat": 38.912880666666666, "is_disabled": 0, "fusion_lat": 0.0, "name": "55443a46c81683b30515beadc3f06d3d", "type": "electric_scooter", "lon": -77.034446, "rental_uris": {"ios": "https://dc.lft.to/lastmile_qr_scan", "android": "https://dc.lft.to/lastmile_qr_scan"}, "bike_id": "55443a46c81683b30515beadc3f06d3d", "is_reserved": 0, "fusion_lon": 0.0}, {"lat": 38.921529, "is_disabled": 0, "fusion_lat": 0.0, "name": "c48d181b32143b3f64ffc7206b7f90ae", "type": "electric_scooter", "lon": -77.0423785, "rental_uris": {"ios": "https://dc.lft.to/lastmile_qr_scan", "android": "https://dc.lft.to/lastmile_qr_scan"}, "bike_id": "c48d181b32143b3f64ffc7206b7f90ae", "is_reserved": 0, "fusion_lon": 0.0}, {"lat": 38.9043795, "is_disabled": 0, "fusion_lat": 0.0, "name": "2a0b2788d076c04922f27f86c09cd47d", "type": "electric_bike", "lon": -76.97223433333333, "rental_uris": {"ios": "https://dc.lft.to/lastmile_qr_scan", "android": "https://dc.lft.to/lastmile_qr_scan"}, "bike_id": "2a0b2788d076c04922f27f86c09cd47d", "is_reserved": 0, "fusion_lon": 0.0}, {"lat": 38.92156283333333, "is_disabled": 0, "fusion_lat": 0.0, "name": "83c41d4a7c6390e1d2452af2902db00a", "type": "electric_bike", "lon": -77.07886866666666, "rental_uris": {"ios": "https://dc.lft.to/lastmile_qr_scan", "android": "https://dc.lft.to/lastmile_qr_scan"}, "bike_id": "83c41d4a7c6390e1d2452af2902db00a", "is_reserved": 0, "fusion_lon": 0.0}, {"lat": 38.8937, "is_disabled": 0, "fusion_lat": 0.0, "name": "854439598ec88fa2496f68b928c292f7", "type": "electric_scooter", "lon": -77.01554416666667, "rental_uris": {"ios": "https://dc.lft.to/lastmile_qr_scan", "android": "https://dc.lft.to/lastmile_qr_scan"}, "bike_id": "854439598ec88fa2496f68b928c292f7", "is_reserved": 0, "fusion_lon": 0.0}, {"lat": 38.901347333333334, "is_disabled": 0, "fusion_lat": 0.0, "name": "8ead3fe5a00d61054731984a8a48e690", "type": "electric_scooter", "lon": -77.03141483333333, "rental_uris": {"ios": "https://dc.lft.to/lastmile_qr_scan", "android": "https://dc.lft.to/lastmile_qr_scan"}, "bike_id": "8ead3fe5a00d61054731984a8a48e690", "is_reserved": 0, "fusion_lon": 0.0}, {"lat": 38.924201, "is_disabled": 0, "fusion_lat": 0.0, "name": "9faf885264c3cf5e849fd54013bf53d6", "type": "electric_scooter", "lon": -77.02128683333333, "rental_uris": {"ios": "https://dc.lft.to/lastmile_qr_scan", "android": "https://dc.lft.to/lastmile_qr_scan"}, "bike_id": "9faf885264c3cf5e849fd54013bf53d6", "is_reserved": 0, "fusion_lon": 0.0}, {"lat": 38.91546983333333, "is_disabled": 0, "fusion_lat": 0.0, "name": "d127609130074e13860d9ea546474305", "type": "electric_scooter", "lon": -76.98345966666666, "rental_uris": {"ios": "https://dc.lft.to/lastmile_qr_scan", "android": "https://dc.lft.to/lastmile_qr_scan"}, "bike_id": "d127609130074e13860d9ea546474305", "is_reserved": 0, "fusion_lon": 0.0}, {"lat": 38.91716616666667, "is_disabled": 0, "fusion_lat": 0.0, "name": "c1b2153f1c4e00b606331f80d92827e2", "type": "electric_scooter", "lon": -77.0229725, "rental_uris": {"ios": "https://dc.lft.to/lastmile_qr_scan", "android": "https://dc.lft.to/lastmile_qr_scan"}, "bike_id": "c1b2153f1c4e00b606331f80d92827e2", "is_reserved": 0, "fusion_lon": 0.0}, {"lat": 38.91984816666667, "is_disabled": 0, "fusion_lat": 0.0, "name": "c3005ce2afd78d80085f7054b7a5c2e5", "type": "electric_scooter", "lon": -77.04091183333334, "rental_uris": {"ios": "https://dc.lft.to/lastmile_qr_scan", "android": "https://dc.lft.to/lastmile_qr_scan"}, "bike_id": "c3005ce2afd78d80085f7054b7a5c2e5", "is_reserved": 0, "fusion_lon": 0.0}, {"lat": 38.967222, "is_disabled": 0, "fusion_lat": 0.0, "name": "55137d090e23d144d44dc9c22474f331", "type": "electric_scooter", "lon": -77.025878, "rental_uris": {"ios": "https://dc.lft.to/lastmile_qr_scan", "android": "https://dc.lft.to/lastmile_qr_scan"}, "bike_id": "55137d090e23d144d44dc9c22474f331", "is_reserved": 0, "fusion_lon": 0.0}, {"lat": 38.876329, "is_disabled": 0, "fusion_lat": 0.0, "name": "3864d5ede49f4a54d08dfa25c61c12f3", "type": "electric_scooter", "lon": -77.009509, "rental_uris": {"ios": "https://dc.lft.to/lastmile_qr_scan", "android": "https://dc.lft.to/lastmile_qr_scan"}, "bike_id": "3864d5ede49f4a54d08dfa25c61c12f3", "is_reserved": 0, "fusion_lon": 0.0}, {"lat": 38.886326333333336, "is_disabled": 0, "fusion_lat": 0.0, "name": "2ca0352d11023e43d0a92a0ea62dedee", "type": "electric_scooter", "lon": -76.98176050000001, "rental_uris": {"ios": "https://dc.lft.to/lastmile_qr_scan", "android": "https://dc.lft.to/lastmile_qr_scan"}, "bike_id": "2ca0352d11023e43d0a92a0ea62dedee", "is_reserved": 0, "fusion_lon": 0.0}, {"lat": 38.90905133333333, "is_disabled": 0, "fusion_lat": 0.0, "name": "84cd5cb968ea00f5ae5be690c50e0b62", "type": "electric_scooter", "lon": -77.04395816666667, "rental_uris": {"ios": "https://dc.lft.to/lastmile_qr_scan", "android": "https://dc.lft.to/lastmile_qr_scan"}, "bike_id": "84cd5cb968ea00f5ae5be690c50e0b62", "is_reserved": 0, "fusion_lon": 0.0}, {"lat": 38.8910455, "is_disabled": 0, "fusion_lat": 0.0, "name": "150baf3a0a8cc99f0c79609f803da077", "type": "electric_scooter", "lon": -76.98826083333333, "rental_uris": {"ios": "https://dc.lft.to/lastmile_qr_scan", "android": "https://dc.lft.to/lastmile_qr_scan"}, "bike_id": "150baf3a0a8cc99f0c79609f803da077", "is_reserved": 0, "fusion_lon": 0.0}, {"lat": 38.9182, "is_disabled": 0, "fusion_lat": 0.0, "name": "5dc662020a28eaf3852d3fa00c8461cf", "type": "electric_scooter", "lon": -77.037241, "rental_uris": {"ios": "https://dc.lft.to/lastmile_qr_scan", "android": "https://dc.lft.to/lastmile_qr_scan"}, "bike_id": "5dc662020a28eaf3852d3fa00c8461cf", "is_reserved": 0, "fusion_lon": 0.0}, {"lat": 38.84675333333333, "is_disabled": 0, "fusion_lat": 0.0, "name": "c0fcbf80b1d8c810f8a98553912af482", "type": "electric_bike", "lon": -77.13926866666667, "rental_uris": {"ios": "https://dc.lft.to/lastmile_qr_scan", "android": "https://dc.lft.to/lastmile_qr_scan"}, "bike_id": "c0fcbf80b1d8c810f8a98553912af482", "is_reserved": 0, "fusion_lon": 0.0}, {"lat": 38.900416666666665, "is_disabled": 0, "fusion_lat": 0.0, "name": "7359d1e4b3ada0e297967408fbc0991d", "type": "electric_scooter", "lon": -77.00195466666666, "rental_uris": {"ios": "https://dc.lft.to/lastmile_qr_scan", "android": "https://dc.lft.to/lastmile_qr_scan"}, "bike_id": "7359d1e4b3ada0e297967408fbc0991d", "is_reserved": 0, "fusion_lon": 0.0}, {"lat": 38.884359833333335, "is_disabled": 0, "fusion_lat": 0.0, "name": "81ff968b3ed44914a39c3cee06953d84", "type": "electric_scooter", "lon": -77.03038783333334, "rental_uris": {"ios": "https://dc.lft.to/lastmile_qr_scan", "android": "https://dc.lft.to/lastmile_qr_scan"}, "bike_id": "81ff968b3ed44914a39c3cee06953d84", "is_reserved": 0, "fusion_lon": 0.0}, {"lat": 38.89369, "is_disabled": 0, "fusion_lat": 0.0, "name": "e4fa668a5155a35e21a81042dfc0996a", "type": "electric_scooter", "lon": -77.0207375, "rental_uris": {"ios": "https://dc.lft.to/lastmile_qr_scan", "android": "https://dc.lft.to/lastmile_qr_scan"}, "bike_id": "e4fa668a5155a35e21a81042dfc0996a", "is_reserved": 0, "fusion_lon": 0.0}, {"lat": 38.897623333333335, "is_disabled": 0, "fusion_lat": 0.0, "name": "413a951a5b6da58b9cd7d02d1331802b", "type": "electric_scooter", "lon": -77.03044266666667, "rental_uris": {"ios": "https://dc.lft.to/lastmile_qr_scan", "android": "https://dc.lft.to/lastmile_qr_scan"}, "bike_id": "413a951a5b6da58b9cd7d02d1331802b", "is_reserved": 0, "fusion_lon": 0.0}, {"lat": 38.898535833333334, "is_disabled": 0, "fusion_lat": 0.0, "name": "11473740b9c1882060d1f687dfd323ff", "type": "electric_scooter", "lon": -76.932091, "rental_uris": {"ios": "https://dc.lft.to/lastmile_qr_scan", "android": "https://dc.lft.to/lastmile_qr_scan"}, "bike_id": "11473740b9c1882060d1f687dfd323ff", "is_reserved": 0, "fusion_lon": 0.0}, {"lat": 38.89853083333333, "is_disabled": 0, "fusion_lat": 0.0, "name": "13c96f892dfd87ab2fc23a58203afdbb", "type": "electric_scooter", "lon": -77.022789, "rental_uris": {"ios": "https://dc.lft.to/lastmile_qr_scan", "android": "https://dc.lft.to/lastmile_qr_scan"}, "bike_id": "13c96f892dfd87ab2fc23a58203afdbb", "is_reserved": 0, "fusion_lon": 0.0}, {"lat": 38.855644, "is_disabled": 0, "fusion_lat": 0.0, "name": "5de1689051077514598f294a49cbc0b8", "type": "electric_scooter", "lon": -76.99074783333333, "rental_uris": {"ios": "https://dc.lft.to/lastmile_qr_scan", "android": "https://dc.lft.to/lastmile_qr_scan"}, "bike_id": "5de1689051077514598f294a49cbc0b8", "is_reserved": 0, "fusion_lon": 0.0}, {"lat": 38.91867, "is_disabled": 0, "fusion_lat": 0.0, "name": "b944ec099974f7a6387bd33eb905b7bc", "type": "electric_scooter", "lon": -77.0415315, "rental_uris": {"ios": "https://dc.lft.to/lastmile_qr_scan", "android": "https://dc.lft.to/lastmile_qr_scan"}, "bike_id": "b944ec099974f7a6387bd33eb905b7bc", "is_reserved": 0, "fusion_lon": 0.0}, {"lat": 38.924795333333336, "is_disabled": 0, "fusion_lat": 0.0, "name": "d4c8e36c4d3181f63d66dd5c5e330bb9", "type": "electric_scooter", "lon": -77.021376, "rental_uris": {"ios": "https://dc.lft.to/lastmile_qr_scan", "android": "https://dc.lft.to/lastmile_qr_scan"}, "bike_id": "d4c8e36c4d3181f63d66dd5c5e330bb9", "is_reserved": 0, "fusion_lon": 0.0}, {"lat": 38.926875333333335, "is_disabled": 0, "fusion_lat": 0.0, "name": "506f604f3757f3479c6be7ebfcd0c32c", "type": "electric_scooter", "lon": -77.0153045, "rental_uris": {"ios": "https://dc.lft.to/lastmile_qr_scan", "android": "https://dc.lft.to/lastmile_qr_scan"}, "bike_id": "506f604f3757f3479c6be7ebfcd0c32c", "is_reserved": 0, "fusion_lon": 0.0}, {"lat": 38.905584833333336, "is_disabled": 0, "fusion_lat": 0.0, "name": "12aa42c169bd6e9ab55bac19dc81dde4", "type": "electric_scooter", "lon": -77.043331, "rental_uris": {"ios": "https://dc.lft.to/lastmile_qr_scan", "android": "https://dc.lft.to/lastmile_qr_scan"}, "bike_id": "12aa42c169bd6e9ab55bac19dc81dde4", "is_reserved": 0, "fusion_lon": 0.0}, {"lat": 38.88250633333333, "is_disabled": 0, "fusion_lat": 0.0, "name": "597d6dbb0ca7a9ec118906ef0991e226", "type": "electric_scooter", "lon": -76.9332765, "rental_uris": {"ios": "https://dc.lft.to/lastmile_qr_scan", "android": "https://dc.lft.to/lastmile_qr_scan"}, "bike_id": "597d6dbb0ca7a9ec118906ef0991e226", "is_reserved": 0, "fusion_lon": 0.0}, {"lat": 38.89259883333333, "is_disabled": 0, "fusion_lat": 0.0, "name": "df18b9391a6987a5f1ffedccadc7274e", "type": "electric_scooter", "lon": -77.05027966666667, "rental_uris": {"ios": "https://dc.lft.to/lastmile_qr_scan", "android": "https://dc.lft.to/lastmile_qr_scan"}, "bike_id": "df18b9391a6987a5f1ffedccadc7274e", "is_reserved": 0, "fusion_lon": 0.0}, {"lat": 38.9142275, "is_disabled": 0, "fusion_lat": 0.0, "name": "38b021ca9d6c3b97901a650f9dbd8bce", "type": "electric_scooter", "lon": -77.01799883333334, "rental_uris": {"ios": "https://dc.lft.to/lastmile_qr_scan", "android": "https://dc.lft.to/lastmile_qr_scan"}, "bike_id": "38b021ca9d6c3b97901a650f9dbd8bce", "is_reserved": 0, "fusion_lon": 0.0}, {"lat": 38.91821133333333, "is_disabled": 0, "fusion_lat": 0.0, "name": "326bc581918f2bb7938509ab8c0a3e06", "type": "electric_scooter", "lon": -77.0252915, "rental_uris": {"ios": "https://dc.lft.to/lastmile_qr_scan", "android": "https://dc.lft.to/lastmile_qr_scan"}, "bike_id": "326bc581918f2bb7938509ab8c0a3e06", "is_reserved": 0, "fusion_lon": 0.0}, {"lat": 38.902768333333334, "is_disabled": 0, "fusion_lat": 0.0, "name": "d75299ad04e9b3dedca8047c7d8a1999", "type": "electric_scooter", "lon": -77.032625, "rental_uris": {"ios": "https://dc.lft.to/lastmile_qr_scan", "android": "https://dc.lft.to/lastmile_qr_scan"}, "bike_id": "d75299ad04e9b3dedca8047c7d8a1999", "is_reserved": 0, "fusion_lon": 0.0}, {"lat": 38.89733733333333, "is_disabled": 0, "fusion_lat": 0.0, "name": "fe33b8dc2f83feffcab1645c6d779e6d", "type": "electric_scooter", "lon": -76.92583083333334, "rental_uris": {"ios": "https://dc.lft.to/lastmile_qr_scan", "android": "https://dc.lft.to/lastmile_qr_scan"}, "bike_id": "fe33b8dc2f83feffcab1645c6d779e6d", "is_reserved": 0, "fusion_lon": 0.0}, {"lat": 38.9096165, "is_disabled": 0, "fusion_lat": 0.0, "name": "c2d4ecad82f40501ed187512cee9f19c", "type": "electric_scooter", "lon": -77.03423883333333, "rental_uris": {"ios": "https://dc.lft.to/lastmile_qr_scan", "android": "https://dc.lft.to/lastmile_qr_scan"}, "bike_id": "c2d4ecad82f40501ed187512cee9f19c", "is_reserved": 0, "fusion_lon": 0.0}, {"lat": 38.916014, "is_disabled": 0, "fusion_lat": 0.0, "name": "201c7a8459b024ea05a9c567f4da1a21", "type": "electric_scooter", "lon": -77.012195, "rental_uris": {"ios": "https://dc.lft.to/lastmile_qr_scan", "android": "https://dc.lft.to/lastmile_qr_scan"}, "bike_id": "201c7a8459b024ea05a9c567f4da1a21", "is_reserved": 0, "fusion_lon": 0.0}, {"lat": 38.927401333333336, "is_disabled": 0, "fusion_lat": 0.0, "name": "b67fff4ee399aefa7e2bd3610b9302fa", "type": "electric_scooter", "lon": -77.03552833333333, "rental_uris": {"ios": "https://dc.lft.to/lastmile_qr_scan", "android": "https://dc.lft.to/lastmile_qr_scan"}, "bike_id": "b67fff4ee399aefa7e2bd3610b9302fa", "is_reserved": 0, "fusion_lon": 0.0}, {"lat": 38.90517783333333, "is_disabled": 0, "fusion_lat": 0.0, "name": "b5d392c4620af6178a9c7c7cbfeec987", "type": "electric_bike", "lon": -77.06693483333333, "rental_uris": {"ios": "https://dc.lft.to/lastmile_qr_scan", "android": "https://dc.lft.to/lastmile_qr_scan"}, "bike_id": "b5d392c4620af6178a9c7c7cbfeec987", "is_reserved": 0, "fusion_lon": 0.0}, {"lat": 38.92323116666667, "is_disabled": 0, "fusion_lat": 0.0, "name": "c0b4c2ad3bf4f4be6a1937f392de50b9", "type": "electric_scooter", "lon": -77.019487, "rental_uris": {"ios": "https://dc.lft.to/lastmile_qr_scan", "android": "https://dc.lft.to/lastmile_qr_scan"}, "bike_id": "c0b4c2ad3bf4f4be6a1937f392de50b9", "is_reserved": 0, "fusion_lon": 0.0}, {"lat": 38.893598, "is_disabled": 0, "fusion_lat": 0.0, "name": "780ea653a6c963683c207dbc212ae29d", "type": "electric_scooter", "lon": -77.00332166666666, "rental_uris": {"ios": "https://dc.lft.to/lastmile_qr_scan", "android": "https://dc.lft.to/lastmile_qr_scan"}, "bike_id": "780ea653a6c963683c207dbc212ae29d", "is_reserved": 0, "fusion_lon": 0.0}, {"lat": 38.9300855, "is_disabled": 0, "fusion_lat": 0.0, "name": "84de13cafc35b69ec3d6cddbb6b39a63", "type": "electric_scooter", "lon": -77.03253866666667, "rental_uris": {"ios": "https://dc.lft.to/lastmile_qr_scan", "android": "https://dc.lft.to/lastmile_qr_scan"}, "bike_id": "84de13cafc35b69ec3d6cddbb6b39a63", "is_reserved": 0, "fusion_lon": 0.0}, {"lat": 38.949795, "is_disabled": 0, "fusion_lat": 0.0, "name": "792e5fe7ab532057d7c0bfeeedbff32e", "type": "electric_scooter", "lon": -77.02445966666667, "rental_uris": {"ios": "https://dc.lft.to/lastmile_qr_scan", "android": "https://dc.lft.to/lastmile_qr_scan"}, "bike_id": "792e5fe7ab532057d7c0bfeeedbff32e", "is_reserved": 0, "fusion_lon": 0.0}, {"lat": 38.8989985, "is_disabled": 0, "fusion_lat": 0.0, "name": "4c275849fc795a01ecd1232ea98cb4d4", "type": "electric_scooter", "lon": -77.0327165, "rental_uris": {"ios": "https://dc.lft.to/lastmile_qr_scan", "android": "https://dc.lft.to/lastmile_qr_scan"}, "bike_id": "4c275849fc795a01ecd1232ea98cb4d4", "is_reserved": 0, "fusion_lon": 0.0}, {"lat": 38.9144235, "is_disabled": 0, "fusion_lat": 0.0, "name": "f40a4e96a87fc3987c1426a0d10ed6bf", "type": "electric_scooter", "lon": -77.00456483333333, "rental_uris": {"ios": "https://dc.lft.to/lastmile_qr_scan", "android": "https://dc.lft.to/lastmile_qr_scan"}, "bike_id": "f40a4e96a87fc3987c1426a0d10ed6bf", "is_reserved": 0, "fusion_lon": 0.0}, {"lat": 38.9014005, "is_disabled": 0, "fusion_lat": 0.0, "name": "3805fdabf7548307fbcf56cc383ae4cc", "type": "electric_scooter", "lon": -77.032282, "rental_uris": {"ios": "https://dc.lft.to/lastmile_qr_scan", "android": "https://dc.lft.to/lastmile_qr_scan"}, "bike_id": "3805fdabf7548307fbcf56cc383ae4cc", "is_reserved": 0, "fusion_lon": 0.0}, {"lat": 38.906219, "is_disabled": 0, "fusion_lat": 0.0, "name": "79f6a7d3895f638dd1e6ed127f8eef12", "type": "electric_scooter", "lon": -77.00591733333333, "rental_uris": {"ios": "https://dc.lft.to/lastmile_qr_scan", "android": "https://dc.lft.to/lastmile_qr_scan"}, "bike_id": "79f6a7d3895f638dd1e6ed127f8eef12", "is_reserved": 0, "fusion_lon": 0.0}, {"lat": 38.902692333333334, "is_disabled": 0, "fusion_lat": 0.0, "name": "a88268640fb51ba2291707beddccf165", "type": "electric_scooter", "lon": -77.03932183333333, "rental_uris": {"ios": "https://dc.lft.to/lastmile_qr_scan", "android": "https://dc.lft.to/lastmile_qr_scan"}, "bike_id": "a88268640fb51ba2291707beddccf165", "is_reserved": 0, "fusion_lon": 0.0}, {"lat": 38.91876583333333, "is_disabled": 0, "fusion_lat": 0.0, "name": "4cac51521068b462ae7ab79d53fd1ebf", "type": "electric_scooter", "lon": -77.04483016666667, "rental_uris": {"ios": "https://dc.lft.to/lastmile_qr_scan", "android": "https://dc.lft.to/lastmile_qr_scan"}, "bike_id": "4cac51521068b462ae7ab79d53fd1ebf", "is_reserved": 0, "fusion_lon": 0.0}, {"lat": 38.907891, "is_disabled": 0, "fusion_lat": 0.0, "name": "38f47c9706c9aec67f04e058a592a8d0", "type": "electric_scooter", "lon": -77.01076933333333, "rental_uris": {"ios": "https://dc.lft.to/lastmile_qr_scan", "android": "https://dc.lft.to/lastmile_qr_scan"}, "bike_id": "38f47c9706c9aec67f04e058a592a8d0", "is_reserved": 0, "fusion_lon": 0.0}, {"lat": 38.96211233333333, "is_disabled": 0, "fusion_lat": 0.0, "name": "3b6487de3eb9ed44e32e825e026670f5", "type": "electric_scooter", "lon": -77.02237316666667, "rental_uris": {"ios": "https://dc.lft.to/lastmile_qr_scan", "android": "https://dc.lft.to/lastmile_qr_scan"}, "bike_id": "3b6487de3eb9ed44e32e825e026670f5", "is_reserved": 0, "fusion_lon": 0.0}, {"lat": 38.8839045, "is_disabled": 0, "fusion_lat": 0.0, "name": "49b09d190143ea97296b95a951e0735d", "type": "electric_scooter", "lon": -76.995047, "rental_uris": {"ios": "https://dc.lft.to/lastmile_qr_scan", "android": "https://dc.lft.to/lastmile_qr_scan"}, "bike_id": "49b09d190143ea97296b95a951e0735d", "is_reserved": 0, "fusion_lon": 0.0}, {"lat": 38.93755983333333, "is_disabled": 0, "fusion_lat": 0.0, "name": "d01b824167ac5a03e64f065d3f5ca162", "type": "electric_scooter", "lon": -77.0326375, "rental_uris": {"ios": "https://dc.lft.to/lastmile_qr_scan", "android": "https://dc.lft.to/lastmile_qr_scan"}, "bike_id": "d01b824167ac5a03e64f065d3f5ca162", "is_reserved": 0, "fusion_lon": 0.0}, {"lat": 38.836104, "is_disabled": 0, "fusion_lat": 0.0, "name": "df1dc75b1402ff60767ded76539d2a03", "type": "electric_bike", "lon": -77.00374183333334, "rental_uris": {"ios": "https://dc.lft.to/lastmile_qr_scan", "android": "https://dc.lft.to/lastmile_qr_scan"}, "bike_id": "df1dc75b1402ff60767ded76539d2a03", "is_reserved": 0, "fusion_lon": 0.0}, {"lat": 38.91193033333333, "is_disabled": 0, "fusion_lat": 0.0, "name": "fcea6477017c6853ca9d480c4d411dcb", "type": "electric_scooter", "lon": -77.0181165, "rental_uris": {"ios": "https://dc.lft.to/lastmile_qr_scan", "android": "https://dc.lft.to/lastmile_qr_scan"}, "bike_id": "fcea6477017c6853ca9d480c4d411dcb", "is_reserved": 0, "fusion_lon": 0.0}, {"lat": 38.894762166666666, "is_disabled": 0, "fusion_lat": 0.0, "name": "466f3ac4d660f3f49aaadc27fa95c5c3", "type": "electric_scooter", "lon": -77.04534516666666, "rental_uris": {"ios": "https://dc.lft.to/lastmile_qr_scan", "android": "https://dc.lft.to/lastmile_qr_scan"}, "bike_id": "466f3ac4d660f3f49aaadc27fa95c5c3", "is_reserved": 0, "fusion_lon": 0.0}, {"lat": 38.833790666666665, "is_disabled": 0, "fusion_lat": 0.0, "name": "87205567dad551d0f2d8354df2498a03", "type": "electric_scooter", "lon": -77.002934, "rental_uris": {"ios": "https://dc.lft.to/lastmile_qr_scan", "android": "https://dc.lft.to/lastmile_qr_scan"}, "bike_id": "87205567dad551d0f2d8354df2498a03", "is_reserved": 0, "fusion_lon": 0.0}, {"lat": 38.9563335, "is_disabled": 0, "fusion_lat": 0.0, "name": "06f7e2aec69e72d50df5e6a1bf25e33e", "type": "electric_scooter", "lon": -77.02428066666667, "rental_uris": {"ios": "https://dc.lft.to/lastmile_qr_scan", "android": "https://dc.lft.to/lastmile_qr_scan"}, "bike_id": "06f7e2aec69e72d50df5e6a1bf25e33e", "is_reserved": 0, "fusion_lon": 0.0}, {"lat": 38.914917833333334, "is_disabled": 0, "fusion_lat": 0.0, "name": "320c0c1e41497f1680c44103426cb51a", "type": "electric_scooter", "lon": -77.0177455, "rental_uris": {"ios": "https://dc.lft.to/lastmile_qr_scan", "android": "https://dc.lft.to/lastmile_qr_scan"}, "bike_id": "320c0c1e41497f1680c44103426cb51a", "is_reserved": 0, "fusion_lon": 0.0}, {"lat": 38.902675333333335, "is_disabled": 0, "fusion_lat": 0.0, "name": "94b46bc8370f8d0a4d27e3077f1460ee", "type": "electric_scooter", "lon": -77.01743566666667, "rental_uris": {"ios": "https://dc.lft.to/lastmile_qr_scan", "android": "https://dc.lft.to/lastmile_qr_scan"}, "bike_id": "94b46bc8370f8d0a4d27e3077f1460ee", "is_reserved": 0, "fusion_lon": 0.0}, {"lat": 38.9097285, "is_disabled": 0, "fusion_lat": 0.0, "name": "5ec59840fa0e7e4d0df5dbea8d43c806", "type": "electric_scooter", "lon": -77.04817083333333, "rental_uris": {"ios": "https://dc.lft.to/lastmile_qr_scan", "android": "https://dc.lft.to/lastmile_qr_scan"}, "bike_id": "5ec59840fa0e7e4d0df5dbea8d43c806", "is_reserved": 0, "fusion_lon": 0.0}, {"lat": 38.874703833333335, "is_disabled": 0, "fusion_lat": 0.0, "name": "91bd128c286e2d1c4a4adf22a8291416", "type": "electric_scooter", "lon": -77.0052865, "rental_uris": {"ios": "https://dc.lft.to/lastmile_qr_scan", "android": "https://dc.lft.to/lastmile_qr_scan"}, "bike_id": "91bd128c286e2d1c4a4adf22a8291416", "is_reserved": 0, "fusion_lon": 0.0}, {"lat": 38.9026905, "is_disabled": 0, "fusion_lat": 0.0, "name": "d4c75f5a25320f8bac7e8e6253b4c789", "type": "electric_scooter", "lon": -77.051755, "rental_uris": {"ios": "https://dc.lft.to/lastmile_qr_scan", "android": "https://dc.lft.to/lastmile_qr_scan"}, "bike_id": "d4c75f5a25320f8bac7e8e6253b4c789", "is_reserved": 0, "fusion_lon": 0.0}, {"lat": 38.9004725, "is_disabled": 0, "fusion_lat": 0.0, "name": "b47cc9d1e82afea136dcc24a1ad76301", "type": "electric_scooter", "lon": -77.03463216666667, "rental_uris": {"ios": "https://dc.lft.to/lastmile_qr_scan", "android": "https://dc.lft.to/lastmile_qr_scan"}, "bike_id": "b47cc9d1e82afea136dcc24a1ad76301", "is_reserved": 0, "fusion_lon": 0.0}, {"lat": 38.940361833333334, "is_disabled": 0, "fusion_lat": 0.0, "name": "1ad7efe0cd7a7c59e9890374abf542e1", "type": "electric_scooter", "lon": -77.08389066666666, "rental_uris": {"ios": "https://dc.lft.to/lastmile_qr_scan", "android": "https://dc.lft.to/lastmile_qr_scan"}, "bike_id": "1ad7efe0cd7a7c59e9890374abf542e1", "is_reserved": 0, "fusion_lon": 0.0}, {"lat": 38.88431633333333, "is_disabled": 0, "fusion_lat": 0.0, "name": "757da76fa429947f724e0a8ce8a7952b", "type": "electric_scooter", "lon": -77.0303415, "rental_uris": {"ios": "https://dc.lft.to/lastmile_qr_scan", "android": "https://dc.lft.to/lastmile_qr_scan"}, "bike_id": "757da76fa429947f724e0a8ce8a7952b", "is_reserved": 0, "fusion_lon": 0.0}, {"lat": 38.907505, "is_disabled": 0, "fusion_lat": 0.0, "name": "f8c9575cfade2cb2611aeb5577a33b07", "type": "electric_scooter", "lon": -77.0416265, "rental_uris": {"ios": "https://dc.lft.to/lastmile_qr_scan", "android": "https://dc.lft.to/lastmile_qr_scan"}, "bike_id": "f8c9575cfade2cb2611aeb5577a33b07", "is_reserved": 0, "fusion_lon": 0.0}, {"lat": 38.923395166666666, "is_disabled": 0, "fusion_lat": 0.0, "name": "8dfcb8ee1680deb0e8d90730148cbc50", "type": "electric_scooter", "lon": -77.00915033333334, "rental_uris": {"ios": "https://dc.lft.to/lastmile_qr_scan", "android": "https://dc.lft.to/lastmile_qr_scan"}, "bike_id": "8dfcb8ee1680deb0e8d90730148cbc50", "is_reserved": 0, "fusion_lon": 0.0}, {"lat": 38.9279155, "is_disabled": 0, "fusion_lat": 0.0, "name": "fa50b68786c0304ea1ed961093e08e43", "type": "electric_scooter", "lon": -77.03620083333334, "rental_uris": {"ios": "https://dc.lft.to/lastmile_qr_scan", "android": "https://dc.lft.to/lastmile_qr_scan"}, "bike_id": "fa50b68786c0304ea1ed961093e08e43", "is_reserved": 0, "fusion_lon": 0.0}, {"lat": 38.83917433333333, "is_disabled": 0, "fusion_lat": 0.0, "name": "806546d46220c13c317c0c7a81129b3e", "type": "electric_bike", "lon": -76.99833, "rental_uris": {"ios": "https://dc.lft.to/lastmile_qr_scan", "android": "https://dc.lft.to/lastmile_qr_scan"}, "bike_id": "806546d46220c13c317c0c7a81129b3e", "is_reserved": 0, "fusion_lon": 0.0}, {"lat": 38.943698833333336, "is_disabled": 0, "fusion_lat": 0.0, "name": "4e5c0fdfb57ae1e13df2f7789e19a0a8", "type": "electric_scooter", "lon": -77.0258325, "rental_uris": {"ios": "https://dc.lft.to/lastmile_qr_scan", "android": "https://dc.lft.to/lastmile_qr_scan"}, "bike_id": "4e5c0fdfb57ae1e13df2f7789e19a0a8", "is_reserved": 0, "fusion_lon": 0.0}, {"lat": 38.906087166666666, "is_disabled": 0, "fusion_lat": 0.0, "name": "90914a5a867cf132dcd726fac21572e0", "type": "electric_scooter", "lon": -77.0324095, "rental_uris": {"ios": "https://dc.lft.to/lastmile_qr_scan", "android": "https://dc.lft.to/lastmile_qr_scan"}, "bike_id": "90914a5a867cf132dcd726fac21572e0", "is_reserved": 0, "fusion_lon": 0.0}, {"lat": 38.886183833333334, "is_disabled": 0, "fusion_lat": 0.0, "name": "82f4e598c6a6c5b6eb9254f6545ad1c5", "type": "electric_bike", "lon": -77.005768, "rental_uris": {"ios": "https://dc.lft.to/lastmile_qr_scan", "android": "https://dc.lft.to/lastmile_qr_scan"}, "bike_id": "82f4e598c6a6c5b6eb9254f6545ad1c5", "is_reserved": 0, "fusion_lon": 0.0}, {"lat": 38.9210195, "is_disabled": 0, "fusion_lat": 0.0, "name": "242a8b0a3eecabda28268c4bc3f49915", "type": "electric_scooter", "lon": -77.08188633333333, "rental_uris": {"ios": "https://dc.lft.to/lastmile_qr_scan", "android": "https://dc.lft.to/lastmile_qr_scan"}, "bike_id": "242a8b0a3eecabda28268c4bc3f49915", "is_reserved": 0, "fusion_lon": 0.0}, {"lat": 38.92090133333333, "is_disabled": 0, "fusion_lat": 0.0, "name": "cb515c6dc8d705a27bf2495cd60ac3ec", "type": "electric_scooter", "lon": -77.02223166666667, "rental_uris": {"ios": "https://dc.lft.to/lastmile_qr_scan", "android": "https://dc.lft.to/lastmile_qr_scan"}, "bike_id": "cb515c6dc8d705a27bf2495cd60ac3ec", "is_reserved": 0, "fusion_lon": 0.0}, {"lat": 38.90568583333334, "is_disabled": 0, "fusion_lat": 0.0, "name": "adacbc389828223387fb39c97f51deca", "type": "electric_scooter", "lon": -77.01856833333333, "rental_uris": {"ios": "https://dc.lft.to/lastmile_qr_scan", "android": "https://dc.lft.to/lastmile_qr_scan"}, "bike_id": "adacbc389828223387fb39c97f51deca", "is_reserved": 0, "fusion_lon": 0.0}, {"lat": 38.901673833333334, "is_disabled": 0, "fusion_lat": 0.0, "name": "5dc7ecd90a9f6a5ae2096abd06998e21", "type": "electric_scooter", "lon": -77.05317433333333, "rental_uris": {"ios": "https://dc.lft.to/lastmile_qr_scan", "android": "https://dc.lft.to/lastmile_qr_scan"}, "bike_id": "5dc7ecd90a9f6a5ae2096abd06998e21", "is_reserved": 0, "fusion_lon": 0.0}, {"lat": 38.91691016666667, "is_disabled": 0, "fusion_lat": 0.0, "name": "471a6a960496488b70923a9943d74dd9", "type": "electric_scooter", "lon": -77.017546, "rental_uris": {"ios": "https://dc.lft.to/lastmile_qr_scan", "android": "https://dc.lft.to/lastmile_qr_scan"}, "bike_id": "471a6a960496488b70923a9943d74dd9", "is_reserved": 0, "fusion_lon": 0.0}, {"lat": 38.91329966666667, "is_disabled": 0, "fusion_lat": 0.0, "name": "f6bf355830e3a1eb06274d8b03bf8363", "type": "electric_scooter", "lon": -77.01463766666667, "rental_uris": {"ios": "https://dc.lft.to/lastmile_qr_scan", "android": "https://dc.lft.to/lastmile_qr_scan"}, "bike_id": "f6bf355830e3a1eb06274d8b03bf8363", "is_reserved": 0, "fusion_lon": 0.0}, {"lat": 38.898945499999996, "is_disabled": 0, "fusion_lat": 0.0, "name": "45931a764ff2becbc9f0e2c6a81bb4ea", "type": "electric_scooter", "lon": -77.02168883333333, "rental_uris": {"ios": "https://dc.lft.to/lastmile_qr_scan", "android": "https://dc.lft.to/lastmile_qr_scan"}, "bike_id": "45931a764ff2becbc9f0e2c6a81bb4ea", "is_reserved": 0, "fusion_lon": 0.0}, {"lat": 38.930786166666664, "is_disabled": 0, "fusion_lat": 0.0, "name": "2089b38796d85bdc051fa14c606b12b4", "type": "electric_scooter", "lon": -77.021633, "rental_uris": {"ios": "https://dc.lft.to/lastmile_qr_scan", "android": "https://dc.lft.to/lastmile_qr_scan"}, "bike_id": "2089b38796d85bdc051fa14c606b12b4", "is_reserved": 0, "fusion_lon": 0.0}, {"lat": 38.9224425, "is_disabled": 0, "fusion_lat": 0.0, "name": "e3a44fbad95c8b9ded214d6cca1772a3", "type": "electric_scooter", "lon": -77.02808983333334, "rental_uris": {"ios": "https://dc.lft.to/lastmile_qr_scan", "android": "https://dc.lft.to/lastmile_qr_scan"}, "bike_id": "e3a44fbad95c8b9ded214d6cca1772a3", "is_reserved": 0, "fusion_lon": 0.0}, {"lat": 38.89316783333334, "is_disabled": 0, "fusion_lat": 0.0, "name": "4b1dbbe2f322de995ba4a2a35945c2bd", "type": "electric_scooter", "lon": -77.01954966666666, "rental_uris": {"ios": "https://dc.lft.to/lastmile_qr_scan", "android": "https://dc.lft.to/lastmile_qr_scan"}, "bike_id": "4b1dbbe2f322de995ba4a2a35945c2bd", "is_reserved": 0, "fusion_lon": 0.0}, {"lat": 38.876949333333336, "is_disabled": 0, "fusion_lat": 0.0, "name": "48e13124428d8780d30990d6d60adca4", "type": "electric_scooter", "lon": -77.00206316666667, "rental_uris": {"ios": "https://dc.lft.to/lastmile_qr_scan", "android": "https://dc.lft.to/lastmile_qr_scan"}, "bike_id": "48e13124428d8780d30990d6d60adca4", "is_reserved": 0, "fusion_lon": 0.0}, {"lat": 38.91923633333333, "is_disabled": 0, "fusion_lat": 0.0, "name": "6c58d4e72c3fea306bb0b6000b488624", "type": "electric_scooter", "lon": -77.03335316666667, "rental_uris": {"ios": "https://dc.lft.to/lastmile_qr_scan", "android": "https://dc.lft.to/lastmile_qr_scan"}, "bike_id": "6c58d4e72c3fea306bb0b6000b488624", "is_reserved": 0, "fusion_lon": 0.0}, {"lat": 38.9035985, "is_disabled": 0, "fusion_lat": 0.0, "name": "18810e484d0c35f109077008f46595fb", "type": "electric_scooter", "lon": -77.0600065, "rental_uris": {"ios": "https://dc.lft.to/lastmile_qr_scan", "android": "https://dc.lft.to/lastmile_qr_scan"}, "bike_id": "18810e484d0c35f109077008f46595fb", "is_reserved": 0, "fusion_lon": 0.0}, {"lat": 38.924095, "is_disabled": 0, "fusion_lat": 0.0, "name": "181f0276a21bc3ae6a96c11a14669a6f", "type": "electric_scooter", "lon": -77.02132566666667, "rental_uris": {"ios": "https://dc.lft.to/lastmile_qr_scan", "android": "https://dc.lft.to/lastmile_qr_scan"}, "bike_id": "181f0276a21bc3ae6a96c11a14669a6f", "is_reserved": 0, "fusion_lon": 0.0}, {"lat": 38.89400066666666, "is_disabled": 0, "fusion_lat": 0.0, "name": "d64ee23424efe1baf3c630d2a229e9e1", "type": "electric_scooter", "lon": -76.97819233333334, "rental_uris": {"ios": "https://dc.lft.to/lastmile_qr_scan", "android": "https://dc.lft.to/lastmile_qr_scan"}, "bike_id": "d64ee23424efe1baf3c630d2a229e9e1", "is_reserved": 0, "fusion_lon": 0.0}, {"lat": 38.91705183333333, "is_disabled": 0, "fusion_lat": 0.0, "name": "1600f69dc8f7932e632e6617c713d6e5", "type": "electric_scooter", "lon": -77.02411683333334, "rental_uris": {"ios": "https://dc.lft.to/lastmile_qr_scan", "android": "https://dc.lft.to/lastmile_qr_scan"}, "bike_id": "1600f69dc8f7932e632e6617c713d6e5", "is_reserved": 0, "fusion_lon": 0.0}, {"lat": 38.89967566666667, "is_disabled": 0, "fusion_lat": 0.0, "name": "7a15a4b1478b549817577d53debdf32a", "type": "electric_scooter", "lon": -77.01611866666667, "rental_uris": {"ios": "https://dc.lft.to/lastmile_qr_scan", "android": "https://dc.lft.to/lastmile_qr_scan"}, "bike_id": "7a15a4b1478b549817577d53debdf32a", "is_reserved": 0, "fusion_lon": 0.0}, {"lat": 38.900614166666664, "is_disabled": 0, "fusion_lat": 0.0, "name": "50e819a519d7f64c2fe204df81246e1c", "type": "electric_scooter", "lon": -76.98708033333334, "rental_uris": {"ios": "https://dc.lft.to/lastmile_qr_scan", "android": "https://dc.lft.to/lastmile_qr_scan"}, "bike_id": "50e819a519d7f64c2fe204df81246e1c", "is_reserved": 0, "fusion_lon": 0.0}, {"lat": 38.9448525, "is_disabled": 0, "fusion_lat": 0.0, "name": "7991d61b3b6d46f322714751911e0ffe", "type": "electric_scooter", "lon": -77.09502, "rental_uris": {"ios": "https://dc.lft.to/lastmile_qr_scan", "android": "https://dc.lft.to/lastmile_qr_scan"}, "bike_id": "7991d61b3b6d46f322714751911e0ffe", "is_reserved": 0, "fusion_lon": 0.0}, {"lat": 38.89633833333333, "is_disabled": 0, "fusion_lat": 0.0, "name": "35a2e86b8ce3fe28085b0a789669acf5", "type": "electric_scooter", "lon": -77.0285515, "rental_uris": {"ios": "https://dc.lft.to/lastmile_qr_scan", "android": "https://dc.lft.to/lastmile_qr_scan"}, "bike_id": "35a2e86b8ce3fe28085b0a789669acf5", "is_reserved": 0, "fusion_lon": 0.0}, {"lat": 38.897293, "is_disabled": 0, "fusion_lat": 0.0, "name": "64b234c6f07e9a1f1fb5ea1e5684b48e", "type": "electric_scooter", "lon": -77.01911733333333, "rental_uris": {"ios": "https://dc.lft.to/lastmile_qr_scan", "android": "https://dc.lft.to/lastmile_qr_scan"}, "bike_id": "64b234c6f07e9a1f1fb5ea1e5684b48e", "is_reserved": 0, "fusion_lon": 0.0}, {"lat": 38.924668833333335, "is_disabled": 0, "fusion_lat": 0.0, "name": "b62b1442d37d1bd43024197f3ece6130", "type": "electric_scooter", "lon": -77.02242, "rental_uris": {"ios": "https://dc.lft.to/lastmile_qr_scan", "android": "https://dc.lft.to/lastmile_qr_scan"}, "bike_id": "b62b1442d37d1bd43024197f3ece6130", "is_reserved": 0, "fusion_lon": 0.0}, {"lat": 38.87716283333334, "is_disabled": 0, "fusion_lat": 0.0, "name": "c438fdbba0495517605444fb0f42faeb", "type": "electric_scooter", "lon": -77.016419, "rental_uris": {"ios": "https://dc.lft.to/lastmile_qr_scan", "android": "https://dc.lft.to/lastmile_qr_scan"}, "bike_id": "c438fdbba0495517605444fb0f42faeb", "is_reserved": 0, "fusion_lon": 0.0}, {"lat": 38.92980166666667, "is_disabled": 0, "fusion_lat": 0.0, "name": "c455921f131d8b5cb1d29d0ab298e24c", "type": "electric_bike", "lon": -76.986033, "rental_uris": {"ios": "https://dc.lft.to/lastmile_qr_scan", "android": "https://dc.lft.to/lastmile_qr_scan"}, "bike_id": "c455921f131d8b5cb1d29d0ab298e24c", "is_reserved": 0, "fusion_lon": 0.0}, {"lat": 38.926547166666666, "is_disabled": 0, "fusion_lat": 0.0, "name": "c26186ba3a94685fb5fbd3d4650b9cca", "type": "electric_scooter", "lon": -77.03843333333333, "rental_uris": {"ios": "https://dc.lft.to/lastmile_qr_scan", "android": "https://dc.lft.to/lastmile_qr_scan"}, "bike_id": "c26186ba3a94685fb5fbd3d4650b9cca", "is_reserved": 0, "fusion_lon": 0.0}, {"lat": 38.89823783333333, "is_disabled": 0, "fusion_lat": 0.0, "name": "99c273fc547074bf3dfb6c16cd796704", "type": "electric_scooter", "lon": -77.01264116666667, "rental_uris": {"ios": "https://dc.lft.to/lastmile_qr_scan", "android": "https://dc.lft.to/lastmile_qr_scan"}, "bike_id": "99c273fc547074bf3dfb6c16cd796704", "is_reserved": 0, "fusion_lon": 0.0}, {"lat": 38.900367, "is_disabled": 0, "fusion_lat": 0.0, "name": "3c3080ba15feaedd26b91f65b6b052f9", "type": "electric_scooter", "lon": -76.99153816666667, "rental_uris": {"ios": "https://dc.lft.to/lastmile_qr_scan", "android": "https://dc.lft.to/lastmile_qr_scan"}, "bike_id": "3c3080ba15feaedd26b91f65b6b052f9", "is_reserved": 0, "fusion_lon": 0.0}, {"lat": 38.91948583333333, "is_disabled": 0, "fusion_lat": 0.0, "name": "64a6502e75f583b3b5596a45e4c437a6", "type": "electric_scooter", "lon": -77.0248905, "rental_uris": {"ios": "https://dc.lft.to/lastmile_qr_scan", "android": "https://dc.lft.to/lastmile_qr_scan"}, "bike_id": "64a6502e75f583b3b5596a45e4c437a6", "is_reserved": 0, "fusion_lon": 0.0}, {"lat": 38.80980566666667, "is_disabled": 0, "fusion_lat": 0.0, "name": "a9a78cede0defda3dc4c047fb61db340", "type": "electric_bike", "lon": -77.07656883333334, "rental_uris": {"ios": "https://dc.lft.to/lastmile_qr_scan", "android": "https://dc.lft.to/lastmile_qr_scan"}, "bike_id": "a9a78cede0defda3dc4c047fb61db340", "is_reserved": 0, "fusion_lon": 0.0}, {"lat": 38.937055, "is_disabled": 0, "fusion_lat": 0.0, "name": "01c6854d162a60f9bf3a3a1498973ece", "type": "electric_scooter", "lon": -77.0241815, "rental_uris": {"ios": "https://dc.lft.to/lastmile_qr_scan", "android": "https://dc.lft.to/lastmile_qr_scan"}, "bike_id": "01c6854d162a60f9bf3a3a1498973ece", "is_reserved": 0, "fusion_lon": 0.0}, {"lat": 38.899674833333336, "is_disabled": 0, "fusion_lat": 0.0, "name": "7bbbbdae9902b0c38e0c8e0fae2ddbe9", "type": "electric_scooter", "lon": -77.01509333333334, "rental_uris": {"ios": "https://dc.lft.to/lastmile_qr_scan", "android": "https://dc.lft.to/lastmile_qr_scan"}, "bike_id": "7bbbbdae9902b0c38e0c8e0fae2ddbe9", "is_reserved": 0, "fusion_lon": 0.0}, {"lat": 38.93061566666667, "is_disabled": 0, "fusion_lat": 0.0, "name": "9f1ee85a185039056650ff8b8200413f", "type": "electric_scooter", "lon": -77.02321316666666, "rental_uris": {"ios": "https://dc.lft.to/lastmile_qr_scan", "android": "https://dc.lft.to/lastmile_qr_scan"}, "bike_id": "9f1ee85a185039056650ff8b8200413f", "is_reserved": 0, "fusion_lon": 0.0}, {"lat": 38.920598166666664, "is_disabled": 0, "fusion_lat": 0.0, "name": "b83456d6847549e7b93f1af6f05be06f", "type": "electric_scooter", "lon": -77.02301833333334, "rental_uris": {"ios": "https://dc.lft.to/lastmile_qr_scan", "android": "https://dc.lft.to/lastmile_qr_scan"}, "bike_id": "b83456d6847549e7b93f1af6f05be06f", "is_reserved": 0, "fusion_lon": 0.0}, {"lat": 38.95638683333333, "is_disabled": 0, "fusion_lat": 0.0, "name": "29ccb68438608feab1cd3b30bb262497", "type": "electric_scooter", "lon": -77.036281, "rental_uris": {"ios": "https://dc.lft.to/lastmile_qr_scan", "android": "https://dc.lft.to/lastmile_qr_scan"}, "bike_id": "29ccb68438608feab1cd3b30bb262497", "is_reserved": 0, "fusion_lon": 0.0}, {"lat": 38.91561433333333, "is_disabled": 0, "fusion_lat": 0.0, "name": "92908db495e8de4a71e6ff25b47514cb", "type": "electric_scooter", "lon": -77.02429383333333, "rental_uris": {"ios": "https://dc.lft.to/lastmile_qr_scan", "android": "https://dc.lft.to/lastmile_qr_scan"}, "bike_id": "92908db495e8de4a71e6ff25b47514cb", "is_reserved": 0, "fusion_lon": 0.0}, {"lat": 38.91791816666667, "is_disabled": 0, "fusion_lat": 0.0, "name": "696b21755f079fe840d06731f55c8fd6", "type": "electric_scooter", "lon": -77.023381, "rental_uris": {"ios": "https://dc.lft.to/lastmile_qr_scan", "android": "https://dc.lft.to/lastmile_qr_scan"}, "bike_id": "696b21755f079fe840d06731f55c8fd6", "is_reserved": 0, "fusion_lon": 0.0}, {"lat": 38.9007625, "is_disabled": 0, "fusion_lat": 0.0, "name": "a8ffd9d1fb83513f99119f535a358234", "type": "electric_scooter", "lon": -77.04548283333334, "rental_uris": {"ios": "https://dc.lft.to/lastmile_qr_scan", "android": "https://dc.lft.to/lastmile_qr_scan"}, "bike_id": "a8ffd9d1fb83513f99119f535a358234", "is_reserved": 0, "fusion_lon": 0.0}, {"lat": 38.9005165, "is_disabled": 0, "fusion_lat": 0.0, "name": "cf4a91670557842fd8d2a781f8809852", "type": "electric_scooter", "lon": -77.02972666666666, "rental_uris": {"ios": "https://dc.lft.to/lastmile_qr_scan", "android": "https://dc.lft.to/lastmile_qr_scan"}, "bike_id": "cf4a91670557842fd8d2a781f8809852", "is_reserved": 0, "fusion_lon": 0.0}, {"lat": 38.90783316666667, "is_disabled": 0, "fusion_lat": 0.0, "name": "7cd84f64afd69275c57003db788cd032", "type": "electric_scooter", "lon": -77.072519, "rental_uris": {"ios": "https://dc.lft.to/lastmile_qr_scan", "android": "https://dc.lft.to/lastmile_qr_scan"}, "bike_id": "7cd84f64afd69275c57003db788cd032", "is_reserved": 0, "fusion_lon": 0.0}, {"lat": 38.9220775, "is_disabled": 0, "fusion_lat": 0.0, "name": "ad87a6647ee572aa4c087fdbc4d915da", "type": "electric_scooter", "lon": -77.0202435, "rental_uris": {"ios": "https://dc.lft.to/lastmile_qr_scan", "android": "https://dc.lft.to/lastmile_qr_scan"}, "bike_id": "ad87a6647ee572aa4c087fdbc4d915da", "is_reserved": 0, "fusion_lon": 0.0}, {"lat": 38.92332416666667, "is_disabled": 0, "fusion_lat": 0.0, "name": "eeb2bd13c2a8d158e4767e3f1e4dcdd9", "type": "electric_scooter", "lon": -77.0445635, "rental_uris": {"ios": "https://dc.lft.to/lastmile_qr_scan", "android": "https://dc.lft.to/lastmile_qr_scan"}, "bike_id": "eeb2bd13c2a8d158e4767e3f1e4dcdd9", "is_reserved": 0, "fusion_lon": 0.0}, {"lat": 38.91488183333333, "is_disabled": 0, "fusion_lat": 0.0, "name": "021b8fc35002dabd113ebfa3afa3172c", "type": "electric_scooter", "lon": -76.98069716666667, "rental_uris": {"ios": "https://dc.lft.to/lastmile_qr_scan", "android": "https://dc.lft.to/lastmile_qr_scan"}, "bike_id": "021b8fc35002dabd113ebfa3afa3172c", "is_reserved": 0, "fusion_lon": 0.0}, {"lat": 38.89765516666667, "is_disabled": 0, "fusion_lat": 0.0, "name": "71392e2d26b770520055b44e22e71cce", "type": "electric_bike", "lon": -77.07063383333333, "rental_uris": {"ios": "https://dc.lft.to/lastmile_qr_scan", "android": "https://dc.lft.to/lastmile_qr_scan"}, "bike_id": "71392e2d26b770520055b44e22e71cce", "is_reserved": 0, "fusion_lon": 0.0}, {"lat": 38.91720816666667, "is_disabled": 0, "fusion_lat": 0.0, "name": "91533bd3a47137d58e33b2611656c055", "type": "electric_scooter", "lon": -77.02694316666667, "rental_uris": {"ios": "https://dc.lft.to/lastmile_qr_scan", "android": "https://dc.lft.to/lastmile_qr_scan"}, "bike_id": "91533bd3a47137d58e33b2611656c055", "is_reserved": 0, "fusion_lon": 0.0}, {"lat": 38.912697666666666, "is_disabled": 0, "fusion_lat": 0.0, "name": "f67eca012e2c02c566c5e69a1a6205b1", "type": "electric_scooter", "lon": -77.022252, "rental_uris": {"ios": "https://dc.lft.to/lastmile_qr_scan", "android": "https://dc.lft.to/lastmile_qr_scan"}, "bike_id": "f67eca012e2c02c566c5e69a1a6205b1", "is_reserved": 0, "fusion_lon": 0.0}, {"lat": 38.90346533333334, "is_disabled": 0, "fusion_lat": 0.0, "name": "e0f086563130224342da7dbf11ab0cb7", "type": "electric_scooter", "lon": -76.9861275, "rental_uris": {"ios": "https://dc.lft.to/lastmile_qr_scan", "android": "https://dc.lft.to/lastmile_qr_scan"}, "bike_id": "e0f086563130224342da7dbf11ab0cb7", "is_reserved": 0, "fusion_lon": 0.0}, {"lat": 38.88710783333333, "is_disabled": 0, "fusion_lat": 0.0, "name": "91dba357e327019c9508094857ece1e9", "type": "electric_scooter", "lon": -76.98380083333333, "rental_uris": {"ios": "https://dc.lft.to/lastmile_qr_scan", "android": "https://dc.lft.to/lastmile_qr_scan"}, "bike_id": "91dba357e327019c9508094857ece1e9", "is_reserved": 0, "fusion_lon": 0.0}, {"lat": 38.92667633333333, "is_disabled": 0, "fusion_lat": 0.0, "name": "7a782ddbad767704a9083b8af52d6f8b", "type": "electric_scooter", "lon": -77.01496033333333, "rental_uris": {"ios": "https://dc.lft.to/lastmile_qr_scan", "android": "https://dc.lft.to/lastmile_qr_scan"}, "bike_id": "7a782ddbad767704a9083b8af52d6f8b", "is_reserved": 0, "fusion_lon": 0.0}, {"lat": 38.91920366666667, "is_disabled": 0, "fusion_lat": 0.0, "name": "3fa3f75ff3b800429359d754f2b096ae", "type": "electric_scooter", "lon": -77.03338683333334, "rental_uris": {"ios": "https://dc.lft.to/lastmile_qr_scan", "android": "https://dc.lft.to/lastmile_qr_scan"}, "bike_id": "3fa3f75ff3b800429359d754f2b096ae", "is_reserved": 0, "fusion_lon": 0.0}, {"lat": 38.93299183333333, "is_disabled": 0, "fusion_lat": 0.0, "name": "782091cebf61428df933a8795aed4513", "type": "electric_scooter", "lon": -77.020554, "rental_uris": {"ios": "https://dc.lft.to/lastmile_qr_scan", "android": "https://dc.lft.to/lastmile_qr_scan"}, "bike_id": "782091cebf61428df933a8795aed4513", "is_reserved": 0, "fusion_lon": 0.0}, {"lat": 38.89609516666667, "is_disabled": 0, "fusion_lat": 0.0, "name": "6a0a93dd3ecc1f8906dfc0876d262f0a", "type": "electric_scooter", "lon": -77.02544966666666, "rental_uris": {"ios": "https://dc.lft.to/lastmile_qr_scan", "android": "https://dc.lft.to/lastmile_qr_scan"}, "bike_id": "6a0a93dd3ecc1f8906dfc0876d262f0a", "is_reserved": 0, "fusion_lon": 0.0}, {"lat": 38.91018316666667, "is_disabled": 0, "fusion_lat": 0.0, "name": "5eccbbd0b66e9edcaf2579ce4521409c", "type": "electric_scooter", "lon": -76.99381733333334, "rental_uris": {"ios": "https://dc.lft.to/lastmile_qr_scan", "android": "https://dc.lft.to/lastmile_qr_scan"}, "bike_id": "5eccbbd0b66e9edcaf2579ce4521409c", "is_reserved": 0, "fusion_lon": 0.0}, {"lat": 38.9031465, "is_disabled": 0, "fusion_lat": 0.0, "name": "4053b4219732f3ef96b0959acb244325", "type": "electric_scooter", "lon": -77.021206, "rental_uris": {"ios": "https://dc.lft.to/lastmile_qr_scan", "android": "https://dc.lft.to/lastmile_qr_scan"}, "bike_id": "4053b4219732f3ef96b0959acb244325", "is_reserved": 0, "fusion_lon": 0.0}, {"lat": 38.900953, "is_disabled": 0, "fusion_lat": 0.0, "name": "aa8320025ce1080d1f0feba195455b6d", "type": "electric_scooter", "lon": -77.02683433333333, "rental_uris": {"ios": "https://dc.lft.to/lastmile_qr_scan", "android": "https://dc.lft.to/lastmile_qr_scan"}, "bike_id": "aa8320025ce1080d1f0feba195455b6d", "is_reserved": 0, "fusion_lon": 0.0}, {"lat": 38.9241015, "is_disabled": 0, "fusion_lat": 0.0, "name": "531ce67d891cf9ba58e399b54797acf9", "type": "electric_scooter", "lon": -77.02699366666667, "rental_uris": {"ios": "https://dc.lft.to/lastmile_qr_scan", "android": "https://dc.lft.to/lastmile_qr_scan"}, "bike_id": "531ce67d891cf9ba58e399b54797acf9", "is_reserved": 0, "fusion_lon": 0.0}, {"lat": 38.9040925, "is_disabled": 0, "fusion_lat": 0.0, "name": "2f1aef787c9dc96e3e70acfd32fd64fc", "type": "electric_scooter", "lon": -77.03293333333333, "rental_uris": {"ios": "https://dc.lft.to/lastmile_qr_scan", "android": "https://dc.lft.to/lastmile_qr_scan"}, "bike_id": "2f1aef787c9dc96e3e70acfd32fd64fc", "is_reserved": 0, "fusion_lon": 0.0}, {"lat": 38.9236115, "is_disabled": 0, "fusion_lat": 0.0, "name": "3387f14d73becd664b2d26b0493bfd90", "type": "electric_scooter", "lon": -77.02052583333334, "rental_uris": {"ios": "https://dc.lft.to/lastmile_qr_scan", "android": "https://dc.lft.to/lastmile_qr_scan"}, "bike_id": "3387f14d73becd664b2d26b0493bfd90", "is_reserved": 0, "fusion_lon": 0.0}, {"lat": 38.937568166666665, "is_disabled": 0, "fusion_lat": 0.0, "name": "2053e35edbc60ded4c422ae957eaa337", "type": "electric_scooter", "lon": -77.03264933333334, "rental_uris": {"ios": "https://dc.lft.to/lastmile_qr_scan", "android": "https://dc.lft.to/lastmile_qr_scan"}, "bike_id": "2053e35edbc60ded4c422ae957eaa337", "is_reserved": 0, "fusion_lon": 0.0}, {"lat": 38.908184, "is_disabled": 0, "fusion_lat": 0.0, "name": "5de593629cd6d1e99902a085f72e7bc3", "type": "electric_scooter", "lon": -77.0344925, "rental_uris": {"ios": "https://dc.lft.to/lastmile_qr_scan", "android": "https://dc.lft.to/lastmile_qr_scan"}, "bike_id": "5de593629cd6d1e99902a085f72e7bc3", "is_reserved": 0, "fusion_lon": 0.0}, {"lat": 38.89621366666667, "is_disabled": 0, "fusion_lat": 0.0, "name": "9a51dee1dc9bf7581927a5fc7f1a0e37", "type": "electric_scooter", "lon": -76.99847233333334, "rental_uris": {"ios": "https://dc.lft.to/lastmile_qr_scan", "android": "https://dc.lft.to/lastmile_qr_scan"}, "bike_id": "9a51dee1dc9bf7581927a5fc7f1a0e37", "is_reserved": 0, "fusion_lon": 0.0}, {"lat": 38.91343116666667, "is_disabled": 0, "fusion_lat": 0.0, "name": "7d268e745ae21a3dcd4f30a0af70481b", "type": "electric_scooter", "lon": -77.025812, "rental_uris": {"ios": "https://dc.lft.to/lastmile_qr_scan", "android": "https://dc.lft.to/lastmile_qr_scan"}, "bike_id": "7d268e745ae21a3dcd4f30a0af70481b", "is_reserved": 0, "fusion_lon": 0.0}, {"lat": 38.9078065, "is_disabled": 0, "fusion_lat": 0.0, "name": "f331eb930b2c0c5920204b49f69c66e9", "type": "electric_scooter", "lon": -77.0724855, "rental_uris": {"ios": "https://dc.lft.to/lastmile_qr_scan", "android": "https://dc.lft.to/lastmile_qr_scan"}, "bike_id": "f331eb930b2c0c5920204b49f69c66e9", "is_reserved": 0, "fusion_lon": 0.0}, {"lat": 38.998587666666666, "is_disabled": 0, "fusion_lat": 0.0, "name": "cfa3793b6e8f05deb4b54c056d182f7e", "type": "electric_bike", "lon": -77.00370533333333, "rental_uris": {"ios": "https://dc.lft.to/lastmile_qr_scan", "android": "https://dc.lft.to/lastmile_qr_scan"}, "bike_id": "cfa3793b6e8f05deb4b54c056d182f7e", "is_reserved": 0, "fusion_lon": 0.0}, {"lat": 38.92174633333333, "is_disabled": 0, "fusion_lat": 0.0, "name": "a07f158c05c4ab05548b772b508219b5", "type": "electric_scooter", "lon": -77.02673083333333, "rental_uris": {"ios": "https://dc.lft.to/lastmile_qr_scan", "android": "https://dc.lft.to/lastmile_qr_scan"}, "bike_id": "a07f158c05c4ab05548b772b508219b5", "is_reserved": 0, "fusion_lon": 0.0}, {"lat": 38.91567466666667, "is_disabled": 0, "fusion_lat": 0.0, "name": "64b9afde38d836122fe4e4c73a83efff", "type": "electric_scooter", "lon": -77.0078765, "rental_uris": {"ios": "https://dc.lft.to/lastmile_qr_scan", "android": "https://dc.lft.to/lastmile_qr_scan"}, "bike_id": "64b9afde38d836122fe4e4c73a83efff", "is_reserved": 0, "fusion_lon": 0.0}, {"lat": 38.92497983333333, "is_disabled": 0, "fusion_lat": 0.0, "name": "9c294bb8c93c1e772a1ecc5d2a36fdf6", "type": "electric_scooter", "lon": -77.043352, "rental_uris": {"ios": "https://dc.lft.to/lastmile_qr_scan", "android": "https://dc.lft.to/lastmile_qr_scan"}, "bike_id": "9c294bb8c93c1e772a1ecc5d2a36fdf6", "is_reserved": 0, "fusion_lon": 0.0}, {"lat": 38.91330983333334, "is_disabled": 0, "fusion_lat": 0.0, "name": "33149439cc8540c92f4928c841ee9731", "type": "electric_scooter", "lon": -77.0318465, "rental_uris": {"ios": "https://dc.lft.to/lastmile_qr_scan", "android": "https://dc.lft.to/lastmile_qr_scan"}, "bike_id": "33149439cc8540c92f4928c841ee9731", "is_reserved": 0, "fusion_lon": 0.0}, {"lat": 38.89223, "is_disabled": 0, "fusion_lat": 0.0, "name": "eeb355bc4affec7ab3059806ea40ec7a", "type": "electric_scooter", "lon": -77.0253635, "rental_uris": {"ios": "https://dc.lft.to/lastmile_qr_scan", "android": "https://dc.lft.to/lastmile_qr_scan"}, "bike_id": "eeb355bc4affec7ab3059806ea40ec7a", "is_reserved": 0, "fusion_lon": 0.0}, {"lat": 38.897359, "is_disabled": 0, "fusion_lat": 0.0, "name": "2179c4bb8b83f20ac8b62acc1f3f58bb", "type": "electric_scooter", "lon": -77.0332955, "rental_uris": {"ios": "https://dc.lft.to/lastmile_qr_scan", "android": "https://dc.lft.to/lastmile_qr_scan"}, "bike_id": "2179c4bb8b83f20ac8b62acc1f3f58bb", "is_reserved": 0, "fusion_lon": 0.0}, {"lat": 38.89328616666667, "is_disabled": 0, "fusion_lat": 0.0, "name": "142636035a5fd9b07628fb3779f0362c", "type": "electric_scooter", "lon": -77.033709, "rental_uris": {"ios": "https://dc.lft.to/lastmile_qr_scan", "android": "https://dc.lft.to/lastmile_qr_scan"}, "bike_id": "142636035a5fd9b07628fb3779f0362c", "is_reserved": 0, "fusion_lon": 0.0}, {"lat": 38.887155666666665, "is_disabled": 0, "fusion_lat": 0.0, "name": "d98f282543cf278329f1a18c06fc512a", "type": "electric_scooter", "lon": -76.98339033333333, "rental_uris": {"ios": "https://dc.lft.to/lastmile_qr_scan", "android": "https://dc.lft.to/lastmile_qr_scan"}, "bike_id": "d98f282543cf278329f1a18c06fc512a", "is_reserved": 0, "fusion_lon": 0.0}, {"lat": 38.9233185, "is_disabled": 0, "fusion_lat": 0.0, "name": "11f8ef229d6eea8c8f07ecba937cda24", "type": "electric_scooter", "lon": -77.02039566666667, "rental_uris": {"ios": "https://dc.lft.to/lastmile_qr_scan", "android": "https://dc.lft.to/lastmile_qr_scan"}, "bike_id": "11f8ef229d6eea8c8f07ecba937cda24", "is_reserved": 0, "fusion_lon": 0.0}, {"lat": 38.90763716666667, "is_disabled": 0, "fusion_lat": 0.0, "name": "50f919f8cb7921b9cfaff52fd1c5329e", "type": "electric_scooter", "lon": -77.04533616666667, "rental_uris": {"ios": "https://dc.lft.to/lastmile_qr_scan", "android": "https://dc.lft.to/lastmile_qr_scan"}, "bike_id": "50f919f8cb7921b9cfaff52fd1c5329e", "is_reserved": 0, "fusion_lon": 0.0}, {"lat": 38.893364166666665, "is_disabled": 0, "fusion_lat": 0.0, "name": "3a9fed24fb3b7686b91965d23153a0bc", "type": "electric_scooter", "lon": -76.950562, "rental_uris": {"ios": "https://dc.lft.to/lastmile_qr_scan", "android": "https://dc.lft.to/lastmile_qr_scan"}, "bike_id": "3a9fed24fb3b7686b91965d23153a0bc", "is_reserved": 0, "fusion_lon": 0.0}, {"lat": 38.90422516666667, "is_disabled": 0, "fusion_lat": 0.0, "name": "06266df2835eb4f361762a0edd063a98", "type": "electric_scooter", "lon": -77.02729333333333, "rental_uris": {"ios": "https://dc.lft.to/lastmile_qr_scan", "android": "https://dc.lft.to/lastmile_qr_scan"}, "bike_id": "06266df2835eb4f361762a0edd063a98", "is_reserved": 0, "fusion_lon": 0.0}, {"lat": 38.93732, "is_disabled": 0, "fusion_lat": 0.0, "name": "53fb242d91f1cc0ac851760caa71afac", "type": "electric_scooter", "lon": -77.07351583333333, "rental_uris": {"ios": "https://dc.lft.to/lastmile_qr_scan", "android": "https://dc.lft.to/lastmile_qr_scan"}, "bike_id": "53fb242d91f1cc0ac851760caa71afac", "is_reserved": 0, "fusion_lon": 0.0}, {"lat": 38.91669133333333, "is_disabled": 0, "fusion_lat": 0.0, "name": "3d5857e2f48f4d66c4dd90eac7ccf89f", "type": "electric_scooter", "lon": -77.03850516666667, "rental_uris": {"ios": "https://dc.lft.to/lastmile_qr_scan", "android": "https://dc.lft.to/lastmile_qr_scan"}, "bike_id": "3d5857e2f48f4d66c4dd90eac7ccf89f", "is_reserved": 0, "fusion_lon": 0.0}, {"lat": 38.931349166666664, "is_disabled": 0, "fusion_lat": 0.0, "name": "eb59a8c8a742f7251780885519452511", "type": "electric_scooter", "lon": -77.07849116666667, "rental_uris": {"ios": "https://dc.lft.to/lastmile_qr_scan", "android": "https://dc.lft.to/lastmile_qr_scan"}, "bike_id": "eb59a8c8a742f7251780885519452511", "is_reserved": 0, "fusion_lon": 0.0}, {"lat": 38.8920055, "is_disabled": 0, "fusion_lat": 0.0, "name": "f3c2e079e2d5ed2a53043763ab0b7907", "type": "electric_scooter", "lon": -77.0029705, "rental_uris": {"ios": "https://dc.lft.to/lastmile_qr_scan", "android": "https://dc.lft.to/lastmile_qr_scan"}, "bike_id": "f3c2e079e2d5ed2a53043763ab0b7907", "is_reserved": 0, "fusion_lon": 0.0}, {"lat": 38.90636766666667, "is_disabled": 0, "fusion_lat": 0.0, "name": "9cb92c3af8e64aef833b990533a274d2", "type": "electric_scooter", "lon": -76.99483333333333, "rental_uris": {"ios": "https://dc.lft.to/lastmile_qr_scan", "android": "https://dc.lft.to/lastmile_qr_scan"}, "bike_id": "9cb92c3af8e64aef833b990533a274d2", "is_reserved": 0, "fusion_lon": 0.0}, {"lat": 38.924720666666666, "is_disabled": 0, "fusion_lat": 0.0, "name": "93035bce878e391ec65450ef59f766b1", "type": "electric_scooter", "lon": -77.02212733333333, "rental_uris": {"ios": "https://dc.lft.to/lastmile_qr_scan", "android": "https://dc.lft.to/lastmile_qr_scan"}, "bike_id": "93035bce878e391ec65450ef59f766b1", "is_reserved": 0, "fusion_lon": 0.0}, {"lat": 38.9273875, "is_disabled": 0, "fusion_lat": 0.0, "name": "f49bc0ec7482c3c84e547814ca9dca84", "type": "electric_bike", "lon": -76.99365383333334, "rental_uris": {"ios": "https://dc.lft.to/lastmile_qr_scan", "android": "https://dc.lft.to/lastmile_qr_scan"}, "bike_id": "f49bc0ec7482c3c84e547814ca9dca84", "is_reserved": 0, "fusion_lon": 0.0}, {"lat": 38.915513833333335, "is_disabled": 0, "fusion_lat": 0.0, "name": "4b27acffd3f3712b49580553c2d49e03", "type": "electric_scooter", "lon": -76.9850295, "rental_uris": {"ios": "https://dc.lft.to/lastmile_qr_scan", "android": "https://dc.lft.to/lastmile_qr_scan"}, "bike_id": "4b27acffd3f3712b49580553c2d49e03", "is_reserved": 0, "fusion_lon": 0.0}, {"lat": 38.902616, "is_disabled": 0, "fusion_lat": 0.0, "name": "e8e89b899c861ad7b8772ee9714ecaa2", "type": "electric_scooter", "lon": -77.01753833333333, "rental_uris": {"ios": "https://dc.lft.to/lastmile_qr_scan", "android": "https://dc.lft.to/lastmile_qr_scan"}, "bike_id": "e8e89b899c861ad7b8772ee9714ecaa2", "is_reserved": 0, "fusion_lon": 0.0}, {"lat": 38.9168285, "is_disabled": 0, "fusion_lat": 0.0, "name": "b568ec1c97261be796e0c953cbc4a1b6", "type": "electric_scooter", "lon": -77.03687683333334, "rental_uris": {"ios": "https://dc.lft.to/lastmile_qr_scan", "android": "https://dc.lft.to/lastmile_qr_scan"}, "bike_id": "b568ec1c97261be796e0c953cbc4a1b6", "is_reserved": 0, "fusion_lon": 0.0}, {"lat": 38.90762566666667, "is_disabled": 0, "fusion_lat": 0.0, "name": "590faa9f5a389477c7e70aae7761edb1", "type": "electric_scooter", "lon": -77.04528166666667, "rental_uris": {"ios": "https://dc.lft.to/lastmile_qr_scan", "android": "https://dc.lft.to/lastmile_qr_scan"}, "bike_id": "590faa9f5a389477c7e70aae7761edb1", "is_reserved": 0, "fusion_lon": 0.0}, {"lat": 38.899664333333334, "is_disabled": 0, "fusion_lat": 0.0, "name": "689222c065754846254ee21ebefaa73f", "type": "electric_bike", "lon": -76.986655, "rental_uris": {"ios": "https://dc.lft.to/lastmile_qr_scan", "android": "https://dc.lft.to/lastmile_qr_scan"}, "bike_id": "689222c065754846254ee21ebefaa73f", "is_reserved": 0, "fusion_lon": 0.0}, {"lat": 38.917512, "is_disabled": 0, "fusion_lat": 0.0, "name": "c9916d5c0fcf3f18240b973719d3ec0c", "type": "electric_scooter", "lon": -77.02383433333334, "rental_uris": {"ios": "https://dc.lft.to/lastmile_qr_scan", "android": "https://dc.lft.to/lastmile_qr_scan"}, "bike_id": "c9916d5c0fcf3f18240b973719d3ec0c", "is_reserved": 0, "fusion_lon": 0.0}, {"lat": 38.901226, "is_disabled": 0, "fusion_lat": 0.0, "name": "3e960ee16d825673b996be62fce65b43", "type": "electric_scooter", "lon": -77.02162483333333, "rental_uris": {"ios": "https://dc.lft.to/lastmile_qr_scan", "android": "https://dc.lft.to/lastmile_qr_scan"}, "bike_id": "3e960ee16d825673b996be62fce65b43", "is_reserved": 0, "fusion_lon": 0.0}, {"lat": 38.822097666666664, "is_disabled": 0, "fusion_lat": 0.0, "name": "179e7c3a4794a9dc93791a739ad9003f", "type": "electric_bike", "lon": -76.97704033333333, "rental_uris": {"ios": "https://dc.lft.to/lastmile_qr_scan", "android": "https://dc.lft.to/lastmile_qr_scan"}, "bike_id": "179e7c3a4794a9dc93791a739ad9003f", "is_reserved": 0, "fusion_lon": 0.0}, {"lat": 38.921569166666664, "is_disabled": 0, "fusion_lat": 0.0, "name": "344189e409c4aa87b13ce7667037332c", "type": "electric_scooter", "lon": -77.020863, "rental_uris": {"ios": "https://dc.lft.to/lastmile_qr_scan", "android": "https://dc.lft.to/lastmile_qr_scan"}, "bike_id": "344189e409c4aa87b13ce7667037332c", "is_reserved": 0, "fusion_lon": 0.0}, {"lat": 38.958467666666664, "is_disabled": 0, "fusion_lat": 0.0, "name": "a4365305862d1b6ac12681dffdcd0fc1", "type": "electric_scooter", "lon": -77.07164066666667, "rental_uris": {"ios": "https://dc.lft.to/lastmile_qr_scan", "android": "https://dc.lft.to/lastmile_qr_scan"}, "bike_id": "a4365305862d1b6ac12681dffdcd0fc1", "is_reserved": 0, "fusion_lon": 0.0}, {"lat": 38.90014716666667, "is_disabled": 0, "fusion_lat": 0.0, "name": "0d35ce6825275dbddd5799c464cefffb", "type": "electric_scooter", "lon": -77.04483466666667, "rental_uris": {"ios": "https://dc.lft.to/lastmile_qr_scan", "android": "https://dc.lft.to/lastmile_qr_scan"}, "bike_id": "0d35ce6825275dbddd5799c464cefffb", "is_reserved": 0, "fusion_lon": 0.0}, {"lat": 38.92052366666667, "is_disabled": 0, "fusion_lat": 0.0, "name": "8dbb80906ed7c6dc0c3dcd186de62446", "type": "electric_scooter", "lon": -77.04182783333333, "rental_uris": {"ios": "https://dc.lft.to/lastmile_qr_scan", "android": "https://dc.lft.to/lastmile_qr_scan"}, "bike_id": "8dbb80906ed7c6dc0c3dcd186de62446", "is_reserved": 0, "fusion_lon": 0.0}, {"lat": 38.876705333333334, "is_disabled": 0, "fusion_lat": 0.0, "name": "b42350b27b6794efefa5c786c80f3425", "type": "electric_scooter", "lon": -77.01931683333333, "rental_uris": {"ios": "https://dc.lft.to/lastmile_qr_scan", "android": "https://dc.lft.to/lastmile_qr_scan"}, "bike_id": "b42350b27b6794efefa5c786c80f3425", "is_reserved": 0, "fusion_lon": 0.0}, {"lat": 38.88027833333334, "is_disabled": 0, "fusion_lat": 0.0, "name": "e715f94bd813aef0f5129d8a86b8dc0d", "type": "electric_bike", "lon": -76.91717666666666, "rental_uris": {"ios": "https://dc.lft.to/lastmile_qr_scan", "android": "https://dc.lft.to/lastmile_qr_scan"}, "bike_id": "e715f94bd813aef0f5129d8a86b8dc0d", "is_reserved": 0, "fusion_lon": 0.0}, {"lat": 38.8973125, "is_disabled": 0, "fusion_lat": 0.0, "name": "bae8124a50da845cfe0617e3477dce7e", "type": "electric_scooter", "lon": -76.99461366666667, "rental_uris": {"ios": "https://dc.lft.to/lastmile_qr_scan", "android": "https://dc.lft.to/lastmile_qr_scan"}, "bike_id": "bae8124a50da845cfe0617e3477dce7e", "is_reserved": 0, "fusion_lon": 0.0}, {"lat": 38.91806316666667, "is_disabled": 0, "fusion_lat": 0.0, "name": "a23021d1c13daf4073d0eb8724d915dc", "type": "electric_scooter", "lon": -77.02491516666667, "rental_uris": {"ios": "https://dc.lft.to/lastmile_qr_scan", "android": "https://dc.lft.to/lastmile_qr_scan"}, "bike_id": "a23021d1c13daf4073d0eb8724d915dc", "is_reserved": 0, "fusion_lon": 0.0}, {"lat": 38.904882, "is_disabled": 0, "fusion_lat": 0.0, "name": "90e09f11ed1cf1a3162a63824a8a90e2", "type": "electric_scooter", "lon": -76.9495885, "rental_uris": {"ios": "https://dc.lft.to/lastmile_qr_scan", "android": "https://dc.lft.to/lastmile_qr_scan"}, "bike_id": "90e09f11ed1cf1a3162a63824a8a90e2", "is_reserved": 0, "fusion_lon": 0.0}, {"lat": 38.90749983333333, "is_disabled": 0, "fusion_lat": 0.0, "name": "016310d4092f38940454b06046163e8d", "type": "electric_scooter", "lon": -77.04541433333333, "rental_uris": {"ios": "https://dc.lft.to/lastmile_qr_scan", "android": "https://dc.lft.to/lastmile_qr_scan"}, "bike_id": "016310d4092f38940454b06046163e8d", "is_reserved": 0, "fusion_lon": 0.0}, {"lat": 38.90779233333333, "is_disabled": 0, "fusion_lat": 0.0, "name": "f02b10d567e9a63fb96ecb53544e6397", "type": "electric_bike", "lon": -77.07159933333334, "rental_uris": {"ios": "https://dc.lft.to/lastmile_qr_scan", "android": "https://dc.lft.to/lastmile_qr_scan"}, "bike_id": "f02b10d567e9a63fb96ecb53544e6397", "is_reserved": 0, "fusion_lon": 0.0}, {"lat": 38.90963283333333, "is_disabled": 0, "fusion_lat": 0.0, "name": "99b4697ec138a827cb2886ba8dea081d", "type": "electric_scooter", "lon": -77.02411833333333, "rental_uris": {"ios": "https://dc.lft.to/lastmile_qr_scan", "android": "https://dc.lft.to/lastmile_qr_scan"}, "bike_id": "99b4697ec138a827cb2886ba8dea081d", "is_reserved": 0, "fusion_lon": 0.0}, {"lat": 38.904081833333336, "is_disabled": 0, "fusion_lat": 0.0, "name": "c734f71a41bc243276e2b72f544e8f4f", "type": "electric_scooter", "lon": -77.03822033333333, "rental_uris": {"ios": "https://dc.lft.to/lastmile_qr_scan", "android": "https://dc.lft.to/lastmile_qr_scan"}, "bike_id": "c734f71a41bc243276e2b72f544e8f4f", "is_reserved": 0, "fusion_lon": 0.0}, {"lat": 38.90671566666666, "is_disabled": 0, "fusion_lat": 0.0, "name": "b63ce3501e8c9ba5e60fa61aec5e98f8", "type": "electric_scooter", "lon": -77.027079, "rental_uris": {"ios": "https://dc.lft.to/lastmile_qr_scan", "android": "https://dc.lft.to/lastmile_qr_scan"}, "bike_id": "b63ce3501e8c9ba5e60fa61aec5e98f8", "is_reserved": 0, "fusion_lon": 0.0}, {"lat": 38.898286166666665, "is_disabled": 0, "fusion_lat": 0.0, "name": "1fc7cfbdc5eb77c1e21dfa00d1cf4e32", "type": "electric_scooter", "lon": -77.03141066666667, "rental_uris": {"ios": "https://dc.lft.to/lastmile_qr_scan", "android": "https://dc.lft.to/lastmile_qr_scan"}, "bike_id": "1fc7cfbdc5eb77c1e21dfa00d1cf4e32", "is_reserved": 0, "fusion_lon": 0.0}, {"lat": 38.935475333333336, "is_disabled": 0, "fusion_lat": 0.0, "name": "182d0e47e6391f202227ca825d80308d", "type": "electric_scooter", "lon": -77.02503533333334, "rental_uris": {"ios": "https://dc.lft.to/lastmile_qr_scan", "android": "https://dc.lft.to/lastmile_qr_scan"}, "bike_id": "182d0e47e6391f202227ca825d80308d", "is_reserved": 0, "fusion_lon": 0.0}, {"lat": 38.92790466666667, "is_disabled": 0, "fusion_lat": 0.0, "name": "3ce8d8c844395d53b84b4b524e0b7b96", "type": "electric_scooter", "lon": -77.03628033333334, "rental_uris": {"ios": "https://dc.lft.to/lastmile_qr_scan", "android": "https://dc.lft.to/lastmile_qr_scan"}, "bike_id": "3ce8d8c844395d53b84b4b524e0b7b96", "is_reserved": 0, "fusion_lon": 0.0}, {"lat": 39.022982666666664, "is_disabled": 0, "fusion_lat": 0.0, "name": "1ee4203db16c0a9c1f0dae1c60d50a3a", "type": "electric_bike", "lon": -77.02103933333333, "rental_uris": {"ios": "https://dc.lft.to/lastmile_qr_scan", "android": "https://dc.lft.to/lastmile_qr_scan"}, "bike_id": "1ee4203db16c0a9c1f0dae1c60d50a3a", "is_reserved": 0, "fusion_lon": 0.0}, {"lat": 38.91331366666667, "is_disabled": 0, "fusion_lat": 0.0, "name": "40f2902eee4ee54d1ccd962e4ab14fbb", "type": "electric_scooter", "lon": -77.02187666666667, "rental_uris": {"ios": "https://dc.lft.to/lastmile_qr_scan", "android": "https://dc.lft.to/lastmile_qr_scan"}, "bike_id": "40f2902eee4ee54d1ccd962e4ab14fbb", "is_reserved": 0, "fusion_lon": 0.0}, {"lat": 38.9295035, "is_disabled": 0, "fusion_lat": 0.0, "name": "ce174a3bdb6848f52057f1971886d10a", "type": "electric_scooter", "lon": -77.055052, "rental_uris": {"ios": "https://dc.lft.to/lastmile_qr_scan", "android": "https://dc.lft.to/lastmile_qr_scan"}, "bike_id": "ce174a3bdb6848f52057f1971886d10a", "is_reserved": 0, "fusion_lon": 0.0}, {"lat": 38.974793, "is_disabled": 0, "fusion_lat": 0.0, "name": "f8e4faae0642aeb489f109947023adbb", "type": "electric_bike", "lon": -76.98666283333333, "rental_uris": {"ios": "https://dc.lft.to/lastmile_qr_scan", "android": "https://dc.lft.to/lastmile_qr_scan"}, "bike_id": "f8e4faae0642aeb489f109947023adbb", "is_reserved": 0, "fusion_lon": 0.0}, {"lat": 38.9022175, "is_disabled": 0, "fusion_lat": 0.0, "name": "407a7be26bd65fc5efdc76a9b2a598c9", "type": "electric_scooter", "lon": -77.02344316666667, "rental_uris": {"ios": "https://dc.lft.to/lastmile_qr_scan", "android": "https://dc.lft.to/lastmile_qr_scan"}, "bike_id": "407a7be26bd65fc5efdc76a9b2a598c9", "is_reserved": 0, "fusion_lon": 0.0}, {"lat": 38.90288566666667, "is_disabled": 0, "fusion_lat": 0.0, "name": "1ad4c296c069f04688b43ac2c6c76425", "type": "electric_scooter", "lon": -77.03159266666667, "rental_uris": {"ios": "https://dc.lft.to/lastmile_qr_scan", "android": "https://dc.lft.to/lastmile_qr_scan"}, "bike_id": "1ad4c296c069f04688b43ac2c6c76425", "is_reserved": 0, "fusion_lon": 0.0}, {"lat": 38.89424916666667, "is_disabled": 0, "fusion_lat": 0.0, "name": "219c381f40095f70282dc6e6c95ba493", "type": "electric_bike", "lon": -77.09444816666667, "rental_uris": {"ios": "https://dc.lft.to/lastmile_qr_scan", "android": "https://dc.lft.to/lastmile_qr_scan"}, "bike_id": "219c381f40095f70282dc6e6c95ba493", "is_reserved": 0, "fusion_lon": 0.0}, {"lat": 38.921477333333335, "is_disabled": 0, "fusion_lat": 0.0, "name": "d64d9300da944149fa391026b4023ea4", "type": "electric_scooter", "lon": -77.02061166666667, "rental_uris": {"ios": "https://dc.lft.to/lastmile_qr_scan", "android": "https://dc.lft.to/lastmile_qr_scan"}, "bike_id": "d64d9300da944149fa391026b4023ea4", "is_reserved": 0, "fusion_lon": 0.0}, {"lat": 38.902482666666664, "is_disabled": 0, "fusion_lat": 0.0, "name": "3ff47f82f7f35fb9ee6ae8bdf8650a2b", "type": "electric_scooter", "lon": -77.03880266666667, "rental_uris": {"ios": "https://dc.lft.to/lastmile_qr_scan", "android": "https://dc.lft.to/lastmile_qr_scan"}, "bike_id": "3ff47f82f7f35fb9ee6ae8bdf8650a2b", "is_reserved": 0, "fusion_lon": 0.0}, {"lat": 38.896243166666665, "is_disabled": 0, "fusion_lat": 0.0, "name": "1a6ad66e51eb7b275419e6f206f96431", "type": "electric_scooter", "lon": -77.003536, "rental_uris": {"ios": "https://dc.lft.to/lastmile_qr_scan", "android": "https://dc.lft.to/lastmile_qr_scan"}, "bike_id": "1a6ad66e51eb7b275419e6f206f96431", "is_reserved": 0, "fusion_lon": 0.0}, {"lat": 38.89400966666667, "is_disabled": 0, "fusion_lat": 0.0, "name": "dd21f825d6b51ab48a640454e5cb5904", "type": "electric_scooter", "lon": -77.0244525, "rental_uris": {"ios": "https://dc.lft.to/lastmile_qr_scan", "android": "https://dc.lft.to/lastmile_qr_scan"}, "bike_id": "dd21f825d6b51ab48a640454e5cb5904", "is_reserved": 0, "fusion_lon": 0.0}, {"lat": 38.922403, "is_disabled": 0, "fusion_lat": 0.0, "name": "166b9189d1997eb8a1a22d8ba1d16ad7", "type": "electric_scooter", "lon": -77.02102766666667, "rental_uris": {"ios": "https://dc.lft.to/lastmile_qr_scan", "android": "https://dc.lft.to/lastmile_qr_scan"}, "bike_id": "166b9189d1997eb8a1a22d8ba1d16ad7", "is_reserved": 0, "fusion_lon": 0.0}, {"lat": 38.922404, "is_disabled": 0, "fusion_lat": 0.0, "name": "e599ce15dfdc3fbcacb94ad9a8fe9a2c", "type": "electric_scooter", "lon": -77.02814916666667, "rental_uris": {"ios": "https://dc.lft.to/lastmile_qr_scan", "android": "https://dc.lft.to/lastmile_qr_scan"}, "bike_id": "e599ce15dfdc3fbcacb94ad9a8fe9a2c", "is_reserved": 0, "fusion_lon": 0.0}, {"lat": 38.93016183333334, "is_disabled": 0, "fusion_lat": 0.0, "name": "7eae048f388198a2783288e66efa0f6e", "type": "electric_scooter", "lon": -77.01253416666667, "rental_uris": {"ios": "https://dc.lft.to/lastmile_qr_scan", "android": "https://dc.lft.to/lastmile_qr_scan"}, "bike_id": "7eae048f388198a2783288e66efa0f6e", "is_reserved": 0, "fusion_lon": 0.0}, {"lat": 38.896978, "is_disabled": 0, "fusion_lat": 0.0, "name": "facdb682778d83232cde2dcb03e85500", "type": "electric_scooter", "lon": -77.004953, "rental_uris": {"ios": "https://dc.lft.to/lastmile_qr_scan", "android": "https://dc.lft.to/lastmile_qr_scan"}, "bike_id": "facdb682778d83232cde2dcb03e85500", "is_reserved": 0, "fusion_lon": 0.0}, {"lat": 38.8829825, "is_disabled": 0, "fusion_lat": 0.0, "name": "4131d90fdf85d57e91463d6002e6a1b2", "type": "electric_scooter", "lon": -76.985581, "rental_uris": {"ios": "https://dc.lft.to/lastmile_qr_scan", "android": "https://dc.lft.to/lastmile_qr_scan"}, "bike_id": "4131d90fdf85d57e91463d6002e6a1b2", "is_reserved": 0, "fusion_lon": 0.0}, {"lat": 38.8729525, "is_disabled": 0, "fusion_lat": 0.0, "name": "dcfd654b20bab779d4387a714dfb5950", "type": "electric_scooter", "lon": -77.0098535, "rental_uris": {"ios": "https://dc.lft.to/lastmile_qr_scan", "android": "https://dc.lft.to/lastmile_qr_scan"}, "bike_id": "dcfd654b20bab779d4387a714dfb5950", "is_reserved": 0, "fusion_lon": 0.0}, {"lat": 38.88007233333333, "is_disabled": 0, "fusion_lat": 0.0, "name": "42ea05bf42ca7ec9a7f1d9bdc149c34e", "type": "electric_scooter", "lon": -76.99832016666667, "rental_uris": {"ios": "https://dc.lft.to/lastmile_qr_scan", "android": "https://dc.lft.to/lastmile_qr_scan"}, "bike_id": "42ea05bf42ca7ec9a7f1d9bdc149c34e", "is_reserved": 0, "fusion_lon": 0.0}, {"lat": 38.90998233333333, "is_disabled": 0, "fusion_lat": 0.0, "name": "f5d78deb04465c9c6ab77d6ede18d401", "type": "electric_scooter", "lon": -77.038388, "rental_uris": {"ios": "https://dc.lft.to/lastmile_qr_scan", "android": "https://dc.lft.to/lastmile_qr_scan"}, "bike_id": "f5d78deb04465c9c6ab77d6ede18d401", "is_reserved": 0, "fusion_lon": 0.0}, {"lat": 38.90181466666667, "is_disabled": 0, "fusion_lat": 0.0, "name": "de42f9404facc8d14cada11ca92fb722", "type": "electric_scooter", "lon": -76.97668683333333, "rental_uris": {"ios": "https://dc.lft.to/lastmile_qr_scan", "android": "https://dc.lft.to/lastmile_qr_scan"}, "bike_id": "de42f9404facc8d14cada11ca92fb722", "is_reserved": 0, "fusion_lon": 0.0}, {"lat": 38.927412833333335, "is_disabled": 0, "fusion_lat": 0.0, "name": "cc1698afa84d146cb8141ad1f8927305", "type": "electric_scooter", "lon": -77.0355555, "rental_uris": {"ios": "https://dc.lft.to/lastmile_qr_scan", "android": "https://dc.lft.to/lastmile_qr_scan"}, "bike_id": "cc1698afa84d146cb8141ad1f8927305", "is_reserved": 0, "fusion_lon": 0.0}, {"lat": 38.9030225, "is_disabled": 0, "fusion_lat": 0.0, "name": "4a89847a2b503261da863c31a5b6f0ca", "type": "electric_scooter", "lon": -76.998392, "rental_uris": {"ios": "https://dc.lft.to/lastmile_qr_scan", "android": "https://dc.lft.to/lastmile_qr_scan"}, "bike_id": "4a89847a2b503261da863c31a5b6f0ca", "is_reserved": 0, "fusion_lon": 0.0}, {"lat": 38.874003, "is_disabled": 0, "fusion_lat": 0.0, "name": "b8139e2e476a967760cf4093d3dd0a18", "type": "electric_scooter", "lon": -76.99990733333334, "rental_uris": {"ios": "https://dc.lft.to/lastmile_qr_scan", "android": "https://dc.lft.to/lastmile_qr_scan"}, "bike_id": "b8139e2e476a967760cf4093d3dd0a18", "is_reserved": 0, "fusion_lon": 0.0}, {"lat": 38.9282855, "is_disabled": 0, "fusion_lat": 0.0, "name": "aa73c8eaa69a999311bee7d48637b893", "type": "electric_scooter", "lon": -77.01401683333333, "rental_uris": {"ios": "https://dc.lft.to/lastmile_qr_scan", "android": "https://dc.lft.to/lastmile_qr_scan"}, "bike_id": "aa73c8eaa69a999311bee7d48637b893", "is_reserved": 0, "fusion_lon": 0.0}, {"lat": 38.9333925, "is_disabled": 0, "fusion_lat": 0.0, "name": "5f40c10feed3595e062a216b570c12d3", "type": "electric_scooter", "lon": -77.05718266666666, "rental_uris": {"ios": "https://dc.lft.to/lastmile_qr_scan", "android": "https://dc.lft.to/lastmile_qr_scan"}, "bike_id": "5f40c10feed3595e062a216b570c12d3", "is_reserved": 0, "fusion_lon": 0.0}, {"lat": 38.89509266666666, "is_disabled": 0, "fusion_lat": 0.0, "name": "ac40167feba24cb4fe029c09609a0a99", "type": "electric_scooter", "lon": -76.94883766666666, "rental_uris": {"ios": "https://dc.lft.to/lastmile_qr_scan", "android": "https://dc.lft.to/lastmile_qr_scan"}, "bike_id": "ac40167feba24cb4fe029c09609a0a99", "is_reserved": 0, "fusion_lon": 0.0}, {"lat": 38.933340666666666, "is_disabled": 0, "fusion_lat": 0.0, "name": "54b7e3c0b899996386d4153656b1f6ca", "type": "electric_bike", "lon": -77.0619055, "rental_uris": {"ios": "https://dc.lft.to/lastmile_qr_scan", "android": "https://dc.lft.to/lastmile_qr_scan"}, "bike_id": "54b7e3c0b899996386d4153656b1f6ca", "is_reserved": 0, "fusion_lon": 0.0}, {"lat": 39.034740166666666, "is_disabled": 0, "fusion_lat": 0.0, "name": "80263258e03e1af483cb91e2ceff2fdf", "type": "electric_bike", "lon": -77.040997, "rental_uris": {"ios": "https://dc.lft.to/lastmile_qr_scan", "android": "https://dc.lft.to/lastmile_qr_scan"}, "bike_id": "80263258e03e1af483cb91e2ceff2fdf", "is_reserved": 0, "fusion_lon": 0.0}, {"lat": 38.90027216666667, "is_disabled": 0, "fusion_lat": 0.0, "name": "31aa9cf581381f0c9a674075a1763a75", "type": "electric_scooter", "lon": -76.98844166666666, "rental_uris": {"ios": "https://dc.lft.to/lastmile_qr_scan", "android": "https://dc.lft.to/lastmile_qr_scan"}, "bike_id": "31aa9cf581381f0c9a674075a1763a75", "is_reserved": 0, "fusion_lon": 0.0}, {"lat": 38.932139166666666, "is_disabled": 0, "fusion_lat": 0.0, "name": "5e1007f05140035cc6c6849101b1534b", "type": "electric_scooter", "lon": -77.03853816666667, "rental_uris": {"ios": "https://dc.lft.to/lastmile_qr_scan", "android": "https://dc.lft.to/lastmile_qr_scan"}, "bike_id": "5e1007f05140035cc6c6849101b1534b", "is_reserved": 0, "fusion_lon": 0.0}, {"lat": 38.90140916666667, "is_disabled": 0, "fusion_lat": 0.0, "name": "8cf5a56896ff19f14b51aa3a8f18d488", "type": "electric_scooter", "lon": -77.03830683333334, "rental_uris": {"ios": "https://dc.lft.to/lastmile_qr_scan", "android": "https://dc.lft.to/lastmile_qr_scan"}, "bike_id": "8cf5a56896ff19f14b51aa3a8f18d488", "is_reserved": 0, "fusion_lon": 0.0}, {"lat": 38.92359, "is_disabled": 0, "fusion_lat": 0.0, "name": "ff4e46bec2db3209e6bba16d9b03ec1b", "type": "electric_scooter", "lon": -77.02131866666667, "rental_uris": {"ios": "https://dc.lft.to/lastmile_qr_scan", "android": "https://dc.lft.to/lastmile_qr_scan"}, "bike_id": "ff4e46bec2db3209e6bba16d9b03ec1b", "is_reserved": 0, "fusion_lon": 0.0}, {"lat": 38.93387166666667, "is_disabled": 0, "fusion_lat": 0.0, "name": "d1491ab105032353227e7d3fc25fcc2f", "type": "electric_scooter", "lon": -77.05758483333334, "rental_uris": {"ios": "https://dc.lft.to/lastmile_qr_scan", "android": "https://dc.lft.to/lastmile_qr_scan"}, "bike_id": "d1491ab105032353227e7d3fc25fcc2f", "is_reserved": 0, "fusion_lon": 0.0}, {"lat": 38.91278066666667, "is_disabled": 0, "fusion_lat": 0.0, "name": "b8d3f79e4a56e34d4c51acd36da2b233", "type": "electric_scooter", "lon": -77.02236833333333, "rental_uris": {"ios": "https://dc.lft.to/lastmile_qr_scan", "android": "https://dc.lft.to/lastmile_qr_scan"}, "bike_id": "b8d3f79e4a56e34d4c51acd36da2b233", "is_reserved": 0, "fusion_lon": 0.0}, {"lat": 38.92675083333334, "is_disabled": 0, "fusion_lat": 0.0, "name": "ea9557bcb46dbe29377c2c74483d7015", "type": "electric_scooter", "lon": -77.015088, "rental_uris": {"ios": "https://dc.lft.to/lastmile_qr_scan", "android": "https://dc.lft.to/lastmile_qr_scan"}, "bike_id": "ea9557bcb46dbe29377c2c74483d7015", "is_reserved": 0, "fusion_lon": 0.0}, {"lat": 38.899422, "is_disabled": 0, "fusion_lat": 0.0, "name": "3aa4a4fae437539126db34b14a76690b", "type": "electric_scooter", "lon": -76.93759466666667, "rental_uris": {"ios": "https://dc.lft.to/lastmile_qr_scan", "android": "https://dc.lft.to/lastmile_qr_scan"}, "bike_id": "3aa4a4fae437539126db34b14a76690b", "is_reserved": 0, "fusion_lon": 0.0}, {"lat": 38.838697, "is_disabled": 0, "fusion_lat": 0.0, "name": "753f61e385a06b5f6aaad420ffadeac5", "type": "electric_bike", "lon": -76.99697083333334, "rental_uris": {"ios": "https://dc.lft.to/lastmile_qr_scan", "android": "https://dc.lft.to/lastmile_qr_scan"}, "bike_id": "753f61e385a06b5f6aaad420ffadeac5", "is_reserved": 0, "fusion_lon": 0.0}, {"lat": 38.90098783333333, "is_disabled": 0, "fusion_lat": 0.0, "name": "526cea748756d7a4ff2cbed4434f248f", "type": "electric_scooter", "lon": -77.02554633333334, "rental_uris": {"ios": "https://dc.lft.to/lastmile_qr_scan", "android": "https://dc.lft.to/lastmile_qr_scan"}, "bike_id": "526cea748756d7a4ff2cbed4434f248f", "is_reserved": 0, "fusion_lon": 0.0}, {"lat": 38.876446666666666, "is_disabled": 0, "fusion_lat": 0.0, "name": "b71e70c24169bb5317bdb93d97420559", "type": "electric_scooter", "lon": -77.0081795, "rental_uris": {"ios": "https://dc.lft.to/lastmile_qr_scan", "android": "https://dc.lft.to/lastmile_qr_scan"}, "bike_id": "b71e70c24169bb5317bdb93d97420559", "is_reserved": 0, "fusion_lon": 0.0}, {"lat": 38.92147216666667, "is_disabled": 0, "fusion_lat": 0.0, "name": "f709bac518162f703d0c908d7c46a2da", "type": "electric_scooter", "lon": -77.04343616666667, "rental_uris": {"ios": "https://dc.lft.to/lastmile_qr_scan", "android": "https://dc.lft.to/lastmile_qr_scan"}, "bike_id": "f709bac518162f703d0c908d7c46a2da", "is_reserved": 0, "fusion_lon": 0.0}, {"lat": 38.90676216666667, "is_disabled": 0, "fusion_lat": 0.0, "name": "17908a73f37b007fdc9342e55a58a93a", "type": "electric_scooter", "lon": -77.0719315, "rental_uris": {"ios": "https://dc.lft.to/lastmile_qr_scan", "android": "https://dc.lft.to/lastmile_qr_scan"}, "bike_id": "17908a73f37b007fdc9342e55a58a93a", "is_reserved": 0, "fusion_lon": 0.0}, {"lat": 38.92423316666667, "is_disabled": 0, "fusion_lat": 0.0, "name": "a8dbe5c7e94eed7401419120d66b5d2c", "type": "electric_scooter", "lon": -77.02131666666666, "rental_uris": {"ios": "https://dc.lft.to/lastmile_qr_scan", "android": "https://dc.lft.to/lastmile_qr_scan"}, "bike_id": "a8dbe5c7e94eed7401419120d66b5d2c", "is_reserved": 0, "fusion_lon": 0.0}, {"lat": 38.9243425, "is_disabled": 0, "fusion_lat": 0.0, "name": "f44135baef3f5989a6aff2b2a0c42c34", "type": "electric_scooter", "lon": -77.02241083333334, "rental_uris": {"ios": "https://dc.lft.to/lastmile_qr_scan", "android": "https://dc.lft.to/lastmile_qr_scan"}, "bike_id": "f44135baef3f5989a6aff2b2a0c42c34", "is_reserved": 0, "fusion_lon": 0.0}, {"lat": 38.9360945, "is_disabled": 0, "fusion_lat": 0.0, "name": "ebd0a9ed3d47d5434e79e67b77c861bb", "type": "electric_scooter", "lon": -77.0558345, "rental_uris": {"ios": "https://dc.lft.to/lastmile_qr_scan", "android": "https://dc.lft.to/lastmile_qr_scan"}, "bike_id": "ebd0a9ed3d47d5434e79e67b77c861bb", "is_reserved": 0, "fusion_lon": 0.0}, {"lat": 38.903775833333334, "is_disabled": 0, "fusion_lat": 0.0, "name": "4d3df7f016c2374820f29b13f7ab40ec", "type": "electric_bike", "lon": -76.9374405, "rental_uris": {"ios": "https://dc.lft.to/lastmile_qr_scan", "android": "https://dc.lft.to/lastmile_qr_scan"}, "bike_id": "4d3df7f016c2374820f29b13f7ab40ec", "is_reserved": 0, "fusion_lon": 0.0}, {"lat": 38.89850416666667, "is_disabled": 0, "fusion_lat": 0.0, "name": "4f2ef79d82bea1601950694c7fdae5e0", "type": "electric_scooter", "lon": -77.04373233333334, "rental_uris": {"ios": "https://dc.lft.to/lastmile_qr_scan", "android": "https://dc.lft.to/lastmile_qr_scan"}, "bike_id": "4f2ef79d82bea1601950694c7fdae5e0", "is_reserved": 0, "fusion_lon": 0.0}, {"lat": 38.929514, "is_disabled": 0, "fusion_lat": 0.0, "name": "d900a7bfdf9449df0b3bc08c08f96af9", "type": "electric_scooter", "lon": -77.036142, "rental_uris": {"ios": "https://dc.lft.to/lastmile_qr_scan", "android": "https://dc.lft.to/lastmile_qr_scan"}, "bike_id": "d900a7bfdf9449df0b3bc08c08f96af9", "is_reserved": 0, "fusion_lon": 0.0}, {"lat": 38.92867783333333, "is_disabled": 0, "fusion_lat": 0.0, "name": "be3fe27b656776e02150b7f3470393e1", "type": "electric_scooter", "lon": -77.03237033333333, "rental_uris": {"ios": "https://dc.lft.to/lastmile_qr_scan", "android": "https://dc.lft.to/lastmile_qr_scan"}, "bike_id": "be3fe27b656776e02150b7f3470393e1", "is_reserved": 0, "fusion_lon": 0.0}, {"lat": 38.924641333333334, "is_disabled": 0, "fusion_lat": 0.0, "name": "5aa55c19ad854cd0cce21d68db7fc0d3", "type": "electric_scooter", "lon": -77.05229266666667, "rental_uris": {"ios": "https://dc.lft.to/lastmile_qr_scan", "android": "https://dc.lft.to/lastmile_qr_scan"}, "bike_id": "5aa55c19ad854cd0cce21d68db7fc0d3", "is_reserved": 0, "fusion_lon": 0.0}, {"lat": 38.884908333333335, "is_disabled": 0, "fusion_lat": 0.0, "name": "a55b5bf21631b8bec9718071c9de6fde", "type": "electric_scooter", "lon": -77.0070885, "rental_uris": {"ios": "https://dc.lft.to/lastmile_qr_scan", "android": "https://dc.lft.to/lastmile_qr_scan"}, "bike_id": "a55b5bf21631b8bec9718071c9de6fde", "is_reserved": 0, "fusion_lon": 0.0}, {"lat": 38.900178833333335, "is_disabled": 0, "fusion_lat": 0.0, "name": "ad4d02b64ad63899ef6a55fe4466a69c", "type": "electric_scooter", "lon": -77.0013705, "rental_uris": {"ios": "https://dc.lft.to/lastmile_qr_scan", "android": "https://dc.lft.to/lastmile_qr_scan"}, "bike_id": "ad4d02b64ad63899ef6a55fe4466a69c", "is_reserved": 0, "fusion_lon": 0.0}, {"lat": 38.90377466666666, "is_disabled": 0, "fusion_lat": 0.0, "name": "558178d067678918166bf9843ea79fae", "type": "electric_scooter", "lon": -77.04101416666667, "rental_uris": {"ios": "https://dc.lft.to/lastmile_qr_scan", "android": "https://dc.lft.to/lastmile_qr_scan"}, "bike_id": "558178d067678918166bf9843ea79fae", "is_reserved": 0, "fusion_lon": 0.0}, {"lat": 38.90137216666667, "is_disabled": 0, "fusion_lat": 0.0, "name": "7403bfca39dd969eded91ec2a9dec5cc", "type": "electric_scooter", "lon": -77.033482, "rental_uris": {"ios": "https://dc.lft.to/lastmile_qr_scan", "android": "https://dc.lft.to/lastmile_qr_scan"}, "bike_id": "7403bfca39dd969eded91ec2a9dec5cc", "is_reserved": 0, "fusion_lon": 0.0}, {"lat": 38.906450666666665, "is_disabled": 0, "fusion_lat": 0.0, "name": "d151910e538a26c865b5d3a238b9cf51", "type": "electric_scooter", "lon": -77.07469566666667, "rental_uris": {"ios": "https://dc.lft.to/lastmile_qr_scan", "android": "https://dc.lft.to/lastmile_qr_scan"}, "bike_id": "d151910e538a26c865b5d3a238b9cf51", "is_reserved": 0, "fusion_lon": 0.0}, {"lat": 38.902431, "is_disabled": 0, "fusion_lat": 0.0, "name": "190c2a9078b0c98fe92cd7ddaab99b83", "type": "electric_scooter", "lon": -77.02690316666667, "rental_uris": {"ios": "https://dc.lft.to/lastmile_qr_scan", "android": "https://dc.lft.to/lastmile_qr_scan"}, "bike_id": "190c2a9078b0c98fe92cd7ddaab99b83", "is_reserved": 0, "fusion_lon": 0.0}, {"lat": 38.874673333333334, "is_disabled": 0, "fusion_lat": 0.0, "name": "62ad3ad4269f5dd9a645726f344dd9d2", "type": "electric_scooter", "lon": -77.01570416666667, "rental_uris": {"ios": "https://dc.lft.to/lastmile_qr_scan", "android": "https://dc.lft.to/lastmile_qr_scan"}, "bike_id": "62ad3ad4269f5dd9a645726f344dd9d2", "is_reserved": 0, "fusion_lon": 0.0}, {"lat": 38.89755316666667, "is_disabled": 0, "fusion_lat": 0.0, "name": "22f960d96d6359c42acc9fc9ece365d4", "type": "electric_scooter", "lon": -77.03045366666667, "rental_uris": {"ios": "https://dc.lft.to/lastmile_qr_scan", "android": "https://dc.lft.to/lastmile_qr_scan"}, "bike_id": "22f960d96d6359c42acc9fc9ece365d4", "is_reserved": 0, "fusion_lon": 0.0}, {"lat": 38.93647266666667, "is_disabled": 0, "fusion_lat": 0.0, "name": "8efbddb2e3ae96d88b63f24894e706b3", "type": "electric_scooter", "lon": -77.0199435, "rental_uris": {"ios": "https://dc.lft.to/lastmile_qr_scan", "android": "https://dc.lft.to/lastmile_qr_scan"}, "bike_id": "8efbddb2e3ae96d88b63f24894e706b3", "is_reserved": 0, "fusion_lon": 0.0}, {"lat": 38.87660066666667, "is_disabled": 0, "fusion_lat": 0.0, "name": "3fecfb1e7fe0939d68bcec9ede737785", "type": "electric_scooter", "lon": -77.00066266666667, "rental_uris": {"ios": "https://dc.lft.to/lastmile_qr_scan", "android": "https://dc.lft.to/lastmile_qr_scan"}, "bike_id": "3fecfb1e7fe0939d68bcec9ede737785", "is_reserved": 0, "fusion_lon": 0.0}, {"lat": 38.91681633333334, "is_disabled": 0, "fusion_lat": 0.0, "name": "49a39fa64b388fa8e8c8fced7cc03d4d", "type": "electric_scooter", "lon": -77.0296875, "rental_uris": {"ios": "https://dc.lft.to/lastmile_qr_scan", "android": "https://dc.lft.to/lastmile_qr_scan"}, "bike_id": "49a39fa64b388fa8e8c8fced7cc03d4d", "is_reserved": 0, "fusion_lon": 0.0}, {"lat": 38.867510833333334, "is_disabled": 0, "fusion_lat": 0.0, "name": "eca1ad0507bbedf0f658eb952a2d5e3b", "type": "electric_scooter", "lon": -77.00145566666667, "rental_uris": {"ios": "https://dc.lft.to/lastmile_qr_scan", "android": "https://dc.lft.to/lastmile_qr_scan"}, "bike_id": "eca1ad0507bbedf0f658eb952a2d5e3b", "is_reserved": 0, "fusion_lon": 0.0}, {"lat": 38.89694683333333, "is_disabled": 0, "fusion_lat": 0.0, "name": "5e97548bae9beaea052b79b095c8a2b9", "type": "electric_scooter", "lon": -77.01216083333334, "rental_uris": {"ios": "https://dc.lft.to/lastmile_qr_scan", "android": "https://dc.lft.to/lastmile_qr_scan"}, "bike_id": "5e97548bae9beaea052b79b095c8a2b9", "is_reserved": 0, "fusion_lon": 0.0}, {"lat": 38.8948445, "is_disabled": 0, "fusion_lat": 0.0, "name": "719b8debfdcbc3fcd66123d6e61f65e9", "type": "electric_scooter", "lon": -76.99515216666667, "rental_uris": {"ios": "https://dc.lft.to/lastmile_qr_scan", "android": "https://dc.lft.to/lastmile_qr_scan"}, "bike_id": "719b8debfdcbc3fcd66123d6e61f65e9", "is_reserved": 0, "fusion_lon": 0.0}, {"lat": 38.86669466666667, "is_disabled": 0, "fusion_lat": 0.0, "name": "60c5f75704e848fa0d32f4369b8978e2", "type": "electric_scooter", "lon": -76.985067, "rental_uris": {"ios": "https://dc.lft.to/lastmile_qr_scan", "android": "https://dc.lft.to/lastmile_qr_scan"}, "bike_id": "60c5f75704e848fa0d32f4369b8978e2", "is_reserved": 0, "fusion_lon": 0.0}, {"lat": 39.0252055, "is_disabled": 0, "fusion_lat": 0.0, "name": "d843b69020a02757175ad56213273af2", "type": "electric_bike", "lon": -77.0196415, "rental_uris": {"ios": "https://dc.lft.to/lastmile_qr_scan", "android": "https://dc.lft.to/lastmile_qr_scan"}, "bike_id": "d843b69020a02757175ad56213273af2", "is_reserved": 0, "fusion_lon": 0.0}, {"lat": 38.92465716666667, "is_disabled": 0, "fusion_lat": 0.0, "name": "874f41782e39bdacc71d3923819c1e18", "type": "electric_scooter", "lon": -77.02219366666667, "rental_uris": {"ios": "https://dc.lft.to/lastmile_qr_scan", "android": "https://dc.lft.to/lastmile_qr_scan"}, "bike_id": "874f41782e39bdacc71d3923819c1e18", "is_reserved": 0, "fusion_lon": 0.0}, {"lat": 38.887445666666665, "is_disabled": 0, "fusion_lat": 0.0, "name": "539413839578e71f30029a885af57471", "type": "electric_scooter", "lon": -77.00317, "rental_uris": {"ios": "https://dc.lft.to/lastmile_qr_scan", "android": "https://dc.lft.to/lastmile_qr_scan"}, "bike_id": "539413839578e71f30029a885af57471", "is_reserved": 0, "fusion_lon": 0.0}, {"lat": 38.931020833333335, "is_disabled": 0, "fusion_lat": 0.0, "name": "327aa41035b98b8770788b66fd2c303f", "type": "electric_scooter", "lon": -77.02472416666667, "rental_uris": {"ios": "https://dc.lft.to/lastmile_qr_scan", "android": "https://dc.lft.to/lastmile_qr_scan"}, "bike_id": "327aa41035b98b8770788b66fd2c303f", "is_reserved": 0, "fusion_lon": 0.0}, {"lat": 38.921163166666666, "is_disabled": 0, "fusion_lat": 0.0, "name": "936e86c7ca1edda81c39989a86e2030a", "type": "electric_scooter", "lon": -77.0420005, "rental_uris": {"ios": "https://dc.lft.to/lastmile_qr_scan", "android": "https://dc.lft.to/lastmile_qr_scan"}, "bike_id": "936e86c7ca1edda81c39989a86e2030a", "is_reserved": 0, "fusion_lon": 0.0}, {"lat": 38.91164583333333, "is_disabled": 0, "fusion_lat": 0.0, "name": "291fcf0a4479fc5149c08975127f9e37", "type": "electric_scooter", "lon": -77.04481966666667, "rental_uris": {"ios": "https://dc.lft.to/lastmile_qr_scan", "android": "https://dc.lft.to/lastmile_qr_scan"}, "bike_id": "291fcf0a4479fc5149c08975127f9e37", "is_reserved": 0, "fusion_lon": 0.0}, {"lat": 38.887812, "is_disabled": 0, "fusion_lat": 0.0, "name": "0a03bd88338ba1ec235fc3b4e2494e18", "type": "electric_scooter", "lon": -76.95520716666667, "rental_uris": {"ios": "https://dc.lft.to/lastmile_qr_scan", "android": "https://dc.lft.to/lastmile_qr_scan"}, "bike_id": "0a03bd88338ba1ec235fc3b4e2494e18", "is_reserved": 0, "fusion_lon": 0.0}, {"lat": 38.892428833333334, "is_disabled": 0, "fusion_lat": 0.0, "name": "098f1b3c55a21840b2480f0a1aa393d2", "type": "electric_scooter", "lon": -77.031843, "rental_uris": {"ios": "https://dc.lft.to/lastmile_qr_scan", "android": "https://dc.lft.to/lastmile_qr_scan"}, "bike_id": "098f1b3c55a21840b2480f0a1aa393d2", "is_reserved": 0, "fusion_lon": 0.0}, {"lat": 39.085101333333334, "is_disabled": 0, "fusion_lat": 0.0, "name": "4716c4a717fc9886f3e56340f47574c0", "type": "electric_bike", "lon": -76.950605, "rental_uris": {"ios": "https://dc.lft.to/lastmile_qr_scan", "android": "https://dc.lft.to/lastmile_qr_scan"}, "bike_id": "4716c4a717fc9886f3e56340f47574c0", "is_reserved": 0, "fusion_lon": 0.0}, {"lat": 38.891763, "is_disabled": 0, "fusion_lat": 0.0, "name": "a54311290d8cb01ec1a9c556951f7ab4", "type": "electric_scooter", "lon": -77.01543916666667, "rental_uris": {"ios": "https://dc.lft.to/lastmile_qr_scan", "android": "https://dc.lft.to/lastmile_qr_scan"}, "bike_id": "a54311290d8cb01ec1a9c556951f7ab4", "is_reserved": 0, "fusion_lon": 0.0}, {"lat": 38.92052866666667, "is_disabled": 0, "fusion_lat": 0.0, "name": "109f12ee6e7616279e0a2f98ca935031", "type": "electric_scooter", "lon": -77.04179583333334, "rental_uris": {"ios": "https://dc.lft.to/lastmile_qr_scan", "android": "https://dc.lft.to/lastmile_qr_scan"}, "bike_id": "109f12ee6e7616279e0a2f98ca935031", "is_reserved": 0, "fusion_lon": 0.0}, {"lat": 38.9228715, "is_disabled": 0, "fusion_lat": 0.0, "name": "fb12fd6a8756ca0c57502a94dff6ab5b", "type": "electric_scooter", "lon": -77.03658566666667, "rental_uris": {"ios": "https://dc.lft.to/lastmile_qr_scan", "android": "https://dc.lft.to/lastmile_qr_scan"}, "bike_id": "fb12fd6a8756ca0c57502a94dff6ab5b", "is_reserved": 0, "fusion_lon": 0.0}, {"lat": 38.90233633333333, "is_disabled": 0, "fusion_lat": 0.0, "name": "b8f130e2f5fa84ca9d968bdbf82f5de4", "type": "electric_scooter", "lon": -77.05333216666666, "rental_uris": {"ios": "https://dc.lft.to/lastmile_qr_scan", "android": "https://dc.lft.to/lastmile_qr_scan"}, "bike_id": "b8f130e2f5fa84ca9d968bdbf82f5de4", "is_reserved": 0, "fusion_lon": 0.0}, {"lat": 38.90453983333333, "is_disabled": 0, "fusion_lat": 0.0, "name": "1a3e4dc1545914b46291d84143bb7800", "type": "electric_scooter", "lon": -77.04826983333334, "rental_uris": {"ios": "https://dc.lft.to/lastmile_qr_scan", "android": "https://dc.lft.to/lastmile_qr_scan"}, "bike_id": "1a3e4dc1545914b46291d84143bb7800", "is_reserved": 0, "fusion_lon": 0.0}, {"lat": 38.90358483333333, "is_disabled": 0, "fusion_lat": 0.0, "name": "779a749ff1465ff3016d4085c237e1df", "type": "electric_scooter", "lon": -77.01948416666667, "rental_uris": {"ios": "https://dc.lft.to/lastmile_qr_scan", "android": "https://dc.lft.to/lastmile_qr_scan"}, "bike_id": "779a749ff1465ff3016d4085c237e1df", "is_reserved": 0, "fusion_lon": 0.0}, {"lat": 38.89551483333334, "is_disabled": 0, "fusion_lat": 0.0, "name": "02e6f3067cfdd03ded4e0fd2bc52a5a0", "type": "electric_scooter", "lon": -77.02927, "rental_uris": {"ios": "https://dc.lft.to/lastmile_qr_scan", "android": "https://dc.lft.to/lastmile_qr_scan"}, "bike_id": "02e6f3067cfdd03ded4e0fd2bc52a5a0", "is_reserved": 0, "fusion_lon": 0.0}, {"lat": 38.9012925, "is_disabled": 0, "fusion_lat": 0.0, "name": "3e108129f0b754b402213e619d79bb3a", "type": "electric_scooter", "lon": -77.04415816666666, "rental_uris": {"ios": "https://dc.lft.to/lastmile_qr_scan", "android": "https://dc.lft.to/lastmile_qr_scan"}, "bike_id": "3e108129f0b754b402213e619d79bb3a", "is_reserved": 0, "fusion_lon": 0.0}, {"lat": 38.94925533333333, "is_disabled": 0, "fusion_lat": 0.0, "name": "cf5d485b4d501ee58bc622d70611a37b", "type": "electric_scooter", "lon": -77.01858866666667, "rental_uris": {"ios": "https://dc.lft.to/lastmile_qr_scan", "android": "https://dc.lft.to/lastmile_qr_scan"}, "bike_id": "cf5d485b4d501ee58bc622d70611a37b", "is_reserved": 0, "fusion_lon": 0.0}, {"lat": 38.90304416666667, "is_disabled": 0, "fusion_lat": 0.0, "name": "541dd5393634aa3796ca704e3cefe706", "type": "electric_scooter", "lon": -76.99839716666666, "rental_uris": {"ios": "https://dc.lft.to/lastmile_qr_scan", "android": "https://dc.lft.to/lastmile_qr_scan"}, "bike_id": "541dd5393634aa3796ca704e3cefe706", "is_reserved": 0, "fusion_lon": 0.0}, {"lat": 38.89832533333333, "is_disabled": 0, "fusion_lat": 0.0, "name": "37f270c2195a36d4c01190db1000b678", "type": "electric_scooter", "lon": -76.946457, "rental_uris": {"ios": "https://dc.lft.to/lastmile_qr_scan", "android": "https://dc.lft.to/lastmile_qr_scan"}, "bike_id": "37f270c2195a36d4c01190db1000b678", "is_reserved": 0, "fusion_lon": 0.0}, {"lat": 38.908381, "is_disabled": 0, "fusion_lat": 0.0, "name": "7050e414cd363370b38f97748b1ef756", "type": "electric_scooter", "lon": -77.022583, "rental_uris": {"ios": "https://dc.lft.to/lastmile_qr_scan", "android": "https://dc.lft.to/lastmile_qr_scan"}, "bike_id": "7050e414cd363370b38f97748b1ef756", "is_reserved": 0, "fusion_lon": 0.0}, {"lat": 38.90900583333333, "is_disabled": 0, "fusion_lat": 0.0, "name": "72dbca0bfd09df7a7562dab512bc16e1", "type": "electric_scooter", "lon": -77.03174766666666, "rental_uris": {"ios": "https://dc.lft.to/lastmile_qr_scan", "android": "https://dc.lft.to/lastmile_qr_scan"}, "bike_id": "72dbca0bfd09df7a7562dab512bc16e1", "is_reserved": 0, "fusion_lon": 0.0}, {"lat": 38.90863433333333, "is_disabled": 0, "fusion_lat": 0.0, "name": "9280d1b03c8294396b079a45c80ae8c0", "type": "electric_scooter", "lon": -77.0124, "rental_uris": {"ios": "https://dc.lft.to/lastmile_qr_scan", "android": "https://dc.lft.to/lastmile_qr_scan"}, "bike_id": "9280d1b03c8294396b079a45c80ae8c0", "is_reserved": 0, "fusion_lon": 0.0}, {"lat": 38.9228475, "is_disabled": 0, "fusion_lat": 0.0, "name": "6108ba5bc3e095969181b937935d280e", "type": "electric_scooter", "lon": -77.03640816666666, "rental_uris": {"ios": "https://dc.lft.to/lastmile_qr_scan", "android": "https://dc.lft.to/lastmile_qr_scan"}, "bike_id": "6108ba5bc3e095969181b937935d280e", "is_reserved": 0, "fusion_lon": 0.0}, {"lat": 38.89867116666667, "is_disabled": 0, "fusion_lat": 0.0, "name": "0f504ec4fd66f3c8f80078b5e88902eb", "type": "electric_scooter", "lon": -76.94629516666667, "rental_uris": {"ios": "https://dc.lft.to/lastmile_qr_scan", "android": "https://dc.lft.to/lastmile_qr_scan"}, "bike_id": "0f504ec4fd66f3c8f80078b5e88902eb", "is_reserved": 0, "fusion_lon": 0.0}, {"lat": 38.908699, "is_disabled": 0, "fusion_lat": 0.0, "name": "eaf23c17d1351690b43077a9e56532cf", "type": "electric_scooter", "lon": -77.04325083333333, "rental_uris": {"ios": "https://dc.lft.to/lastmile_qr_scan", "android": "https://dc.lft.to/lastmile_qr_scan"}, "bike_id": "eaf23c17d1351690b43077a9e56532cf", "is_reserved": 0, "fusion_lon": 0.0}, {"lat": 38.882779166666666, "is_disabled": 0, "fusion_lat": 0.0, "name": "cb7f6deaa27e858eb2b90e62241490b8", "type": "electric_scooter", "lon": -77.00578333333333, "rental_uris": {"ios": "https://dc.lft.to/lastmile_qr_scan", "android": "https://dc.lft.to/lastmile_qr_scan"}, "bike_id": "cb7f6deaa27e858eb2b90e62241490b8", "is_reserved": 0, "fusion_lon": 0.0}, {"lat": 38.899638833333334, "is_disabled": 0, "fusion_lat": 0.0, "name": "f7aab0ffb1c3cf3e6227cd2016e64708", "type": "electric_scooter", "lon": -77.03910966666666, "rental_uris": {"ios": "https://dc.lft.to/lastmile_qr_scan", "android": "https://dc.lft.to/lastmile_qr_scan"}, "bike_id": "f7aab0ffb1c3cf3e6227cd2016e64708", "is_reserved": 0, "fusion_lon": 0.0}, {"lat": 38.925432, "is_disabled": 0, "fusion_lat": 0.0, "name": "dd963f5076eb98549fb717321ac06fb3", "type": "electric_scooter", "lon": -77.04257733333333, "rental_uris": {"ios": "https://dc.lft.to/lastmile_qr_scan", "android": "https://dc.lft.to/lastmile_qr_scan"}, "bike_id": "dd963f5076eb98549fb717321ac06fb3", "is_reserved": 0, "fusion_lon": 0.0}, {"lat": 38.870724, "is_disabled": 0, "fusion_lat": 0.0, "name": "a72d9b7f0e6799947b241c109c4b42f0", "type": "electric_scooter", "lon": -76.97935716666667, "rental_uris": {"ios": "https://dc.lft.to/lastmile_qr_scan", "android": "https://dc.lft.to/lastmile_qr_scan"}, "bike_id": "a72d9b7f0e6799947b241c109c4b42f0", "is_reserved": 0, "fusion_lon": 0.0},