{"data": {"bikes": [{"rental_uris": {"android": "https://dc.lft.to/lastmile_qr_scan", "ios": "https://dc.lft.to/lastmile_qr_scan"}, "name": "367753cc454deb71f55a043d6d43b79e", "fusion_lat": 0.0, "lon": -77.03175333333333, "is_disabled": 0, "is_reserved": 0, "fusion_lon": 0.0, "lat": 38.92108183333333, "type": "electric_scooter", "bike_id": "367753cc454deb71f55a043d6d43b79e"}, {"rental_uris": {"android": "https://dc.lft.to/lastmile_qr_scan", "ios": "https://dc.lft.to/lastmile_qr_scan"}, "name": "abdeb23cec222ec60d0562de346915ff", "fusion_lat": 0.0, "lon": -77.00071733333333, "is_disabled": 0, "is_reserved": 0, "fusion_lon": 0.0, "lat": 38.90027166666667, "type": "electric_scooter", "bike_id": "abdeb23cec222ec60d0562de346915ff"}, {"rental_uris": {"android": "https://dc.lft.to/lastmile_qr_scan", "ios": "https://dc.lft.to/lastmile_qr_scan"}, "name": "fd4576ab4dd67e3aa223e68c1384c9ea", "fusion_lat": 0.0, "lon": -77.01505033333333, "is_disabled": 0, "is_reserved": 0, "fusion_lon": 0.0, "lat": 38.899349666666666, "type": "electric_scooter", "bike_id": "fd4576ab4dd67e3aa223e68c1384c9ea"}, {"rental_uris": {"android": "https://dc.lft.to/lastmile_qr_scan", "ios": "https://dc.lft.to/lastmile_qr_scan"}, "name": "305461d3d7b269b46f4459a3d56eb3fb", "fusion_lat": 0.0, "lon": -76.93160866666666, "is_disabled": 0, "is_reserved": 0, "fusion_lon": 0.0, "lat": 38.898815166666665, "type": "electric_scooter", "bike_id": "305461d3d7b269b46f4459a3d56eb3fb"}, {"rental_uris": {"android": "https://dc.lft.to/lastmile_qr_scan", "ios": "https://dc.lft.to/lastmile_qr_scan"}, "name": "11429c4cb3b5a986a58b6ed85ccbb0ef", "fusion_lat": 0.0, "lon": -77.02529466666667, "is_disabled": 0, "is_reserved": 0, "fusion_lon": 0.0, "lat": 38.905687666666665, "type": "electric_scooter", "bike_id": "11429c4cb3b5a986a58b6ed85ccbb0ef"}, {"rental_uris": {"android": "https://dc.lft.to/lastmile_qr_scan", "ios": "https://dc.lft.to/lastmile_qr_scan"}, "name": "74cc76ee420c928105af091710272074", "fusion_lat": 0.0, "lon": -77.03844516666666, "is_disabled": 0, "is_reserved": 0, "fusion_lon": 0.0, "lat": 38.91209883333333, "type": "electric_scooter", "bike_id": "74cc76ee420c928105af091710272074"}, {"rental_uris": {"android": "https://dc.lft.to/lastmile_qr_scan", "ios": "https://dc.lft.to/lastmile_qr_scan"}, "name": "9da06a820fb8f5fa0b787ab161c56940", "fusion_lat": 0.0, "lon": -76.87496316666666, "is_disabled": 0, "is_reserved": 0, "fusion_lon": 0.0, "lat": 38.99089883333333, "type": "electric_bike", "bike_id": "9da06a820fb8f5fa0b787ab161c56940"}, {"rental_uris": {"android": "https://dc.lft.to/lastmile_qr_scan", "ios": "https://dc.lft.to/lastmile_qr_scan"}, "name": "a1f213626362ff165839ee9fbf6e5aa1", "fusion_lat": 0.0, "lon": -77.00333233333333, "is_disabled": 0, "is_reserved": 0, "fusion_lon": 0.0, "lat": 38.895061166666665, "type": "electric_scooter", "bike_id": "a1f213626362ff165839ee9fbf6e5aa1"}, {"rental_uris": {"android": "https://dc.lft.to/lastmile_qr_scan", "ios": "https://dc.lft.to/lastmile_qr_scan"}, "name": "a48c7d88d4d555fa1dd5051ac9ef2b5a", "fusion_lat": 0.0, "lon": -77.11221116666667, "is_disabled": 0, "is_reserved": 0, "fusion_lon": 0.0, "lat": 38.828725166666665, "type": "electric_bike", "bike_id": "a48c7d88d4d555fa1dd5051ac9ef2b5a"}, {"rental_uris": {"android": "https://dc.lft.to/lastmile_qr_scan", "ios": "https://dc.lft.to/lastmile_qr_scan"}, "name": "05e98b952024ee184f121614aba9cf95", "fusion_lat": 0.0, "lon": -76.99953483333333, "is_disabled": 0, "is_reserved": 0, "fusion_lon": 0.0, "lat": 38.908645, "type": "electric_scooter", "bike_id": "05e98b952024ee184f121614aba9cf95"}, {"rental_uris": {"android": "https://dc.lft.to/lastmile_qr_scan", "ios": "https://dc.lft.to/lastmile_qr_scan"}, "name": "cb37dc01829f71e3ef092b290bde8f57", "fusion_lat": 0.0, "lon": -77.03145633333334, "is_disabled": 0, "is_reserved": 0, "fusion_lon": 0.0, "lat": 38.93183833333333, "type": "electric_scooter", "bike_id": "cb37dc01829f71e3ef092b290bde8f57"}, {"rental_uris": {"android": "https://dc.lft.to/lastmile_qr_scan", "ios": "https://dc.lft.to/lastmile_qr_scan"}, "name": "2ccc44607901d8fd3e3ead7290bed23e", "fusion_lat": 0.0, "lon": -76.99633016666667, "is_disabled": 0, "is_reserved": 0, "fusion_lon": 0.0, "lat": 38.84617883333333, "type": "electric_scooter", "bike_id": "2ccc44607901d8fd3e3ead7290bed23e"}, {"rental_uris": {"android": "https://dc.lft.to/lastmile_qr_scan", "ios": "https://dc.lft.to/lastmile_qr_scan"}, "name": "c76980288ce96652ff52cdaa4e872bef", "fusion_lat": 0.0, "lon": -77.014803, "is_disabled": 0, "is_reserved": 0, "fusion_lon": 0.0, "lat": 38.876267, "type": "electric_scooter", "bike_id": "c76980288ce96652ff52cdaa4e872bef"}, {"rental_uris": {"android": "https://dc.lft.to/lastmile_qr_scan", "ios": "https://dc.lft.to/lastmile_qr_scan"}, "name": "99c7080bc172a3f8e4f047732a8dff39", "fusion_lat": 0.0, "lon": -77.005195, "is_disabled": 0, "is_reserved": 0, "fusion_lon": 0.0, "lat": 38.87473133333334, "type": "electric_scooter", "bike_id": "99c7080bc172a3f8e4f047732a8dff39"}, {"rental_uris": {"android": "https://dc.lft.to/lastmile_qr_scan", "ios": "https://dc.lft.to/lastmile_qr_scan"}, "name": "bf3947566d379b79c530caa27ef20d9a", "fusion_lat": 0.0, "lon": -76.98755116666666, "is_disabled": 0, "is_reserved": 0, "fusion_lon": 0.0, "lat": 38.98822116666667, "type": "electric_bike", "bike_id": "bf3947566d379b79c530caa27ef20d9a"}, {"rental_uris": {"android": "https://dc.lft.to/lastmile_qr_scan", "ios": "https://dc.lft.to/lastmile_qr_scan"}, "name": "4b64cbefeb2bc60ca693744bb8a2cc15", "fusion_lat": 0.0, "lon": -77.01754816666667, "is_disabled": 0, "is_reserved": 0, "fusion_lon": 0.0, "lat": 38.913556166666666, "type": "electric_scooter", "bike_id": "4b64cbefeb2bc60ca693744bb8a2cc15"}, {"rental_uris": {"android": "https://dc.lft.to/lastmile_qr_scan", "ios": "https://dc.lft.to/lastmile_qr_scan"}, "name": "cfb487c98ab124f62251bc10be81ae29", "fusion_lat": 0.0, "lon": -76.9823985, "is_disabled": 0, "is_reserved": 0, "fusion_lon": 0.0, "lat": 38.90451983333333, "type": "electric_scooter", "bike_id": "cfb487c98ab124f62251bc10be81ae29"}, {"rental_uris": {"android": "https://dc.lft.to/lastmile_qr_scan", "ios": "https://dc.lft.to/lastmile_qr_scan"}, "name": "a1b213716585746a0354f54ad10ec6ba", "fusion_lat": 0.0, "lon": -77.04657066666667, "is_disabled": 0, "is_reserved": 0, "fusion_lon": 0.0, "lat": 38.8923865, "type": "electric_scooter", "bike_id": "a1b213716585746a0354f54ad10ec6ba"}, {"rental_uris": {"android": "https://dc.lft.to/lastmile_qr_scan", "ios": "https://dc.lft.to/lastmile_qr_scan"}, "name": "c183ed7bf82422dfd6dd43addbdc140c", "fusion_lat": 0.0, "lon": -77.0120815, "is_disabled": 0, "is_reserved": 0, "fusion_lon": 0.0, "lat": 38.89539116666667, "type": "electric_scooter", "bike_id": "c183ed7bf82422dfd6dd43addbdc140c"}, {"rental_uris": {"android": "https://dc.lft.to/lastmile_qr_scan", "ios": "https://dc.lft.to/lastmile_qr_scan"}, "name": "1627f865063f853bfa07c6f53c5d32de", "fusion_lat": 0.0, "lon": -76.93755233333333, "is_disabled": 0, "is_reserved": 0, "fusion_lon": 0.0, "lat": 38.89034016666667, "type": "electric_scooter", "bike_id": "1627f865063f853bfa07c6f53c5d32de"}, {"rental_uris": {"android": "https://dc.lft.to/lastmile_qr_scan", "ios": "https://dc.lft.to/lastmile_qr_scan"}, "name": "1470b88941b3531101f52ccabf9e5797", "fusion_lat": 0.0, "lon": -76.93884883333334, "is_disabled": 0, "is_reserved": 0, "fusion_lon": 0.0, "lat": 38.956315833333335, "type": "electric_bike", "bike_id": "1470b88941b3531101f52ccabf9e5797"}, {"rental_uris": {"android": "https://dc.lft.to/lastmile_qr_scan", "ios": "https://dc.lft.to/lastmile_qr_scan"}, "name": "a081ba41dba30a1ec1efdb75eba3765a", "fusion_lat": 0.0, "lon": -77.0315245, "is_disabled": 0, "is_reserved": 0, "fusion_lon": 0.0, "lat": 38.928109666666664, "type": "electric_scooter", "bike_id": "a081ba41dba30a1ec1efdb75eba3765a"}, {"rental_uris": {"android": "https://dc.lft.to/lastmile_qr_scan", "ios": "https://dc.lft.to/lastmile_qr_scan"}, "name": "b671bd679f06f7d1a620085890149696", "fusion_lat": 0.0, "lon": -77.02156366666667, "is_disabled": 0, "is_reserved": 0, "fusion_lon": 0.0, "lat": 38.9260515, "type": "electric_scooter", "bike_id": "b671bd679f06f7d1a620085890149696"}, {"rental_uris": {"android": "https://dc.lft.to/lastmile_qr_scan", "ios": "https://dc.lft.to/lastmile_qr_scan"}, "name": "5dd6f128bac25f91a23b17ff98b69c88", "fusion_lat": 0.0, "lon": -77.03849, "is_disabled": 0, "is_reserved": 0, "fusion_lon": 0.0, "lat": 38.909526, "type": "electric_scooter", "bike_id": "5dd6f128bac25f91a23b17ff98b69c88"}, {"rental_uris": {"android": "https://dc.lft.to/lastmile_qr_scan", "ios": "https://dc.lft.to/lastmile_qr_scan"}, "name": "3ae19ee378cead3bb223bbab5139b81a", "fusion_lat": 0.0, "lon": -77.08573733333333, "is_disabled": 0, "is_reserved": 0, "fusion_lon": 0.0, "lat": 38.874251, "type": "electric_bike", "bike_id": "3ae19ee378cead3bb223bbab5139b81a"}, {"rental_uris": {"android": "https://dc.lft.to/lastmile_qr_scan", "ios": "https://dc.lft.to/lastmile_qr_scan"}, "name": "41eac5ede18da7188d1152a04ca80883", "fusion_lat": 0.0, "lon": -76.96559366666666, "is_disabled": 0, "is_reserved": 0, "fusion_lon": 0.0, "lat": 38.918555166666664, "type": "electric_scooter", "bike_id": "41eac5ede18da7188d1152a04ca80883"}, {"rental_uris": {"android": "https://dc.lft.to/lastmile_qr_scan", "ios": "https://dc.lft.to/lastmile_qr_scan"}, "name": "248d7b167820fd6e48a40214b0fbaaee", "fusion_lat": 0.0, "lon": -77.02230783333333, "is_disabled": 0, "is_reserved": 0, "fusion_lon": 0.0, "lat": 38.887697833333334, "type": "electric_scooter", "bike_id": "248d7b167820fd6e48a40214b0fbaaee"}, {"rental_uris": {"android": "https://dc.lft.to/lastmile_qr_scan", "ios": "https://dc.lft.to/lastmile_qr_scan"}, "name": "680c8fb6a376a735b7ca063401fc0537", "fusion_lat": 0.0, "lon": -77.00609516666667, "is_disabled": 0, "is_reserved": 0, "fusion_lon": 0.0, "lat": 38.87184283333333, "type": "electric_scooter", "bike_id": "680c8fb6a376a735b7ca063401fc0537"}, {"rental_uris": {"android": "https://dc.lft.to/lastmile_qr_scan", "ios": "https://dc.lft.to/lastmile_qr_scan"}, "name": "b0bb5e9664311be334383f9400ca4c89", "fusion_lat": 0.0, "lon": -77.0249845, "is_disabled": 0, "is_reserved": 0, "fusion_lon": 0.0, "lat": 38.974031833333335, "type": "electric_bike", "bike_id": "b0bb5e9664311be334383f9400ca4c89"}, {"rental_uris": {"android": "https://dc.lft.to/lastmile_qr_scan", "ios": "https://dc.lft.to/lastmile_qr_scan"}, "name": "c1152d8bb268ed4f75640229279357d4", "fusion_lat": 0.0, "lon": -77.02399983333333, "is_disabled": 0, "is_reserved": 0, "fusion_lon": 0.0, "lat": 38.9310045, "type": "electric_scooter", "bike_id": "c1152d8bb268ed4f75640229279357d4"}, {"rental_uris": {"android": "https://dc.lft.to/lastmile_qr_scan", "ios": "https://dc.lft.to/lastmile_qr_scan"}, "name": "ebe8eb1fbaded775cfab8cb9beeebff9", "fusion_lat": 0.0, "lon": -76.98038083333333, "is_disabled": 0, "is_reserved": 0, "fusion_lon": 0.0, "lat": 38.916765166666664, "type": "electric_scooter", "bike_id": "ebe8eb1fbaded775cfab8cb9beeebff9"}, {"rental_uris": {"android": "https://dc.lft.to/lastmile_qr_scan", "ios": "https://dc.lft.to/lastmile_qr_scan"}, "name": "5688bf6888c9a1c928871af0125fdc6e", "fusion_lat": 0.0, "lon": -77.01211366666666, "is_disabled": 0, "is_reserved": 0, "fusion_lon": 0.0, "lat": 38.900350833333334, "type": "electric_scooter", "bike_id": "5688bf6888c9a1c928871af0125fdc6e"}, {"rental_uris": {"android": "https://dc.lft.to/lastmile_qr_scan", "ios": "https://dc.lft.to/lastmile_qr_scan"}, "name": "b79d55ea6efb3aabb29f55bbdf536766", "fusion_lat": 0.0, "lon": -77.03361416666667, "is_disabled": 0, "is_reserved": 0, "fusion_lon": 0.0, "lat": 38.8984865, "type": "electric_scooter", "bike_id": "b79d55ea6efb3aabb29f55bbdf536766"}, {"rental_uris": {"android": "https://dc.lft.to/lastmile_qr_scan", "ios": "https://dc.lft.to/lastmile_qr_scan"}, "name": "55ba6bddd148efeab70ffe028301483f", "fusion_lat": 0.0, "lon": -77.00888916666666, "is_disabled": 0, "is_reserved": 0, "fusion_lon": 0.0, "lat": 38.9053555, "type": "electric_scooter", "bike_id": "55ba6bddd148efeab70ffe028301483f"}, {"rental_uris": {"android": "https://dc.lft.to/lastmile_qr_scan", "ios": "https://dc.lft.to/lastmile_qr_scan"}, "name": "5347c9db99490cd13768b1a87d360431", "fusion_lat": 0.0, "lon": -77.033621, "is_disabled": 0, "is_reserved": 0, "fusion_lon": 0.0, "lat": 38.91185383333333, "type": "electric_scooter", "bike_id": "5347c9db99490cd13768b1a87d360431"}, {"rental_uris": {"android": "https://dc.lft.to/lastmile_qr_scan", "ios": "https://dc.lft.to/lastmile_qr_scan"}, "name": "d39a8886e03e9b8da4134d88d3e72e31", "fusion_lat": 0.0, "lon": -77.05438566666666, "is_disabled": 0, "is_reserved": 0, "fusion_lon": 0.0, "lat": 38.896041333333336, "type": "electric_scooter", "bike_id": "d39a8886e03e9b8da4134d88d3e72e31"}, {"rental_uris": {"android": "https://dc.lft.to/lastmile_qr_scan", "ios": "https://dc.lft.to/lastmile_qr_scan"}, "name": "283be022e843124c5af9d390bf781622", "fusion_lat": 0.0, "lon": -77.03635583333333, "is_disabled": 0, "is_reserved": 0, "fusion_lon": 0.0, "lat": 38.931705, "type": "electric_scooter", "bike_id": "283be022e843124c5af9d390bf781622"}, {"rental_uris": {"android": "https://dc.lft.to/lastmile_qr_scan", "ios": "https://dc.lft.to/lastmile_qr_scan"}, "name": "63394db48aa176c8f402efdc277eb617", "fusion_lat": 0.0, "lon": -77.04329783333333, "is_disabled": 0, "is_reserved": 0, "fusion_lon": 0.0, "lat": 38.914411333333334, "type": "electric_scooter", "bike_id": "63394db48aa176c8f402efdc277eb617"}, {"rental_uris": {"android": "https://dc.lft.to/lastmile_qr_scan", "ios": "https://dc.lft.to/lastmile_qr_scan"}, "name": "d6508565dd3721a756b18c2c2974c128", "fusion_lat": 0.0, "lon": -77.04820383333333, "is_disabled": 0, "is_reserved": 0, "fusion_lon": 0.0, "lat": 38.914888, "type": "electric_scooter", "bike_id": "d6508565dd3721a756b18c2c2974c128"}, {"rental_uris": {"android": "https://dc.lft.to/lastmile_qr_scan", "ios": "https://dc.lft.to/lastmile_qr_scan"}, "name": "f744a7fe3db04c2fede032266a516664", "fusion_lat": 0.0, "lon": -77.00346, "is_disabled": 0, "is_reserved": 0, "fusion_lon": 0.0, "lat": 38.8968775, "type": "electric_scooter", "bike_id": "f744a7fe3db04c2fede032266a516664"}, {"rental_uris": {"android": "https://dc.lft.to/lastmile_qr_scan", "ios": "https://dc.lft.to/lastmile_qr_scan"}, "name": "6801acce820dea65140cd9c49b4b5382", "fusion_lat": 0.0, "lon": -77.04484033333334, "is_disabled": 0, "is_reserved": 0, "fusion_lon": 0.0, "lat": 38.907248333333335, "type": "electric_scooter", "bike_id": "6801acce820dea65140cd9c49b4b5382"}, {"rental_uris": {"android": "https://dc.lft.to/lastmile_qr_scan", "ios": "https://dc.lft.to/lastmile_qr_scan"}, "name": "203fb56dae3cf8c017cb712455153b41", "fusion_lat": 0.0, "lon": -77.0347575, "is_disabled": 0, "is_reserved": 0, "fusion_lon": 0.0, "lat": 38.91115383333333, "type": "electric_scooter", "bike_id": "203fb56dae3cf8c017cb712455153b41"}, {"rental_uris": {"android": "https://dc.lft.to/lastmile_qr_scan", "ios": "https://dc.lft.to/lastmile_qr_scan"}, "name": "0164901dfdc43ff213bd9a1c14478300", "fusion_lat": 0.0, "lon": -77.00062216666667, "is_disabled": 0, "is_reserved": 0, "fusion_lon": 0.0, "lat": 38.87657083333333, "type": "electric_scooter", "bike_id": "0164901dfdc43ff213bd9a1c14478300"}, {"rental_uris": {"android": "https://dc.lft.to/lastmile_qr_scan", "ios": "https://dc.lft.to/lastmile_qr_scan"}, "name": "8f9d9ce223f5584f946240f7b7cb28c4", "fusion_lat": 0.0, "lon": -77.00887216666666, "is_disabled": 0, "is_reserved": 0, "fusion_lon": 0.0, "lat": 38.905751, "type": "electric_scooter", "bike_id": "8f9d9ce223f5584f946240f7b7cb28c4"}, {"rental_uris": {"android": "https://dc.lft.to/lastmile_qr_scan", "ios": "https://dc.lft.to/lastmile_qr_scan"}, "name": "d3faab1073dde2d325c6e664e599a4d8", "fusion_lat": 0.0, "lon": -77.029638, "is_disabled": 0, "is_reserved": 0, "fusion_lon": 0.0, "lat": 38.92149166666667, "type": "electric_scooter", "bike_id": "d3faab1073dde2d325c6e664e599a4d8"}, {"rental_uris": {"android": "https://dc.lft.to/lastmile_qr_scan", "ios": "https://dc.lft.to/lastmile_qr_scan"}, "name": "286a9cf5f3236b79701c7c429eb9488c", "fusion_lat": 0.0, "lon": -76.99078233333333, "is_disabled": 0, "is_reserved": 0, "fusion_lon": 0.0, "lat": 38.89826516666667, "type": "electric_bike", "bike_id": "286a9cf5f3236b79701c7c429eb9488c"}, {"rental_uris": {"android": "https://dc.lft.to/lastmile_qr_scan", "ios": "https://dc.lft.to/lastmile_qr_scan"}, "name": "987550daf87a279adedb3c4d933fa5d9", "fusion_lat": 0.0, "lon": -77.03446416666667, "is_disabled": 0, "is_reserved": 0, "fusion_lon": 0.0, "lat": 38.91803216666667, "type": "electric_scooter", "bike_id": "987550daf87a279adedb3c4d933fa5d9"}, {"rental_uris": {"android": "https://dc.lft.to/lastmile_qr_scan", "ios": "https://dc.lft.to/lastmile_qr_scan"}, "name": "f07dc618c634f17a81f7ba96550d995d", "fusion_lat": 0.0, "lon": -76.99491783333333, "is_disabled": 0, "is_reserved": 0, "fusion_lon": 0.0, "lat": 38.862414, "type": "electric_scooter", "bike_id": "f07dc618c634f17a81f7ba96550d995d"}, {"rental_uris": {"android": "https://dc.lft.to/lastmile_qr_scan", "ios": "https://dc.lft.to/lastmile_qr_scan"}, "name": "865396ee7b7eff3a8a5b43f709002c75", "fusion_lat": 0.0, "lon": -77.027458, "is_disabled": 0, "is_reserved": 0, "fusion_lon": 0.0, "lat": 38.956090833333334, "type": "electric_scooter", "bike_id": "865396ee7b7eff3a8a5b43f709002c75"}, {"rental_uris": {"android": "https://dc.lft.to/lastmile_qr_scan", "ios": "https://dc.lft.to/lastmile_qr_scan"}, "name": "57377fa4318a5ebe5ee36ff94c1d1cff", "fusion_lat": 0.0, "lon": -77.0248705, "is_disabled": 0, "is_reserved": 0, "fusion_lon": 0.0, "lat": 38.941978166666665, "type": "electric_scooter", "bike_id": "57377fa4318a5ebe5ee36ff94c1d1cff"}, {"rental_uris": {"android": "https://dc.lft.to/lastmile_qr_scan", "ios": "https://dc.lft.to/lastmile_qr_scan"}, "name": "364a9f59a15c2fad724734657a8d0c91", "fusion_lat": 0.0, "lon": -77.02653966666666, "is_disabled": 0, "is_reserved": 0, "fusion_lon": 0.0, "lat": 38.9026765, "type": "electric_scooter", "bike_id": "364a9f59a15c2fad724734657a8d0c91"}, {"rental_uris": {"android": "https://dc.lft.to/lastmile_qr_scan", "ios": "https://dc.lft.to/lastmile_qr_scan"}, "name": "2b2578aecda28bbe23e79bcf59458818", "fusion_lat": 0.0, "lon": -77.04335516666667, "is_disabled": 0, "is_reserved": 0, "fusion_lon": 0.0, "lat": 38.90338033333333, "type": "electric_scooter", "bike_id": "2b2578aecda28bbe23e79bcf59458818"}, {"rental_uris": {"android": "https://dc.lft.to/lastmile_qr_scan", "ios": "https://dc.lft.to/lastmile_qr_scan"}, "name": "8141b773d23c13c6c80d344d481a331b", "fusion_lat": 0.0, "lon": -76.99491383333333, "is_disabled": 0, "is_reserved": 0, "fusion_lon": 0.0, "lat": 38.862442, "type": "electric_scooter", "bike_id": "8141b773d23c13c6c80d344d481a331b"}, {"rental_uris": {"android": "https://dc.lft.to/lastmile_qr_scan", "ios": "https://dc.lft.to/lastmile_qr_scan"}, "name": "dd3c6d69172b10438d95911b3b8f9046", "fusion_lat": 0.0, "lon": -77.03274066666667, "is_disabled": 0, "is_reserved": 0, "fusion_lon": 0.0, "lat": 38.91566233333333, "type": "electric_scooter", "bike_id": "dd3c6d69172b10438d95911b3b8f9046"}, {"rental_uris": {"android": "https://dc.lft.to/lastmile_qr_scan", "ios": "https://dc.lft.to/lastmile_qr_scan"}, "name": "62a94c4abfb1f2f2d005ab2a505d9c7f", "fusion_lat": 0.0, "lon": -77.04389816666666, "is_disabled": 0, "is_reserved": 0, "fusion_lon": 0.0, "lat": 38.922763, "type": "electric_scooter", "bike_id": "62a94c4abfb1f2f2d005ab2a505d9c7f"}, {"rental_uris": {"android": "https://dc.lft.to/lastmile_qr_scan", "ios": "https://dc.lft.to/lastmile_qr_scan"}, "name": "07a20bd6bc29550500d3573fc8341e4f", "fusion_lat": 0.0, "lon": -77.00813666666667, "is_disabled": 0, "is_reserved": 0, "fusion_lon": 0.0, "lat": 38.876701833333335, "type": "electric_scooter", "bike_id": "07a20bd6bc29550500d3573fc8341e4f"}, {"rental_uris": {"android": "https://dc.lft.to/lastmile_qr_scan", "ios": "https://dc.lft.to/lastmile_qr_scan"}, "name": "5973df331ef984a9c13b6186d7835a71", "fusion_lat": 0.0, "lon": -77.10919716666666, "is_disabled": 0, "is_reserved": 0, "fusion_lon": 0.0, "lat": 39.052046833333335, "type": "electric_bike", "bike_id": "5973df331ef984a9c13b6186d7835a71"}, {"rental_uris": {"android": "https://dc.lft.to/lastmile_qr_scan", "ios": "https://dc.lft.to/lastmile_qr_scan"}, "name": "131f52fa421170785775dc15dc6dd287", "fusion_lat": 0.0, "lon": -76.989187, "is_disabled": 0, "is_reserved": 0, "fusion_lon": 0.0, "lat": 38.866285, "type": "electric_scooter", "bike_id": "131f52fa421170785775dc15dc6dd287"}, {"rental_uris": {"android": "https://dc.lft.to/lastmile_qr_scan", "ios": "https://dc.lft.to/lastmile_qr_scan"}, "name": "cbf43a96dba79c35e40ffa87862429ab", "fusion_lat": 0.0, "lon": -76.9730595, "is_disabled": 0, "is_reserved": 0, "fusion_lon": 0.0, "lat": 38.91987, "type": "electric_scooter", "bike_id": "cbf43a96dba79c35e40ffa87862429ab"}, {"rental_uris": {"android": "https://dc.lft.to/lastmile_qr_scan", "ios": "https://dc.lft.to/lastmile_qr_scan"}, "name": "fbe4af582ea47c54fdb27919c5f3e483", "fusion_lat": 0.0, "lon": -77.02373916666667, "is_disabled": 0, "is_reserved": 0, "fusion_lon": 0.0, "lat": 38.892216833333336, "type": "electric_scooter", "bike_id": "fbe4af582ea47c54fdb27919c5f3e483"}, {"rental_uris": {"android": "https://dc.lft.to/lastmile_qr_scan", "ios": "https://dc.lft.to/lastmile_qr_scan"}, "name": "8bbff76d555b1efcf1e47245c8c25ca2", "fusion_lat": 0.0, "lon": -76.9650645, "is_disabled": 0, "is_reserved": 0, "fusion_lon": 0.0, "lat": 38.8764645, "type": "electric_scooter", "bike_id": "8bbff76d555b1efcf1e47245c8c25ca2"}, {"rental_uris": {"android": "https://dc.lft.to/lastmile_qr_scan", "ios": "https://dc.lft.to/lastmile_qr_scan"}, "name": "57b71075f55f5b80acfc353bab5a4b7e", "fusion_lat": 0.0, "lon": -77.01751533333334, "is_disabled": 0, "is_reserved": 0, "fusion_lon": 0.0, "lat": 38.90876083333333, "type": "electric_scooter", "bike_id": "57b71075f55f5b80acfc353bab5a4b7e"}, {"rental_uris": {"android": "https://dc.lft.to/lastmile_qr_scan", "ios": "https://dc.lft.to/lastmile_qr_scan"}, "name": "b228dcae34cfcc5390ce3751686afc54", "fusion_lat": 0.0, "lon": -77.04903883333333, "is_disabled": 0, "is_reserved": 0, "fusion_lon": 0.0, "lat": 38.892532, "type": "electric_scooter", "bike_id": "b228dcae34cfcc5390ce3751686afc54"}, {"rental_uris": {"android": "https://dc.lft.to/lastmile_qr_scan", "ios": "https://dc.lft.to/lastmile_qr_scan"}, "name": "e616ab2f413cc193f443175d93e01ce4", "fusion_lat": 0.0, "lon": -77.04643666666666, "is_disabled": 0, "is_reserved": 0, "fusion_lon": 0.0, "lat": 38.904247, "type": "electric_scooter", "bike_id": "e616ab2f413cc193f443175d93e01ce4"}, {"rental_uris": {"android": "https://dc.lft.to/lastmile_qr_scan", "ios": "https://dc.lft.to/lastmile_qr_scan"}, "name": "9f30e8012a0f6c940950da0df6372906", "fusion_lat": 0.0, "lon": -77.04332733333334, "is_disabled": 0, "is_reserved": 0, "fusion_lon": 0.0, "lat": 38.903992333333335, "type": "electric_scooter", "bike_id": "9f30e8012a0f6c940950da0df6372906"}, {"rental_uris": {"android": "https://dc.lft.to/lastmile_qr_scan", "ios": "https://dc.lft.to/lastmile_qr_scan"}, "name": "1d8afc0d8ff0a2aeb0b6d7c5e1bfc73c", "fusion_lat": 0.0, "lon": -77.04279916666667, "is_disabled": 0, "is_reserved": 0, "fusion_lon": 0.0, "lat": 38.914105, "type": "electric_scooter", "bike_id": "1d8afc0d8ff0a2aeb0b6d7c5e1bfc73c"}, {"rental_uris": {"android": "https://dc.lft.to/lastmile_qr_scan", "ios": "https://dc.lft.to/lastmile_qr_scan"}, "name": "c1aa6111d548964b3d784f2e8a63d023", "fusion_lat": 0.0, "lon": -77.03832633333333, "is_disabled": 0, "is_reserved": 0, "fusion_lon": 0.0, "lat": 38.909874333333335, "type": "electric_scooter", "bike_id": "c1aa6111d548964b3d784f2e8a63d023"}, {"rental_uris": {"android": "https://dc.lft.to/lastmile_qr_scan", "ios": "https://dc.lft.to/lastmile_qr_scan"}, "name": "25e475740d713e538a7073f5ef59217f", "fusion_lat": 0.0, "lon": -77.0082975, "is_disabled": 0, "is_reserved": 0, "fusion_lon": 0.0, "lat": 38.912627, "type": "electric_scooter", "bike_id": "25e475740d713e538a7073f5ef59217f"}, {"rental_uris": {"android": "https://dc.lft.to/lastmile_qr_scan", "ios": "https://dc.lft.to/lastmile_qr_scan"}, "name": "e7370025d1c28899664073563927225b", "fusion_lat": 0.0, "lon": -77.02978183333333, "is_disabled": 0, "is_reserved": 0, "fusion_lon": 0.0, "lat": 38.92748866666667, "type": "electric_scooter", "bike_id": "e7370025d1c28899664073563927225b"}, {"rental_uris": {"android": "https://dc.lft.to/lastmile_qr_scan", "ios": "https://dc.lft.to/lastmile_qr_scan"}, "name": "d021d739d3593c2404f98b5b873cb3f7", "fusion_lat": 0.0, "lon": -76.88909566666666, "is_disabled": 0, "is_reserved": 0, "fusion_lon": 0.0, "lat": 38.925947666666666, "type": "electric_bike", "bike_id": "d021d739d3593c2404f98b5b873cb3f7"}, {"rental_uris": {"android": "https://dc.lft.to/lastmile_qr_scan", "ios": "https://dc.lft.to/lastmile_qr_scan"}, "name": "fd72a7adc0729d7afcad507d9a8ce026", "fusion_lat": 0.0, "lon": -77.00334183333334, "is_disabled": 0, "is_reserved": 0, "fusion_lon": 0.0, "lat": 38.8935375, "type": "electric_scooter", "bike_id": "fd72a7adc0729d7afcad507d9a8ce026"}, {"rental_uris": {"android": "https://dc.lft.to/lastmile_qr_scan", "ios": "https://dc.lft.to/lastmile_qr_scan"}, "name": "7d0ac7a248354b55f9ed9ca0694f4faa", "fusion_lat": 0.0, "lon": -77.0383635, "is_disabled": 0, "is_reserved": 0, "fusion_lon": 0.0, "lat": 38.903403, "type": "electric_scooter", "bike_id": "7d0ac7a248354b55f9ed9ca0694f4faa"}, {"rental_uris": {"android": "https://dc.lft.to/lastmile_qr_scan", "ios": "https://dc.lft.to/lastmile_qr_scan"}, "name": "e39e44304f0189f52d98b1fc5b472615", "fusion_lat": 0.0, "lon": -77.0719215, "is_disabled": 0, "is_reserved": 0, "fusion_lon": 0.0, "lat": 38.92106316666667, "type": "electric_scooter", "bike_id": "e39e44304f0189f52d98b1fc5b472615"}, {"rental_uris": {"android": "https://dc.lft.to/lastmile_qr_scan", "ios": "https://dc.lft.to/lastmile_qr_scan"}, "name": "5db4a6f44bfa6d9ab12dcc8664ee562b", "fusion_lat": 0.0, "lon": -76.952218, "is_disabled": 0, "is_reserved": 0, "fusion_lon": 0.0, "lat": 38.892377333333336, "type": "electric_bike", "bike_id": "5db4a6f44bfa6d9ab12dcc8664ee562b"}, {"rental_uris": {"android": "https://dc.lft.to/lastmile_qr_scan", "ios": "https://dc.lft.to/lastmile_qr_scan"}, "name": "cc4cec02c598b42bbe0379bea4a871ca", "fusion_lat": 0.0, "lon": -77.0263815, "is_disabled": 0, "is_reserved": 0, "fusion_lon": 0.0, "lat": 38.98059716666667, "type": "electric_scooter", "bike_id": "cc4cec02c598b42bbe0379bea4a871ca"}, {"rental_uris": {"android": "https://dc.lft.to/lastmile_qr_scan", "ios": "https://dc.lft.to/lastmile_qr_scan"}, "name": "1f1a25fbd11fee6b2c84d2ee0d9624b5", "fusion_lat": 0.0, "lon": -77.06885533333333, "is_disabled": 0, "is_reserved": 0, "fusion_lon": 0.0, "lat": 38.90513633333333, "type": "electric_scooter", "bike_id": "1f1a25fbd11fee6b2c84d2ee0d9624b5"}, {"rental_uris": {"android": "https://dc.lft.to/lastmile_qr_scan", "ios": "https://dc.lft.to/lastmile_qr_scan"}, "name": "a5f7f5cb7029f88eeb536979270e69a0", "fusion_lat": 0.0, "lon": -76.99792183333334, "is_disabled": 0, "is_reserved": 0, "fusion_lon": 0.0, "lat": 38.90560883333333, "type": "electric_scooter", "bike_id": "a5f7f5cb7029f88eeb536979270e69a0"}, {"rental_uris": {"android": "https://dc.lft.to/lastmile_qr_scan", "ios": "https://dc.lft.to/lastmile_qr_scan"}, "name": "ff1be0838f758ccce24b76d4d629db7c", "fusion_lat": 0.0, "lon": -76.99681816666667, "is_disabled": 0, "is_reserved": 0, "fusion_lon": 0.0, "lat": 38.88701116666667, "type": "electric_scooter", "bike_id": "ff1be0838f758ccce24b76d4d629db7c"}, {"rental_uris": {"android": "https://dc.lft.to/lastmile_qr_scan", "ios": "https://dc.lft.to/lastmile_qr_scan"}, "name": "db4e6b0da156ffcf0d1c520ab94e68c2", "fusion_lat": 0.0, "lon": -76.9456765, "is_disabled": 0, "is_reserved": 0, "fusion_lon": 0.0, "lat": 38.866224333333335, "type": "electric_bike", "bike_id": "db4e6b0da156ffcf0d1c520ab94e68c2"}, {"rental_uris": {"android": "https://dc.lft.to/lastmile_qr_scan", "ios": "https://dc.lft.to/lastmile_qr_scan"}, "name": "c172d4445c7d1c78362e3dde42679f05", "fusion_lat": 0.0, "lon": -77.06222533333333, "is_disabled": 0, "is_reserved": 0, "fusion_lon": 0.0, "lat": 38.90532683333333, "type": "electric_scooter", "bike_id": "c172d4445c7d1c78362e3dde42679f05"}, {"rental_uris": {"android": "https://dc.lft.to/lastmile_qr_scan", "ios": "https://dc.lft.to/lastmile_qr_scan"}, "name": "0438cf1bbdddb9161abdee7d7cd43057", "fusion_lat": 0.0, "lon": -77.015607, "is_disabled": 0, "is_reserved": 0, "fusion_lon": 0.0, "lat": 38.89176883333333, "type": "electric_scooter", "bike_id": "0438cf1bbdddb9161abdee7d7cd43057"}, {"rental_uris": {"android": "https://dc.lft.to/lastmile_qr_scan", "ios": "https://dc.lft.to/lastmile_qr_scan"}, "name": "ff0341cf9500659c8f245d5a4b61df3e", "fusion_lat": 0.0, "lon": -77.02312383333333, "is_disabled": 0, "is_reserved": 0, "fusion_lon": 0.0, "lat": 38.927874833333334, "type": "electric_scooter", "bike_id": "ff0341cf9500659c8f245d5a4b61df3e"}, {"rental_uris": {"android": "https://dc.lft.to/lastmile_qr_scan", "ios": "https://dc.lft.to/lastmile_qr_scan"}, "name": "e79703ca695c1a81e1a0a329185ca13c", "fusion_lat": 0.0, "lon": -77.0281655, "is_disabled": 0, "is_reserved": 0, "fusion_lon": 0.0, "lat": 38.892407, "type": "electric_scooter", "bike_id": "e79703ca695c1a81e1a0a329185ca13c"}, {"rental_uris": {"android": "https://dc.lft.to/lastmile_qr_scan", "ios": "https://dc.lft.to/lastmile_qr_scan"}, "name": "4778fef2a2369c3c04ad4e0d587417c4", "fusion_lat": 0.0, "lon": -77.0271755, "is_disabled": 0, "is_reserved": 0, "fusion_lon": 0.0, "lat": 38.92487166666667, "type": "electric_scooter", "bike_id": "4778fef2a2369c3c04ad4e0d587417c4"}, {"rental_uris": {"android": "https://dc.lft.to/lastmile_qr_scan", "ios": "https://dc.lft.to/lastmile_qr_scan"}, "name": "e1e475c6a96e56001bc99c69c04b5b8c", "fusion_lat": 0.0, "lon": -77.03464816666667, "is_disabled": 0, "is_reserved": 0, "fusion_lon": 0.0, "lat": 38.903873, "type": "electric_scooter", "bike_id": "e1e475c6a96e56001bc99c69c04b5b8c"}, {"rental_uris": {"android": "https://dc.lft.to/lastmile_qr_scan", "ios": "https://dc.lft.to/lastmile_qr_scan"}, "name": "f380d0177195495c2dc0df0a92d69ca0", "fusion_lat": 0.0, "lon": -77.02900083333333, "is_disabled": 0, "is_reserved": 0, "fusion_lon": 0.0, "lat": 38.90335783333333, "type": "electric_scooter", "bike_id": "f380d0177195495c2dc0df0a92d69ca0"}, {"rental_uris": {"android": "https://dc.lft.to/lastmile_qr_scan", "ios": "https://dc.lft.to/lastmile_qr_scan"}, "name": "1cb2f79feebc4c8fa5b8c66d6ff1f9a4", "fusion_lat": 0.0, "lon": -77.040043, "is_disabled": 0, "is_reserved": 0, "fusion_lon": 0.0, "lat": 38.90535716666667, "type": "electric_scooter", "bike_id": "1cb2f79feebc4c8fa5b8c66d6ff1f9a4"}, {"rental_uris": {"android": "https://dc.lft.to/lastmile_qr_scan", "ios": "https://dc.lft.to/lastmile_qr_scan"}, "name": "fcc02168b19c9ac0e3a376626d206ea2", "fusion_lat": 0.0, "lon": -77.00868066666666, "is_disabled": 0, "is_reserved": 0, "fusion_lon": 0.0, "lat": 38.876541833333334, "type": "electric_scooter", "bike_id": "fcc02168b19c9ac0e3a376626d206ea2"}, {"rental_uris": {"android": "https://dc.lft.to/lastmile_qr_scan", "ios": "https://dc.lft.to/lastmile_qr_scan"}, "name": "66da0544f48a073c092920697ed51573", "fusion_lat": 0.0, "lon": -77.0372775, "is_disabled": 0, "is_reserved": 0, "fusion_lon": 0.0, "lat": 38.90632033333333, "type": "electric_scooter", "bike_id": "66da0544f48a073c092920697ed51573"}, {"rental_uris": {"android": "https://dc.lft.to/lastmile_qr_scan", "ios": "https://dc.lft.to/lastmile_qr_scan"}, "name": "9e3326fe00d0eed75d95dc2632f5407a", "fusion_lat": 0.0, "lon": -76.96558983333334, "is_disabled": 0, "is_reserved": 0, "fusion_lon": 0.0, "lat": 38.91861166666666, "type": "electric_scooter", "bike_id": "9e3326fe00d0eed75d95dc2632f5407a"}, {"rental_uris": {"android": "https://dc.lft.to/lastmile_qr_scan", "ios": "https://dc.lft.to/lastmile_qr_scan"}, "name": "4835d49921438cca6355b3d5be09ff09", "fusion_lat": 0.0, "lon": -77.006078, "is_disabled": 0, "is_reserved": 0, "fusion_lon": 0.0, "lat": 38.871809, "type": "electric_scooter", "bike_id": "4835d49921438cca6355b3d5be09ff09"}, {"rental_uris": {"android": "https://dc.lft.to/lastmile_qr_scan", "ios": "https://dc.lft.to/lastmile_qr_scan"}, "name": "9bc2633895b31cc7cc5c90f2ee793277", "fusion_lat": 0.0, "lon": -77.0461775, "is_disabled": 0, "is_reserved": 0, "fusion_lon": 0.0, "lat": 38.902754, "type": "electric_scooter", "bike_id": "9bc2633895b31cc7cc5c90f2ee793277"}, {"rental_uris": {"android": "https://dc.lft.to/lastmile_qr_scan", "ios": "https://dc.lft.to/lastmile_qr_scan"}, "name": "1b922329e9587497311c62ccc8323bdb", "fusion_lat": 0.0, "lon": -77.03846383333334, "is_disabled": 0, "is_reserved": 0, "fusion_lon": 0.0, "lat": 38.915406, "type": "electric_scooter", "bike_id": "1b922329e9587497311c62ccc8323bdb"}, {"rental_uris": {"android": "https://dc.lft.to/lastmile_qr_scan", "ios": "https://dc.lft.to/lastmile_qr_scan"}, "name": "861db4f1fd36b537af4f8ce318362560", "fusion_lat": 0.0, "lon": -77.06364583333334, "is_disabled": 0, "is_reserved": 0, "fusion_lon": 0.0, "lat": 38.94454183333333, "type": "electric_scooter", "bike_id": "861db4f1fd36b537af4f8ce318362560"}, {"rental_uris": {"android": "https://dc.lft.to/lastmile_qr_scan", "ios": "https://dc.lft.to/lastmile_qr_scan"}, "name": "dca529fc7c9f9255d2d11a604582052a", "fusion_lat": 0.0, "lon": -77.037192, "is_disabled": 0, "is_reserved": 0, "fusion_lon": 0.0, "lat": 38.918084, "type": "electric_scooter", "bike_id": "dca529fc7c9f9255d2d11a604582052a"}, {"rental_uris": {"android": "https://dc.lft.to/lastmile_qr_scan", "ios": "https://dc.lft.to/lastmile_qr_scan"}, "name": "8a6227e4907220fac8da9738ddc73148", "fusion_lat": 0.0, "lon": -77.08616866666667, "is_disabled": 0, "is_reserved": 0, "fusion_lon": 0.0, "lat": 38.9587415, "type": "electric_scooter", "bike_id": "8a6227e4907220fac8da9738ddc73148"}, {"rental_uris": {"android": "https://dc.lft.to/lastmile_qr_scan", "ios": "https://dc.lft.to/lastmile_qr_scan"}, "name": "dc2725ff520e935b04524cca82fad913", "fusion_lat": 0.0, "lon": -77.0190415, "is_disabled": 0, "is_reserved": 0, "fusion_lon": 0.0, "lat": 38.878394166666666, "type": "electric_scooter", "bike_id": "dc2725ff520e935b04524cca82fad913"}, {"rental_uris": {"android": "https://dc.lft.to/lastmile_qr_scan", "ios": "https://dc.lft.to/lastmile_qr_scan"}, "name": "6d86437da1d52b85af9a86005c86527c", "fusion_lat": 0.0, "lon": -77.04290066666667, "is_disabled": 0, "is_reserved": 0, "fusion_lon": 0.0, "lat": 38.9178985, "type": "electric_scooter", "bike_id": "6d86437da1d52b85af9a86005c86527c"}, {"rental_uris": {"android": "https://dc.lft.to/lastmile_qr_scan", "ios": "https://dc.lft.to/lastmile_qr_scan"}, "name": "94de6b5f71fad800228327400544dc90", "fusion_lat": 0.0, "lon": -77.038246, "is_disabled": 0, "is_reserved": 0, "fusion_lon": 0.0, "lat": 38.91689216666666, "type": "electric_scooter", "bike_id": "94de6b5f71fad800228327400544dc90"}, {"rental_uris": {"android": "https://dc.lft.to/lastmile_qr_scan", "ios": "https://dc.lft.to/lastmile_qr_scan"}, "name": "237238c0ae1de0dbb3505c0aafa5e2a0", "fusion_lat": 0.0, "lon": -76.99959333333334, "is_disabled": 0, "is_reserved": 0, "fusion_lon": 0.0, "lat": 38.90865466666666, "type": "electric_scooter", "bike_id": "237238c0ae1de0dbb3505c0aafa5e2a0"}, {"rental_uris": {"android": "https://dc.lft.to/lastmile_qr_scan", "ios": "https://dc.lft.to/lastmile_qr_scan"}, "name": "80a4e0d525a670c62de6e761f1d5ac9b", "fusion_lat": 0.0, "lon": -76.9990295, "is_disabled": 0, "is_reserved": 0, "fusion_lon": 0.0, "lat": 38.95653083333333, "type": "electric_scooter", "bike_id": "80a4e0d525a670c62de6e761f1d5ac9b"}, {"rental_uris": {"android": "https://dc.lft.to/lastmile_qr_scan", "ios": "https://dc.lft.to/lastmile_qr_scan"}, "name": "8df040c4c768e0ccd6d9991cf33e6b0c", "fusion_lat": 0.0, "lon": -76.947762, "is_disabled": 0, "is_reserved": 0, "fusion_lon": 0.0, "lat": 38.89682716666667, "type": "electric_scooter", "bike_id": "8df040c4c768e0ccd6d9991cf33e6b0c"}, {"rental_uris": {"android": "https://dc.lft.to/lastmile_qr_scan", "ios": "https://dc.lft.to/lastmile_qr_scan"}, "name": "c925eb35464044d30fba54035ae7ce25", "fusion_lat": 0.0, "lon": -77.04368583333333, "is_disabled": 0, "is_reserved": 0, "fusion_lon": 0.0, "lat": 38.9210735, "type": "electric_scooter", "bike_id": "c925eb35464044d30fba54035ae7ce25"}, {"rental_uris": {"android": "https://dc.lft.to/lastmile_qr_scan", "ios": "https://dc.lft.to/lastmile_qr_scan"}, "name": "d28c3ecdc691494a3292dcee782b3677", "fusion_lat": 0.0, "lon": -76.989268, "is_disabled": 0, "is_reserved": 0, "fusion_lon": 0.0, "lat": 38.865922833333336, "type": "electric_scooter", "bike_id": "d28c3ecdc691494a3292dcee782b3677"}, {"rental_uris": {"android": "https://dc.lft.to/lastmile_qr_scan", "ios": "https://dc.lft.to/lastmile_qr_scan"}, "name": "b4dd944d077953be2aaf57c94d559176", "fusion_lat": 0.0, "lon": -77.03912416666667, "is_disabled": 0, "is_reserved": 0, "fusion_lon": 0.0, "lat": 38.912594666666664, "type": "electric_scooter", "bike_id": "b4dd944d077953be2aaf57c94d559176"}, {"rental_uris": {"android": "https://dc.lft.to/lastmile_qr_scan", "ios": "https://dc.lft.to/lastmile_qr_scan"}, "name": "c24375b6479096b92a9e2ecece8c335d", "fusion_lat": 0.0, "lon": -76.9755025, "is_disabled": 0, "is_reserved": 0, "fusion_lon": 0.0, "lat": 38.902559333333336, "type": "electric_scooter", "bike_id": "c24375b6479096b92a9e2ecece8c335d"}, {"rental_uris": {"android": "https://dc.lft.to/lastmile_qr_scan", "ios": "https://dc.lft.to/lastmile_qr_scan"}, "name": "fab30e0a34e309b3d130ecaaec85364d", "fusion_lat": 0.0, "lon": -77.03280966666667, "is_disabled": 0, "is_reserved": 0, "fusion_lon": 0.0, "lat": 38.9303625, "type": "electric_scooter", "bike_id": "fab30e0a34e309b3d130ecaaec85364d"}, {"rental_uris": {"android": "https://dc.lft.to/lastmile_qr_scan", "ios": "https://dc.lft.to/lastmile_qr_scan"}, "name": "66ec7204de14a20d2636b708a784f6da", "fusion_lat": 0.0, "lon": -77.0393485, "is_disabled": 0, "is_reserved": 0, "fusion_lon": 0.0, "lat": 38.90262583333333, "type": "electric_scooter", "bike_id": "66ec7204de14a20d2636b708a784f6da"}, {"rental_uris": {"android": "https://dc.lft.to/lastmile_qr_scan", "ios": "https://dc.lft.to/lastmile_qr_scan"}, "name": "e15feb5ade701720619d856490818b3c", "fusion_lat": 0.0, "lon": -77.0398405, "is_disabled": 0, "is_reserved": 0, "fusion_lon": 0.0, "lat": 38.802997, "type": "electric_bike", "bike_id": "e15feb5ade701720619d856490818b3c"}, {"rental_uris": {"android": "https://dc.lft.to/lastmile_qr_scan", "ios": "https://dc.lft.to/lastmile_qr_scan"}, "name": "e90f46defc811876da7b8e97b8b13d1a", "fusion_lat": 0.0, "lon": -76.993671, "is_disabled": 0, "is_reserved": 0, "fusion_lon": 0.0, "lat": 38.900438333333334, "type": "electric_scooter", "bike_id": "e90f46defc811876da7b8e97b8b13d1a"}, {"rental_uris": {"android": "https://dc.lft.to/lastmile_qr_scan", "ios": "https://dc.lft.to/lastmile_qr_scan"}, "name": "b358654f0dfd08a68b56f66970d345b4", "fusion_lat": 0.0, "lon": -76.98884916666667, "is_disabled": 0, "is_reserved": 0, "fusion_lon": 0.0, "lat": 38.90212233333333, "type": "electric_scooter", "bike_id": "b358654f0dfd08a68b56f66970d345b4"}, {"rental_uris": {"android": "https://dc.lft.to/lastmile_qr_scan", "ios": "https://dc.lft.to/lastmile_qr_scan"}, "name": "722e80af6a77646b8823950a3176ee07", "fusion_lat": 0.0, "lon": -77.05269766666666, "is_disabled": 0, "is_reserved": 0, "fusion_lon": 0.0, "lat": 38.925667833333335, "type": "electric_scooter", "bike_id": "722e80af6a77646b8823950a3176ee07"}, {"rental_uris": {"android": "https://dc.lft.to/lastmile_qr_scan", "ios": "https://dc.lft.to/lastmile_qr_scan"}, "name": "804d766e0b5b89639598ad1ae2d8f0d3", "fusion_lat": 0.0, "lon": -77.01563966666667, "is_disabled": 0, "is_reserved": 0, "fusion_lon": 0.0, "lat": 38.872509666666666, "type": "electric_scooter", "bike_id": "804d766e0b5b89639598ad1ae2d8f0d3"}, {"rental_uris": {"android": "https://dc.lft.to/lastmile_qr_scan", "ios": "https://dc.lft.to/lastmile_qr_scan"}, "name": "bb027e3bdbfe67956a5b27f796d2603f", "fusion_lat": 0.0, "lon": -77.01738466666667, "is_disabled": 0, "is_reserved": 0, "fusion_lon": 0.0, "lat": 38.87661266666667, "type": "electric_scooter", "bike_id": "bb027e3bdbfe67956a5b27f796d2603f"}, {"rental_uris": {"android": "https://dc.lft.to/lastmile_qr_scan", "ios": "https://dc.lft.to/lastmile_qr_scan"}, "name": "308fdc32bde51bd7dcc50767d8256d4e", "fusion_lat": 0.0, "lon": -76.99490783333333, "is_disabled": 0, "is_reserved": 0, "fusion_lon": 0.0, "lat": 38.925785, "type": "electric_scooter", "bike_id": "308fdc32bde51bd7dcc50767d8256d4e"}, {"rental_uris": {"android": "https://dc.lft.to/lastmile_qr_scan", "ios": "https://dc.lft.to/lastmile_qr_scan"}, "name": "948eb832da9e47c4efc5819815b13b83", "fusion_lat": 0.0, "lon": -77.07295716666667, "is_disabled": 0, "is_reserved": 0, "fusion_lon": 0.0, "lat": 38.9246795, "type": "electric_bike", "bike_id": "948eb832da9e47c4efc5819815b13b83"}, {"rental_uris": {"android": "https://dc.lft.to/lastmile_qr_scan", "ios": "https://dc.lft.to/lastmile_qr_scan"}, "name": "e435b7f297c515b91b7dfa06e857d8a2", "fusion_lat": 0.0, "lon": -77.0328115, "is_disabled": 0, "is_reserved": 0, "fusion_lon": 0.0, "lat": 38.94655916666667, "type": "electric_scooter", "bike_id": "e435b7f297c515b91b7dfa06e857d8a2"}, {"rental_uris": {"android": "https://dc.lft.to/lastmile_qr_scan", "ios": "https://dc.lft.to/lastmile_qr_scan"}, "name": "f154a7a3877b2a08f233b8346ef5fea3", "fusion_lat": 0.0, "lon": -76.95462433333333, "is_disabled": 0, "is_reserved": 0, "fusion_lon": 0.0, "lat": 38.888077333333335, "type": "electric_scooter", "bike_id": "f154a7a3877b2a08f233b8346ef5fea3"}, {"rental_uris": {"android": "https://dc.lft.to/lastmile_qr_scan", "ios": "https://dc.lft.to/lastmile_qr_scan"}, "name": "2420b7894fa130530a69e13c6f868624", "fusion_lat": 0.0, "lon": -76.96558616666667, "is_disabled": 0, "is_reserved": 0, "fusion_lon": 0.0, "lat": 38.91853866666666, "type": "electric_scooter", "bike_id": "2420b7894fa130530a69e13c6f868624"}, {"rental_uris": {"android": "https://dc.lft.to/lastmile_qr_scan", "ios": "https://dc.lft.to/lastmile_qr_scan"}, "name": "9f01949db7145272e37f0dd6df7dada5", "fusion_lat": 0.0, "lon": -76.98707366666666, "is_disabled": 0, "is_reserved": 0, "fusion_lon": 0.0, "lat": 38.865350666666664, "type": "electric_scooter", "bike_id": "9f01949db7145272e37f0dd6df7dada5"}, {"rental_uris": {"android": "https://dc.lft.to/lastmile_qr_scan", "ios": "https://dc.lft.to/lastmile_qr_scan"}, "name": "fe7cd11c317df9ccd21e2ed8e223affc", "fusion_lat": 0.0, "lon": -77.02288166666666, "is_disabled": 0, "is_reserved": 0, "fusion_lon": 0.0, "lat": 38.9015035, "type": "electric_scooter", "bike_id": "fe7cd11c317df9ccd21e2ed8e223affc"}, {"rental_uris": {"android": "https://dc.lft.to/lastmile_qr_scan", "ios": "https://dc.lft.to/lastmile_qr_scan"}, "name": "4bd0ba06d41577040ccb757dd4e9311f", "fusion_lat": 0.0, "lon": -77.12982066666666, "is_disabled": 0, "is_reserved": 0, "fusion_lon": 0.0, "lat": 38.79990816666667, "type": "electric_bike", "bike_id": "4bd0ba06d41577040ccb757dd4e9311f"}, {"rental_uris": {"android": "https://dc.lft.to/lastmile_qr_scan", "ios": "https://dc.lft.to/lastmile_qr_scan"}, "name": "12bddb1342af63b98c3a1c7fdf8cd890", "fusion_lat": 0.0, "lon": -77.06397583333333, "is_disabled": 0, "is_reserved": 0, "fusion_lon": 0.0, "lat": 38.92908516666667, "type": "electric_scooter", "bike_id": "12bddb1342af63b98c3a1c7fdf8cd890"}, {"rental_uris": {"android": "https://dc.lft.to/lastmile_qr_scan", "ios": "https://dc.lft.to/lastmile_qr_scan"}, "name": "09a4c32b7056a11a02a0577ab980536f", "fusion_lat": 0.0, "lon": -77.070458, "is_disabled": 0, "is_reserved": 0, "fusion_lon": 0.0, "lat": 38.82447233333333, "type": "electric_bike", "bike_id": "09a4c32b7056a11a02a0577ab980536f"}, {"rental_uris": {"android": "https://dc.lft.to/lastmile_qr_scan", "ios": "https://dc.lft.to/lastmile_qr_scan"}, "name": "9faf7bdcd7310a3630414154cece1c66", "fusion_lat": 0.0, "lon": -77.036551, "is_disabled": 0, "is_reserved": 0, "fusion_lon": 0.0, "lat": 38.95025533333333, "type": "electric_bike", "bike_id": "9faf7bdcd7310a3630414154cece1c66"}, {"rental_uris": {"android": "https://dc.lft.to/lastmile_qr_scan", "ios": "https://dc.lft.to/lastmile_qr_scan"}, "name": "4766be782375cc81a3d20597a3e92d0f", "fusion_lat": 0.0, "lon": -76.9944685, "is_disabled": 0, "is_reserved": 0, "fusion_lon": 0.0, "lat": 38.905077666666664, "type": "electric_scooter", "bike_id": "4766be782375cc81a3d20597a3e92d0f"}, {"rental_uris": {"android": "https://dc.lft.to/lastmile_qr_scan", "ios": "https://dc.lft.to/lastmile_qr_scan"}, "name": "4dd1a5ef591dbb12040ac4aa72b49748", "fusion_lat": 0.0, "lon": -77.00133866666667, "is_disabled": 0, "is_reserved": 0, "fusion_lon": 0.0, "lat": 38.8948745, "type": "electric_scooter", "bike_id": "4dd1a5ef591dbb12040ac4aa72b49748"}, {"rental_uris": {"android": "https://dc.lft.to/lastmile_qr_scan", "ios": "https://dc.lft.to/lastmile_qr_scan"}, "name": "a7ca2738ada3947123fab233c0f353a0", "fusion_lat": 0.0, "lon": -76.9008205, "is_disabled": 0, "is_reserved": 0, "fusion_lon": 0.0, "lat": 38.887634, "type": "electric_bike", "bike_id": "a7ca2738ada3947123fab233c0f353a0"}, {"rental_uris": {"android": "https://dc.lft.to/lastmile_qr_scan", "ios": "https://dc.lft.to/lastmile_qr_scan"}, "name": "9ea6be0ebe52b2788db5aa41975b6176", "fusion_lat": 0.0, "lon": -77.03827233333334, "is_disabled": 0, "is_reserved": 0, "fusion_lon": 0.0, "lat": 38.9067355, "type": "electric_scooter", "bike_id": "9ea6be0ebe52b2788db5aa41975b6176"}, {"rental_uris": {"android": "https://dc.lft.to/lastmile_qr_scan", "ios": "https://dc.lft.to/lastmile_qr_scan"}, "name": "93c1ca4a4b78d7c9043b51000840c563", "fusion_lat": 0.0, "lon": -77.12815583333334, "is_disabled": 0, "is_reserved": 0, "fusion_lon": 0.0, "lat": 38.86526116666667, "type": "electric_bike", "bike_id": "93c1ca4a4b78d7c9043b51000840c563"}, {"rental_uris": {"android": "https://dc.lft.to/lastmile_qr_scan", "ios": "https://dc.lft.to/lastmile_qr_scan"}, "name": "16d9d6c2424fda9f7329be905e9e26e2", "fusion_lat": 0.0, "lon": -77.042262, "is_disabled": 0, "is_reserved": 0, "fusion_lon": 0.0, "lat": 38.9216535, "type": "electric_scooter", "bike_id": "16d9d6c2424fda9f7329be905e9e26e2"}, {"rental_uris": {"android": "https://dc.lft.to/lastmile_qr_scan", "ios": "https://dc.lft.to/lastmile_qr_scan"}, "name": "9b65e402ee6baf85f30898d363149ddc", "fusion_lat": 0.0, "lon": -77.038871, "is_disabled": 0, "is_reserved": 0, "fusion_lon": 0.0, "lat": 38.919789, "type": "electric_scooter", "bike_id": "9b65e402ee6baf85f30898d363149ddc"}, {"rental_uris": {"android": "https://dc.lft.to/lastmile_qr_scan", "ios": "https://dc.lft.to/lastmile_qr_scan"}, "name": "6fe9d8106ffbfa47dff6903300e3fadb", "fusion_lat": 0.0, "lon": -76.99761683333334, "is_disabled": 0, "is_reserved": 0, "fusion_lon": 0.0, "lat": 39.005969, "type": "electric_bike", "bike_id": "6fe9d8106ffbfa47dff6903300e3fadb"}, {"rental_uris": {"android": "https://dc.lft.to/lastmile_qr_scan", "ios": "https://dc.lft.to/lastmile_qr_scan"}, "name": "0b38343b097676123d1d988787298f26", "fusion_lat": 0.0, "lon": -77.03067316666667, "is_disabled": 0, "is_reserved": 0, "fusion_lon": 0.0, "lat": 38.88044933333333, "type": "electric_scooter", "bike_id": "0b38343b097676123d1d988787298f26"}, {"rental_uris": {"android": "https://dc.lft.to/lastmile_qr_scan", "ios": "https://dc.lft.to/lastmile_qr_scan"}, "name": "9e41c823c401419e03d9fcf9b966147a", "fusion_lat": 0.0, "lon": -77.036781, "is_disabled": 0, "is_reserved": 0, "fusion_lon": 0.0, "lat": 38.9026895, "type": "electric_scooter", "bike_id": "9e41c823c401419e03d9fcf9b966147a"}, {"rental_uris": {"android": "https://dc.lft.to/lastmile_qr_scan", "ios": "https://dc.lft.to/lastmile_qr_scan"}, "name": "949d5471d0e1b6dd63f5ce5cb700ad81", "fusion_lat": 0.0, "lon": -77.029322, "is_disabled": 0, "is_reserved": 0, "fusion_lon": 0.0, "lat": 38.904081, "type": "electric_scooter", "bike_id": "949d5471d0e1b6dd63f5ce5cb700ad81"}, {"rental_uris": {"android": "https://dc.lft.to/lastmile_qr_scan", "ios": "https://dc.lft.to/lastmile_qr_scan"}, "name": "9cb8ef326a52ece2f6def660093db387", "fusion_lat": 0.0, "lon": -77.02651433333334, "is_disabled": 0, "is_reserved": 0, "fusion_lon": 0.0, "lat": 38.98820116666667, "type": "electric_bike", "bike_id": "9cb8ef326a52ece2f6def660093db387"}, {"rental_uris": {"android": "https://dc.lft.to/lastmile_qr_scan", "ios": "https://dc.lft.to/lastmile_qr_scan"}, "name": "f1fbe77c63cb3e9354fbf2477bddb91b", "fusion_lat": 0.0, "lon": -77.02781716666667, "is_disabled": 0, "is_reserved": 0, "fusion_lon": 0.0, "lat": 38.88161133333333, "type": "electric_scooter", "bike_id": "f1fbe77c63cb3e9354fbf2477bddb91b"}, {"rental_uris": {"android": "https://dc.lft.to/lastmile_qr_scan", "ios": "https://dc.lft.to/lastmile_qr_scan"}, "name": "9f422b5e4f02a652d826d92fa50d67f2", "fusion_lat": 0.0, "lon": -77.03861733333333, "is_disabled": 0, "is_reserved": 0, "fusion_lon": 0.0, "lat": 38.90254916666667, "type": "electric_scooter", "bike_id": "9f422b5e4f02a652d826d92fa50d67f2"}, {"rental_uris": {"android": "https://dc.lft.to/lastmile_qr_scan", "ios": "https://dc.lft.to/lastmile_qr_scan"}, "name": "b69aeb34c7d5857754ef82af36e79054", "fusion_lat": 0.0, "lon": -77.04653733333333, "is_disabled": 0, "is_reserved": 0, "fusion_lon": 0.0, "lat": 38.903375, "type": "electric_scooter", "bike_id": "b69aeb34c7d5857754ef82af36e79054"}, {"rental_uris": {"android": "https://dc.lft.to/lastmile_qr_scan", "ios": "https://dc.lft.to/lastmile_qr_scan"}, "name": "5b9b2527a40a295c007a743c60ac2712", "fusion_lat": 0.0, "lon": -76.92955366666666, "is_disabled": 0, "is_reserved": 0, "fusion_lon": 0.0, "lat": 38.898775666666666, "type": "electric_scooter", "bike_id": "5b9b2527a40a295c007a743c60ac2712"}, {"rental_uris": {"android": "https://dc.lft.to/lastmile_qr_scan", "ios": "https://dc.lft.to/lastmile_qr_scan"}, "name": "0618640bf55d552e0c1d9911212ad150", "fusion_lat": 0.0, "lon": -77.13181366666667, "is_disabled": 0, "is_reserved": 0, "fusion_lon": 0.0, "lat": 38.869113, "type": "electric_bike", "bike_id": "0618640bf55d552e0c1d9911212ad150"}, {"rental_uris": {"android": "https://dc.lft.to/lastmile_qr_scan", "ios": "https://dc.lft.to/lastmile_qr_scan"}, "name": "bc86b39e565b18752dd9a98f17681778", "fusion_lat": 0.0, "lon": -77.01206133333334, "is_disabled": 0, "is_reserved": 0, "fusion_lon": 0.0, "lat": 38.87158866666667, "type": "electric_scooter", "bike_id": "bc86b39e565b18752dd9a98f17681778"}, {"rental_uris": {"android": "https://dc.lft.to/lastmile_qr_scan", "ios": "https://dc.lft.to/lastmile_qr_scan"}, "name": "23e8104b5184660ed97bdb46d83d8abb", "fusion_lat": 0.0, "lon": -77.01210616666667, "is_disabled": 0, "is_reserved": 0, "fusion_lon": 0.0, "lat": 38.893315333333334, "type": "electric_scooter", "bike_id": "23e8104b5184660ed97bdb46d83d8abb"}, {"rental_uris": {"android": "https://dc.lft.to/lastmile_qr_scan", "ios": "https://dc.lft.to/lastmile_qr_scan"}, "name": "5e20f4cd9a5fb724d1030777c69536ca", "fusion_lat": 0.0, "lon": -76.99111583333334, "is_disabled": 0, "is_reserved": 0, "fusion_lon": 0.0, "lat": 38.8791635, "type": "electric_scooter", "bike_id": "5e20f4cd9a5fb724d1030777c69536ca"}, {"rental_uris": {"android": "https://dc.lft.to/lastmile_qr_scan", "ios": "https://dc.lft.to/lastmile_qr_scan"}, "name": "a84dab955db5e2ba1f4526640dc4d3a1", "fusion_lat": 0.0, "lon": -77.03231666666667, "is_disabled": 0, "is_reserved": 0, "fusion_lon": 0.0, "lat": 38.938818833333336, "type": "electric_scooter", "bike_id": "a84dab955db5e2ba1f4526640dc4d3a1"}, {"rental_uris": {"android": "https://dc.lft.to/lastmile_qr_scan", "ios": "https://dc.lft.to/lastmile_qr_scan"}, "name": "de1d85ed09180deb74d966ab0ba6c925", "fusion_lat": 0.0, "lon": -77.03756516666667, "is_disabled": 0, "is_reserved": 0, "fusion_lon": 0.0, "lat": 38.924653666666664, "type": "electric_scooter", "bike_id": "de1d85ed09180deb74d966ab0ba6c925"}, {"rental_uris": {"android": "https://dc.lft.to/lastmile_qr_scan", "ios": "https://dc.lft.to/lastmile_qr_scan"}, "name": "6d36994f29a6504b8c5f93b2ccb36286", "fusion_lat": 0.0, "lon": -77.03658083333333, "is_disabled": 0, "is_reserved": 0, "fusion_lon": 0.0, "lat": 38.912865833333335, "type": "electric_scooter", "bike_id": "6d36994f29a6504b8c5f93b2ccb36286"}, {"rental_uris": {"android": "https://dc.lft.to/lastmile_qr_scan", "ios": "https://dc.lft.to/lastmile_qr_scan"}, "name": "35a12980d20ae023aba69c6e92996f1e", "fusion_lat": 0.0, "lon": -77.028004, "is_disabled": 0, "is_reserved": 0, "fusion_lon": 0.0, "lat": 38.906129166666666, "type": "electric_scooter", "bike_id": "35a12980d20ae023aba69c6e92996f1e"}, {"rental_uris": {"android": "https://dc.lft.to/lastmile_qr_scan", "ios": "https://dc.lft.to/lastmile_qr_scan"}, "name": "4d7b410f368b5d572e007cbc8fe6ee33", "fusion_lat": 0.0, "lon": -77.03419266666667, "is_disabled": 0, "is_reserved": 0, "fusion_lon": 0.0, "lat": 38.929444333333336, "type": "electric_scooter", "bike_id": "4d7b410f368b5d572e007cbc8fe6ee33"}, {"rental_uris": {"android": "https://dc.lft.to/lastmile_qr_scan", "ios": "https://dc.lft.to/lastmile_qr_scan"}, "name": "450945037a9ea203c298827f3ff10a92", "fusion_lat": 0.0, "lon": -77.023805, "is_disabled": 0, "is_reserved": 0, "fusion_lon": 0.0, "lat": 38.907348, "type": "electric_scooter", "bike_id": "450945037a9ea203c298827f3ff10a92"}, {"rental_uris": {"android": "https://dc.lft.to/lastmile_qr_scan", "ios": "https://dc.lft.to/lastmile_qr_scan"}, "name": "f7dcdc235b62b3946a5ea815bdea26ab", "fusion_lat": 0.0, "lon": -76.98490233333334, "is_disabled": 0, "is_reserved": 0, "fusion_lon": 0.0, "lat": 38.889728, "type": "electric_scooter", "bike_id": "f7dcdc235b62b3946a5ea815bdea26ab"}, {"rental_uris": {"android": "https://dc.lft.to/lastmile_qr_scan", "ios": "https://dc.lft.to/lastmile_qr_scan"}, "name": "8fe01fefb20f7729ff7647850934f9a5", "fusion_lat": 0.0, "lon": -77.02265266666667, "is_disabled": 0, "is_reserved": 0, "fusion_lon": 0.0, "lat": 38.94716283333333, "type": "electric_scooter", "bike_id": "8fe01fefb20f7729ff7647850934f9a5"}, {"rental_uris": {"android": "https://dc.lft.to/lastmile_qr_scan", "ios": "https://dc.lft.to/lastmile_qr_scan"}, "name": "19039966ad92f453b7040aa214b3893d", "fusion_lat": 0.0, "lon": -77.013667, "is_disabled": 0, "is_reserved": 0, "fusion_lon": 0.0, "lat": 38.88706766666667, "type": "electric_scooter", "bike_id": "19039966ad92f453b7040aa214b3893d"}, {"rental_uris": {"android": "https://dc.lft.to/lastmile_qr_scan", "ios": "https://dc.lft.to/lastmile_qr_scan"}, "name": "ea58d719eeffbffb69f3e89933db30c4", "fusion_lat": 0.0, "lon": -76.9679025, "is_disabled": 0, "is_reserved": 0, "fusion_lon": 0.0, "lat": 38.87342916666667, "type": "electric_scooter", "bike_id": "ea58d719eeffbffb69f3e89933db30c4"}, {"rental_uris": {"android": "https://dc.lft.to/lastmile_qr_scan", "ios": "https://dc.lft.to/lastmile_qr_scan"}, "name": "5eb9189a9a620ede61ab518c5e67263c", "fusion_lat": 0.0, "lon": -77.0417485, "is_disabled": 0, "is_reserved": 0, "fusion_lon": 0.0, "lat": 38.90229766666667, "type": "electric_scooter", "bike_id": "5eb9189a9a620ede61ab518c5e67263c"}, {"rental_uris": {"android": "https://dc.lft.to/lastmile_qr_scan", "ios": "https://dc.lft.to/lastmile_qr_scan"}, "name": "6f3a43ff0bf9386c11ef1cf1cdc16a8d", "fusion_lat": 0.0, "lon": -77.02199, "is_disabled": 0, "is_reserved": 0, "fusion_lon": 0.0, "lat": 38.915320333333334, "type": "electric_scooter", "bike_id": "6f3a43ff0bf9386c11ef1cf1cdc16a8d"}, {"rental_uris": {"android": "https://dc.lft.to/lastmile_qr_scan", "ios": "https://dc.lft.to/lastmile_qr_scan"}, "name": "d1f5b875e5932127bf3fa131d261a39c", "fusion_lat": 0.0, "lon": -77.023036, "is_disabled": 0, "is_reserved": 0, "fusion_lon": 0.0, "lat": 38.916136333333334, "type": "electric_scooter", "bike_id": "d1f5b875e5932127bf3fa131d261a39c"}, {"rental_uris": {"android": "https://dc.lft.to/lastmile_qr_scan", "ios": "https://dc.lft.to/lastmile_qr_scan"}, "name": "d3d95a87f3124abb1fb7dbb89a374695", "fusion_lat": 0.0, "lon": -77.03987833333333, "is_disabled": 0, "is_reserved": 0, "fusion_lon": 0.0, "lat": 38.90363283333333, "type": "electric_scooter", "bike_id": "d3d95a87f3124abb1fb7dbb89a374695"}, {"rental_uris": {"android": "https://dc.lft.to/lastmile_qr_scan", "ios": "https://dc.lft.to/lastmile_qr_scan"}, "name": "dae96033697a87ff5e8361e435f829a0", "fusion_lat": 0.0, "lon": -77.00137766666667, "is_disabled": 0, "is_reserved": 0, "fusion_lon": 0.0, "lat": 38.905146333333334, "type": "electric_scooter", "bike_id": "dae96033697a87ff5e8361e435f829a0"}, {"rental_uris": {"android": "https://dc.lft.to/lastmile_qr_scan", "ios": "https://dc.lft.to/lastmile_qr_scan"}, "name": "758992f4b42e084400a226aaebaf8bb9", "fusion_lat": 0.0, "lon": -76.996211, "is_disabled": 0, "is_reserved": 0, "fusion_lon": 0.0, "lat": 38.8850065, "type": "electric_scooter", "bike_id": "758992f4b42e084400a226aaebaf8bb9"}, {"rental_uris": {"android": "https://dc.lft.to/lastmile_qr_scan", "ios": "https://dc.lft.to/lastmile_qr_scan"}, "name": "b06fd6152f55ce07696e930cca05b857", "fusion_lat": 0.0, "lon": -77.0435985, "is_disabled": 0, "is_reserved": 0, "fusion_lon": 0.0, "lat": 38.89237816666667, "type": "electric_scooter", "bike_id": "b06fd6152f55ce07696e930cca05b857"}, {"rental_uris": {"android": "https://dc.lft.to/lastmile_qr_scan", "ios": "https://dc.lft.to/lastmile_qr_scan"}, "name": "d219a1090930d15a2b46ac66688fa6c0", "fusion_lat": 0.0, "lon": -77.005438, "is_disabled": 0, "is_reserved": 0, "fusion_lon": 0.0, "lat": 38.8746, "type": "electric_scooter", "bike_id": "d219a1090930d15a2b46ac66688fa6c0"}, {"rental_uris": {"android": "https://dc.lft.to/lastmile_qr_scan", "ios": "https://dc.lft.to/lastmile_qr_scan"}, "name": "051be53cded4f84fd0caf3275f9c2780", "fusion_lat": 0.0, "lon": -77.01710633333333, "is_disabled": 0, "is_reserved": 0, "fusion_lon": 0.0, "lat": 38.905104333333334, "type": "electric_scooter", "bike_id": "051be53cded4f84fd0caf3275f9c2780"}, {"rental_uris": {"android": "https://dc.lft.to/lastmile_qr_scan", "ios": "https://dc.lft.to/lastmile_qr_scan"}, "name": "77581df383dd88c81dd93bdaae8e19c9", "fusion_lat": 0.0, "lon": -77.08072766666666, "is_disabled": 0, "is_reserved": 0, "fusion_lon": 0.0, "lat": 38.8483635, "type": "electric_bike", "bike_id": "77581df383dd88c81dd93bdaae8e19c9"}, {"rental_uris": {"android": "https://dc.lft.to/lastmile_qr_scan", "ios": "https://dc.lft.to/lastmile_qr_scan"}, "name": "179170d591d85f57ec748e9d926897c0", "fusion_lat": 0.0, "lon": -77.04695116666667, "is_disabled": 0, "is_reserved": 0, "fusion_lon": 0.0, "lat": 38.92104666666667, "type": "electric_scooter", "bike_id": "179170d591d85f57ec748e9d926897c0"}, {"rental_uris": {"android": "https://dc.lft.to/lastmile_qr_scan", "ios": "https://dc.lft.to/lastmile_qr_scan"}, "name": "1d696e374829c5c97201a931d08e254f", "fusion_lat": 0.0, "lon": -76.96671383333333, "is_disabled": 0, "is_reserved": 0, "fusion_lon": 0.0, "lat": 38.95871533333333, "type": "electric_bike", "bike_id": "1d696e374829c5c97201a931d08e254f"}, {"rental_uris": {"android": "https://dc.lft.to/lastmile_qr_scan", "ios": "https://dc.lft.to/lastmile_qr_scan"}, "name": "310825eb29487bcf16a2f74f40cbe460", "fusion_lat": 0.0, "lon": -77.02674983333333, "is_disabled": 0, "is_reserved": 0, "fusion_lon": 0.0, "lat": 38.910757333333336, "type": "electric_scooter", "bike_id": "310825eb29487bcf16a2f74f40cbe460"}, {"rental_uris": {"android": "https://dc.lft.to/lastmile_qr_scan", "ios": "https://dc.lft.to/lastmile_qr_scan"}, "name": "023a68f263273f636826b61cc1c45d2f", "fusion_lat": 0.0, "lon": -77.04664, "is_disabled": 0, "is_reserved": 0, "fusion_lon": 0.0, "lat": 38.8990385, "type": "electric_scooter", "bike_id": "023a68f263273f636826b61cc1c45d2f"}, {"rental_uris": {"android": "https://dc.lft.to/lastmile_qr_scan", "ios": "https://dc.lft.to/lastmile_qr_scan"}, "name": "5c8443e9ebb34d3dea8d30b90f807318", "fusion_lat": 0.0, "lon": -76.99456683333334, "is_disabled": 0, "is_reserved": 0, "fusion_lon": 0.0, "lat": 38.85156533333333, "type": "electric_scooter", "bike_id": "5c8443e9ebb34d3dea8d30b90f807318"}, {"rental_uris": {"android": "https://dc.lft.to/lastmile_qr_scan", "ios": "https://dc.lft.to/lastmile_qr_scan"}, "name": "6f59b9fcd9faceda009b2ddc0f86c1ab", "fusion_lat": 0.0, "lon": -77.02681166666666, "is_disabled": 0, "is_reserved": 0, "fusion_lon": 0.0, "lat": 38.898492, "type": "electric_scooter", "bike_id": "6f59b9fcd9faceda009b2ddc0f86c1ab"}, {"rental_uris": {"android": "https://dc.lft.to/lastmile_qr_scan", "ios": "https://dc.lft.to/lastmile_qr_scan"}, "name": "2b8f164a90fb5d33e2bd259197efc127", "fusion_lat": 0.0, "lon": -77.0116245, "is_disabled": 0, "is_reserved": 0, "fusion_lon": 0.0, "lat": 38.87199416666667, "type": "electric_scooter", "bike_id": "2b8f164a90fb5d33e2bd259197efc127"}, {"rental_uris": {"android": "https://dc.lft.to/lastmile_qr_scan", "ios": "https://dc.lft.to/lastmile_qr_scan"}, "name": "419320cd2c84d4b6aaef02b39558e1a7", "fusion_lat": 0.0, "lon": -77.046333, "is_disabled": 0, "is_reserved": 0, "fusion_lon": 0.0, "lat": 38.90562166666667, "type": "electric_scooter", "bike_id": "419320cd2c84d4b6aaef02b39558e1a7"}, {"rental_uris": {"android": "https://dc.lft.to/lastmile_qr_scan", "ios": "https://dc.lft.to/lastmile_qr_scan"}, "name": "ccca268170a8d1f89372718ac6163cd3", "fusion_lat": 0.0, "lon": -76.93745466666667, "is_disabled": 0, "is_reserved": 0, "fusion_lon": 0.0, "lat": 38.890117833333335, "type": "electric_scooter", "bike_id": "ccca268170a8d1f89372718ac6163cd3"}, {"rental_uris": {"android": "https://dc.lft.to/lastmile_qr_scan", "ios": "https://dc.lft.to/lastmile_qr_scan"}, "name": "47d411a9f7b949f5e20e952b111626ab", "fusion_lat": 0.0, "lon": -77.01623783333334, "is_disabled": 0, "is_reserved": 0, "fusion_lon": 0.0, "lat": 38.90612266666667, "type": "electric_scooter", "bike_id": "47d411a9f7b949f5e20e952b111626ab"}, {"rental_uris": {"android": "https://dc.lft.to/lastmile_qr_scan", "ios": "https://dc.lft.to/lastmile_qr_scan"}, "name": "2780765125f80df09dac26a896f0fd8e", "fusion_lat": 0.0, "lon": -77.01385733333333, "is_disabled": 0, "is_reserved": 0, "fusion_lon": 0.0, "lat": 38.92837516666667, "type": "electric_scooter", "bike_id": "2780765125f80df09dac26a896f0fd8e"}, {"rental_uris": {"android": "https://dc.lft.to/lastmile_qr_scan", "ios": "https://dc.lft.to/lastmile_qr_scan"}, "name": "93bc44019d1d7911cb3947dd45b5f84e", "fusion_lat": 0.0, "lon": -76.951102, "is_disabled": 0, "is_reserved": 0, "fusion_lon": 0.0, "lat": 38.887935166666665, "type": "electric_scooter", "bike_id": "93bc44019d1d7911cb3947dd45b5f84e"}, {"rental_uris": {"android": "https://dc.lft.to/lastmile_qr_scan", "ios": "https://dc.lft.to/lastmile_qr_scan"}, "name": "b89baf7ad9b34767ed696199d21d86b1", "fusion_lat": 0.0, "lon": -76.98321616666667, "is_disabled": 0, "is_reserved": 0, "fusion_lon": 0.0, "lat": 38.88813616666667, "type": "electric_scooter", "bike_id": "b89baf7ad9b34767ed696199d21d86b1"}, {"rental_uris": {"android": "https://dc.lft.to/lastmile_qr_scan", "ios": "https://dc.lft.to/lastmile_qr_scan"}, "name": "39d62bc5408e43b0f7afee6f45e9cb75", "fusion_lat": 0.0, "lon": -76.9817195, "is_disabled": 0, "is_reserved": 0, "fusion_lon": 0.0, "lat": 38.9596005, "type": "electric_bike", "bike_id": "39d62bc5408e43b0f7afee6f45e9cb75"}, {"rental_uris": {"android": "https://dc.lft.to/lastmile_qr_scan", "ios": "https://dc.lft.to/lastmile_qr_scan"}, "name": "1e550baa366082355d0b552be7b04a99", "fusion_lat": 0.0, "lon": -77.03841166666666, "is_disabled": 0, "is_reserved": 0, "fusion_lon": 0.0, "lat": 38.911470666666666, "type": "electric_scooter", "bike_id": "1e550baa366082355d0b552be7b04a99"}, {"rental_uris": {"android": "https://dc.lft.to/lastmile_qr_scan", "ios": "https://dc.lft.to/lastmile_qr_scan"}, "name": "d3b456fd3e48f94e77fda00610f3ba24", "fusion_lat": 0.0, "lon": -77.05189466666667, "is_disabled": 0, "is_reserved": 0, "fusion_lon": 0.0, "lat": 38.9254865, "type": "electric_scooter", "bike_id": "d3b456fd3e48f94e77fda00610f3ba24"}, {"rental_uris": {"android": "https://dc.lft.to/lastmile_qr_scan", "ios": "https://dc.lft.to/lastmile_qr_scan"}, "name": "82faeab8a54b7b2703836e216f6691e2", "fusion_lat": 0.0, "lon": -77.0279115, "is_disabled": 0, "is_reserved": 0, "fusion_lon": 0.0, "lat": 38.9614035, "type": "electric_scooter", "bike_id": "82faeab8a54b7b2703836e216f6691e2"}, {"rental_uris": {"android": "https://dc.lft.to/lastmile_qr_scan", "ios": "https://dc.lft.to/lastmile_qr_scan"}, "name": "c2e0d9255b3c969f0d39ecd15b84fd75", "fusion_lat": 0.0, "lon": -77.0321155, "is_disabled": 0, "is_reserved": 0, "fusion_lon": 0.0, "lat": 38.91351866666667, "type": "electric_scooter", "bike_id": "c2e0d9255b3c969f0d39ecd15b84fd75"}, {"rental_uris": {"android": "https://dc.lft.to/lastmile_qr_scan", "ios": "https://dc.lft.to/lastmile_qr_scan"}, "name": "ea0bf88a0ade8de326d5ffa3162bc393", "fusion_lat": 0.0, "lon": -77.01884533333333, "is_disabled": 0, "is_reserved": 0, "fusion_lon": 0.0, "lat": 38.90277733333333, "type": "electric_scooter", "bike_id": "ea0bf88a0ade8de326d5ffa3162bc393"}, {"rental_uris": {"android": "https://dc.lft.to/lastmile_qr_scan", "ios": "https://dc.lft.to/lastmile_qr_scan"}, "name": "7f99854064bb4e8a0d2c1d55a7641fd5", "fusion_lat": 0.0, "lon": -76.98881116666666, "is_disabled": 0, "is_reserved": 0, "fusion_lon": 0.0, "lat": 38.90632566666667, "type": "electric_scooter", "bike_id": "7f99854064bb4e8a0d2c1d55a7641fd5"}, {"rental_uris": {"android": "https://dc.lft.to/lastmile_qr_scan", "ios": "https://dc.lft.to/lastmile_qr_scan"}, "name": "02027241719d68869c12882d0a437821", "fusion_lat": 0.0, "lon": -77.04656166666666, "is_disabled": 0, "is_reserved": 0, "fusion_lon": 0.0, "lat": 38.8933985, "type": "electric_scooter", "bike_id": "02027241719d68869c12882d0a437821"}, {"rental_uris": {"android": "https://dc.lft.to/lastmile_qr_scan", "ios": "https://dc.lft.to/lastmile_qr_scan"}, "name": "74037d79719af9fc6691235c8679af49", "fusion_lat": 0.0, "lon": -77.04377433333333, "is_disabled": 0, "is_reserved": 0, "fusion_lon": 0.0, "lat": 38.92572916666667, "type": "electric_scooter", "bike_id": "74037d79719af9fc6691235c8679af49"}, {"rental_uris": {"android": "https://dc.lft.to/lastmile_qr_scan", "ios": "https://dc.lft.to/lastmile_qr_scan"}, "name": "a8fa9fec4180e5f9491a210aae2b08d7", "fusion_lat": 0.0, "lon": -76.973835, "is_disabled": 0, "is_reserved": 0, "fusion_lon": 0.0, "lat": 38.883725166666665, "type": "electric_scooter", "bike_id": "a8fa9fec4180e5f9491a210aae2b08d7"}, {"rental_uris": {"android": "https://dc.lft.to/lastmile_qr_scan", "ios": "https://dc.lft.to/lastmile_qr_scan"}, "name": "181a0785351b7be46dc6d3cd9df18e94", "fusion_lat": 0.0, "lon": -77.01769883333333, "is_disabled": 0, "is_reserved": 0, "fusion_lon": 0.0, "lat": 38.92111283333333, "type": "electric_scooter", "bike_id": "181a0785351b7be46dc6d3cd9df18e94"}, {"rental_uris": {"android": "https://dc.lft.to/lastmile_qr_scan", "ios": "https://dc.lft.to/lastmile_qr_scan"}, "name": "921dc79ec33862cafd6deafe8dfc72ab", "fusion_lat": 0.0, "lon": -77.05658183333334, "is_disabled": 0, "is_reserved": 0, "fusion_lon": 0.0, "lat": 38.96545483333333, "type": "electric_scooter", "bike_id": "921dc79ec33862cafd6deafe8dfc72ab"}, {"rental_uris": {"android": "https://dc.lft.to/lastmile_qr_scan", "ios": "https://dc.lft.to/lastmile_qr_scan"}, "name": "1dee91f6b6c5b83fc394200b2b38eac2", "fusion_lat": 0.0, "lon": -77.00320233333333, "is_disabled": 0, "is_reserved": 0, "fusion_lon": 0.0, "lat": 38.84034533333333, "type": "electric_scooter", "bike_id": "1dee91f6b6c5b83fc394200b2b38eac2"}, {"rental_uris": {"android": "https://dc.lft.to/lastmile_qr_scan", "ios": "https://dc.lft.to/lastmile_qr_scan"}, "name": "a94082ba5e3b609ce0390427cc2d2288", "fusion_lat": 0.0, "lon": -77.034721, "is_disabled": 0, "is_reserved": 0, "fusion_lon": 0.0, "lat": 38.9083685, "type": "electric_scooter", "bike_id": "a94082ba5e3b609ce0390427cc2d2288"}, {"rental_uris": {"android": "https://dc.lft.to/lastmile_qr_scan", "ios": "https://dc.lft.to/lastmile_qr_scan"}, "name": "bd2dae47c207cc3d30e58ed97c9254ab", "fusion_lat": 0.0, "lon": -76.94722916666667, "is_disabled": 0, "is_reserved": 0, "fusion_lon": 0.0, "lat": 38.897382, "type": "electric_scooter", "bike_id": "bd2dae47c207cc3d30e58ed97c9254ab"}, {"rental_uris": {"android": "https://dc.lft.to/lastmile_qr_scan", "ios": "https://dc.lft.to/lastmile_qr_scan"}, "name": "6ae8630e7c9b82c557b5dfb8a97f2a3c", "fusion_lat": 0.0, "lon": -77.02452133333334, "is_disabled": 0, "is_reserved": 0, "fusion_lon": 0.0, "lat": 38.92381116666667, "type": "electric_scooter", "bike_id": "6ae8630e7c9b82c557b5dfb8a97f2a3c"}, {"rental_uris": {"android": "https://dc.lft.to/lastmile_qr_scan", "ios": "https://dc.lft.to/lastmile_qr_scan"}, "name": "24766f82b2cfb5b1b6ea685897af836a", "fusion_lat": 0.0, "lon": -77.03958116666666, "is_disabled": 0, "is_reserved": 0, "fusion_lon": 0.0, "lat": 38.906099166666664, "type": "electric_scooter", "bike_id": "24766f82b2cfb5b1b6ea685897af836a"}, {"rental_uris": {"android": "https://dc.lft.to/lastmile_qr_scan", "ios": "https://dc.lft.to/lastmile_qr_scan"}, "name": "a883bf745fd25c508051c74d4d3fe2c3", "fusion_lat": 0.0, "lon": -77.00859616666666, "is_disabled": 0, "is_reserved": 0, "fusion_lon": 0.0, "lat": 38.906615333333335, "type": "electric_scooter", "bike_id": "a883bf745fd25c508051c74d4d3fe2c3"}, {"rental_uris": {"android": "https://dc.lft.to/lastmile_qr_scan", "ios": "https://dc.lft.to/lastmile_qr_scan"}, "name": "afc1bfcb4b6d471acfff5a27ab31efd7", "fusion_lat": 0.0, "lon": -76.994819, "is_disabled": 0, "is_reserved": 0, "fusion_lon": 0.0, "lat": 38.862166333333334, "type": "electric_scooter", "bike_id": "afc1bfcb4b6d471acfff5a27ab31efd7"}, {"rental_uris": {"android": "https://dc.lft.to/lastmile_qr_scan", "ios": "https://dc.lft.to/lastmile_qr_scan"}, "name": "92949ba910f8968e5312ae546f090cd6", "fusion_lat": 0.0, "lon": -77.04667066666667, "is_disabled": 0, "is_reserved": 0, "fusion_lon": 0.0, "lat": 38.9036475, "type": "electric_scooter", "bike_id": "92949ba910f8968e5312ae546f090cd6"}, {"rental_uris": {"android": "https://dc.lft.to/lastmile_qr_scan", "ios": "https://dc.lft.to/lastmile_qr_scan"}, "name": "b4f2b304d6fc11fa01bb950fd4ed05b6", "fusion_lat": 0.0, "lon": -77.02168133333333, "is_disabled": 0, "is_reserved": 0, "fusion_lon": 0.0, "lat": 38.88745483333334, "type": "electric_scooter", "bike_id": "b4f2b304d6fc11fa01bb950fd4ed05b6"}, {"rental_uris": {"android": "https://dc.lft.to/lastmile_qr_scan", "ios": "https://dc.lft.to/lastmile_qr_scan"}, "name": "c4a8e48d63406dc4f6ba27f3af13b6c8", "fusion_lat": 0.0, "lon": -77.0333445, "is_disabled": 0, "is_reserved": 0, "fusion_lon": 0.0, "lat": 38.919169333333336, "type": "electric_scooter", "bike_id": "c4a8e48d63406dc4f6ba27f3af13b6c8"}, {"rental_uris": {"android": "https://dc.lft.to/lastmile_qr_scan", "ios": "https://dc.lft.to/lastmile_qr_scan"}, "name": "6c44ffe7ccb00cc36a97b978d33ed866", "fusion_lat": 0.0, "lon": -77.01959583333333, "is_disabled": 0, "is_reserved": 0, "fusion_lon": 0.0, "lat": 38.9357695, "type": "electric_scooter", "bike_id": "6c44ffe7ccb00cc36a97b978d33ed866"}, {"rental_uris": {"android": "https://dc.lft.to/lastmile_qr_scan", "ios": "https://dc.lft.to/lastmile_qr_scan"}, "name": "35198ced90bc716d5d57e2eaa0433b83", "fusion_lat": 0.0, "lon": -77.04018166666667, "is_disabled": 0, "is_reserved": 0, "fusion_lon": 0.0, "lat": 38.9038845, "type": "electric_scooter", "bike_id": "35198ced90bc716d5d57e2eaa0433b83"}, {"rental_uris": {"android": "https://dc.lft.to/lastmile_qr_scan", "ios": "https://dc.lft.to/lastmile_qr_scan"}, "name": "ed0f78c396f584b77220ec9aa7ac2a49", "fusion_lat": 0.0, "lon": -77.04061216666666, "is_disabled": 0, "is_reserved": 0, "fusion_lon": 0.0, "lat": 38.8988335, "type": "electric_scooter", "bike_id": "ed0f78c396f584b77220ec9aa7ac2a49"}, {"rental_uris": {"android": "https://dc.lft.to/lastmile_qr_scan", "ios": "https://dc.lft.to/lastmile_qr_scan"}, "name": "5c70b2d9bc390e9e68913ed67ec0a156", "fusion_lat": 0.0, "lon": -77.01297083333333, "is_disabled": 0, "is_reserved": 0, "fusion_lon": 0.0, "lat": 38.881383666666665, "type": "electric_bike", "bike_id": "5c70b2d9bc390e9e68913ed67ec0a156"}, {"rental_uris": {"android": "https://dc.lft.to/lastmile_qr_scan", "ios": "https://dc.lft.to/lastmile_qr_scan"}, "name": "9020e29ebf3843e799f553189b6dd95a", "fusion_lat": 0.0, "lon": -77.041262, "is_disabled": 0, "is_reserved": 0, "fusion_lon": 0.0, "lat": 38.9223085, "type": "electric_scooter", "bike_id": "9020e29ebf3843e799f553189b6dd95a"}, {"rental_uris": {"android": "https://dc.lft.to/lastmile_qr_scan", "ios": "https://dc.lft.to/lastmile_qr_scan"}, "name": "170ec176273139b7b88919763f0be78a", "fusion_lat": 0.0, "lon": -77.046494, "is_disabled": 0, "is_reserved": 0, "fusion_lon": 0.0, "lat": 38.90509516666667, "type": "electric_scooter", "bike_id": "170ec176273139b7b88919763f0be78a"}, {"rental_uris": {"android": "https://dc.lft.to/lastmile_qr_scan", "ios": "https://dc.lft.to/lastmile_qr_scan"}, "name": "07c0c3455fdcc910666886ffa32d245f", "fusion_lat": 0.0, "lon": -77.07993716666667, "is_disabled": 0, "is_reserved": 0, "fusion_lon": 0.0, "lat": 38.9237205, "type": "electric_scooter", "bike_id": "07c0c3455fdcc910666886ffa32d245f"}, {"rental_uris": {"android": "https://dc.lft.to/lastmile_qr_scan", "ios": "https://dc.lft.to/lastmile_qr_scan"}, "name": "a6c59b92b316032dfbc0af0802caaff2", "fusion_lat": 0.0, "lon": -76.97331066666666, "is_disabled": 0, "is_reserved": 0, "fusion_lon": 0.0, "lat": 38.85066833333333, "type": "electric_bike", "bike_id": "a6c59b92b316032dfbc0af0802caaff2"}, {"rental_uris": {"android": "https://dc.lft.to/lastmile_qr_scan", "ios": "https://dc.lft.to/lastmile_qr_scan"}, "name": "b52ed6c825cb3d2492537faf8281c9da", "fusion_lat": 0.0, "lon": -77.03226516666666, "is_disabled": 0, "is_reserved": 0, "fusion_lon": 0.0, "lat": 38.88737666666667, "type": "electric_scooter", "bike_id": "b52ed6c825cb3d2492537faf8281c9da"}, {"rental_uris": {"android": "https://dc.lft.to/lastmile_qr_scan", "ios": "https://dc.lft.to/lastmile_qr_scan"}, "name": "fbf3b4cb72562bda4729528cd1dd7821", "fusion_lat": 0.0, "lon": -76.9375465, "is_disabled": 0, "is_reserved": 0, "fusion_lon": 0.0, "lat": 38.89042416666667, "type": "electric_scooter", "bike_id": "fbf3b4cb72562bda4729528cd1dd7821"}, {"rental_uris": {"android": "https://dc.lft.to/lastmile_qr_scan", "ios": "https://dc.lft.to/lastmile_qr_scan"}, "name": "33d5a5908c16409ea539b22adc585bc4", "fusion_lat": 0.0, "lon": -77.016108, "is_disabled": 0, "is_reserved": 0, "fusion_lon": 0.0, "lat": 38.89972316666667, "type": "electric_scooter", "bike_id": "33d5a5908c16409ea539b22adc585bc4"}, {"rental_uris": {"android": "https://dc.lft.to/lastmile_qr_scan", "ios": "https://dc.lft.to/lastmile_qr_scan"}, "name": "c84ae6e0147c829800d5e131d424fe09", "fusion_lat": 0.0, "lon": -77.00940483333333, "is_disabled": 0, "is_reserved": 0, "fusion_lon": 0.0, "lat": 38.896489, "type": "electric_scooter", "bike_id": "c84ae6e0147c829800d5e131d424fe09"}, {"rental_uris": {"android": "https://dc.lft.to/lastmile_qr_scan", "ios": "https://dc.lft.to/lastmile_qr_scan"}, "name": "d7a0b28e832e768c16ea74c30bee41af", "fusion_lat": 0.0, "lon": -77.06568816666666, "is_disabled": 0, "is_reserved": 0, "fusion_lon": 0.0, "lat": 38.905191, "type": "electric_scooter", "bike_id": "d7a0b28e832e768c16ea74c30bee41af"}, {"rental_uris": {"android": "https://dc.lft.to/lastmile_qr_scan", "ios": "https://dc.lft.to/lastmile_qr_scan"}, "name": "067df4dc7dca702f56caea0a38472580", "fusion_lat": 0.0, "lon": -77.00344533333333, "is_disabled": 0, "is_reserved": 0, "fusion_lon": 0.0, "lat": 38.922703166666665, "type": "electric_scooter", "bike_id": "067df4dc7dca702f56caea0a38472580"}, {"rental_uris": {"android": "https://dc.lft.to/lastmile_qr_scan", "ios": "https://dc.lft.to/lastmile_qr_scan"}, "name": "bfb3a3865766d5488f4350d7e535f1e9", "fusion_lat": 0.0, "lon": -77.0584335, "is_disabled": 0, "is_reserved": 0, "fusion_lon": 0.0, "lat": 38.905314833333335, "type": "electric_scooter", "bike_id": "bfb3a3865766d5488f4350d7e535f1e9"}, {"rental_uris": {"android": "https://dc.lft.to/lastmile_qr_scan", "ios": "https://dc.lft.to/lastmile_qr_scan"}, "name": "e5647ea41cc58e8daa5b2f8775950a99", "fusion_lat": 0.0, "lon": -77.04389033333334, "is_disabled": 0, "is_reserved": 0, "fusion_lon": 0.0, "lat": 38.92362883333333, "type": "electric_scooter", "bike_id": "e5647ea41cc58e8daa5b2f8775950a99"}, {"rental_uris": {"android": "https://dc.lft.to/lastmile_qr_scan", "ios": "https://dc.lft.to/lastmile_qr_scan"}, "name": "5043adafa976269749299e640bd545c2", "fusion_lat": 0.0, "lon": -76.90970883333334, "is_disabled": 0, "is_reserved": 0, "fusion_lon": 0.0, "lat": 38.85433616666667, "type": "electric_bike", "bike_id": "5043adafa976269749299e640bd545c2"}, {"rental_uris": {"android": "https://dc.lft.to/lastmile_qr_scan", "ios": "https://dc.lft.to/lastmile_qr_scan"}, "name": "a749ca7854d59c81e72a14498958324a", "fusion_lat": 0.0, "lon": -77.043304, "is_disabled": 0, "is_reserved": 0, "fusion_lon": 0.0, "lat": 38.907277666666666, "type": "electric_scooter", "bike_id": "a749ca7854d59c81e72a14498958324a"}, {"rental_uris": {"android": "https://dc.lft.to/lastmile_qr_scan", "ios": "https://dc.lft.to/lastmile_qr_scan"}, "name": "b43edf41716569f9cd8a883ca3b3916b", "fusion_lat": 0.0, "lon": -77.03468333333333, "is_disabled": 0, "is_reserved": 0, "fusion_lon": 0.0, "lat": 38.93102733333333, "type": "electric_scooter", "bike_id": "b43edf41716569f9cd8a883ca3b3916b"}, {"rental_uris": {"android": "https://dc.lft.to/lastmile_qr_scan", "ios": "https://dc.lft.to/lastmile_qr_scan"}, "name": "4353a8e4aeb89ad515b4391311484f4d", "fusion_lat": 0.0, "lon": -77.032057, "is_disabled": 0, "is_reserved": 0, "fusion_lon": 0.0, "lat": 38.97651416666667, "type": "electric_bike", "bike_id": "4353a8e4aeb89ad515b4391311484f4d"}, {"rental_uris": {"android": "https://dc.lft.to/lastmile_qr_scan", "ios": "https://dc.lft.to/lastmile_qr_scan"}, "name": "987bf6a8de39d7162f4c6de766fd13a4", "fusion_lat": 0.0, "lon": -77.04171283333334, "is_disabled": 0, "is_reserved": 0, "fusion_lon": 0.0, "lat": 38.913434333333335, "type": "electric_scooter", "bike_id": "987bf6a8de39d7162f4c6de766fd13a4"}, {"rental_uris": {"android": "https://dc.lft.to/lastmile_qr_scan", "ios": "https://dc.lft.to/lastmile_qr_scan"}, "name": "6033ba7a14265f09b2b964a59047308d", "fusion_lat": 0.0, "lon": -76.9886045, "is_disabled": 0, "is_reserved": 0, "fusion_lon": 0.0, "lat": 38.900219166666666, "type": "electric_bike", "bike_id": "6033ba7a14265f09b2b964a59047308d"}, {"rental_uris": {"android": "https://dc.lft.to/lastmile_qr_scan", "ios": "https://dc.lft.to/lastmile_qr_scan"}, "name": "6eac18d950a4292294e795f2b20bee1d", "fusion_lat": 0.0, "lon": -77.028301, "is_disabled": 0, "is_reserved": 0, "fusion_lon": 0.0, "lat": 38.948261333333335, "type": "electric_scooter", "bike_id": "6eac18d950a4292294e795f2b20bee1d"}, {"rental_uris": {"android": "https://dc.lft.to/lastmile_qr_scan", "ios": "https://dc.lft.to/lastmile_qr_scan"}, "name": "b79c251ab647473f934981d153da787f", "fusion_lat": 0.0, "lon": -77.03736316666667, "is_disabled": 0, "is_reserved": 0, "fusion_lon": 0.0, "lat": 38.91119533333333, "type": "electric_scooter", "bike_id": "b79c251ab647473f934981d153da787f"}, {"rental_uris": {"android": "https://dc.lft.to/lastmile_qr_scan", "ios": "https://dc.lft.to/lastmile_qr_scan"}, "name": "54f1a8c8a98722929fb0b907ec1c8fd8", "fusion_lat": 0.0, "lon": -77.032906, "is_disabled": 0, "is_reserved": 0, "fusion_lon": 0.0, "lat": 38.95657466666667, "type": "electric_scooter", "bike_id": "54f1a8c8a98722929fb0b907ec1c8fd8"}, {"rental_uris": {"android": "https://dc.lft.to/lastmile_qr_scan", "ios": "https://dc.lft.to/lastmile_qr_scan"}, "name": "8308646b615aa5f6008256724410d9d0", "fusion_lat": 0.0, "lon": -77.060092, "is_disabled": 0, "is_reserved": 0, "fusion_lon": 0.0, "lat": 38.905197, "type": "electric_scooter", "bike_id": "8308646b615aa5f6008256724410d9d0"}, {"rental_uris": {"android": "https://dc.lft.to/lastmile_qr_scan", "ios": "https://dc.lft.to/lastmile_qr_scan"}, "name": "8a77f00869cd35bc719a3e11399a681c", "fusion_lat": 0.0, "lon": -77.2340985, "is_disabled": 0, "is_reserved": 0, "fusion_lon": 0.0, "lat": 38.87579783333334, "type": "electric_bike", "bike_id": "8a77f00869cd35bc719a3e11399a681c"}, {"rental_uris": {"android": "https://dc.lft.to/lastmile_qr_scan", "ios": "https://dc.lft.to/lastmile_qr_scan"}, "name": "bbf99e91b3dfd39f3979b1861cee0495", "fusion_lat": 0.0, "lon": -77.059227, "is_disabled": 0, "is_reserved": 0, "fusion_lon": 0.0, "lat": 38.936549166666666, "type": "electric_scooter", "bike_id": "bbf99e91b3dfd39f3979b1861cee0495"}, {"rental_uris": {"android": "https://dc.lft.to/lastmile_qr_scan", "ios": "https://dc.lft.to/lastmile_qr_scan"}, "name": "c1b2012598670f1aed78d2af57e0dca5", "fusion_lat": 0.0, "lon": -77.06298966666667, "is_disabled": 0, "is_reserved": 0, "fusion_lon": 0.0, "lat": 38.905913, "type": "electric_scooter", "bike_id": "c1b2012598670f1aed78d2af57e0dca5"}, {"rental_uris": {"android": "https://dc.lft.to/lastmile_qr_scan", "ios": "https://dc.lft.to/lastmile_qr_scan"}, "name": "ec1352cdb0c4b62bf3a4a3d983cf4aa8", "fusion_lat": 0.0, "lon": -77.04300066666667, "is_disabled": 0, "is_reserved": 0, "fusion_lon": 0.0, "lat": 38.926538, "type": "electric_scooter", "bike_id": "ec1352cdb0c4b62bf3a4a3d983cf4aa8"}, {"rental_uris": {"android": "https://dc.lft.to/lastmile_qr_scan", "ios": "https://dc.lft.to/lastmile_qr_scan"}, "name": "8ed0365fc4571797c1995eacb880294e", "fusion_lat": 0.0, "lon": -76.93835533333333, "is_disabled": 0, "is_reserved": 0, "fusion_lon": 0.0, "lat": 38.890104666666666, "type": "electric_scooter", "bike_id": "8ed0365fc4571797c1995eacb880294e"}, {"rental_uris": {"android": "https://dc.lft.to/lastmile_qr_scan", "ios": "https://dc.lft.to/lastmile_qr_scan"}, "name": "ba3e8f85e58ba8a01713bc675f24f3df", "fusion_lat": 0.0, "lon": -77.046585, "is_disabled": 0, "is_reserved": 0, "fusion_lon": 0.0, "lat": 38.9033355, "type": "electric_scooter", "bike_id": "ba3e8f85e58ba8a01713bc675f24f3df"}, {"rental_uris": {"android": "https://dc.lft.to/lastmile_qr_scan", "ios": "https://dc.lft.to/lastmile_qr_scan"}, "name": "80e6a5ecfbd2622b94667d21a606c50f", "fusion_lat": 0.0, "lon": -77.0298035, "is_disabled": 0, "is_reserved": 0, "fusion_lon": 0.0, "lat": 38.89532083333334, "type": "electric_scooter", "bike_id": "80e6a5ecfbd2622b94667d21a606c50f"}, {"rental_uris": {"android": "https://dc.lft.to/lastmile_qr_scan", "ios": "https://dc.lft.to/lastmile_qr_scan"}, "name": "39c3e63a8f4f50790c210cee3a93dcee", "fusion_lat": 0.0, "lon": -77.04816133333334, "is_disabled": 0, "is_reserved": 0, "fusion_lon": 0.0, "lat": 38.904606333333334, "type": "electric_scooter", "bike_id": "39c3e63a8f4f50790c210cee3a93dcee"}, {"rental_uris": {"android": "https://dc.lft.to/lastmile_qr_scan", "ios": "https://dc.lft.to/lastmile_qr_scan"}, "name": "401d18c58710303f05a6dab1fe7159b2", "fusion_lat": 0.0, "lon": -77.03686283333333, "is_disabled": 0, "is_reserved": 0, "fusion_lon": 0.0, "lat": 38.91677383333333, "type": "electric_scooter", "bike_id": "401d18c58710303f05a6dab1fe7159b2"}, {"rental_uris": {"android": "https://dc.lft.to/lastmile_qr_scan", "ios": "https://dc.lft.to/lastmile_qr_scan"}, "name": "e7d32dfa4a4477000def34c2d34db1ff", "fusion_lat": 0.0, "lon": -77.125079, "is_disabled": 0, "is_reserved": 0, "fusion_lon": 0.0, "lat": 39.0242615, "type": "electric_bike", "bike_id": "e7d32dfa4a4477000def34c2d34db1ff"}, {"rental_uris": {"android": "https://dc.lft.to/lastmile_qr_scan", "ios": "https://dc.lft.to/lastmile_qr_scan"}, "name": "013244cb6dc12cb26a5b87cbfc7b0675", "fusion_lat": 0.0, "lon": -77.03515366666667, "is_disabled": 0, "is_reserved": 0, "fusion_lon": 0.0, "lat": 38.921626833333335, "type": "electric_scooter", "bike_id": "013244cb6dc12cb26a5b87cbfc7b0675"}, {"rental_uris": {"android": "https://dc.lft.to/lastmile_qr_scan", "ios": "https://dc.lft.to/lastmile_qr_scan"}, "name": "a7117a653b39c407d6e4c66e9fc3e4b1", "fusion_lat": 0.0, "lon": -76.9835935, "is_disabled": 0, "is_reserved": 0, "fusion_lon": 0.0, "lat": 38.86476916666667, "type": "electric_scooter", "bike_id": "a7117a653b39c407d6e4c66e9fc3e4b1"}, {"rental_uris": {"android": "https://dc.lft.to/lastmile_qr_scan", "ios": "https://dc.lft.to/lastmile_qr_scan"}, "name": "841e0bbea156b7856d7843b95ef6b2b5", "fusion_lat": 0.0, "lon": -77.0404865, "is_disabled": 0, "is_reserved": 0, "fusion_lon": 0.0, "lat": 38.9242705, "type": "electric_scooter", "bike_id": "841e0bbea156b7856d7843b95ef6b2b5"}, {"rental_uris": {"android": "https://dc.lft.to/lastmile_qr_scan", "ios": "https://dc.lft.to/lastmile_qr_scan"}, "name": "2eae0330a020ebdfe41eacbd02dab81d", "fusion_lat": 0.0, "lon": -77.03333966666666, "is_disabled": 0, "is_reserved": 0, "fusion_lon": 0.0, "lat": 38.898247166666664, "type": "electric_scooter", "bike_id": "2eae0330a020ebdfe41eacbd02dab81d"}, {"rental_uris": {"android": "https://dc.lft.to/lastmile_qr_scan", "ios": "https://dc.lft.to/lastmile_qr_scan"}, "name": "130e50e46bf742211136358dee810c44", "fusion_lat": 0.0, "lon": -77.04504016666667, "is_disabled": 0, "is_reserved": 0, "fusion_lon": 0.0, "lat": 38.914269166666664, "type": "electric_scooter", "bike_id": "130e50e46bf742211136358dee810c44"}, {"rental_uris": {"android": "https://dc.lft.to/lastmile_qr_scan", "ios": "https://dc.lft.to/lastmile_qr_scan"}, "name": "dc521e8af4533a9037969d06b846052a", "fusion_lat": 0.0, "lon": -77.05805516666666, "is_disabled": 0, "is_reserved": 0, "fusion_lon": 0.0, "lat": 38.90378716666667, "type": "electric_scooter", "bike_id": "dc521e8af4533a9037969d06b846052a"}, {"rental_uris": {"android": "https://dc.lft.to/lastmile_qr_scan", "ios": "https://dc.lft.to/lastmile_qr_scan"}, "name": "71ca97bc0cdd1b6585203610334ba962", "fusion_lat": 0.0, "lon": -77.01533616666667, "is_disabled": 0, "is_reserved": 0, "fusion_lon": 0.0, "lat": 38.887412833333336, "type": "electric_scooter", "bike_id": "71ca97bc0cdd1b6585203610334ba962"}, {"rental_uris": {"android": "https://dc.lft.to/lastmile_qr_scan", "ios": "https://dc.lft.to/lastmile_qr_scan"}, "name": "46205d439f1aaf7468f78fbd3ea806a9", "fusion_lat": 0.0, "lon": -77.00367283333334, "is_disabled": 0, "is_reserved": 0, "fusion_lon": 0.0, "lat": 38.8775225, "type": "electric_scooter", "bike_id": "46205d439f1aaf7468f78fbd3ea806a9"}, {"rental_uris": {"android": "https://dc.lft.to/lastmile_qr_scan", "ios": "https://dc.lft.to/lastmile_qr_scan"}, "name": "10e2efaf2546103a1f3e20a487065dab", "fusion_lat": 0.0, "lon": -77.01062133333333, "is_disabled": 0, "is_reserved": 0, "fusion_lon": 0.0, "lat": 38.900419, "type": "electric_scooter", "bike_id": "10e2efaf2546103a1f3e20a487065dab"}, {"rental_uris": {"android": "https://dc.lft.to/lastmile_qr_scan", "ios": "https://dc.lft.to/lastmile_qr_scan"}, "name": "d5af0a630f8c8675e6bd773f7e9f32f8", "fusion_lat": 0.0, "lon": -77.015704, "is_disabled": 0, "is_reserved": 0, "fusion_lon": 0.0, "lat": 38.891452, "type": "electric_scooter", "bike_id": "d5af0a630f8c8675e6bd773f7e9f32f8"}, {"rental_uris": {"android": "https://dc.lft.to/lastmile_qr_scan", "ios": "https://dc.lft.to/lastmile_qr_scan"}, "name": "3556f4d8e9f99c78d7b0a7c20240c381", "fusion_lat": 0.0, "lon": -77.00567083333334, "is_disabled": 0, "is_reserved": 0, "fusion_lon": 0.0, "lat": 38.8850625, "type": "electric_scooter", "bike_id": "3556f4d8e9f99c78d7b0a7c20240c381"}, {"rental_uris": {"android": "https://dc.lft.to/lastmile_qr_scan", "ios": "https://dc.lft.to/lastmile_qr_scan"}, "name": "e8152d8a6cd6472f62c8a631c676d40c", "fusion_lat": 0.0, "lon": -77.13231, "is_disabled": 0, "is_reserved": 0, "fusion_lon": 0.0, "lat": 38.86975233333333, "type": "electric_bike", "bike_id": "e8152d8a6cd6472f62c8a631c676d40c"}, {"rental_uris": {"android": "https://dc.lft.to/lastmile_qr_scan", "ios": "https://dc.lft.to/lastmile_qr_scan"}, "name": "bc6ba9357e4a5a603df3850b05262b5e", "fusion_lat": 0.0, "lon": -77.02537483333333, "is_disabled": 0, "is_reserved": 0, "fusion_lon": 0.0, "lat": 38.9009455, "type": "electric_scooter", "bike_id": "bc6ba9357e4a5a603df3850b05262b5e"}, {"rental_uris": {"android": "https://dc.lft.to/lastmile_qr_scan", "ios": "https://dc.lft.to/lastmile_qr_scan"}, "name": "30ffd287ec8898dfb518837a93ed87e0", "fusion_lat": 0.0, "lon": -77.007528, "is_disabled": 0, "is_reserved": 0, "fusion_lon": 0.0, "lat": 38.876566833333335, "type": "electric_scooter", "bike_id": "30ffd287ec8898dfb518837a93ed87e0"}, {"rental_uris": {"android": "https://dc.lft.to/lastmile_qr_scan", "ios": "https://dc.lft.to/lastmile_qr_scan"}, "name": "555fde27777531716108c2f3048551de", "fusion_lat": 0.0, "lon": -77.07168266666666, "is_disabled": 0, "is_reserved": 0, "fusion_lon": 0.0, "lat": 38.90777516666667, "type": "electric_scooter", "bike_id": "555fde27777531716108c2f3048551de"}, {"rental_uris": {"android": "https://dc.lft.to/lastmile_qr_scan", "ios": "https://dc.lft.to/lastmile_qr_scan"}, "name": "4b308230293292793969d70584dd58f6", "fusion_lat": 0.0, "lon": -77.021711, "is_disabled": 0, "is_reserved": 0, "fusion_lon": 0.0, "lat": 38.942941833333336, "type": "electric_scooter", "bike_id": "4b308230293292793969d70584dd58f6"}, {"rental_uris": {"android": "https://dc.lft.to/lastmile_qr_scan", "ios": "https://dc.lft.to/lastmile_qr_scan"}, "name": "8c35afc01d03d421be4aa9d5387feeab", "fusion_lat": 0.0, "lon": -76.99177516666667, "is_disabled": 0, "is_reserved": 0, "fusion_lon": 0.0, "lat": 38.889748833333336, "type": "electric_bike", "bike_id": "8c35afc01d03d421be4aa9d5387feeab"}, {"rental_uris": {"android": "https://dc.lft.to/lastmile_qr_scan", "ios": "https://dc.lft.to/lastmile_qr_scan"}, "name": "fa1f3f1755ce4bcd5e872ddcc980d172", "fusion_lat": 0.0, "lon": -77.06275616666667, "is_disabled": 0, "is_reserved": 0, "fusion_lon": 0.0, "lat": 38.90494966666667, "type": "electric_scooter", "bike_id": "fa1f3f1755ce4bcd5e872ddcc980d172"}, {"rental_uris": {"android": "https://dc.lft.to/lastmile_qr_scan", "ios": "https://dc.lft.to/lastmile_qr_scan"}, "name": "5008dc313af9e29e03522d6d10a2536a", "fusion_lat": 0.0, "lon": -77.024222, "is_disabled": 0, "is_reserved": 0, "fusion_lon": 0.0, "lat": 38.91824583333333, "type": "electric_scooter", "bike_id": "5008dc313af9e29e03522d6d10a2536a"}, {"rental_uris": {"android": "https://dc.lft.to/lastmile_qr_scan", "ios": "https://dc.lft.to/lastmile_qr_scan"}, "name": "7413d6237b68da8a3969f7b6300f33d7", "fusion_lat": 0.0, "lon": -77.01526783333334, "is_disabled": 0, "is_reserved": 0, "fusion_lon": 0.0, "lat": 38.88492, "type": "electric_scooter", "bike_id": "7413d6237b68da8a3969f7b6300f33d7"}, {"rental_uris": {"android": "https://dc.lft.to/lastmile_qr_scan", "ios": "https://dc.lft.to/lastmile_qr_scan"}, "name": "a305364938ffb3feb8132a9705a75e7e", "fusion_lat": 0.0, "lon": -77.027651, "is_disabled": 0, "is_reserved": 0, "fusion_lon": 0.0, "lat": 38.929824333333336, "type": "electric_scooter", "bike_id": "a305364938ffb3feb8132a9705a75e7e"}, {"rental_uris": {"android": "https://dc.lft.to/lastmile_qr_scan", "ios": "https://dc.lft.to/lastmile_qr_scan"}, "name": "58356c89cf6435aedafcd3ca5d233000", "fusion_lat": 0.0, "lon": -77.024122, "is_disabled": 0, "is_reserved": 0, "fusion_lon": 0.0, "lat": 38.89230366666666, "type": "electric_scooter", "bike_id": "58356c89cf6435aedafcd3ca5d233000"}, {"rental_uris": {"android": "https://dc.lft.to/lastmile_qr_scan", "ios": "https://dc.lft.to/lastmile_qr_scan"}, "name": "9c4ff834f47535f7d92a3d31b525fdc8", "fusion_lat": 0.0, "lon": -76.98776566666666, "is_disabled": 0, "is_reserved": 0, "fusion_lon": 0.0, "lat": 38.912026833333336, "type": "electric_scooter", "bike_id": "9c4ff834f47535f7d92a3d31b525fdc8"}, {"rental_uris": {"android": "https://dc.lft.to/lastmile_qr_scan", "ios": "https://dc.lft.to/lastmile_qr_scan"}, "name": "b88f67d350f35b4d20e5cd6b9f2c5a9b", "fusion_lat": 0.0, "lon": -77.0075675, "is_disabled": 0, "is_reserved": 0, "fusion_lon": 0.0, "lat": 38.9005725, "type": "electric_scooter", "bike_id": "b88f67d350f35b4d20e5cd6b9f2c5a9b"}, {"rental_uris": {"android": "https://dc.lft.to/lastmile_qr_scan", "ios": "https://dc.lft.to/lastmile_qr_scan"}, "name": "f1938823913a3bd3e02060bccdbf7e16", "fusion_lat": 0.0, "lon": -77.01590216666666, "is_disabled": 0, "is_reserved": 0, "fusion_lon": 0.0, "lat": 38.89729333333333, "type": "electric_scooter", "bike_id": "f1938823913a3bd3e02060bccdbf7e16"}, {"rental_uris": {"android": "https://dc.lft.to/lastmile_qr_scan", "ios": "https://dc.lft.to/lastmile_qr_scan"}, "name": "af1ad37bb97c3ee836aa640fdb4d3b39", "fusion_lat": 0.0, "lon": -76.941183, "is_disabled": 0, "is_reserved": 0, "fusion_lon": 0.0, "lat": 38.907964166666666, "type": "electric_scooter", "bike_id": "af1ad37bb97c3ee836aa640fdb4d3b39"}, {"rental_uris": {"android": "https://dc.lft.to/lastmile_qr_scan", "ios": "https://dc.lft.to/lastmile_qr_scan"}, "name": "6d0145148085e9c0239da78978b594d7", "fusion_lat": 0.0, "lon": -77.00482133333334, "is_disabled": 0, "is_reserved": 0, "fusion_lon": 0.0, "lat": 38.9259645, "type": "electric_scooter", "bike_id": "6d0145148085e9c0239da78978b594d7"}, {"rental_uris": {"android": "https://dc.lft.to/lastmile_qr_scan", "ios": "https://dc.lft.to/lastmile_qr_scan"}, "name": "481fa02c739d84833521d35a58991d50", "fusion_lat": 0.0, "lon": -76.9315945, "is_disabled": 0, "is_reserved": 0, "fusion_lon": 0.0, "lat": 38.898786333333334, "type": "electric_scooter", "bike_id": "481fa02c739d84833521d35a58991d50"}, {"rental_uris": {"android": "https://dc.lft.to/lastmile_qr_scan", "ios": "https://dc.lft.to/lastmile_qr_scan"}, "name": "8a6be842d607e381238f9dad946d70b7", "fusion_lat": 0.0, "lon": -77.024285, "is_disabled": 0, "is_reserved": 0, "fusion_lon": 0.0, "lat": 38.90564666666667, "type": "electric_scooter", "bike_id": "8a6be842d607e381238f9dad946d70b7"}, {"rental_uris": {"android": "https://dc.lft.to/lastmile_qr_scan", "ios": "https://dc.lft.to/lastmile_qr_scan"}, "name": "90e3a47e747547c5a4cf0d74ceecc7ba", "fusion_lat": 0.0, "lon": -77.04443116666667, "is_disabled": 0, "is_reserved": 0, "fusion_lon": 0.0, "lat": 38.91121716666667, "type": "electric_scooter", "bike_id": "90e3a47e747547c5a4cf0d74ceecc7ba"}, {"rental_uris": {"android": "https://dc.lft.to/lastmile_qr_scan", "ios": "https://dc.lft.to/lastmile_qr_scan"}, "name": "64690eff7aa64083ca3d44fb9c6454d9", "fusion_lat": 0.0, "lon": -77.06165733333333, "is_disabled": 0, "is_reserved": 0, "fusion_lon": 0.0, "lat": 38.942292, "type": "electric_scooter", "bike_id": "64690eff7aa64083ca3d44fb9c6454d9"}, {"rental_uris": {"android": "https://dc.lft.to/lastmile_qr_scan", "ios": "https://dc.lft.to/lastmile_qr_scan"}, "name": "5b9726bad7fcfdd7033e09db393f3d90", "fusion_lat": 0.0, "lon": -76.98675933333334, "is_disabled": 0, "is_reserved": 0, "fusion_lon": 0.0, "lat": 38.8556285, "type": "electric_scooter", "bike_id": "5b9726bad7fcfdd7033e09db393f3d90"}, {"rental_uris": {"android": "https://dc.lft.to/lastmile_qr_scan", "ios": "https://dc.lft.to/lastmile_qr_scan"}, "name": "ea218d8bcf50b796d86af1acf3139f54", "fusion_lat": 0.0, "lon": -77.034825, "is_disabled": 0, "is_reserved": 0, "fusion_lon": 0.0, "lat": 38.902703833333334, "type": "electric_scooter", "bike_id": "ea218d8bcf50b796d86af1acf3139f54"}, {"rental_uris": {"android": "https://dc.lft.to/lastmile_qr_scan", "ios": "https://dc.lft.to/lastmile_qr_scan"}, "name": "9970a82900e37c83d45c007b07c5840c", "fusion_lat": 0.0, "lon": -77.02960083333333, "is_disabled": 0, "is_reserved": 0, "fusion_lon": 0.0, "lat": 38.8930855, "type": "electric_scooter", "bike_id": "9970a82900e37c83d45c007b07c5840c"}, {"rental_uris": {"android": "https://dc.lft.to/lastmile_qr_scan", "ios": "https://dc.lft.to/lastmile_qr_scan"}, "name": "c83eaa503276ff1b7ee7c98b2c1bfcf2", "fusion_lat": 0.0, "lon": -76.93413166666667, "is_disabled": 0, "is_reserved": 0, "fusion_lon": 0.0, "lat": 38.946251, "type": "electric_bike", "bike_id": "c83eaa503276ff1b7ee7c98b2c1bfcf2"}, {"rental_uris": {"android": "https://dc.lft.to/lastmile_qr_scan", "ios": "https://dc.lft.to/lastmile_qr_scan"}, "name": "4eccf0bd5fc44d6510474d25c5c80877", "fusion_lat": 0.0, "lon": -77.01258383333334, "is_disabled": 0, "is_reserved": 0, "fusion_lon": 0.0, "lat": 38.876330333333335, "type": "electric_scooter", "bike_id": "4eccf0bd5fc44d6510474d25c5c80877"}, {"rental_uris": {"android": "https://dc.lft.to/lastmile_qr_scan", "ios": "https://dc.lft.to/lastmile_qr_scan"}, "name": "e06e37e50d7bfe8701cf179e27e8f2f9", "fusion_lat": 0.0, "lon": -77.03283433333333, "is_disabled": 0, "is_reserved": 0, "fusion_lon": 0.0, "lat": 38.93095133333333, "type": "electric_scooter", "bike_id": "e06e37e50d7bfe8701cf179e27e8f2f9"}, {"rental_uris": {"android": "https://dc.lft.to/lastmile_qr_scan", "ios": "https://dc.lft.to/lastmile_qr_scan"}, "name": "1121c8c60a5ddb12f84adc95a98e5157", "fusion_lat": 0.0, "lon": -77.00580233333334, "is_disabled": 0, "is_reserved": 0, "fusion_lon": 0.0, "lat": 38.885306166666666, "type": "electric_scooter", "bike_id": "1121c8c60a5ddb12f84adc95a98e5157"}, {"rental_uris": {"android": "https://dc.lft.to/lastmile_qr_scan", "ios": "https://dc.lft.to/lastmile_qr_scan"}, "name": "559eaccd632c7ec51cc63ee44c446481", "fusion_lat": 0.0, "lon": -76.92405366666667, "is_disabled": 0, "is_reserved": 0, "fusion_lon": 0.0, "lat": 38.88990916666667, "type": "electric_scooter", "bike_id": "559eaccd632c7ec51cc63ee44c446481"}, {"rental_uris": {"android": "https://dc.lft.to/lastmile_qr_scan", "ios": "https://dc.lft.to/lastmile_qr_scan"}, "name": "271d46833973ae325772673562f68907", "fusion_lat": 0.0, "lon": -77.00578, "is_disabled": 0, "is_reserved": 0, "fusion_lon": 0.0, "lat": 38.885327833333335, "type": "electric_scooter", "bike_id": "271d46833973ae325772673562f68907"}, {"rental_uris": {"android": "https://dc.lft.to/lastmile_qr_scan", "ios": "https://dc.lft.to/lastmile_qr_scan"}, "name": "345f5792b46840ed078be38f029f7013", "fusion_lat": 0.0, "lon": -77.02571233333333, "is_disabled": 0, "is_reserved": 0, "fusion_lon": 0.0, "lat": 38.894892666666664, "type": "electric_scooter", "bike_id": "345f5792b46840ed078be38f029f7013"}, {"rental_uris": {"android": "https://dc.lft.to/lastmile_qr_scan", "ios": "https://dc.lft.to/lastmile_qr_scan"}, "name": "d834a5a764eea2c52f8ec5016d7fd39c", "fusion_lat": 0.0, "lon": -77.04486583333333, "is_disabled": 0, "is_reserved": 0, "fusion_lon": 0.0, "lat": 38.91421533333333, "type": "electric_scooter", "bike_id": "d834a5a764eea2c52f8ec5016d7fd39c"}, {"rental_uris": {"android": "https://dc.lft.to/lastmile_qr_scan", "ios": "https://dc.lft.to/lastmile_qr_scan"}, "name": "cbbad308137d0f8de00e13a38be915b1", "fusion_lat": 0.0, "lon": -77.02569133333333, "is_disabled": 0, "is_reserved": 0, "fusion_lon": 0.0, "lat": 38.8996415, "type": "electric_scooter", "bike_id": "cbbad308137d0f8de00e13a38be915b1"}, {"rental_uris": {"android": "https://dc.lft.to/lastmile_qr_scan", "ios": "https://dc.lft.to/lastmile_qr_scan"}, "name": "67d245836d577a2b7ae1105a2cc11bc4", "fusion_lat": 0.0, "lon": -76.96562933333334, "is_disabled": 0, "is_reserved": 0, "fusion_lon": 0.0, "lat": 38.9185515, "type": "electric_scooter", "bike_id": "67d245836d577a2b7ae1105a2cc11bc4"}, {"rental_uris": {"android": "https://dc.lft.to/lastmile_qr_scan", "ios": "https://dc.lft.to/lastmile_qr_scan"}, "name": "f3e8981bd7efb77bad84257c3624e544", "fusion_lat": 0.0, "lon": -77.04656233333333, "is_disabled": 0, "is_reserved": 0, "fusion_lon": 0.0, "lat": 38.90416233333333, "type": "electric_scooter", "bike_id": "f3e8981bd7efb77bad84257c3624e544"}, {"rental_uris": {"android": "https://dc.lft.to/lastmile_qr_scan", "ios": "https://dc.lft.to/lastmile_qr_scan"}, "name": "42812ce8786cdb31ddb051dfa0bcb89e", "fusion_lat": 0.0, "lon": -77.04094733333334, "is_disabled": 0, "is_reserved": 0, "fusion_lon": 0.0, "lat": 38.92398716666667, "type": "electric_scooter", "bike_id": "42812ce8786cdb31ddb051dfa0bcb89e"}, {"rental_uris": {"android": "https://dc.lft.to/lastmile_qr_scan", "ios": "https://dc.lft.to/lastmile_qr_scan"},