{"data": {"bikes": [{"fusion_lat": 0.0, "name": "cb64db831b84d273dd1645610c3f2f78", "is_disabled": 0, "rental_uris": {"android": "https://dc.lft.to/lastmile_qr_scan", "ios": "https://dc.lft.to/lastmile_qr_scan"}, "fusion_lon": 0.0, "lat": 38.91860666666667, "bike_id": "cb64db831b84d273dd1645610c3f2f78", "type": "electric_scooter", "is_reserved": 0, "lon": -77.04588166666667}, {"fusion_lat": 0.0, "name": "6b9dfa69276e8f3d2fdbc997b56c5556", "is_disabled": 0, "rental_uris": {"android": "https://dc.lft.to/lastmile_qr_scan", "ios": "https://dc.lft.to/lastmile_qr_scan"}, "fusion_lon": 0.0, "lat": 38.949764, "bike_id": "6b9dfa69276e8f3d2fdbc997b56c5556", "type": "electric_scooter", "is_reserved": 0, "lon": -77.0270045}, {"fusion_lat": 0.0, "name": "66690b7a9f2b48712a7284fc50a44543", "is_disabled": 0, "rental_uris": {"android": "https://dc.lft.to/lastmile_qr_scan", "ios": "https://dc.lft.to/lastmile_qr_scan"}, "fusion_lon": 0.0, "lat": 38.90176816666666, "bike_id": "66690b7a9f2b48712a7284fc50a44543", "type": "electric_scooter", "is_reserved": 0, "lon": -77.024925}, {"fusion_lat": 0.0, "name": "e5dd0d7ecb0f833a4bc14e66d7a3b56d", "is_disabled": 0, "rental_uris": {"android": "https://dc.lft.to/lastmile_qr_scan", "ios": "https://dc.lft.to/lastmile_qr_scan"}, "fusion_lon": 0.0, "lat": 38.920695333333335, "bike_id": "e5dd0d7ecb0f833a4bc14e66d7a3b56d", "type": "electric_scooter", "is_reserved": 0, "lon": -77.02368666666666}, {"fusion_lat": 0.0, "name": "90a7be436c8ee411c719ec5d2a5d24c5", "is_disabled": 0, "rental_uris": {"android": "https://dc.lft.to/lastmile_qr_scan", "ios": "https://dc.lft.to/lastmile_qr_scan"}, "fusion_lon": 0.0, "lat": 38.898286666666664, "bike_id": "90a7be436c8ee411c719ec5d2a5d24c5", "type": "electric_scooter", "is_reserved": 0, "lon": -77.02740683333333}, {"fusion_lat": 0.0, "name": "e74a7c3d06dfaea5d88e44e1c4b9d73a", "is_disabled": 0, "rental_uris": {"android": "https://dc.lft.to/lastmile_qr_scan", "ios": "https://dc.lft.to/lastmile_qr_scan"}, "fusion_lon": 0.0, "lat": 38.942295, "bike_id": "e74a7c3d06dfaea5d88e44e1c4b9d73a", "type": "electric_scooter", "is_reserved": 0, "lon": -77.01418933333333}, {"fusion_lat": 0.0, "name": "63e7e75df948d596be4c98bcc0458bfb", "is_disabled": 0, "rental_uris": {"android": "https://dc.lft.to/lastmile_qr_scan", "ios": "https://dc.lft.to/lastmile_qr_scan"}, "fusion_lon": 0.0, "lat": 38.911743333333334, "bike_id": "63e7e75df948d596be4c98bcc0458bfb", "type": "electric_scooter", "is_reserved": 0, "lon": -77.068657}, {"fusion_lat": 0.0, "name": "222528a13f88384535a308c36f705a77", "is_disabled": 0, "rental_uris": {"android": "https://dc.lft.to/lastmile_qr_scan", "ios": "https://dc.lft.to/lastmile_qr_scan"}, "fusion_lon": 0.0, "lat": 38.93462183333333, "bike_id": "222528a13f88384535a308c36f705a77", "type": "electric_scooter", "is_reserved": 0, "lon": -77.02245083333334}, {"fusion_lat": 0.0, "name": "bf35d83e929b3b14c9f769b7bb28274a", "is_disabled": 0, "rental_uris": {"android": "https://dc.lft.to/lastmile_qr_scan", "ios": "https://dc.lft.to/lastmile_qr_scan"}, "fusion_lon": 0.0, "lat": 38.86141166666667, "bike_id": "bf35d83e929b3b14c9f769b7bb28274a", "type": "electric_bike", "is_reserved": 0, "lon": -76.97170766666666}, {"fusion_lat": 0.0, "name": "e0c67d3acbb21b2750718e6a9fe82ea1", "is_disabled": 0, "rental_uris": {"android": "https://dc.lft.to/lastmile_qr_scan", "ios": "https://dc.lft.to/lastmile_qr_scan"}, "fusion_lon": 0.0, "lat": 38.90452283333333, "bike_id": "e0c67d3acbb21b2750718e6a9fe82ea1", "type": "electric_scooter", "is_reserved": 0, "lon": -76.98260516666667}, {"fusion_lat": 0.0, "name": "7c636b48b6ced778bfc6e33eda97262b", "is_disabled": 0, "rental_uris": {"android": "https://dc.lft.to/lastmile_qr_scan", "ios": "https://dc.lft.to/lastmile_qr_scan"}, "fusion_lon": 0.0, "lat": 38.89250033333333, "bike_id": "7c636b48b6ced778bfc6e33eda97262b", "type": "electric_scooter", "is_reserved": 0, "lon": -77.03956316666667}, {"fusion_lat": 0.0, "name": "6994afd40460c5a4cd002a3c4a119627", "is_disabled": 0, "rental_uris": {"android": "https://dc.lft.to/lastmile_qr_scan", "ios": "https://dc.lft.to/lastmile_qr_scan"}, "fusion_lon": 0.0, "lat": 38.92696933333333, "bike_id": "6994afd40460c5a4cd002a3c4a119627", "type": "electric_scooter", "is_reserved": 0, "lon": -77.02129366666666}, {"fusion_lat": 0.0, "name": "39fc211215aa92253b3eebedad327cd6", "is_disabled": 0, "rental_uris": {"android": "https://dc.lft.to/lastmile_qr_scan", "ios": "https://dc.lft.to/lastmile_qr_scan"}, "fusion_lon": 0.0, "lat": 38.89310033333334, "bike_id": "39fc211215aa92253b3eebedad327cd6", "type": "electric_scooter", "is_reserved": 0, "lon": -77.05592716666666}, {"fusion_lat": 0.0, "name": "4c51740e68ec2d52d4db9190882fb5f8", "is_disabled": 0, "rental_uris": {"android": "https://dc.lft.to/lastmile_qr_scan", "ios": "https://dc.lft.to/lastmile_qr_scan"}, "fusion_lon": 0.0, "lat": 38.9198425, "bike_id": "4c51740e68ec2d52d4db9190882fb5f8", "type": "electric_scooter", "is_reserved": 0, "lon": -77.03279066666667}, {"fusion_lat": 0.0, "name": "7366415c44ee620af2c5c0a11218f6cc", "is_disabled": 0, "rental_uris": {"android": "https://dc.lft.to/lastmile_qr_scan", "ios": "https://dc.lft.to/lastmile_qr_scan"}, "fusion_lon": 0.0, "lat": 38.90789916666667, "bike_id": "7366415c44ee620af2c5c0a11218f6cc", "type": "electric_scooter", "is_reserved": 0, "lon": -77.03842783333333}, {"fusion_lat": 0.0, "name": "0d77161ce56c7d321f329ef0a5a062a6", "is_disabled": 0, "rental_uris": {"android": "https://dc.lft.to/lastmile_qr_scan", "ios": "https://dc.lft.to/lastmile_qr_scan"}, "fusion_lon": 0.0, "lat": 38.94919816666667, "bike_id": "0d77161ce56c7d321f329ef0a5a062a6", "type": "electric_bike", "is_reserved": 0, "lon": -77.0080405}, {"fusion_lat": 0.0, "name": "3186af90a3ffcc7976b5f6a38a20fb77", "is_disabled": 0, "rental_uris": {"android": "https://dc.lft.to/lastmile_qr_scan", "ios": "https://dc.lft.to/lastmile_qr_scan"}, "fusion_lon": 0.0, "lat": 38.919864833333335, "bike_id": "3186af90a3ffcc7976b5f6a38a20fb77", "type": "electric_scooter", "is_reserved": 0, "lon": -77.03320916666667}, {"fusion_lat": 0.0, "name": "7510f66e6e66180ece9347f8300ef5f4", "is_disabled": 0, "rental_uris": {"android": "https://dc.lft.to/lastmile_qr_scan", "ios": "https://dc.lft.to/lastmile_qr_scan"}, "fusion_lon": 0.0, "lat": 38.8997505, "bike_id": "7510f66e6e66180ece9347f8300ef5f4", "type": "electric_scooter", "is_reserved": 0, "lon": -77.03347316666667}, {"fusion_lat": 0.0, "name": "89e3765fd9f32066fb11439f2e66353f", "is_disabled": 0, "rental_uris": {"android": "https://dc.lft.to/lastmile_qr_scan", "ios": "https://dc.lft.to/lastmile_qr_scan"}, "fusion_lon": 0.0, "lat": 38.95875566666667, "bike_id": "89e3765fd9f32066fb11439f2e66353f", "type": "electric_bike", "is_reserved": 0, "lon": -76.97058283333334}, {"fusion_lat": 0.0, "name": "206d46ed75236c9d2091aa6cfce72e97", "is_disabled": 0, "rental_uris": {"android": "https://dc.lft.to/lastmile_qr_scan", "ios": "https://dc.lft.to/lastmile_qr_scan"}, "fusion_lon": 0.0, "lat": 38.90615433333333, "bike_id": "206d46ed75236c9d2091aa6cfce72e97", "type": "electric_scooter", "is_reserved": 0, "lon": -77.02971733333334}, {"fusion_lat": 0.0, "name": "f90efbca19f800e66beeb7db73604503", "is_disabled": 0, "rental_uris": {"android": "https://dc.lft.to/lastmile_qr_scan", "ios": "https://dc.lft.to/lastmile_qr_scan"}, "fusion_lon": 0.0, "lat": 38.923396, "bike_id": "f90efbca19f800e66beeb7db73604503", "type": "electric_scooter", "is_reserved": 0, "lon": -77.03539216666667}, {"fusion_lat": 0.0, "name": "0a974eb5dabcee53b5967a12367fdb2f", "is_disabled": 0, "rental_uris": {"android": "https://dc.lft.to/lastmile_qr_scan", "ios": "https://dc.lft.to/lastmile_qr_scan"}, "fusion_lon": 0.0, "lat": 38.91497716666667, "bike_id": "0a974eb5dabcee53b5967a12367fdb2f", "type": "electric_bike", "is_reserved": 0, "lon": -77.01775716666667}, {"fusion_lat": 0.0, "name": "744d3d1737f4eb3fad9a6e534c2ba03d", "is_disabled": 0, "rental_uris": {"android": "https://dc.lft.to/lastmile_qr_scan", "ios": "https://dc.lft.to/lastmile_qr_scan"}, "fusion_lon": 0.0, "lat": 38.95633133333333, "bike_id": "744d3d1737f4eb3fad9a6e534c2ba03d", "type": "electric_scooter", "is_reserved": 0, "lon": -77.0330705}, {"fusion_lat": 0.0, "name": "c507804993dfcd3ad8942a4c2b863c88", "is_disabled": 0, "rental_uris": {"android": "https://dc.lft.to/lastmile_qr_scan", "ios": "https://dc.lft.to/lastmile_qr_scan"}, "fusion_lon": 0.0, "lat": 38.9360655, "bike_id": "c507804993dfcd3ad8942a4c2b863c88", "type": "electric_scooter", "is_reserved": 0, "lon": -77.02293616666667}, {"fusion_lat": 0.0, "name": "9262c8c1b7a5d514998d4a3475adaba8", "is_disabled": 0, "rental_uris": {"android": "https://dc.lft.to/lastmile_qr_scan", "ios": "https://dc.lft.to/lastmile_qr_scan"}, "fusion_lon": 0.0, "lat": 38.9207755, "bike_id": "9262c8c1b7a5d514998d4a3475adaba8", "type": "electric_scooter", "is_reserved": 0, "lon": -77.0230345}, {"fusion_lat": 0.0, "name": "47ab92929864007ce20540438f97c22f", "is_disabled": 0, "rental_uris": {"android": "https://dc.lft.to/lastmile_qr_scan", "ios": "https://dc.lft.to/lastmile_qr_scan"}, "fusion_lon": 0.0, "lat": 38.8995685, "bike_id": "47ab92929864007ce20540438f97c22f", "type": "electric_scooter", "is_reserved": 0, "lon": -77.01506}, {"fusion_lat": 0.0, "name": "3b032ba137286dd55c346b4251d631e0", "is_disabled": 0, "rental_uris": {"android": "https://dc.lft.to/lastmile_qr_scan", "ios": "https://dc.lft.to/lastmile_qr_scan"}, "fusion_lon": 0.0, "lat": 38.93865516666666, "bike_id": "3b032ba137286dd55c346b4251d631e0", "type": "electric_scooter", "is_reserved": 0, "lon": -77.024522}, {"fusion_lat": 0.0, "name": "9299e109483c591a7e01a1be3d2e7ddc", "is_disabled": 0, "rental_uris": {"android": "https://dc.lft.to/lastmile_qr_scan", "ios": "https://dc.lft.to/lastmile_qr_scan"}, "fusion_lon": 0.0, "lat": 38.898465333333334, "bike_id": "9299e109483c591a7e01a1be3d2e7ddc", "type": "electric_scooter", "is_reserved": 0, "lon": -77.02022416666667}, {"fusion_lat": 0.0, "name": "c55376f5baacdc3bb95b917f2a64cbbf", "is_disabled": 0, "rental_uris": {"android": "https://dc.lft.to/lastmile_qr_scan", "ios": "https://dc.lft.to/lastmile_qr_scan"}, "fusion_lon": 0.0, "lat": 38.919392, "bike_id": "c55376f5baacdc3bb95b917f2a64cbbf", "type": "electric_scooter", "is_reserved": 0, "lon": -77.04499233333334}, {"fusion_lat": 0.0, "name": "afbb93d115f674acecfc53887d4cba9a", "is_disabled": 0, "rental_uris": {"android": "https://dc.lft.to/lastmile_qr_scan", "ios": "https://dc.lft.to/lastmile_qr_scan"}, "fusion_lon": 0.0, "lat": 38.92869433333333, "bike_id": "afbb93d115f674acecfc53887d4cba9a", "type": "electric_scooter", "is_reserved": 0, "lon": -77.03482316666667}, {"fusion_lat": 0.0, "name": "8cad5e37294830b3ef3552d7c27d2f8b", "is_disabled": 0, "rental_uris": {"android": "https://dc.lft.to/lastmile_qr_scan", "ios": "https://dc.lft.to/lastmile_qr_scan"}, "fusion_lon": 0.0, "lat": 38.906748, "bike_id": "8cad5e37294830b3ef3552d7c27d2f8b", "type": "electric_scooter", "is_reserved": 0, "lon": -77.02709733333333}, {"fusion_lat": 0.0, "name": "826ae045a741c2ae55cafc3693245f76", "is_disabled": 0, "rental_uris": {"android": "https://dc.lft.to/lastmile_qr_scan", "ios": "https://dc.lft.to/lastmile_qr_scan"}, "fusion_lon": 0.0, "lat": 38.87382983333333, "bike_id": "826ae045a741c2ae55cafc3693245f76", "type": "electric_scooter", "is_reserved": 0, "lon": -77.00182633333333}, {"fusion_lat": 0.0, "name": "c071ea19519c7a96bef3d278cc00504d", "is_disabled": 0, "rental_uris": {"android": "https://dc.lft.to/lastmile_qr_scan", "ios": "https://dc.lft.to/lastmile_qr_scan"}, "fusion_lon": 0.0, "lat": 38.90027666666667, "bike_id": "c071ea19519c7a96bef3d278cc00504d", "type": "electric_scooter", "is_reserved": 0, "lon": -77.00377216666666}, {"fusion_lat": 0.0, "name": "319559d5b083ea0066bc4ade3ec4087a", "is_disabled": 0, "rental_uris": {"android": "https://dc.lft.to/lastmile_qr_scan", "ios": "https://dc.lft.to/lastmile_qr_scan"}, "fusion_lon": 0.0, "lat": 38.90941016666667, "bike_id": "319559d5b083ea0066bc4ade3ec4087a", "type": "electric_scooter", "is_reserved": 0, "lon": -77.02182966666666}, {"fusion_lat": 0.0, "name": "600a4e612671c3834fd71ff17db4d533", "is_disabled": 0, "rental_uris": {"android": "https://dc.lft.to/lastmile_qr_scan", "ios": "https://dc.lft.to/lastmile_qr_scan"}, "fusion_lon": 0.0, "lat": 38.9146715, "bike_id": "600a4e612671c3834fd71ff17db4d533", "type": "electric_scooter", "is_reserved": 0, "lon": -77.0390105}, {"fusion_lat": 0.0, "name": "18758e3ad7dcc520cba321531e42d655", "is_disabled": 0, "rental_uris": {"android": "https://dc.lft.to/lastmile_qr_scan", "ios": "https://dc.lft.to/lastmile_qr_scan"}, "fusion_lon": 0.0, "lat": 38.915092, "bike_id": "18758e3ad7dcc520cba321531e42d655", "type": "electric_scooter", "is_reserved": 0, "lon": -77.009172}, {"fusion_lat": 0.0, "name": "b1e38674efdab17d08a41e1e7609e5d1", "is_disabled": 0, "rental_uris": {"android": "https://dc.lft.to/lastmile_qr_scan", "ios": "https://dc.lft.to/lastmile_qr_scan"}, "fusion_lon": 0.0, "lat": 38.9210195, "bike_id": "b1e38674efdab17d08a41e1e7609e5d1", "type": "electric_scooter", "is_reserved": 0, "lon": -77.07475633333334}, {"fusion_lat": 0.0, "name": "a223c5a50feefcee0096dff4f9a54134", "is_disabled": 0, "rental_uris": {"android": "https://dc.lft.to/lastmile_qr_scan", "ios": "https://dc.lft.to/lastmile_qr_scan"}, "fusion_lon": 0.0, "lat": 38.91914666666667, "bike_id": "a223c5a50feefcee0096dff4f9a54134", "type": "electric_scooter", "is_reserved": 0, "lon": -77.03259716666666}, {"fusion_lat": 0.0, "name": "b41ffc897efc9cf988a125e74ecfd6e1", "is_disabled": 0, "rental_uris": {"android": "https://dc.lft.to/lastmile_qr_scan", "ios": "https://dc.lft.to/lastmile_qr_scan"}, "fusion_lon": 0.0, "lat": 38.919322333333334, "bike_id": "b41ffc897efc9cf988a125e74ecfd6e1", "type": "electric_scooter", "is_reserved": 0, "lon": -77.03177866666667}, {"fusion_lat": 0.0, "name": "4c7eaff2869ba580f042a530bee738e5", "is_disabled": 0, "rental_uris": {"android": "https://dc.lft.to/lastmile_qr_scan", "ios": "https://dc.lft.to/lastmile_qr_scan"}, "fusion_lon": 0.0, "lat": 38.888392833333334, "bike_id": "4c7eaff2869ba580f042a530bee738e5", "type": "electric_scooter", "is_reserved": 0, "lon": -77.04849883333333}, {"fusion_lat": 0.0, "name": "ba2b6afdbcdab7a7c9482d3f6a6c6afc", "is_disabled": 0, "rental_uris": {"android": "https://dc.lft.to/lastmile_qr_scan", "ios": "https://dc.lft.to/lastmile_qr_scan"}, "fusion_lon": 0.0, "lat": 38.95282733333333, "bike_id": "ba2b6afdbcdab7a7c9482d3f6a6c6afc", "type": "electric_scooter", "is_reserved": 0, "lon": -77.036527}, {"fusion_lat": 0.0, "name": "98d3470021e4bd909c38b38c5d0a6d63", "is_disabled": 0, "rental_uris": {"android": "https://dc.lft.to/lastmile_qr_scan", "ios": "https://dc.lft.to/lastmile_qr_scan"}, "fusion_lon": 0.0, "lat": 38.894727, "bike_id": "98d3470021e4bd909c38b38c5d0a6d63", "type": "electric_scooter", "is_reserved": 0, "lon": -77.02174216666667}, {"fusion_lat": 0.0, "name": "c190632ff961fc9f0c0ba11bab3dfcf6", "is_disabled": 0, "rental_uris": {"android": "https://dc.lft.to/lastmile_qr_scan", "ios": "https://dc.lft.to/lastmile_qr_scan"}, "fusion_lon": 0.0, "lat": 38.91710883333333, "bike_id": "c190632ff961fc9f0c0ba11bab3dfcf6", "type": "electric_scooter", "is_reserved": 0, "lon": -77.03866083333334}, {"fusion_lat": 0.0, "name": "cdc5a7727624e7e6dcc96ad3bfe2e147", "is_disabled": 0, "rental_uris": {"android": "https://dc.lft.to/lastmile_qr_scan", "ios": "https://dc.lft.to/lastmile_qr_scan"}, "fusion_lon": 0.0, "lat": 38.90953966666667, "bike_id": "cdc5a7727624e7e6dcc96ad3bfe2e147", "type": "electric_scooter", "is_reserved": 0, "lon": -76.98539683333334}, {"fusion_lat": 0.0, "name": "b33c1d3074d2e9a6c4a31c7d29dd0cf5", "is_disabled": 0, "rental_uris": {"android": "https://dc.lft.to/lastmile_qr_scan", "ios": "https://dc.lft.to/lastmile_qr_scan"}, "fusion_lon": 0.0, "lat": 38.90461716666667, "bike_id": "b33c1d3074d2e9a6c4a31c7d29dd0cf5", "type": "electric_scooter", "is_reserved": 0, "lon": -77.02949433333333}, {"fusion_lat": 0.0, "name": "4b2d2429aa3e4c8bf7559f4dfc05a0e0", "is_disabled": 0, "rental_uris": {"android": "https://dc.lft.to/lastmile_qr_scan", "ios": "https://dc.lft.to/lastmile_qr_scan"}, "fusion_lon": 0.0, "lat": 38.81938483333333, "bike_id": "4b2d2429aa3e4c8bf7559f4dfc05a0e0", "type": "electric_bike", "is_reserved": 0, "lon": -77.00201616666666}, {"fusion_lat": 0.0, "name": "f82bcecf21df2557990797825192a256", "is_disabled": 0, "rental_uris": {"android": "https://dc.lft.to/lastmile_qr_scan", "ios": "https://dc.lft.to/lastmile_qr_scan"}, "fusion_lon": 0.0, "lat": 38.907246, "bike_id": "f82bcecf21df2557990797825192a256", "type": "electric_scooter", "is_reserved": 0, "lon": -77.025423}, {"fusion_lat": 0.0, "name": "93202ebb77c562f0b1d456c63b8ee9aa", "is_disabled": 0, "rental_uris": {"android": "https://dc.lft.to/lastmile_qr_scan", "ios": "https://dc.lft.to/lastmile_qr_scan"}, "fusion_lon": 0.0, "lat": 38.93154766666667, "bike_id": "93202ebb77c562f0b1d456c63b8ee9aa", "type": "electric_scooter", "is_reserved": 0, "lon": -77.03971216666666}, {"fusion_lat": 0.0, "name": "8dab4a1df1822c982d5a07945835ae6c", "is_disabled": 0, "rental_uris": {"android": "https://dc.lft.to/lastmile_qr_scan", "ios": "https://dc.lft.to/lastmile_qr_scan"}, "fusion_lon": 0.0, "lat": 38.90544533333333, "bike_id": "8dab4a1df1822c982d5a07945835ae6c", "type": "electric_scooter", "is_reserved": 0, "lon": -77.00586033333333}, {"fusion_lat": 0.0, "name": "8d3b5437dfdaba0a19c486b1d30c9a3e", "is_disabled": 0, "rental_uris": {"android": "https://dc.lft.to/lastmile_qr_scan", "ios": "https://dc.lft.to/lastmile_qr_scan"}, "fusion_lon": 0.0, "lat": 38.892308666666665, "bike_id": "8d3b5437dfdaba0a19c486b1d30c9a3e", "type": "electric_scooter", "is_reserved": 0, "lon": -77.00308183333334}, {"fusion_lat": 0.0, "name": "a3ef68f1dea5130c6f65a2419bbfc587", "is_disabled": 0, "rental_uris": {"android": "https://dc.lft.to/lastmile_qr_scan", "ios": "https://dc.lft.to/lastmile_qr_scan"}, "fusion_lon": 0.0, "lat": 38.841278833333334, "bike_id": "a3ef68f1dea5130c6f65a2419bbfc587", "type": "electric_bike", "is_reserved": 0, "lon": -77.06310066666667}, {"fusion_lat": 0.0, "name": "fcfb730f4405ac7532da34bdccc09e2c", "is_disabled": 0, "rental_uris": {"android": "https://dc.lft.to/lastmile_qr_scan", "ios": "https://dc.lft.to/lastmile_qr_scan"}, "fusion_lon": 0.0, "lat": 38.91793966666667, "bike_id": "fcfb730f4405ac7532da34bdccc09e2c", "type": "electric_scooter", "is_reserved": 0, "lon": -77.00928583333334}, {"fusion_lat": 0.0, "name": "c22fcd16b5afa13305dfbe5e8d5ad3e9", "is_disabled": 0, "rental_uris": {"android": "https://dc.lft.to/lastmile_qr_scan", "ios": "https://dc.lft.to/lastmile_qr_scan"}, "fusion_lon": 0.0, "lat": 38.91300916666667, "bike_id": "c22fcd16b5afa13305dfbe5e8d5ad3e9", "type": "electric_scooter", "is_reserved": 0, "lon": -77.03648566666666}, {"fusion_lat": 0.0, "name": "a434eb51f7658819b151e9d92fecb875", "is_disabled": 0, "rental_uris": {"android": "https://dc.lft.to/lastmile_qr_scan", "ios": "https://dc.lft.to/lastmile_qr_scan"}, "fusion_lon": 0.0, "lat": 38.890684666666665, "bike_id": "a434eb51f7658819b151e9d92fecb875", "type": "electric_scooter", "is_reserved": 0, "lon": -76.944502}, {"fusion_lat": 0.0, "name": "be4ca6a14bacf93ff0742e70beb7b784", "is_disabled": 0, "rental_uris": {"android": "https://dc.lft.to/lastmile_qr_scan", "ios": "https://dc.lft.to/lastmile_qr_scan"}, "fusion_lon": 0.0, "lat": 38.8971875, "bike_id": "be4ca6a14bacf93ff0742e70beb7b784", "type": "electric_scooter", "is_reserved": 0, "lon": -77.04533033333334}, {"fusion_lat": 0.0, "name": "d3d32baa0cc756e7efaffb3a17b8770a", "is_disabled": 0, "rental_uris": {"android": "https://dc.lft.to/lastmile_qr_scan", "ios": "https://dc.lft.to/lastmile_qr_scan"}, "fusion_lon": 0.0, "lat": 38.9037465, "bike_id": "d3d32baa0cc756e7efaffb3a17b8770a", "type": "electric_scooter", "is_reserved": 0, "lon": -77.00565983333334}, {"fusion_lat": 0.0, "name": "d51418bb19a71f7ce5db85ab17e3f496", "is_disabled": 0, "rental_uris": {"android": "https://dc.lft.to/lastmile_qr_scan", "ios": "https://dc.lft.to/lastmile_qr_scan"}, "fusion_lon": 0.0, "lat": 38.93625083333333, "bike_id": "d51418bb19a71f7ce5db85ab17e3f496", "type": "electric_scooter", "is_reserved": 0, "lon": -77.03677633333334}, {"fusion_lat": 0.0, "name": "b2704f9bf5695d6a75d6ebcd8bc6dced", "is_disabled": 0, "rental_uris": {"android": "https://dc.lft.to/lastmile_qr_scan", "ios": "https://dc.lft.to/lastmile_qr_scan"}, "fusion_lon": 0.0, "lat": 38.88063983333333, "bike_id": "b2704f9bf5695d6a75d6ebcd8bc6dced", "type": "electric_scooter", "is_reserved": 0, "lon": -76.98503116666667}, {"fusion_lat": 0.0, "name": "41fab1c66c08af173fa014baa79f5e5d", "is_disabled": 0, "rental_uris": {"android": "https://dc.lft.to/lastmile_qr_scan", "ios": "https://dc.lft.to/lastmile_qr_scan"}, "fusion_lon": 0.0, "lat": 38.9601595, "bike_id": "41fab1c66c08af173fa014baa79f5e5d", "type": "electric_scooter", "is_reserved": 0, "lon": -77.01979066666667}, {"fusion_lat": 0.0, "name": "a81491dc64089f7d9a023887260fbb86", "is_disabled": 0, "rental_uris": {"android": "https://dc.lft.to/lastmile_qr_scan", "ios": "https://dc.lft.to/lastmile_qr_scan"}, "fusion_lon": 0.0, "lat": 38.92250533333333, "bike_id": "a81491dc64089f7d9a023887260fbb86", "type": "electric_scooter", "is_reserved": 0, "lon": -77.03671366666667}, {"fusion_lat": 0.0, "name": "94dadea9ba4f93fca6315215392bdde0", "is_disabled": 0, "rental_uris": {"android": "https://dc.lft.to/lastmile_qr_scan", "ios": "https://dc.lft.to/lastmile_qr_scan"}, "fusion_lon": 0.0, "lat": 38.912612, "bike_id": "94dadea9ba4f93fca6315215392bdde0", "type": "electric_scooter", "is_reserved": 0, "lon": -77.04475016666666}, {"fusion_lat": 0.0, "name": "3ddc17614c2450f1881cf9a7ca0530d6", "is_disabled": 0, "rental_uris": {"android": "https://dc.lft.to/lastmile_qr_scan", "ios": "https://dc.lft.to/lastmile_qr_scan"}, "fusion_lon": 0.0, "lat": 38.900473166666664, "bike_id": "3ddc17614c2450f1881cf9a7ca0530d6", "type": "electric_scooter", "is_reserved": 0, "lon": -77.044809}, {"fusion_lat": 0.0, "name": "3a0cec861bc01022ac7908752500a8ea", "is_disabled": 0, "rental_uris": {"android": "https://dc.lft.to/lastmile_qr_scan", "ios": "https://dc.lft.to/lastmile_qr_scan"}, "fusion_lon": 0.0, "lat": 38.878283833333334, "bike_id": "3a0cec861bc01022ac7908752500a8ea", "type": "electric_scooter", "is_reserved": 0, "lon": -76.99015083333333}, {"fusion_lat": 0.0, "name": "ffebff96a9838c51352f4c0c0712420c", "is_disabled": 0, "rental_uris": {"android": "https://dc.lft.to/lastmile_qr_scan", "ios": "https://dc.lft.to/lastmile_qr_scan"}, "fusion_lon": 0.0, "lat": 38.921056166666666, "bike_id": "ffebff96a9838c51352f4c0c0712420c", "type": "electric_scooter", "is_reserved": 0, "lon": -77.03164583333333}, {"fusion_lat": 0.0, "name": "a2483700a9d0fa6635190f2cb3bcbb40", "is_disabled": 0, "rental_uris": {"android": "https://dc.lft.to/lastmile_qr_scan", "ios": "https://dc.lft.to/lastmile_qr_scan"}, "fusion_lon": 0.0, "lat": 38.930115666666666, "bike_id": "a2483700a9d0fa6635190f2cb3bcbb40", "type": "electric_scooter", "is_reserved": 0, "lon": -77.02080683333334}, {"fusion_lat": 0.0, "name": "f5fec3d36b5e3aba6b1bc2084713a95f", "is_disabled": 0, "rental_uris": {"android": "https://dc.lft.to/lastmile_qr_scan", "ios": "https://dc.lft.to/lastmile_qr_scan"}, "fusion_lon": 0.0, "lat": 38.90000933333334, "bike_id": "f5fec3d36b5e3aba6b1bc2084713a95f", "type": "electric_scooter", "is_reserved": 0, "lon": -76.9974965}, {"fusion_lat": 0.0, "name": "9411a3af6bad7d0db2ab60db45134ec1", "is_disabled": 0, "rental_uris": {"android": "https://dc.lft.to/lastmile_qr_scan", "ios": "https://dc.lft.to/lastmile_qr_scan"}, "fusion_lon": 0.0, "lat": 38.9179545, "bike_id": "9411a3af6bad7d0db2ab60db45134ec1", "type": "electric_scooter", "is_reserved": 0, "lon": -77.0270995}, {"fusion_lat": 0.0, "name": "5c29f02194ca02ade9444edfdac106a2", "is_disabled": 0, "rental_uris": {"android": "https://dc.lft.to/lastmile_qr_scan", "ios": "https://dc.lft.to/lastmile_qr_scan"}, "fusion_lon": 0.0, "lat": 38.9248375, "bike_id": "5c29f02194ca02ade9444edfdac106a2", "type": "electric_scooter", "is_reserved": 0, "lon": -77.02722566666667}, {"fusion_lat": 0.0, "name": "6136ec4e482e62668f6d959bea6e6e63", "is_disabled": 0, "rental_uris": {"android": "https://dc.lft.to/lastmile_qr_scan", "ios": "https://dc.lft.to/lastmile_qr_scan"}, "fusion_lon": 0.0, "lat": 38.909603833333335, "bike_id": "6136ec4e482e62668f6d959bea6e6e63", "type": "electric_scooter", "is_reserved": 0, "lon": -77.04735516666666}, {"fusion_lat": 0.0, "name": "dad5afc4d9ad7d51a1b66c1f4170e262", "is_disabled": 0, "rental_uris": {"android": "https://dc.lft.to/lastmile_qr_scan", "ios": "https://dc.lft.to/lastmile_qr_scan"}, "fusion_lon": 0.0, "lat": 38.853655833333335, "bike_id": "dad5afc4d9ad7d51a1b66c1f4170e262", "type": "electric_bike", "is_reserved": 0, "lon": -77.11512566666667}, {"fusion_lat": 0.0, "name": "7b78b77b315d0aafebe79b81f65c4cf1", "is_disabled": 0, "rental_uris": {"android": "https://dc.lft.to/lastmile_qr_scan", "ios": "https://dc.lft.to/lastmile_qr_scan"}, "fusion_lon": 0.0, "lat": 38.90012566666667, "bike_id": "7b78b77b315d0aafebe79b81f65c4cf1", "type": "electric_scooter", "is_reserved": 0, "lon": -76.99844233333333}, {"fusion_lat": 0.0, "name": "98c1fba4185aff1680e75fa09f37e064", "is_disabled": 0, "rental_uris": {"android": "https://dc.lft.to/lastmile_qr_scan", "ios": "https://dc.lft.to/lastmile_qr_scan"}, "fusion_lon": 0.0, "lat": 38.907305666666666, "bike_id": "98c1fba4185aff1680e75fa09f37e064", "type": "electric_scooter", "is_reserved": 0, "lon": -77.02603383333333}, {"fusion_lat": 0.0, "name": "58b080f75325df6f9a4fa69d29b189a8", "is_disabled": 0, "rental_uris": {"android": "https://dc.lft.to/lastmile_qr_scan", "ios": "https://dc.lft.to/lastmile_qr_scan"}, "fusion_lon": 0.0, "lat": 38.927490666666664, "bike_id": "58b080f75325df6f9a4fa69d29b189a8", "type": "electric_scooter", "is_reserved": 0, "lon": -77.03292933333333}, {"fusion_lat": 0.0, "name": "c8f5639b2b74ef3a6940153a4aa97cb3", "is_disabled": 0, "rental_uris": {"android": "https://dc.lft.to/lastmile_qr_scan", "ios": "https://dc.lft.to/lastmile_qr_scan"}, "fusion_lon": 0.0, "lat": 38.938658833333335, "bike_id": "c8f5639b2b74ef3a6940153a4aa97cb3", "type": "electric_scooter", "is_reserved": 0, "lon": -77.032024}, {"fusion_lat": 0.0, "name": "e687815328be7840aa9a398492d3e4ca", "is_disabled": 0, "rental_uris": {"android": "https://dc.lft.to/lastmile_qr_scan", "ios": "https://dc.lft.to/lastmile_qr_scan"}, "fusion_lon": 0.0, "lat": 39.034311833333334, "bike_id": "e687815328be7840aa9a398492d3e4ca", "type": "electric_bike", "is_reserved": 0, "lon": -77.04287866666667}, {"fusion_lat": 0.0, "name": "7970f929ebf2e68338779da10d4784c4", "is_disabled": 0, "rental_uris": {"android": "https://dc.lft.to/lastmile_qr_scan", "ios": "https://dc.lft.to/lastmile_qr_scan"}, "fusion_lon": 0.0, "lat": 38.91798683333333, "bike_id": "7970f929ebf2e68338779da10d4784c4", "type": "electric_scooter", "is_reserved": 0, "lon": -77.02715}, {"fusion_lat": 0.0, "name": "b15dcf87ffc521142e087fa188698dc0", "is_disabled": 0, "rental_uris": {"android": "https://dc.lft.to/lastmile_qr_scan", "ios": "https://dc.lft.to/lastmile_qr_scan"}, "fusion_lon": 0.0, "lat": 38.906926, "bike_id": "b15dcf87ffc521142e087fa188698dc0", "type": "electric_scooter", "is_reserved": 0, "lon": -77.037731}, {"fusion_lat": 0.0, "name": "83d48c726d6c503ca546bebc2d57938c", "is_disabled": 0, "rental_uris": {"android": "https://dc.lft.to/lastmile_qr_scan", "ios": "https://dc.lft.to/lastmile_qr_scan"}, "fusion_lon": 0.0, "lat": 38.910690333333335, "bike_id": "83d48c726d6c503ca546bebc2d57938c", "type": "electric_scooter", "is_reserved": 0, "lon": -77.03663683333333}, {"fusion_lat": 0.0, "name": "a7ec3e0fea8b8508bb5e882bc4cfa66e", "is_disabled": 0, "rental_uris": {"android": "https://dc.lft.to/lastmile_qr_scan", "ios": "https://dc.lft.to/lastmile_qr_scan"}, "fusion_lon": 0.0, "lat": 38.83929533333333, "bike_id": "a7ec3e0fea8b8508bb5e882bc4cfa66e", "type": "electric_bike", "is_reserved": 0, "lon": -77.079053}, {"fusion_lat": 0.0, "name": "df0a09e6dd9f1df0fe9adb4650b7c912", "is_disabled": 0, "rental_uris": {"android": "https://dc.lft.to/lastmile_qr_scan", "ios": "https://dc.lft.to/lastmile_qr_scan"}, "fusion_lon": 0.0, "lat": 38.927446, "bike_id": "df0a09e6dd9f1df0fe9adb4650b7c912", "type": "electric_scooter", "is_reserved": 0, "lon": -77.03636766666666}, {"fusion_lat": 0.0, "name": "54e0e04f14245e19a3ac000ecf0b68e3", "is_disabled": 0, "rental_uris": {"android": "https://dc.lft.to/lastmile_qr_scan", "ios": "https://dc.lft.to/lastmile_qr_scan"}, "fusion_lon": 0.0, "lat": 38.90146716666667, "bike_id": "54e0e04f14245e19a3ac000ecf0b68e3", "type": "electric_scooter", "is_reserved": 0, "lon": -76.98660216666667}, {"fusion_lat": 0.0, "name": "5f65ecbb5535e205ea03efbe52ae2832", "is_disabled": 0, "rental_uris": {"android": "https://dc.lft.to/lastmile_qr_scan", "ios": "https://dc.lft.to/lastmile_qr_scan"}, "fusion_lon": 0.0, "lat": 38.8746825, "bike_id": "5f65ecbb5535e205ea03efbe52ae2832", "type": "electric_scooter", "is_reserved": 0, "lon": -77.00035366666667}, {"fusion_lat": 0.0, "name": "10b7f79139f6d393087a3dfd38e2d517", "is_disabled": 0, "rental_uris": {"android": "https://dc.lft.to/lastmile_qr_scan", "ios": "https://dc.lft.to/lastmile_qr_scan"}, "fusion_lon": 0.0, "lat": 38.97881683333333, "bike_id": "10b7f79139f6d393087a3dfd38e2d517", "type": "electric_bike", "is_reserved": 0, "lon": -77.06027483333334}, {"fusion_lat": 0.0, "name": "226e52ba473db937ef0f6ce4d1542136", "is_disabled": 0, "rental_uris": {"android": "https://dc.lft.to/lastmile_qr_scan", "ios": "https://dc.lft.to/lastmile_qr_scan"}, "fusion_lon": 0.0, "lat": 38.89512216666667, "bike_id": "226e52ba473db937ef0f6ce4d1542136", "type": "electric_scooter", "is_reserved": 0, "lon": -76.99965533333334}, {"fusion_lat": 0.0, "name": "36e9d6494468ba7b97dda0abeff3382a", "is_disabled": 0, "rental_uris": {"android": "https://dc.lft.to/lastmile_qr_scan", "ios": "https://dc.lft.to/lastmile_qr_scan"}, "fusion_lon": 0.0, "lat": 38.9261395, "bike_id": "36e9d6494468ba7b97dda0abeff3382a", "type": "electric_scooter", "is_reserved": 0, "lon": -77.04331466666666}, {"fusion_lat": 0.0, "name": "dc623847434e602d025f4dccd91c8e6c", "is_disabled": 0, "rental_uris": {"android": "https://dc.lft.to/lastmile_qr_scan", "ios": "https://dc.lft.to/lastmile_qr_scan"}, "fusion_lon": 0.0, "lat": 38.953330333333334, "bike_id": "dc623847434e602d025f4dccd91c8e6c", "type": "electric_bike", "is_reserved": 0, "lon": -76.98257}, {"fusion_lat": 0.0, "name": "5cf7758482d2e97c4192d8fe3c48327c", "is_disabled": 0, "rental_uris": {"android": "https://dc.lft.to/lastmile_qr_scan", "ios": "https://dc.lft.to/lastmile_qr_scan"}, "fusion_lon": 0.0, "lat": 38.9071045, "bike_id": "5cf7758482d2e97c4192d8fe3c48327c", "type": "electric_scooter", "is_reserved": 0, "lon": -77.04361383333334}, {"fusion_lat": 0.0, "name": "a6f1ed22f3bdb52a98153801ac92edb7", "is_disabled": 0, "rental_uris": {"android": "https://dc.lft.to/lastmile_qr_scan", "ios": "https://dc.lft.to/lastmile_qr_scan"}, "fusion_lon": 0.0, "lat": 38.94205216666667, "bike_id": "a6f1ed22f3bdb52a98153801ac92edb7", "type": "electric_scooter", "is_reserved": 0, "lon": -77.02593016666667}, {"fusion_lat": 0.0, "name": "076df68de47692ac23a2247f1c19a457", "is_disabled": 0, "rental_uris": {"android": "https://dc.lft.to/lastmile_qr_scan", "ios": "https://dc.lft.to/lastmile_qr_scan"}, "fusion_lon": 0.0, "lat": 38.888938833333334, "bike_id": "076df68de47692ac23a2247f1c19a457", "type": "electric_bike", "is_reserved": 0, "lon": -77.1152955}, {"fusion_lat": 0.0, "name": "3fe9fa7db7fa74931a4077e376586fa1", "is_disabled": 0, "rental_uris": {"android": "https://dc.lft.to/lastmile_qr_scan", "ios": "https://dc.lft.to/lastmile_qr_scan"}, "fusion_lon": 0.0, "lat": 38.8972275, "bike_id": "3fe9fa7db7fa74931a4077e376586fa1", "type": "electric_scooter", "is_reserved": 0, "lon": -77.02726516666667}, {"fusion_lat": 0.0, "name": "775ad2e829f63c0f8e8e89d2a9073c80", "is_disabled": 0, "rental_uris": {"android": "https://dc.lft.to/lastmile_qr_scan", "ios": "https://dc.lft.to/lastmile_qr_scan"}, "fusion_lon": 0.0, "lat": 38.9643935, "bike_id": "775ad2e829f63c0f8e8e89d2a9073c80", "type": "electric_scooter", "is_reserved": 0, "lon": -77.02067216666667}, {"fusion_lat": 0.0, "name": "4e958e667a71b566a9d53da5306a5c54", "is_disabled": 0, "rental_uris": {"android": "https://dc.lft.to/lastmile_qr_scan", "ios": "https://dc.lft.to/lastmile_qr_scan"}, "fusion_lon": 0.0, "lat": 38.90101583333333, "bike_id": "4e958e667a71b566a9d53da5306a5c54", "type": "electric_scooter", "is_reserved": 0, "lon": -77.03386133333333}, {"fusion_lat": 0.0, "name": "d096de34e767fcc1a223f58e7d4ed4d0", "is_disabled": 0, "rental_uris": {"android": "https://dc.lft.to/lastmile_qr_scan", "ios": "https://dc.lft.to/lastmile_qr_scan"}, "fusion_lon": 0.0, "lat": 38.920213333333336, "bike_id": "d096de34e767fcc1a223f58e7d4ed4d0", "type": "electric_scooter", "is_reserved": 0, "lon": -77.0280505}, {"fusion_lat": 0.0, "name": "9f2ba10c066dd036aa80d162ba812c1f", "is_disabled": 0, "rental_uris": {"android": "https://dc.lft.to/lastmile_qr_scan", "ios": "https://dc.lft.to/lastmile_qr_scan"}, "fusion_lon": 0.0, "lat": 38.91928516666667, "bike_id": "9f2ba10c066dd036aa80d162ba812c1f", "type": "electric_scooter", "is_reserved": 0, "lon": -77.03179366666667}, {"fusion_lat": 0.0, "name": "0af16bb076b5556efc29748b2d072abc", "is_disabled": 0, "rental_uris": {"android": "https://dc.lft.to/lastmile_qr_scan", "ios": "https://dc.lft.to/lastmile_qr_scan"}, "fusion_lon": 0.0, "lat": 38.92188216666667, "bike_id": "0af16bb076b5556efc29748b2d072abc", "type": "electric_scooter", "is_reserved": 0, "lon": -77.04229}, {"fusion_lat": 0.0, "name": "c93a8f821b11715fed0b93e794689083", "is_disabled": 0, "rental_uris": {"android": "https://dc.lft.to/lastmile_qr_scan", "ios": "https://dc.lft.to/lastmile_qr_scan"}, "fusion_lon": 0.0, "lat": 38.934877666666665, "bike_id": "c93a8f821b11715fed0b93e794689083", "type": "electric_scooter", "is_reserved": 0, "lon": -77.0307935}, {"fusion_lat": 0.0, "name": "e37be9c955de2dbcbf3c7458fb290bc1", "is_disabled": 0, "rental_uris": {"android": "https://dc.lft.to/lastmile_qr_scan", "ios": "https://dc.lft.to/lastmile_qr_scan"}, "fusion_lon": 0.0, "lat": 38.8985535, "bike_id": "e37be9c955de2dbcbf3c7458fb290bc1", "type": "electric_scooter", "is_reserved": 0, "lon": -76.99270566666667}, {"fusion_lat": 0.0, "name": "61d8259bcb37e34a92953dd8513d6a48", "is_disabled": 0, "rental_uris": {"android": "https://dc.lft.to/lastmile_qr_scan", "ios": "https://dc.lft.to/lastmile_qr_scan"}, "fusion_lon": 0.0, "lat": 38.92508866666667, "bike_id": "61d8259bcb37e34a92953dd8513d6a48", "type": "electric_scooter", "is_reserved": 0, "lon": -77.037864}, {"fusion_lat": 0.0, "name": "ae3c157a227b305793b09610777af90a", "is_disabled": 0, "rental_uris": {"android": "https://dc.lft.to/lastmile_qr_scan", "ios": "https://dc.lft.to/lastmile_qr_scan"}, "fusion_lon": 0.0, "lat": 38.905280833333336, "bike_id": "ae3c157a227b305793b09610777af90a", "type": "electric_scooter", "is_reserved": 0, "lon": -77.051599}, {"fusion_lat": 0.0, "name": "a9be6efccfcea9e34e4cc0d1f156cb0b", "is_disabled": 0, "rental_uris": {"android": "https://dc.lft.to/lastmile_qr_scan", "ios": "https://dc.lft.to/lastmile_qr_scan"}, "fusion_lon": 0.0, "lat": 38.913484833333335, "bike_id": "a9be6efccfcea9e34e4cc0d1f156cb0b", "type": "electric_scooter", "is_reserved": 0, "lon": -77.03329933333333}, {"fusion_lat": 0.0, "name": "0feca1e202f957b9c1df24e6f05fba57", "is_disabled": 0, "rental_uris": {"android": "https://dc.lft.to/lastmile_qr_scan", "ios": "https://dc.lft.to/lastmile_qr_scan"}, "fusion_lon": 0.0, "lat": 38.901513333333334, "bike_id": "0feca1e202f957b9c1df24e6f05fba57", "type": "electric_scooter", "is_reserved": 0, "lon": -77.02571333333333}, {"fusion_lat": 0.0, "name": "8f25535586257c726e2257b49ab95fe8", "is_disabled": 0, "rental_uris": {"android": "https://dc.lft.to/lastmile_qr_scan", "ios": "https://dc.lft.to/lastmile_qr_scan"}, "fusion_lon": 0.0, "lat": 38.98475416666667, "bike_id": "8f25535586257c726e2257b49ab95fe8", "type": "electric_scooter", "is_reserved": 0, "lon": -77.02641183333333}, {"fusion_lat": 0.0, "name": "d9ae6ea431a21960071b1ad47c2248b2", "is_disabled": 0, "rental_uris": {"android": "https://dc.lft.to/lastmile_qr_scan", "ios": "https://dc.lft.to/lastmile_qr_scan"}, "fusion_lon": 0.0, "lat": 38.921356333333335, "bike_id": "d9ae6ea431a21960071b1ad47c2248b2", "type": "electric_scooter", "is_reserved": 0, "lon": -77.01800716666666}, {"fusion_lat": 0.0, "name": "d1b4275c209ac49edbcb0c8282e7ad80", "is_disabled": 0, "rental_uris": {"android": "https://dc.lft.to/lastmile_qr_scan", "ios": "https://dc.lft.to/lastmile_qr_scan"}, "fusion_lon": 0.0, "lat": 38.91664433333333, "bike_id": "d1b4275c209ac49edbcb0c8282e7ad80", "type": "electric_scooter", "is_reserved": 0, "lon": -77.02812216666666}, {"fusion_lat": 0.0, "name": "040833e6ea1384dc502574af07b1f72c", "is_disabled": 0, "rental_uris": {"android": "https://dc.lft.to/lastmile_qr_scan", "ios": "https://dc.lft.to/lastmile_qr_scan"}, "fusion_lon": 0.0, "lat": 38.88767966666666, "bike_id": "040833e6ea1384dc502574af07b1f72c", "type": "electric_scooter", "is_reserved": 0, "lon": -76.99468783333333}, {"fusion_lat": 0.0, "name": "935c3e7b82c87ced83fd8571647a8001", "is_disabled": 0, "rental_uris": {"android": "https://dc.lft.to/lastmile_qr_scan", "ios": "https://dc.lft.to/lastmile_qr_scan"}, "fusion_lon": 0.0, "lat": 38.926550666666664, "bike_id": "935c3e7b82c87ced83fd8571647a8001", "type": "electric_scooter", "is_reserved": 0, "lon": -77.037132}, {"fusion_lat": 0.0, "name": "a3948fbedcbcf00ecd433cdb3a4a49ab", "is_disabled": 0, "rental_uris": {"android": "https://dc.lft.to/lastmile_qr_scan", "ios": "https://dc.lft.to/lastmile_qr_scan"}, "fusion_lon": 0.0, "lat": 38.92163766666667, "bike_id": "a3948fbedcbcf00ecd433cdb3a4a49ab", "type": "electric_scooter", "is_reserved": 0, "lon": -77.0364015}, {"fusion_lat": 0.0, "name": "952dad681a593dad485fb8ae415f0784", "is_disabled": 0, "rental_uris": {"android": "https://dc.lft.to/lastmile_qr_scan", "ios": "https://dc.lft.to/lastmile_qr_scan"}, "fusion_lon": 0.0, "lat": 38.918488333333336, "bike_id": "952dad681a593dad485fb8ae415f0784", "type": "electric_scooter", "is_reserved": 0, "lon": -76.96536933333333}, {"fusion_lat": 0.0, "name": "86b9ee856474868b1f55927d9540d6a1", "is_disabled": 0, "rental_uris": {"android": "https://dc.lft.to/lastmile_qr_scan", "ios": "https://dc.lft.to/lastmile_qr_scan"}, "fusion_lon": 0.0, "lat": 38.90260133333334, "bike_id": "86b9ee856474868b1f55927d9540d6a1", "type": "electric_scooter", "is_reserved": 0, "lon": -77.0186355}, {"fusion_lat": 0.0, "name": "e837e47623bf2a863a377b754aa2759f", "is_disabled": 0, "rental_uris": {"android": "https://dc.lft.to/lastmile_qr_scan", "ios": "https://dc.lft.to/lastmile_qr_scan"}, "fusion_lon": 0.0, "lat": 38.90112033333333, "bike_id": "e837e47623bf2a863a377b754aa2759f", "type": "electric_scooter", "is_reserved": 0, "lon": -77.024659}, {"fusion_lat": 0.0, "name": "d2d0bf74a64fa5c1c5ef5e56c2ad98e3", "is_disabled": 0, "rental_uris": {"android": "https://dc.lft.to/lastmile_qr_scan", "ios": "https://dc.lft.to/lastmile_qr_scan"}, "fusion_lon": 0.0, "lat": 38.901298, "bike_id": "d2d0bf74a64fa5c1c5ef5e56c2ad98e3", "type": "electric_scooter", "is_reserved": 0, "lon": -77.002852}, {"fusion_lat": 0.0, "name": "6595bb55ab0e7291914010ee4f0d0b7c", "is_disabled": 0, "rental_uris": {"android": "https://dc.lft.to/lastmile_qr_scan", "ios": "https://dc.lft.to/lastmile_qr_scan"}, "fusion_lon": 0.0, "lat": 38.92473616666667, "bike_id": "6595bb55ab0e7291914010ee4f0d0b7c", "type": "electric_scooter", "is_reserved": 0, "lon": -77.02838066666666}, {"fusion_lat": 0.0, "name": "ed242bd25d2ecac4b942f002bc6dd9eb", "is_disabled": 0, "rental_uris": {"android": "https://dc.lft.to/lastmile_qr_scan", "ios": "https://dc.lft.to/lastmile_qr_scan"}, "fusion_lon": 0.0, "lat": 38.900066333333335, "bike_id": "ed242bd25d2ecac4b942f002bc6dd9eb", "type": "electric_scooter", "is_reserved": 0, "lon": -76.99762766666667}, {"fusion_lat": 0.0, "name": "6e04a50e6a9146e13e15f59301bd2c35", "is_disabled": 0, "rental_uris": {"android": "https://dc.lft.to/lastmile_qr_scan", "ios": "https://dc.lft.to/lastmile_qr_scan"}, "fusion_lon": 0.0, "lat": 38.934533333333334, "bike_id": "6e04a50e6a9146e13e15f59301bd2c35", "type": "electric_scooter", "is_reserved": 0, "lon": -77.02343016666667}, {"fusion_lat": 0.0, "name": "fc9083a2b469c9b8517730346289f0b3", "is_disabled": 0, "rental_uris": {"android": "https://dc.lft.to/lastmile_qr_scan", "ios": "https://dc.lft.to/lastmile_qr_scan"}, "fusion_lon": 0.0, "lat": 38.91986433333334, "bike_id": "fc9083a2b469c9b8517730346289f0b3", "type": "electric_scooter", "is_reserved": 0, "lon": -77.032801}, {"fusion_lat": 0.0, "name": "4959f141381329ed901d9d4c418ede38", "is_disabled": 0, "rental_uris": {"android": "https://dc.lft.to/lastmile_qr_scan", "ios": "https://dc.lft.to/lastmile_qr_scan"}, "fusion_lon": 0.0, "lat": 38.840848333333334, "bike_id": "4959f141381329ed901d9d4c418ede38", "type": "electric_bike", "is_reserved": 0, "lon": -76.9702895}, {"fusion_lat": 0.0, "name": "9c53681850b0e7b77bc3f0c3cb2f0e04", "is_disabled": 0, "rental_uris": {"android": "https://dc.lft.to/lastmile_qr_scan", "ios": "https://dc.lft.to/lastmile_qr_scan"}, "fusion_lon": 0.0, "lat": 38.929855, "bike_id": "9c53681850b0e7b77bc3f0c3cb2f0e04", "type": "electric_scooter", "is_reserved": 0, "lon": -77.03232533333333}, {"fusion_lat": 0.0, "name": "52b0281f2afab4ba69a8b6ea070cf1fb", "is_disabled": 0, "rental_uris": {"android": "https://dc.lft.to/lastmile_qr_scan", "ios": "https://dc.lft.to/lastmile_qr_scan"}, "fusion_lon": 0.0, "lat": 38.916013166666666, "bike_id": "52b0281f2afab4ba69a8b6ea070cf1fb", "type": "electric_scooter", "is_reserved": 0, "lon": -77.049081}, {"fusion_lat": 0.0, "name": "02bf41cd487626e6f2503f3920308110", "is_disabled": 0, "rental_uris": {"android": "https://dc.lft.to/lastmile_qr_scan", "ios": "https://dc.lft.to/lastmile_qr_scan"}, "fusion_lon": 0.0, "lat": 38.902323, "bike_id": "02bf41cd487626e6f2503f3920308110", "type": "electric_scooter", "is_reserved": 0, "lon": -77.02365983333334}, {"fusion_lat": 0.0, "name": "e370c9feac3eafa1a27bc08a8f5c8bce", "is_disabled": 0, "rental_uris": {"android": "https://dc.lft.to/lastmile_qr_scan", "ios": "https://dc.lft.to/lastmile_qr_scan"}, "fusion_lon": 0.0, "lat": 38.918180166666666, "bike_id": "e370c9feac3eafa1a27bc08a8f5c8bce", "type": "electric_scooter", "is_reserved": 0, "lon": -77.03192233333333}, {"fusion_lat": 0.0, "name": "578255d649ee59f93f6189cdf3726fa7", "is_disabled": 0, "rental_uris": {"android": "https://dc.lft.to/lastmile_qr_scan", "ios": "https://dc.lft.to/lastmile_qr_scan"}, "fusion_lon": 0.0, "lat": 38.920107333333334, "bike_id": "578255d649ee59f93f6189cdf3726fa7", "type": "electric_scooter", "is_reserved": 0, "lon": -77.0713755}, {"fusion_lat": 0.0, "name": "626df29c55d2a8e83a545a83caaf1521", "is_disabled": 0, "rental_uris": {"android": "https://dc.lft.to/lastmile_qr_scan", "ios": "https://dc.lft.to/lastmile_qr_scan"}, "fusion_lon": 0.0, "lat": 38.926111666666664, "bike_id": "626df29c55d2a8e83a545a83caaf1521", "type": "electric_scooter", "is_reserved": 0, "lon": -77.043232}, {"fusion_lat": 0.0, "name": "af9f2cdaf3de748b6c87839b9d6dda56", "is_disabled": 0, "rental_uris": {"android": "https://dc.lft.to/lastmile_qr_scan", "ios": "https://dc.lft.to/lastmile_qr_scan"}, "fusion_lon": 0.0, "lat": 38.931143666666664, "bike_id": "af9f2cdaf3de748b6c87839b9d6dda56", "type": "electric_scooter", "is_reserved": 0, "lon": -77.02098216666667}, {"fusion_lat": 0.0, "name": "3c399a9adf2a5e487221b060577a719a", "is_disabled": 0, "rental_uris": {"android": "https://dc.lft.to/lastmile_qr_scan", "ios": "https://dc.lft.to/lastmile_qr_scan"}, "fusion_lon": 0.0, "lat": 38.900274, "bike_id": "3c399a9adf2a5e487221b060577a719a", "type": "electric_scooter", "is_reserved": 0, "lon": -77.000323}, {"fusion_lat": 0.0, "name": "fca44cece2554f598e371f040f5b0118", "is_disabled": 0, "rental_uris": {"android": "https://dc.lft.to/lastmile_qr_scan", "ios": "https://dc.lft.to/lastmile_qr_scan"}, "fusion_lon": 0.0, "lat": 38.93848333333333, "bike_id": "fca44cece2554f598e371f040f5b0118", "type": "electric_scooter", "is_reserved": 0, "lon": -77.062473}, {"fusion_lat": 0.0, "name": "6c11160bb6fd36f9d6f3d559ed526ad1", "is_disabled": 0, "rental_uris": {"android": "https://dc.lft.to/lastmile_qr_scan", "ios": "https://dc.lft.to/lastmile_qr_scan"}, "fusion_lon": 0.0, "lat": 38.966668, "bike_id": "6c11160bb6fd36f9d6f3d559ed526ad1", "type": "electric_bike", "is_reserved": 0, "lon": -76.974461}, {"fusion_lat": 0.0, "name": "357b783673a8784f358e1a0c9e55f260", "is_disabled": 0, "rental_uris": {"android": "https://dc.lft.to/lastmile_qr_scan", "ios": "https://dc.lft.to/lastmile_qr_scan"}, "fusion_lon": 0.0, "lat": 38.94204216666667, "bike_id": "357b783673a8784f358e1a0c9e55f260", "type": "electric_scooter", "is_reserved": 0, "lon": -77.02591716666667}, {"fusion_lat": 0.0, "name": "73434bed74b9137988e877286b330845", "is_disabled": 0, "rental_uris": {"android": "https://dc.lft.to/lastmile_qr_scan", "ios": "https://dc.lft.to/lastmile_qr_scan"}, "fusion_lon": 0.0, "lat": 38.91795666666667, "bike_id": "73434bed74b9137988e877286b330845", "type": "electric_scooter", "is_reserved": 0, "lon": -77.03440166666667}, {"fusion_lat": 0.0, "name": "3d868f66b90c9364447c8b07164708c1", "is_disabled": 0, "rental_uris": {"android": "https://dc.lft.to/lastmile_qr_scan", "ios": "https://dc.lft.to/lastmile_qr_scan"}, "fusion_lon": 0.0, "lat": 38.90216783333334, "bike_id": "3d868f66b90c9364447c8b07164708c1", "type": "electric_scooter", "is_reserved": 0, "lon": -77.0220495}, {"fusion_lat": 0.0, "name": "55d4d9622ea806574c73cba3f9d5b92a", "is_disabled": 0, "rental_uris": {"android": "https://dc.lft.to/lastmile_qr_scan", "ios": "https://dc.lft.to/lastmile_qr_scan"}, "fusion_lon": 0.0, "lat": 38.905600166666666, "bike_id": "55d4d9622ea806574c73cba3f9d5b92a", "type": "electric_scooter", "is_reserved": 0, "lon": -77.0335325}, {"fusion_lat": 0.0, "name": "3d3236dfdb8c3b8f99c87c099e703afa", "is_disabled": 0, "rental_uris": {"android": "https://dc.lft.to/lastmile_qr_scan", "ios": "https://dc.lft.to/lastmile_qr_scan"}, "fusion_lon": 0.0, "lat": 38.91714783333333, "bike_id": "3d3236dfdb8c3b8f99c87c099e703afa", "type": "electric_scooter", "is_reserved": 0, "lon": -77.0386635}, {"fusion_lat": 0.0, "name": "874d1c78757ebf0c8cf432a669e76ce2", "is_disabled": 0, "rental_uris": {"android": "https://dc.lft.to/lastmile_qr_scan", "ios": "https://dc.lft.to/lastmile_qr_scan"}, "fusion_lon": 0.0, "lat": 38.949518833333336, "bike_id": "874d1c78757ebf0c8cf432a669e76ce2", "type": "electric_scooter", "is_reserved": 0, "lon": -77.02314033333333}, {"fusion_lat": 0.0, "name": "1f9228dc08cbe9f47f7ee429ffc5336c", "is_disabled": 0, "rental_uris": {"android": "https://dc.lft.to/lastmile_qr_scan", "ios": "https://dc.lft.to/lastmile_qr_scan"}, "fusion_lon": 0.0, "lat": 38.87970116666666, "bike_id": "1f9228dc08cbe9f47f7ee429ffc5336c", "type": "electric_scooter", "is_reserved": 0, "lon": -77.00841933333334}, {"fusion_lat": 0.0, "name": "1523c2bf7a2d3df97849b87d8f8d8702", "is_disabled": 0, "rental_uris": {"android": "https://dc.lft.to/lastmile_qr_scan", "ios": "https://dc.lft.to/lastmile_qr_scan"}, "fusion_lon": 0.0, "lat": 38.93293933333333, "bike_id": "1523c2bf7a2d3df97849b87d8f8d8702", "type": "electric_scooter", "is_reserved": 0, "lon": -77.02796083333334}, {"fusion_lat": 0.0, "name": "07ce36aef162a8938c4f58c1b8185ce8", "is_disabled": 0, "rental_uris": {"android": "https://dc.lft.to/lastmile_qr_scan", "ios": "https://dc.lft.to/lastmile_qr_scan"}, "fusion_lon": 0.0, "lat": 38.919426666666666, "bike_id": "07ce36aef162a8938c4f58c1b8185ce8", "type": "electric_scooter", "is_reserved": 0, "lon": -77.03951316666667}, {"fusion_lat": 0.0, "name": "ab79199735bba958b68213b0131d65bb", "is_disabled": 0, "rental_uris": {"android": "https://dc.lft.to/lastmile_qr_scan", "ios": "https://dc.lft.to/lastmile_qr_scan"}, "fusion_lon": 0.0, "lat": 38.92825066666666, "bike_id": "ab79199735bba958b68213b0131d65bb", "type": "electric_scooter", "is_reserved": 0, "lon": -77.03290516666667}, {"fusion_lat": 0.0, "name": "67f08d4ba4b2816e47f1259c9685c149", "is_disabled": 0, "rental_uris": {"android": "https://dc.lft.to/lastmile_qr_scan", "ios": "https://dc.lft.to/lastmile_qr_scan"}, "fusion_lon": 0.0, "lat": 38.922219166666665, "bike_id": "67f08d4ba4b2816e47f1259c9685c149", "type": "electric_scooter", "is_reserved": 0, "lon": -77.04334683333333}, {"fusion_lat": 0.0, "name": "4c2a8405fb94ceea643de411db175d7f", "is_disabled": 0, "rental_uris": {"android": "https://dc.lft.to/lastmile_qr_scan", "ios": "https://dc.lft.to/lastmile_qr_scan"}, "fusion_lon": 0.0, "lat": 38.902115333333334, "bike_id": "4c2a8405fb94ceea643de411db175d7f", "type": "electric_scooter", "is_reserved": 0, "lon": -77.03196883333334}, {"fusion_lat": 0.0, "name": "1b25a3cafdca427343539cd32d423eb8", "is_disabled": 0, "rental_uris": {"android": "https://dc.lft.to/lastmile_qr_scan", "ios": "https://dc.lft.to/lastmile_qr_scan"}, "fusion_lon": 0.0, "lat": 38.90620416666667, "bike_id": "1b25a3cafdca427343539cd32d423eb8", "type": "electric_scooter", "is_reserved": 0, "lon": -77.03322783333333}, {"fusion_lat": 0.0, "name": "e8c274dd88e7fdc5373b2f35122ddd5d", "is_disabled": 0, "rental_uris": {"android": "https://dc.lft.to/lastmile_qr_scan", "ios": "https://dc.lft.to/lastmile_qr_scan"}, "fusion_lon": 0.0, "lat": 38.924020666666664, "bike_id": "e8c274dd88e7fdc5373b2f35122ddd5d", "type": "electric_scooter", "is_reserved": 0, "lon": -77.02265316666667}, {"fusion_lat": 0.0, "name": "ad8630ad6351fcdf67fbaa7c7a9eeba4", "is_disabled": 0, "rental_uris": {"android": "https://dc.lft.to/lastmile_qr_scan", "ios": "https://dc.lft.to/lastmile_qr_scan"}, "fusion_lon": 0.0, "lat": 38.95689216666667, "bike_id": "ad8630ad6351fcdf67fbaa7c7a9eeba4", "type": "electric_scooter", "is_reserved": 0, "lon": -77.0325725}, {"fusion_lat": 0.0, "name": "3cc7105d0da3007489abbb7129457003", "is_disabled": 0, "rental_uris": {"android": "https://dc.lft.to/lastmile_qr_scan", "ios": "https://dc.lft.to/lastmile_qr_scan"}, "fusion_lon": 0.0, "lat": 38.9169355, "bike_id": "3cc7105d0da3007489abbb7129457003", "type": "electric_scooter", "is_reserved": 0, "lon": -77.03477266666667}, {"fusion_lat": 0.0, "name": "4131dc49b2efc488484ee7a309dc08c3", "is_disabled": 0, "rental_uris": {"android": "https://dc.lft.to/lastmile_qr_scan", "ios": "https://dc.lft.to/lastmile_qr_scan"}, "fusion_lon": 0.0, "lat": 38.86679933333333, "bike_id": "4131dc49b2efc488484ee7a309dc08c3", "type": "electric_bike", "is_reserved": 0, "lon": -76.98236083333333}, {"fusion_lat": 0.0, "name": "efe9dbcf13275a3091bb971aa8952db5", "is_disabled": 0, "rental_uris": {"android": "https://dc.lft.to/lastmile_qr_scan", "ios": "https://dc.lft.to/lastmile_qr_scan"}, "fusion_lon": 0.0, "lat": 38.892244833333336, "bike_id": "efe9dbcf13275a3091bb971aa8952db5", "type": "electric_scooter", "is_reserved": 0, "lon": -77.04684033333334}, {"fusion_lat": 0.0, "name": "ef9778c8f7b8c4a615966e83513723da", "is_disabled": 0, "rental_uris": {"android": "https://dc.lft.to/lastmile_qr_scan", "ios": "https://dc.lft.to/lastmile_qr_scan"}, "fusion_lon": 0.0, "lat": 38.92068, "bike_id": "ef9778c8f7b8c4a615966e83513723da", "type": "electric_scooter", "is_reserved": 0, "lon": -77.02412116666666}, {"fusion_lat": 0.0, "name": "c311ba98cb9e2887833af0e6d5f8609e", "is_disabled": 0, "rental_uris": {"android": "https://dc.lft.to/lastmile_qr_scan", "ios": "https://dc.lft.to/lastmile_qr_scan"}, "fusion_lon": 0.0, "lat": 38.91842233333333, "bike_id": "c311ba98cb9e2887833af0e6d5f8609e", "type": "electric_scooter", "is_reserved": 0, "lon": -77.02426716666666}, {"fusion_lat": 0.0, "name": "3cae2473cf613c68ea2a3eb4a2972fc9", "is_disabled": 0, "rental_uris": {"android": "https://dc.lft.to/lastmile_qr_scan", "ios": "https://dc.lft.to/lastmile_qr_scan"}, "fusion_lon": 0.0, "lat": 38.962348666666664, "bike_id": "3cae2473cf613c68ea2a3eb4a2972fc9", "type": "electric_bike", "is_reserved": 0, "lon": -76.92760116666666}, {"fusion_lat": 0.0, "name": "9a91fc8aa6b9418fbd28eb98bf0fe403", "is_disabled": 0, "rental_uris": {"android": "https://dc.lft.to/lastmile_qr_scan", "ios": "https://dc.lft.to/lastmile_qr_scan"}, "fusion_lon": 0.0, "lat": 38.902738, "bike_id": "9a91fc8aa6b9418fbd28eb98bf0fe403", "type": "electric_scooter", "is_reserved": 0, "lon": -77.01867}, {"fusion_lat": 0.0, "name": "738c23b69d53d1f68a6cbcd80582415a", "is_disabled": 0, "rental_uris": {"android": "https://dc.lft.to/lastmile_qr_scan", "ios": "https://dc.lft.to/lastmile_qr_scan"}, "fusion_lon": 0.0, "lat": 38.897356333333335, "bike_id": "738c23b69d53d1f68a6cbcd80582415a", "type": "electric_scooter", "is_reserved": 0, "lon": -77.0485895}, {"fusion_lat": 0.0, "name": "7caf2c2e634ea1fd151b84140e7f459c", "is_disabled": 0, "rental_uris": {"android": "https://dc.lft.to/lastmile_qr_scan", "ios": "https://dc.lft.to/lastmile_qr_scan"}, "fusion_lon": 0.0, "lat": 38.91065066666667, "bike_id": "7caf2c2e634ea1fd151b84140e7f459c", "type": "electric_scooter", "is_reserved": 0, "lon": -77.00472233333333}, {"fusion_lat": 0.0, "name": "9041f64fc532210b57b25d2ce2044ea0", "is_disabled": 0, "rental_uris": {"android": "https://dc.lft.to/lastmile_qr_scan", "ios": "https://dc.lft.to/lastmile_qr_scan"}, "fusion_lon": 0.0, "lat": 38.9057605, "bike_id": "9041f64fc532210b57b25d2ce2044ea0", "type": "electric_scooter", "is_reserved": 0, "lon": -77.02200533333334}, {"fusion_lat": 0.0, "name": "c094af76a985c2eaf1430e6257957109", "is_disabled": 0, "rental_uris": {"android": "https://dc.lft.to/lastmile_qr_scan", "ios": "https://dc.lft.to/lastmile_qr_scan"}, "fusion_lon": 0.0, "lat": 38.931864833333336, "bike_id": "c094af76a985c2eaf1430e6257957109", "type": "electric_scooter", "is_reserved": 0, "lon": -77.0196525}, {"fusion_lat": 0.0, "name": "30d92db9093909855a53ae0d26a6a65a", "is_disabled": 0, "rental_uris": {"android": "https://dc.lft.to/lastmile_qr_scan", "ios": "https://dc.lft.to/lastmile_qr_scan"}, "fusion_lon": 0.0, "lat": 38.90522966666666, "bike_id": "30d92db9093909855a53ae0d26a6a65a", "type": "electric_scooter", "is_reserved": 0, "lon": -77.06102916666667}, {"fusion_lat": 0.0, "name": "1acf45f73d4b70caa96d4cec33be30ed", "is_disabled": 0, "rental_uris": {"android": "https://dc.lft.to/lastmile_qr_scan", "ios": "https://dc.lft.to/lastmile_qr_scan"}, "fusion_lon": 0.0, "lat": 38.8794115, "bike_id": "1acf45f73d4b70caa96d4cec33be30ed", "type": "electric_scooter", "is_reserved": 0, "lon": -77.0042005}, {"fusion_lat": 0.0, "name": "4fc3add9edaed17c3ddf34402f3ea614", "is_disabled": 0, "rental_uris": {"android": "https://dc.lft.to/lastmile_qr_scan", "ios": "https://dc.lft.to/lastmile_qr_scan"}, "fusion_lon": 0.0, "lat": 38.95243216666667, "bike_id": "4fc3add9edaed17c3ddf34402f3ea614", "type": "electric_scooter", "is_reserved": 0, "lon": -77.02378933333334}, {"fusion_lat": 0.0, "name": "d50aaa535bbb5b39aea071c8d49e057c", "is_disabled": 0, "rental_uris": {"android": "https://dc.lft.to/lastmile_qr_scan", "ios": "https://dc.lft.to/lastmile_qr_scan"}, "fusion_lon": 0.0, "lat": 38.89222733333333, "bike_id": "d50aaa535bbb5b39aea071c8d49e057c", "type": "electric_scooter", "is_reserved": 0, "lon": -77.04509983333334}, {"fusion_lat": 0.0, "name": "d7e0f7d230e54ce8f01ff55f078df1f4", "is_disabled": 0, "rental_uris": {"android": "https://dc.lft.to/lastmile_qr_scan", "ios": "https://dc.lft.to/lastmile_qr_scan"}, "fusion_lon": 0.0, "lat": 38.88516466666667, "bike_id": "d7e0f7d230e54ce8f01ff55f078df1f4", "type": "electric_scooter", "is_reserved": 0, "lon": -76.99748066666666}, {"fusion_lat": 0.0, "name": "c94633d8d24b3c81bb5c1b30d1b69f16", "is_disabled": 0, "rental_uris": {"android": "https://dc.lft.to/lastmile_qr_scan", "ios": "https://dc.lft.to/lastmile_qr_scan"}, "fusion_lon": 0.0, "lat": 38.92683666666667, "bike_id": "c94633d8d24b3c81bb5c1b30d1b69f16", "type": "electric_scooter", "is_reserved": 0, "lon": -77.03090566666667}, {"fusion_lat": 0.0, "name": "efe78a80f34c292791f1575df580789b", "is_disabled": 0, "rental_uris": {"android": "https://dc.lft.to/lastmile_qr_scan", "ios": "https://dc.lft.to/lastmile_qr_scan"}, "fusion_lon": 0.0, "lat": 38.9192035, "bike_id": "efe78a80f34c292791f1575df580789b", "type": "electric_scooter", "is_reserved": 0, "lon": -77.0261645}, {"fusion_lat": 0.0, "name": "e5a8e58829ebc12e9df91400285ae18a", "is_disabled": 0, "rental_uris": {"android": "https://dc.lft.to/lastmile_qr_scan", "ios": "https://dc.lft.to/lastmile_qr_scan"}, "fusion_lon": 0.0, "lat": 38.913829166666666, "bike_id": "e5a8e58829ebc12e9df91400285ae18a", "type": "electric_scooter", "is_reserved": 0, "lon": -77.01804016666667}, {"fusion_lat": 0.0, "name": "017629ec2b3d51fa05c546ca6cd2e523", "is_disabled": 0, "rental_uris": {"android": "https://dc.lft.to/lastmile_qr_scan", "ios": "https://dc.lft.to/lastmile_qr_scan"}, "fusion_lon": 0.0, "lat": 38.906901500000004, "bike_id": "017629ec2b3d51fa05c546ca6cd2e523", "type": "electric_scooter", "is_reserved": 0, "lon": -77.03728366666667}, {"fusion_lat": 0.0, "name": "45c4274e83eb7d3418046fa0eb384c25", "is_disabled": 0, "rental_uris": {"android": "https://dc.lft.to/lastmile_qr_scan", "ios": "https://dc.lft.to/lastmile_qr_scan"}, "fusion_lon": 0.0, "lat": 38.92973683333334, "bike_id": "45c4274e83eb7d3418046fa0eb384c25", "type": "electric_scooter", "is_reserved": 0, "lon": -77.0418555}, {"fusion_lat": 0.0, "name": "d3997197aad246d153f04ee39ca5857e", "is_disabled": 0, "rental_uris": {"android": "https://dc.lft.to/lastmile_qr_scan", "ios": "https://dc.lft.to/lastmile_qr_scan"}, "fusion_lon": 0.0, "lat": 38.924582666666666, "bike_id": "d3997197aad246d153f04ee39ca5857e", "type": "electric_scooter", "is_reserved": 0, "lon": -77.08032216666666}, {"fusion_lat": 0.0, "name": "55b4994c992d9a9548cbd5389dec16d1", "is_disabled": 0, "rental_uris": {"android": "https://dc.lft.to/lastmile_qr_scan", "ios": "https://dc.lft.to/lastmile_qr_scan"}, "fusion_lon": 0.0, "lat": 38.89262683333333, "bike_id": "55b4994c992d9a9548cbd5389dec16d1", "type": "electric_bike", "is_reserved": 0, "lon": -76.95120983333334}, {"fusion_lat": 0.0, "name": "5f311d21f8e1538b4ee62f42e948edd8", "is_disabled": 0, "rental_uris": {"android": "https://dc.lft.to/lastmile_qr_scan", "ios": "https://dc.lft.to/lastmile_qr_scan"}, "fusion_lon": 0.0, "lat": 38.90725233333333, "bike_id": "5f311d21f8e1538b4ee62f42e948edd8", "type": "electric_scooter", "is_reserved": 0, "lon": -77.01097166666666}, {"fusion_lat": 0.0, "name": "45fb665842e872fbb2de18f1ef206f84", "is_disabled": 0, "rental_uris": {"android": "https://dc.lft.to/lastmile_qr_scan", "ios": "https://dc.lft.to/lastmile_qr_scan"}, "fusion_lon": 0.0, "lat": 38.92950883333334, "bike_id": "45fb665842e872fbb2de18f1ef206f84", "type": "electric_scooter", "is_reserved": 0, "lon": -77.03471566666667}, {"fusion_lat": 0.0, "name": "8f65ee8fd284c65b9cd0c48e8321a073", "is_disabled": 0, "rental_uris": {"android": "https://dc.lft.to/lastmile_qr_scan", "ios": "https://dc.lft.to/lastmile_qr_scan"}, "fusion_lon": 0.0, "lat": 38.9026265, "bike_id": "8f65ee8fd284c65b9cd0c48e8321a073", "type": "electric_scooter", "is_reserved": 0, "lon": -77.03371416666667}, {"fusion_lat": 0.0, "name": "25bb05ce6899e95458288fb788adbfc0", "is_disabled": 0, "rental_uris": {"android": "https://dc.lft.to/lastmile_qr_scan", "ios": "https://dc.lft.to/lastmile_qr_scan"}, "fusion_lon": 0.0, "lat": 38.892976, "bike_id": "25bb05ce6899e95458288fb788adbfc0", "type": "electric_scooter", "is_reserved": 0, "lon": -77.04654333333333}, {"fusion_lat": 0.0, "name": "0758b69f7cf9ec156fef35b679ffadd6", "is_disabled": 0, "rental_uris": {"android": "https://dc.lft.to/lastmile_qr_scan", "ios": "https://dc.lft.to/lastmile_qr_scan"}, "fusion_lon": 0.0, "lat": 38.842807, "bike_id": "0758b69f7cf9ec156fef35b679ffadd6", "type": "electric_bike", "is_reserved": 0, "lon": -77.045009}, {"fusion_lat": 0.0, "name": "9a9012ece8853cb18b48c80489016354", "is_disabled": 0, "rental_uris": {"android": "https://dc.lft.to/lastmile_qr_scan", "ios": "https://dc.lft.to/lastmile_qr_scan"}, "fusion_lon": 0.0, "lat": 38.89559916666666, "bike_id": "9a9012ece8853cb18b48c80489016354", "type": "electric_bike", "is_reserved": 0, "lon": -77.1273895}, {"fusion_lat": 0.0, "name": "aa49bbee9517fb0d05b7207c96db292a", "is_disabled": 0, "rental_uris": {"android": "https://dc.lft.to/lastmile_qr_scan", "ios": "https://dc.lft.to/lastmile_qr_scan"}, "fusion_lon": 0.0, "lat": 38.9113565, "bike_id": "aa49bbee9517fb0d05b7207c96db292a", "type": "electric_scooter", "is_reserved": 0, "lon": -77.01052516666667}, {"fusion_lat": 0.0, "name": "a1c714c1adcaf3431c6f02cbdc1a24df", "is_disabled": 0, "rental_uris": {"android": "https://dc.lft.to/lastmile_qr_scan", "ios": "https://dc.lft.to/lastmile_qr_scan"}, "fusion_lon": 0.0, "lat": 38.853071, "bike_id": "a1c714c1adcaf3431c6f02cbdc1a24df", "type": "electric_bike", "is_reserved": 0, "lon": -77.04597166666667}, {"fusion_lat": 0.0, "name": "2b55a1511ca924421a0411083b2ee702", "is_disabled": 0, "rental_uris": {"android": "https://dc.lft.to/lastmile_qr_scan", "ios": "https://dc.lft.to/lastmile_qr_scan"}, "fusion_lon": 0.0, "lat": 38.90700016666667, "bike_id": "2b55a1511ca924421a0411083b2ee702", "type": "electric_scooter", "is_reserved": 0, "lon": -77.01027316666666}, {"fusion_lat": 0.0, "name": "fcbdf4cc8a2edc858f6c90e0341c2343", "is_disabled": 0, "rental_uris": {"android": "https://dc.lft.to/lastmile_qr_scan", "ios": "https://dc.lft.to/lastmile_qr_scan"}, "fusion_lon": 0.0, "lat": 38.916889833333336, "bike_id": "fcbdf4cc8a2edc858f6c90e0341c2343", "type": "electric_scooter", "is_reserved": 0, "lon": -77.034773}, {"fusion_lat": 0.0, "name": "f5932a9ce938bc5eae22a53b2937f6dc", "is_disabled": 0, "rental_uris": {"android": "https://dc.lft.to/lastmile_qr_scan", "ios": "https://dc.lft.to/lastmile_qr_scan"}, "fusion_lon": 0.0, "lat": 38.926910666666664, "bike_id": "f5932a9ce938bc5eae22a53b2937f6dc", "type": "electric_scooter", "is_reserved": 0, "lon": -77.00778833333334}, {"fusion_lat": 0.0, "name": "3a8e8cc867085d4553c5b14cd7f70bc1", "is_disabled": 0, "rental_uris": {"android": "https://dc.lft.to/lastmile_qr_scan", "ios": "https://dc.lft.to/lastmile_qr_scan"}, "fusion_lon": 0.0, "lat": 38.925399, "bike_id": "3a8e8cc867085d4553c5b14cd7f70bc1", "type": "electric_scooter", "is_reserved": 0, "lon": -77.05125133333334}, {"fusion_lat": 0.0, "name": "19a7f263f14cc937005b821475db3a69", "is_disabled": 0, "rental_uris": {"android": "https://dc.lft.to/lastmile_qr_scan", "ios": "https://dc.lft.to/lastmile_qr_scan"}, "fusion_lon": 0.0, "lat": 38.922532333333336, "bike_id": "19a7f263f14cc937005b821475db3a69", "type": "electric_scooter", "is_reserved": 0, "lon": -77.05085066666666}, {"fusion_lat": 0.0, "name": "a37cf9aab16c784cebe33bb49dcbc008", "is_disabled": 0, "rental_uris": {"android": "https://dc.lft.to/lastmile_qr_scan", "ios": "https://dc.lft.to/lastmile_qr_scan"}, "fusion_lon": 0.0, "lat": 38.9171, "bike_id": "a37cf9aab16c784cebe33bb49dcbc008", "type": "electric_scooter", "is_reserved": 0, "lon": -77.02878283333334}, {"fusion_lat": 0.0, "name": "4d55859d7eea1c7bf79b5ea1b67f1a87", "is_disabled": 0, "rental_uris": {"android": "https://dc.lft.to/lastmile_qr_scan", "ios": "https://dc.lft.to/lastmile_qr_scan"}, "fusion_lon": 0.0, "lat": 38.92901466666667, "bike_id": "4d55859d7eea1c7bf79b5ea1b67f1a87", "type": "electric_scooter", "is_reserved": 0, "lon": -77.05454166666667}, {"fusion_lat": 0.0, "name": "df4a5266fe48ebf49ff6750198082614", "is_disabled": 0, "rental_uris": {"android": "https://dc.lft.to/lastmile_qr_scan", "ios": "https://dc.lft.to/lastmile_qr_scan"}, "fusion_lon": 0.0, "lat": 38.88756433333333, "bike_id": "df4a5266fe48ebf49ff6750198082614", "type": "electric_scooter", "is_reserved": 0, "lon": -77.00258733333334}, {"fusion_lat": 0.0, "name": "6e4935d48bc9bca7a8e7d9c715bd2ab6", "is_disabled": 0, "rental_uris": {"android": "https://dc.lft.to/lastmile_qr_scan", "ios": "https://dc.lft.to/lastmile_qr_scan"}, "fusion_lon": 0.0, "lat": 38.90408433333333, "bike_id": "6e4935d48bc9bca7a8e7d9c715bd2ab6", "type": "electric_scooter", "is_reserved": 0, "lon": -76.9733285}, {"fusion_lat": 0.0, "name": "01a78bdbb68fbafa2f4f5cb146bf2a1f", "is_disabled": 0, "rental_uris": {"android": "https://dc.lft.to/lastmile_qr_scan", "ios": "https://dc.lft.to/lastmile_qr_scan"}, "fusion_lon": 0.0, "lat": 38.87635916666667, "bike_id": "01a78bdbb68fbafa2f4f5cb146bf2a1f", "type": "electric_scooter", "is_reserved": 0, "lon": -77.0165795}, {"fusion_lat": 0.0, "name": "71d87605ab076194e7cda194d46fc339", "is_disabled": 0, "rental_uris": {"android": "https://dc.lft.to/lastmile_qr_scan", "ios": "https://dc.lft.to/lastmile_qr_scan"}, "fusion_lon": 0.0, "lat": 38.931854666666666, "bike_id": "71d87605ab076194e7cda194d46fc339", "type": "electric_scooter", "is_reserved": 0, "lon": -77.0429535}, {"fusion_lat": 0.0, "name": "78dac60126c4aa103d4e20e33da63123", "is_disabled": 0, "rental_uris": {"android": "https://dc.lft.to/lastmile_qr_scan", "ios": "https://dc.lft.to/lastmile_qr_scan"}, "fusion_lon": 0.0, "lat": 38.8413635, "bike_id": "78dac60126c4aa103d4e20e33da63123", "type": "electric_bike", "is_reserved": 0, "lon": -76.94761383333334}, {"fusion_lat": 0.0, "name": "210cabaed2f43c5873904bacf6c68cc1", "is_disabled": 0, "rental_uris": {"android": "https://dc.lft.to/lastmile_qr_scan", "ios": "https://dc.lft.to/lastmile_qr_scan"}, "fusion_lon": 0.0, "lat": 38.905605333333334, "bike_id": "210cabaed2f43c5873904bacf6c68cc1", "type": "electric_scooter", "is_reserved": 0, "lon": -77.04650616666666}, {"fusion_lat": 0.0, "name": "8f72ef59ad100c34d7a17f5624e087ee", "is_disabled": 0, "rental_uris": {"android": "https://dc.lft.to/lastmile_qr_scan", "ios": "https://dc.lft.to/lastmile_qr_scan"}, "fusion_lon": 0.0, "lat": 38.905519, "bike_id": "8f72ef59ad100c34d7a17f5624e087ee", "type": "electric_scooter", "is_reserved": 0, "lon": -77.0626025}, {"fusion_lat": 0.0, "name": "56f6d8c60e506a72e77fb40c96367203", "is_disabled": 0, "rental_uris": {"android": "https://dc.lft.to/lastmile_qr_scan", "ios": "https://dc.lft.to/lastmile_qr_scan"}, "fusion_lon": 0.0, "lat": 38.88442716666667, "bike_id": "56f6d8c60e506a72e77fb40c96367203", "type": "electric_scooter", "is_reserved": 0, "lon": -77.02470766666667}, {"fusion_lat": 0.0, "name": "03c1666bb36bedc17e7ed2efde533e70", "is_disabled": 0, "rental_uris": {"android": "https://dc.lft.to/lastmile_qr_scan", "ios": "https://dc.lft.to/lastmile_qr_scan"}, "fusion_lon": 0.0, "lat": 38.887268166666665, "bike_id": "03c1666bb36bedc17e7ed2efde533e70", "type": "electric_scooter", "is_reserved": 0, "lon": -76.98358933333333}, {"fusion_lat": 0.0, "name": "1e49c1a4a1f16809a12e2cffc7a33481", "is_disabled": 0, "rental_uris": {"android": "https://dc.lft.to/lastmile_qr_scan", "ios": "https://dc.lft.to/lastmile_qr_scan"}, "fusion_lon": 0.0, "lat": 38.92389716666667, "bike_id": "1e49c1a4a1f16809a12e2cffc7a33481", "type": "electric_scooter", "is_reserved": 0, "lon": -77.03647066666667}, {"fusion_lat": 0.0, "name": "dbbc2eebc5a00ef4def214bf1d36f299", "is_disabled": 0, "rental_uris": {"android": "https://dc.lft.to/lastmile_qr_scan", "ios": "https://dc.lft.to/lastmile_qr_scan"}, "fusion_lon": 0.0, "lat": 38.931434, "bike_id": "dbbc2eebc5a00ef4def214bf1d36f299", "type": "electric_bike", "is_reserved": 0, "lon": -77.03831916666667}, {"fusion_lat": 0.0, "name": "e93720e45d8774794f7d34972cb70184", "is_disabled": 0, "rental_uris": {"android": "https://dc.lft.to/lastmile_qr_scan", "ios": "https://dc.lft.to/lastmile_qr_scan"}, "fusion_lon": 0.0, "lat": 38.90682833333334, "bike_id": "e93720e45d8774794f7d34972cb70184", "type": "electric_bike", "is_reserved": 0, "lon": -76.944946}, {"fusion_lat": 0.0, "name": "ef7cd73b8ea9ca3b654f3f42285af57b", "is_disabled": 0, "rental_uris": {"android": "https://dc.lft.to/lastmile_qr_scan", "ios": "https://dc.lft.to/lastmile_qr_scan"}, "fusion_lon": 0.0, "lat": 38.9055835, "bike_id": "ef7cd73b8ea9ca3b654f3f42285af57b", "type": "electric_scooter", "is_reserved": 0, "lon": -77.02932016666666}, {"fusion_lat": 0.0, "name": "b30d55302a58afedf6f2e498746925fe", "is_disabled": 0, "rental_uris": {"android": "https://dc.lft.to/lastmile_qr_scan", "ios": "https://dc.lft.to/lastmile_qr_scan"}, "fusion_lon": 0.0, "lat": 38.887621833333334, "bike_id": "b30d55302a58afedf6f2e498746925fe", "type": "electric_scooter", "is_reserved": 0, "lon": -76.97744516666667}, {"fusion_lat": 0.0, "name": "8e544da536f819bda277698ac09b1ee2", "is_disabled": 0, "rental_uris": {"android": "https://dc.lft.to/lastmile_qr_scan", "ios": "https://dc.lft.to/lastmile_qr_scan"}, "fusion_lon": 0.0, "lat": 38.86369883333333, "bike_id": "8e544da536f819bda277698ac09b1ee2", "type": "electric_bike", "is_reserved": 0, "lon": -76.97011516666667}, {"fusion_lat": 0.0, "name": "24b4aa7ef1bab0aae03a8f9166b10efc", "is_disabled": 0, "rental_uris": {"android": "https://dc.lft.to/lastmile_qr_scan", "ios": "https://dc.lft.to/lastmile_qr_scan"}, "fusion_lon": 0.0, "lat": 38.91826016666667, "bike_id": "24b4aa7ef1bab0aae03a8f9166b10efc", "type": "electric_scooter", "is_reserved": 0, "lon": -77.03184983333334}, {"fusion_lat": 0.0, "name": "bb853a9e62e3ea7b134b43e25e4bdfd5", "is_disabled": 0, "rental_uris": {"android": "https://dc.lft.to/lastmile_qr_scan", "ios": "https://dc.lft.to/lastmile_qr_scan"}, "fusion_lon": 0.0, "lat": 38.9376545, "bike_id": "bb853a9e62e3ea7b134b43e25e4bdfd5", "type": "electric_scooter", "is_reserved": 0, "lon": -77.032846}, {"fusion_lat": 0.0, "name": "308059f920bd26b3e225c9b1391b62c1", "is_disabled": 0, "rental_uris": {"android": "https://dc.lft.to/lastmile_qr_scan", "ios": "https://dc.lft.to/lastmile_qr_scan"}, "fusion_lon": 0.0, "lat": 38.89771416666667, "bike_id": "308059f920bd26b3e225c9b1391b62c1", "type": "electric_scooter", "is_reserved": 0, "lon": -77.02509166666667}, {"fusion_lat": 0.0, "name": "d6c4f2db37f544247e1fbc0f86f939ef", "is_disabled": 0, "rental_uris": {"android": "https://dc.lft.to/lastmile_qr_scan", "ios": "https://dc.lft.to/lastmile_qr_scan"}, "fusion_lon": 0.0, "lat": 38.9015645, "bike_id": "d6c4f2db37f544247e1fbc0f86f939ef", "type": "electric_scooter", "is_reserved": 0, "lon": -76.9306915}, {"fusion_lat": 0.0, "name": "569d96aa3f80a9e8f5a3e692deb1479b", "is_disabled": 0, "rental_uris": {"android": "https://dc.lft.to/lastmile_qr_scan", "ios": "https://dc.lft.to/lastmile_qr_scan"}, "fusion_lon": 0.0, "lat": 38.887526, "bike_id": "569d96aa3f80a9e8f5a3e692deb1479b", "type": "electric_scooter", "is_reserved": 0, "lon": -77.031563}, {"fusion_lat": 0.0, "name": "8ae2d748507e0e6db4b7fc820c1fc6e1", "is_disabled": 0, "rental_uris": {"android": "https://dc.lft.to/lastmile_qr_scan", "ios": "https://dc.lft.to/lastmile_qr_scan"}, "fusion_lon": 0.0, "lat": 38.909372, "bike_id": "8ae2d748507e0e6db4b7fc820c1fc6e1", "type": "electric_scooter", "is_reserved": 0, "lon": -77.01845733333333}, {"fusion_lat": 0.0, "name": "6aa14a59a560ac6c2023e588e13b0626", "is_disabled": 0, "rental_uris": {"android": "https://dc.lft.to/lastmile_qr_scan", "ios": "https://dc.lft.to/lastmile_qr_scan"}, "fusion_lon": 0.0, "lat": 38.92079566666666, "bike_id": "6aa14a59a560ac6c2023e588e13b0626", "type": "electric_scooter", "is_reserved": 0, "lon": -77.02303033333334}, {"fusion_lat": 0.0, "name": "4c1466acfe6d27adb079809ca688dd09", "is_disabled": 0, "rental_uris": {"android": "https://dc.lft.to/lastmile_qr_scan", "ios": "https://dc.lft.to/lastmile_qr_scan"}, "fusion_lon": 0.0, "lat": 38.9497795, "bike_id": "4c1466acfe6d27adb079809ca688dd09", "type": "electric_scooter", "is_reserved": 0, "lon": -77.02698383333333}, {"fusion_lat": 0.0, "name": "c7b76c61df4095928758d34401f1271d", "is_disabled": 0, "rental_uris": {"android": "https://dc.lft.to/lastmile_qr_scan", "ios": "https://dc.lft.to/lastmile_qr_scan"}, "fusion_lon": 0.0, "lat": 38.945183166666666, "bike_id": "c7b76c61df4095928758d34401f1271d", "type": "electric_bike", "is_reserved": 0, "lon": -77.00680733333333}, {"fusion_lat": 0.0, "name": "6efccbee3f07dbeb5e4183bdf54b9bdb", "is_disabled": 0, "rental_uris": {"android": "https://dc.lft.to/lastmile_qr_scan", "ios": "https://dc.lft.to/lastmile_qr_scan"}, "fusion_lon": 0.0, "lat": 38.925378333333335, "bike_id": "6efccbee3f07dbeb5e4183bdf54b9bdb", "type": "electric_scooter", "is_reserved": 0, "lon": -77.05119583333334}, {"fusion_lat": 0.0, "name": "1e4820cc92f5d7f57550c2cef421ffa2", "is_disabled": 0, "rental_uris": {"android": "https://dc.lft.to/lastmile_qr_scan", "ios": "https://dc.lft.to/lastmile_qr_scan"}, "fusion_lon": 0.0, "lat": 38.908038833333336, "bike_id": "1e4820cc92f5d7f57550c2cef421ffa2", "type": "electric_bike", "is_reserved": 0, "lon": -77.01886066666667}, {"fusion_lat": 0.0, "name": "dec485c8b5671795c53313f366852501", "is_disabled": 0, "rental_uris": {"android": "https://dc.lft.to/lastmile_qr_scan", "ios": "https://dc.lft.to/lastmile_qr_scan"}, "fusion_lon": 0.0, "lat": 38.9573475, "bike_id": "dec485c8b5671795c53313f366852501", "type": "electric_scooter", "is_reserved": 0, "lon": -77.02404133333333}, {"fusion_lat": 0.0, "name": "12475880066b0bfb533dad04fc3d6814", "is_disabled": 0, "rental_uris": {"android": "https://dc.lft.to/lastmile_qr_scan", "ios": "https://dc.lft.to/lastmile_qr_scan"}, "fusion_lon": 0.0, "lat": 38.87569966666667, "bike_id": "12475880066b0bfb533dad04fc3d6814", "type": "electric_scooter", "is_reserved": 0, "lon": -77.00734666666666}, {"fusion_lat": 0.0, "name": "7a47972afc97a07aaa1fc373e194b4ea", "is_disabled": 0, "rental_uris": {"android": "https://dc.lft.to/lastmile_qr_scan", "ios": "https://dc.lft.to/lastmile_qr_scan"}, "fusion_lon": 0.0, "lat": 38.90635433333333, "bike_id": "7a47972afc97a07aaa1fc373e194b4ea", "type": "electric_scooter", "is_reserved": 0, "lon": -77.02958316666667}, {"fusion_lat": 0.0, "name": "6a1be46ee29b0666aa06d81b13b883cb", "is_disabled": 0, "rental_uris": {"android": "https://dc.lft.to/lastmile_qr_scan", "ios": "https://dc.lft.to/lastmile_qr_scan"}, "fusion_lon": 0.0, "lat": 38.895183, "bike_id": "6a1be46ee29b0666aa06d81b13b883cb", "type": "electric_scooter", "is_reserved": 0, "lon": -76.980819}, {"fusion_lat": 0.0, "name": "33356661f1d2745c0c6fe20e228ef612", "is_disabled": 0, "rental_uris": {"android": "https://dc.lft.to/lastmile_qr_scan", "ios": "https://dc.lft.to/lastmile_qr_scan"}, "fusion_lon": 0.0, "lat": 38.95344583333333, "bike_id": "33356661f1d2745c0c6fe20e228ef612", "type": "electric_scooter", "is_reserved": 0, "lon": -77.0795045}, {"fusion_lat": 0.0, "name": "e3e7cd1707f9cc3af4a5beda635fb424", "is_disabled": 0, "rental_uris": {"android": "https://dc.lft.to/lastmile_qr_scan", "ios": "https://dc.lft.to/lastmile_qr_scan"}, "fusion_lon": 0.0, "lat": 38.935547166666666, "bike_id": "e3e7cd1707f9cc3af4a5beda635fb424", "type": "electric_scooter", "is_reserved": 0, "lon": -77.02227216666667}, {"fusion_lat": 0.0, "name": "3a2e47f8c5efa97d24553db61a5564ae", "is_disabled": 0, "rental_uris": {"android": "https://dc.lft.to/lastmile_qr_scan", "ios": "https://dc.lft.to/lastmile_qr_scan"}, "fusion_lon": 0.0, "lat": 38.959229, "bike_id": "3a2e47f8c5efa97d24553db61a5564ae", "type": "electric_scooter", "is_reserved": 0, "lon": -77.084789}, {"fusion_lat": 0.0, "name": "d33b693db5f9a717d47d6fa74f56da42", "is_disabled": 0, "rental_uris": {"android": "https://dc.lft.to/lastmile_qr_scan", "ios": "https://dc.lft.to/lastmile_qr_scan"}, "fusion_lon": 0.0, "lat": 38.926852833333335, "bike_id": "d33b693db5f9a717d47d6fa74f56da42", "type": "electric_scooter", "is_reserved": 0, "lon": -77.02256433333334}, {"fusion_lat": 0.0, "name": "56fe18e8b3e312444a072af7b16f0bc5", "is_disabled": 0, "rental_uris": {"android": "https://dc.lft.to/lastmile_qr_scan", "ios": "https://dc.lft.to/lastmile_qr_scan"}, "fusion_lon": 0.0, "lat": 38.91645166666667, "bike_id": "56fe18e8b3e312444a072af7b16f0bc5", "type": "electric_bike", "is_reserved": 0, "lon": -76.98220083333334}, {"fusion_lat": 0.0, "name": "419c78b90c5ec62ea86dc706cee5e759", "is_disabled": 0, "rental_uris": {"android": "https://dc.lft.to/lastmile_qr_scan", "ios": "https://dc.lft.to/lastmile_qr_scan"}, "fusion_lon": 0.0, "lat": 38.91117166666667, "bike_id": "419c78b90c5ec62ea86dc706cee5e759", "type": "electric_scooter", "is_reserved": 0, "lon": -76.99770216666667}, {"fusion_lat": 0.0, "name": "d952e28a2542979584b394aae00264ee", "is_disabled": 0, "rental_uris": {"android": "https://dc.lft.to/lastmile_qr_scan", "ios": "https://dc.lft.to/lastmile_qr_scan"}, "fusion_lon": 0.0, "lat": 38.930599, "bike_id": "d952e28a2542979584b394aae00264ee", "type": "electric_scooter", "is_reserved": 0, "lon": -77.0394915}, {"fusion_lat": 0.0, "name": "ba147c4051ac1a67b335879953363a98", "is_disabled": 0, "rental_uris": {"android": "https://dc.lft.to/lastmile_qr_scan", "ios": "https://dc.lft.to/lastmile_qr_scan"}, "fusion_lon": 0.0, "lat": 38.94980283333334, "bike_id": "ba147c4051ac1a67b335879953363a98", "type": "electric_scooter", "is_reserved": 0, "lon": -77.02699083333333}, {"fusion_lat": 0.0, "name": "2024b46555ea81bfd800bfbb7a815ccd", "is_disabled": 0, "rental_uris": {"android": "https://dc.lft.to/lastmile_qr_scan", "ios": "https://dc.lft.to/lastmile_qr_scan"}, "fusion_lon": 0.0, "lat": 38.8685195, "bike_id": "2024b46555ea81bfd800bfbb7a815ccd", "type": "electric_scooter", "is_reserved": 0, "lon": -76.9883075}, {"fusion_lat": 0.0, "name": "68fb53814f3d3e474739ebd3f7592634", "is_disabled": 0, "rental_uris": {"android": "https://dc.lft.to/lastmile_qr_scan", "ios": "https://dc.lft.to/lastmile_qr_scan"}, "fusion_lon": 0.0, "lat": 38.91655816666667, "bike_id": "68fb53814f3d3e474739ebd3f7592634", "type": "electric_scooter", "is_reserved": 0, "lon": -77.02798366666667}, {"fusion_lat": 0.0, "name": "647febd6b1feab8b50009a9a54dc4aff", "is_disabled": 0, "rental_uris": {"android": "https://dc.lft.to/lastmile_qr_scan", "ios": "https://dc.lft.to/lastmile_qr_scan"}, "fusion_lon": 0.0, "lat": 38.91323783333333, "bike_id": "647febd6b1feab8b50009a9a54dc4aff", "type": "electric_scooter", "is_reserved": 0, "lon": -77.045322}, {"fusion_lat": 0.0, "name": "2778a8a6221e9e5aef5fa4528cc00e5e", "is_disabled": 0, "rental_uris": {"android": "https://dc.lft.to/lastmile_qr_scan", "ios": "https://dc.lft.to/lastmile_qr_scan"}, "fusion_lon": 0.0, "lat": 38.91343483333333, "bike_id": "2778a8a6221e9e5aef5fa4528cc00e5e", "type": "electric_scooter", "is_reserved": 0, "lon": -77.0218545}, {"fusion_lat": 0.0, "name": "41cfc137051e72285b8e3b5f0b79a8d7", "is_disabled": 0, "rental_uris": {"android": "https://dc.lft.to/lastmile_qr_scan", "ios": "https://dc.lft.to/lastmile_qr_scan"}, "fusion_lon": 0.0, "lat": 38.90244766666667, "bike_id": "41cfc137051e72285b8e3b5f0b79a8d7", "type": "electric_scooter", "is_reserved": 0, "lon": -77.05342783333333}, {"fusion_lat": 0.0, "name": "64265977eb543728d4430e5421f6ad05", "is_disabled": 0, "rental_uris": {"android": "https://dc.lft.to/lastmile_qr_scan", "ios": "https://dc.lft.to/lastmile_qr_scan"}, "fusion_lon": 0.0, "lat": 38.905174, "bike_id": "64265977eb543728d4430e5421f6ad05", "type": "electric_scooter", "is_reserved": 0, "lon": -77.05141016666667}, {"fusion_lat": 0.0, "name": "bf28b6d5bb5d1a8a9be96796cd5b2ef5", "is_disabled": 0, "rental_uris": {"android": "https://dc.lft.to/lastmile_qr_scan", "ios": "https://dc.lft.to/lastmile_qr_scan"}, "fusion_lon": 0.0, "lat": 38.928731, "bike_id": "bf28b6d5bb5d1a8a9be96796cd5b2ef5", "type": "electric_scooter", "is_reserved": 0, "lon": -77.01356916666667}, {"fusion_lat": 0.0, "name": "9ca36c62d3109d0d36e44a8804dc3051", "is_disabled": 0, "rental_uris": {"android": "https://dc.lft.to/lastmile_qr_scan", "ios": "https://dc.lft.to/lastmile_qr_scan"}, "fusion_lon": 0.0, "lat": 38.91628566666667, "bike_id": "9ca36c62d3109d0d36e44a8804dc3051", "type": "electric_scooter", "is_reserved": 0, "lon": -77.03139966666667}, {"fusion_lat": 0.0, "name": "a45b8ed1125139e20d640bae9d77196f", "is_disabled": 0, "rental_uris": {"android": "https://dc.lft.to/lastmile_qr_scan", "ios": "https://dc.lft.to/lastmile_qr_scan"}, "fusion_lon": 0.0, "lat": 38.90197216666667, "bike_id": "a45b8ed1125139e20d640bae9d77196f", "type": "electric_scooter", "is_reserved": 0, "lon": -76.9785945}, {"fusion_lat": 0.0, "name": "a9f7da82020b0c279aaf3780c11fa794", "is_disabled": 0, "rental_uris": {"android": "https://dc.lft.to/lastmile_qr_scan", "ios": "https://dc.lft.to/lastmile_qr_scan"}, "fusion_lon": 0.0, "lat": 38.93320333333333, "bike_id": "a9f7da82020b0c279aaf3780c11fa794", "type": "electric_scooter", "is_reserved": 0, "lon": -77.02748766666667}, {"fusion_lat": 0.0, "name": "166d3b23ee6bc33d50c5b23db9e9d666", "is_disabled": 0, "rental_uris": {"android": "https://dc.lft.to/lastmile_qr_scan", "ios": "https://dc.lft.to/lastmile_qr_scan"}, "fusion_lon": 0.0, "lat": 38.88637133333334, "bike_id": "166d3b23ee6bc33d50c5b23db9e9d666", "type": "electric_scooter", "is_reserved": 0, "lon": -77.01948016666667}, {"fusion_lat": 0.0, "name": "939c309c02468e2a1c8fa6e246937c59", "is_disabled": 0, "rental_uris": {"android": "https://dc.lft.to/lastmile_qr_scan", "ios": "https://dc.lft.to/lastmile_qr_scan"}, "fusion_lon": 0.0, "lat": 38.88612283333333, "bike_id": "939c309c02468e2a1c8fa6e246937c59", "type": "electric_scooter", "is_reserved": 0, "lon": -77.01251883333333}, {"fusion_lat": 0.0, "name": "9daa575b8f5d5df06e8bbc069ba6d9fd", "is_disabled": 0, "rental_uris": {"android": "https://dc.lft.to/lastmile_qr_scan", "ios": "https://dc.lft.to/lastmile_qr_scan"}, "fusion_lon": 0.0, "lat": 38.93494416666667, "bike_id": "9daa575b8f5d5df06e8bbc069ba6d9fd", "type": "electric_scooter", "is_reserved": 0, "lon": -77.03625216666667}, {"fusion_lat": 0.0, "name": "de215a7e252f62489870068507f3bb89", "is_disabled": 0, "rental_uris": {"android": "https://dc.lft.to/lastmile_qr_scan", "ios": "https://dc.lft.to/lastmile_qr_scan"}, "fusion_lon": 0.0, "lat": 38.892304333333335, "bike_id": "de215a7e252f62489870068507f3bb89", "type": "electric_scooter", "is_reserved": 0, "lon": -77.046569}, {"fusion_lat": 0.0, "name": "673377dbcc57837950fdc89589b0d27d", "is_disabled": 0, "rental_uris": {"android": "https://dc.lft.to/lastmile_qr_scan", "ios": "https://dc.lft.to/lastmile_qr_scan"}, "fusion_lon": 0.0, "lat": 38.92201383333333, "bike_id": "673377dbcc57837950fdc89589b0d27d", "type": "electric_scooter", "is_reserved": 0, "lon": -77.08084833333334}, {"fusion_lat": 0.0, "name": "04018683e636b89aeb38ad3cffe58706", "is_disabled": 0, "rental_uris": {"android": "https://dc.lft.to/lastmile_qr_scan", "ios": "https://dc.lft.to/lastmile_qr_scan"}, "fusion_lon": 0.0, "lat": 38.95738516666667, "bike_id": "04018683e636b89aeb38ad3cffe58706", "type": "electric_bike", "is_reserved": 0, "lon": -76.98083266666667}, {"fusion_lat": 0.0, "name": "ae922c4e975be7667b3735cde77ce7e7", "is_disabled": 0, "rental_uris": {"android": "https://dc.lft.to/lastmile_qr_scan", "ios": "https://dc.lft.to/lastmile_qr_scan"}, "fusion_lon": 0.0, "lat": 38.899030833333335, "bike_id": "ae922c4e975be7667b3735cde77ce7e7", "type": "electric_scooter", "is_reserved": 0, "lon": -76.9334815}, {"fusion_lat": 0.0, "name": "14df7d082e6bf34b1ae13e52106d4191", "is_disabled": 0, "rental_uris": {"android": "https://dc.lft.to/lastmile_qr_scan", "ios": "https://dc.lft.to/lastmile_qr_scan"}, "fusion_lon": 0.0, "lat": 38.936113166666665, "bike_id": "14df7d082e6bf34b1ae13e52106d4191", "type": "electric_scooter", "is_reserved": 0, "lon": -77.03191516666666}, {"fusion_lat": 0.0, "name": "8074a03b81773ea9435b70b9fea44113", "is_disabled": 0, "rental_uris": {"android": "https://dc.lft.to/lastmile_qr_scan", "ios": "https://dc.lft.to/lastmile_qr_scan"}, "fusion_lon": 0.0, "lat": 38.95075883333333, "bike_id": "8074a03b81773ea9435b70b9fea44113", "type": "electric_bike", "is_reserved": 0, "lon": -77.01200533333333}, {"fusion_lat": 0.0, "name": "14ebc1fad36611257292e685ad426b42", "is_disabled": 0, "rental_uris": {"android": "https://dc.lft.to/lastmile_qr_scan", "ios": "https://dc.lft.to/lastmile_qr_scan"}, "fusion_lon": 0.0, "lat": 38.9033725, "bike_id": "14ebc1fad36611257292e685ad426b42", "type": "electric_scooter", "is_reserved": 0, "lon": -77.04677166666667}, {"fusion_lat": 0.0, "name": "0284b4661d678408f673bfe15c31e333", "is_disabled": 0, "rental_uris": {"android": "https://dc.lft.to/lastmile_qr_scan", "ios": "https://dc.lft.to/lastmile_qr_scan"}, "fusion_lon": 0.0, "lat": 38.894801666666666, "bike_id": "0284b4661d678408f673bfe15c31e333", "type": "electric_scooter", "is_reserved": 0, "lon": -77.0217485}, {"fusion_lat": 0.0, "name": "b714477b7ef0eeb45690acc71af0b77d", "is_disabled": 0, "rental_uris": {"android": "https://dc.lft.to/lastmile_qr_scan", "ios": "https://dc.lft.to/lastmile_qr_scan"}, "fusion_lon": 0.0, "lat": 38.926991, "bike_id": "b714477b7ef0eeb45690acc71af0b77d", "type": "electric_scooter", "is_reserved": 0, "lon": -77.02427033333333}, {"fusion_lat": 0.0, "name": "1820508b1d416922f1c72f1220b50b93", "is_disabled": 0, "rental_uris": {"android": "https://dc.lft.to/lastmile_qr_scan", "ios": "https://dc.lft.to/lastmile_qr_scan"}, "fusion_lon": 0.0, "lat": 38.902355, "bike_id": "1820508b1d416922f1c72f1220b50b93", "type": "electric_scooter", "is_reserved": 0, "lon": -77.049069}, {"fusion_lat": 0.0, "name": "89dfb70f60ccdde6be8148e5aab96e36", "is_disabled": 0, "rental_uris": {"android": "https://dc.lft.to/lastmile_qr_scan", "ios": "https://dc.lft.to/lastmile_qr_scan"}, "fusion_lon": 0.0, "lat": 38.93221883333333, "bike_id": "89dfb70f60ccdde6be8148e5aab96e36", "type": "electric_scooter", "is_reserved": 0, "lon": -77.0334775}, {"fusion_lat": 0.0, "name": "d88418fa3ecfa2a65689be602c6bfa3b", "is_disabled": 0, "rental_uris": {"android": "https://dc.lft.to/lastmile_qr_scan", "ios": "https://dc.lft.to/lastmile_qr_scan"}, "fusion_lon": 0.0, "lat": 38.89225, "bike_id": "d88418fa3ecfa2a65689be602c6bfa3b", "type": "electric_scooter", "is_reserved": 0, "lon": -77.046849}, {"fusion_lat": 0.0, "name": "c4fb5799de82947298871e8e5ffccc84", "is_disabled": 0, "rental_uris": {"android": "https://dc.lft.to/lastmile_qr_scan", "ios": "https://dc.lft.to/lastmile_qr_scan"}, "fusion_lon": 0.0, "lat": 38.959658833333336, "bike_id": "c4fb5799de82947298871e8e5ffccc84", "type": "electric_bike", "is_reserved": 0, "lon": -76.9816035}, {"fusion_lat": 0.0, "name": "6f5e2433d16d24023e5a2a269c3bf40a", "is_disabled": 0, "rental_uris": {"android": "https://dc.lft.to/lastmile_qr_scan", "ios": "https://dc.lft.to/lastmile_qr_scan"}, "fusion_lon": 0.0, "lat": 38.92235633333333, "bike_id": "6f5e2433d16d24023e5a2a269c3bf40a", "type": "electric_scooter", "is_reserved": 0, "lon": -77.04248566666666}, {"fusion_lat": 0.0, "name": "478a2e5699ba09795314b833634be389", "is_disabled": 0, "rental_uris": {"android": "https://dc.lft.to/lastmile_qr_scan", "ios": "https://dc.lft.to/lastmile_qr_scan"}, "fusion_lon": 0.0, "lat": 38.9078625, "bike_id": "478a2e5699ba09795314b833634be389", "type": "electric_scooter", "is_reserved": 0, "lon": -77.074323}, {"fusion_lat": 0.0, "name": "960dddd843d2105ec3f1d70679e7354b", "is_disabled": 0, "rental_uris": {"android": "https://dc.lft.to/lastmile_qr_scan", "ios": "https://dc.lft.to/lastmile_qr_scan"}, "fusion_lon": 0.0, "lat": 38.938611333333334, "bike_id": "960dddd843d2105ec3f1d70679e7354b", "type": "electric_scooter", "is_reserved": 0, "lon": -77.024539}, {"fusion_lat": 0.0, "name": "353c99d3115ce1cc633f5ddcdb701cc1", "is_disabled": 0, "rental_uris": {"android": "https://dc.lft.to/lastmile_qr_scan", "ios": "https://dc.lft.to/lastmile_qr_scan"}, "fusion_lon": 0.0, "lat": 38.89753283333334, "bike_id": "353c99d3115ce1cc633f5ddcdb701cc1", "type": "electric_scooter", "is_reserved": 0, "lon": -77.02735433333334}, {"fusion_lat": 0.0, "name": "55788b57a467daf499426497f78a4c6c", "is_disabled": 0, "rental_uris": {"android": "https://dc.lft.to/lastmile_qr_scan", "ios": "https://dc.lft.to/lastmile_qr_scan"}, "fusion_lon": 0.0, "lat": 38.88736083333333, "bike_id": "55788b57a467daf499426497f78a4c6c", "type": "electric_scooter", "is_reserved": 0, "lon": -77.01740683333334}, {"fusion_lat": 0.0, "name": "e455b465c26e307085d2f0f5db51185f", "is_disabled": 0, "rental_uris": {"android": "https://dc.lft.to/lastmile_qr_scan", "ios": "https://dc.lft.to/lastmile_qr_scan"}, "fusion_lon": 0.0, "lat": 38.90500266666667, "bike_id": "e455b465c26e307085d2f0f5db51185f", "type": "electric_scooter", "is_reserved": 0, "lon": -76.99683116666667}, {"fusion_lat": 0.0, "name": "61ad7c455466aa0f4bce2a7a26be8b60", "is_disabled": 0, "rental_uris": {"android": "https://dc.lft.to/lastmile_qr_scan", "ios": "https://dc.lft.to/lastmile_qr_scan"}, "fusion_lon": 0.0, "lat": 38.90215166666667, "bike_id": "61ad7c455466aa0f4bce2a7a26be8b60", "type": "electric_scooter", "is_reserved": 0, "lon": -76.99515616666666}, {"fusion_lat": 0.0, "name": "4f7b4d2e57b650bf6bb42dabc2d08f03", "is_disabled": 0, "rental_uris": {"android": "https://dc.lft.to/lastmile_qr_scan", "ios": "https://dc.lft.to/lastmile_qr_scan"}, "fusion_lon": 0.0, "lat": 38.87475583333333, "bike_id": "4f7b4d2e57b650bf6bb42dabc2d08f03", "type": "electric_scooter", "is_reserved": 0, "lon": -77.01706633333333}, {"fusion_lat": 0.0, "name": "55193bf0aef36fe57fee80bf80632399", "is_disabled": 0, "rental_uris": {"android": "https://dc.lft.to/lastmile_qr_scan", "ios": "https://dc.lft.to/lastmile_qr_scan"}, "fusion_lon": 0.0, "lat": 38.90232066666667, "bike_id": "55193bf0aef36fe57fee80bf80632399", "type": "electric_scooter", "is_reserved": 0, "lon": -77.02297383333334}, {"fusion_lat": 0.0, "name": "e3424386adfd50cf6fc18701a18fc92d", "is_disabled": 0, "rental_uris": {"android": "https://dc.lft.to/lastmile_qr_scan", "ios": "https://dc.lft.to/lastmile_qr_scan"}, "fusion_lon": 0.0, "lat": 38.9272975, "bike_id": "e3424386adfd50cf6fc18701a18fc92d", "type": "electric_scooter", "is_reserved": 0, "lon": -77.0270985}, {"fusion_lat": 0.0, "name": "69a2e56b9da42518f97c6f2158fa4e5f", "is_disabled": 0, "rental_uris": {"android": "https://dc.lft.to/lastmile_qr_scan", "ios": "https://dc.lft.to/lastmile_qr_scan"}, "fusion_lon": 0.0, "lat": 38.898753166666665, "bike_id": "69a2e56b9da42518f97c6f2158fa4e5f", "type": "electric_scooter", "is_reserved": 0, "lon": -77.0259985}, {"fusion_lat": 0.0, "name": "c54bf1553cfe8e270923d4a22898d2a5", "is_disabled": 0, "rental_uris": {"android": "https://dc.lft.to/lastmile_qr_scan", "ios": "https://dc.lft.to/lastmile_qr_scan"}, "fusion_lon": 0.0, "lat": 38.940734, "bike_id": "c54bf1553cfe8e270923d4a22898d2a5", "type": "electric_bike", "is_reserved": 0, "lon": -76.99462716666666}, {"fusion_lat": 0.0, "name": "9a805a64622fbb814143f9429392995f", "is_disabled": 0, "rental_uris": {"android": "https://dc.lft.to/lastmile_qr_scan", "ios": "https://dc.lft.to/lastmile_qr_scan"}, "fusion_lon": 0.0, "lat": 38.9324115, "bike_id": "9a805a64622fbb814143f9429392995f", "type": "electric_scooter", "is_reserved": 0, "lon": -77.03868}, {"fusion_lat": 0.0, "name": "df98343da43bd7353664a7d28bd0f77b", "is_disabled": 0, "rental_uris": {"android": "https://dc.lft.to/lastmile_qr_scan", "ios": "https://dc.lft.to/lastmile_qr_scan"}, "fusion_lon": 0.0, "lat": 38.938074666666665, "bike_id": "df98343da43bd7353664a7d28bd0f77b", "type": "electric_scooter", "is_reserved": 0, "lon": -77.0601715}, {"fusion_lat": 0.0, "name": "abe89358b90b12f058b7071040a6ab4f", "is_disabled": 0, "rental_uris": {"android": "https://dc.lft.to/lastmile_qr_scan", "ios": "https://dc.lft.to/lastmile_qr_scan"}, "fusion_lon": 0.0, "lat": 38.865129, "bike_id": "abe89358b90b12f058b7071040a6ab4f", "type": "electric_bike", "is_reserved": 0, "lon": -77.1293975}, {"fusion_lat": 0.0, "name": "91e7c824c8a569185e527ca7489b2163", "is_disabled": 0, "rental_uris": {"android": "https://dc.lft.to/lastmile_qr_scan", "ios": "https://dc.lft.to/lastmile_qr_scan"}, "fusion_lon": 0.0, "lat": 38.9156995, "bike_id": "91e7c824c8a569185e527ca7489b2163", "type": "electric_scooter", "is_reserved": 0, "lon": -77.04155}, {"fusion_lat": 0.0, "name": "cbb8c62a1ae054737b2c490f40da916f", "is_disabled": 0, "rental_uris": {"android": "https://dc.lft.to/lastmile_qr_scan", "ios": "https://dc.lft.to/lastmile_qr_scan"}, "fusion_lon": 0.0, "lat": 38.9231615, "bike_id": "cbb8c62a1ae054737b2c490f40da916f", "type": "electric_scooter", "is_reserved": 0, "lon": -77.05608883333333}, {"fusion_lat": 0.0, "name": "cc689b2b163c0fdc558358d5c91d7034", "is_disabled": 0, "rental_uris": {"android": "https://dc.lft.to/lastmile_qr_scan", "ios": "https://dc.lft.to/lastmile_qr_scan"}, "fusion_lon": 0.0, "lat": 38.930881166666666, "bike_id": "cc689b2b163c0fdc558358d5c91d7034", "type": "electric_scooter", "is_reserved": 0, "lon": -77.02555716666667}, {"fusion_lat": 0.0, "name": "48512c302fe63781eb4b146eb2171e46", "is_disabled": 0, "rental_uris": {"android": "https://dc.lft.to/lastmile_qr_scan", "ios": "https://dc.lft.to/lastmile_qr_scan"}, "fusion_lon": 0.0, "lat": 38.93113433333333, "bike_id": "48512c302fe63781eb4b146eb2171e46", "type": "electric_scooter", "is_reserved": 0, "lon": -77.0212595}, {"fusion_lat": 0.0, "name": "5e47fa053c010cb4ef96df891ac1cecd", "is_disabled": 0, "rental_uris": {"android": "https://dc.lft.to/lastmile_qr_scan", "ios": "https://dc.lft.to/lastmile_qr_scan"}, "fusion_lon": 0.0, "lat": 38.94127233333333, "bike_id": "5e47fa053c010cb4ef96df891ac1cecd", "type": "electric_scooter", "is_reserved": 0, "lon": -77.0264525}, {"fusion_lat": 0.0, "name": "b0b6f95aa935a61ac51e0a793a76b627", "is_disabled": 0, "rental_uris": {"android": "https://dc.lft.to/lastmile_qr_scan", "ios": "https://dc.lft.to/lastmile_qr_scan"}, "fusion_lon": 0.0, "lat": 38.905180666666666, "bike_id": "b0b6f95aa935a61ac51e0a793a76b627", "type": "electric_scooter", "is_reserved": 0, "lon": -77.06499733333334}, {"fusion_lat": 0.0, "name": "576971fb05b95716a8286c7e9a1f0666", "is_disabled": 0, "rental_uris": {"android": "https://dc.lft.to/lastmile_qr_scan", "ios": "https://dc.lft.to/lastmile_qr_scan"}, "fusion_lon": 0.0, "lat": 38.881182, "bike_id": "576971fb05b95716a8286c7e9a1f0666", "type": "electric_scooter", "is_reserved": 0, "lon": -77.01637066666666}, {"fusion_lat": 0.0, "name": "c94a4617c5efd56c01bb0a435faf97fd", "is_disabled": 0, "rental_uris": {"android": "https://dc.lft.to/lastmile_qr_scan", "ios": "https://dc.lft.to/lastmile_qr_scan"}, "fusion_lon": 0.0, "lat": 38.9028965, "bike_id": "c94a4617c5efd56c01bb0a435faf97fd", "type": "electric_scooter", "is_reserved": 0, "lon": -76.97636983333334}, {"fusion_lat": 0.0, "name": "85d6bcd36f0966969ee362c7b34ad76c", "is_disabled": 0, "rental_uris": {"android": "https://dc.lft.to/lastmile_qr_scan", "ios": "https://dc.lft.to/lastmile_qr_scan"}, "fusion_lon": 0.0, "lat": 38.90146216666667, "bike_id": "85d6bcd36f0966969ee362c7b34ad76c", "type": "electric_scooter", "is_reserved": 0, "lon": -77.030458}, {"fusion_lat": 0.0, "name": "cf4f0cee7f9528f803cecb7e1c5237e0", "is_disabled": 0, "rental_uris": {"android": "https://dc.lft.to/lastmile_qr_scan", "ios": "https://dc.lft.to/lastmile_qr_scan"}, "fusion_lon": 0.0, "lat": 38.80762416666666, "bike_id": "cf4f0cee7f9528f803cecb7e1c5237e0", "type": "electric_bike", "is_reserved": 0, "lon": -77.0946955}, {"fusion_lat": 0.0, "name": "10c89cf9706c0c9247aa34895f1adc90", "is_disabled": 0, "rental_uris": {"android": "https://dc.lft.to/lastmile_qr_scan", "ios": "https://dc.lft.to/lastmile_qr_scan"}, "fusion_lon": 0.0, "lat": 38.916421, "bike_id": "10c89cf9706c0c9247aa34895f1adc90", "type": "electric_scooter", "is_reserved": 0, "lon": -77.031603}, {"fusion_lat": 0.0, "name": "d0a381148e2746ab55096237e6104a89", "is_disabled": 0, "rental_uris": {"android": "https://dc.lft.to/lastmile_qr_scan", "ios": "https://dc.lft.to/lastmile_qr_scan"}, "fusion_lon": 0.0, "lat": 38.99781733333333, "bike_id": "d0a381148e2746ab55096237e6104a89", "type": "electric_bike", "is_reserved": 0, "lon": -77.047204}, {"fusion_lat": 0.0, "name": "720cb0ff8536b68c06e66eef051436cb", "is_disabled": 0, "rental_uris": {"android": "https://dc.lft.to/lastmile_qr_scan", "ios": "https://dc.lft.to/lastmile_qr_scan"}, "fusion_lon": 0.0, "lat": 38.9263665, "bike_id": "720cb0ff8536b68c06e66eef051436cb", "type": "electric_scooter", "is_reserved": 0, "lon": -77.03232583333333}, {"fusion_lat": 0.0, "name": "578378ca15040a994c6bdb0e54cafc36", "is_disabled": 0, "rental_uris": {"android": "https://dc.lft.to/lastmile_qr_scan", "ios": "https://dc.lft.to/lastmile_qr_scan"}, "fusion_lon": 0.0, "lat": 38.88740883333333, "bike_id": "578378ca15040a994c6bdb0e54cafc36", "type": "electric_scooter", "is_reserved": 0, "lon": -77.0257065}, {"fusion_lat": 0.0, "name": "8fd57f81cc68971f8f1784c9fdc78be1", "is_disabled": 0, "rental_uris": {"android": "https://dc.lft.to/lastmile_qr_scan", "ios": "https://dc.lft.to/lastmile_qr_scan"}, "fusion_lon": 0.0, "lat": 38.92413116666667, "bike_id": "8fd57f81cc68971f8f1784c9fdc78be1", "type": "electric_scooter", "is_reserved": 0, "lon": -77.02108666666666}, {"fusion_lat": 0.0, "name": "ebc94644668638f6b9b412befc0be698", "is_disabled": 0, "rental_uris": {"android": "https://dc.lft.to/lastmile_qr_scan", "ios": "https://dc.lft.to/lastmile_qr_scan"}, "fusion_lon": 0.0, "lat": 38.9216475, "bike_id": "ebc94644668638f6b9b412befc0be698", "type": "electric_scooter", "is_reserved": 0, "lon": -77.04002733333333}, {"fusion_lat": 0.0, "name": "040bac0d148359b959bddf9e63829ba6", "is_disabled": 0, "rental_uris": {"android": "https://dc.lft.to/lastmile_qr_scan", "ios": "https://dc.lft.to/lastmile_qr_scan"}, "fusion_lon": 0.0, "lat": 38.905825, "bike_id": "040bac0d148359b959bddf9e63829ba6", "type": "electric_scooter", "is_reserved": 0, "lon": -77.022079}, {"fusion_lat": 0.0, "name": "398fe3017cc2b929b134bacbd3998866", "is_disabled": 0, "rental_uris": {"android": "https://dc.lft.to/lastmile_qr_scan", "ios": "https://dc.lft.to/lastmile_qr_scan"}, "fusion_lon": 0.0, "lat": 38.9055255, "bike_id": "398fe3017cc2b929b134bacbd3998866", "type": "electric_scooter", "is_reserved": 0, "lon": -77.00582633333333}, {"fusion_lat": 0.0, "name": "158eb4059cacf906796f24844d18b23c", "is_disabled": 0, "rental_uris": {"android": "https://dc.lft.to/lastmile_qr_scan", "ios": "https://dc.lft.to/lastmile_qr_scan"}, "fusion_lon": 0.0, "lat": 38.938968833333334, "bike_id": "158eb4059cacf906796f24844d18b23c", "type": "electric_scooter", "is_reserved": 0, "lon": -77.03334133333334}, {"fusion_lat": 0.0, "name": "6cf9c4f25e0ddbde77081730385d8306", "is_disabled": 0, "rental_uris": {"android": "https://dc.lft.to/lastmile_qr_scan", "ios": "https://dc.lft.to/lastmile_qr_scan"}, "fusion_lon": 0.0, "lat": 38.90733133333333, "bike_id": "6cf9c4f25e0ddbde77081730385d8306", "type": "electric_scooter", "is_reserved": 0, "lon": -77.03446616666666}, {"fusion_lat": 0.0, "name": "8cc9a614af0cc3ab8a0d0e6f0c8004fd", "is_disabled": 0, "rental_uris": {"android": "https://dc.lft.to/lastmile_qr_scan", "ios": "https://dc.lft.to/lastmile_qr_scan"}, "fusion_lon": 0.0, "lat": 38.902418833333336, "bike_id": "8cc9a614af0cc3ab8a0d0e6f0c8004fd", "type": "electric_scooter", "is_reserved": 0, "lon": -77.02606816666666}, {"fusion_lat": 0.0, "name": "4ad53163cacfaee494d37699c11d6c13", "is_disabled": 0, "rental_uris": {"android": "https://dc.lft.to/lastmile_qr_scan", "ios": "https://dc.lft.to/lastmile_qr_scan"}, "fusion_lon": 0.0, "lat": 38.971259833333335, "bike_id": "4ad53163cacfaee494d37699c11d6c13", "type": "electric_bike", "is_reserved": 0, "lon": -77.0209215}, {"fusion_lat": 0.0, "name": "271d315d8fb0d012a368b4aa66bf5a5b", "is_disabled": 0, "rental_uris": {"android": "https://dc.lft.to/lastmile_qr_scan", "ios": "https://dc.lft.to/lastmile_qr_scan"}, "fusion_lon": 0.0, "lat": 38.935369, "bike_id": "271d315d8fb0d012a368b4aa66bf5a5b", "type": "electric_scooter", "is_reserved": 0, "lon": -77.02356083333333}, {"fusion_lat": 0.0, "name": "1279961afdbd3f643f88a3166b15ec14", "is_disabled": 0, "rental_uris": {"android": "https://dc.lft.to/lastmile_qr_scan", "ios": "https://dc.lft.to/lastmile_qr_scan"}, "fusion_lon": 0.0, "lat": 38.935294666666664, "bike_id": "1279961afdbd3f643f88a3166b15ec14", "type": "electric_scooter", "is_reserved": 0, "lon": -77.04515883333333},