{"data": {"bikes": [{"name": "bcce8f72a5d3813cf6086130fa7f8d6e", "is_disabled": 0, "fusion_lat": 0.0, "fusion_lon": 0.0, "type": "electric_scooter", "lat": 38.90377133333333, "bike_id": "bcce8f72a5d3813cf6086130fa7f8d6e", "is_reserved": 0, "lon": -77.03447433333334, "rental_uris": {"android": "https://dc.lft.to/lastmile_qr_scan", "ios": "https://dc.lft.to/lastmile_qr_scan"}}, {"name": "d25e47d48b04bde069b13f7170e4179d", "is_disabled": 0, "fusion_lat": 0.0, "fusion_lon": 0.0, "type": "electric_bike", "lat": 38.85565716666667, "bike_id": "d25e47d48b04bde069b13f7170e4179d", "is_reserved": 0, "lon": -77.081937, "rental_uris": {"android": "https://dc.lft.to/lastmile_qr_scan", "ios": "https://dc.lft.to/lastmile_qr_scan"}}, {"name": "fb11a70bb84c6674f1acef5d899cb77d", "is_disabled": 0, "fusion_lat": 0.0, "fusion_lon": 0.0, "type": "electric_scooter", "lat": 38.896153166666664, "bike_id": "fb11a70bb84c6674f1acef5d899cb77d", "is_reserved": 0, "lon": -77.04355033333333, "rental_uris": {"android": "https://dc.lft.to/lastmile_qr_scan", "ios": "https://dc.lft.to/lastmile_qr_scan"}}, {"name": "51af7d37dde00830130f569281e451a8", "is_disabled": 0, "fusion_lat": 0.0, "fusion_lon": 0.0, "type": "electric_scooter", "lat": 38.915624, "bike_id": "51af7d37dde00830130f569281e451a8", "is_reserved": 0, "lon": -77.0451145, "rental_uris": {"android": "https://dc.lft.to/lastmile_qr_scan", "ios": "https://dc.lft.to/lastmile_qr_scan"}}, {"name": "661c59b126634ab193c0c0799ffac0fc", "is_disabled": 0, "fusion_lat": 0.0, "fusion_lon": 0.0, "type": "electric_scooter", "lat": 38.90279066666667, "bike_id": "661c59b126634ab193c0c0799ffac0fc", "is_reserved": 0, "lon": -77.05812466666667, "rental_uris": {"android": "https://dc.lft.to/lastmile_qr_scan", "ios": "https://dc.lft.to/lastmile_qr_scan"}}, {"name": "09554f45b6ea96bcc27329e5a464b118", "is_disabled": 0, "fusion_lat": 0.0, "fusion_lon": 0.0, "type": "electric_scooter", "lat": 38.93043133333333, "bike_id": "09554f45b6ea96bcc27329e5a464b118", "is_reserved": 0, "lon": -77.0379705, "rental_uris": {"android": "https://dc.lft.to/lastmile_qr_scan", "ios": "https://dc.lft.to/lastmile_qr_scan"}}, {"name": "5627821a5853215bc1f2a7ef0eb7007d", "is_disabled": 0, "fusion_lat": 0.0, "fusion_lon": 0.0, "type": "electric_scooter", "lat": 38.95326216666667, "bike_id": "5627821a5853215bc1f2a7ef0eb7007d", "is_reserved": 0, "lon": -77.070693, "rental_uris": {"android": "https://dc.lft.to/lastmile_qr_scan", "ios": "https://dc.lft.to/lastmile_qr_scan"}}, {"name": "f6c6c70504460407906d8c415db656df", "is_disabled": 0, "fusion_lat": 0.0, "fusion_lon": 0.0, "type": "electric_scooter", "lat": 38.921512666666665, "bike_id": "f6c6c70504460407906d8c415db656df", "is_reserved": 0, "lon": -77.03324266666667, "rental_uris": {"android": "https://dc.lft.to/lastmile_qr_scan", "ios": "https://dc.lft.to/lastmile_qr_scan"}}, {"name": "65b1de424b201835b80cc2dd5164118f", "is_disabled": 0, "fusion_lat": 0.0, "fusion_lon": 0.0, "type": "electric_scooter", "lat": 38.909488333333336, "bike_id": "65b1de424b201835b80cc2dd5164118f", "is_reserved": 0, "lon": -77.0482455, "rental_uris": {"android": "https://dc.lft.to/lastmile_qr_scan", "ios": "https://dc.lft.to/lastmile_qr_scan"}}, {"name": "f5517158a6958760f9a4454c940f1dc5", "is_disabled": 0, "fusion_lat": 0.0, "fusion_lon": 0.0, "type": "electric_scooter", "lat": 38.9221025, "bike_id": "f5517158a6958760f9a4454c940f1dc5", "is_reserved": 0, "lon": -77.04264733333333, "rental_uris": {"android": "https://dc.lft.to/lastmile_qr_scan", "ios": "https://dc.lft.to/lastmile_qr_scan"}}, {"name": "cc57bf961e2f69c9b51433d6b6c5403b", "is_disabled": 0, "fusion_lat": 0.0, "fusion_lon": 0.0, "type": "electric_bike", "lat": 39.057929, "bike_id": "cc57bf961e2f69c9b51433d6b6c5403b", "is_reserved": 0, "lon": -77.1502635, "rental_uris": {"android": "https://dc.lft.to/lastmile_qr_scan", "ios": "https://dc.lft.to/lastmile_qr_scan"}}, {"name": "06e0764679ad46e6b39f86268e151914", "is_disabled": 0, "fusion_lat": 0.0, "fusion_lon": 0.0, "type": "electric_scooter", "lat": 38.90783966666667, "bike_id": "06e0764679ad46e6b39f86268e151914", "is_reserved": 0, "lon": -77.07255183333334, "rental_uris": {"android": "https://dc.lft.to/lastmile_qr_scan", "ios": "https://dc.lft.to/lastmile_qr_scan"}}, {"name": "85036c3161c1f3db57b3d8bb280f4ad5", "is_disabled": 0, "fusion_lat": 0.0, "fusion_lon": 0.0, "type": "electric_scooter", "lat": 38.91071316666667, "bike_id": "85036c3161c1f3db57b3d8bb280f4ad5", "is_reserved": 0, "lon": -77.04117233333334, "rental_uris": {"android": "https://dc.lft.to/lastmile_qr_scan", "ios": "https://dc.lft.to/lastmile_qr_scan"}}, {"name": "dc1c43a3c8a9ae7eafd1cf5ad2bdbb74", "is_disabled": 0, "fusion_lat": 0.0, "fusion_lon": 0.0, "type": "electric_scooter", "lat": 38.921193, "bike_id": "dc1c43a3c8a9ae7eafd1cf5ad2bdbb74", "is_reserved": 0, "lon": -77.044384, "rental_uris": {"android": "https://dc.lft.to/lastmile_qr_scan", "ios": "https://dc.lft.to/lastmile_qr_scan"}}, {"name": "204e2b4ec3953efa32ddc3e6424f047f", "is_disabled": 0, "fusion_lat": 0.0, "fusion_lon": 0.0, "type": "electric_bike", "lat": 39.052749666666664, "bike_id": "204e2b4ec3953efa32ddc3e6424f047f", "is_reserved": 0, "lon": -77.08075633333333, "rental_uris": {"android": "https://dc.lft.to/lastmile_qr_scan", "ios": "https://dc.lft.to/lastmile_qr_scan"}}, {"name": "c194d28482936af6d21a42a851c3e344", "is_disabled": 0, "fusion_lat": 0.0, "fusion_lon": 0.0, "type": "electric_scooter", "lat": 38.94306016666667, "bike_id": "c194d28482936af6d21a42a851c3e344", "is_reserved": 0, "lon": -77.088336, "rental_uris": {"android": "https://dc.lft.to/lastmile_qr_scan", "ios": "https://dc.lft.to/lastmile_qr_scan"}}, {"name": "275fc56e71214d212ceb2ac198325f54", "is_disabled": 0, "fusion_lat": 0.0, "fusion_lon": 0.0, "type": "electric_scooter", "lat": 38.86659983333333, "bike_id": "275fc56e71214d212ceb2ac198325f54", "is_reserved": 0, "lon": -76.988857, "rental_uris": {"android": "https://dc.lft.to/lastmile_qr_scan", "ios": "https://dc.lft.to/lastmile_qr_scan"}}, {"name": "655a3b3d2aedcfde396596b46c687c27", "is_disabled": 0, "fusion_lat": 0.0, "fusion_lon": 0.0, "type": "electric_scooter", "lat": 38.86994883333333, "bike_id": "655a3b3d2aedcfde396596b46c687c27", "is_reserved": 0, "lon": -76.97595316666667, "rental_uris": {"android": "https://dc.lft.to/lastmile_qr_scan", "ios": "https://dc.lft.to/lastmile_qr_scan"}}, {"name": "5912b050bf574a5b3cd76db82fffedef", "is_disabled": 0, "fusion_lat": 0.0, "fusion_lon": 0.0, "type": "electric_scooter", "lat": 38.914981166666664, "bike_id": "5912b050bf574a5b3cd76db82fffedef", "is_reserved": 0, "lon": -77.01472216666667, "rental_uris": {"android": "https://dc.lft.to/lastmile_qr_scan", "ios": "https://dc.lft.to/lastmile_qr_scan"}}, {"name": "4fd04e7dd48934163cde859d450a5e20", "is_disabled": 0, "fusion_lat": 0.0, "fusion_lon": 0.0, "type": "electric_scooter", "lat": 38.936711833333334, "bike_id": "4fd04e7dd48934163cde859d450a5e20", "is_reserved": 0, "lon": -77.035889, "rental_uris": {"android": "https://dc.lft.to/lastmile_qr_scan", "ios": "https://dc.lft.to/lastmile_qr_scan"}}, {"name": "99f98a48a7b6176447ad48105dd7d02b", "is_disabled": 0, "fusion_lat": 0.0, "fusion_lon": 0.0, "type": "electric_scooter", "lat": 38.87824616666666, "bike_id": "99f98a48a7b6176447ad48105dd7d02b", "is_reserved": 0, "lon": -76.96311383333334, "rental_uris": {"android": "https://dc.lft.to/lastmile_qr_scan", "ios": "https://dc.lft.to/lastmile_qr_scan"}}, {"name": "3de4b0a7adde0e4d89161c0a4cdd48d1", "is_disabled": 0, "fusion_lat": 0.0, "fusion_lon": 0.0, "type": "electric_scooter", "lat": 38.9845315, "bike_id": "3de4b0a7adde0e4d89161c0a4cdd48d1", "is_reserved": 0, "lon": -77.02644766666667, "rental_uris": {"android": "https://dc.lft.to/lastmile_qr_scan", "ios": "https://dc.lft.to/lastmile_qr_scan"}}, {"name": "4235437e58cff4207baa5c812c6a2a89", "is_disabled": 0, "fusion_lat": 0.0, "fusion_lon": 0.0, "type": "electric_scooter", "lat": 38.8986035, "bike_id": "4235437e58cff4207baa5c812c6a2a89", "is_reserved": 0, "lon": -77.02388633333334, "rental_uris": {"android": "https://dc.lft.to/lastmile_qr_scan", "ios": "https://dc.lft.to/lastmile_qr_scan"}}, {"name": "8a8e4fd5531e4d3b5d37c94c48954b9f", "is_disabled": 0, "fusion_lat": 0.0, "fusion_lon": 0.0, "type": "electric_scooter", "lat": 38.92385983333333, "bike_id": "8a8e4fd5531e4d3b5d37c94c48954b9f", "is_reserved": 0, "lon": -77.0408945, "rental_uris": {"android": "https://dc.lft.to/lastmile_qr_scan", "ios": "https://dc.lft.to/lastmile_qr_scan"}}, {"name": "db74b30c062c24f54485f15310555c10", "is_disabled": 0, "fusion_lat": 0.0, "fusion_lon": 0.0, "type": "electric_scooter", "lat": 38.903735166666664, "bike_id": "db74b30c062c24f54485f15310555c10", "is_reserved": 0, "lon": -77.04233316666667, "rental_uris": {"android": "https://dc.lft.to/lastmile_qr_scan", "ios": "https://dc.lft.to/lastmile_qr_scan"}}, {"name": "02131b751d5bd9850048847ef10baaa3", "is_disabled": 0, "fusion_lat": 0.0, "fusion_lon": 0.0, "type": "electric_scooter", "lat": 38.92430816666667, "bike_id": "02131b751d5bd9850048847ef10baaa3", "is_reserved": 0, "lon": -77.05205916666667, "rental_uris": {"android": "https://dc.lft.to/lastmile_qr_scan", "ios": "https://dc.lft.to/lastmile_qr_scan"}}, {"name": "3f3be68b855d53a0fe203e92e67c93db", "is_disabled": 0, "fusion_lat": 0.0, "fusion_lon": 0.0, "type": "electric_scooter", "lat": 38.8872345, "bike_id": "3f3be68b855d53a0fe203e92e67c93db", "is_reserved": 0, "lon": -77.02822716666667, "rental_uris": {"android": "https://dc.lft.to/lastmile_qr_scan", "ios": "https://dc.lft.to/lastmile_qr_scan"}}, {"name": "c714b2bed0ba521f28722a6f4f62b12d", "is_disabled": 0, "fusion_lat": 0.0, "fusion_lon": 0.0, "type": "electric_scooter", "lat": 38.90700866666667, "bike_id": "c714b2bed0ba521f28722a6f4f62b12d", "is_reserved": 0, "lon": -77.02890933333333, "rental_uris": {"android": "https://dc.lft.to/lastmile_qr_scan", "ios": "https://dc.lft.to/lastmile_qr_scan"}}, {"name": "9842245bfbb4f9368ad2475b13c9ed5a", "is_disabled": 0, "fusion_lat": 0.0, "fusion_lon": 0.0, "type": "electric_scooter", "lat": 38.90184, "bike_id": "9842245bfbb4f9368ad2475b13c9ed5a", "is_reserved": 0, "lon": -77.012676, "rental_uris": {"android": "https://dc.lft.to/lastmile_qr_scan", "ios": "https://dc.lft.to/lastmile_qr_scan"}}, {"name": "781c5e70b2b13792bd489853e62f7d08", "is_disabled": 0, "fusion_lat": 0.0, "fusion_lon": 0.0, "type": "electric_scooter", "lat": 38.904538, "bike_id": "781c5e70b2b13792bd489853e62f7d08", "is_reserved": 0, "lon": -77.032398, "rental_uris": {"android": "https://dc.lft.to/lastmile_qr_scan", "ios": "https://dc.lft.to/lastmile_qr_scan"}}, {"name": "7d07de1fe38e96252239839455d50879", "is_disabled": 0, "fusion_lat": 0.0, "fusion_lon": 0.0, "type": "electric_scooter", "lat": 38.88815616666667, "bike_id": "7d07de1fe38e96252239839455d50879", "is_reserved": 0, "lon": -76.933449, "rental_uris": {"android": "https://dc.lft.to/lastmile_qr_scan", "ios": "https://dc.lft.to/lastmile_qr_scan"}}, {"name": "761a025e001d1c39a8dc651ceac3fa19", "is_disabled": 0, "fusion_lat": 0.0, "fusion_lon": 0.0, "type": "electric_scooter", "lat": 38.93178266666666, "bike_id": "761a025e001d1c39a8dc651ceac3fa19", "is_reserved": 0, "lon": -77.03845916666667, "rental_uris": {"android": "https://dc.lft.to/lastmile_qr_scan", "ios": "https://dc.lft.to/lastmile_qr_scan"}}, {"name": "9c2c8848a336562c9e319836da0ecfac", "is_disabled": 0, "fusion_lat": 0.0, "fusion_lon": 0.0, "type": "electric_scooter", "lat": 38.92463583333333, "bike_id": "9c2c8848a336562c9e319836da0ecfac", "is_reserved": 0, "lon": -77.02207483333333, "rental_uris": {"android": "https://dc.lft.to/lastmile_qr_scan", "ios": "https://dc.lft.to/lastmile_qr_scan"}}, {"name": "9b2f900638c8a0d87e5443431b729adc", "is_disabled": 0, "fusion_lat": 0.0, "fusion_lon": 0.0, "type": "electric_scooter", "lat": 38.92236233333333, "bike_id": "9b2f900638c8a0d87e5443431b729adc", "is_reserved": 0, "lon": -77.01954133333334, "rental_uris": {"android": "https://dc.lft.to/lastmile_qr_scan", "ios": "https://dc.lft.to/lastmile_qr_scan"}}, {"name": "59956b385debb179389db1a65f23161d", "is_disabled": 0, "fusion_lat": 0.0, "fusion_lon": 0.0, "type": "electric_scooter", "lat": 38.92157616666667, "bike_id": "59956b385debb179389db1a65f23161d", "is_reserved": 0, "lon": -77.03233066666667, "rental_uris": {"android": "https://dc.lft.to/lastmile_qr_scan", "ios": "https://dc.lft.to/lastmile_qr_scan"}}, {"name": "0f300c251a7d176dcb6a7cc0f14943d0", "is_disabled": 0, "fusion_lat": 0.0, "fusion_lon": 0.0, "type": "electric_bike", "lat": 38.86088633333333, "bike_id": "0f300c251a7d176dcb6a7cc0f14943d0", "is_reserved": 0, "lon": -77.095899, "rental_uris": {"android": "https://dc.lft.to/lastmile_qr_scan", "ios": "https://dc.lft.to/lastmile_qr_scan"}}, {"name": "0826e72a055c9d726772d6eed0f41019", "is_disabled": 0, "fusion_lat": 0.0, "fusion_lon": 0.0, "type": "electric_scooter", "lat": 38.90577733333333, "bike_id": "0826e72a055c9d726772d6eed0f41019", "is_reserved": 0, "lon": -77.038627, "rental_uris": {"android": "https://dc.lft.to/lastmile_qr_scan", "ios": "https://dc.lft.to/lastmile_qr_scan"}}, {"name": "248caa1a0748134388289bd22852cd31", "is_disabled": 0, "fusion_lat": 0.0, "fusion_lon": 0.0, "type": "electric_scooter", "lat": 38.88727566666667, "bike_id": "248caa1a0748134388289bd22852cd31", "is_reserved": 0, "lon": -77.02816816666666, "rental_uris": {"android": "https://dc.lft.to/lastmile_qr_scan", "ios": "https://dc.lft.to/lastmile_qr_scan"}}, {"name": "c5453d9f7bd68732158534606b636d13", "is_disabled": 0, "fusion_lat": 0.0, "fusion_lon": 0.0, "type": "electric_scooter", "lat": 38.90958333333333, "bike_id": "c5453d9f7bd68732158534606b636d13", "is_reserved": 0, "lon": -77.03867816666667, "rental_uris": {"android": "https://dc.lft.to/lastmile_qr_scan", "ios": "https://dc.lft.to/lastmile_qr_scan"}}, {"name": "29529cef5657676c81a32e3a8678e128", "is_disabled": 0, "fusion_lat": 0.0, "fusion_lon": 0.0, "type": "electric_scooter", "lat": 38.903424, "bike_id": "29529cef5657676c81a32e3a8678e128", "is_reserved": 0, "lon": -76.98282133333333, "rental_uris": {"android": "https://dc.lft.to/lastmile_qr_scan", "ios": "https://dc.lft.to/lastmile_qr_scan"}}, {"name": "f87e9f16a3796d4d2b10c15401138772", "is_disabled": 0, "fusion_lat": 0.0, "fusion_lon": 0.0, "type": "electric_scooter", "lat": 38.90733683333333, "bike_id": "f87e9f16a3796d4d2b10c15401138772", "is_reserved": 0, "lon": -76.98631, "rental_uris": {"android": "https://dc.lft.to/lastmile_qr_scan", "ios": "https://dc.lft.to/lastmile_qr_scan"}}, {"name": "20e5b6ce17b60deff53941a89263be2c", "is_disabled": 0, "fusion_lat": 0.0, "fusion_lon": 0.0, "type": "electric_scooter", "lat": 38.876553, "bike_id": "20e5b6ce17b60deff53941a89263be2c", "is_reserved": 0, "lon": -77.00216933333333, "rental_uris": {"android": "https://dc.lft.to/lastmile_qr_scan", "ios": "https://dc.lft.to/lastmile_qr_scan"}}, {"name": "7bec87cd93cffa0270148d2098073310", "is_disabled": 0, "fusion_lat": 0.0, "fusion_lon": 0.0, "type": "electric_scooter", "lat": 38.90303083333333, "bike_id": "7bec87cd93cffa0270148d2098073310", "is_reserved": 0, "lon": -77.0506025, "rental_uris": {"android": "https://dc.lft.to/lastmile_qr_scan", "ios": "https://dc.lft.to/lastmile_qr_scan"}}, {"name": "478b43868c9aba7f2f37b932b208b6f7", "is_disabled": 0, "fusion_lat": 0.0, "fusion_lon": 0.0, "type": "electric_scooter", "lat": 38.917107333333334, "bike_id": "478b43868c9aba7f2f37b932b208b6f7", "is_reserved": 0, "lon": -77.0414365, "rental_uris": {"android": "https://dc.lft.to/lastmile_qr_scan", "ios": "https://dc.lft.to/lastmile_qr_scan"}}, {"name": "b27859ab8597b7a552f548b269c4bdd3", "is_disabled": 0, "fusion_lat": 0.0, "fusion_lon": 0.0, "type": "electric_scooter", "lat": 38.903823833333334, "bike_id": "b27859ab8597b7a552f548b269c4bdd3", "is_reserved": 0, "lon": -77.04258883333334, "rental_uris": {"android": "https://dc.lft.to/lastmile_qr_scan", "ios": "https://dc.lft.to/lastmile_qr_scan"}}, {"name": "cbb166503da2a890c8a31db1927768c7", "is_disabled": 0, "fusion_lat": 0.0, "fusion_lon": 0.0, "type": "electric_scooter", "lat": 38.922297, "bike_id": "cbb166503da2a890c8a31db1927768c7", "is_reserved": 0, "lon": -77.04246533333334, "rental_uris": {"android": "https://dc.lft.to/lastmile_qr_scan", "ios": "https://dc.lft.to/lastmile_qr_scan"}}, {"name": "e60a4dede47a8cf6fc5032b51a648e20", "is_disabled": 0, "fusion_lat": 0.0, "fusion_lon": 0.0, "type": "electric_scooter", "lat": 38.921436, "bike_id": "e60a4dede47a8cf6fc5032b51a648e20", "is_reserved": 0, "lon": -77.02529733333333, "rental_uris": {"android": "https://dc.lft.to/lastmile_qr_scan", "ios": "https://dc.lft.to/lastmile_qr_scan"}}, {"name": "5462990c9f600dabfa3285a46c5856f1", "is_disabled": 0, "fusion_lat": 0.0, "fusion_lon": 0.0, "type": "electric_scooter", "lat": 38.92012866666666, "bike_id": "5462990c9f600dabfa3285a46c5856f1", "is_reserved": 0, "lon": -77.03210983333334, "rental_uris": {"android": "https://dc.lft.to/lastmile_qr_scan", "ios": "https://dc.lft.to/lastmile_qr_scan"}}, {"name": "d57427ab6380e70641c589d4d558c974", "is_disabled": 0, "fusion_lat": 0.0, "fusion_lon": 0.0, "type": "electric_scooter", "lat": 38.9281175, "bike_id": "d57427ab6380e70641c589d4d558c974", "is_reserved": 0, "lon": -77.01409383333333, "rental_uris": {"android": "https://dc.lft.to/lastmile_qr_scan", "ios": "https://dc.lft.to/lastmile_qr_scan"}}, {"name": "2a580a9104ca7fd30e28cd16f6e70118", "is_disabled": 0, "fusion_lat": 0.0, "fusion_lon": 0.0, "type": "electric_scooter", "lat": 38.922377, "bike_id": "2a580a9104ca7fd30e28cd16f6e70118", "is_reserved": 0, "lon": -77.036718, "rental_uris": {"android": "https://dc.lft.to/lastmile_qr_scan", "ios": "https://dc.lft.to/lastmile_qr_scan"}}, {"name": "f023ecb7c6d38ce9cb5057fda0bee374", "is_disabled": 0, "fusion_lat": 0.0, "fusion_lon": 0.0, "type": "electric_scooter", "lat": 38.905598833333336, "bike_id": "f023ecb7c6d38ce9cb5057fda0bee374", "is_reserved": 0, "lon": -77.03842733333333, "rental_uris": {"android": "https://dc.lft.to/lastmile_qr_scan", "ios": "https://dc.lft.to/lastmile_qr_scan"}}, {"name": "5786ef5c2c9832891e6af55ba6dc69d0", "is_disabled": 0, "fusion_lat": 0.0, "fusion_lon": 0.0, "type": "electric_bike", "lat": 38.807606166666666, "bike_id": "5786ef5c2c9832891e6af55ba6dc69d0", "is_reserved": 0, "lon": -77.09472033333333, "rental_uris": {"android": "https://dc.lft.to/lastmile_qr_scan", "ios": "https://dc.lft.to/lastmile_qr_scan"}}, {"name": "d37fa1c3695e63638e7c6b63e244ed3d", "is_disabled": 0, "fusion_lat": 0.0, "fusion_lon": 0.0, "type": "electric_scooter", "lat": 38.8856455, "bike_id": "d37fa1c3695e63638e7c6b63e244ed3d", "is_reserved": 0, "lon": -76.99796066666667, "rental_uris": {"android": "https://dc.lft.to/lastmile_qr_scan", "ios": "https://dc.lft.to/lastmile_qr_scan"}}, {"name": "a1f1fed98acc0b1faed0e20026f59f10", "is_disabled": 0, "fusion_lat": 0.0, "fusion_lon": 0.0, "type": "electric_scooter", "lat": 38.9011755, "bike_id": "a1f1fed98acc0b1faed0e20026f59f10", "is_reserved": 0, "lon": -77.0300455, "rental_uris": {"android": "https://dc.lft.to/lastmile_qr_scan", "ios": "https://dc.lft.to/lastmile_qr_scan"}}, {"name": "ab526655f774dd4a21fd4dd0426e434b", "is_disabled": 0, "fusion_lat": 0.0, "fusion_lon": 0.0, "type": "electric_scooter", "lat": 38.886191, "bike_id": "ab526655f774dd4a21fd4dd0426e434b", "is_reserved": 0, "lon": -76.95577683333333, "rental_uris": {"android": "https://dc.lft.to/lastmile_qr_scan", "ios": "https://dc.lft.to/lastmile_qr_scan"}}, {"name": "2924b127f19d05d563b89c3648e54308", "is_disabled": 0, "fusion_lat": 0.0, "fusion_lon": 0.0, "type": "electric_scooter", "lat": 38.89757916666667, "bike_id": "2924b127f19d05d563b89c3648e54308", "is_reserved": 0, "lon": -77.04666716666667, "rental_uris": {"android": "https://dc.lft.to/lastmile_qr_scan", "ios": "https://dc.lft.to/lastmile_qr_scan"}}, {"name": "55b80c406d694fb5526ad252b742f6a5", "is_disabled": 0, "fusion_lat": 0.0, "fusion_lon": 0.0, "type": "electric_scooter", "lat": 38.89537166666667, "bike_id": "55b80c406d694fb5526ad252b742f6a5", "is_reserved": 0, "lon": -77.03264383333334, "rental_uris": {"android": "https://dc.lft.to/lastmile_qr_scan", "ios": "https://dc.lft.to/lastmile_qr_scan"}}, {"name": "d0ad7512bf1143fb5894482eb2f71178", "is_disabled": 0, "fusion_lat": 0.0, "fusion_lon": 0.0, "type": "electric_scooter", "lat": 38.8873025, "bike_id": "d0ad7512bf1143fb5894482eb2f71178", "is_reserved": 0, "lon": -77.02827116666667, "rental_uris": {"android": "https://dc.lft.to/lastmile_qr_scan", "ios": "https://dc.lft.to/lastmile_qr_scan"}}, {"name": "cefab5656ecb3f1d28270df8f9359d93", "is_disabled": 0, "fusion_lat": 0.0, "fusion_lon": 0.0, "type": "electric_bike", "lat": 38.89882933333333, "bike_id": "cefab5656ecb3f1d28270df8f9359d93", "is_reserved": 0, "lon": -77.04047166666666, "rental_uris": {"android": "https://dc.lft.to/lastmile_qr_scan", "ios": "https://dc.lft.to/lastmile_qr_scan"}}, {"name": "caa55d8b8db4f8f00c203f183ac0beb6", "is_disabled": 0, "fusion_lat": 0.0, "fusion_lon": 0.0, "type": "electric_scooter", "lat": 38.92538166666667, "bike_id": "caa55d8b8db4f8f00c203f183ac0beb6", "is_reserved": 0, "lon": -77.0378635, "rental_uris": {"android": "https://dc.lft.to/lastmile_qr_scan", "ios": "https://dc.lft.to/lastmile_qr_scan"}}, {"name": "b966ac161b7da6881cad17f01d963ca7", "is_disabled": 0, "fusion_lat": 0.0, "fusion_lon": 0.0, "type": "electric_scooter", "lat": 38.88468733333333, "bike_id": "b966ac161b7da6881cad17f01d963ca7", "is_reserved": 0, "lon": -77.03211483333334, "rental_uris": {"android": "https://dc.lft.to/lastmile_qr_scan", "ios": "https://dc.lft.to/lastmile_qr_scan"}}, {"name": "dec7d7a6a9810e99618996d0617273ce", "is_disabled": 0, "fusion_lat": 0.0, "fusion_lon": 0.0, "type": "electric_scooter", "lat": 38.900681166666665, "bike_id": "dec7d7a6a9810e99618996d0617273ce", "is_reserved": 0, "lon": -77.01297333333333, "rental_uris": {"android": "https://dc.lft.to/lastmile_qr_scan", "ios": "https://dc.lft.to/lastmile_qr_scan"}}, {"name": "1f5fc084a157cfe7044a9f62d367475a", "is_disabled": 0, "fusion_lat": 0.0, "fusion_lon": 0.0, "type": "electric_scooter", "lat": 38.866968, "bike_id": "1f5fc084a157cfe7044a9f62d367475a", "is_reserved": 0, "lon": -76.985982, "rental_uris": {"android": "https://dc.lft.to/lastmile_qr_scan", "ios": "https://dc.lft.to/lastmile_qr_scan"}}, {"name": "8e9de932db9829e600de5572c0374167", "is_disabled": 0, "fusion_lat": 0.0, "fusion_lon": 0.0, "type": "electric_scooter", "lat": 38.90123766666667, "bike_id": "8e9de932db9829e600de5572c0374167", "is_reserved": 0, "lon": -77.04359883333333, "rental_uris": {"android": "https://dc.lft.to/lastmile_qr_scan", "ios": "https://dc.lft.to/lastmile_qr_scan"}}, {"name": "b6b369e386954c04814d6e8488af38c0", "is_disabled": 0, "fusion_lat": 0.0, "fusion_lon": 0.0, "type": "electric_scooter", "lat": 38.9068705, "bike_id": "b6b369e386954c04814d6e8488af38c0", "is_reserved": 0, "lon": -76.98102333333334, "rental_uris": {"android": "https://dc.lft.to/lastmile_qr_scan", "ios": "https://dc.lft.to/lastmile_qr_scan"}}, {"name": "5f2af7c915c57c84a88d09f0f1cc3ea2", "is_disabled": 0, "fusion_lat": 0.0, "fusion_lon": 0.0, "type": "electric_scooter", "lat": 38.898523833333336, "bike_id": "5f2af7c915c57c84a88d09f0f1cc3ea2", "is_reserved": 0, "lon": -76.9818665, "rental_uris": {"android": "https://dc.lft.to/lastmile_qr_scan", "ios": "https://dc.lft.to/lastmile_qr_scan"}}, {"name": "87d0d89eec6a900db44a940f3ec92fb5", "is_disabled": 0, "fusion_lat": 0.0, "fusion_lon": 0.0, "type": "electric_bike", "lat": 38.807093, "bike_id": "87d0d89eec6a900db44a940f3ec92fb5", "is_reserved": 0, "lon": -77.061773, "rental_uris": {"android": "https://dc.lft.to/lastmile_qr_scan", "ios": "https://dc.lft.to/lastmile_qr_scan"}}, {"name": "38b836da2704406cab32dbc78acbda22", "is_disabled": 0, "fusion_lat": 0.0, "fusion_lon": 0.0, "type": "electric_scooter", "lat": 38.95207833333333, "bike_id": "38b836da2704406cab32dbc78acbda22", "is_reserved": 0, "lon": -77.02735766666666, "rental_uris": {"android": "https://dc.lft.to/lastmile_qr_scan", "ios": "https://dc.lft.to/lastmile_qr_scan"}}, {"name": "cc661055e359d5e7057d6cfc3974842e", "is_disabled": 0, "fusion_lat": 0.0, "fusion_lon": 0.0, "type": "electric_scooter", "lat": 38.89222066666667, "bike_id": "cc661055e359d5e7057d6cfc3974842e", "is_reserved": 0, "lon": -77.02229883333334, "rental_uris": {"android": "https://dc.lft.to/lastmile_qr_scan", "ios": "https://dc.lft.to/lastmile_qr_scan"}}, {"name": "d7e3f7c7279a7a73b3a94b926fe32a33", "is_disabled": 0, "fusion_lat": 0.0, "fusion_lon": 0.0, "type": "electric_scooter", "lat": 38.91592433333334, "bike_id": "d7e3f7c7279a7a73b3a94b926fe32a33", "is_reserved": 0, "lon": -77.02307833333333, "rental_uris": {"android": "https://dc.lft.to/lastmile_qr_scan", "ios": "https://dc.lft.to/lastmile_qr_scan"}}, {"name": "cdb546bef1a144d56cd37ad41c4cedb8", "is_disabled": 0, "fusion_lat": 0.0, "fusion_lon": 0.0, "type": "electric_scooter", "lat": 38.91898916666667, "bike_id": "cdb546bef1a144d56cd37ad41c4cedb8", "is_reserved": 0, "lon": -76.98744166666667, "rental_uris": {"android": "https://dc.lft.to/lastmile_qr_scan", "ios": "https://dc.lft.to/lastmile_qr_scan"}}, {"name": "bee605e56dd67a6bdf7ed8ca2088efb2", "is_disabled": 0, "fusion_lat": 0.0, "fusion_lon": 0.0, "type": "electric_scooter", "lat": 38.88847666666667, "bike_id": "bee605e56dd67a6bdf7ed8ca2088efb2", "is_reserved": 0, "lon": -77.03111333333334, "rental_uris": {"android": "https://dc.lft.to/lastmile_qr_scan", "ios": "https://dc.lft.to/lastmile_qr_scan"}}, {"name": "3b5e1b09f4a99399036e1933c7d77bdc", "is_disabled": 0, "fusion_lat": 0.0, "fusion_lon": 0.0, "type": "electric_bike", "lat": 38.8483025, "bike_id": "3b5e1b09f4a99399036e1933c7d77bdc", "is_reserved": 0, "lon": -77.099864, "rental_uris": {"android": "https://dc.lft.to/lastmile_qr_scan", "ios": "https://dc.lft.to/lastmile_qr_scan"}}, {"name": "be30fe6b94a44d282633b56d16eba7d5", "is_disabled": 0, "fusion_lat": 0.0, "fusion_lon": 0.0, "type": "electric_bike", "lat": 38.99643433333333, "bike_id": "be30fe6b94a44d282633b56d16eba7d5", "is_reserved": 0, "lon": -77.0399805, "rental_uris": {"android": "https://dc.lft.to/lastmile_qr_scan", "ios": "https://dc.lft.to/lastmile_qr_scan"}}, {"name": "883705e29df807dadc761b13b9004926", "is_disabled": 0, "fusion_lat": 0.0, "fusion_lon": 0.0, "type": "electric_scooter", "lat": 38.9124505, "bike_id": "883705e29df807dadc761b13b9004926", "is_reserved": 0, "lon": -77.0444285, "rental_uris": {"android": "https://dc.lft.to/lastmile_qr_scan", "ios": "https://dc.lft.to/lastmile_qr_scan"}}, {"name": "fda43901a7cf5821d0d2680abcdee8ff", "is_disabled": 0, "fusion_lat": 0.0, "fusion_lon": 0.0, "type": "electric_scooter", "lat": 38.89897466666667, "bike_id": "fda43901a7cf5821d0d2680abcdee8ff", "is_reserved": 0, "lon": -77.03265733333333, "rental_uris": {"android": "https://dc.lft.to/lastmile_qr_scan", "ios": "https://dc.lft.to/lastmile_qr_scan"}}, {"name": "3f5b214d45093aa0a5cec01b367a2264", "is_disabled": 0, "fusion_lat": 0.0, "fusion_lon": 0.0, "type": "electric_scooter", "lat": 38.9082885, "bike_id": "3f5b214d45093aa0a5cec01b367a2264", "is_reserved": 0, "lon": -76.93164883333333, "rental_uris": {"android": "https://dc.lft.to/lastmile_qr_scan", "ios": "https://dc.lft.to/lastmile_qr_scan"}}, {"name": "34edbe91bfde2b3d9631766d300986ff", "is_disabled": 0, "fusion_lat": 0.0, "fusion_lon": 0.0, "type": "electric_scooter", "lat": 38.907736, "bike_id": "34edbe91bfde2b3d9631766d300986ff", "is_reserved": 0, "lon": -76.97830616666667, "rental_uris": {"android": "https://dc.lft.to/lastmile_qr_scan", "ios": "https://dc.lft.to/lastmile_qr_scan"}}, {"name": "f6311e37936d51e0e2e62a7d52fe93f2", "is_disabled": 0, "fusion_lat": 0.0, "fusion_lon": 0.0, "type": "electric_scooter", "lat": 38.90082733333333, "bike_id": "f6311e37936d51e0e2e62a7d52fe93f2", "is_reserved": 0, "lon": -77.04687466666667, "rental_uris": {"android": "https://dc.lft.to/lastmile_qr_scan", "ios": "https://dc.lft.to/lastmile_qr_scan"}}, {"name": "91a18b0080e3026ad7dd04a5a714c94d", "is_disabled": 0, "fusion_lat": 0.0, "fusion_lon": 0.0, "type": "electric_scooter", "lat": 38.9175205, "bike_id": "91a18b0080e3026ad7dd04a5a714c94d", "is_reserved": 0, "lon": -77.02384483333333, "rental_uris": {"android": "https://dc.lft.to/lastmile_qr_scan", "ios": "https://dc.lft.to/lastmile_qr_scan"}}, {"name": "87b3358a5f938ee937547dfd2bd07a0d", "is_disabled": 0, "fusion_lat": 0.0, "fusion_lon": 0.0, "type": "electric_scooter", "lat": 38.924793666666666, "bike_id": "87b3358a5f938ee937547dfd2bd07a0d", "is_reserved": 0, "lon": -77.027255, "rental_uris": {"android": "https://dc.lft.to/lastmile_qr_scan", "ios": "https://dc.lft.to/lastmile_qr_scan"}}, {"name": "a15a40f290bd1bfa645ec69ebe418f04", "is_disabled": 0, "fusion_lat": 0.0, "fusion_lon": 0.0, "type": "electric_scooter", "lat": 38.903763, "bike_id": "a15a40f290bd1bfa645ec69ebe418f04", "is_reserved": 0, "lon": -77.03836383333334, "rental_uris": {"android": "https://dc.lft.to/lastmile_qr_scan", "ios": "https://dc.lft.to/lastmile_qr_scan"}}, {"name": "eb7eec57b71e6fcdefcf771008ab2397", "is_disabled": 0, "fusion_lat": 0.0, "fusion_lon": 0.0, "type": "electric_scooter", "lat": 38.89186083333333, "bike_id": "eb7eec57b71e6fcdefcf771008ab2397", "is_reserved": 0, "lon": -77.00292366666666, "rental_uris": {"android": "https://dc.lft.to/lastmile_qr_scan", "ios": "https://dc.lft.to/lastmile_qr_scan"}}, {"name": "7542cc8b6efd8a65a59a22c164f1f4b5", "is_disabled": 0, "fusion_lat": 0.0, "fusion_lon": 0.0, "type": "electric_scooter", "lat": 38.92941883333334, "bike_id": "7542cc8b6efd8a65a59a22c164f1f4b5", "is_reserved": 0, "lon": -77.01987483333333, "rental_uris": {"android": "https://dc.lft.to/lastmile_qr_scan", "ios": "https://dc.lft.to/lastmile_qr_scan"}}, {"name": "277dfcf7dd962fb01ac1f41967957ce4", "is_disabled": 0, "fusion_lat": 0.0, "fusion_lon": 0.0, "type": "electric_scooter", "lat": 38.9008455, "bike_id": "277dfcf7dd962fb01ac1f41967957ce4", "is_reserved": 0, "lon": -76.99363783333334, "rental_uris": {"android": "https://dc.lft.to/lastmile_qr_scan", "ios": "https://dc.lft.to/lastmile_qr_scan"}}, {"name": "0d86d391cbc39d5a67aac6fc6298cecd", "is_disabled": 0, "fusion_lat": 0.0, "fusion_lon": 0.0, "type": "electric_bike", "lat": 38.90468466666667, "bike_id": "0d86d391cbc39d5a67aac6fc6298cecd", "is_reserved": 0, "lon": -77.04864666666667, "rental_uris": {"android": "https://dc.lft.to/lastmile_qr_scan", "ios": "https://dc.lft.to/lastmile_qr_scan"}}, {"name": "7a7970a828f95c2185e26c54b8026e5b", "is_disabled": 0, "fusion_lat": 0.0, "fusion_lon": 0.0, "type": "electric_scooter", "lat": 38.917106, "bike_id": "7a7970a828f95c2185e26c54b8026e5b", "is_reserved": 0, "lon": -77.038632, "rental_uris": {"android": "https://dc.lft.to/lastmile_qr_scan", "ios": "https://dc.lft.to/lastmile_qr_scan"}}, {"name": "c15d3fa2b317203684591979b8778116", "is_disabled": 0, "fusion_lat": 0.0, "fusion_lon": 0.0, "type": "electric_scooter", "lat": 38.8986625, "bike_id": "c15d3fa2b317203684591979b8778116", "is_reserved": 0, "lon": -76.94663333333334, "rental_uris": {"android": "https://dc.lft.to/lastmile_qr_scan", "ios": "https://dc.lft.to/lastmile_qr_scan"}}, {"name": "07cc31dd50d3858d135af5f877b6bea7", "is_disabled": 0, "fusion_lat": 0.0, "fusion_lon": 0.0, "type": "electric_scooter", "lat": 38.885714166666666, "bike_id": "07cc31dd50d3858d135af5f877b6bea7", "is_reserved": 0, "lon": -77.02005816666667, "rental_uris": {"android": "https://dc.lft.to/lastmile_qr_scan", "ios": "https://dc.lft.to/lastmile_qr_scan"}}, {"name": "39d7f1c501a4ffcc76198a8bbfe97dfe", "is_disabled": 0, "fusion_lat": 0.0, "fusion_lon": 0.0, "type": "electric_scooter", "lat": 38.900248166666664, "bike_id": "39d7f1c501a4ffcc76198a8bbfe97dfe", "is_reserved": 0, "lon": -77.011944, "rental_uris": {"android": "https://dc.lft.to/lastmile_qr_scan", "ios": "https://dc.lft.to/lastmile_qr_scan"}}, {"name": "f6c677a1add4b6c6486e2342a36320c9", "is_disabled": 0, "fusion_lat": 0.0, "fusion_lon": 0.0, "type": "electric_scooter", "lat": 38.90309233333333, "bike_id": "f6c677a1add4b6c6486e2342a36320c9", "is_reserved": 0, "lon": -77.03478666666666, "rental_uris": {"android": "https://dc.lft.to/lastmile_qr_scan", "ios": "https://dc.lft.to/lastmile_qr_scan"}}, {"name": "9f0e8ce8c08f842ec3034e5a761ca154", "is_disabled": 0, "fusion_lat": 0.0, "fusion_lon": 0.0, "type": "electric_scooter", "lat": 38.9001935, "bike_id": "9f0e8ce8c08f842ec3034e5a761ca154", "is_reserved": 0, "lon": -77.04408466666666, "rental_uris": {"android": "https://dc.lft.to/lastmile_qr_scan", "ios": "https://dc.lft.to/lastmile_qr_scan"}}, {"name": "1bbe61bddc804e02b71ae5f2894bdb0b", "is_disabled": 0, "fusion_lat": 0.0, "fusion_lon": 0.0, "type": "electric_scooter", "lat": 38.932044833333336, "bike_id": "1bbe61bddc804e02b71ae5f2894bdb0b", "is_reserved": 0, "lon": -77.03313766666666, "rental_uris": {"android": "https://dc.lft.to/lastmile_qr_scan", "ios": "https://dc.lft.to/lastmile_qr_scan"}}, {"name": "7e3077f17164255399673e1bb9909f90", "is_disabled": 0, "fusion_lat": 0.0, "fusion_lon": 0.0, "type": "electric_scooter", "lat": 38.90378183333333, "bike_id": "7e3077f17164255399673e1bb9909f90", "is_reserved": 0, "lon": -77.049756, "rental_uris": {"android": "https://dc.lft.to/lastmile_qr_scan", "ios": "https://dc.lft.to/lastmile_qr_scan"}}, {"name": "2f274ddd579d84d160defbf58a57f909", "is_disabled": 0, "fusion_lat": 0.0, "fusion_lon": 0.0, "type": "electric_scooter", "lat": 38.900429, "bike_id": "2f274ddd579d84d160defbf58a57f909", "is_reserved": 0, "lon": -77.04322866666666, "rental_uris": {"android": "https://dc.lft.to/lastmile_qr_scan", "ios": "https://dc.lft.to/lastmile_qr_scan"}}, {"name": "a81943d0144d02b883dac331f951d25c", "is_disabled": 0, "fusion_lat": 0.0, "fusion_lon": 0.0, "type": "electric_bike", "lat": 38.9677935, "bike_id": "a81943d0144d02b883dac331f951d25c", "is_reserved": 0, "lon": -77.0004625, "rental_uris": {"android": "https://dc.lft.to/lastmile_qr_scan", "ios": "https://dc.lft.to/lastmile_qr_scan"}}, {"name": "fe8ebfd1523681d496eed62f0469e847", "is_disabled": 0, "fusion_lat": 0.0, "fusion_lon": 0.0, "type": "electric_scooter", "lat": 38.910009, "bike_id": "fe8ebfd1523681d496eed62f0469e847", "is_reserved": 0, "lon": -77.03187933333334, "rental_uris": {"android": "https://dc.lft.to/lastmile_qr_scan", "ios": "https://dc.lft.to/lastmile_qr_scan"}}, {"name": "505bbbc59d45cce8fe1f0c202b10e335", "is_disabled": 0, "fusion_lat": 0.0, "fusion_lon": 0.0, "type": "electric_scooter", "lat": 38.905663833333335, "bike_id": "505bbbc59d45cce8fe1f0c202b10e335", "is_reserved": 0, "lon": -77.0433925, "rental_uris": {"android": "https://dc.lft.to/lastmile_qr_scan", "ios": "https://dc.lft.to/lastmile_qr_scan"}}, {"name": "722c1ec2ff24eae5334edf79c1f185a4", "is_disabled": 0, "fusion_lat": 0.0, "fusion_lon": 0.0, "type": "electric_scooter", "lat": 38.895272166666665, "bike_id": "722c1ec2ff24eae5334edf79c1f185a4", "is_reserved": 0, "lon": -77.00339066666666, "rental_uris": {"android": "https://dc.lft.to/lastmile_qr_scan", "ios": "https://dc.lft.to/lastmile_qr_scan"}}, {"name": "246943c34c21be46ab09832e1d69c194", "is_disabled": 0, "fusion_lat": 0.0, "fusion_lon": 0.0, "type": "electric_scooter", "lat": 38.935347666666665, "bike_id": "246943c34c21be46ab09832e1d69c194", "is_reserved": 0, "lon": -77.0234715, "rental_uris": {"android": "https://dc.lft.to/lastmile_qr_scan", "ios": "https://dc.lft.to/lastmile_qr_scan"}}, {"name": "8d25802fa497d822589f9d559431d37c", "is_disabled": 0, "fusion_lat": 0.0, "fusion_lon": 0.0, "type": "electric_scooter", "lat": 38.9016745, "bike_id": "8d25802fa497d822589f9d559431d37c", "is_reserved": 0, "lon": -76.98021416666667, "rental_uris": {"android": "https://dc.lft.to/lastmile_qr_scan", "ios": "https://dc.lft.to/lastmile_qr_scan"}}, {"name": "888faa99fd7982b06c3f37eec1972e5a", "is_disabled": 0, "fusion_lat": 0.0, "fusion_lon": 0.0, "type": "electric_scooter", "lat": 38.897502333333335, "bike_id": "888faa99fd7982b06c3f37eec1972e5a", "is_reserved": 0, "lon": -77.0494865, "rental_uris": {"android": "https://dc.lft.to/lastmile_qr_scan", "ios": "https://dc.lft.to/lastmile_qr_scan"}}, {"name": "5d942fdfbd783a2ead7ce7a91b43faea", "is_disabled": 0, "fusion_lat": 0.0, "fusion_lon": 0.0, "type": "electric_bike", "lat": 38.9057085, "bike_id": "5d942fdfbd783a2ead7ce7a91b43faea", "is_reserved": 0, "lon": -77.01425416666666, "rental_uris": {"android": "https://dc.lft.to/lastmile_qr_scan", "ios": "https://dc.lft.to/lastmile_qr_scan"}}, {"name": "3d6a8d8f6b32add7ddf2441e8f2fa504", "is_disabled": 0, "fusion_lat": 0.0, "fusion_lon": 0.0, "type": "electric_scooter", "lat": 38.92183566666667, "bike_id": "3d6a8d8f6b32add7ddf2441e8f2fa504", "is_reserved": 0, "lon": -77.04257833333334, "rental_uris": {"android": "https://dc.lft.to/lastmile_qr_scan", "ios": "https://dc.lft.to/lastmile_qr_scan"}}, {"name": "e0b9e5ef6314a451f960854f1c7a4d5e", "is_disabled": 0, "fusion_lat": 0.0, "fusion_lon": 0.0, "type": "electric_scooter", "lat": 38.901318333333336, "bike_id": "e0b9e5ef6314a451f960854f1c7a4d5e", "is_reserved": 0, "lon": -77.02705383333333, "rental_uris": {"android": "https://dc.lft.to/lastmile_qr_scan", "ios": "https://dc.lft.to/lastmile_qr_scan"}}, {"name": "95f2f012f5a7f27eb80bae194fb7cf53", "is_disabled": 0, "fusion_lat": 0.0, "fusion_lon": 0.0, "type": "electric_scooter", "lat": 38.90316, "bike_id": "95f2f012f5a7f27eb80bae194fb7cf53", "is_reserved": 0, "lon": -77.038315, "rental_uris": {"android": "https://dc.lft.to/lastmile_qr_scan", "ios": "https://dc.lft.to/lastmile_qr_scan"}}, {"name": "ded2dc87d30b89b8119c31739b5fc71d", "is_disabled": 0, "fusion_lat": 0.0, "fusion_lon": 0.0, "type": "electric_scooter", "lat": 38.9285785, "bike_id": "ded2dc87d30b89b8119c31739b5fc71d", "is_reserved": 0, "lon": -77.01377616666667, "rental_uris": {"android": "https://dc.lft.to/lastmile_qr_scan", "ios": "https://dc.lft.to/lastmile_qr_scan"}}, {"name": "77b80fab493d18b3562268a5e86b5db5", "is_disabled": 0, "fusion_lat": 0.0, "fusion_lon": 0.0, "type": "electric_scooter", "lat": 38.90397316666667, "bike_id": "77b80fab493d18b3562268a5e86b5db5", "is_reserved": 0, "lon": -77.06782933333334, "rental_uris": {"android": "https://dc.lft.to/lastmile_qr_scan", "ios": "https://dc.lft.to/lastmile_qr_scan"}}, {"name": "6b4d2b1c4f58827da05bd9dac2fea54c", "is_disabled": 0, "fusion_lat": 0.0, "fusion_lon": 0.0, "type": "electric_scooter", "lat": 38.8992415, "bike_id": "6b4d2b1c4f58827da05bd9dac2fea54c", "is_reserved": 0, "lon": -77.03235066666667, "rental_uris": {"android": "https://dc.lft.to/lastmile_qr_scan", "ios": "https://dc.lft.to/lastmile_qr_scan"}}, {"name": "15938fcc86feb5874401b6c0da2e9b9a", "is_disabled": 0, "fusion_lat": 0.0, "fusion_lon": 0.0, "type": "electric_scooter", "lat": 38.9315885, "bike_id": "15938fcc86feb5874401b6c0da2e9b9a", "is_reserved": 0, "lon": -77.05635716666667, "rental_uris": {"android": "https://dc.lft.to/lastmile_qr_scan", "ios": "https://dc.lft.to/lastmile_qr_scan"}}, {"name": "0b893ec0c9a81577a47e5f5ef25f8b18", "is_disabled": 0, "fusion_lat": 0.0, "fusion_lon": 0.0, "type": "electric_bike", "lat": 38.829134, "bike_id": "0b893ec0c9a81577a47e5f5ef25f8b18", "is_reserved": 0, "lon": -76.99784333333334, "rental_uris": {"android": "https://dc.lft.to/lastmile_qr_scan", "ios": "https://dc.lft.to/lastmile_qr_scan"}}, {"name": "cb2faa548e93ad0a4a6139f2a5e01ef9", "is_disabled": 0, "fusion_lat": 0.0, "fusion_lon": 0.0, "type": "electric_scooter", "lat": 38.919303166666666, "bike_id": "cb2faa548e93ad0a4a6139f2a5e01ef9", "is_reserved": 0, "lon": -77.01952566666667, "rental_uris": {"android": "https://dc.lft.to/lastmile_qr_scan", "ios": "https://dc.lft.to/lastmile_qr_scan"}}, {"name": "a2d54f9dd22ba6f4133d2616a53c10e7", "is_disabled": 0, "fusion_lat": 0.0, "fusion_lon": 0.0, "type": "electric_scooter", "lat": 38.90146083333333, "bike_id": "a2d54f9dd22ba6f4133d2616a53c10e7", "is_reserved": 0, "lon": -77.03345616666667, "rental_uris": {"android": "https://dc.lft.to/lastmile_qr_scan", "ios": "https://dc.lft.to/lastmile_qr_scan"}}, {"name": "10a6a117df58cfd4221b1bb48bc337db", "is_disabled": 0, "fusion_lat": 0.0, "fusion_lon": 0.0, "type": "electric_scooter", "lat": 38.89759333333333, "bike_id": "10a6a117df58cfd4221b1bb48bc337db", "is_reserved": 0, "lon": -77.02812566666667, "rental_uris": {"android": "https://dc.lft.to/lastmile_qr_scan", "ios": "https://dc.lft.to/lastmile_qr_scan"}}, {"name": "5e5f064b83e8527722f2b88270b54d65", "is_disabled": 0, "fusion_lat": 0.0, "fusion_lon": 0.0, "type": "electric_scooter", "lat": 38.9060055, "bike_id": "5e5f064b83e8527722f2b88270b54d65", "is_reserved": 0, "lon": -77.04042483333333, "rental_uris": {"android": "https://dc.lft.to/lastmile_qr_scan", "ios": "https://dc.lft.to/lastmile_qr_scan"}}, {"name": "6cee92849f37af57da2f697286657d16", "is_disabled": 0, "fusion_lat": 0.0, "fusion_lon": 0.0, "type": "electric_scooter", "lat": 38.927480833333334, "bike_id": "6cee92849f37af57da2f697286657d16", "is_reserved": 0, "lon": -77.02535616666667, "rental_uris": {"android": "https://dc.lft.to/lastmile_qr_scan", "ios": "https://dc.lft.to/lastmile_qr_scan"}}, {"name": "e862ea409f0a2f319e0f34d2f31a2641", "is_disabled": 0, "fusion_lat": 0.0, "fusion_lon": 0.0, "type": "electric_scooter", "lat": 38.90624416666667, "bike_id": "e862ea409f0a2f319e0f34d2f31a2641", "is_reserved": 0, "lon": -77.03415616666666, "rental_uris": {"android": "https://dc.lft.to/lastmile_qr_scan", "ios": "https://dc.lft.to/lastmile_qr_scan"}}, {"name": "8b4f51f2df0ab447c45934cc96b81c77", "is_disabled": 0, "fusion_lat": 0.0, "fusion_lon": 0.0, "type": "electric_scooter", "lat": 38.92533483333333, "bike_id": "8b4f51f2df0ab447c45934cc96b81c77", "is_reserved": 0, "lon": -76.99601183333333, "rental_uris": {"android": "https://dc.lft.to/lastmile_qr_scan", "ios": "https://dc.lft.to/lastmile_qr_scan"}}, {"name": "97e4828476804de2598aec880c78a99e", "is_disabled": 0, "fusion_lat": 0.0, "fusion_lon": 0.0, "type": "electric_scooter", "lat": 38.90664066666667, "bike_id": "97e4828476804de2598aec880c78a99e", "is_reserved": 0, "lon": -77.00219066666666, "rental_uris": {"android": "https://dc.lft.to/lastmile_qr_scan", "ios": "https://dc.lft.to/lastmile_qr_scan"}}, {"name": "3e2d1b829d6ebccb499e0e39822044da", "is_disabled": 0, "fusion_lat": 0.0, "fusion_lon": 0.0, "type": "electric_scooter", "lat": 38.93862383333333, "bike_id": "3e2d1b829d6ebccb499e0e39822044da", "is_reserved": 0, "lon": -77.03087133333334, "rental_uris": {"android": "https://dc.lft.to/lastmile_qr_scan", "ios": "https://dc.lft.to/lastmile_qr_scan"}}, {"name": "ad52da21bf882f8e56ef407b6b7ff645", "is_disabled": 0, "fusion_lat": 0.0, "fusion_lon": 0.0, "type": "electric_scooter", "lat": 38.95527, "bike_id": "ad52da21bf882f8e56ef407b6b7ff645", "is_reserved": 0, "lon": -77.02782233333333, "rental_uris": {"android": "https://dc.lft.to/lastmile_qr_scan", "ios": "https://dc.lft.to/lastmile_qr_scan"}}, {"name": "3b4ac026e279a45138c0be62d18f8fc7", "is_disabled": 0, "fusion_lat": 0.0, "fusion_lon": 0.0, "type": "electric_scooter", "lat": 38.9248285, "bike_id": "3b4ac026e279a45138c0be62d18f8fc7", "is_reserved": 0, "lon": -77.02725183333334, "rental_uris": {"android": "https://dc.lft.to/lastmile_qr_scan", "ios": "https://dc.lft.to/lastmile_qr_scan"}}, {"name": "5fb180de93ab0070b91f0d10a34eeba3", "is_disabled": 0, "fusion_lat": 0.0, "fusion_lon": 0.0, "type": "electric_scooter", "lat": 38.951765333333334, "bike_id": "5fb180de93ab0070b91f0d10a34eeba3", "is_reserved": 0, "lon": -77.027335, "rental_uris": {"android": "https://dc.lft.to/lastmile_qr_scan", "ios": "https://dc.lft.to/lastmile_qr_scan"}}, {"name": "d23233d12654f876123ed8bc06ffe0d3", "is_disabled": 0, "fusion_lat": 0.0, "fusion_lon": 0.0, "type": "electric_scooter", "lat": 38.9712195, "bike_id": "d23233d12654f876123ed8bc06ffe0d3", "is_reserved": 0, "lon": -77.016888, "rental_uris": {"android": "https://dc.lft.to/lastmile_qr_scan", "ios": "https://dc.lft.to/lastmile_qr_scan"}}, {"name": "45b40c73e5cd23ffa86edb1dfbb1a55f", "is_disabled": 0, "fusion_lat": 0.0, "fusion_lon": 0.0, "type": "electric_scooter", "lat": 38.893408, "bike_id": "45b40c73e5cd23ffa86edb1dfbb1a55f", "is_reserved": 0, "lon": -77.01717516666666, "rental_uris": {"android": "https://dc.lft.to/lastmile_qr_scan", "ios": "https://dc.lft.to/lastmile_qr_scan"}}, {"name": "1dc2e51303130560c1a3e0df5a254362", "is_disabled": 0, "fusion_lat": 0.0, "fusion_lon": 0.0, "type": "electric_bike", "lat": 38.8576785, "bike_id": "1dc2e51303130560c1a3e0df5a254362", "is_reserved": 0, "lon": -76.98765833333333, "rental_uris": {"android": "https://dc.lft.to/lastmile_qr_scan", "ios": "https://dc.lft.to/lastmile_qr_scan"}}, {"name": "f710bd13c67bccbc996690825557874a", "is_disabled": 0, "fusion_lat": 0.0, "fusion_lon": 0.0, "type": "electric_scooter", "lat": 38.927679833333336, "bike_id": "f710bd13c67bccbc996690825557874a", "is_reserved": 0, "lon": -77.03050683333333, "rental_uris": {"android": "https://dc.lft.to/lastmile_qr_scan", "ios": "https://dc.lft.to/lastmile_qr_scan"}}, {"name": "cb9caf6f141a995435025a5cdb123303", "is_disabled": 0, "fusion_lat": 0.0, "fusion_lon": 0.0, "type": "electric_scooter", "lat": 38.930165833333334, "bike_id": "cb9caf6f141a995435025a5cdb123303", "is_reserved": 0, "lon": -77.06094016666667, "rental_uris": {"android": "https://dc.lft.to/lastmile_qr_scan", "ios": "https://dc.lft.to/lastmile_qr_scan"}}, {"name": "45b42fbe5ec7688eabaa6608a41b8aa1", "is_disabled": 0, "fusion_lat": 0.0, "fusion_lon": 0.0, "type": "electric_scooter", "lat": 38.937688666666666, "bike_id": "45b42fbe5ec7688eabaa6608a41b8aa1", "is_reserved": 0, "lon": -77.03265633333334, "rental_uris": {"android": "https://dc.lft.to/lastmile_qr_scan", "ios": "https://dc.lft.to/lastmile_qr_scan"}}, {"name": "0da2116c5cb7308d3914127d022fb95b", "is_disabled": 0, "fusion_lat": 0.0, "fusion_lon": 0.0, "type": "electric_scooter", "lat": 38.89877283333333, "bike_id": "0da2116c5cb7308d3914127d022fb95b", "is_reserved": 0, "lon": -76.97721433333334, "rental_uris": {"android": "https://dc.lft.to/lastmile_qr_scan", "ios": "https://dc.lft.to/lastmile_qr_scan"}}, {"name": "d211da462601e97985585a37cebea125", "is_disabled": 0, "fusion_lat": 0.0, "fusion_lon": 0.0, "type": "electric_bike", "lat": 38.838142500000004, "bike_id": "d211da462601e97985585a37cebea125", "is_reserved": 0, "lon": -77.09525833333333, "rental_uris": {"android": "https://dc.lft.to/lastmile_qr_scan", "ios": "https://dc.lft.to/lastmile_qr_scan"}}, {"name": "15dede6767b63014a2c5a312589b3071", "is_disabled": 0, "fusion_lat": 0.0, "fusion_lon": 0.0, "type": "electric_scooter", "lat": 38.91753, "bike_id": "15dede6767b63014a2c5a312589b3071", "is_reserved": 0, "lon": -77.02389366666667, "rental_uris": {"android": "https://dc.lft.to/lastmile_qr_scan", "ios": "https://dc.lft.to/lastmile_qr_scan"}}, {"name": "2635e4e70bea775a84a6940867de34dc", "is_disabled": 0, "fusion_lat": 0.0, "fusion_lon": 0.0, "type": "electric_scooter", "lat": 38.919450499999996, "bike_id": "2635e4e70bea775a84a6940867de34dc", "is_reserved": 0, "lon": -77.023451, "rental_uris": {"android": "https://dc.lft.to/lastmile_qr_scan", "ios": "https://dc.lft.to/lastmile_qr_scan"}}, {"name": "1467a8dd8b1c637b94eb6558c1a86d35", "is_disabled": 0, "fusion_lat": 0.0, "fusion_lon": 0.0, "type": "electric_scooter", "lat": 38.938404, "bike_id": "1467a8dd8b1c637b94eb6558c1a86d35", "is_reserved": 0, "lon": -77.025217, "rental_uris": {"android": "https://dc.lft.to/lastmile_qr_scan", "ios": "https://dc.lft.to/lastmile_qr_scan"}}, {"name": "fab2cd905f2a94a6d990ece98089c116", "is_disabled": 0, "fusion_lat": 0.0, "fusion_lon": 0.0, "type": "electric_bike", "lat": 38.80691933333333, "bike_id": "fab2cd905f2a94a6d990ece98089c116", "is_reserved": 0, "lon": -77.059722, "rental_uris": {"android": "https://dc.lft.to/lastmile_qr_scan", "ios": "https://dc.lft.to/lastmile_qr_scan"}}, {"name": "63f2822ba482af6cc51aa94109741d31", "is_disabled": 0, "fusion_lat": 0.0, "fusion_lon": 0.0, "type": "electric_scooter", "lat": 38.924506, "bike_id": "63f2822ba482af6cc51aa94109741d31", "is_reserved": 0, "lon": -77.02161416666667, "rental_uris": {"android": "https://dc.lft.to/lastmile_qr_scan", "ios": "https://dc.lft.to/lastmile_qr_scan"}}, {"name": "c8961d23ac99995e1f096954916f511a", "is_disabled": 0, "fusion_lat": 0.0, "fusion_lon": 0.0, "type": "electric_scooter", "lat": 38.920085666666665, "bike_id": "c8961d23ac99995e1f096954916f511a", "is_reserved": 0, "lon": -77.03229783333333, "rental_uris": {"android": "https://dc.lft.to/lastmile_qr_scan", "ios": "https://dc.lft.to/lastmile_qr_scan"}}, {"name": "457bd906fdb09432863be18d0992149b", "is_disabled": 0, "fusion_lat": 0.0, "fusion_lon": 0.0, "type": "electric_scooter", "lat": 38.92053533333333, "bike_id": "457bd906fdb09432863be18d0992149b", "is_reserved": 0, "lon": -77.02984233333333, "rental_uris": {"android": "https://dc.lft.to/lastmile_qr_scan", "ios": "https://dc.lft.to/lastmile_qr_scan"}}, {"name": "4308b1850d5a6cabf86bbd583d46c0e4", "is_disabled": 0, "fusion_lat": 0.0, "fusion_lon": 0.0, "type": "electric_bike", "lat": 38.845628833333336, "bike_id": "4308b1850d5a6cabf86bbd583d46c0e4", "is_reserved": 0, "lon": -77.06693666666666, "rental_uris": {"android": "https://dc.lft.to/lastmile_qr_scan", "ios": "https://dc.lft.to/lastmile_qr_scan"}}, {"name": "876c1745aaa1e92cb7c958c8756329da", "is_disabled": 0, "fusion_lat": 0.0, "fusion_lon": 0.0, "type": "electric_scooter", "lat": 38.904677166666666, "bike_id": "876c1745aaa1e92cb7c958c8756329da", "is_reserved": 0, "lon": -77.0481055, "rental_uris": {"android": "https://dc.lft.to/lastmile_qr_scan", "ios": "https://dc.lft.to/lastmile_qr_scan"}}, {"name": "e0b7f2304af755f00d58c97b491eb410", "is_disabled": 0, "fusion_lat": 0.0, "fusion_lon": 0.0, "type": "electric_scooter", "lat": 38.941831666666666, "bike_id": "e0b7f2304af755f00d58c97b491eb410", "is_reserved": 0, "lon": -77.02489866666667, "rental_uris": {"android": "https://dc.lft.to/lastmile_qr_scan", "ios": "https://dc.lft.to/lastmile_qr_scan"}}, {"name": "50cebb12169b4cb491fad76ec245429d", "is_disabled": 0, "fusion_lat": 0.0, "fusion_lon": 0.0, "type": "electric_bike", "lat": 38.993417666666666, "bike_id": "50cebb12169b4cb491fad76ec245429d", "is_reserved": 0, "lon": -77.115822, "rental_uris": {"android": "https://dc.lft.to/lastmile_qr_scan", "ios": "https://dc.lft.to/lastmile_qr_scan"}}, {"name": "75cad32636a5e3f45bdf18ac9e5c7700", "is_disabled": 0, "fusion_lat": 0.0, "fusion_lon": 0.0, "type": "electric_scooter", "lat": 38.926626, "bike_id": "75cad32636a5e3f45bdf18ac9e5c7700", "is_reserved": 0, "lon": -77.0150915, "rental_uris": {"android": "https://dc.lft.to/lastmile_qr_scan", "ios": "https://dc.lft.to/lastmile_qr_scan"}}, {"name": "741a8929a1571205b2e474a82a44324e", "is_disabled": 0, "fusion_lat": 0.0, "fusion_lon": 0.0, "type": "electric_scooter", "lat": 38.945017, "bike_id": "741a8929a1571205b2e474a82a44324e", "is_reserved": 0, "lon": -77.03498866666666, "rental_uris": {"android": "https://dc.lft.to/lastmile_qr_scan", "ios": "https://dc.lft.to/lastmile_qr_scan"}}, {"name": "9b4df5017b88e3a3114b7388b147d399", "is_disabled": 0, "fusion_lat": 0.0, "fusion_lon": 0.0, "type": "electric_scooter", "lat": 38.91911016666667, "bike_id": "9b4df5017b88e3a3114b7388b147d399", "is_reserved": 0, "lon": -77.03273933333334, "rental_uris": {"android": "https://dc.lft.to/lastmile_qr_scan", "ios": "https://dc.lft.to/lastmile_qr_scan"}}, {"name": "9a9cfb2a495befcf44ebec2b72cb10c1", "is_disabled": 0, "fusion_lat": 0.0, "fusion_lon": 0.0, "type": "electric_scooter", "lat": 38.90086866666667, "bike_id": "9a9cfb2a495befcf44ebec2b72cb10c1", "is_reserved": 0, "lon": -76.93035033333334, "rental_uris": {"android": "https://dc.lft.to/lastmile_qr_scan", "ios": "https://dc.lft.to/lastmile_qr_scan"}}, {"name": "66fa299f038e70351c8ed5150a48e0e8", "is_disabled": 0, "fusion_lat": 0.0, "fusion_lon": 0.0, "type": "electric_scooter", "lat": 38.906071833333336, "bike_id": "66fa299f038e70351c8ed5150a48e0e8", "is_reserved": 0, "lon": -77.024111, "rental_uris": {"android": "https://dc.lft.to/lastmile_qr_scan", "ios": "https://dc.lft.to/lastmile_qr_scan"}}, {"name": "0d07ac2542a2b2ab73ee374388094a5f", "is_disabled": 0, "fusion_lat": 0.0, "fusion_lon": 0.0, "type": "electric_scooter", "lat": 38.884949, "bike_id": "0d07ac2542a2b2ab73ee374388094a5f", "is_reserved": 0, "lon": -77.0087505, "rental_uris": {"android": "https://dc.lft.to/lastmile_qr_scan", "ios": "https://dc.lft.to/lastmile_qr_scan"}}, {"name": "87ec385e7b2cd237050eb4aaaec030f7", "is_disabled": 0, "fusion_lat": 0.0, "fusion_lon": 0.0, "type": "electric_bike", "lat": 38.9553735, "bike_id": "87ec385e7b2cd237050eb4aaaec030f7", "is_reserved": 0, "lon": -77.06944983333334, "rental_uris": {"android": "https://dc.lft.to/lastmile_qr_scan", "ios": "https://dc.lft.to/lastmile_qr_scan"}}, {"name": "d3f75f5a246844a16bc5c79250246727", "is_disabled": 0, "fusion_lat": 0.0, "fusion_lon": 0.0, "type": "electric_scooter", "lat": 38.915512, "bike_id": "d3f75f5a246844a16bc5c79250246727", "is_reserved": 0, "lon": -77.02049333333333, "rental_uris": {"android": "https://dc.lft.to/lastmile_qr_scan", "ios": "https://dc.lft.to/lastmile_qr_scan"}}, {"name": "ada6a8b71ab50dd4ea8c59c86187d4b0", "is_disabled": 0, "fusion_lat": 0.0, "fusion_lon": 0.0, "type": "electric_scooter", "lat": 38.9420095, "bike_id": "ada6a8b71ab50dd4ea8c59c86187d4b0", "is_reserved": 0, "lon": -77.0250135, "rental_uris": {"android": "https://dc.lft.to/lastmile_qr_scan", "ios": "https://dc.lft.to/lastmile_qr_scan"}}, {"name": "aa72037bba09c4a8c856320e9a112fa1", "is_disabled": 0, "fusion_lat": 0.0, "fusion_lon": 0.0, "type": "electric_scooter", "lat": 38.906077, "bike_id": "aa72037bba09c4a8c856320e9a112fa1", "is_reserved": 0, "lon": -76.98688266666667, "rental_uris": {"android": "https://dc.lft.to/lastmile_qr_scan", "ios": "https://dc.lft.to/lastmile_qr_scan"}}, {"name": "2088b71ff82093bb38ae0f3a5712c585", "is_disabled": 0, "fusion_lat": 0.0, "fusion_lon": 0.0, "type": "electric_bike", "lat": 38.8747545, "bike_id": "2088b71ff82093bb38ae0f3a5712c585", "is_reserved": 0, "lon": -76.96525616666666, "rental_uris": {"android": "https://dc.lft.to/lastmile_qr_scan", "ios": "https://dc.lft.to/lastmile_qr_scan"}}, {"name": "94f556ea8eccb587c17db4730b5aef98", "is_disabled": 0, "fusion_lat": 0.0, "fusion_lon": 0.0, "type": "electric_scooter", "lat": 38.91420466666667, "bike_id": "94f556ea8eccb587c17db4730b5aef98", "is_reserved": 0, "lon": -77.04920433333334, "rental_uris": {"android": "https://dc.lft.to/lastmile_qr_scan", "ios": "https://dc.lft.to/lastmile_qr_scan"}}, {"name": "25bf5e36945bce5850640ab734fb888c", "is_disabled": 0, "fusion_lat": 0.0, "fusion_lon": 0.0, "type": "electric_scooter", "lat": 38.90703166666667, "bike_id": "25bf5e36945bce5850640ab734fb888c", "is_reserved": 0, "lon": -76.98700483333333, "rental_uris": {"android": "https://dc.lft.to/lastmile_qr_scan", "ios": "https://dc.lft.to/lastmile_qr_scan"}}, {"name": "5a2d372e7028b9c83d96390ae2ef17f4", "is_disabled": 0, "fusion_lat": 0.0, "fusion_lon": 0.0, "type": "electric_scooter", "lat": 38.893559833333335, "bike_id": "5a2d372e7028b9c83d96390ae2ef17f4", "is_reserved": 0, "lon": -77.003347, "rental_uris": {"android": "https://dc.lft.to/lastmile_qr_scan", "ios": "https://dc.lft.to/lastmile_qr_scan"}}, {"name": "576c51ec4662ea0e0c2d06af56a890de", "is_disabled": 0, "fusion_lat": 0.0, "fusion_lon": 0.0, "type": "electric_scooter", "lat": 38.874753166666665, "bike_id": "576c51ec4662ea0e0c2d06af56a890de", "is_reserved": 0, "lon": -77.00067533333333, "rental_uris": {"android": "https://dc.lft.to/lastmile_qr_scan", "ios": "https://dc.lft.to/lastmile_qr_scan"}}, {"name": "9d35e9e05d951d3002177abe5f84dbf0", "is_disabled": 0, "fusion_lat": 0.0, "fusion_lon": 0.0, "type": "electric_scooter", "lat": 38.88118883333333, "bike_id": "9d35e9e05d951d3002177abe5f84dbf0", "is_reserved": 0, "lon": -76.99521133333333, "rental_uris": {"android": "https://dc.lft.to/lastmile_qr_scan", "ios": "https://dc.lft.to/lastmile_qr_scan"}}, {"name": "021f8a5dd68e7ae4b5d665f78961bfb3", "is_disabled": 0, "fusion_lat": 0.0, "fusion_lon": 0.0, "type": "electric_scooter", "lat": 38.90932333333333, "bike_id": "021f8a5dd68e7ae4b5d665f78961bfb3", "is_reserved": 0, "lon": -77.02318716666667, "rental_uris": {"android": "https://dc.lft.to/lastmile_qr_scan", "ios": "https://dc.lft.to/lastmile_qr_scan"}}, {"name": "61d744adbe171a2e9c172b615e24a4c4", "is_disabled": 0, "fusion_lat": 0.0, "fusion_lon": 0.0, "type": "electric_scooter", "lat": 38.86007083333333, "bike_id": "61d744adbe171a2e9c172b615e24a4c4", "is_reserved": 0, "lon": -76.98522033333333, "rental_uris": {"android": "https://dc.lft.to/lastmile_qr_scan", "ios": "https://dc.lft.to/lastmile_qr_scan"}}, {"name": "e93cfd27a5b2f4e185e3a9c06081a5c3", "is_disabled": 0, "fusion_lat": 0.0, "fusion_lon": 0.0, "type": "electric_scooter", "lat": 38.88397416666667, "bike_id": "e93cfd27a5b2f4e185e3a9c06081a5c3", "is_reserved": 0, "lon": -77.0303765, "rental_uris": {"android": "https://dc.lft.to/lastmile_qr_scan", "ios": "https://dc.lft.to/lastmile_qr_scan"}}, {"name": "96f7f985187c05b5942c06158d2260c4", "is_disabled": 0, "fusion_lat": 0.0, "fusion_lon": 0.0, "type": "electric_scooter", "lat": 38.898782, "bike_id": "96f7f985187c05b5942c06158d2260c4", "is_reserved": 0, "lon": -76.93186333333334, "rental_uris": {"android": "https://dc.lft.to/lastmile_qr_scan", "ios": "https://dc.lft.to/lastmile_qr_scan"}}, {"name": "923e60c378b25c841ece9f4557114037", "is_disabled": 0, "fusion_lat": 0.0, "fusion_lon": 0.0, "type": "electric_scooter", "lat": 38.9241495, "bike_id": "923e60c378b25c841ece9f4557114037", "is_reserved": 0, "lon": -77.05067483333333, "rental_uris": {"android": "https://dc.lft.to/lastmile_qr_scan", "ios": "https://dc.lft.to/lastmile_qr_scan"}}, {"name": "41c90fbf6d3f67567947fa20005da790", "is_disabled": 0, "fusion_lat": 0.0, "fusion_lon": 0.0, "type": "electric_bike", "lat": 38.907732833333334, "bike_id": "41c90fbf6d3f67567947fa20005da790", "is_reserved": 0, "lon": -77.06983183333334, "rental_uris": {"android": "https://dc.lft.to/lastmile_qr_scan", "ios": "https://dc.lft.to/lastmile_qr_scan"}}, {"name": "6de3d6f08f5b9f8d1441865818811ca8", "is_disabled": 0, "fusion_lat": 0.0, "fusion_lon": 0.0, "type": "electric_scooter", "lat": 38.91998916666667, "bike_id": "6de3d6f08f5b9f8d1441865818811ca8", "is_reserved": 0, "lon": -77.02184316666667, "rental_uris": {"android": "https://dc.lft.to/lastmile_qr_scan", "ios": "https://dc.lft.to/lastmile_qr_scan"}}, {"name": "0f036e08163a3dc107b7684e247f934a", "is_disabled": 0, "fusion_lat": 0.0, "fusion_lon": 0.0, "type": "electric_scooter", "lat": 38.90553216666667, "bike_id": "0f036e08163a3dc107b7684e247f934a", "is_reserved": 0, "lon": -77.00606116666667, "rental_uris": {"android": "https://dc.lft.to/lastmile_qr_scan", "ios": "https://dc.lft.to/lastmile_qr_scan"}}, {"name": "efe04c86b7b9ec687ffdab861b311c6c", "is_disabled": 0, "fusion_lat": 0.0, "fusion_lon": 0.0, "type": "electric_scooter", "lat": 38.908879166666665, "bike_id": "efe04c86b7b9ec687ffdab861b311c6c", "is_reserved": 0, "lon": -76.9984595, "rental_uris": {"android": "https://dc.lft.to/lastmile_qr_scan", "ios": "https://dc.lft.to/lastmile_qr_scan"}}, {"name": "13f148baa629e3cae6fb7512f4b341af", "is_disabled": 0, "fusion_lat": 0.0, "fusion_lon": 0.0, "type": "electric_scooter", "lat": 38.929371333333336, "bike_id": "13f148baa629e3cae6fb7512f4b341af", "is_reserved": 0, "lon": -77.02325316666666, "rental_uris": {"android": "https://dc.lft.to/lastmile_qr_scan", "ios": "https://dc.lft.to/lastmile_qr_scan"}}, {"name": "10b44cddcf3438cfb8996aa17ff159c5", "is_disabled": 0, "fusion_lat": 0.0, "fusion_lon": 0.0, "type": "electric_scooter", "lat": 38.901338833333334, "bike_id": "10b44cddcf3438cfb8996aa17ff159c5", "is_reserved": 0, "lon": -77.04487883333333, "rental_uris": {"android": "https://dc.lft.to/lastmile_qr_scan", "ios": "https://dc.lft.to/lastmile_qr_scan"}}, {"name": "de53a05642d1df9f63850c1eb6b0b210", "is_disabled": 0, "fusion_lat": 0.0, "fusion_lon": 0.0, "type": "electric_scooter", "lat": 38.902567833333336, "bike_id": "de53a05642d1df9f63850c1eb6b0b210", "is_reserved": 0, "lon": -77.03659966666666, "rental_uris": {"android": "https://dc.lft.to/lastmile_qr_scan", "ios": "https://dc.lft.to/lastmile_qr_scan"}}, {"name": "a6c9c1c88736fa7fb2ab8d4132647bfa", "is_disabled": 0, "fusion_lat": 0.0, "fusion_lon": 0.0, "type": "electric_scooter", "lat": 38.86093433333333, "bike_id": "a6c9c1c88736fa7fb2ab8d4132647bfa", "is_reserved": 0, "lon": -76.96890616666667, "rental_uris": {"android": "https://dc.lft.to/lastmile_qr_scan", "ios": "https://dc.lft.to/lastmile_qr_scan"}}, {"name": "da4f9eea4a47b2de5239519de247311f", "is_disabled": 0, "fusion_lat": 0.0, "fusion_lon": 0.0, "type": "electric_scooter", "lat": 38.931652666666665, "bike_id": "da4f9eea4a47b2de5239519de247311f", "is_reserved": 0, "lon": -77.036778, "rental_uris": {"android": "https://dc.lft.to/lastmile_qr_scan", "ios": "https://dc.lft.to/lastmile_qr_scan"}}, {"name": "9e15bffeee667c9dce617a4192ba2b55", "is_disabled": 0, "fusion_lat": 0.0, "fusion_lon": 0.0, "type": "electric_scooter", "lat": 38.932392, "bike_id": "9e15bffeee667c9dce617a4192ba2b55", "is_reserved": 0, "lon": -77.02829566666666, "rental_uris": {"android": "https://dc.lft.to/lastmile_qr_scan", "ios": "https://dc.lft.to/lastmile_qr_scan"}}, {"name": "527ca8268b606fd8877c3157a9b7c9a0", "is_disabled": 0, "fusion_lat": 0.0, "fusion_lon": 0.0, "type": "electric_scooter", "lat": 38.9179435, "bike_id": "527ca8268b606fd8877c3157a9b7c9a0", "is_reserved": 0, "lon": -77.04018533333333, "rental_uris": {"android": "https://dc.lft.to/lastmile_qr_scan", "ios": "https://dc.lft.to/lastmile_qr_scan"}}, {"name": "0e12a6d2041a76cc8fc2ce2f817ffc55", "is_disabled": 0, "fusion_lat": 0.0, "fusion_lon": 0.0, "type": "electric_scooter", "lat": 38.91181483333333, "bike_id": "0e12a6d2041a76cc8fc2ce2f817ffc55", "is_reserved": 0, "lon": -77.00460966666667, "rental_uris": {"android": "https://dc.lft.to/lastmile_qr_scan", "ios": "https://dc.lft.to/lastmile_qr_scan"}}, {"name": "1bd706a7d39edb3cc975826c81d8233c", "is_disabled": 0, "fusion_lat": 0.0, "fusion_lon": 0.0, "type": "electric_scooter", "lat": 38.90743366666667, "bike_id": "1bd706a7d39edb3cc975826c81d8233c", "is_reserved": 0, "lon": -77.03091366666666, "rental_uris": {"android": "https://dc.lft.to/lastmile_qr_scan", "ios": "https://dc.lft.to/lastmile_qr_scan"}}, {"name": "e94ff631ae6a8a4cc226d7fd312f424a", "is_disabled": 0, "fusion_lat": 0.0, "fusion_lon": 0.0, "type": "electric_scooter", "lat": 38.902506, "bike_id": "e94ff631ae6a8a4cc226d7fd312f424a", "is_reserved": 0, "lon": -77.02685533333333, "rental_uris": {"android": "https://dc.lft.to/lastmile_qr_scan", "ios": "https://dc.lft.to/lastmile_qr_scan"}}, {"name": "487afe1890ca622954be25644ee09c3b", "is_disabled": 0, "fusion_lat": 0.0, "fusion_lon": 0.0, "type": "electric_scooter", "lat": 38.8666345, "bike_id": "487afe1890ca622954be25644ee09c3b", "is_reserved": 0, "lon": -76.98878016666667, "rental_uris": {"android": "https://dc.lft.to/lastmile_qr_scan", "ios": "https://dc.lft.to/lastmile_qr_scan"}}, {"name": "855dd86b8cb6cd58619725fe57d9e0a5", "is_disabled": 0, "fusion_lat": 0.0, "fusion_lon": 0.0, "type": "electric_scooter", "lat": 38.91819516666666, "bike_id": "855dd86b8cb6cd58619725fe57d9e0a5", "is_reserved": 0, "lon": -77.036968, "rental_uris": {"android": "https://dc.lft.to/lastmile_qr_scan", "ios": "https://dc.lft.to/lastmile_qr_scan"}}, {"name": "9edd9a74fbbd130467250fe3f71271ed", "is_disabled": 0, "fusion_lat": 0.0, "fusion_lon": 0.0, "type": "electric_scooter", "lat": 38.8960925, "bike_id": "9edd9a74fbbd130467250fe3f71271ed", "is_reserved": 0, "lon": -77.03172033333334, "rental_uris": {"android": "https://dc.lft.to/lastmile_qr_scan", "ios": "https://dc.lft.to/lastmile_qr_scan"}}, {"name": "13a700b5b7ada2392afdb7fe0fa057cb", "is_disabled": 0, "fusion_lat": 0.0, "fusion_lon": 0.0, "type": "electric_scooter", "lat": 38.90491083333333, "bike_id": "13a700b5b7ada2392afdb7fe0fa057cb", "is_reserved": 0, "lon": -77.03798616666667, "rental_uris": {"android": "https://dc.lft.to/lastmile_qr_scan", "ios": "https://dc.lft.to/lastmile_qr_scan"}}, {"name": "083876618d971c1a164a875ef7ead902", "is_disabled": 0, "fusion_lat": 0.0, "fusion_lon": 0.0, "type": "electric_scooter", "lat": 38.90038466666667, "bike_id": "083876618d971c1a164a875ef7ead902", "is_reserved": 0, "lon": -77.0154065, "rental_uris": {"android": "https://dc.lft.to/lastmile_qr_scan", "ios": "https://dc.lft.to/lastmile_qr_scan"}}, {"name": "5c9267ae10eac35af44cad1f88719866", "is_disabled": 0, "fusion_lat": 0.0, "fusion_lon": 0.0, "type": "electric_bike", "lat": 38.95647816666666, "bike_id": "5c9267ae10eac35af44cad1f88719866", "is_reserved": 0, "lon": -77.01289533333333, "rental_uris": {"android": "https://dc.lft.to/lastmile_qr_scan", "ios": "https://dc.lft.to/lastmile_qr_scan"}}, {"name": "cd4d197c87aaada846d4c9e3f4423dea", "is_disabled": 0, "fusion_lat": 0.0, "fusion_lon": 0.0, "type": "electric_scooter", "lat": 38.902631166666666, "bike_id": "cd4d197c87aaada846d4c9e3f4423dea", "is_reserved": 0, "lon": -77.03439016666667, "rental_uris": {"android": "https://dc.lft.to/lastmile_qr_scan", "ios": "https://dc.lft.to/lastmile_qr_scan"}}, {"name": "15f2d455242ae18a5e0b3cbe42975555", "is_disabled": 0, "fusion_lat": 0.0, "fusion_lon": 0.0, "type": "electric_bike", "lat": 38.962768, "bike_id": "15f2d455242ae18a5e0b3cbe42975555", "is_reserved": 0, "lon": -77.01459166666666, "rental_uris": {"android": "https://dc.lft.to/lastmile_qr_scan", "ios": "https://dc.lft.to/lastmile_qr_scan"}}, {"name": "ac904090661ab0006196db13cd15caf9", "is_disabled": 0, "fusion_lat": 0.0, "fusion_lon": 0.0, "type": "electric_scooter", "lat": 38.89228683333333, "bike_id": "ac904090661ab0006196db13cd15caf9", "is_reserved": 0, "lon": -77.026356, "rental_uris": {"android": "https://dc.lft.to/lastmile_qr_scan", "ios": "https://dc.lft.to/lastmile_qr_scan"}}, {"name": "2936f226e1f231ecb22b8e1fe5076adc", "is_disabled": 0, "fusion_lat": 0.0, "fusion_lon": 0.0, "type": "electric_scooter", "lat": 38.922702, "bike_id": "2936f226e1f231ecb22b8e1fe5076adc", "is_reserved": 0, "lon": -77.0425145, "rental_uris": {"android": "https://dc.lft.to/lastmile_qr_scan", "ios": "https://dc.lft.to/lastmile_qr_scan"}}, {"name": "3b28f5b5254290c82f00dec0c1746280", "is_disabled": 0, "fusion_lat": 0.0, "fusion_lon": 0.0, "type": "electric_scooter", "lat": 38.90061933333333, "bike_id": "3b28f5b5254290c82f00dec0c1746280", "is_reserved": 0, "lon": -76.94694, "rental_uris": {"android": "https://dc.lft.to/lastmile_qr_scan", "ios": "https://dc.lft.to/lastmile_qr_scan"}}, {"name": "4d2675a4fc1e0fe07961cf1f1862d772", "is_disabled": 0, "fusion_lat": 0.0, "fusion_lon": 0.0, "type": "electric_bike", "lat": 38.951725, "bike_id": "4d2675a4fc1e0fe07961cf1f1862d772", "is_reserved": 0, "lon": -76.97730983333334, "rental_uris": {"android": "https://dc.lft.to/lastmile_qr_scan", "ios": "https://dc.lft.to/lastmile_qr_scan"}}, {"name": "ee7392dc60d9b92558bf5d74d2366eca", "is_disabled": 0, "fusion_lat": 0.0, "fusion_lon": 0.0, "type": "electric_scooter", "lat": 38.917337, "bike_id": "ee7392dc60d9b92558bf5d74d2366eca", "is_reserved": 0, "lon": -77.068427, "rental_uris": {"android": "https://dc.lft.to/lastmile_qr_scan", "ios": "https://dc.lft.to/lastmile_qr_scan"}}, {"name": "1d9298079ec64153773bbf9144af282c", "is_disabled": 0, "fusion_lat": 0.0, "fusion_lon": 0.0, "type": "electric_scooter", "lat": 38.89911816666667, "bike_id": "1d9298079ec64153773bbf9144af282c", "is_reserved": 0, "lon": -76.933813, "rental_uris": {"android": "https://dc.lft.to/lastmile_qr_scan", "ios": "https://dc.lft.to/lastmile_qr_scan"}}, {"name": "9b9b1dc941834b63f22c692167638aaf", "is_disabled": 0, "fusion_lat": 0.0, "fusion_lon": 0.0, "type": "electric_scooter", "lat": 38.92439533333334, "bike_id": "9b9b1dc941834b63f22c692167638aaf", "is_reserved": 0, "lon": -77.02162383333334, "rental_uris": {"android": "https://dc.lft.to/lastmile_qr_scan", "ios": "https://dc.lft.to/lastmile_qr_scan"}}, {"name": "230b3db915696a4820b0ba2a91172b88", "is_disabled": 0, "fusion_lat": 0.0, "fusion_lon": 0.0, "type": "electric_scooter", "lat": 38.89822216666666, "bike_id": "230b3db915696a4820b0ba2a91172b88", "is_reserved": 0, "lon": -76.94656316666666, "rental_uris": {"android": "https://dc.lft.to/lastmile_qr_scan", "ios": "https://dc.lft.to/lastmile_qr_scan"}}, {"name": "f8b83edb610b469c5075f088dcd15a95", "is_disabled": 0, "fusion_lat": 0.0, "fusion_lon": 0.0, "type": "electric_bike", "lat": 39.0629415, "bike_id": "f8b83edb610b469c5075f088dcd15a95", "is_reserved": 0, "lon": -77.04979033333333, "rental_uris": {"android": "https://dc.lft.to/lastmile_qr_scan", "ios": "https://dc.lft.to/lastmile_qr_scan"}}, {"name": "c3a3f83bd95fabc3ed73217dd1846c54", "is_disabled": 0, "fusion_lat": 0.0, "fusion_lon": 0.0, "type": "electric_scooter", "lat": 38.92312666666667, "bike_id": "c3a3f83bd95fabc3ed73217dd1846c54", "is_reserved": 0, "lon": -77.01952366666667, "rental_uris": {"android": "https://dc.lft.to/lastmile_qr_scan", "ios": "https://dc.lft.to/lastmile_qr_scan"}}, {"name": "8d28a30b633b25efcc12e9421a742c10", "is_disabled": 0, "fusion_lat": 0.0, "fusion_lon": 0.0, "type": "electric_scooter", "lat": 38.917958666666664, "bike_id": "8d28a30b633b25efcc12e9421a742c10", "is_reserved": 0, "lon": -77.0402185, "rental_uris": {"android": "https://dc.lft.to/lastmile_qr_scan", "ios": "https://dc.lft.to/lastmile_qr_scan"}}, {"name": "676b844f34f589643ec4dd1349b63410", "is_disabled": 0, "fusion_lat": 0.0, "fusion_lon": 0.0, "type": "electric_scooter", "lat": 38.892209, "bike_id": "676b844f34f589643ec4dd1349b63410", "is_reserved": 0, "lon": -77.02350566666667, "rental_uris": {"android": "https://dc.lft.to/lastmile_qr_scan", "ios": "https://dc.lft.to/lastmile_qr_scan"}}, {"name": "700dff09a79dbb6e4d3ccee75994eeac", "is_disabled": 0, "fusion_lat": 0.0, "fusion_lon": 0.0, "type": "electric_scooter", "lat": 38.922353333333334, "bike_id": "700dff09a79dbb6e4d3ccee75994eeac", "is_reserved": 0, "lon": -77.03668283333333, "rental_uris": {"android": "https://dc.lft.to/lastmile_qr_scan", "ios": "https://dc.lft.to/lastmile_qr_scan"}}, {"name": "7a6ce4dfea1045e1e04a945c6be50af4", "is_disabled": 0, "fusion_lat": 0.0, "fusion_lon": 0.0, "type": "electric_scooter", "lat": 38.8728265, "bike_id": "7a6ce4dfea1045e1e04a945c6be50af4", "is_reserved": 0, "lon": -76.97732983333333, "rental_uris": {"android": "https://dc.lft.to/lastmile_qr_scan", "ios": "https://dc.lft.to/lastmile_qr_scan"}}, {"name": "1e36da09db6e49c19947a9b44c898933", "is_disabled": 0, "fusion_lat": 0.0, "fusion_lon": 0.0, "type": "electric_scooter", "lat": 38.91554, "bike_id": "1e36da09db6e49c19947a9b44c898933", "is_reserved": 0, "lon": -77.05326516666666, "rental_uris": {"android": "https://dc.lft.to/lastmile_qr_scan", "ios": "https://dc.lft.to/lastmile_qr_scan"}}, {"name": "23f3f1fd78adc6944a874c39d9464994", "is_disabled": 0, "fusion_lat": 0.0, "fusion_lon": 0.0, "type": "electric_scooter", "lat": 38.92385016666667, "bike_id": "23f3f1fd78adc6944a874c39d9464994", "is_reserved": 0, "lon": -77.0276505, "rental_uris": {"android": "https://dc.lft.to/lastmile_qr_scan", "ios": "https://dc.lft.to/lastmile_qr_scan"}}, {"name": "34ee62d48badd86d9cd0f9dd5d54558c", "is_disabled": 0, "fusion_lat": 0.0, "fusion_lon": 0.0, "type": "electric_scooter", "lat": 38.91921766666667, "bike_id": "34ee62d48badd86d9cd0f9dd5d54558c", "is_reserved": 0, "lon": -77.03395266666666, "rental_uris": {"android": "https://dc.lft.to/lastmile_qr_scan", "ios": "https://dc.lft.to/lastmile_qr_scan"}}, {"name": "2ccc1c82ffedc559004338cb1a635964", "is_disabled": 0, "fusion_lat": 0.0, "fusion_lon": 0.0, "type": "electric_scooter", "lat": 38.89224033333333, "bike_id": "2ccc1c82ffedc559004338cb1a635964", "is_reserved": 0, "lon": -77.04337966666667, "rental_uris": {"android": "https://dc.lft.to/lastmile_qr_scan", "ios": "https://dc.lft.to/lastmile_qr_scan"}}, {"name": "2b3acc9c9fd41d7d851a7ad392149cd2", "is_disabled": 0, "fusion_lat": 0.0, "fusion_lon": 0.0, "type": "electric_scooter", "lat": 38.903789333333336, "bike_id": "2b3acc9c9fd41d7d851a7ad392149cd2", "is_reserved": 0, "lon": -77.04495316666667, "rental_uris": {"android": "https://dc.lft.to/lastmile_qr_scan", "ios": "https://dc.lft.to/lastmile_qr_scan"}}, {"name": "2bc6711431c8fff74eb57b6a7ee2cf83", "is_disabled": 0, "fusion_lat": 0.0, "fusion_lon": 0.0, "type": "electric_scooter", "lat": 38.900214, "bike_id": "2bc6711431c8fff74eb57b6a7ee2cf83", "is_reserved": 0, "lon": -77.03043316666667, "rental_uris": {"android": "https://dc.lft.to/lastmile_qr_scan", "ios": "https://dc.lft.to/lastmile_qr_scan"}}, {"name": "e01dfd280869b27fb9e9445a7077faa3", "is_disabled": 0, "fusion_lat": 0.0, "fusion_lon": 0.0, "type": "electric_scooter", "lat": 38.901468666666666, "bike_id": "e01dfd280869b27fb9e9445a7077faa3", "is_reserved": 0, "lon": -76.92987766666667, "rental_uris": {"android": "https://dc.lft.to/lastmile_qr_scan", "ios": "https://dc.lft.to/lastmile_qr_scan"}}, {"name": "9a9bead5e213af223ab87fdf1dcfc9ae", "is_disabled": 0, "fusion_lat": 0.0, "fusion_lon": 0.0, "type": "electric_bike", "lat": 38.973917166666666, "bike_id": "9a9bead5e213af223ab87fdf1dcfc9ae", "is_reserved": 0, "lon": -77.06454716666667, "rental_uris": {"android": "https://dc.lft.to/lastmile_qr_scan", "ios": "https://dc.lft.to/lastmile_qr_scan"}}, {"name": "5d3b54600a6adbcd3bb4d5811e4d4c57", "is_disabled": 0, "fusion_lat": 0.0, "fusion_lon": 0.0, "type": "electric_scooter", "lat": 38.9282695, "bike_id": "5d3b54600a6adbcd3bb4d5811e4d4c57", "is_reserved": 0, "lon": -77.05976783333334, "rental_uris": {"android": "https://dc.lft.to/lastmile_qr_scan", "ios": "https://dc.lft.to/lastmile_qr_scan"}}, {"name": "abda88d0881440fa3762abfa631816da", "is_disabled": 0, "fusion_lat": 0.0, "fusion_lon": 0.0, "type": "electric_scooter", "lat": 38.9080315, "bike_id": "abda88d0881440fa3762abfa631816da", "is_reserved": 0, "lon": -76.98737633333333, "rental_uris": {"android": "https://dc.lft.to/lastmile_qr_scan", "ios": "https://dc.lft.to/lastmile_qr_scan"}}, {"name": "6f959a71b18b36b5a43cd15731d2e4bf", "is_disabled": 0, "fusion_lat": 0.0, "fusion_lon": 0.0, "type": "electric_scooter", "lat": 38.9140765, "bike_id": "6f959a71b18b36b5a43cd15731d2e4bf", "is_reserved": 0, "lon": -77.0448345, "rental_uris": {"android": "https://dc.lft.to/lastmile_qr_scan", "ios": "https://dc.lft.to/lastmile_qr_scan"}}, {"name": "f0fd95f7a565aa77fc1f1a9783837700", "is_disabled": 0, "fusion_lat": 0.0, "fusion_lon": 0.0, "type": "electric_scooter", "lat": 38.8859895, "bike_id": "f0fd95f7a565aa77fc1f1a9783837700", "is_reserved": 0, "lon": -77.04515516666666, "rental_uris": {"android": "https://dc.lft.to/lastmile_qr_scan", "ios": "https://dc.lft.to/lastmile_qr_scan"}}, {"name": "c2360841b835c59ac6301da69f33cf37", "is_disabled": 0, "fusion_lat": 0.0, "fusion_lon": 0.0, "type": "electric_scooter", "lat": 38.91114016666667, "bike_id": "c2360841b835c59ac6301da69f33cf37", "is_reserved": 0, "lon": -77.0201465, "rental_uris": {"android": "https://dc.lft.to/lastmile_qr_scan", "ios": "https://dc.lft.to/lastmile_qr_scan"}}, {"name": "38f2429fd32f43a9e990b43e205f974b", "is_disabled": 0, "fusion_lat": 0.0, "fusion_lon": 0.0, "type": "electric_scooter", "lat": 38.919218666666666, "bike_id": "38f2429fd32f43a9e990b43e205f974b", "is_reserved": 0, "lon": -77.03213083333333, "rental_uris": {"android": "https://dc.lft.to/lastmile_qr_scan", "ios": "https://dc.lft.to/lastmile_qr_scan"}}, {"name": "843454bf60f611483b5995f6d4f7ffd3", "is_disabled": 0, "fusion_lat": 0.0, "fusion_lon": 0.0, "type": "electric_scooter", "lat": 38.924274833333335, "bike_id": "843454bf60f611483b5995f6d4f7ffd3", "is_reserved": 0, "lon": -77.02029816666666, "rental_uris": {"android": "https://dc.lft.to/lastmile_qr_scan", "ios": "https://dc.lft.to/lastmile_qr_scan"}}, {"name": "f12ee6c094b59f669fd5c7b08a5b0908", "is_disabled": 0, "fusion_lat": 0.0, "fusion_lon": 0.0, "type": "electric_scooter", "lat": 38.8697425, "bike_id": "f12ee6c094b59f669fd5c7b08a5b0908", "is_reserved": 0, "lon": -77.01214066666667, "rental_uris": {"android": "https://dc.lft.to/lastmile_qr_scan", "ios": "https://dc.lft.to/lastmile_qr_scan"}}, {"name": "488f13e6e8190c2cb66d69cb62028c27", "is_disabled": 0, "fusion_lat": 0.0, "fusion_lon": 0.0, "type": "electric_scooter", "lat": 38.913472166666665, "bike_id": "488f13e6e8190c2cb66d69cb62028c27", "is_reserved": 0, "lon": -77.02058566666666, "rental_uris": {"android": "https://dc.lft.to/lastmile_qr_scan", "ios": "https://dc.lft.to/lastmile_qr_scan"}}, {"name": "452417a4de00b13a15b1afa9c52aaac9", "is_disabled": 0, "fusion_lat": 0.0, "fusion_lon": 0.0, "type": "electric_scooter", "lat": 38.942077166666664, "bike_id": "452417a4de00b13a15b1afa9c52aaac9", "is_reserved": 0, "lon": -77.02516266666666, "rental_uris": {"android": "https://dc.lft.to/lastmile_qr_scan", "ios": "https://dc.lft.to/lastmile_qr_scan"}}, {"name": "1e8bffc7b917137fd400031659a5fcc7", "is_disabled": 0, "fusion_lat": 0.0, "fusion_lon": 0.0, "type": "electric_scooter", "lat": 38.919475, "bike_id": "1e8bffc7b917137fd400031659a5fcc7", "is_reserved": 0, "lon": -77.02889533333334, "rental_uris": {"android": "https://dc.lft.to/lastmile_qr_scan", "ios": "https://dc.lft.to/lastmile_qr_scan"}}, {"name": "1c6801573f912042b45cbd4ddb69285e", "is_disabled": 0, "fusion_lat": 0.0, "fusion_lon": 0.0, "type": "electric_scooter", "lat": 38.921369, "bike_id": "1c6801573f912042b45cbd4ddb69285e", "is_reserved": 0, "lon": -77.02519583333333, "rental_uris": {"android": "https://dc.lft.to/lastmile_qr_scan", "ios": "https://dc.lft.to/lastmile_qr_scan"}}, {"name": "657069dc06ab55dc6a6ca9f006adec37", "is_disabled": 0, "fusion_lat": 0.0, "fusion_lon": 0.0, "type": "electric_scooter", "lat": 38.8922005, "bike_id": "657069dc06ab55dc6a6ca9f006adec37", "is_reserved": 0, "lon": -77.0430895, "rental_uris": {"android": "https://dc.lft.to/lastmile_qr_scan", "ios": "https://dc.lft.to/lastmile_qr_scan"}}, {"name": "9a22cb3f9f2f91b9b6b6aa2f1ad3e2d1", "is_disabled": 0, "fusion_lat": 0.0, "fusion_lon": 0.0, "type": "electric_scooter", "lat": 38.95835116666667, "bike_id": "9a22cb3f9f2f91b9b6b6aa2f1ad3e2d1", "is_reserved": 0, "lon": -77.01513416666667, "rental_uris": {"android": "https://dc.lft.to/lastmile_qr_scan", "ios": "https://dc.lft.to/lastmile_qr_scan"}}, {"name": "525742ba9cb849902891ef7f3de3e6fa", "is_disabled": 0, "fusion_lat": 0.0, "fusion_lon": 0.0, "type": "electric_bike", "lat": 39.042295, "bike_id": "525742ba9cb849902891ef7f3de3e6fa", "is_reserved": 0, "lon": -77.03080866666667, "rental_uris": {"android": "https://dc.lft.to/lastmile_qr_scan", "ios": "https://dc.lft.to/lastmile_qr_scan"}}, {"name": "a2cd225b2fe8406414450a54c638aa05", "is_disabled": 0, "fusion_lat": 0.0, "fusion_lon": 0.0, "type": "electric_scooter", "lat": 38.87645583333333, "bike_id": "a2cd225b2fe8406414450a54c638aa05", "is_reserved": 0, "lon": -76.96505966666666, "rental_uris": {"android": "https://dc.lft.to/lastmile_qr_scan", "ios": "https://dc.lft.to/lastmile_qr_scan"}}, {"name": "6b89a8e25f7f13ba2efe8a5ce34a1cb0", "is_disabled": 0, "fusion_lat": 0.0, "fusion_lon": 0.0, "type": "electric_scooter", "lat": 38.95133116666667, "bike_id": "6b89a8e25f7f13ba2efe8a5ce34a1cb0", "is_reserved": 0, "lon": -77.02724783333333, "rental_uris": {"android": "https://dc.lft.to/lastmile_qr_scan", "ios": "https://dc.lft.to/lastmile_qr_scan"}}, {"name": "086bf568f5bac2f6c89efedb3ce7c758", "is_disabled": 0, "fusion_lat": 0.0, "fusion_lon": 0.0, "type": "electric_bike", "lat": 38.932361, "bike_id": "086bf568f5bac2f6c89efedb3ce7c758", "is_reserved": 0, "lon": -76.97424783333334, "rental_uris": {"android": "https://dc.lft.to/lastmile_qr_scan", "ios": "https://dc.lft.to/lastmile_qr_scan"}}, {"name": "32a2609947186f998f22d0ab8446ef98", "is_disabled": 0, "fusion_lat": 0.0, "fusion_lon": 0.0, "type": "electric_bike", "lat": 38.955039666666664, "bike_id": "32a2609947186f998f22d0ab8446ef98", "is_reserved": 0, "lon": -76.993593, "rental_uris": {"android": "https://dc.lft.to/lastmile_qr_scan", "ios": "https://dc.lft.to/lastmile_qr_scan"}}, {"name": "53d6fc630c8277f026d8c9b6ca2786fc", "is_disabled": 0, "fusion_lat": 0.0, "fusion_lon": 0.0, "type": "electric_scooter", "lat": 38.93060216666667, "bike_id": "53d6fc630c8277f026d8c9b6ca2786fc", "is_reserved": 0, "lon": -77.0320615, "rental_uris": {"android": "https://dc.lft.to/lastmile_qr_scan", "ios": "https://dc.lft.to/lastmile_qr_scan"}}, {"name": "1e4a513e0ea735e55945cd61ad071a1a", "is_disabled": 0, "fusion_lat": 0.0, "fusion_lon": 0.0, "type": "electric_scooter", "lat": 38.88743383333333, "bike_id": "1e4a513e0ea735e55945cd61ad071a1a", "is_reserved": 0, "lon": -77.02737666666667, "rental_uris": {"android": "https://dc.lft.to/lastmile_qr_scan", "ios": "https://dc.lft.to/lastmile_qr_scan"}}, {"name": "f25ebdccff00773fe8e28482e019b84f", "is_disabled": 0, "fusion_lat": 0.0, "fusion_lon": 0.0, "type": "electric_scooter", "lat": 38.89230883333333, "bike_id": "f25ebdccff00773fe8e28482e019b84f", "is_reserved": 0, "lon": -77.03137183333334, "rental_uris": {"android": "https://dc.lft.to/lastmile_qr_scan", "ios": "https://dc.lft.to/lastmile_qr_scan"}}, {"name": "6934728e455fa48b10e0e8db7ffc228e", "is_disabled": 0, "fusion_lat": 0.0, "fusion_lon": 0.0, "type": "electric_scooter", "lat": 38.926583666666666, "bike_id": "6934728e455fa48b10e0e8db7ffc228e", "is_reserved": 0, "lon": -77.02281816666667, "rental_uris": {"android": "https://dc.lft.to/lastmile_qr_scan", "ios": "https://dc.lft.to/lastmile_qr_scan"}}, {"name": "bc865f7397d5a44bf3018f5d32f45e6f", "is_disabled": 0, "fusion_lat": 0.0, "fusion_lon": 0.0, "type": "electric_scooter", "lat": 38.9204015, "bike_id": "bc865f7397d5a44bf3018f5d32f45e6f", "is_reserved": 0, "lon": -77.016546, "rental_uris": {"android": "https://dc.lft.to/lastmile_qr_scan", "ios": "https://dc.lft.to/lastmile_qr_scan"}}, {"name": "0255fa694394ee24f27ebe48453c027e", "is_disabled": 0, "fusion_lat": 0.0, "fusion_lon": 0.0, "type": "electric_scooter", "lat": 38.886764, "bike_id": "0255fa694394ee24f27ebe48453c027e", "is_reserved": 0, "lon": -76.95477383333333, "rental_uris": {"android": "https://dc.lft.to/lastmile_qr_scan", "ios": "https://dc.lft.to/lastmile_qr_scan"}}, {"name": "f5c0352c301642e036ebd6ba2053f1fd", "is_disabled": 0, "fusion_lat": 0.0, "fusion_lon": 0.0, "type": "electric_scooter", "lat": 38.90882883333333, "bike_id": "f5c0352c301642e036ebd6ba2053f1fd", "is_reserved": 0, "lon": -76.98545066666667, "rental_uris": {"android": "https://dc.lft.to/lastmile_qr_scan", "ios": "https://dc.lft.to/lastmile_qr_scan"}}, {"name": "b0c7512000cae6892ccc4fbaf1fd3cb8", "is_disabled": 0, "fusion_lat": 0.0, "fusion_lon": 0.0, "type": "electric_scooter", "lat": 38.9204495, "bike_id": "b0c7512000cae6892ccc4fbaf1fd3cb8", "is_reserved": 0, "lon": -77.029915, "rental_uris": {"android": "https://dc.lft.to/lastmile_qr_scan", "ios": "https://dc.lft.to/lastmile_qr_scan"}}, {"name": "ec91b2c3ae3f9950fd535e87625e76d9", "is_disabled": 0, "fusion_lat": 0.0, "fusion_lon": 0.0, "type": "electric_scooter", "lat": 38.915526666666665, "bike_id": "ec91b2c3ae3f9950fd535e87625e76d9", "is_reserved": 0, "lon": -77.02210966666667, "rental_uris": {"android": "https://dc.lft.to/lastmile_qr_scan", "ios": "https://dc.lft.to/lastmile_qr_scan"}}, {"name": "9837c5ae9ffc0318fabdff9c069a5bdf", "is_disabled": 0, "fusion_lat": 0.0, "fusion_lon": 0.0, "type": "electric_scooter", "lat": 38.900229333333336, "bike_id": "9837c5ae9ffc0318fabdff9c069a5bdf", "is_reserved": 0, "lon": -76.99592033333333, "rental_uris": {"android": "https://dc.lft.to/lastmile_qr_scan", "ios": "https://dc.lft.to/lastmile_qr_scan"}}, {"name": "a5ffb1d7d9faf9a6b5725ffda3ccd4a1", "is_disabled": 0, "fusion_lat": 0.0, "fusion_lon": 0.0, "type": "electric_scooter", "lat": 38.919321333333336, "bike_id": "a5ffb1d7d9faf9a6b5725ffda3ccd4a1", "is_reserved": 0, "lon": -77.03412083333333, "rental_uris": {"android": "https://dc.lft.to/lastmile_qr_scan", "ios": "https://dc.lft.to/lastmile_qr_scan"}}, {"name": "767af42be8437d0e3b88ac780b2600f4", "is_disabled": 0, "fusion_lat": 0.0, "fusion_lon": 0.0, "type": "electric_scooter", "lat": 38.883621, "bike_id": "767af42be8437d0e3b88ac780b2600f4", "is_reserved": 0, "lon": -76.94156516666666, "rental_uris": {"android": "https://dc.lft.to/lastmile_qr_scan", "ios": "https://dc.lft.to/lastmile_qr_scan"}}, {"name": "50c043e7e1f60b8fab8491d179003101", "is_disabled": 0, "fusion_lat": 0.0, "fusion_lon": 0.0, "type": "electric_scooter", "lat": 38.88123616666667, "bike_id": "50c043e7e1f60b8fab8491d179003101", "is_reserved": 0, "lon": -77.00043483333333, "rental_uris": {"android": "https://dc.lft.to/lastmile_qr_scan", "ios": "https://dc.lft.to/lastmile_qr_scan"}}, {"name": "74ef5fd1bfea8b59c09d08ddda8dfc83", "is_disabled": 0, "fusion_lat": 0.0, "fusion_lon": 0.0, "type": "electric_scooter", "lat": 38.896131833333335, "bike_id": "74ef5fd1bfea8b59c09d08ddda8dfc83", "is_reserved": 0, "lon": -77.04559116666667, "rental_uris": {"android": "https://dc.lft.to/lastmile_qr_scan", "ios": "https://dc.lft.to/lastmile_qr_scan"}}, {"name": "487a1f4b0850fc4d5db19385407c7dfa", "is_disabled": 0, "fusion_lat": 0.0, "fusion_lon": 0.0, "type": "electric_scooter", "lat": 38.90034983333334, "bike_id": "487a1f4b0850fc4d5db19385407c7dfa", "is_reserved": 0, "lon": -77.03309216666666, "rental_uris": {"android": "https://dc.lft.to/lastmile_qr_scan", "ios": "https://dc.lft.to/lastmile_qr_scan"}}, {"name": "ab5f9211d2fe19ee745041729c1398e1", "is_disabled": 0, "fusion_lat": 0.0, "fusion_lon": 0.0, "type": "electric_scooter", "lat": 38.9222455, "bike_id": "ab5f9211d2fe19ee745041729c1398e1", "is_reserved": 0, "lon": -77.04498733333334, "rental_uris": {"android": "https://dc.lft.to/lastmile_qr_scan", "ios": "https://dc.lft.to/lastmile_qr_scan"}}, {"name": "e8ef564b226380d145efcb22d2e419c0", "is_disabled": 0, "fusion_lat": 0.0, "fusion_lon": 0.0, "type": "electric_bike", "lat": 38.85501266666667, "bike_id": "e8ef564b226380d145efcb22d2e419c0", "is_reserved": 0, "lon": -76.9842775, "rental_uris": {"android": "https://dc.lft.to/lastmile_qr_scan", "ios": "https://dc.lft.to/lastmile_qr_scan"}}, {"name": "9a1ee73466a129ee51b0c4bf91ecd818", "is_disabled": 0, "fusion_lat": 0.0, "fusion_lon": 0.0, "type": "electric_scooter", "lat": 38.9191815, "bike_id": "9a1ee73466a129ee51b0c4bf91ecd818", "is_reserved": 0, "lon": -77.07896766666667, "rental_uris": {"android": "https://dc.lft.to/lastmile_qr_scan", "ios": "https://dc.lft.to/lastmile_qr_scan"}}, {"name": "bf1139b324d7711edfe39b0611c3efb0", "is_disabled": 0, "fusion_lat": 0.0, "fusion_lon": 0.0, "type": "electric_bike", "lat": 38.87881633333333, "bike_id": "bf1139b324d7711edfe39b0611c3efb0", "is_reserved": 0, "lon": -77.096104, "rental_uris": {"android": "https://dc.lft.to/lastmile_qr_scan", "ios": "https://dc.lft.to/lastmile_qr_scan"}}, {"name": "c5a58c7c4a8aa9faebaeb062b661894b", "is_disabled": 0, "fusion_lat": 0.0, "fusion_lon": 0.0, "type": "electric_scooter", "lat": 38.9054625, "bike_id": "c5a58c7c4a8aa9faebaeb062b661894b", "is_reserved": 0, "lon": -77.04655533333333, "rental_uris": {"android": "https://dc.lft.to/lastmile_qr_scan", "ios": "https://dc.lft.to/lastmile_qr_scan"}}, {"name": "12fb58649ee4a7313391dd0b6098a71f", "is_disabled": 0, "fusion_lat": 0.0, "fusion_lon": 0.0, "type": "electric_scooter", "lat": 38.90320116666667, "bike_id": "12fb58649ee4a7313391dd0b6098a71f", "is_reserved": 0, "lon": -76.98153216666667, "rental_uris": {"android": "https://dc.lft.to/lastmile_qr_scan", "ios": "https://dc.lft.to/lastmile_qr_scan"}}, {"name": "309a3bf192603501877e6de16d2d9d78", "is_disabled": 0, "fusion_lat": 0.0, "fusion_lon": 0.0, "type": "electric_scooter", "lat": 38.905693666666664, "bike_id": "309a3bf192603501877e6de16d2d9d78", "is_reserved": 0, "lon": -77.0219285, "rental_uris": {"android": "https://dc.lft.to/lastmile_qr_scan", "ios": "https://dc.lft.to/lastmile_qr_scan"}}, {"name": "fae4c11ab525a57a8e6fbc70cec5b84f", "is_disabled": 0, "fusion_lat": 0.0, "fusion_lon": 0.0, "type": "electric_scooter", "lat": 38.90497883333333, "bike_id": "fae4c11ab525a57a8e6fbc70cec5b84f", "is_reserved": 0, "lon": -77.03430933333334, "rental_uris": {"android": "https://dc.lft.to/lastmile_qr_scan", "ios": "https://dc.lft.to/lastmile_qr_scan"}}, {"name": "762687425c23c3210dff290df0cf1f7a", "is_disabled": 0, "fusion_lat": 0.0, "fusion_lon": 0.0, "type": "electric_scooter", "lat": 38.9246145, "bike_id": "762687425c23c3210dff290df0cf1f7a", "is_reserved": 0, "lon": -77.04036416666666, "rental_uris": {"android": "https://dc.lft.to/lastmile_qr_scan", "ios": "https://dc.lft.to/lastmile_qr_scan"}}, {"name": "96637203033a7c448977e4377414f38d", "is_disabled": 0, "fusion_lat": 0.0, "fusion_lon": 0.0, "type": "electric_scooter", "lat": 38.9156515, "bike_id": "96637203033a7c448977e4377414f38d", "is_reserved": 0, "lon": -77.03237883333334, "rental_uris": {"android": "https://dc.lft.to/lastmile_qr_scan", "ios": "https://dc.lft.to/lastmile_qr_scan"}}, {"name": "7f8776bda66e418ad334bdaad18a83fb", "is_disabled": 0, "fusion_lat": 0.0, "fusion_lon": 0.0, "type": "electric_scooter", "lat": 38.92047133333333, "bike_id": "7f8776bda66e418ad334bdaad18a83fb", "is_reserved": 0, "lon": -77.0419225, "rental_uris": {"android": "https://dc.lft.to/lastmile_qr_scan", "ios": "https://dc.lft.to/lastmile_qr_scan"}}, {"name": "4fdfdd941e1b66d2020a13ded62e4799", "is_disabled": 0, "fusion_lat": 0.0, "fusion_lon": 0.0, "type": "electric_scooter", "lat": 38.885259833333336, "bike_id": "4fdfdd941e1b66d2020a13ded62e4799", "is_reserved": 0, "lon": -76.99827183333333, "rental_uris": {"android": "https://dc.lft.to/lastmile_qr_scan", "ios": "https://dc.lft.to/lastmile_qr_scan"}}, {"name": "094ebe72a3ccaa48b4efc724e28c4694", "is_disabled": 0, "fusion_lat": 0.0, "fusion_lon": 0.0, "type": "electric_scooter", "lat": 38.9084345, "bike_id": "094ebe72a3ccaa48b4efc724e28c4694", "is_reserved": 0, "lon": -77.034691, "rental_uris": {"android": "https://dc.lft.to/lastmile_qr_scan", "ios": "https://dc.lft.to/lastmile_qr_scan"}}, {"name": "27aa03503823bd34ae7eabba56f20faa", "is_disabled": 0, "fusion_lat": 0.0, "fusion_lon": 0.0, "type": "electric_scooter", "lat": 38.957482166666665, "bike_id": "27aa03503823bd34ae7eabba56f20faa", "is_reserved": 0, "lon": -77.02066883333333, "rental_uris": {"android": "https://dc.lft.to/lastmile_qr_scan", "ios": "https://dc.lft.to/lastmile_qr_scan"}}, {"name": "187e03506f819072b77257627ef0bc39", "is_disabled": 0, "fusion_lat": 0.0, "fusion_lon": 0.0, "type": "electric_scooter", "lat": 38.859144666666666, "bike_id": "187e03506f819072b77257627ef0bc39", "is_reserved": 0, "lon": -76.98982683333334, "rental_uris": {"android": "https://dc.lft.to/lastmile_qr_scan", "ios": "https://dc.lft.to/lastmile_qr_scan"}}, {"name": "3f765d04690644626e78f971e160f63a", "is_disabled": 0, "fusion_lat": 0.0, "fusion_lon": 0.0, "type": "electric_scooter", "lat": 38.88437616666667, "bike_id": "3f765d04690644626e78f971e160f63a", "is_reserved": 0, "lon": -77.02961216666667, "rental_uris": {"android": "https://dc.lft.to/lastmile_qr_scan", "ios": "https://dc.lft.to/lastmile_qr_scan"}}, {"name": "a4412ba1fd385688daccc48bce927d33", "is_disabled": 0, "fusion_lat": 0.0, "fusion_lon": 0.0, "type": "electric_scooter", "lat": 38.897193666666666, "bike_id": "a4412ba1fd385688daccc48bce927d33", "is_reserved": 0, "lon": -76.97353833333334, "rental_uris": {"android": "https://dc.lft.to/lastmile_qr_scan", "ios": "https://dc.lft.to/lastmile_qr_scan"}}, {"name": "f8088d6008e118b288ebefadf3ee41b5", "is_disabled": 0, "fusion_lat": 0.0, "fusion_lon": 0.0, "type": "electric_scooter", "lat": 38.87160266666667, "bike_id": "f8088d6008e118b288ebefadf3ee41b5", "is_reserved": 0, "lon": -76.96903616666667, "rental_uris": {"android": "https://dc.lft.to/lastmile_qr_scan", "ios": "https://dc.lft.to/lastmile_qr_scan"}}, {"name": "ef38207e5753d9c5dc5691f6d7b68bd6", "is_disabled": 0, "fusion_lat": 0.0, "fusion_lon": 0.0, "type": "electric_bike", "lat": 38.93151366666667, "bike_id": "ef38207e5753d9c5dc5691f6d7b68bd6", "is_reserved": 0, "lon": -77.02710283333333, "rental_uris": {"android": "https://dc.lft.to/lastmile_qr_scan", "ios": "https://dc.lft.to/lastmile_qr_scan"}}, {"name": "3bae674c6aa27cff2a1535ca00342d2c", "is_disabled": 0, "fusion_lat": 0.0, "fusion_lon": 0.0, "type": "electric_bike", "lat": 38.983639833333335, "bike_id": "3bae674c6aa27cff2a1535ca00342d2c", "is_reserved": 0, "lon": -76.9721875, "rental_uris": {"android": "https://dc.lft.to/lastmile_qr_scan", "ios": "https://dc.lft.to/lastmile_qr_scan"}}, {"name": "cf9287274e38f2c27c96274b30522a14", "is_disabled": 0, "fusion_lat": 0.0, "fusion_lon": 0.0, "type": "electric_scooter", "lat": 38.92574916666667, "bike_id": "cf9287274e38f2c27c96274b30522a14", "is_reserved": 0, "lon": -77.03923716666667, "rental_uris": {"android": "https://dc.lft.to/lastmile_qr_scan", "ios": "https://dc.lft.to/lastmile_qr_scan"}}, {"name": "241aa0c2791d29672016b73b35211f37", "is_disabled": 0, "fusion_lat": 0.0, "fusion_lon": 0.0, "type": "electric_scooter", "lat": 38.906628, "bike_id": "241aa0c2791d29672016b73b35211f37", "is_reserved": 0, "lon": -77.04499483333333, "rental_uris": {"android": "https://dc.lft.to/lastmile_qr_scan", "ios": "https://dc.lft.to/lastmile_qr_scan"}}, {"name": "2f19cb36688d70e3ef56c47592b16b55", "is_disabled": 0, "fusion_lat": 0.0, "fusion_lon": 0.0, "type": "electric_scooter", "lat": 38.924126, "bike_id": "2f19cb36688d70e3ef56c47592b16b55", "is_reserved": 0, "lon": -77.05058416666667, "rental_uris": {"android": "https://dc.lft.to/lastmile_qr_scan", "ios": "https://dc.lft.to/lastmile_qr_scan"}}, {"name": "c0aae6bbae4d15ef0d484808959e3b23", "is_disabled": 0, "fusion_lat": 0.0, "fusion_lon": 0.0, "type": "electric_bike", "lat": 38.859343333333335, "bike_id": "c0aae6bbae4d15ef0d484808959e3b23", "is_reserved": 0, "lon": -77.1183125, "rental_uris": {"android": "https://dc.lft.to/lastmile_qr_scan", "ios": "https://dc.lft.to/lastmile_qr_scan"}}, {"name": "8fc4f5b0f7af04986d5cb6128298a775", "is_disabled": 0, "fusion_lat": 0.0, "fusion_lon": 0.0, "type": "electric_scooter", "lat": 38.956035666666665, "bike_id": "8fc4f5b0f7af04986d5cb6128298a775", "is_reserved": 0, "lon": -77.0278445, "rental_uris": {"android": "https://dc.lft.to/lastmile_qr_scan", "ios": "https://dc.lft.to/lastmile_qr_scan"}}, {"name": "4a562ed73bc2dd394c87f07b13066e46", "is_disabled": 0, "fusion_lat": 0.0, "fusion_lon": 0.0, "type": "electric_scooter", "lat": 38.908342166666664, "bike_id": "4a562ed73bc2dd394c87f07b13066e46", "is_reserved": 0, "lon": -77.03831616666666, "rental_uris": {"android": "https://dc.lft.to/lastmile_qr_scan", "ios": "https://dc.lft.to/lastmile_qr_scan"}}, {"name": "c3b173250ae4f1d8f24fa21ddca50618", "is_disabled": 0, "fusion_lat": 0.0, "fusion_lon": 0.0, "type": "electric_scooter", "lat": 38.90777716666667, "bike_id": "c3b173250ae4f1d8f24fa21ddca50618", "is_reserved": 0, "lon": -77.07169533333334, "rental_uris": {"android": "https://dc.lft.to/lastmile_qr_scan", "ios": "https://dc.lft.to/lastmile_qr_scan"}}, {"name": "bb0922688d3f7b06e56f04c84e3ad161", "is_disabled": 0, "fusion_lat": 0.0, "fusion_lon": 0.0, "type": "electric_scooter", "lat": 38.923563333333334, "bike_id": "bb0922688d3f7b06e56f04c84e3ad161", "is_reserved": 0, "lon": -77.05231633333334, "rental_uris": {"android": "https://dc.lft.to/lastmile_qr_scan", "ios": "https://dc.lft.to/lastmile_qr_scan"}}, {"name": "68027deb29126e1e38ed96c9de8af974", "is_disabled": 0, "fusion_lat": 0.0, "fusion_lon": 0.0, "type": "electric_scooter", "lat": 38.94986566666667, "bike_id": "68027deb29126e1e38ed96c9de8af974", "is_reserved": 0, "lon": -77.026536, "rental_uris": {"android": "https://dc.lft.to/lastmile_qr_scan", "ios": "https://dc.lft.to/lastmile_qr_scan"}}, {"name": "4ade0a744dfdc0eb37583a121e38ffdf", "is_disabled": 0, "fusion_lat": 0.0, "fusion_lon": 0.0, "type": "electric_bike", "lat": 38.82366316666667, "bike_id": "4ade0a744dfdc0eb37583a121e38ffdf", "is_reserved": 0, "lon": -77.00221266666667, "rental_uris": {"android": "https://dc.lft.to/lastmile_qr_scan", "ios": "https://dc.lft.to/lastmile_qr_scan"}}, {"name": "668ab9abb40c6d0eca82e6dbb13c92c0", "is_disabled": 0, "fusion_lat": 0.0, "fusion_lon": 0.0, "type": "electric_scooter", "lat": 38.886082, "bike_id": "668ab9abb40c6d0eca82e6dbb13c92c0", "is_reserved": 0, "lon": -77.00137933333333, "rental_uris": {"android": "https://dc.lft.to/lastmile_qr_scan", "ios": "https://dc.lft.to/lastmile_qr_scan"}}, {"name": "8f37f68d7e44c3185336d3c45dc0b71c", "is_disabled": 0, "fusion_lat": 0.0, "fusion_lon": 0.0, "type": "electric_scooter", "lat": 38.864735333333336, "bike_id": "8f37f68d7e44c3185336d3c45dc0b71c", "is_reserved": 0, "lon": -76.98234733333334, "rental_uris": {"android": "https://dc.lft.to/lastmile_qr_scan", "ios": "https://dc.lft.to/lastmile_qr_scan"}}, {"name": "53060470c43c47679d6b6bbede6e6033", "is_disabled": 0, "fusion_lat": 0.0, "fusion_lon": 0.0, "type": "electric_bike", "lat": 38.9316675, "bike_id": "53060470c43c47679d6b6bbede6e6033", "is_reserved": 0, "lon": -76.88403916666667, "rental_uris": {"android": "https://dc.lft.to/lastmile_qr_scan", "ios": "https://dc.lft.to/lastmile_qr_scan"}}, {"name": "72658846e3fa0c7aea5ccb1147d0db6d", "is_disabled": 0, "fusion_lat": 0.0, "fusion_lon": 0.0, "type": "electric_scooter", "lat": 38.90264116666667, "bike_id": "72658846e3fa0c7aea5ccb1147d0db6d", "is_reserved": 0, "lon": -77.05801866666667, "rental_uris": {"android": "https://dc.lft.to/lastmile_qr_scan", "ios": "https://dc.lft.to/lastmile_qr_scan"}}, {"name": "932d7cb371d4c77c3de4f6f132b825b0", "is_disabled": 0, "fusion_lat": 0.0, "fusion_lon": 0.0, "type": "electric_scooter", "lat": 38.897809333333335, "bike_id": "932d7cb371d4c77c3de4f6f132b825b0", "is_reserved": 0, "lon": -77.05019533333333, "rental_uris": {"android": "https://dc.lft.to/lastmile_qr_scan", "ios": "https://dc.lft.to/lastmile_qr_scan"}}, {"name": "e87ce48ab892acea5091e9b8891a2ec5", "is_disabled": 0, "fusion_lat": 0.0, "fusion_lon": 0.0, "type": "electric_bike", "lat": 38.95433833333333, "bike_id": "e87ce48ab892acea5091e9b8891a2ec5", "is_reserved": 0, "lon": -76.98920683333333, "rental_uris": {"android": "https://dc.lft.to/lastmile_qr_scan", "ios": "https://dc.lft.to/lastmile_qr_scan"}}, {"name": "63b96328768fe5a429b3f72a6bc3e4c2", "is_disabled": 0, "fusion_lat": 0.0, "fusion_lon": 0.0, "type": "electric_scooter", "lat": 38.934017, "bike_id": "63b96328768fe5a429b3f72a6bc3e4c2", "is_reserved": 0, "lon": -77.03988666666666, "rental_uris": {"android": "https://dc.lft.to/lastmile_qr_scan", "ios": "https://dc.lft.to/lastmile_qr_scan"}}, {"name": "3acc0363608ecdd7909c18b419aebac7", "is_disabled": 0, "fusion_lat": 0.0, "fusion_lon": 0.0, "type": "electric_scooter", "lat": 38.886084333333336, "bike_id": "3acc0363608ecdd7909c18b419aebac7", "is_reserved": 0, "lon": -76.99513483333334, "rental_uris": {"android": "https://dc.lft.to/lastmile_qr_scan", "ios": "https://dc.lft.to/lastmile_qr_scan"}}, {"name": "127a1025c4665372c69b2825c0e06319", "is_disabled": 0, "fusion_lat": 0.0, "fusion_lon": 0.0, "type": "electric_bike", "lat": 38.929669, "bike_id": "127a1025c4665372c69b2825c0e06319", "is_reserved": 0, "lon": -77.18567633333333, "rental_uris": {"android": "https://dc.lft.to/lastmile_qr_scan", "ios": "https://dc.lft.to/lastmile_qr_scan"}}, {"name": "613b086cf9df797b89cef675a647e4b6", "is_disabled": 0, "fusion_lat": 0.0, "fusion_lon": 0.0, "type": "electric_scooter", "lat": 38.917473333333334, "bike_id": "613b086cf9df797b89cef675a647e4b6", "is_reserved": 0, "lon": -77.04162383333333, "rental_uris": {"android": "https://dc.lft.to/lastmile_qr_scan", "ios": "https://dc.lft.to/lastmile_qr_scan"}}, {"name": "790c47a15e4f5a202949b8b64902dca1", "is_disabled": 0, "fusion_lat": 0.0, "fusion_lon": 0.0, "type": "electric_scooter", "lat": 38.906868, "bike_id": "790c47a15e4f5a202949b8b64902dca1", "is_reserved": 0, "lon": -77.04188083333334, "rental_uris": {"android": "https://dc.lft.to/lastmile_qr_scan", "ios": "https://dc.lft.to/lastmile_qr_scan"}},