{"data": {"bikes": [{"lon": -77.0005375, "name": "c4eab3cb6c960ba0c587a882830a6dc5", "is_disabled": 0, "type": "electric_scooter", "is_reserved": 0, "fusion_lon": 0.0, "lat": 38.875573, "rental_uris": {"ios": "https://dc.lft.to/lastmile_qr_scan", "android": "https://dc.lft.to/lastmile_qr_scan"}, "bike_id": "c4eab3cb6c960ba0c587a882830a6dc5", "fusion_lat": 0.0}, {"lon": -77.0320185, "name": "34e4949c87f8913c37b9b278297db93b", "is_disabled": 0, "type": "electric_scooter", "is_reserved": 0, "fusion_lon": 0.0, "lat": 38.909856833333336, "rental_uris": {"ios": "https://dc.lft.to/lastmile_qr_scan", "android": "https://dc.lft.to/lastmile_qr_scan"}, "bike_id": "34e4949c87f8913c37b9b278297db93b", "fusion_lat": 0.0}, {"lon": -76.985645, "name": "f4d86d4c88a0236764a68375a08a8815", "is_disabled": 0, "type": "electric_scooter", "is_reserved": 0, "fusion_lon": 0.0, "lat": 38.907041, "rental_uris": {"ios": "https://dc.lft.to/lastmile_qr_scan", "android": "https://dc.lft.to/lastmile_qr_scan"}, "bike_id": "f4d86d4c88a0236764a68375a08a8815", "fusion_lat": 0.0}, {"lon": -77.06272983333334, "name": "8d39fa69d6aa2d85a5823005d12033ca", "is_disabled": 0, "type": "electric_scooter", "is_reserved": 0, "fusion_lon": 0.0, "lat": 38.90570833333334, "rental_uris": {"ios": "https://dc.lft.to/lastmile_qr_scan", "android": "https://dc.lft.to/lastmile_qr_scan"}, "bike_id": "8d39fa69d6aa2d85a5823005d12033ca", "fusion_lat": 0.0}, {"lon": -77.05909733333333, "name": "f3e997071b7f013e8d392273c7519d2c", "is_disabled": 0, "type": "electric_scooter", "is_reserved": 0, "fusion_lon": 0.0, "lat": 38.901907, "rental_uris": {"ios": "https://dc.lft.to/lastmile_qr_scan", "android": "https://dc.lft.to/lastmile_qr_scan"}, "bike_id": "f3e997071b7f013e8d392273c7519d2c", "fusion_lat": 0.0}, {"lon": -77.02326466666666, "name": "4e01a7e797f3cc1de69079e745ab3032", "is_disabled": 0, "type": "electric_scooter", "is_reserved": 0, "fusion_lon": 0.0, "lat": 38.92053666666666, "rental_uris": {"ios": "https://dc.lft.to/lastmile_qr_scan", "android": "https://dc.lft.to/lastmile_qr_scan"}, "bike_id": "4e01a7e797f3cc1de69079e745ab3032", "fusion_lat": 0.0}, {"lon": -77.01226633333333, "name": "bf5d5dde5a672dbf451ccf63020e2a86", "is_disabled": 0, "type": "electric_scooter", "is_reserved": 0, "fusion_lon": 0.0, "lat": 38.897734, "rental_uris": {"ios": "https://dc.lft.to/lastmile_qr_scan", "android": "https://dc.lft.to/lastmile_qr_scan"}, "bike_id": "bf5d5dde5a672dbf451ccf63020e2a86", "fusion_lat": 0.0}, {"lon": -77.020387, "name": "5905be4c2e3c18cc58188fe8764411cb", "is_disabled": 0, "type": "electric_scooter", "is_reserved": 0, "fusion_lon": 0.0, "lat": 38.924168, "rental_uris": {"ios": "https://dc.lft.to/lastmile_qr_scan", "android": "https://dc.lft.to/lastmile_qr_scan"}, "bike_id": "5905be4c2e3c18cc58188fe8764411cb", "fusion_lat": 0.0}, {"lon": -77.02655516666667, "name": "44437a75aa252f8c496bc767a795a9d8", "is_disabled": 0, "type": "electric_scooter", "is_reserved": 0, "fusion_lon": 0.0, "lat": 38.881136, "rental_uris": {"ios": "https://dc.lft.to/lastmile_qr_scan", "android": "https://dc.lft.to/lastmile_qr_scan"}, "bike_id": "44437a75aa252f8c496bc767a795a9d8", "fusion_lat": 0.0}, {"lon": -77.02500566666667, "name": "0b776a7c4175387467cc8b3faa6eb0ae", "is_disabled": 0, "type": "electric_scooter", "is_reserved": 0, "fusion_lon": 0.0, "lat": 38.954073666666666, "rental_uris": {"ios": "https://dc.lft.to/lastmile_qr_scan", "android": "https://dc.lft.to/lastmile_qr_scan"}, "bike_id": "0b776a7c4175387467cc8b3faa6eb0ae", "fusion_lat": 0.0}, {"lon": -77.02385083333333, "name": "bf23b5f627f58dae33d8f80192d2ab6a", "is_disabled": 0, "type": "electric_scooter", "is_reserved": 0, "fusion_lon": 0.0, "lat": 38.95273516666666, "rental_uris": {"ios": "https://dc.lft.to/lastmile_qr_scan", "android": "https://dc.lft.to/lastmile_qr_scan"}, "bike_id": "bf23b5f627f58dae33d8f80192d2ab6a", "fusion_lat": 0.0}, {"lon": -77.03379283333334, "name": "55cc58dd70a6d4be5d80aa8e89358d95", "is_disabled": 0, "type": "electric_scooter", "is_reserved": 0, "fusion_lon": 0.0, "lat": 38.92156833333333, "rental_uris": {"ios": "https://dc.lft.to/lastmile_qr_scan", "android": "https://dc.lft.to/lastmile_qr_scan"}, "bike_id": "55cc58dd70a6d4be5d80aa8e89358d95", "fusion_lat": 0.0}, {"lon": -77.0394805, "name": "8e068d5324608f05af10292a60a73d29", "is_disabled": 0, "type": "electric_scooter", "is_reserved": 0, "fusion_lon": 0.0, "lat": 38.90384916666667, "rental_uris": {"ios": "https://dc.lft.to/lastmile_qr_scan", "android": "https://dc.lft.to/lastmile_qr_scan"}, "bike_id": "8e068d5324608f05af10292a60a73d29", "fusion_lat": 0.0}, {"lon": -77.00605166666666, "name": "ee14e296ce1fe5055a2986d9a88099a0", "is_disabled": 0, "type": "electric_scooter", "is_reserved": 0, "fusion_lon": 0.0, "lat": 38.9062785, "rental_uris": {"ios": "https://dc.lft.to/lastmile_qr_scan", "android": "https://dc.lft.to/lastmile_qr_scan"}, "bike_id": "ee14e296ce1fe5055a2986d9a88099a0", "fusion_lat": 0.0}, {"lon": -77.12887716666667, "name": "f76fb18da069932d694f82e6eb820239", "is_disabled": 0, "type": "electric_bike", "is_reserved": 0, "fusion_lon": 0.0, "lat": 38.906064666666666, "rental_uris": {"ios": "https://dc.lft.to/lastmile_qr_scan", "android": "https://dc.lft.to/lastmile_qr_scan"}, "bike_id": "f76fb18da069932d694f82e6eb820239", "fusion_lat": 0.0}, {"lon": -77.021794, "name": "528ce8489604570089ae84952193434e", "is_disabled": 0, "type": "electric_scooter", "is_reserved": 0, "fusion_lon": 0.0, "lat": 38.91612033333333, "rental_uris": {"ios": "https://dc.lft.to/lastmile_qr_scan", "android": "https://dc.lft.to/lastmile_qr_scan"}, "bike_id": "528ce8489604570089ae84952193434e", "fusion_lat": 0.0}, {"lon": -77.03240683333334, "name": "33e4592f6559969e1493ff2701776e64", "is_disabled": 0, "type": "electric_scooter", "is_reserved": 0, "fusion_lon": 0.0, "lat": 38.9210155, "rental_uris": {"ios": "https://dc.lft.to/lastmile_qr_scan", "android": "https://dc.lft.to/lastmile_qr_scan"}, "bike_id": "33e4592f6559969e1493ff2701776e64", "fusion_lat": 0.0}, {"lon": -77.0346745, "name": "380f91bf204fc16db648f7e80880bd66", "is_disabled": 0, "type": "electric_scooter", "is_reserved": 0, "fusion_lon": 0.0, "lat": 38.92980133333333, "rental_uris": {"ios": "https://dc.lft.to/lastmile_qr_scan", "android": "https://dc.lft.to/lastmile_qr_scan"}, "bike_id": "380f91bf204fc16db648f7e80880bd66", "fusion_lat": 0.0}, {"lon": -77.0013575, "name": "b238a483cfe00e0ecbceb22a9bf94592", "is_disabled": 0, "type": "electric_scooter", "is_reserved": 0, "fusion_lon": 0.0, "lat": 38.873765, "rental_uris": {"ios": "https://dc.lft.to/lastmile_qr_scan", "android": "https://dc.lft.to/lastmile_qr_scan"}, "bike_id": "b238a483cfe00e0ecbceb22a9bf94592", "fusion_lat": 0.0}, {"lon": -76.97682566666667, "name": "2f5fbe249cea99c4fce267f5143308a4", "is_disabled": 0, "type": "electric_scooter", "is_reserved": 0, "fusion_lon": 0.0, "lat": 38.900875, "rental_uris": {"ios": "https://dc.lft.to/lastmile_qr_scan", "android": "https://dc.lft.to/lastmile_qr_scan"}, "bike_id": "2f5fbe249cea99c4fce267f5143308a4", "fusion_lat": 0.0}, {"lon": -77.03765983333334, "name": "2b23e0775899ea9f96433b3596db2bfc", "is_disabled": 0, "type": "electric_scooter", "is_reserved": 0, "fusion_lon": 0.0, "lat": 38.9170865, "rental_uris": {"ios": "https://dc.lft.to/lastmile_qr_scan", "android": "https://dc.lft.to/lastmile_qr_scan"}, "bike_id": "2b23e0775899ea9f96433b3596db2bfc", "fusion_lat": 0.0}, {"lon": -76.9852105, "name": "1dd37d0fc11259ef7c6574499f04feb5", "is_disabled": 0, "type": "electric_scooter", "is_reserved": 0, "fusion_lon": 0.0, "lat": 38.860029, "rental_uris": {"ios": "https://dc.lft.to/lastmile_qr_scan", "android": "https://dc.lft.to/lastmile_qr_scan"}, "bike_id": "1dd37d0fc11259ef7c6574499f04feb5", "fusion_lat": 0.0}, {"lon": -77.00924816666667, "name": "6255d6e36bd4e2d51a37a2e85b6ec83f", "is_disabled": 0, "type": "electric_scooter", "is_reserved": 0, "fusion_lon": 0.0, "lat": 38.895402833333335, "rental_uris": {"ios": "https://dc.lft.to/lastmile_qr_scan", "android": "https://dc.lft.to/lastmile_qr_scan"}, "bike_id": "6255d6e36bd4e2d51a37a2e85b6ec83f", "fusion_lat": 0.0}, {"lon": -76.97071483333333, "name": "d5339ccc099d9768d28f36283ff85012", "is_disabled": 0, "type": "electric_bike", "is_reserved": 0, "fusion_lon": 0.0, "lat": 38.92058933333333, "rental_uris": {"ios": "https://dc.lft.to/lastmile_qr_scan", "android": "https://dc.lft.to/lastmile_qr_scan"}, "bike_id": "d5339ccc099d9768d28f36283ff85012", "fusion_lat": 0.0}, {"lon": -77.03210833333333, "name": "6cd956551db4b7fecfaa1fa1f7e0a505", "is_disabled": 0, "type": "electric_scooter", "is_reserved": 0, "fusion_lon": 0.0, "lat": 38.916146166666664, "rental_uris": {"ios": "https://dc.lft.to/lastmile_qr_scan", "android": "https://dc.lft.to/lastmile_qr_scan"}, "bike_id": "6cd956551db4b7fecfaa1fa1f7e0a505", "fusion_lat": 0.0}, {"lon": -77.020821, "name": "620f3ebad6e36dd8376dafe183d50ebc", "is_disabled": 0, "type": "electric_scooter", "is_reserved": 0, "fusion_lon": 0.0, "lat": 38.92142716666667, "rental_uris": {"ios": "https://dc.lft.to/lastmile_qr_scan", "android": "https://dc.lft.to/lastmile_qr_scan"}, "bike_id": "620f3ebad6e36dd8376dafe183d50ebc", "fusion_lat": 0.0}, {"lon": -77.04906216666667, "name": "dbaf271abfde735e7cecc57c7c4669ac", "is_disabled": 0, "type": "electric_scooter", "is_reserved": 0, "fusion_lon": 0.0, "lat": 38.915981, "rental_uris": {"ios": "https://dc.lft.to/lastmile_qr_scan", "android": "https://dc.lft.to/lastmile_qr_scan"}, "bike_id": "dbaf271abfde735e7cecc57c7c4669ac", "fusion_lat": 0.0}, {"lon": -77.03377466666667, "name": "143f3c1b0c0bfd0a97f3290b48c898d1", "is_disabled": 0, "type": "electric_scooter", "is_reserved": 0, "fusion_lon": 0.0, "lat": 38.93071183333333, "rental_uris": {"ios": "https://dc.lft.to/lastmile_qr_scan", "android": "https://dc.lft.to/lastmile_qr_scan"}, "bike_id": "143f3c1b0c0bfd0a97f3290b48c898d1", "fusion_lat": 0.0}, {"lon": -76.99568666666667, "name": "4e70bb401071bc7e7c311274028c56ed", "is_disabled": 0, "type": "electric_scooter", "is_reserved": 0, "fusion_lon": 0.0, "lat": 38.920239333333335, "rental_uris": {"ios": "https://dc.lft.to/lastmile_qr_scan", "android": "https://dc.lft.to/lastmile_qr_scan"}, "bike_id": "4e70bb401071bc7e7c311274028c56ed", "fusion_lat": 0.0}, {"lon": -77.025475, "name": "a4271a2b62550d0257f001b010a4cbce", "is_disabled": 0, "type": "electric_scooter", "is_reserved": 0, "fusion_lon": 0.0, "lat": 38.89597833333333, "rental_uris": {"ios": "https://dc.lft.to/lastmile_qr_scan", "android": "https://dc.lft.to/lastmile_qr_scan"}, "bike_id": "a4271a2b62550d0257f001b010a4cbce", "fusion_lat": 0.0}, {"lon": -77.011983, "name": "02b3e1515664037475308746abb96881", "is_disabled": 0, "type": "electric_scooter", "is_reserved": 0, "fusion_lon": 0.0, "lat": 38.897949, "rental_uris": {"ios": "https://dc.lft.to/lastmile_qr_scan", "android": "https://dc.lft.to/lastmile_qr_scan"}, "bike_id": "02b3e1515664037475308746abb96881", "fusion_lat": 0.0}, {"lon": -77.05319, "name": "1a706ae1a54532ef163df7af7d26520e", "is_disabled": 0, "type": "electric_scooter", "is_reserved": 0, "fusion_lon": 0.0, "lat": 38.93456966666667, "rental_uris": {"ios": "https://dc.lft.to/lastmile_qr_scan", "android": "https://dc.lft.to/lastmile_qr_scan"}, "bike_id": "1a706ae1a54532ef163df7af7d26520e", "fusion_lat": 0.0}, {"lon": -77.00334866666667, "name": "45f0dc554ad504f3ca0dd5913236e6fb", "is_disabled": 0, "type": "electric_scooter", "is_reserved": 0, "fusion_lon": 0.0, "lat": 38.89363066666667, "rental_uris": {"ios": "https://dc.lft.to/lastmile_qr_scan", "android": "https://dc.lft.to/lastmile_qr_scan"}, "bike_id": "45f0dc554ad504f3ca0dd5913236e6fb", "fusion_lat": 0.0}, {"lon": -77.03213966666667, "name": "af7474b7ea49e40227adc990b7941912", "is_disabled": 0, "type": "electric_scooter", "is_reserved": 0, "fusion_lon": 0.0, "lat": 38.90365166666667, "rental_uris": {"ios": "https://dc.lft.to/lastmile_qr_scan", "android": "https://dc.lft.to/lastmile_qr_scan"}, "bike_id": "af7474b7ea49e40227adc990b7941912", "fusion_lat": 0.0}, {"lon": -77.01612883333334, "name": "403512feb8f3cdd8554dab7b254a3013", "is_disabled": 0, "type": "electric_scooter", "is_reserved": 0, "fusion_lon": 0.0, "lat": 38.91072066666667, "rental_uris": {"ios": "https://dc.lft.to/lastmile_qr_scan", "android": "https://dc.lft.to/lastmile_qr_scan"}, "bike_id": "403512feb8f3cdd8554dab7b254a3013", "fusion_lat": 0.0}, {"lon": -77.0216095, "name": "fa676bb994ab8bc851c5554a4545c1f0", "is_disabled": 0, "type": "electric_scooter", "is_reserved": 0, "fusion_lon": 0.0, "lat": 38.9261165, "rental_uris": {"ios": "https://dc.lft.to/lastmile_qr_scan", "android": "https://dc.lft.to/lastmile_qr_scan"}, "bike_id": "fa676bb994ab8bc851c5554a4545c1f0", "fusion_lat": 0.0}, {"lon": -77.08494333333333, "name": "fecfc949415e482aada8baee4f1abb43", "is_disabled": 0, "type": "electric_scooter", "is_reserved": 0, "fusion_lon": 0.0, "lat": 38.958912833333336, "rental_uris": {"ios": "https://dc.lft.to/lastmile_qr_scan", "android": "https://dc.lft.to/lastmile_qr_scan"}, "bike_id": "fecfc949415e482aada8baee4f1abb43", "fusion_lat": 0.0}, {"lon": -77.02048666666667, "name": "aedc1e336cf1ea92fd2ac9f497cfbf87", "is_disabled": 0, "type": "electric_scooter", "is_reserved": 0, "fusion_lon": 0.0, "lat": 38.921738, "rental_uris": {"ios": "https://dc.lft.to/lastmile_qr_scan", "android": "https://dc.lft.to/lastmile_qr_scan"}, "bike_id": "aedc1e336cf1ea92fd2ac9f497cfbf87", "fusion_lat": 0.0}, {"lon": -77.02225333333334, "name": "48db40c7b7077f931168e5846135eb80", "is_disabled": 0, "type": "electric_scooter", "is_reserved": 0, "fusion_lon": 0.0, "lat": 38.924771166666666, "rental_uris": {"ios": "https://dc.lft.to/lastmile_qr_scan", "android": "https://dc.lft.to/lastmile_qr_scan"}, "bike_id": "48db40c7b7077f931168e5846135eb80", "fusion_lat": 0.0}, {"lon": -77.03276433333333, "name": "3f91589fbe625ac1c7b6d03a3ebc5df2", "is_disabled": 0, "type": "electric_scooter", "is_reserved": 0, "fusion_lon": 0.0, "lat": 38.930619166666666, "rental_uris": {"ios": "https://dc.lft.to/lastmile_qr_scan", "android": "https://dc.lft.to/lastmile_qr_scan"}, "bike_id": "3f91589fbe625ac1c7b6d03a3ebc5df2", "fusion_lat": 0.0}, {"lon": -76.94151316666667, "name": "3f68804c1d3635b453c71efe8040ae7a", "is_disabled": 0, "type": "electric_bike", "is_reserved": 0, "fusion_lon": 0.0, "lat": 38.865487, "rental_uris": {"ios": "https://dc.lft.to/lastmile_qr_scan", "android": "https://dc.lft.to/lastmile_qr_scan"}, "bike_id": "3f68804c1d3635b453c71efe8040ae7a", "fusion_lat": 0.0}, {"lon": -77.04212916666667, "name": "fad7880368de777cee616550db268885", "is_disabled": 0, "type": "electric_scooter", "is_reserved": 0, "fusion_lon": 0.0, "lat": 38.90905983333333, "rental_uris": {"ios": "https://dc.lft.to/lastmile_qr_scan", "android": "https://dc.lft.to/lastmile_qr_scan"}, "bike_id": "fad7880368de777cee616550db268885", "fusion_lat": 0.0}, {"lon": -77.0282195, "name": "3425c2d469ebffc020619b908dfe7613", "is_disabled": 0, "type": "electric_scooter", "is_reserved": 0, "fusion_lon": 0.0, "lat": 38.9025555, "rental_uris": {"ios": "https://dc.lft.to/lastmile_qr_scan", "android": "https://dc.lft.to/lastmile_qr_scan"}, "bike_id": "3425c2d469ebffc020619b908dfe7613", "fusion_lat": 0.0}, {"lon": -77.029651, "name": "7b7212207c4f7b767a210829da467fee", "is_disabled": 0, "type": "electric_scooter", "is_reserved": 0, "fusion_lon": 0.0, "lat": 38.904974333333335, "rental_uris": {"ios": "https://dc.lft.to/lastmile_qr_scan", "android": "https://dc.lft.to/lastmile_qr_scan"}, "bike_id": "7b7212207c4f7b767a210829da467fee", "fusion_lat": 0.0}, {"lon": -77.02166533333333, "name": "a6a523a31c2676119c7db43eb01db58d", "is_disabled": 0, "type": "electric_scooter", "is_reserved": 0, "fusion_lon": 0.0, "lat": 38.91979033333333, "rental_uris": {"ios": "https://dc.lft.to/lastmile_qr_scan", "android": "https://dc.lft.to/lastmile_qr_scan"}, "bike_id": "a6a523a31c2676119c7db43eb01db58d", "fusion_lat": 0.0}, {"lon": -77.04127266666667, "name": "168ff39c9fd924b37819675b53e6b245", "is_disabled": 0, "type": "electric_scooter", "is_reserved": 0, "fusion_lon": 0.0, "lat": 38.918913833333335, "rental_uris": {"ios": "https://dc.lft.to/lastmile_qr_scan", "android": "https://dc.lft.to/lastmile_qr_scan"}, "bike_id": "168ff39c9fd924b37819675b53e6b245", "fusion_lat": 0.0}, {"lon": -77.05091416666667, "name": "a8e0da9e2519add7052ebbd86b67a7cd", "is_disabled": 0, "type": "electric_bike", "is_reserved": 0, "fusion_lon": 0.0, "lat": 38.81329983333333, "rental_uris": {"ios": "https://dc.lft.to/lastmile_qr_scan", "android": "https://dc.lft.to/lastmile_qr_scan"}, "bike_id": "a8e0da9e2519add7052ebbd86b67a7cd", "fusion_lat": 0.0}, {"lon": -77.02301233333333, "name": "11ed4c8931a3b60518aab49b712c2b79", "is_disabled": 0, "type": "electric_scooter", "is_reserved": 0, "fusion_lon": 0.0, "lat": 38.92079566666666, "rental_uris": {"ios": "https://dc.lft.to/lastmile_qr_scan", "android": "https://dc.lft.to/lastmile_qr_scan"}, "bike_id": "11ed4c8931a3b60518aab49b712c2b79", "fusion_lat": 0.0}, {"lon": -77.0420445, "name": "d5f2e9bc513d0762c592233a773ce3de", "is_disabled": 0, "type": "electric_scooter", "is_reserved": 0, "fusion_lon": 0.0, "lat": 38.92045916666667, "rental_uris": {"ios": "https://dc.lft.to/lastmile_qr_scan", "android": "https://dc.lft.to/lastmile_qr_scan"}, "bike_id": "d5f2e9bc513d0762c592233a773ce3de", "fusion_lat": 0.0}, {"lon": -77.0186875, "name": "72f67c324ccee18839282a05c4daebb7", "is_disabled": 0, "type": "electric_scooter", "is_reserved": 0, "fusion_lon": 0.0, "lat": 38.95150066666667, "rental_uris": {"ios": "https://dc.lft.to/lastmile_qr_scan", "android": "https://dc.lft.to/lastmile_qr_scan"}, "bike_id": "72f67c324ccee18839282a05c4daebb7", "fusion_lat": 0.0}, {"lon": -77.02253316666666, "name": "1d172c80a8d91f3f64c32c92be03916a", "is_disabled": 0, "type": "electric_scooter", "is_reserved": 0, "fusion_lon": 0.0, "lat": 38.89471966666667, "rental_uris": {"ios": "https://dc.lft.to/lastmile_qr_scan", "android": "https://dc.lft.to/lastmile_qr_scan"}, "bike_id": "1d172c80a8d91f3f64c32c92be03916a", "fusion_lat": 0.0}, {"lon": -77.01948533333334, "name": "c4a28524336156176cee97dc398b0e07", "is_disabled": 0, "type": "electric_scooter", "is_reserved": 0, "fusion_lon": 0.0, "lat": 38.924208166666666, "rental_uris": {"ios": "https://dc.lft.to/lastmile_qr_scan", "android": "https://dc.lft.to/lastmile_qr_scan"}, "bike_id": "c4a28524336156176cee97dc398b0e07", "fusion_lat": 0.0}, {"lon": -77.02699233333334, "name": "621110dde6cb4bbe95afee5e31ea68a7", "is_disabled": 0, "type": "electric_scooter", "is_reserved": 0, "fusion_lon": 0.0, "lat": 38.94938033333333, "rental_uris": {"ios": "https://dc.lft.to/lastmile_qr_scan", "android": "https://dc.lft.to/lastmile_qr_scan"}, "bike_id": "621110dde6cb4bbe95afee5e31ea68a7", "fusion_lat": 0.0}, {"lon": -77.0136525, "name": "53dfc8146b4eefc0645ced551281e780", "is_disabled": 0, "type": "electric_scooter", "is_reserved": 0, "fusion_lon": 0.0, "lat": 38.929030166666664, "rental_uris": {"ios": "https://dc.lft.to/lastmile_qr_scan", "android": "https://dc.lft.to/lastmile_qr_scan"}, "bike_id": "53dfc8146b4eefc0645ced551281e780", "fusion_lat": 0.0}, {"lon": -77.04332766666667, "name": "b9a537320cf272c1766480807c844595", "is_disabled": 0, "type": "electric_scooter", "is_reserved": 0, "fusion_lon": 0.0, "lat": 38.9054795, "rental_uris": {"ios": "https://dc.lft.to/lastmile_qr_scan", "android": "https://dc.lft.to/lastmile_qr_scan"}, "bike_id": "b9a537320cf272c1766480807c844595", "fusion_lat": 0.0}, {"lon": -77.0447885, "name": "9aa78821c71ab1047b12a88502c77c83", "is_disabled": 0, "type": "electric_scooter", "is_reserved": 0, "fusion_lon": 0.0, "lat": 38.915322333333336, "rental_uris": {"ios": "https://dc.lft.to/lastmile_qr_scan", "android": "https://dc.lft.to/lastmile_qr_scan"}, "bike_id": "9aa78821c71ab1047b12a88502c77c83", "fusion_lat": 0.0}, {"lon": -77.05713866666666, "name": "32e20a795b71a17e4b7505c71f943d05", "is_disabled": 0, "type": "electric_scooter", "is_reserved": 0, "fusion_lon": 0.0, "lat": 38.92600916666667, "rental_uris": {"ios": "https://dc.lft.to/lastmile_qr_scan", "android": "https://dc.lft.to/lastmile_qr_scan"}, "bike_id": "32e20a795b71a17e4b7505c71f943d05", "fusion_lat": 0.0}, {"lon": -77.05759416666666, "name": "06403c13894254cfc16e48c06213212e", "is_disabled": 0, "type": "electric_scooter", "is_reserved": 0, "fusion_lon": 0.0, "lat": 38.92484616666667, "rental_uris": {"ios": "https://dc.lft.to/lastmile_qr_scan", "android": "https://dc.lft.to/lastmile_qr_scan"}, "bike_id": "06403c13894254cfc16e48c06213212e", "fusion_lat": 0.0}, {"lon": -77.02159683333333, "name": "d9af7c63e57c886f1e31367d0a731334", "is_disabled": 0, "type": "electric_scooter", "is_reserved": 0, "fusion_lon": 0.0, "lat": 38.92601583333333, "rental_uris": {"ios": "https://dc.lft.to/lastmile_qr_scan", "android": "https://dc.lft.to/lastmile_qr_scan"}, "bike_id": "d9af7c63e57c886f1e31367d0a731334", "fusion_lat": 0.0}, {"lon": -77.04170733333333, "name": "f3e501cd74a04b99c317da652bc2413b", "is_disabled": 0, "type": "electric_scooter", "is_reserved": 0, "fusion_lon": 0.0, "lat": 38.905192, "rental_uris": {"ios": "https://dc.lft.to/lastmile_qr_scan", "android": "https://dc.lft.to/lastmile_qr_scan"}, "bike_id": "f3e501cd74a04b99c317da652bc2413b", "fusion_lat": 0.0}, {"lon": -77.03199216666667, "name": "026715ae902f60a9880d43c1ba453af0", "is_disabled": 0, "type": "electric_scooter", "is_reserved": 0, "fusion_lon": 0.0, "lat": 38.9228725, "rental_uris": {"ios": "https://dc.lft.to/lastmile_qr_scan", "android": "https://dc.lft.to/lastmile_qr_scan"}, "bike_id": "026715ae902f60a9880d43c1ba453af0", "fusion_lat": 0.0}, {"lon": -77.01227133333333, "name": "561dc86a0f1890daf178b58723c6dc22", "is_disabled": 0, "type": "electric_scooter", "is_reserved": 0, "fusion_lon": 0.0, "lat": 38.89771116666667, "rental_uris": {"ios": "https://dc.lft.to/lastmile_qr_scan", "android": "https://dc.lft.to/lastmile_qr_scan"}, "bike_id": "561dc86a0f1890daf178b58723c6dc22", "fusion_lat": 0.0}, {"lon": -77.035792, "name": "903db0fdfc69344a3b715f94003d8ac4", "is_disabled": 0, "type": "electric_scooter", "is_reserved": 0, "fusion_lon": 0.0, "lat": 38.926883, "rental_uris": {"ios": "https://dc.lft.to/lastmile_qr_scan", "android": "https://dc.lft.to/lastmile_qr_scan"}, "bike_id": "903db0fdfc69344a3b715f94003d8ac4", "fusion_lat": 0.0}, {"lon": -77.02400516666667, "name": "49f77ad030f3255ba9edb55a49389540", "is_disabled": 0, "type": "electric_scooter", "is_reserved": 0, "fusion_lon": 0.0, "lat": 38.91618, "rental_uris": {"ios": "https://dc.lft.to/lastmile_qr_scan", "android": "https://dc.lft.to/lastmile_qr_scan"}, "bike_id": "49f77ad030f3255ba9edb55a49389540", "fusion_lat": 0.0}, {"lon": -77.04999216666667, "name": "bcf40e7e66a4a280e174fc06dc716ecf", "is_disabled": 0, "type": "electric_scooter", "is_reserved": 0, "fusion_lon": 0.0, "lat": 38.89224933333333, "rental_uris": {"ios": "https://dc.lft.to/lastmile_qr_scan", "android": "https://dc.lft.to/lastmile_qr_scan"}, "bike_id": "bcf40e7e66a4a280e174fc06dc716ecf", "fusion_lat": 0.0}, {"lon": -77.04334466666667, "name": "e942fd0d7e049a697f98c6b74af3016b", "is_disabled": 0, "type": "electric_scooter", "is_reserved": 0, "fusion_lon": 0.0, "lat": 38.902709333333334, "rental_uris": {"ios": "https://dc.lft.to/lastmile_qr_scan", "android": "https://dc.lft.to/lastmile_qr_scan"}, "bike_id": "e942fd0d7e049a697f98c6b74af3016b", "fusion_lat": 0.0}, {"lon": -77.01915566666666, "name": "0df466dd6c35dec4c827a346a202e803", "is_disabled": 0, "type": "electric_scooter", "is_reserved": 0, "fusion_lon": 0.0, "lat": 38.897254333333336, "rental_uris": {"ios": "https://dc.lft.to/lastmile_qr_scan", "android": "https://dc.lft.to/lastmile_qr_scan"}, "bike_id": "0df466dd6c35dec4c827a346a202e803", "fusion_lat": 0.0}, {"lon": -77.03209566666666, "name": "8d4fca9d2da25132f9b3a8f6c409e477", "is_disabled": 0, "type": "electric_scooter", "is_reserved": 0, "fusion_lon": 0.0, "lat": 38.92246566666667, "rental_uris": {"ios": "https://dc.lft.to/lastmile_qr_scan", "android": "https://dc.lft.to/lastmile_qr_scan"}, "bike_id": "8d4fca9d2da25132f9b3a8f6c409e477", "fusion_lat": 0.0}, {"lon": -77.063993, "name": "03915abce07d528d634b791208e4da13", "is_disabled": 0, "type": "electric_scooter", "is_reserved": 0, "fusion_lon": 0.0, "lat": 38.9081605, "rental_uris": {"ios": "https://dc.lft.to/lastmile_qr_scan", "android": "https://dc.lft.to/lastmile_qr_scan"}, "bike_id": "03915abce07d528d634b791208e4da13", "fusion_lat": 0.0}, {"lon": -77.03256883333333, "name": "90648ea7acab0973dfb0fcb7d3e5f556", "is_disabled": 0, "type": "electric_scooter", "is_reserved": 0, "fusion_lon": 0.0, "lat": 38.939688333333336, "rental_uris": {"ios": "https://dc.lft.to/lastmile_qr_scan", "android": "https://dc.lft.to/lastmile_qr_scan"}, "bike_id": "90648ea7acab0973dfb0fcb7d3e5f556", "fusion_lat": 0.0}, {"lon": -76.996564, "name": "7b57bcb075777dc5c90ec5d935f736fc", "is_disabled": 0, "type": "electric_bike", "is_reserved": 0, "fusion_lon": 0.0, "lat": 38.96777983333333, "rental_uris": {"ios": "https://dc.lft.to/lastmile_qr_scan", "android": "https://dc.lft.to/lastmile_qr_scan"}, "bike_id": "7b57bcb075777dc5c90ec5d935f736fc", "fusion_lat": 0.0}, {"lon": -76.99504616666667, "name": "a83a58e60ba7764441dea8df3f9de98c", "is_disabled": 0, "type": "electric_scooter", "is_reserved": 0, "fusion_lon": 0.0, "lat": 38.89077233333333, "rental_uris": {"ios": "https://dc.lft.to/lastmile_qr_scan", "android": "https://dc.lft.to/lastmile_qr_scan"}, "bike_id": "a83a58e60ba7764441dea8df3f9de98c", "fusion_lat": 0.0}, {"lon": -77.01490233333334, "name": "de020b7df5e1e50a26c0cf8ec2a32644", "is_disabled": 0, "type": "electric_scooter", "is_reserved": 0, "fusion_lon": 0.0, "lat": 38.89680416666667, "rental_uris": {"ios": "https://dc.lft.to/lastmile_qr_scan", "android": "https://dc.lft.to/lastmile_qr_scan"}, "bike_id": "de020b7df5e1e50a26c0cf8ec2a32644", "fusion_lat": 0.0}, {"lon": -77.043044, "name": "7bd3498d471fee9b18ed261142881627", "is_disabled": 0, "type": "electric_scooter", "is_reserved": 0, "fusion_lon": 0.0, "lat": 38.900173333333335, "rental_uris": {"ios": "https://dc.lft.to/lastmile_qr_scan", "android": "https://dc.lft.to/lastmile_qr_scan"}, "bike_id": "7bd3498d471fee9b18ed261142881627", "fusion_lat": 0.0}, {"lon": -77.03834, "name": "e4d3522d1234e709659cc219b8a97caa", "is_disabled": 0, "type": "electric_scooter", "is_reserved": 0, "fusion_lon": 0.0, "lat": 38.903871333333335, "rental_uris": {"ios": "https://dc.lft.to/lastmile_qr_scan", "android": "https://dc.lft.to/lastmile_qr_scan"}, "bike_id": "e4d3522d1234e709659cc219b8a97caa", "fusion_lat": 0.0}, {"lon": -77.02991733333333, "name": "ab1d2f79f6c4a5639453a12e8f2ec709", "is_disabled": 0, "type": "electric_scooter", "is_reserved": 0, "fusion_lon": 0.0, "lat": 38.895661833333335, "rental_uris": {"ios": "https://dc.lft.to/lastmile_qr_scan", "android": "https://dc.lft.to/lastmile_qr_scan"}, "bike_id": "ab1d2f79f6c4a5639453a12e8f2ec709", "fusion_lat": 0.0}, {"lon": -76.97684666666666, "name": "f2bd73b8876ccd1aca09b04a7bd9c49d", "is_disabled": 0, "type": "electric_scooter", "is_reserved": 0, "fusion_lon": 0.0, "lat": 38.891955, "rental_uris": {"ios": "https://dc.lft.to/lastmile_qr_scan", "android": "https://dc.lft.to/lastmile_qr_scan"}, "bike_id": "f2bd73b8876ccd1aca09b04a7bd9c49d", "fusion_lat": 0.0}, {"lon": -77.019861, "name": "4701db72002839fc02753ac456ea868c", "is_disabled": 0, "type": "electric_scooter", "is_reserved": 0, "fusion_lon": 0.0, "lat": 38.91561183333334, "rental_uris": {"ios": "https://dc.lft.to/lastmile_qr_scan", "android": "https://dc.lft.to/lastmile_qr_scan"}, "bike_id": "4701db72002839fc02753ac456ea868c", "fusion_lat": 0.0}, {"lon": -76.9811505, "name": "8f57bdc4a5de4c511b2b43fd00f1a115", "is_disabled": 0, "type": "electric_bike", "is_reserved": 0, "fusion_lon": 0.0, "lat": 38.945691333333336, "rental_uris": {"ios": "https://dc.lft.to/lastmile_qr_scan", "android": "https://dc.lft.to/lastmile_qr_scan"}, "bike_id": "8f57bdc4a5de4c511b2b43fd00f1a115", "fusion_lat": 0.0}, {"lon": -77.02430183333334, "name": "55fe35cf11b921158882b6178543472e", "is_disabled": 0, "type": "electric_scooter", "is_reserved": 0, "fusion_lon": 0.0, "lat": 38.96794766666667, "rental_uris": {"ios": "https://dc.lft.to/lastmile_qr_scan", "android": "https://dc.lft.to/lastmile_qr_scan"}, "bike_id": "55fe35cf11b921158882b6178543472e", "fusion_lat": 0.0}, {"lon": -77.019463, "name": "0da90d9c9b36344549187c93f6f04093", "is_disabled": 0, "type": "electric_scooter", "is_reserved": 0, "fusion_lon": 0.0, "lat": 38.922488666666666, "rental_uris": {"ios": "https://dc.lft.to/lastmile_qr_scan", "android": "https://dc.lft.to/lastmile_qr_scan"}, "bike_id": "0da90d9c9b36344549187c93f6f04093", "fusion_lat": 0.0}, {"lon": -77.02255083333333, "name": "753dc0ad0cf7f86080549fa42f183412", "is_disabled": 0, "type": "electric_scooter", "is_reserved": 0, "fusion_lon": 0.0, "lat": 38.9282255, "rental_uris": {"ios": "https://dc.lft.to/lastmile_qr_scan", "android": "https://dc.lft.to/lastmile_qr_scan"}, "bike_id": "753dc0ad0cf7f86080549fa42f183412", "fusion_lat": 0.0}, {"lon": -77.03889166666667, "name": "76ca5a5e7a61cc8a3490b07f12bf464d", "is_disabled": 0, "type": "electric_scooter", "is_reserved": 0, "fusion_lon": 0.0, "lat": 38.920423166666666, "rental_uris": {"ios": "https://dc.lft.to/lastmile_qr_scan", "android": "https://dc.lft.to/lastmile_qr_scan"}, "bike_id": "76ca5a5e7a61cc8a3490b07f12bf464d", "fusion_lat": 0.0}, {"lon": -77.02408216666667, "name": "9a5800d9e3a74bb5387de8368c5a569e", "is_disabled": 0, "type": "electric_bike", "is_reserved": 0, "fusion_lon": 0.0, "lat": 38.95691216666667, "rental_uris": {"ios": "https://dc.lft.to/lastmile_qr_scan", "android": "https://dc.lft.to/lastmile_qr_scan"}, "bike_id": "9a5800d9e3a74bb5387de8368c5a569e", "fusion_lat": 0.0}, {"lon": -77.0309395, "name": "f501881a6eaab3a061fdcab8a7f9bf13", "is_disabled": 0, "type": "electric_scooter", "is_reserved": 0, "fusion_lon": 0.0, "lat": 38.895304833333334, "rental_uris": {"ios": "https://dc.lft.to/lastmile_qr_scan", "android": "https://dc.lft.to/lastmile_qr_scan"}, "bike_id": "f501881a6eaab3a061fdcab8a7f9bf13", "fusion_lat": 0.0}, {"lon": -77.02129416666666, "name": "c01fcb61376f246a6f1e3844ed20217a", "is_disabled": 0, "type": "electric_scooter", "is_reserved": 0, "fusion_lon": 0.0, "lat": 38.922443, "rental_uris": {"ios": "https://dc.lft.to/lastmile_qr_scan", "android": "https://dc.lft.to/lastmile_qr_scan"}, "bike_id": "c01fcb61376f246a6f1e3844ed20217a", "fusion_lat": 0.0}, {"lon": -77.02844883333333, "name": "37eef6274f60d4076dbbb14fac6f18c6", "is_disabled": 0, "type": "electric_scooter", "is_reserved": 0, "fusion_lon": 0.0, "lat": 38.944917833333335, "rental_uris": {"ios": "https://dc.lft.to/lastmile_qr_scan", "android": "https://dc.lft.to/lastmile_qr_scan"}, "bike_id": "37eef6274f60d4076dbbb14fac6f18c6", "fusion_lat": 0.0}, {"lon": -76.93720733333333, "name": "7eac52be12e4e5adce4e1115e5c1057e", "is_disabled": 0, "type": "electric_scooter", "is_reserved": 0, "fusion_lon": 0.0, "lat": 38.88658133333333, "rental_uris": {"ios": "https://dc.lft.to/lastmile_qr_scan", "android": "https://dc.lft.to/lastmile_qr_scan"}, "bike_id": "7eac52be12e4e5adce4e1115e5c1057e", "fusion_lat": 0.0}, {"lon": -77.021635, "name": "04408e607166912e139d753695bbfaa5", "is_disabled": 0, "type": "electric_scooter", "is_reserved": 0, "fusion_lon": 0.0, "lat": 38.92608966666667, "rental_uris": {"ios": "https://dc.lft.to/lastmile_qr_scan", "android": "https://dc.lft.to/lastmile_qr_scan"}, "bike_id": "04408e607166912e139d753695bbfaa5", "fusion_lat": 0.0}, {"lon": -77.00921066666666, "name": "77cd3c3fd1233e4e24a4e1ea0cd14637", "is_disabled": 0, "type": "electric_scooter", "is_reserved": 0, "fusion_lon": 0.0, "lat": 38.895567, "rental_uris": {"ios": "https://dc.lft.to/lastmile_qr_scan", "android": "https://dc.lft.to/lastmile_qr_scan"}, "bike_id": "77cd3c3fd1233e4e24a4e1ea0cd14637", "fusion_lat": 0.0}, {"lon": -77.04683266666666, "name": "94c83a65e88152a9ca9c9fb49e4ea5c3", "is_disabled": 0, "type": "electric_scooter", "is_reserved": 0, "fusion_lon": 0.0, "lat": 38.89221033333333, "rental_uris": {"ios": "https://dc.lft.to/lastmile_qr_scan", "android": "https://dc.lft.to/lastmile_qr_scan"}, "bike_id": "94c83a65e88152a9ca9c9fb49e4ea5c3", "fusion_lat": 0.0}, {"lon": -77.03189233333333, "name": "17146af899e3f61cc55d36b027377b6d", "is_disabled": 0, "type": "electric_scooter", "is_reserved": 0, "fusion_lon": 0.0, "lat": 38.918000666666664, "rental_uris": {"ios": "https://dc.lft.to/lastmile_qr_scan", "android": "https://dc.lft.to/lastmile_qr_scan"}, "bike_id": "17146af899e3f61cc55d36b027377b6d", "fusion_lat": 0.0}, {"lon": -76.93594583333334, "name": "1e674af7ff779c75fcec516a25e8d447", "is_disabled": 0, "type": "electric_scooter", "is_reserved": 0, "fusion_lon": 0.0, "lat": 38.90946316666667, "rental_uris": {"ios": "https://dc.lft.to/lastmile_qr_scan", "android": "https://dc.lft.to/lastmile_qr_scan"}, "bike_id": "1e674af7ff779c75fcec516a25e8d447", "fusion_lat": 0.0}, {"lon": -77.04294233333333, "name": "fa0c955387e9aeba9739eab2eb4421da", "is_disabled": 0, "type": "electric_scooter", "is_reserved": 0, "fusion_lon": 0.0, "lat": 38.9225675, "rental_uris": {"ios": "https://dc.lft.to/lastmile_qr_scan", "android": "https://dc.lft.to/lastmile_qr_scan"}, "bike_id": "fa0c955387e9aeba9739eab2eb4421da", "fusion_lat": 0.0}, {"lon": -77.039898, "name": "d6de4a15fca54316794d5b38d7365240", "is_disabled": 0, "type": "electric_scooter", "is_reserved": 0, "fusion_lon": 0.0, "lat": 38.906045, "rental_uris": {"ios": "https://dc.lft.to/lastmile_qr_scan", "android": "https://dc.lft.to/lastmile_qr_scan"}, "bike_id": "d6de4a15fca54316794d5b38d7365240", "fusion_lat": 0.0}, {"lon": -77.01300833333333, "name": "9dde53db190d521674a367cbd61b1449", "is_disabled": 0, "type": "electric_bike", "is_reserved": 0, "fusion_lon": 0.0, "lat": 38.881432333333336, "rental_uris": {"ios": "https://dc.lft.to/lastmile_qr_scan", "android": "https://dc.lft.to/lastmile_qr_scan"}, "bike_id": "9dde53db190d521674a367cbd61b1449", "fusion_lat": 0.0}, {"lon": -77.06379266666667, "name": "ecf5e1fe2353ee4e97ae0913493d041f", "is_disabled": 0, "type": "electric_scooter", "is_reserved": 0, "fusion_lon": 0.0, "lat": 38.90808283333333, "rental_uris": {"ios": "https://dc.lft.to/lastmile_qr_scan", "android": "https://dc.lft.to/lastmile_qr_scan"}, "bike_id": "ecf5e1fe2353ee4e97ae0913493d041f", "fusion_lat": 0.0}, {"lon": -77.019502, "name": "f96db72038378e61615362831473f676", "is_disabled": 0, "type": "electric_scooter", "is_reserved": 0, "fusion_lon": 0.0, "lat": 38.922600833333334, "rental_uris": {"ios": "https://dc.lft.to/lastmile_qr_scan", "android": "https://dc.lft.to/lastmile_qr_scan"}, "bike_id": "f96db72038378e61615362831473f676", "fusion_lat": 0.0}, {"lon": -77.04116733333333, "name": "6a4fad472102d58d7c6e6416f8f19ee8", "is_disabled": 0, "type": "electric_scooter", "is_reserved": 0, "fusion_lon": 0.0, "lat": 38.904924, "rental_uris": {"ios": "https://dc.lft.to/lastmile_qr_scan", "android": "https://dc.lft.to/lastmile_qr_scan"}, "bike_id": "6a4fad472102d58d7c6e6416f8f19ee8", "fusion_lat": 0.0}, {"lon": -77.0326785, "name": "c100e5280844f8274258d36b1df75830", "is_disabled": 0, "type": "electric_scooter", "is_reserved": 0, "fusion_lon": 0.0, "lat": 38.9274945, "rental_uris": {"ios": "https://dc.lft.to/lastmile_qr_scan", "android": "https://dc.lft.to/lastmile_qr_scan"}, "bike_id": "c100e5280844f8274258d36b1df75830", "fusion_lat": 0.0}, {"lon": -77.03473633333333, "name": "7d5c824c6ae62ec8f305d7f9bc2ea22f", "is_disabled": 0, "type": "electric_scooter", "is_reserved": 0, "fusion_lon": 0.0, "lat": 38.901422833333335, "rental_uris": {"ios": "https://dc.lft.to/lastmile_qr_scan", "android": "https://dc.lft.to/lastmile_qr_scan"}, "bike_id": "7d5c824c6ae62ec8f305d7f9bc2ea22f", "fusion_lat": 0.0}, {"lon": -76.95135416666666, "name": "22ca8591970fc001efec2ce7993a4dfe", "is_disabled": 0, "type": "electric_bike", "is_reserved": 0, "fusion_lon": 0.0, "lat": 39.084266666666664, "rental_uris": {"ios": "https://dc.lft.to/lastmile_qr_scan", "android": "https://dc.lft.to/lastmile_qr_scan"}, "bike_id": "22ca8591970fc001efec2ce7993a4dfe", "fusion_lat": 0.0}, {"lon": -77.02000416666667, "name": "13fe187fd3fadd2adb63b69cd37ce4c3", "is_disabled": 0, "type": "electric_scooter", "is_reserved": 0, "fusion_lon": 0.0, "lat": 38.96626933333334, "rental_uris": {"ios": "https://dc.lft.to/lastmile_qr_scan", "android": "https://dc.lft.to/lastmile_qr_scan"}, "bike_id": "13fe187fd3fadd2adb63b69cd37ce4c3", "fusion_lat": 0.0}, {"lon": -77.01679766666666, "name": "3c21cf2d2a3c117ced255a15588f2dc6", "is_disabled": 0, "type": "electric_scooter", "is_reserved": 0, "fusion_lon": 0.0, "lat": 38.920410333333336, "rental_uris": {"ios": "https://dc.lft.to/lastmile_qr_scan", "android": "https://dc.lft.to/lastmile_qr_scan"}, "bike_id": "3c21cf2d2a3c117ced255a15588f2dc6", "fusion_lat": 0.0}, {"lon": -77.02411233333333, "name": "106a6e2d91a0cc3ffe7a9eb1b4834c4d", "is_disabled": 0, "type": "electric_scooter", "is_reserved": 0, "fusion_lon": 0.0, "lat": 38.927006666666664, "rental_uris": {"ios": "https://dc.lft.to/lastmile_qr_scan", "android": "https://dc.lft.to/lastmile_qr_scan"}, "bike_id": "106a6e2d91a0cc3ffe7a9eb1b4834c4d", "fusion_lat": 0.0}, {"lon": -77.02597883333334, "name": "51a665a76da03c36424b21648cf7a847", "is_disabled": 0, "type": "electric_scooter", "is_reserved": 0, "fusion_lon": 0.0, "lat": 38.91692616666667, "rental_uris": {"ios": "https://dc.lft.to/lastmile_qr_scan", "android": "https://dc.lft.to/lastmile_qr_scan"}, "bike_id": "51a665a76da03c36424b21648cf7a847", "fusion_lat": 0.0}, {"lon": -77.03143966666667, "name": "0b88fc8e0297f5a5835fa53223d0bd73", "is_disabled": 0, "type": "electric_scooter", "is_reserved": 0, "fusion_lon": 0.0, "lat": 38.92809483333333, "rental_uris": {"ios": "https://dc.lft.to/lastmile_qr_scan", "android": "https://dc.lft.to/lastmile_qr_scan"}, "bike_id": "0b88fc8e0297f5a5835fa53223d0bd73", "fusion_lat": 0.0}, {"lon": -77.04004316666666, "name": "01f9079af596187240667f26dcb5884a", "is_disabled": 0, "type": "electric_scooter", "is_reserved": 0, "fusion_lon": 0.0, "lat": 38.93429866666666, "rental_uris": {"ios": "https://dc.lft.to/lastmile_qr_scan", "android": "https://dc.lft.to/lastmile_qr_scan"}, "bike_id": "01f9079af596187240667f26dcb5884a", "fusion_lat": 0.0}, {"lon": -77.0281725, "name": "9dd10d0063d2175f871601a85dc44078", "is_disabled": 0, "type": "electric_scooter", "is_reserved": 0, "fusion_lon": 0.0, "lat": 38.9070455, "rental_uris": {"ios": "https://dc.lft.to/lastmile_qr_scan", "android": "https://dc.lft.to/lastmile_qr_scan"}, "bike_id": "9dd10d0063d2175f871601a85dc44078", "fusion_lat": 0.0}, {"lon": -77.03212183333333, "name": "2656bf9c4b252d2b41d4e87c06775645", "is_disabled": 0, "type": "electric_scooter", "is_reserved": 0, "fusion_lon": 0.0, "lat": 38.90123066666666, "rental_uris": {"ios": "https://dc.lft.to/lastmile_qr_scan", "android": "https://dc.lft.to/lastmile_qr_scan"}, "bike_id": "2656bf9c4b252d2b41d4e87c06775645", "fusion_lat": 0.0}, {"lon": -77.0575255, "name": "925878da72c9abb4c002d457c9037cfb", "is_disabled": 0, "type": "electric_scooter", "is_reserved": 0, "fusion_lon": 0.0, "lat": 38.92461983333333, "rental_uris": {"ios": "https://dc.lft.to/lastmile_qr_scan", "android": "https://dc.lft.to/lastmile_qr_scan"}, "bike_id": "925878da72c9abb4c002d457c9037cfb", "fusion_lat": 0.0}, {"lon": -77.018456, "name": "e8d8731dcf64ad3154771a28c607ea7c", "is_disabled": 0, "type": "electric_scooter", "is_reserved": 0, "fusion_lon": 0.0, "lat": 38.9220475, "rental_uris": {"ios": "https://dc.lft.to/lastmile_qr_scan", "android": "https://dc.lft.to/lastmile_qr_scan"}, "bike_id": "e8d8731dcf64ad3154771a28c607ea7c", "fusion_lat": 0.0}, {"lon": -77.034206, "name": "36a8afeca4d0747dcb04478661b2a162", "is_disabled": 0, "type": "electric_scooter", "is_reserved": 0, "fusion_lon": 0.0, "lat": 38.90376333333333, "rental_uris": {"ios": "https://dc.lft.to/lastmile_qr_scan", "android": "https://dc.lft.to/lastmile_qr_scan"}, "bike_id": "36a8afeca4d0747dcb04478661b2a162", "fusion_lat": 0.0}, {"lon": -77.04655883333334, "name": "70dbff8f28ba5723eb3224e1459aed8a", "is_disabled": 0, "type": "electric_scooter", "is_reserved": 0, "fusion_lon": 0.0, "lat": 38.89729966666667, "rental_uris": {"ios": "https://dc.lft.to/lastmile_qr_scan", "android": "https://dc.lft.to/lastmile_qr_scan"}, "bike_id": "70dbff8f28ba5723eb3224e1459aed8a", "fusion_lat": 0.0}, {"lon": -77.0053765, "name": "e5c521faaa233b8e5f98a0d07ca094f9", "is_disabled": 0, "type": "electric_scooter", "is_reserved": 0, "fusion_lon": 0.0, "lat": 38.875446333333336, "rental_uris": {"ios": "https://dc.lft.to/lastmile_qr_scan", "android": "https://dc.lft.to/lastmile_qr_scan"}, "bike_id": "e5c521faaa233b8e5f98a0d07ca094f9", "fusion_lat": 0.0}, {"lon": -77.036652, "name": "7d1a2627d96a4c39272f2c4df978198b", "is_disabled": 0, "type": "electric_scooter", "is_reserved": 0, "fusion_lon": 0.0, "lat": 38.915684666666664, "rental_uris": {"ios": "https://dc.lft.to/lastmile_qr_scan", "android": "https://dc.lft.to/lastmile_qr_scan"}, "bike_id": "7d1a2627d96a4c39272f2c4df978198b", "fusion_lat": 0.0}, {"lon": -77.00139516666667, "name": "1f358ac6c650ea0bffb26ade2d8ac0f0", "is_disabled": 0, "type": "electric_bike", "is_reserved": 0, "fusion_lon": 0.0, "lat": 38.994994166666665, "rental_uris": {"ios": "https://dc.lft.to/lastmile_qr_scan", "android": "https://dc.lft.to/lastmile_qr_scan"}, "bike_id": "1f358ac6c650ea0bffb26ade2d8ac0f0", "fusion_lat": 0.0}, {"lon": -77.0155215, "name": "7b959046b8fb3c604f11668cfb50a783", "is_disabled": 0, "type": "electric_scooter", "is_reserved": 0, "fusion_lon": 0.0, "lat": 38.879205, "rental_uris": {"ios": "https://dc.lft.to/lastmile_qr_scan", "android": "https://dc.lft.to/lastmile_qr_scan"}, "bike_id": "7b959046b8fb3c604f11668cfb50a783", "fusion_lat": 0.0}, {"lon": -76.96262333333334, "name": "bdef4574178e1c7f82786e0999aca286", "is_disabled": 0, "type": "electric_bike", "is_reserved": 0, "fusion_lon": 0.0, "lat": 38.88243133333334, "rental_uris": {"ios": "https://dc.lft.to/lastmile_qr_scan", "android": "https://dc.lft.to/lastmile_qr_scan"}, "bike_id": "bdef4574178e1c7f82786e0999aca286", "fusion_lat": 0.0}, {"lon": -76.94857416666666, "name": "e86b8538ce55870e4b4280900b4eb448", "is_disabled": 0, "type": "electric_scooter", "is_reserved": 0, "fusion_lon": 0.0, "lat": 38.89609566666667, "rental_uris": {"ios": "https://dc.lft.to/lastmile_qr_scan", "android": "https://dc.lft.to/lastmile_qr_scan"}, "bike_id": "e86b8538ce55870e4b4280900b4eb448", "fusion_lat": 0.0}, {"lon": -76.98932, "name": "90219e58888279f9f32b16393aea8ac0", "is_disabled": 0, "type": "electric_scooter", "is_reserved": 0, "fusion_lon": 0.0, "lat": 38.900076166666665, "rental_uris": {"ios": "https://dc.lft.to/lastmile_qr_scan", "android": "https://dc.lft.to/lastmile_qr_scan"}, "bike_id": "90219e58888279f9f32b16393aea8ac0", "fusion_lat": 0.0}, {"lon": -77.0600965, "name": "9792afbd60e3fe4595efe4964ec85209", "is_disabled": 0, "type": "electric_scooter", "is_reserved": 0, "fusion_lon": 0.0, "lat": 38.927051, "rental_uris": {"ios": "https://dc.lft.to/lastmile_qr_scan", "android": "https://dc.lft.to/lastmile_qr_scan"}, "bike_id": "9792afbd60e3fe4595efe4964ec85209", "fusion_lat": 0.0}, {"lon": -77.02407183333334, "name": "c3c3f36fe82bbfb9e14b8eb694564a7a", "is_disabled": 0, "type": "electric_scooter", "is_reserved": 0, "fusion_lon": 0.0, "lat": 38.917125, "rental_uris": {"ios": "https://dc.lft.to/lastmile_qr_scan", "android": "https://dc.lft.to/lastmile_qr_scan"}, "bike_id": "c3c3f36fe82bbfb9e14b8eb694564a7a", "fusion_lat": 0.0}, {"lon": -77.01331883333333, "name": "e60b3a790e2584a66dc624d8c2edf146", "is_disabled": 0, "type": "electric_scooter", "is_reserved": 0, "fusion_lon": 0.0, "lat": 38.9420055, "rental_uris": {"ios": "https://dc.lft.to/lastmile_qr_scan", "android": "https://dc.lft.to/lastmile_qr_scan"}, "bike_id": "e60b3a790e2584a66dc624d8c2edf146", "fusion_lat": 0.0}, {"lon": -77.05007733333333, "name": "5db094fe72f80d847856f99e763643c5", "is_disabled": 0, "type": "electric_bike", "is_reserved": 0, "fusion_lon": 0.0, "lat": 39.03894616666667, "rental_uris": {"ios": "https://dc.lft.to/lastmile_qr_scan", "android": "https://dc.lft.to/lastmile_qr_scan"}, "bike_id": "5db094fe72f80d847856f99e763643c5", "fusion_lat": 0.0}, {"lon": -76.92630816666667, "name": "9db6858b3f7e6b50b05e0ab6c0280e08", "is_disabled": 0, "type": "electric_scooter", "is_reserved": 0, "fusion_lon": 0.0, "lat": 38.88618683333333, "rental_uris": {"ios": "https://dc.lft.to/lastmile_qr_scan", "android": "https://dc.lft.to/lastmile_qr_scan"}, "bike_id": "9db6858b3f7e6b50b05e0ab6c0280e08", "fusion_lat": 0.0}, {"lon": -76.99855333333333, "name": "b036d7ec73c5a1a0a0a0d79c188e3f73", "is_disabled": 0, "type": "electric_scooter", "is_reserved": 0, "fusion_lon": 0.0, "lat": 38.901183, "rental_uris": {"ios": "https://dc.lft.to/lastmile_qr_scan", "android": "https://dc.lft.to/lastmile_qr_scan"}, "bike_id": "b036d7ec73c5a1a0a0a0d79c188e3f73", "fusion_lat": 0.0}, {"lon": -77.031737, "name": "46074028553ac6f9b4c2b4a884229d69", "is_disabled": 0, "type": "electric_scooter", "is_reserved": 0, "fusion_lon": 0.0, "lat": 38.88387783333334, "rental_uris": {"ios": "https://dc.lft.to/lastmile_qr_scan", "android": "https://dc.lft.to/lastmile_qr_scan"}, "bike_id": "46074028553ac6f9b4c2b4a884229d69", "fusion_lat": 0.0}, {"lon": -77.009855, "name": "334c4e1740d9e141c959380a8eb39cf9", "is_disabled": 0, "type": "electric_scooter", "is_reserved": 0, "fusion_lon": 0.0, "lat": 38.91395833333333, "rental_uris": {"ios": "https://dc.lft.to/lastmile_qr_scan", "android": "https://dc.lft.to/lastmile_qr_scan"}, "bike_id": "334c4e1740d9e141c959380a8eb39cf9", "fusion_lat": 0.0}, {"lon": -77.0449675, "name": "e32912dd491ffb1ef521690b61f36924", "is_disabled": 0, "type": "electric_scooter", "is_reserved": 0, "fusion_lon": 0.0, "lat": 38.90958216666667, "rental_uris": {"ios": "https://dc.lft.to/lastmile_qr_scan", "android": "https://dc.lft.to/lastmile_qr_scan"}, "bike_id": "e32912dd491ffb1ef521690b61f36924", "fusion_lat": 0.0}, {"lon": -77.03252683333334, "name": "50cdcde357dd54c6f6e46bb96631401c", "is_disabled": 0, "type": "electric_scooter", "is_reserved": 0, "fusion_lon": 0.0, "lat": 38.902849833333335, "rental_uris": {"ios": "https://dc.lft.to/lastmile_qr_scan", "android": "https://dc.lft.to/lastmile_qr_scan"}, "bike_id": "50cdcde357dd54c6f6e46bb96631401c", "fusion_lat": 0.0}, {"lon": -76.99489483333333, "name": "cd5e92f4bc4339be52a7590c6d43de58", "is_disabled": 0, "type": "electric_scooter", "is_reserved": 0, "fusion_lon": 0.0, "lat": 38.9477315, "rental_uris": {"ios": "https://dc.lft.to/lastmile_qr_scan", "android": "https://dc.lft.to/lastmile_qr_scan"}, "bike_id": "cd5e92f4bc4339be52a7590c6d43de58", "fusion_lat": 0.0}, {"lon": -77.020996, "name": "1c2501aa9aa8b0980281183b90d04c8a", "is_disabled": 0, "type": "electric_scooter", "is_reserved": 0, "fusion_lon": 0.0, "lat": 38.93113183333333, "rental_uris": {"ios": "https://dc.lft.to/lastmile_qr_scan", "android": "https://dc.lft.to/lastmile_qr_scan"}, "bike_id": "1c2501aa9aa8b0980281183b90d04c8a", "fusion_lat": 0.0}, {"lon": -77.0600185, "name": "d625b240a2ce65e904cbae35afdb984c", "is_disabled": 0, "type": "electric_scooter", "is_reserved": 0, "fusion_lon": 0.0, "lat": 38.927123333333334, "rental_uris": {"ios": "https://dc.lft.to/lastmile_qr_scan", "android": "https://dc.lft.to/lastmile_qr_scan"}, "bike_id": "d625b240a2ce65e904cbae35afdb984c", "fusion_lat": 0.0}, {"lon": -77.03756533333333, "name": "8054a3cacfea66f4c7b869173dd34b12", "is_disabled": 0, "type": "electric_scooter", "is_reserved": 0, "fusion_lon": 0.0, "lat": 38.90875466666667, "rental_uris": {"ios": "https://dc.lft.to/lastmile_qr_scan", "android": "https://dc.lft.to/lastmile_qr_scan"}, "bike_id": "8054a3cacfea66f4c7b869173dd34b12", "fusion_lat": 0.0}, {"lon": -77.03273266666666, "name": "16737921b1d7a47944365df5f4971cef", "is_disabled": 0, "type": "electric_scooter", "is_reserved": 0, "fusion_lon": 0.0, "lat": 38.928252666666666, "rental_uris": {"ios": "https://dc.lft.to/lastmile_qr_scan", "android": "https://dc.lft.to/lastmile_qr_scan"}, "bike_id": "16737921b1d7a47944365df5f4971cef", "fusion_lat": 0.0}, {"lon": -77.04965416666667, "name": "ce3020ff5ba14a70e6559d85a29a9ba4", "is_disabled": 0, "type": "electric_scooter", "is_reserved": 0, "fusion_lon": 0.0, "lat": 38.897800833333335, "rental_uris": {"ios": "https://dc.lft.to/lastmile_qr_scan", "android": "https://dc.lft.to/lastmile_qr_scan"}, "bike_id": "ce3020ff5ba14a70e6559d85a29a9ba4", "fusion_lat": 0.0}, {"lon": -76.9823685, "name": "375f473f5ddfe17b274fe45a299c38b0", "is_disabled": 0, "type": "electric_scooter", "is_reserved": 0, "fusion_lon": 0.0, "lat": 38.908914833333334, "rental_uris": {"ios": "https://dc.lft.to/lastmile_qr_scan", "android": "https://dc.lft.to/lastmile_qr_scan"}, "bike_id": "375f473f5ddfe17b274fe45a299c38b0", "fusion_lat": 0.0}, {"lon": -77.03782916666667, "name": "e287052a3b161ac1977f6576a88ec300", "is_disabled": 0, "type": "electric_scooter", "is_reserved": 0, "fusion_lon": 0.0, "lat": 38.927811166666665, "rental_uris": {"ios": "https://dc.lft.to/lastmile_qr_scan", "android": "https://dc.lft.to/lastmile_qr_scan"}, "bike_id": "e287052a3b161ac1977f6576a88ec300", "fusion_lat": 0.0}, {"lon": -77.0111465, "name": "c30541728cb39e81eac2bab222bb11c8", "is_disabled": 0, "type": "electric_scooter", "is_reserved": 0, "fusion_lon": 0.0, "lat": 38.89512166666667, "rental_uris": {"ios": "https://dc.lft.to/lastmile_qr_scan", "android": "https://dc.lft.to/lastmile_qr_scan"}, "bike_id": "c30541728cb39e81eac2bab222bb11c8", "fusion_lat": 0.0}, {"lon": -77.01032983333333, "name": "c7bcdd9873071935d56d391c0405c497", "is_disabled": 0, "type": "electric_bike", "is_reserved": 0, "fusion_lon": 0.0, "lat": 38.958748666666665, "rental_uris": {"ios": "https://dc.lft.to/lastmile_qr_scan", "android": "https://dc.lft.to/lastmile_qr_scan"}, "bike_id": "c7bcdd9873071935d56d391c0405c497", "fusion_lat": 0.0}, {"lon": -77.02610033333333, "name": "618f7681bef132f03675a477d45c956a", "is_disabled": 0, "type": "electric_scooter", "is_reserved": 0, "fusion_lon": 0.0, "lat": 38.918776333333334, "rental_uris": {"ios": "https://dc.lft.to/lastmile_qr_scan", "android": "https://dc.lft.to/lastmile_qr_scan"}, "bike_id": "618f7681bef132f03675a477d45c956a", "fusion_lat": 0.0}, {"lon": -77.018622, "name": "2bbb2d06f747ee999219ffc1a9bdabfb", "is_disabled": 0, "type": "electric_scooter", "is_reserved": 0, "fusion_lon": 0.0, "lat": 38.9736915, "rental_uris": {"ios": "https://dc.lft.to/lastmile_qr_scan", "android": "https://dc.lft.to/lastmile_qr_scan"}, "bike_id": "2bbb2d06f747ee999219ffc1a9bdabfb", "fusion_lat": 0.0}, {"lon": -77.03200716666667, "name": "a6ca59a8b5644640172c8bbb674b3a2e", "is_disabled": 0, "type": "electric_scooter", "is_reserved": 0, "fusion_lon": 0.0, "lat": 38.9098805, "rental_uris": {"ios": "https://dc.lft.to/lastmile_qr_scan", "android": "https://dc.lft.to/lastmile_qr_scan"}, "bike_id": "a6ca59a8b5644640172c8bbb674b3a2e", "fusion_lat": 0.0}, {"lon": -77.0067445, "name": "55777ff26aaf97f73e76d61fb27a7769", "is_disabled": 0, "type": "electric_bike", "is_reserved": 0, "fusion_lon": 0.0, "lat": 38.945070666666666, "rental_uris": {"ios": "https://dc.lft.to/lastmile_qr_scan", "android": "https://dc.lft.to/lastmile_qr_scan"}, "bike_id": "55777ff26aaf97f73e76d61fb27a7769", "fusion_lat": 0.0}, {"lon": -76.99784716666667, "name": "fbfb505a16337de5ccc3f9f405a8135a", "is_disabled": 0, "type": "electric_scooter", "is_reserved": 0, "fusion_lon": 0.0, "lat": 38.93221366666667, "rental_uris": {"ios": "https://dc.lft.to/lastmile_qr_scan", "android": "https://dc.lft.to/lastmile_qr_scan"}, "bike_id": "fbfb505a16337de5ccc3f9f405a8135a", "fusion_lat": 0.0}, {"lon": -77.0790655, "name": "6a638b9c24dddf4828aa1a21b87afb20", "is_disabled": 0, "type": "electric_bike", "is_reserved": 0, "fusion_lon": 0.0, "lat": 38.83928566666667, "rental_uris": {"ios": "https://dc.lft.to/lastmile_qr_scan", "android": "https://dc.lft.to/lastmile_qr_scan"}, "bike_id": "6a638b9c24dddf4828aa1a21b87afb20", "fusion_lat": 0.0}, {"lon": -77.04359016666666, "name": "ad77de2c985f1bbd68df5f4c56e387ef", "is_disabled": 0, "type": "electric_scooter", "is_reserved": 0, "fusion_lon": 0.0, "lat": 38.89691083333334, "rental_uris": {"ios": "https://dc.lft.to/lastmile_qr_scan", "android": "https://dc.lft.to/lastmile_qr_scan"}, "bike_id": "ad77de2c985f1bbd68df5f4c56e387ef", "fusion_lat": 0.0}, {"lon": -76.9930205, "name": "ad12c551a1629a1b0b854703335bc96e", "is_disabled": 0, "type": "electric_scooter", "is_reserved": 0, "fusion_lon": 0.0, "lat": 38.9377235, "rental_uris": {"ios": "https://dc.lft.to/lastmile_qr_scan", "android": "https://dc.lft.to/lastmile_qr_scan"}, "bike_id": "ad12c551a1629a1b0b854703335bc96e", "fusion_lat": 0.0}, {"lon": -76.93394066666667, "name": "823691c60b08719aed85679f589d46aa", "is_disabled": 0, "type": "electric_scooter", "is_reserved": 0, "fusion_lon": 0.0, "lat": 38.899080166666664, "rental_uris": {"ios": "https://dc.lft.to/lastmile_qr_scan", "android": "https://dc.lft.to/lastmile_qr_scan"}, "bike_id": "823691c60b08719aed85679f589d46aa", "fusion_lat": 0.0}, {"lon": -76.984781, "name": "1a6b375eb7d21b6ba3822febde40d383", "is_disabled": 0, "type": "electric_bike", "is_reserved": 0, "fusion_lon": 0.0, "lat": 38.91267933333334, "rental_uris": {"ios": "https://dc.lft.to/lastmile_qr_scan", "android": "https://dc.lft.to/lastmile_qr_scan"}, "bike_id": "1a6b375eb7d21b6ba3822febde40d383", "fusion_lat": 0.0}, {"lon": -77.032106, "name": "8a540e40d10827c377aa068da6316932", "is_disabled": 0, "type": "electric_scooter", "is_reserved": 0, "fusion_lon": 0.0, "lat": 38.91535366666667, "rental_uris": {"ios": "https://dc.lft.to/lastmile_qr_scan", "android": "https://dc.lft.to/lastmile_qr_scan"}, "bike_id": "8a540e40d10827c377aa068da6316932", "fusion_lat": 0.0}, {"lon": -77.0424105, "name": "31872e136ef56bd1be5cdddaf2a87e4f", "is_disabled": 0, "type": "electric_scooter", "is_reserved": 0, "fusion_lon": 0.0, "lat": 38.921523, "rental_uris": {"ios": "https://dc.lft.to/lastmile_qr_scan", "android": "https://dc.lft.to/lastmile_qr_scan"}, "bike_id": "31872e136ef56bd1be5cdddaf2a87e4f", "fusion_lat": 0.0}, {"lon": -77.033572, "name": "7a5dce99d24247ae823d098a064c3470", "is_disabled": 0, "type": "electric_scooter", "is_reserved": 0, "fusion_lon": 0.0, "lat": 38.92752816666667, "rental_uris": {"ios": "https://dc.lft.to/lastmile_qr_scan", "android": "https://dc.lft.to/lastmile_qr_scan"}, "bike_id": "7a5dce99d24247ae823d098a064c3470", "fusion_lat": 0.0}, {"lon": -77.04188283333333, "name": "9dcf07d12eff4ed20f54e1688af13049", "is_disabled": 0, "type": "electric_scooter", "is_reserved": 0, "fusion_lon": 0.0, "lat": 38.89923483333333, "rental_uris": {"ios": "https://dc.lft.to/lastmile_qr_scan", "android": "https://dc.lft.to/lastmile_qr_scan"}, "bike_id": "9dcf07d12eff4ed20f54e1688af13049", "fusion_lat": 0.0}, {"lon": -77.02194483333334, "name": "b70ee99e9b8cb67ad69df5e7900f07dc", "is_disabled": 0, "type": "electric_scooter", "is_reserved": 0, "fusion_lon": 0.0, "lat": 38.8963015, "rental_uris": {"ios": "https://dc.lft.to/lastmile_qr_scan", "android": "https://dc.lft.to/lastmile_qr_scan"}, "bike_id": "b70ee99e9b8cb67ad69df5e7900f07dc", "fusion_lat": 0.0}, {"lon": -77.02169516666666, "name": "12e1cb9adc8e7b02dcd63cca07920eac", "is_disabled": 0, "type": "electric_scooter", "is_reserved": 0, "fusion_lon": 0.0, "lat": 38.9139765, "rental_uris": {"ios": "https://dc.lft.to/lastmile_qr_scan", "android": "https://dc.lft.to/lastmile_qr_scan"}, "bike_id": "12e1cb9adc8e7b02dcd63cca07920eac", "fusion_lat": 0.0}, {"lon": -77.06780733333333, "name": "aaab2876f3c4135af33e2c90c5fd00e1", "is_disabled": 0, "type": "electric_scooter", "is_reserved": 0, "fusion_lon": 0.0, "lat": 38.952073, "rental_uris": {"ios": "https://dc.lft.to/lastmile_qr_scan", "android": "https://dc.lft.to/lastmile_qr_scan"}, "bike_id": "aaab2876f3c4135af33e2c90c5fd00e1", "fusion_lat": 0.0}, {"lon": -77.02658916666667, "name": "b1f0be5d424fb30248a58bdb4f3214ba", "is_disabled": 0, "type": "electric_scooter", "is_reserved": 0, "fusion_lon": 0.0, "lat": 38.923782333333335, "rental_uris": {"ios": "https://dc.lft.to/lastmile_qr_scan", "android": "https://dc.lft.to/lastmile_qr_scan"}, "bike_id": "b1f0be5d424fb30248a58bdb4f3214ba", "fusion_lat": 0.0}, {"lon": -76.98113783333334, "name": "09c5f78c95104782fa7995954b320874", "is_disabled": 0, "type": "electric_scooter", "is_reserved": 0, "fusion_lon": 0.0, "lat": 38.914698333333334, "rental_uris": {"ios": "https://dc.lft.to/lastmile_qr_scan", "android": "https://dc.lft.to/lastmile_qr_scan"}, "bike_id": "09c5f78c95104782fa7995954b320874", "fusion_lat": 0.0}, {"lon": -77.04512833333334, "name": "9ecf15792ab01c6324b70dd659bd1fa7", "is_disabled": 0, "type": "electric_scooter", "is_reserved": 0, "fusion_lon": 0.0, "lat": 38.899634666666664, "rental_uris": {"ios": "https://dc.lft.to/lastmile_qr_scan", "android": "https://dc.lft.to/lastmile_qr_scan"}, "bike_id": "9ecf15792ab01c6324b70dd659bd1fa7", "fusion_lat": 0.0}, {"lon": -77.03961016666666, "name": "f15b3dacda48a6967f915b1dbc5b92ed", "is_disabled": 0, "type": "electric_scooter", "is_reserved": 0, "fusion_lon": 0.0, "lat": 38.893668, "rental_uris": {"ios": "https://dc.lft.to/lastmile_qr_scan", "android": "https://dc.lft.to/lastmile_qr_scan"}, "bike_id": "f15b3dacda48a6967f915b1dbc5b92ed", "fusion_lat": 0.0}, {"lon": -76.988318, "name": "87edc0f75020aef20a8bd4e3ecb878d9", "is_disabled": 0, "type": "electric_scooter", "is_reserved": 0, "fusion_lon": 0.0, "lat": 38.89095533333333, "rental_uris": {"ios": "https://dc.lft.to/lastmile_qr_scan", "android": "https://dc.lft.to/lastmile_qr_scan"}, "bike_id": "87edc0f75020aef20a8bd4e3ecb878d9", "fusion_lat": 0.0}, {"lon": -77.04326633333334, "name": "bbf9ff424869708af79794867975cf01", "is_disabled": 0, "type": "electric_scooter", "is_reserved": 0, "fusion_lon": 0.0, "lat": 38.89829966666667, "rental_uris": {"ios": "https://dc.lft.to/lastmile_qr_scan", "android": "https://dc.lft.to/lastmile_qr_scan"}, "bike_id": "bbf9ff424869708af79794867975cf01", "fusion_lat": 0.0}, {"lon": -77.1393925, "name": "75776c8efa10ea88ff92bcdb8d4e1523", "is_disabled": 0, "type": "electric_bike", "is_reserved": 0, "fusion_lon": 0.0, "lat": 38.84671633333333, "rental_uris": {"ios": "https://dc.lft.to/lastmile_qr_scan", "android": "https://dc.lft.to/lastmile_qr_scan"}, "bike_id": "75776c8efa10ea88ff92bcdb8d4e1523", "fusion_lat": 0.0}, {"lon": -76.99397766666667, "name": "6d66e834daad1a4e883c433fb9f26d83", "is_disabled": 0, "type": "electric_scooter", "is_reserved": 0, "fusion_lon": 0.0, "lat": 38.9100375, "rental_uris": {"ios": "https://dc.lft.to/lastmile_qr_scan", "android": "https://dc.lft.to/lastmile_qr_scan"}, "bike_id": "6d66e834daad1a4e883c433fb9f26d83", "fusion_lat": 0.0}, {"lon": -76.98213183333333, "name": "d6c11b18ac79fafc69639c4f9eaf1f1d", "is_disabled": 0, "type": "electric_scooter", "is_reserved": 0, "fusion_lon": 0.0, "lat": 38.8864195, "rental_uris": {"ios": "https://dc.lft.to/lastmile_qr_scan", "android": "https://dc.lft.to/lastmile_qr_scan"}, "bike_id": "d6c11b18ac79fafc69639c4f9eaf1f1d", "fusion_lat": 0.0}, {"lon": -77.02132433333334, "name": "446fc811ef3291904a5162250b376651", "is_disabled": 0, "type": "electric_scooter", "is_reserved": 0, "fusion_lon": 0.0, "lat": 38.924146, "rental_uris": {"ios": "https://dc.lft.to/lastmile_qr_scan", "android": "https://dc.lft.to/lastmile_qr_scan"}, "bike_id": "446fc811ef3291904a5162250b376651", "fusion_lat": 0.0}, {"lon": -77.01556333333333, "name": "27a085da16071e36dc54f18ca5f071ca", "is_disabled": 0, "type": "electric_scooter", "is_reserved": 0, "fusion_lon": 0.0, "lat": 38.893681666666666, "rental_uris": {"ios": "https://dc.lft.to/lastmile_qr_scan", "android": "https://dc.lft.to/lastmile_qr_scan"}, "bike_id": "27a085da16071e36dc54f18ca5f071ca", "fusion_lat": 0.0}, {"lon": -77.02782166666667, "name": "70c37db92c8fab62d92c2c6a83d09808", "is_disabled": 0, "type": "electric_scooter", "is_reserved": 0, "fusion_lon": 0.0, "lat": 38.9295395, "rental_uris": {"ios": "https://dc.lft.to/lastmile_qr_scan", "android": "https://dc.lft.to/lastmile_qr_scan"}, "bike_id": "70c37db92c8fab62d92c2c6a83d09808", "fusion_lat": 0.0}, {"lon": -77.09616716666666, "name": "b336b08ef30ef8810535ac54b5d761d0", "is_disabled": 0, "type": "electric_bike", "is_reserved": 0, "fusion_lon": 0.0, "lat": 38.974397833333335, "rental_uris": {"ios": "https://dc.lft.to/lastmile_qr_scan", "android": "https://dc.lft.to/lastmile_qr_scan"}, "bike_id": "b336b08ef30ef8810535ac54b5d761d0", "fusion_lat": 0.0}, {"lon": -77.04208266666667, "name": "f1bf99dba0afba138121d58ed363a8ce", "is_disabled": 0, "type": "electric_scooter", "is_reserved": 0, "fusion_lon": 0.0, "lat": 38.92061966666667, "rental_uris": {"ios": "https://dc.lft.to/lastmile_qr_scan", "android": "https://dc.lft.to/lastmile_qr_scan"}, "bike_id": "f1bf99dba0afba138121d58ed363a8ce", "fusion_lat": 0.0}, {"lon": -76.9738325, "name": "8ac08ebc7f60d3bcbbfb92b3b684f27e", "is_disabled": 0, "type": "electric_scooter", "is_reserved": 0, "fusion_lon": 0.0, "lat": 38.871882, "rental_uris": {"ios": "https://dc.lft.to/lastmile_qr_scan", "android": "https://dc.lft.to/lastmile_qr_scan"}, "bike_id": "8ac08ebc7f60d3bcbbfb92b3b684f27e", "fusion_lat": 0.0}, {"lon": -77.00922783333333, "name": "bb5e2287232a1d1c2e7d09b181b1d802", "is_disabled": 0, "type": "electric_scooter", "is_reserved": 0, "fusion_lon": 0.0, "lat": 38.91875683333333, "rental_uris": {"ios": "https://dc.lft.to/lastmile_qr_scan", "android": "https://dc.lft.to/lastmile_qr_scan"}, "bike_id": "bb5e2287232a1d1c2e7d09b181b1d802", "fusion_lat": 0.0}, {"lon": -76.93912866666666, "name": "4d3ec5b4c693a54b574784e74af3d2af", "is_disabled": 0, "type": "electric_scooter", "is_reserved": 0, "fusion_lon": 0.0, "lat": 38.891651833333334, "rental_uris": {"ios": "https://dc.lft.to/lastmile_qr_scan", "android": "https://dc.lft.to/lastmile_qr_scan"}, "bike_id": "4d3ec5b4c693a54b574784e74af3d2af", "fusion_lat": 0.0}, {"lon": -77.04924916666667, "name": "25b7e6c7845a3f5e912d87b0c91665b7", "is_disabled": 0, "type": "electric_scooter", "is_reserved": 0, "fusion_lon": 0.0, "lat": 38.906470666666664, "rental_uris": {"ios": "https://dc.lft.to/lastmile_qr_scan", "android": "https://dc.lft.to/lastmile_qr_scan"}, "bike_id": "25b7e6c7845a3f5e912d87b0c91665b7", "fusion_lat": 0.0}, {"lon": -77.041492, "name": "8f286dbafcfbfa6cd79e3a44d5419a7b", "is_disabled": 0, "type": "electric_scooter", "is_reserved": 0, "fusion_lon": 0.0, "lat": 38.903947333333335, "rental_uris": {"ios": "https://dc.lft.to/lastmile_qr_scan", "android": "https://dc.lft.to/lastmile_qr_scan"}, "bike_id": "8f286dbafcfbfa6cd79e3a44d5419a7b", "fusion_lat": 0.0}, {"lon": -77.040044, "name": "39fc0f3bfb509f3f5730d8614ec888d0", "is_disabled": 0, "type": "electric_scooter", "is_reserved": 0, "fusion_lon": 0.0, "lat": 38.93423466666667, "rental_uris": {"ios": "https://dc.lft.to/lastmile_qr_scan", "android": "https://dc.lft.to/lastmile_qr_scan"}, "bike_id": "39fc0f3bfb509f3f5730d8614ec888d0", "fusion_lat": 0.0}, {"lon": -77.0234595, "name": "842ca568239b9d2a764c8c8f612b3225", "is_disabled": 0, "type": "electric_scooter", "is_reserved": 0, "fusion_lon": 0.0, "lat": 38.917816, "rental_uris": {"ios": "https://dc.lft.to/lastmile_qr_scan", "android": "https://dc.lft.to/lastmile_qr_scan"}, "bike_id": "842ca568239b9d2a764c8c8f612b3225", "fusion_lat": 0.0}, {"lon": -77.01149116666667, "name": "b5bba7c06f31a926aa0fa227864ef6f7", "is_disabled": 0, "type": "electric_scooter", "is_reserved": 0, "fusion_lon": 0.0, "lat": 38.9295965, "rental_uris": {"ios": "https://dc.lft.to/lastmile_qr_scan", "android": "https://dc.lft.to/lastmile_qr_scan"}, "bike_id": "b5bba7c06f31a926aa0fa227864ef6f7", "fusion_lat": 0.0}, {"lon": -77.04681566666666, "name": "bdd0cdf475e9eed496ca49629d87ecd3", "is_disabled": 0, "type": "electric_scooter", "is_reserved": 0, "fusion_lon": 0.0, "lat": 38.90207066666667, "rental_uris": {"ios": "https://dc.lft.to/lastmile_qr_scan", "android": "https://dc.lft.to/lastmile_qr_scan"}, "bike_id": "bdd0cdf475e9eed496ca49629d87ecd3", "fusion_lat": 0.0}, {"lon": -77.02759666666667, "name": "36d7775cc7b674ae31fbe00a44fa222a", "is_disabled": 0, "type": "electric_scooter", "is_reserved": 0, "fusion_lon": 0.0, "lat": 38.92762333333334, "rental_uris": {"ios": "https://dc.lft.to/lastmile_qr_scan", "android": "https://dc.lft.to/lastmile_qr_scan"}, "bike_id": "36d7775cc7b674ae31fbe00a44fa222a", "fusion_lat": 0.0}, {"lon": -77.016744, "name": "a16c7a929f3c35c25124735cd2da054e", "is_disabled": 0, "type": "electric_scooter", "is_reserved": 0, "fusion_lon": 0.0, "lat": 38.92040866666667, "rental_uris": {"ios": "https://dc.lft.to/lastmile_qr_scan", "android": "https://dc.lft.to/lastmile_qr_scan"}, "bike_id": "a16c7a929f3c35c25124735cd2da054e", "fusion_lat": 0.0}, {"lon": -77.03167416666666, "name": "333a6fdea431421499b5d33925cf4fa6", "is_disabled": 0, "type": "electric_scooter", "is_reserved": 0, "fusion_lon": 0.0, "lat": 38.892345, "rental_uris": {"ios": "https://dc.lft.to/lastmile_qr_scan", "android": "https://dc.lft.to/lastmile_qr_scan"}, "bike_id": "333a6fdea431421499b5d33925cf4fa6", "fusion_lat": 0.0}, {"lon": -77.0236885, "name": "af447a27224417036609c0132d68e065", "is_disabled": 0, "type": "electric_scooter", "is_reserved": 0, "fusion_lon": 0.0, "lat": 38.8999405, "rental_uris": {"ios": "https://dc.lft.to/lastmile_qr_scan", "android": "https://dc.lft.to/lastmile_qr_scan"}, "bike_id": "af447a27224417036609c0132d68e065", "fusion_lat": 0.0}, {"lon": -77.02607416666666, "name": "7813625960cee15402302a93c3d14986", "is_disabled": 0, "type": "electric_scooter", "is_reserved": 0, "fusion_lon": 0.0, "lat": 38.907133333333334, "rental_uris": {"ios": "https://dc.lft.to/lastmile_qr_scan", "android": "https://dc.lft.to/lastmile_qr_scan"}, "bike_id": "7813625960cee15402302a93c3d14986", "fusion_lat": 0.0}, {"lon": -77.05743183333334, "name": "b9da247f932ad9423f76f5a6a447e859", "is_disabled": 0, "type": "electric_scooter", "is_reserved": 0, "fusion_lon": 0.0, "lat": 38.93398116666667, "rental_uris": {"ios": "https://dc.lft.to/lastmile_qr_scan", "android": "https://dc.lft.to/lastmile_qr_scan"}, "bike_id": "b9da247f932ad9423f76f5a6a447e859", "fusion_lat": 0.0}, {"lon": -77.02401316666666, "name": "dd1e065b91ffb9c34a338c856fa7b966", "is_disabled": 0, "type": "electric_scooter", "is_reserved": 0, "fusion_lon": 0.0, "lat": 38.9163665, "rental_uris": {"ios": "https://dc.lft.to/lastmile_qr_scan", "android": "https://dc.lft.to/lastmile_qr_scan"}, "bike_id": "dd1e065b91ffb9c34a338c856fa7b966", "fusion_lat": 0.0}, {"lon": -77.23178933333334, "name": "44a4da8d8a74c322dcf054c96a5a6a51", "is_disabled": 0, "type": "electric_bike", "is_reserved": 0, "fusion_lon": 0.0, "lat": 38.928932, "rental_uris": {"ios": "https://dc.lft.to/lastmile_qr_scan", "android": "https://dc.lft.to/lastmile_qr_scan"}, "bike_id": "44a4da8d8a74c322dcf054c96a5a6a51", "fusion_lat": 0.0}, {"lon": -77.06286133333333, "name": "9d2abb04f67f8179b2f62128a52fa49e", "is_disabled": 0, "type": "electric_bike", "is_reserved": 0, "fusion_lon": 0.0, "lat": 38.905812166666664, "rental_uris": {"ios": "https://dc.lft.to/lastmile_qr_scan", "android": "https://dc.lft.to/lastmile_qr_scan"}, "bike_id": "9d2abb04f67f8179b2f62128a52fa49e", "fusion_lat": 0.0}, {"lon": -77.03204383333333, "name": "1d31d23dae68b3bb368f7e680f7cccdb", "is_disabled": 0, "type": "electric_scooter", "is_reserved": 0, "fusion_lon": 0.0, "lat": 38.910621166666665, "rental_uris": {"ios": "https://dc.lft.to/lastmile_qr_scan", "android": "https://dc.lft.to/lastmile_qr_scan"}, "bike_id": "1d31d23dae68b3bb368f7e680f7cccdb", "fusion_lat": 0.0}, {"lon": -77.0461745, "name": "48b0222ab7b579dae4914c1099053ae8", "is_disabled": 0, "type": "electric_scooter", "is_reserved": 0, "fusion_lon": 0.0, "lat": 38.92327266666667, "rental_uris": {"ios": "https://dc.lft.to/lastmile_qr_scan", "android": "https://dc.lft.to/lastmile_qr_scan"}, "bike_id": "48b0222ab7b579dae4914c1099053ae8", "fusion_lat": 0.0}, {"lon": -77.043852, "name": "e1e301d77d7ac37257fc907d6e38759b", "is_disabled": 0, "type": "electric_scooter", "is_reserved": 0, "fusion_lon": 0.0, "lat": 38.92355083333333, "rental_uris": {"ios": "https://dc.lft.to/lastmile_qr_scan", "android": "https://dc.lft.to/lastmile_qr_scan"}, "bike_id": "e1e301d77d7ac37257fc907d6e38759b", "fusion_lat": 0.0}, {"lon": -77.04511033333333, "name": "7c45a4f9a548149a8663542260ef0630", "is_disabled": 0, "type": "electric_scooter", "is_reserved": 0, "fusion_lon": 0.0, "lat": 38.91967916666667, "rental_uris": {"ios": "https://dc.lft.to/lastmile_qr_scan", "android": "https://dc.lft.to/lastmile_qr_scan"}, "bike_id": "7c45a4f9a548149a8663542260ef0630", "fusion_lat": 0.0}, {"lon": -77.03716666666666, "name": "f2640b68c2acf0830730c92b1481b429", "is_disabled": 0, "type": "electric_scooter", "is_reserved": 0, "fusion_lon": 0.0, "lat": 38.900234166666664, "rental_uris": {"ios": "https://dc.lft.to/lastmile_qr_scan", "android": "https://dc.lft.to/lastmile_qr_scan"}, "bike_id": "f2640b68c2acf0830730c92b1481b429", "fusion_lat": 0.0}, {"lon": -77.0508925, "name": "83ec2747510c99e1d9232c814bb05cc4", "is_disabled": 0, "type": "electric_bike", "is_reserved": 0, "fusion_lon": 0.0, "lat": 38.813303166666664, "rental_uris": {"ios": "https://dc.lft.to/lastmile_qr_scan", "android": "https://dc.lft.to/lastmile_qr_scan"}, "bike_id": "83ec2747510c99e1d9232c814bb05cc4", "fusion_lat": 0.0}, {"lon": -77.01906266666667, "name": "a4ad2aeaa46bf06c0cf5bc154347a37a", "is_disabled": 0, "type": "electric_scooter", "is_reserved": 0, "fusion_lon": 0.0, "lat": 38.91945966666667, "rental_uris": {"ios": "https://dc.lft.to/lastmile_qr_scan", "android": "https://dc.lft.to/lastmile_qr_scan"}, "bike_id": "a4ad2aeaa46bf06c0cf5bc154347a37a", "fusion_lat": 0.0}, {"lon": -77.0061185, "name": "21b8ceb3c16a8bbde872056cb2df3075", "is_disabled": 0, "type": "electric_scooter", "is_reserved": 0, "fusion_lon": 0.0, "lat": 38.871983666666665, "rental_uris": {"ios": "https://dc.lft.to/lastmile_qr_scan", "android": "https://dc.lft.to/lastmile_qr_scan"}, "bike_id": "21b8ceb3c16a8bbde872056cb2df3075", "fusion_lat": 0.0}, {"lon": -77.02901933333334, "name": "560a3762d909118053aab67254593122", "is_disabled": 0, "type": "electric_bike", "is_reserved": 0, "fusion_lon": 0.0, "lat": 38.994893833333336, "rental_uris": {"ios": "https://dc.lft.to/lastmile_qr_scan", "android": "https://dc.lft.to/lastmile_qr_scan"}, "bike_id": "560a3762d909118053aab67254593122", "fusion_lat": 0.0}, {"lon": -77.032185, "name": "fbc631767ea4f1967b8e29e6d96407a1", "is_disabled": 0, "type": "electric_scooter", "is_reserved": 0, "fusion_lon": 0.0, "lat": 38.8921925, "rental_uris": {"ios": "https://dc.lft.to/lastmile_qr_scan", "android": "https://dc.lft.to/lastmile_qr_scan"}, "bike_id": "fbc631767ea4f1967b8e29e6d96407a1", "fusion_lat": 0.0}, {"lon": -76.93939266666666, "name": "7d3edb79e09809426fab1235f7c69c89", "is_disabled": 0, "type": "electric_scooter", "is_reserved": 0, "fusion_lon": 0.0, "lat": 38.90858516666667, "rental_uris": {"ios": "https://dc.lft.to/lastmile_qr_scan", "android": "https://dc.lft.to/lastmile_qr_scan"}, "bike_id": "7d3edb79e09809426fab1235f7c69c89", "fusion_lat": 0.0}, {"lon": -77.02304733333334, "name": "51615453f777f65fbdb123c388cf5c3f", "is_disabled": 0, "type": "electric_scooter", "is_reserved": 0, "fusion_lon": 0.0, "lat": 38.926528, "rental_uris": {"ios": "https://dc.lft.to/lastmile_qr_scan", "android": "https://dc.lft.to/lastmile_qr_scan"}, "bike_id": "51615453f777f65fbdb123c388cf5c3f", "fusion_lat": 0.0}, {"lon": -77.02829783333334, "name": "30d3e152a56c40ed8e4244e19d866c19", "is_disabled": 0, "type": "electric_scooter", "is_reserved": 0, "fusion_lon": 0.0, "lat": 38.898038, "rental_uris": {"ios": "https://dc.lft.to/lastmile_qr_scan", "android": "https://dc.lft.to/lastmile_qr_scan"}, "bike_id": "30d3e152a56c40ed8e4244e19d866c19", "fusion_lat": 0.0}, {"lon": -76.98821266666667, "name": "7dd5bc79ebf1af693978d0aa79758d19", "is_disabled": 0, "type": "electric_scooter", "is_reserved": 0, "fusion_lon": 0.0, "lat": 38.890779333333334, "rental_uris": {"ios": "https://dc.lft.to/lastmile_qr_scan", "android": "https://dc.lft.to/lastmile_qr_scan"}, "bike_id": "7dd5bc79ebf1af693978d0aa79758d19", "fusion_lat": 0.0}, {"lon": -77.01832133333333, "name": "822fa18df3dedbfb721f04cb309300c4", "is_disabled": 0, "type": "electric_scooter", "is_reserved": 0, "fusion_lon": 0.0, "lat": 38.92244933333333, "rental_uris": {"ios": "https://dc.lft.to/lastmile_qr_scan", "android": "https://dc.lft.to/lastmile_qr_scan"}, "bike_id": "822fa18df3dedbfb721f04cb309300c4", "fusion_lat": 0.0}, {"lon": -77.0369075, "name": "baf7cacc5065d39ddc9d82855c64d305", "is_disabled": 0, "type": "electric_scooter", "is_reserved": 0, "fusion_lon": 0.0, "lat": 38.926360333333335, "rental_uris": {"ios": "https://dc.lft.to/lastmile_qr_scan", "android": "https://dc.lft.to/lastmile_qr_scan"}, "bike_id": "baf7cacc5065d39ddc9d82855c64d305", "fusion_lat": 0.0}, {"lon": -77.090009, "name": "34bf579adae08ba8af686a3f623bf107", "is_disabled": 0, "type": "electric_bike", "is_reserved": 0, "fusion_lon": 0.0, "lat": 38.909008, "rental_uris": {"ios": "https://dc.lft.to/lastmile_qr_scan", "android": "https://dc.lft.to/lastmile_qr_scan"}, "bike_id": "34bf579adae08ba8af686a3f623bf107", "fusion_lat": 0.0}, {"lon": -77.059451, "name": "6b577548d7036a9db343ae12a777e369", "is_disabled": 0, "type": "electric_scooter", "is_reserved": 0, "fusion_lon": 0.0, "lat": 38.937000166666664, "rental_uris": {"ios": "https://dc.lft.to/lastmile_qr_scan", "android": "https://dc.lft.to/lastmile_qr_scan"}, "bike_id": "6b577548d7036a9db343ae12a777e369", "fusion_lat": 0.0}, {"lon": -77.07139266666667, "name": "3e613d29cc8a06a2f659bc8951d690a5", "is_disabled": 0, "type": "electric_scooter", "is_reserved": 0, "fusion_lon": 0.0, "lat": 38.920223666666665, "rental_uris": {"ios": "https://dc.lft.to/lastmile_qr_scan", "android": "https://dc.lft.to/lastmile_qr_scan"}, "bike_id": "3e613d29cc8a06a2f659bc8951d690a5", "fusion_lat": 0.0}, {"lon": -77.032916, "name": "0c28020a50e38abc0250af3493a7f054", "is_disabled": 0, "type": "electric_scooter", "is_reserved": 0, "fusion_lon": 0.0, "lat": 38.956490333333335, "rental_uris": {"ios": "https://dc.lft.to/lastmile_qr_scan", "android": "https://dc.lft.to/lastmile_qr_scan"}, "bike_id": "0c28020a50e38abc0250af3493a7f054", "fusion_lat": 0.0}, {"lon": -77.03218566666666, "name": "0e97fef36c76c137b7163166a76a6dd4", "is_disabled": 0, "type": "electric_scooter", "is_reserved": 0, "fusion_lon": 0.0, "lat": 38.8922445, "rental_uris": {"ios": "https://dc.lft.to/lastmile_qr_scan", "android": "https://dc.lft.to/lastmile_qr_scan"}, "bike_id": "0e97fef36c76c137b7163166a76a6dd4", "fusion_lat": 0.0}, {"lon": -77.0167825, "name": "1cc0db6746b1157bb2b087e6033a9996", "is_disabled": 0, "type": "electric_scooter", "is_reserved": 0, "fusion_lon": 0.0, "lat": 38.91082766666667, "rental_uris": {"ios": "https://dc.lft.to/lastmile_qr_scan", "android": "https://dc.lft.to/lastmile_qr_scan"}, "bike_id": "1cc0db6746b1157bb2b087e6033a9996", "fusion_lat": 0.0}, {"lon": -77.04291083333334, "name": "defc2fd24b9915404d6a74a0a6c6b870", "is_disabled": 0, "type": "electric_scooter", "is_reserved": 0, "fusion_lon": 0.0, "lat": 38.91698783333333, "rental_uris": {"ios": "https://dc.lft.to/lastmile_qr_scan", "android": "https://dc.lft.to/lastmile_qr_scan"}, "bike_id": "defc2fd24b9915404d6a74a0a6c6b870", "fusion_lat": 0.0}, {"lon": -77.02514183333334, "name": "ee12207ae16d8a05fb0936b382429c81", "is_disabled": 0, "type": "electric_scooter", "is_reserved": 0, "fusion_lon": 0.0, "lat": 38.919151, "rental_uris": {"ios": "https://dc.lft.to/lastmile_qr_scan", "android": "https://dc.lft.to/lastmile_qr_scan"}, "bike_id": "ee12207ae16d8a05fb0936b382429c81", "fusion_lat": 0.0}, {"lon": -77.09582066666667, "name": "3dc52b2c8698876250d76aedc436ead1", "is_disabled": 0, "type": "electric_bike", "is_reserved": 0, "fusion_lon": 0.0, "lat": 38.99191, "rental_uris": {"ios": "https://dc.lft.to/lastmile_qr_scan", "android": "https://dc.lft.to/lastmile_qr_scan"}, "bike_id": "3dc52b2c8698876250d76aedc436ead1", "fusion_lat": 0.0}, {"lon": -77.03390033333334, "name": "1f392b0928dd54515df74d307f5c49cd", "is_disabled": 0, "type": "electric_bike", "is_reserved": 0, "fusion_lon": 0.0, "lat": 38.88661616666667, "rental_uris": {"ios": "https://dc.lft.to/lastmile_qr_scan", "android": "https://dc.lft.to/lastmile_qr_scan"}, "bike_id": "1f392b0928dd54515df74d307f5c49cd", "fusion_lat": 0.0}, {"lon": -77.04636233333333, "name": "d9f3f61f64389566802c84889372f2b5", "is_disabled": 0, "type": "electric_scooter", "is_reserved": 0, "fusion_lon": 0.0, "lat": 38.90955066666667, "rental_uris": {"ios": "https://dc.lft.to/lastmile_qr_scan", "android": "https://dc.lft.to/lastmile_qr_scan"}, "bike_id": "d9f3f61f64389566802c84889372f2b5", "fusion_lat": 0.0}, {"lon": -77.008004, "name": "c3ccfccc4be855a7fe58036e9ea78842", "is_disabled": 0, "type": "electric_scooter", "is_reserved": 0, "fusion_lon": 0.0, "lat": 38.89714416666666, "rental_uris": {"ios": "https://dc.lft.to/lastmile_qr_scan", "android": "https://dc.lft.to/lastmile_qr_scan"}, "bike_id": "c3ccfccc4be855a7fe58036e9ea78842", "fusion_lat": 0.0}, {"lon": -77.01617516666667, "name": "f70cf7e9982c5dfd23ac9d0d874a1806", "is_disabled": 0, "type": "electric_scooter", "is_reserved": 0, "fusion_lon": 0.0, "lat": 38.8995705, "rental_uris": {"ios": "https://dc.lft.to/lastmile_qr_scan", "android": "https://dc.lft.to/lastmile_qr_scan"}, "bike_id": "f70cf7e9982c5dfd23ac9d0d874a1806", "fusion_lat": 0.0}, {"lon": -76.982775, "name": "05883c5aacabce5769164892aacd0f5f", "is_disabled": 0, "type": "electric_scooter", "is_reserved": 0, "fusion_lon": 0.0, "lat": 38.90341516666667, "rental_uris": {"ios": "https://dc.lft.to/lastmile_qr_scan", "android": "https://dc.lft.to/lastmile_qr_scan"}, "bike_id": "05883c5aacabce5769164892aacd0f5f", "fusion_lat": 0.0}, {"lon": -76.93060416666667, "name": "b313df437e61775a829311243600f0a0", "is_disabled": 0, "type": "electric_scooter", "is_reserved": 0, "fusion_lon": 0.0, "lat": 38.89557766666667, "rental_uris": {"ios": "https://dc.lft.to/lastmile_qr_scan", "android": "https://dc.lft.to/lastmile_qr_scan"}, "bike_id": "b313df437e61775a829311243600f0a0", "fusion_lat": 0.0}, {"lon": -77.00696266666667, "name": "8ab54caa7c2c62cf1fd8c28393142f06", "is_disabled": 0, "type": "electric_scooter", "is_reserved": 0, "fusion_lon": 0.0, "lat": 38.900135, "rental_uris": {"ios": "https://dc.lft.to/lastmile_qr_scan", "android": "https://dc.lft.to/lastmile_qr_scan"}, "bike_id": "8ab54caa7c2c62cf1fd8c28393142f06", "fusion_lat": 0.0}, {"lon": -77.01541283333333, "name": "3e0440e2d4f4eead63cc420df5bf0248", "is_disabled": 0, "type": "electric_scooter", "is_reserved": 0, "fusion_lon": 0.0, "lat": 38.90263366666667, "rental_uris": {"ios": "https://dc.lft.to/lastmile_qr_scan", "android": "https://dc.lft.to/lastmile_qr_scan"}, "bike_id": "3e0440e2d4f4eead63cc420df5bf0248", "fusion_lat": 0.0}, {"lon": -77.0035025, "name": "cb122b2fc24e24f9687fd8f5ce1b943a", "is_disabled": 0, "type": "electric_scooter", "is_reserved": 0, "fusion_lon": 0.0, "lat": 38.89738083333334, "rental_uris": {"ios": "https://dc.lft.to/lastmile_qr_scan", "android": "https://dc.lft.to/lastmile_qr_scan"}, "bike_id": "cb122b2fc24e24f9687fd8f5ce1b943a", "fusion_lat": 0.0}, {"lon": -77.050335, "name": "6bc80dbd61722533fa395153f5bef47c", "is_disabled": 0, "type": "electric_scooter", "is_reserved": 0, "fusion_lon": 0.0, "lat": 38.902088, "rental_uris": {"ios": "https://dc.lft.to/lastmile_qr_scan", "android": "https://dc.lft.to/lastmile_qr_scan"}, "bike_id": "6bc80dbd61722533fa395153f5bef47c", "fusion_lat": 0.0}, {"lon": -77.05684866666667, "name": "ce166bc6b97f84dffc876ba4450d57a9", "is_disabled": 0, "type": "electric_scooter", "is_reserved": 0, "fusion_lon": 0.0, "lat": 38.92330166666667, "rental_uris": {"ios": "https://dc.lft.to/lastmile_qr_scan", "android": "https://dc.lft.to/lastmile_qr_scan"}, "bike_id": "ce166bc6b97f84dffc876ba4450d57a9", "fusion_lat": 0.0}, {"lon": -76.983787, "name": "1db2321bfd8425a63be2627378ff3b94", "is_disabled": 0, "type": "electric_scooter", "is_reserved": 0, "fusion_lon": 0.0, "lat": 38.88726333333334, "rental_uris": {"ios": "https://dc.lft.to/lastmile_qr_scan", "android": "https://dc.lft.to/lastmile_qr_scan"}, "bike_id": "1db2321bfd8425a63be2627378ff3b94", "fusion_lat": 0.0}, {"lon": -77.02111983333333, "name": "f8720b61bdeac2c5e80141be813147c4", "is_disabled": 0, "type": "electric_scooter", "is_reserved": 0, "fusion_lon": 0.0, "lat": 38.921712166666666, "rental_uris": {"ios": "https://dc.lft.to/lastmile_qr_scan", "android": "https://dc.lft.to/lastmile_qr_scan"}, "bike_id": "f8720b61bdeac2c5e80141be813147c4", "fusion_lat": 0.0}, {"lon": -77.00962233333334, "name": "79e5c3dd3af42848420324fe8051f3ae", "is_disabled": 0, "type": "electric_scooter", "is_reserved": 0, "fusion_lon": 0.0, "lat": 38.90713933333333, "rental_uris": {"ios": "https://dc.lft.to/lastmile_qr_scan", "android": "https://dc.lft.to/lastmile_qr_scan"}, "bike_id": "79e5c3dd3af42848420324fe8051f3ae", "fusion_lat": 0.0}, {"lon": -76.99516266666667, "name": "a6102250c9540312f57910cfe9784ab2", "is_disabled": 0, "type": "electric_scooter", "is_reserved": 0, "fusion_lon": 0.0, "lat": 38.826120333333336, "rental_uris": {"ios": "https://dc.lft.to/lastmile_qr_scan", "android": "https://dc.lft.to/lastmile_qr_scan"}, "bike_id": "a6102250c9540312f57910cfe9784ab2", "fusion_lat": 0.0}, {"lon": -77.06658283333333, "name": "3f8e3a0c87197569282bae5bfb9c536d", "is_disabled": 0, "type": "electric_scooter", "is_reserved": 0, "fusion_lon": 0.0, "lat": 38.9067675, "rental_uris": {"ios": "https://dc.lft.to/lastmile_qr_scan", "android": "https://dc.lft.to/lastmile_qr_scan"}, "bike_id": "3f8e3a0c87197569282bae5bfb9c536d", "fusion_lat": 0.0}, {"lon": -77.01622333333333, "name": "bb16b359b61f68435939baa89cf0fc6c", "is_disabled": 0, "type": "electric_scooter", "is_reserved": 0, "fusion_lon": 0.0, "lat": 38.89957583333333, "rental_uris": {"ios": "https://dc.lft.to/lastmile_qr_scan", "android": "https://dc.lft.to/lastmile_qr_scan"}, "bike_id": "bb16b359b61f68435939baa89cf0fc6c", "fusion_lat": 0.0}, {"lon": -77.0574765, "name": "711c876f052fa1c81cfe5dd8fd27fb20", "is_disabled": 0, "type": "electric_scooter", "is_reserved": 0, "fusion_lon": 0.0, "lat": 38.928734166666665, "rental_uris": {"ios": "https://dc.lft.to/lastmile_qr_scan", "android": "https://dc.lft.to/lastmile_qr_scan"}, "bike_id": "711c876f052fa1c81cfe5dd8fd27fb20", "fusion_lat": 0.0}, {"lon": -77.0180985, "name": "7358d8c0f480baed5574909fb4c7f586", "is_disabled": 0, "type": "electric_scooter", "is_reserved": 0, "fusion_lon": 0.0, "lat": 38.92141983333333, "rental_uris": {"ios": "https://dc.lft.to/lastmile_qr_scan", "android": "https://dc.lft.to/lastmile_qr_scan"}, "bike_id": "7358d8c0f480baed5574909fb4c7f586", "fusion_lat": 0.0}, {"lon": -77.00752816666666, "name": "fa7a40d9d001f6af49f625714ce75415", "is_disabled": 0, "type": "electric_scooter", "is_reserved": 0, "fusion_lon": 0.0, "lat": 38.89731916666667, "rental_uris": {"ios": "https://dc.lft.to/lastmile_qr_scan", "android": "https://dc.lft.to/lastmile_qr_scan"}, "bike_id": "fa7a40d9d001f6af49f625714ce75415", "fusion_lat": 0.0}, {"lon": -77.01802983333333, "name": "cc96659e8cb4cd3f656a41aaafa8ebdf", "is_disabled": 0, "type": "electric_scooter", "is_reserved": 0, "fusion_lon": 0.0, "lat": 38.92127583333333, "rental_uris": {"ios": "https://dc.lft.to/lastmile_qr_scan", "android": "https://dc.lft.to/lastmile_qr_scan"}, "bike_id": "cc96659e8cb4cd3f656a41aaafa8ebdf", "fusion_lat": 0.0}, {"lon": -76.98685966666666, "name": "ee7cf42860167e3a9c8de76ca15290fe", "is_disabled": 0, "type": "electric_scooter", "is_reserved": 0, "fusion_lon": 0.0, "lat": 38.89958083333333, "rental_uris": {"ios": "https://dc.lft.to/lastmile_qr_scan", "android": "https://dc.lft.to/lastmile_qr_scan"}, "bike_id": "ee7cf42860167e3a9c8de76ca15290fe", "fusion_lat": 0.0}, {"lon": -76.96440766666667, "name": "e2a14ad2abdfc124013810ffcdb56d5f", "is_disabled": 0, "type": "electric_bike", "is_reserved": 0, "fusion_lon": 0.0, "lat": 38.918687, "rental_uris": {"ios": "https://dc.lft.to/lastmile_qr_scan", "android": "https://dc.lft.to/lastmile_qr_scan"}, "bike_id": "e2a14ad2abdfc124013810ffcdb56d5f", "fusion_lat": 0.0}, {"lon": -77.02160566666667, "name": "ab096f9b0360a7c97cce66aad2de9694", "is_disabled": 0, "type": "electric_scooter", "is_reserved": 0, "fusion_lon": 0.0, "lat": 38.926126333333336, "rental_uris": {"ios": "https://dc.lft.to/lastmile_qr_scan", "android": "https://dc.lft.to/lastmile_qr_scan"}, "bike_id": "ab096f9b0360a7c97cce66aad2de9694", "fusion_lat": 0.0}, {"lon": -77.06623283333333, "name": "557c06ea3bb49f084d72b0cdb643eccd", "is_disabled": 0, "type": "electric_scooter", "is_reserved": 0, "fusion_lon": 0.0, "lat": 38.93681133333333, "rental_uris": {"ios": "https://dc.lft.to/lastmile_qr_scan", "android": "https://dc.lft.to/lastmile_qr_scan"}, "bike_id": "557c06ea3bb49f084d72b0cdb643eccd", "fusion_lat": 0.0}, {"lon": -76.98761466666667, "name": "36bb1f5fafedfbc2870f261b4c985eea", "is_disabled": 0, "type": "electric_bike", "is_reserved": 0, "fusion_lon": 0.0, "lat": 38.84444283333333, "rental_uris": {"ios": "https://dc.lft.to/lastmile_qr_scan", "android": "https://dc.lft.to/lastmile_qr_scan"}, "bike_id": "36bb1f5fafedfbc2870f261b4c985eea", "fusion_lat": 0.0}, {"lon": -77.042025, "name": "d2a3fcfaca72d9db6b098dc1c2ebd7d6", "is_disabled": 0, "type": "electric_scooter", "is_reserved": 0, "fusion_lon": 0.0, "lat": 38.9262415, "rental_uris": {"ios": "https://dc.lft.to/lastmile_qr_scan", "android": "https://dc.lft.to/lastmile_qr_scan"}, "bike_id": "d2a3fcfaca72d9db6b098dc1c2ebd7d6", "fusion_lat": 0.0}, {"lon": -77.08912433333333, "name": "cbcd7b1e9ef3abf1385b132f793d2d04", "is_disabled": 0, "type": "electric_bike", "is_reserved": 0, "fusion_lon": 0.0, "lat": 38.96733733333333, "rental_uris": {"ios": "https://dc.lft.to/lastmile_qr_scan", "android": "https://dc.lft.to/lastmile_qr_scan"}, "bike_id": "cbcd7b1e9ef3abf1385b132f793d2d04", "fusion_lat": 0.0}, {"lon": -77.00040666666666, "name": "b4a996c00cc4709c223af990c417e283", "is_disabled": 0, "type": "electric_scooter", "is_reserved": 0, "fusion_lon": 0.0, "lat": 38.88763633333333, "rental_uris": {"ios": "https://dc.lft.to/lastmile_qr_scan", "android": "https://dc.lft.to/lastmile_qr_scan"}, "bike_id": "b4a996c00cc4709c223af990c417e283", "fusion_lat": 0.0}, {"lon": -77.03665666666667, "name": "79e7aa47c72280877953e6fd5d60e14a", "is_disabled": 0, "type": "electric_scooter", "is_reserved": 0, "fusion_lon": 0.0, "lat": 38.92240683333333, "rental_uris": {"ios": "https://dc.lft.to/lastmile_qr_scan", "android": "https://dc.lft.to/lastmile_qr_scan"}, "bike_id": "79e7aa47c72280877953e6fd5d60e14a", "fusion_lat": 0.0}, {"lon": -77.00765616666666, "name": "7cc649dd679ab543c2aaf6d666357163", "is_disabled": 0, "type": "electric_bike", "is_reserved": 0, "fusion_lon": 0.0, "lat": 38.87833916666666, "rental_uris": {"ios": "https://dc.lft.to/lastmile_qr_scan", "android": "https://dc.lft.to/lastmile_qr_scan"}, "bike_id": "7cc649dd679ab543c2aaf6d666357163", "fusion_lat": 0.0}, {"lon": -77.0298035, "name": "bb8dcddb5448405fd184092c892c2c03", "is_disabled": 0, "type": "electric_scooter", "is_reserved": 0, "fusion_lon": 0.0, "lat": 38.92153166666667, "rental_uris": {"ios": "https://dc.lft.to/lastmile_qr_scan", "android": "https://dc.lft.to/lastmile_qr_scan"}, "bike_id": "bb8dcddb5448405fd184092c892c2c03", "fusion_lat": 0.0}, {"lon": -77.00588683333334, "name": "d1dacdac7cc19a107e8c6c9a37b8c654", "is_disabled": 0, "type": "electric_bike", "is_reserved": 0, "fusion_lon": 0.0, "lat": 38.89779333333333, "rental_uris": {"ios": "https://dc.lft.to/lastmile_qr_scan", "android": "https://dc.lft.to/lastmile_qr_scan"}, "bike_id": "d1dacdac7cc19a107e8c6c9a37b8c654", "fusion_lat": 0.0}, {"lon": -77.02841916666667, "name": "e8dbaef375eb629166e5dc57a51521f4", "is_disabled": 0, "type": "electric_scooter", "is_reserved": 0, "fusion_lon": 0.0, "lat": 38.88656833333334, "rental_uris": {"ios": "https://dc.lft.to/lastmile_qr_scan", "android": "https://dc.lft.to/lastmile_qr_scan"}, "bike_id": "e8dbaef375eb629166e5dc57a51521f4", "fusion_lat": 0.0}, {"lon": -77.04096666666666, "name": "ae9d1b0345c51508d92a32dfeb3657d8", "is_disabled": 0, "type": "electric_scooter", "is_reserved": 0, "fusion_lon": 0.0, "lat": 38.89226416666666, "rental_uris": {"ios": "https://dc.lft.to/lastmile_qr_scan", "android": "https://dc.lft.to/lastmile_qr_scan"}, "bike_id": "ae9d1b0345c51508d92a32dfeb3657d8", "fusion_lat": 0.0}, {"lon": -77.0547625, "name": "9f8ac260329b511ade73aa604cd39da1", "is_disabled": 0, "type": "electric_scooter", "is_reserved": 0, "fusion_lon": 0.0, "lat": 38.90304016666666, "rental_uris": {"ios": "https://dc.lft.to/lastmile_qr_scan", "android": "https://dc.lft.to/lastmile_qr_scan"}, "bike_id": "9f8ac260329b511ade73aa604cd39da1", "fusion_lat": 0.0}, {"lon": -77.01954766666667, "name": "c2ad9b926d8fc5f19243798a5d22c511", "is_disabled": 0, "type": "electric_scooter", "is_reserved": 0, "fusion_lon": 0.0, "lat": 38.9225735, "rental_uris": {"ios": "https://dc.lft.to/lastmile_qr_scan", "android": "https://dc.lft.to/lastmile_qr_scan"}, "bike_id": "c2ad9b926d8fc5f19243798a5d22c511", "fusion_lat": 0.0}, {"lon": -76.99059533333333, "name": "8f41d54a1f25e70c84af0314b5c0d07d", "is_disabled": 0, "type": "electric_bike", "is_reserved": 0, "fusion_lon": 0.0, "lat": 38.9368945, "rental_uris": {"ios": "https://dc.lft.to/lastmile_qr_scan", "android": "https://dc.lft.to/lastmile_qr_scan"}, "bike_id": "8f41d54a1f25e70c84af0314b5c0d07d", "fusion_lat": 0.0}, {"lon": -76.98551483333334, "name": "52db5f22eb6c098bec2ba79c32cad72b", "is_disabled": 0, "type": "electric_scooter", "is_reserved": 0, "fusion_lon": 0.0, "lat": 38.8797415, "rental_uris": {"ios": "https://dc.lft.to/lastmile_qr_scan", "android": "https://dc.lft.to/lastmile_qr_scan"}, "bike_id": "52db5f22eb6c098bec2ba79c32cad72b", "fusion_lat": 0.0}, {"lon": -77.041228, "name": "d9822778813ffecc5785901016a04233", "is_disabled": 0, "type": "electric_scooter", "is_reserved": 0, "fusion_lon": 0.0, "lat": 38.921186166666665, "rental_uris": {"ios": "https://dc.lft.to/lastmile_qr_scan", "android": "https://dc.lft.to/lastmile_qr_scan"}, "bike_id": "d9822778813ffecc5785901016a04233", "fusion_lat": 0.0}, {"lon": -77.019144, "name": "785cccae91c65359cfd9b33a9a9565d0", "is_disabled": 0, "type": "electric_scooter", "is_reserved": 0, "fusion_lon": 0.0, "lat": 38.92937633333333, "rental_uris": {"ios": "https://dc.lft.to/lastmile_qr_scan", "android": "https://dc.lft.to/lastmile_qr_scan"}, "bike_id": "785cccae91c65359cfd9b33a9a9565d0", "fusion_lat": 0.0}, {"lon": -77.05426316666667, "name": "f7d45feb9ecc00514b1f20c57e73b3de", "is_disabled": 0, "type": "electric_scooter", "is_reserved": 0, "fusion_lon": 0.0, "lat": 38.923517833333335, "rental_uris": {"ios": "https://dc.lft.to/lastmile_qr_scan", "android": "https://dc.lft.to/lastmile_qr_scan"}, "bike_id": "f7d45feb9ecc00514b1f20c57e73b3de", "fusion_lat": 0.0}, {"lon": -77.01556666666667, "name": "ff25832f0898256c389899ed18c4ccca", "is_disabled": 0, "type": "electric_scooter", "is_reserved": 0, "fusion_lon": 0.0, "lat": 38.927944833333335, "rental_uris": {"ios": "https://dc.lft.to/lastmile_qr_scan", "android": "https://dc.lft.to/lastmile_qr_scan"}, "bike_id": "ff25832f0898256c389899ed18c4ccca", "fusion_lat": 0.0}, {"lon": -77.02496983333333, "name": "71983f9d9cee1827670d808da9f629bc", "is_disabled": 0, "type": "electric_scooter", "is_reserved": 0, "fusion_lon": 0.0, "lat": 38.88491416666667, "rental_uris": {"ios": "https://dc.lft.to/lastmile_qr_scan", "android": "https://dc.lft.to/lastmile_qr_scan"}, "bike_id": "71983f9d9cee1827670d808da9f629bc", "fusion_lat": 0.0}, {"lon": -77.03658683333333, "name": "cfaa89720aac16f52e9a337a40d6c17f", "is_disabled": 0, "type": "electric_scooter", "is_reserved": 0, "fusion_lon": 0.0, "lat": 38.9315485, "rental_uris": {"ios": "https://dc.lft.to/lastmile_qr_scan", "android": "https://dc.lft.to/lastmile_qr_scan"}, "bike_id": "cfaa89720aac16f52e9a337a40d6c17f", "fusion_lat": 0.0}, {"lon": -77.0269925, "name": "bc226c6a73f170754bc1ff9e107ad18a", "is_disabled": 0, "type": "electric_scooter", "is_reserved": 0, "fusion_lon": 0.0, "lat": 38.94939633333333, "rental_uris": {"ios": "https://dc.lft.to/lastmile_qr_scan", "android": "https://dc.lft.to/lastmile_qr_scan"}, "bike_id": "bc226c6a73f170754bc1ff9e107ad18a", "fusion_lat": 0.0}, {"lon": -77.0220675, "name": "68ca9669a12ed03b7feb2f66e80b52e0", "is_disabled": 0, "type": "electric_scooter", "is_reserved": 0, "fusion_lon": 0.0, "lat": 38.879005666666664, "rental_uris": {"ios": "https://dc.lft.to/lastmile_qr_scan", "android": "https://dc.lft.to/lastmile_qr_scan"}, "bike_id": "68ca9669a12ed03b7feb2f66e80b52e0", "fusion_lat": 0.0}, {"lon": -77.046198, "name": "8ea3115e415de237be5b2a724b1c936c", "is_disabled": 0, "type": "electric_scooter", "is_reserved": 0, "fusion_lon": 0.0, "lat": 38.916169833333335, "rental_uris": {"ios": "https://dc.lft.to/lastmile_qr_scan", "android": "https://dc.lft.to/lastmile_qr_scan"}, "bike_id": "8ea3115e415de237be5b2a724b1c936c", "fusion_lat": 0.0}, {"lon": -76.9980295, "name": "ee4b52660031f68a53b26d7b370693f6", "is_disabled": 0, "type": "electric_scooter", "is_reserved": 0, "fusion_lon": 0.0, "lat": 38.896035499999996, "rental_uris": {"ios": "https://dc.lft.to/lastmile_qr_scan", "android": "https://dc.lft.to/lastmile_qr_scan"}, "bike_id": "ee4b52660031f68a53b26d7b370693f6", "fusion_lat": 0.0}, {"lon": -77.04702216666666, "name": "89816aa89c9b86022d344a71b0c760bd", "is_disabled": 0, "type": "electric_scooter", "is_reserved": 0, "fusion_lon": 0.0, "lat": 38.91670533333333, "rental_uris": {"ios": "https://dc.lft.to/lastmile_qr_scan", "android": "https://dc.lft.to/lastmile_qr_scan"}, "bike_id": "89816aa89c9b86022d344a71b0c760bd", "fusion_lat": 0.0}, {"lon": -77.02231933333333, "name": "072a6f1989b6b7dda071163cd6df3f9a", "is_disabled": 0, "type": "electric_scooter", "is_reserved": 0, "fusion_lon": 0.0, "lat": 38.9235445, "rental_uris": {"ios": "https://dc.lft.to/lastmile_qr_scan", "android": "https://dc.lft.to/lastmile_qr_scan"}, "bike_id": "072a6f1989b6b7dda071163cd6df3f9a", "fusion_lat": 0.0}, {"lon": -77.046491, "name": "58140dd5673c27e121478aa86207b7c7", "is_disabled": 0, "type": "electric_scooter", "is_reserved": 0, "fusion_lon": 0.0, "lat": 38.904416833333336, "rental_uris": {"ios": "https://dc.lft.to/lastmile_qr_scan", "android": "https://dc.lft.to/lastmile_qr_scan"}, "bike_id": "58140dd5673c27e121478aa86207b7c7", "fusion_lat": 0.0}, {"lon": -77.0326675, "name": "c0ca798e3e46cfdbd58c5d1cafa4aebc", "is_disabled": 0, "type": "electric_scooter", "is_reserved": 0, "fusion_lon": 0.0, "lat": 38.93077, "rental_uris": {"ios": "https://dc.lft.to/lastmile_qr_scan", "android": "https://dc.lft.to/lastmile_qr_scan"}, "bike_id": "c0ca798e3e46cfdbd58c5d1cafa4aebc", "fusion_lat": 0.0}, {"lon": -76.972104, "name": "fc3885fdd59d1b145042c1c4df259372", "is_disabled": 0, "type": "electric_scooter", "is_reserved": 0, "fusion_lon": 0.0, "lat": 38.92549566666667, "rental_uris": {"ios": "https://dc.lft.to/lastmile_qr_scan", "android": "https://dc.lft.to/lastmile_qr_scan"}, "bike_id": "fc3885fdd59d1b145042c1c4df259372", "fusion_lat": 0.0}, {"lon": -77.04607833333333, "name": "0969ecb7c88652c77810a76de6e92d9f", "is_disabled": 0, "type": "electric_scooter", "is_reserved": 0, "fusion_lon": 0.0, "lat": 38.90221066666667, "rental_uris": {"ios": "https://dc.lft.to/lastmile_qr_scan", "android": "https://dc.lft.to/lastmile_qr_scan"}, "bike_id": "0969ecb7c88652c77810a76de6e92d9f", "fusion_lat": 0.0}, {"lon": -76.96788883333333, "name": "c7e8f75a1cdf8da4f8863c246158d0e6", "is_disabled": 0, "type": "electric_scooter", "is_reserved": 0, "fusion_lon": 0.0, "lat": 38.8733365, "rental_uris": {"ios": "https://dc.lft.to/lastmile_qr_scan", "android": "https://dc.lft.to/lastmile_qr_scan"}, "bike_id": "c7e8f75a1cdf8da4f8863c246158d0e6", "fusion_lat": 0.0}, {"lon": -77.01679283333333, "name": "7227f84d1b6ccf7cd77fc4caac620795", "is_disabled": 0, "type": "electric_scooter", "is_reserved": 0, "fusion_lon": 0.0, "lat": 38.920406666666665, "rental_uris": {"ios": "https://dc.lft.to/lastmile_qr_scan", "android": "https://dc.lft.to/lastmile_qr_scan"}, "bike_id": "7227f84d1b6ccf7cd77fc4caac620795", "fusion_lat": 0.0}, {"lon": -77.04136616666666, "name": "4933dd8262175d208d66d22f31a6fcf3", "is_disabled": 0, "type": "electric_scooter", "is_reserved": 0, "fusion_lon": 0.0, "lat": 38.93468083333333, "rental_uris": {"ios": "https://dc.lft.to/lastmile_qr_scan", "android": "https://dc.lft.to/lastmile_qr_scan"}, "bike_id": "4933dd8262175d208d66d22f31a6fcf3", "fusion_lat": 0.0}, {"lon": -77.01680533333334, "name": "a8300b04242b541314cb2db2c7529dd4", "is_disabled": 0, "type": "electric_scooter", "is_reserved": 0, "fusion_lon": 0.0, "lat": 38.920444, "rental_uris": {"ios": "https://dc.lft.to/lastmile_qr_scan", "android": "https://dc.lft.to/lastmile_qr_scan"}, "bike_id": "a8300b04242b541314cb2db2c7529dd4", "fusion_lat": 0.0}, {"lon": -77.04080833333333, "name": "78a90cb2ee4f14daf18683db4bbc4b56", "is_disabled": 0, "type": "electric_bike", "is_reserved": 0, "fusion_lon": 0.0, "lat": 38.8306345, "rental_uris": {"ios": "https://dc.lft.to/lastmile_qr_scan", "android": "https://dc.lft.to/lastmile_qr_scan"}, "bike_id": "78a90cb2ee4f14daf18683db4bbc4b56", "fusion_lat": 0.0}, {"lon": -77.02395516666667, "name": "642e5c0d460e6db3aac6bfa89d6a8e96", "is_disabled": 0, "type": "electric_scooter", "is_reserved": 0, "fusion_lon": 0.0, "lat": 38.89432566666667, "rental_uris": {"ios": "https://dc.lft.to/lastmile_qr_scan", "android": "https://dc.lft.to/lastmile_qr_scan"}, "bike_id": "642e5c0d460e6db3aac6bfa89d6a8e96", "fusion_lat": 0.0}, {"lon": -77.03863766666667, "name": "72c89a8b0a7edf4abf83dde41b77a9b3", "is_disabled": 0, "type": "electric_scooter", "is_reserved": 0, "fusion_lon": 0.0, "lat": 38.9170975, "rental_uris": {"ios": "https://dc.lft.to/lastmile_qr_scan", "android": "https://dc.lft.to/lastmile_qr_scan"}, "bike_id": "72c89a8b0a7edf4abf83dde41b77a9b3", "fusion_lat": 0.0}, {"lon": -76.9854505, "name": "dc78b642a1492e2dbf6c270579ec51bb", "is_disabled": 0, "type": "electric_scooter", "is_reserved": 0, "fusion_lon": 0.0, "lat": 38.88607116666667, "rental_uris": {"ios": "https://dc.lft.to/lastmile_qr_scan", "android": "https://dc.lft.to/lastmile_qr_scan"}, "bike_id": "dc78b642a1492e2dbf6c270579ec51bb", "fusion_lat": 0.0}, {"lon": -77.02223666666667, "name": "108586bd8651d28338b5bb9a8a805b6d", "is_disabled": 0, "type": "electric_scooter", "is_reserved": 0, "fusion_lon": 0.0, "lat": 38.8998115, "rental_uris": {"ios": "https://dc.lft.to/lastmile_qr_scan", "android": "https://dc.lft.to/lastmile_qr_scan"}, "bike_id": "108586bd8651d28338b5bb9a8a805b6d", "fusion_lat": 0.0}, {"lon": -76.97707166666666, "name": "8a71c1140400dfa3c32d6726b4ccbe0c", "is_disabled": 0, "type": "electric_scooter", "is_reserved": 0, "fusion_lon": 0.0, "lat": 38.886138333333335, "rental_uris": {"ios": "https://dc.lft.to/lastmile_qr_scan", "android": "https://dc.lft.to/lastmile_qr_scan"}, "bike_id": "8a71c1140400dfa3c32d6726b4ccbe0c", "fusion_lat": 0.0}, {"lon": -77.023056, "name": "9b88b668ff0cd3ad4db1caebf7504cf5", "is_disabled": 0, "type": "electric_bike", "is_reserved": 0, "fusion_lon": 0.0, "lat": 38.966736833333336, "rental_uris": {"ios": "https://dc.lft.to/lastmile_qr_scan", "android": "https://dc.lft.to/lastmile_qr_scan"}, "bike_id": "9b88b668ff0cd3ad4db1caebf7504cf5", "fusion_lat": 0.0}, {"lon": -77.03192666666666, "name": "c032e386b22425a9b6b340e9ac79c299", "is_disabled": 0, "type": "electric_scooter", "is_reserved": 0, "fusion_lon": 0.0, "lat": 38.916312833333336, "rental_uris": {"ios": "https://dc.lft.to/lastmile_qr_scan", "android": "https://dc.lft.to/lastmile_qr_scan"}, "bike_id": "c032e386b22425a9b6b340e9ac79c299", "fusion_lat": 0.0},