{"data": {"bikes": [{"bike_id": "b0fc8105a7d5c18b5c0a40ede7bfcaae", "type": "electric_scooter", "is_disabled": 0, "lat": 38.920269166666664, "rental_uris": {"ios": "https://dc.lft.to/lastmile_qr_scan", "android": "https://dc.lft.to/lastmile_qr_scan"}, "is_reserved": 0, "fusion_lon": 0.0, "fusion_lat": 0.0, "lon": -77.0232035, "name": "b0fc8105a7d5c18b5c0a40ede7bfcaae"}, {"bike_id": "f545056a67f8f72f9d3881b8e6824212", "type": "electric_scooter", "is_disabled": 0, "lat": 38.92319916666667, "rental_uris": {"ios": "https://dc.lft.to/lastmile_qr_scan", "android": "https://dc.lft.to/lastmile_qr_scan"}, "is_reserved": 0, "fusion_lon": 0.0, "fusion_lat": 0.0, "lon": -77.02140366666667, "name": "f545056a67f8f72f9d3881b8e6824212"}, {"bike_id": "533bf16c34df5589dbe5b02a47e6974e", "type": "electric_scooter", "is_disabled": 0, "lat": 38.916129833333336, "rental_uris": {"ios": "https://dc.lft.to/lastmile_qr_scan", "android": "https://dc.lft.to/lastmile_qr_scan"}, "is_reserved": 0, "fusion_lon": 0.0, "fusion_lat": 0.0, "lon": -77.03645016666667, "name": "533bf16c34df5589dbe5b02a47e6974e"}, {"bike_id": "fd31f20c3162941cc0313713660e0923", "type": "electric_scooter", "is_disabled": 0, "lat": 38.928458666666664, "rental_uris": {"ios": "https://dc.lft.to/lastmile_qr_scan", "android": "https://dc.lft.to/lastmile_qr_scan"}, "is_reserved": 0, "fusion_lon": 0.0, "fusion_lat": 0.0, "lon": -77.02011116666667, "name": "fd31f20c3162941cc0313713660e0923"}, {"bike_id": "559ea5e669eb8a8097e04237ec2eee8f", "type": "electric_scooter", "is_disabled": 0, "lat": 38.9192635, "rental_uris": {"ios": "https://dc.lft.to/lastmile_qr_scan", "android": "https://dc.lft.to/lastmile_qr_scan"}, "is_reserved": 0, "fusion_lon": 0.0, "fusion_lat": 0.0, "lon": -77.03422133333333, "name": "559ea5e669eb8a8097e04237ec2eee8f"}, {"bike_id": "b26e80675f83686ab6ec840f6ab69ca5", "type": "electric_scooter", "is_disabled": 0, "lat": 38.90725116666667, "rental_uris": {"ios": "https://dc.lft.to/lastmile_qr_scan", "android": "https://dc.lft.to/lastmile_qr_scan"}, "is_reserved": 0, "fusion_lon": 0.0, "fusion_lat": 0.0, "lon": -77.02887133333333, "name": "b26e80675f83686ab6ec840f6ab69ca5"}, {"bike_id": "9b5ef8ffbfb81920e1e61210bec30475", "type": "electric_scooter", "is_disabled": 0, "lat": 38.9269285, "rental_uris": {"ios": "https://dc.lft.to/lastmile_qr_scan", "android": "https://dc.lft.to/lastmile_qr_scan"}, "is_reserved": 0, "fusion_lon": 0.0, "fusion_lat": 0.0, "lon": -77.029852, "name": "9b5ef8ffbfb81920e1e61210bec30475"}, {"bike_id": "a326192333b993c40c10cec6c5a7a905", "type": "electric_scooter", "is_disabled": 0, "lat": 38.89862866666667, "rental_uris": {"ios": "https://dc.lft.to/lastmile_qr_scan", "android": "https://dc.lft.to/lastmile_qr_scan"}, "is_reserved": 0, "fusion_lon": 0.0, "fusion_lat": 0.0, "lon": -77.04081383333333, "name": "a326192333b993c40c10cec6c5a7a905"}, {"bike_id": "d9045dc1144bed929076a5522eb982d8", "type": "electric_scooter", "is_disabled": 0, "lat": 38.92614716666667, "rental_uris": {"ios": "https://dc.lft.to/lastmile_qr_scan", "android": "https://dc.lft.to/lastmile_qr_scan"}, "is_reserved": 0, "fusion_lon": 0.0, "fusion_lat": 0.0, "lon": -77.041914, "name": "d9045dc1144bed929076a5522eb982d8"}, {"bike_id": "af1ab821d6fce3a38f69c0148419209c", "type": "electric_bike", "is_disabled": 0, "lat": 38.845212333333336, "rental_uris": {"ios": "https://dc.lft.to/lastmile_qr_scan", "android": "https://dc.lft.to/lastmile_qr_scan"}, "is_reserved": 0, "fusion_lon": 0.0, "fusion_lat": 0.0, "lon": -76.97396, "name": "af1ab821d6fce3a38f69c0148419209c"}, {"bike_id": "94f5e4082a07c68f08e01e1e817d6935", "type": "electric_scooter", "is_disabled": 0, "lat": 38.947186, "rental_uris": {"ios": "https://dc.lft.to/lastmile_qr_scan", "android": "https://dc.lft.to/lastmile_qr_scan"}, "is_reserved": 0, "fusion_lon": 0.0, "fusion_lat": 0.0, "lon": -77.03330433333333, "name": "94f5e4082a07c68f08e01e1e817d6935"}, {"bike_id": "772d13955e5a8f5e22e7b1caa01a9f8d", "type": "electric_scooter", "is_disabled": 0, "lat": 38.90790966666667, "rental_uris": {"ios": "https://dc.lft.to/lastmile_qr_scan", "android": "https://dc.lft.to/lastmile_qr_scan"}, "is_reserved": 0, "fusion_lon": 0.0, "fusion_lat": 0.0, "lon": -77.04799683333333, "name": "772d13955e5a8f5e22e7b1caa01a9f8d"}, {"bike_id": "d2592236a9969d4f3d5d240f0218ca4e", "type": "electric_scooter", "is_disabled": 0, "lat": 38.89730183333333, "rental_uris": {"ios": "https://dc.lft.to/lastmile_qr_scan", "android": "https://dc.lft.to/lastmile_qr_scan"}, "is_reserved": 0, "fusion_lon": 0.0, "fusion_lat": 0.0, "lon": -77.04609766666667, "name": "d2592236a9969d4f3d5d240f0218ca4e"}, {"bike_id": "4482c2b826e156c12712de4b6fb1337e", "type": "electric_bike", "is_disabled": 0, "lat": 38.93773516666667, "rental_uris": {"ios": "https://dc.lft.to/lastmile_qr_scan", "android": "https://dc.lft.to/lastmile_qr_scan"}, "is_reserved": 0, "fusion_lon": 0.0, "fusion_lat": 0.0, "lon": -77.01880916666667, "name": "4482c2b826e156c12712de4b6fb1337e"}, {"bike_id": "a01f8e17d228047a7e91aee65745d489", "type": "electric_scooter", "is_disabled": 0, "lat": 38.93454416666667, "rental_uris": {"ios": "https://dc.lft.to/lastmile_qr_scan", "android": "https://dc.lft.to/lastmile_qr_scan"}, "is_reserved": 0, "fusion_lon": 0.0, "fusion_lat": 0.0, "lon": -77.02769766666667, "name": "a01f8e17d228047a7e91aee65745d489"}, {"bike_id": "0bdd2b0860cd2551e589367fb9579295", "type": "electric_scooter", "is_disabled": 0, "lat": 38.830941833333334, "rental_uris": {"ios": "https://dc.lft.to/lastmile_qr_scan", "android": "https://dc.lft.to/lastmile_qr_scan"}, "is_reserved": 0, "fusion_lon": 0.0, "fusion_lat": 0.0, "lon": -77.05156583333333, "name": "0bdd2b0860cd2551e589367fb9579295"}, {"bike_id": "82edababbaafccf46a1f0ca6cfd99196", "type": "electric_scooter", "is_disabled": 0, "lat": 38.9441975, "rental_uris": {"ios": "https://dc.lft.to/lastmile_qr_scan", "android": "https://dc.lft.to/lastmile_qr_scan"}, "is_reserved": 0, "fusion_lon": 0.0, "fusion_lat": 0.0, "lon": -77.01779666666667, "name": "82edababbaafccf46a1f0ca6cfd99196"}, {"bike_id": "35ea5413e64b631542a0c24ce85e636a", "type": "electric_scooter", "is_disabled": 0, "lat": 38.866888, "rental_uris": {"ios": "https://dc.lft.to/lastmile_qr_scan", "android": "https://dc.lft.to/lastmile_qr_scan"}, "is_reserved": 0, "fusion_lon": 0.0, "fusion_lat": 0.0, "lon": -76.98577683333333, "name": "35ea5413e64b631542a0c24ce85e636a"}, {"bike_id": "a7538099622ae3f747860c0f53ebfac4", "type": "electric_bike", "is_disabled": 0, "lat": 38.98366633333333, "rental_uris": {"ios": "https://dc.lft.to/lastmile_qr_scan", "android": "https://dc.lft.to/lastmile_qr_scan"}, "is_reserved": 0, "fusion_lon": 0.0, "fusion_lat": 0.0, "lon": -76.97211166666666, "name": "a7538099622ae3f747860c0f53ebfac4"}, {"bike_id": "55245b1da754fb213425fd7357fb7363", "type": "electric_scooter", "is_disabled": 0, "lat": 38.9273035, "rental_uris": {"ios": "https://dc.lft.to/lastmile_qr_scan", "android": "https://dc.lft.to/lastmile_qr_scan"}, "is_reserved": 0, "fusion_lon": 0.0, "fusion_lat": 0.0, "lon": -77.0253195, "name": "55245b1da754fb213425fd7357fb7363"}, {"bike_id": "3b8f0ce64fe8942f8f995ebbb613be62", "type": "electric_scooter", "is_disabled": 0, "lat": 38.8665005, "rental_uris": {"ios": "https://dc.lft.to/lastmile_qr_scan", "android": "https://dc.lft.to/lastmile_qr_scan"}, "is_reserved": 0, "fusion_lon": 0.0, "fusion_lat": 0.0, "lon": -76.988192, "name": "3b8f0ce64fe8942f8f995ebbb613be62"}, {"bike_id": "11ba40c57d2c06d9e1203e6f53cc05ec", "type": "electric_scooter", "is_disabled": 0, "lat": 38.909836, "rental_uris": {"ios": "https://dc.lft.to/lastmile_qr_scan", "android": "https://dc.lft.to/lastmile_qr_scan"}, "is_reserved": 0, "fusion_lon": 0.0, "fusion_lat": 0.0, "lon": -77.0151145, "name": "11ba40c57d2c06d9e1203e6f53cc05ec"}, {"bike_id": "3e24440a064650ebdb3d226ebba2ee2e", "type": "electric_scooter", "is_disabled": 0, "lat": 38.924873166666664, "rental_uris": {"ios": "https://dc.lft.to/lastmile_qr_scan", "android": "https://dc.lft.to/lastmile_qr_scan"}, "is_reserved": 0, "fusion_lon": 0.0, "fusion_lat": 0.0, "lon": -77.05216066666667, "name": "3e24440a064650ebdb3d226ebba2ee2e"}, {"bike_id": "0f82a17d97c9cf43a03aceec8dfaffbc", "type": "electric_scooter", "is_disabled": 0, "lat": 38.9650295, "rental_uris": {"ios": "https://dc.lft.to/lastmile_qr_scan", "android": "https://dc.lft.to/lastmile_qr_scan"}, "is_reserved": 0, "fusion_lon": 0.0, "fusion_lat": 0.0, "lon": -77.002059, "name": "0f82a17d97c9cf43a03aceec8dfaffbc"}, {"bike_id": "e1be38c12ce0bdfab2ec71ff61c22618", "type": "electric_scooter", "is_disabled": 0, "lat": 38.90951466666667, "rental_uris": {"ios": "https://dc.lft.to/lastmile_qr_scan", "android": "https://dc.lft.to/lastmile_qr_scan"}, "is_reserved": 0, "fusion_lon": 0.0, "fusion_lat": 0.0, "lon": -77.05563266666667, "name": "e1be38c12ce0bdfab2ec71ff61c22618"}, {"bike_id": "0fa3cdb6b20d47ba7d750d26989463f2", "type": "electric_scooter", "is_disabled": 0, "lat": 38.911009666666665, "rental_uris": {"ios": "https://dc.lft.to/lastmile_qr_scan", "android": "https://dc.lft.to/lastmile_qr_scan"}, "is_reserved": 0, "fusion_lon": 0.0, "fusion_lat": 0.0, "lon": -77.01145166666667, "name": "0fa3cdb6b20d47ba7d750d26989463f2"}, {"bike_id": "7932ce1d0875d62a91c85b35361c488a", "type": "electric_scooter", "is_disabled": 0, "lat": 38.844361, "rental_uris": {"ios": "https://dc.lft.to/lastmile_qr_scan", "android": "https://dc.lft.to/lastmile_qr_scan"}, "is_reserved": 0, "fusion_lon": 0.0, "fusion_lat": 0.0, "lon": -76.99868583333334, "name": "7932ce1d0875d62a91c85b35361c488a"}, {"bike_id": "c6e084dd630729a60a930cfc4c47725a", "type": "electric_scooter", "is_disabled": 0, "lat": 38.90710416666667, "rental_uris": {"ios": "https://dc.lft.to/lastmile_qr_scan", "android": "https://dc.lft.to/lastmile_qr_scan"}, "is_reserved": 0, "fusion_lon": 0.0, "fusion_lat": 0.0, "lon": -77.041605, "name": "c6e084dd630729a60a930cfc4c47725a"}, {"bike_id": "55a2eaf3ca9b6021d04006cc1adc8080", "type": "electric_scooter", "is_disabled": 0, "lat": 38.934021666666666, "rental_uris": {"ios": "https://dc.lft.to/lastmile_qr_scan", "android": "https://dc.lft.to/lastmile_qr_scan"}, "is_reserved": 0, "fusion_lon": 0.0, "fusion_lat": 0.0, "lon": -77.03523266666667, "name": "55a2eaf3ca9b6021d04006cc1adc8080"}, {"bike_id": "c18146fd4dc08f4d7badb14432d3ae1f", "type": "electric_scooter", "is_disabled": 0, "lat": 38.908328166666664, "rental_uris": {"ios": "https://dc.lft.to/lastmile_qr_scan", "android": "https://dc.lft.to/lastmile_qr_scan"}, "is_reserved": 0, "fusion_lon": 0.0, "fusion_lat": 0.0, "lon": -77.01973883333334, "name": "c18146fd4dc08f4d7badb14432d3ae1f"}, {"bike_id": "4f67c00baf4733835547527b1fb83fe1", "type": "electric_scooter", "is_disabled": 0, "lat": 38.917257166666666, "rental_uris": {"ios": "https://dc.lft.to/lastmile_qr_scan", "android": "https://dc.lft.to/lastmile_qr_scan"}, "is_reserved": 0, "fusion_lon": 0.0, "fusion_lat": 0.0, "lon": -77.03663116666667, "name": "4f67c00baf4733835547527b1fb83fe1"}, {"bike_id": "8247cb4c340e793f7dbb57d86089d87f", "type": "electric_scooter", "is_disabled": 0, "lat": 38.9385045, "rental_uris": {"ios": "https://dc.lft.to/lastmile_qr_scan", "android": "https://dc.lft.to/lastmile_qr_scan"}, "is_reserved": 0, "fusion_lon": 0.0, "fusion_lat": 0.0, "lon": -77.07232116666667, "name": "8247cb4c340e793f7dbb57d86089d87f"}, {"bike_id": "9e2cbb15856ccc6fb960e324b0439175", "type": "electric_scooter", "is_disabled": 0, "lat": 38.90347666666667, "rental_uris": {"ios": "https://dc.lft.to/lastmile_qr_scan", "android": "https://dc.lft.to/lastmile_qr_scan"}, "is_reserved": 0, "fusion_lon": 0.0, "fusion_lat": 0.0, "lon": -77.036702, "name": "9e2cbb15856ccc6fb960e324b0439175"}, {"bike_id": "f7651d0c50255075b451d47802853c90", "type": "electric_scooter", "is_disabled": 0, "lat": 38.876508, "rental_uris": {"ios": "https://dc.lft.to/lastmile_qr_scan", "android": "https://dc.lft.to/lastmile_qr_scan"}, "is_reserved": 0, "fusion_lon": 0.0, "fusion_lat": 0.0, "lon": -76.96505233333333, "name": "f7651d0c50255075b451d47802853c90"}, {"bike_id": "12f8c3cdea8c8ab35fd17d557cef2e3b", "type": "electric_bike", "is_disabled": 0, "lat": 38.995329166666664, "rental_uris": {"ios": "https://dc.lft.to/lastmile_qr_scan", "android": "https://dc.lft.to/lastmile_qr_scan"}, "is_reserved": 0, "fusion_lon": 0.0, "fusion_lat": 0.0, "lon": -77.0694925, "name": "12f8c3cdea8c8ab35fd17d557cef2e3b"}, {"bike_id": "f4186345a6c00f2469cc72bdea904659", "type": "electric_scooter", "is_disabled": 0, "lat": 38.965674, "rental_uris": {"ios": "https://dc.lft.to/lastmile_qr_scan", "android": "https://dc.lft.to/lastmile_qr_scan"}, "is_reserved": 0, "fusion_lon": 0.0, "fusion_lat": 0.0, "lon": -77.027723, "name": "f4186345a6c00f2469cc72bdea904659"}, {"bike_id": "fa82902190014cae26c7e1442f2a98b4", "type": "electric_scooter", "is_disabled": 0, "lat": 38.89747333333333, "rental_uris": {"ios": "https://dc.lft.to/lastmile_qr_scan", "android": "https://dc.lft.to/lastmile_qr_scan"}, "is_reserved": 0, "fusion_lon": 0.0, "fusion_lat": 0.0, "lon": -77.029435, "name": "fa82902190014cae26c7e1442f2a98b4"}, {"bike_id": "bf50d9a7f4102b43360461a3236391c3", "type": "electric_scooter", "is_disabled": 0, "lat": 38.89974566666667, "rental_uris": {"ios": "https://dc.lft.to/lastmile_qr_scan", "android": "https://dc.lft.to/lastmile_qr_scan"}, "is_reserved": 0, "fusion_lon": 0.0, "fusion_lat": 0.0, "lon": -77.011457, "name": "bf50d9a7f4102b43360461a3236391c3"}, {"bike_id": "9d5946ab25769dbfd66ab03c76aa2ad1", "type": "electric_scooter", "is_disabled": 0, "lat": 38.973699833333335, "rental_uris": {"ios": "https://dc.lft.to/lastmile_qr_scan", "android": "https://dc.lft.to/lastmile_qr_scan"}, "is_reserved": 0, "fusion_lon": 0.0, "fusion_lat": 0.0, "lon": -77.01868116666667, "name": "9d5946ab25769dbfd66ab03c76aa2ad1"}, {"bike_id": "4966aa37224d641937692ede86cb729e", "type": "electric_scooter", "is_disabled": 0, "lat": 38.862546333333334, "rental_uris": {"ios": "https://dc.lft.to/lastmile_qr_scan", "android": "https://dc.lft.to/lastmile_qr_scan"}, "is_reserved": 0, "fusion_lon": 0.0, "fusion_lat": 0.0, "lon": -76.99502233333334, "name": "4966aa37224d641937692ede86cb729e"}, {"bike_id": "22daf5edcf9705d3420b73ae1f90d05e", "type": "electric_scooter", "is_disabled": 0, "lat": 38.9372385, "rental_uris": {"ios": "https://dc.lft.to/lastmile_qr_scan", "android": "https://dc.lft.to/lastmile_qr_scan"}, "is_reserved": 0, "fusion_lon": 0.0, "fusion_lat": 0.0, "lon": -77.02527583333334, "name": "22daf5edcf9705d3420b73ae1f90d05e"}, {"bike_id": "8ebb9acb3fb4a0305cec2445fe8ef3fd", "type": "electric_scooter", "is_disabled": 0, "lat": 38.939667166666666, "rental_uris": {"ios": "https://dc.lft.to/lastmile_qr_scan", "android": "https://dc.lft.to/lastmile_qr_scan"}, "is_reserved": 0, "fusion_lon": 0.0, "fusion_lat": 0.0, "lon": -77.03759383333333, "name": "8ebb9acb3fb4a0305cec2445fe8ef3fd"}, {"bike_id": "2cd67edf6e1a60df2857cbc09deaf4c0", "type": "electric_scooter", "is_disabled": 0, "lat": 38.92590083333333, "rental_uris": {"ios": "https://dc.lft.to/lastmile_qr_scan", "android": "https://dc.lft.to/lastmile_qr_scan"}, "is_reserved": 0, "fusion_lon": 0.0, "fusion_lat": 0.0, "lon": -77.03733033333333, "name": "2cd67edf6e1a60df2857cbc09deaf4c0"}, {"bike_id": "13e9c93b4c0b6cebf9c16b8c0fcb6608", "type": "electric_scooter", "is_disabled": 0, "lat": 38.90814233333333, "rental_uris": {"ios": "https://dc.lft.to/lastmile_qr_scan", "android": "https://dc.lft.to/lastmile_qr_scan"}, "is_reserved": 0, "fusion_lon": 0.0, "fusion_lat": 0.0, "lon": -77.04350316666667, "name": "13e9c93b4c0b6cebf9c16b8c0fcb6608"}, {"bike_id": "b58e804cfd5d61922a94c8007a17d14e", "type": "electric_scooter", "is_disabled": 0, "lat": 38.904101833333335, "rental_uris": {"ios": "https://dc.lft.to/lastmile_qr_scan", "android": "https://dc.lft.to/lastmile_qr_scan"}, "is_reserved": 0, "fusion_lon": 0.0, "fusion_lat": 0.0, "lon": -76.973326, "name": "b58e804cfd5d61922a94c8007a17d14e"}, {"bike_id": "70df5e44f2302ce9edc2ccd4d12dd3d4", "type": "electric_scooter", "is_disabled": 0, "lat": 38.901442333333335, "rental_uris": {"ios": "https://dc.lft.to/lastmile_qr_scan", "android": "https://dc.lft.to/lastmile_qr_scan"}, "is_reserved": 0, "fusion_lon": 0.0, "fusion_lat": 0.0, "lon": -76.9308935, "name": "70df5e44f2302ce9edc2ccd4d12dd3d4"}, {"bike_id": "97ee19b0c7e63172c7d847f63d516baf", "type": "electric_scooter", "is_disabled": 0, "lat": 38.906236166666666, "rental_uris": {"ios": "https://dc.lft.to/lastmile_qr_scan", "android": "https://dc.lft.to/lastmile_qr_scan"}, "is_reserved": 0, "fusion_lon": 0.0, "fusion_lat": 0.0, "lon": -77.04132533333333, "name": "97ee19b0c7e63172c7d847f63d516baf"}, {"bike_id": "71f0de19d2b77b6f7b2e13974221e790", "type": "electric_scooter", "is_disabled": 0, "lat": 38.89916566666667, "rental_uris": {"ios": "https://dc.lft.to/lastmile_qr_scan", "android": "https://dc.lft.to/lastmile_qr_scan"}, "is_reserved": 0, "fusion_lon": 0.0, "fusion_lat": 0.0, "lon": -76.933649, "name": "71f0de19d2b77b6f7b2e13974221e790"}, {"bike_id": "e930ba8c6c6661fa9e3b20b15bbfea77", "type": "electric_scooter", "is_disabled": 0, "lat": 38.9303655, "rental_uris": {"ios": "https://dc.lft.to/lastmile_qr_scan", "android": "https://dc.lft.to/lastmile_qr_scan"}, "is_reserved": 0, "fusion_lon": 0.0, "fusion_lat": 0.0, "lon": -77.033065, "name": "e930ba8c6c6661fa9e3b20b15bbfea77"}, {"bike_id": "24a6a4ac8d29427ba90c922c125d6883", "type": "electric_scooter", "is_disabled": 0, "lat": 38.934642833333335, "rental_uris": {"ios": "https://dc.lft.to/lastmile_qr_scan", "android": "https://dc.lft.to/lastmile_qr_scan"}, "is_reserved": 0, "fusion_lon": 0.0, "fusion_lat": 0.0, "lon": -77.022455, "name": "24a6a4ac8d29427ba90c922c125d6883"}, {"bike_id": "1786abea9d6bf5fb4683e4f2febd9c12", "type": "electric_scooter", "is_disabled": 0, "lat": 38.876510333333336, "rental_uris": {"ios": "https://dc.lft.to/lastmile_qr_scan", "android": "https://dc.lft.to/lastmile_qr_scan"}, "is_reserved": 0, "fusion_lon": 0.0, "fusion_lat": 0.0, "lon": -76.96506583333333, "name": "1786abea9d6bf5fb4683e4f2febd9c12"}, {"bike_id": "7a0b6f3e67cea2a39c7a6bfd2af16643", "type": "electric_scooter", "is_disabled": 0, "lat": 38.9212945, "rental_uris": {"ios": "https://dc.lft.to/lastmile_qr_scan", "android": "https://dc.lft.to/lastmile_qr_scan"}, "is_reserved": 0, "fusion_lon": 0.0, "fusion_lat": 0.0, "lon": -77.04120266666666, "name": "7a0b6f3e67cea2a39c7a6bfd2af16643"}, {"bike_id": "b19077ddce8343e1284232d4d2e69955", "type": "electric_scooter", "is_disabled": 0, "lat": 38.93576066666667, "rental_uris": {"ios": "https://dc.lft.to/lastmile_qr_scan", "android": "https://dc.lft.to/lastmile_qr_scan"}, "is_reserved": 0, "fusion_lon": 0.0, "fusion_lat": 0.0, "lon": -77.03264283333333, "name": "b19077ddce8343e1284232d4d2e69955"}, {"bike_id": "5b26b62779a8667beb8202340282d133", "type": "electric_bike", "is_disabled": 0, "lat": 38.9086935, "rental_uris": {"ios": "https://dc.lft.to/lastmile_qr_scan", "android": "https://dc.lft.to/lastmile_qr_scan"}, "is_reserved": 0, "fusion_lon": 0.0, "fusion_lat": 0.0, "lon": -76.99126, "name": "5b26b62779a8667beb8202340282d133"}, {"bike_id": "bc4c78b798e8009ec4e743a039925dab", "type": "electric_scooter", "is_disabled": 0, "lat": 38.9138385, "rental_uris": {"ios": "https://dc.lft.to/lastmile_qr_scan", "android": "https://dc.lft.to/lastmile_qr_scan"}, "is_reserved": 0, "fusion_lon": 0.0, "fusion_lat": 0.0, "lon": -77.017036, "name": "bc4c78b798e8009ec4e743a039925dab"}, {"bike_id": "ecc0a182a9efd3fe923acfe81262d797", "type": "electric_scooter", "is_disabled": 0, "lat": 38.93478483333333, "rental_uris": {"ios": "https://dc.lft.to/lastmile_qr_scan", "android": "https://dc.lft.to/lastmile_qr_scan"}, "is_reserved": 0, "fusion_lon": 0.0, "fusion_lat": 0.0, "lon": -77.07281966666666, "name": "ecc0a182a9efd3fe923acfe81262d797"}, {"bike_id": "d97440bdf1a6e2da27e763d2e170b5a1", "type": "electric_scooter", "is_disabled": 0, "lat": 38.922595333333334, "rental_uris": {"ios": "https://dc.lft.to/lastmile_qr_scan", "android": "https://dc.lft.to/lastmile_qr_scan"}, "is_reserved": 0, "fusion_lon": 0.0, "fusion_lat": 0.0, "lon": -77.019562, "name": "d97440bdf1a6e2da27e763d2e170b5a1"}, {"bike_id": "568e749d306d66e809c8e97947b2d825", "type": "electric_scooter", "is_disabled": 0, "lat": 38.87944, "rental_uris": {"ios": "https://dc.lft.to/lastmile_qr_scan", "android": "https://dc.lft.to/lastmile_qr_scan"}, "is_reserved": 0, "fusion_lon": 0.0, "fusion_lat": 0.0, "lon": -77.01643366666667, "name": "568e749d306d66e809c8e97947b2d825"}, {"bike_id": "f633626ffd74b8d6f27899d285b623f1", "type": "electric_scooter", "is_disabled": 0, "lat": 38.92514583333333, "rental_uris": {"ios": "https://dc.lft.to/lastmile_qr_scan", "android": "https://dc.lft.to/lastmile_qr_scan"}, "is_reserved": 0, "fusion_lon": 0.0, "fusion_lat": 0.0, "lon": -77.03811166666667, "name": "f633626ffd74b8d6f27899d285b623f1"}, {"bike_id": "7322add65ef12417678acee18ee177c3", "type": "electric_scooter", "is_disabled": 0, "lat": 38.9224005, "rental_uris": {"ios": "https://dc.lft.to/lastmile_qr_scan", "android": "https://dc.lft.to/lastmile_qr_scan"}, "is_reserved": 0, "fusion_lon": 0.0, "fusion_lat": 0.0, "lon": -77.073132, "name": "7322add65ef12417678acee18ee177c3"}, {"bike_id": "b3ae5314682d97bd02eb3d105d6c18b1", "type": "electric_scooter", "is_disabled": 0, "lat": 38.878228, "rental_uris": {"ios": "https://dc.lft.to/lastmile_qr_scan", "android": "https://dc.lft.to/lastmile_qr_scan"}, "is_reserved": 0, "fusion_lon": 0.0, "fusion_lat": 0.0, "lon": -77.02237733333334, "name": "b3ae5314682d97bd02eb3d105d6c18b1"}, {"bike_id": "bc7ced17c66d709bf18cb8e96e11b86e", "type": "electric_scooter", "is_disabled": 0, "lat": 38.9090195, "rental_uris": {"ios": "https://dc.lft.to/lastmile_qr_scan", "android": "https://dc.lft.to/lastmile_qr_scan"}, "is_reserved": 0, "fusion_lon": 0.0, "fusion_lat": 0.0, "lon": -77.02126883333334, "name": "bc7ced17c66d709bf18cb8e96e11b86e"}, {"bike_id": "bf2e9cbaf55b97c2af214f677be6ace0", "type": "electric_scooter", "is_disabled": 0, "lat": 38.907130333333335, "rental_uris": {"ios": "https://dc.lft.to/lastmile_qr_scan", "android": "https://dc.lft.to/lastmile_qr_scan"}, "is_reserved": 0, "fusion_lon": 0.0, "fusion_lat": 0.0, "lon": -77.03201216666666, "name": "bf2e9cbaf55b97c2af214f677be6ace0"}, {"bike_id": "f356e2a68e4c34c0a7b043ecfa2d443c", "type": "electric_scooter", "is_disabled": 0, "lat": 38.925358833333334, "rental_uris": {"ios": "https://dc.lft.to/lastmile_qr_scan", "android": "https://dc.lft.to/lastmile_qr_scan"}, "is_reserved": 0, "fusion_lon": 0.0, "fusion_lat": 0.0, "lon": -77.0427465, "name": "f356e2a68e4c34c0a7b043ecfa2d443c"}, {"bike_id": "ab9251bb6c57f76eb8320552c498a75f", "type": "electric_scooter", "is_disabled": 0, "lat": 38.9192665, "rental_uris": {"ios": "https://dc.lft.to/lastmile_qr_scan", "android": "https://dc.lft.to/lastmile_qr_scan"}, "is_reserved": 0, "fusion_lon": 0.0, "fusion_lat": 0.0, "lon": -77.04512933333334, "name": "ab9251bb6c57f76eb8320552c498a75f"}, {"bike_id": "0b54e43dbcebb328f6f44c8371ef6764", "type": "electric_scooter", "is_disabled": 0, "lat": 38.8984535, "rental_uris": {"ios": "https://dc.lft.to/lastmile_qr_scan", "android": "https://dc.lft.to/lastmile_qr_scan"}, "is_reserved": 0, "fusion_lon": 0.0, "fusion_lat": 0.0, "lon": -76.946325, "name": "0b54e43dbcebb328f6f44c8371ef6764"}, {"bike_id": "260597e29091ff44ecd08d5c050524d8", "type": "electric_bike", "is_disabled": 0, "lat": 38.87566783333333, "rental_uris": {"ios": "https://dc.lft.to/lastmile_qr_scan", "android": "https://dc.lft.to/lastmile_qr_scan"}, "is_reserved": 0, "fusion_lon": 0.0, "fusion_lat": 0.0, "lon": -76.965051, "name": "260597e29091ff44ecd08d5c050524d8"}, {"bike_id": "e92d5c71e5856466c8f500f081de2cc3", "type": "electric_scooter", "is_disabled": 0, "lat": 38.90268483333333, "rental_uris": {"ios": "https://dc.lft.to/lastmile_qr_scan", "android": "https://dc.lft.to/lastmile_qr_scan"}, "is_reserved": 0, "fusion_lon": 0.0, "fusion_lat": 0.0, "lon": -77.05480566666667, "name": "e92d5c71e5856466c8f500f081de2cc3"}, {"bike_id": "6c3b04dd75557fe2f3cb3d6f535f5f3a", "type": "electric_scooter", "is_disabled": 0, "lat": 38.9235315, "rental_uris": {"ios": "https://dc.lft.to/lastmile_qr_scan", "android": "https://dc.lft.to/lastmile_qr_scan"}, "is_reserved": 0, "fusion_lon": 0.0, "fusion_lat": 0.0, "lon": -77.0335625, "name": "6c3b04dd75557fe2f3cb3d6f535f5f3a"}, {"bike_id": "bceb8297b3cc3808822f348eecc86a51", "type": "electric_scooter", "is_disabled": 0, "lat": 38.9025595, "rental_uris": {"ios": "https://dc.lft.to/lastmile_qr_scan", "android": "https://dc.lft.to/lastmile_qr_scan"}, "is_reserved": 0, "fusion_lon": 0.0, "fusion_lat": 0.0, "lon": -77.01646183333334, "name": "bceb8297b3cc3808822f348eecc86a51"}, {"bike_id": "9aa04697927b25e09cdfc6cb586b73d5", "type": "electric_scooter", "is_disabled": 0, "lat": 38.931911166666666, "rental_uris": {"ios": "https://dc.lft.to/lastmile_qr_scan", "android": "https://dc.lft.to/lastmile_qr_scan"}, "is_reserved": 0, "fusion_lon": 0.0, "fusion_lat": 0.0, "lon": -77.02542516666666, "name": "9aa04697927b25e09cdfc6cb586b73d5"}, {"bike_id": "8364c776a9467d0b0597c158fcc8c5f5", "type": "electric_scooter", "is_disabled": 0, "lat": 38.90960466666667, "rental_uris": {"ios": "https://dc.lft.to/lastmile_qr_scan", "android": "https://dc.lft.to/lastmile_qr_scan"}, "is_reserved": 0, "fusion_lon": 0.0, "fusion_lat": 0.0, "lon": -77.02716816666667, "name": "8364c776a9467d0b0597c158fcc8c5f5"}, {"bike_id": "21ca49b5b9807f27d1b1b00b3bf20e78", "type": "electric_scooter", "is_disabled": 0, "lat": 38.89479866666667, "rental_uris": {"ios": "https://dc.lft.to/lastmile_qr_scan", "android": "https://dc.lft.to/lastmile_qr_scan"}, "is_reserved": 0, "fusion_lon": 0.0, "fusion_lat": 0.0, "lon": -76.94861383333334, "name": "21ca49b5b9807f27d1b1b00b3bf20e78"}, {"bike_id": "8c37fac5e958e80cf403616056d80808", "type": "electric_scooter", "is_disabled": 0, "lat": 38.90775583333333, "rental_uris": {"ios": "https://dc.lft.to/lastmile_qr_scan", "android": "https://dc.lft.to/lastmile_qr_scan"}, "is_reserved": 0, "fusion_lon": 0.0, "fusion_lat": 0.0, "lon": -77.07149333333334, "name": "8c37fac5e958e80cf403616056d80808"}, {"bike_id": "9d9e0fbfa5afcf872d38b2e339904da2", "type": "electric_scooter", "is_disabled": 0, "lat": 38.896195, "rental_uris": {"ios": "https://dc.lft.to/lastmile_qr_scan", "android": "https://dc.lft.to/lastmile_qr_scan"}, "is_reserved": 0, "fusion_lon": 0.0, "fusion_lat": 0.0, "lon": -76.98571066666666, "name": "9d9e0fbfa5afcf872d38b2e339904da2"}, {"bike_id": "5da77eefbd351444ab3436e6932e2512", "type": "electric_scooter", "is_disabled": 0, "lat": 38.907334666666664, "rental_uris": {"ios": "https://dc.lft.to/lastmile_qr_scan", "android": "https://dc.lft.to/lastmile_qr_scan"}, "is_reserved": 0, "fusion_lon": 0.0, "fusion_lat": 0.0, "lon": -77.009284, "name": "5da77eefbd351444ab3436e6932e2512"}, {"bike_id": "c06f9aec36b0ebbfca35360fc31de839", "type": "electric_scooter", "is_disabled": 0, "lat": 38.909207, "rental_uris": {"ios": "https://dc.lft.to/lastmile_qr_scan", "android": "https://dc.lft.to/lastmile_qr_scan"}, "is_reserved": 0, "fusion_lon": 0.0, "fusion_lat": 0.0, "lon": -77.01527916666667, "name": "c06f9aec36b0ebbfca35360fc31de839"}, {"bike_id": "017e75f90d1a247b9b60f43ba7403429", "type": "electric_scooter", "is_disabled": 0, "lat": 38.911916, "rental_uris": {"ios": "https://dc.lft.to/lastmile_qr_scan", "android": "https://dc.lft.to/lastmile_qr_scan"}, "is_reserved": 0, "fusion_lon": 0.0, "fusion_lat": 0.0, "lon": -77.04036416666666, "name": "017e75f90d1a247b9b60f43ba7403429"}, {"bike_id": "4851aa91293b9874845cd966711826c6", "type": "electric_scooter", "is_disabled": 0, "lat": 38.92425866666667, "rental_uris": {"ios": "https://dc.lft.to/lastmile_qr_scan", "android": "https://dc.lft.to/lastmile_qr_scan"}, "is_reserved": 0, "fusion_lon": 0.0, "fusion_lat": 0.0, "lon": -77.042453, "name": "4851aa91293b9874845cd966711826c6"}, {"bike_id": "15d4c3e9048173210a7a31a01505f020", "type": "electric_scooter", "is_disabled": 0, "lat": 38.95314466666667, "rental_uris": {"ios": "https://dc.lft.to/lastmile_qr_scan", "android": "https://dc.lft.to/lastmile_qr_scan"}, "is_reserved": 0, "fusion_lon": 0.0, "fusion_lat": 0.0, "lon": -77.0697885, "name": "15d4c3e9048173210a7a31a01505f020"}, {"bike_id": "b6757fbc604a35bafdf2e00d39879bef", "type": "electric_scooter", "is_disabled": 0, "lat": 38.93361933333333, "rental_uris": {"ios": "https://dc.lft.to/lastmile_qr_scan", "android": "https://dc.lft.to/lastmile_qr_scan"}, "is_reserved": 0, "fusion_lon": 0.0, "fusion_lat": 0.0, "lon": -77.062026, "name": "b6757fbc604a35bafdf2e00d39879bef"}, {"bike_id": "e32f5f663c4ff927e8b88af635dec1d1", "type": "electric_scooter", "is_disabled": 0, "lat": 38.93598583333333, "rental_uris": {"ios": "https://dc.lft.to/lastmile_qr_scan", "android": "https://dc.lft.to/lastmile_qr_scan"}, "is_reserved": 0, "fusion_lon": 0.0, "fusion_lat": 0.0, "lon": -77.03802066666667, "name": "e32f5f663c4ff927e8b88af635dec1d1"}, {"bike_id": "2a67675d1635d81dee154b2bf03ae241", "type": "electric_scooter", "is_disabled": 0, "lat": 38.938653, "rental_uris": {"ios": "https://dc.lft.to/lastmile_qr_scan", "android": "https://dc.lft.to/lastmile_qr_scan"}, "is_reserved": 0, "fusion_lon": 0.0, "fusion_lat": 0.0, "lon": -77.0270565, "name": "2a67675d1635d81dee154b2bf03ae241"}, {"bike_id": "5f2154ae12204978187c1c444d3c459d", "type": "electric_scooter", "is_disabled": 0, "lat": 38.90250733333333, "rental_uris": {"ios": "https://dc.lft.to/lastmile_qr_scan", "android": "https://dc.lft.to/lastmile_qr_scan"}, "is_reserved": 0, "fusion_lon": 0.0, "fusion_lat": 0.0, "lon": -77.02660966666667, "name": "5f2154ae12204978187c1c444d3c459d"}, {"bike_id": "0e8ca8cc5b86830d933dca830b8c6ab2", "type": "electric_scooter", "is_disabled": 0, "lat": 38.894928666666665, "rental_uris": {"ios": "https://dc.lft.to/lastmile_qr_scan", "android": "https://dc.lft.to/lastmile_qr_scan"}, "is_reserved": 0, "fusion_lon": 0.0, "fusion_lat": 0.0, "lon": -77.01093666666667, "name": "0e8ca8cc5b86830d933dca830b8c6ab2"}, {"bike_id": "eac74dab5137b67b789975c8cc27ffbf", "type": "electric_scooter", "is_disabled": 0, "lat": 38.9073465, "rental_uris": {"ios": "https://dc.lft.to/lastmile_qr_scan", "android": "https://dc.lft.to/lastmile_qr_scan"}, "is_reserved": 0, "fusion_lon": 0.0, "fusion_lat": 0.0, "lon": -77.043496, "name": "eac74dab5137b67b789975c8cc27ffbf"}, {"bike_id": "196b9fb2978949d1c1f6fb0c93dcd566", "type": "electric_scooter", "is_disabled": 0, "lat": 38.928723166666664, "rental_uris": {"ios": "https://dc.lft.to/lastmile_qr_scan", "android": "https://dc.lft.to/lastmile_qr_scan"}, "is_reserved": 0, "fusion_lon": 0.0, "fusion_lat": 0.0, "lon": -77.0342855, "name": "196b9fb2978949d1c1f6fb0c93dcd566"}, {"bike_id": "69f9c8c529204d96458096115c24193a", "type": "electric_bike", "is_disabled": 0, "lat": 38.8730285, "rental_uris": {"ios": "https://dc.lft.to/lastmile_qr_scan", "android": "https://dc.lft.to/lastmile_qr_scan"}, "is_reserved": 0, "fusion_lon": 0.0, "fusion_lat": 0.0, "lon": -77.13925, "name": "69f9c8c529204d96458096115c24193a"}, {"bike_id": "babf0df9f39918950e2fdf906c6e0e5c", "type": "electric_scooter", "is_disabled": 0, "lat": 38.91142166666667, "rental_uris": {"ios": "https://dc.lft.to/lastmile_qr_scan", "android": "https://dc.lft.to/lastmile_qr_scan"}, "is_reserved": 0, "fusion_lon": 0.0, "fusion_lat": 0.0, "lon": -76.99012216666667, "name": "babf0df9f39918950e2fdf906c6e0e5c"}, {"bike_id": "952e3f9ee6904b058dc3bca2f74123e3", "type": "electric_scooter", "is_disabled": 0, "lat": 38.9127195, "rental_uris": {"ios": "https://dc.lft.to/lastmile_qr_scan", "android": "https://dc.lft.to/lastmile_qr_scan"}, "is_reserved": 0, "fusion_lon": 0.0, "fusion_lat": 0.0, "lon": -77.012222, "name": "952e3f9ee6904b058dc3bca2f74123e3"}, {"bike_id": "356cf1f2a95b627256a4cb5e455cbbf0", "type": "electric_bike", "is_disabled": 0, "lat": 38.8792925, "rental_uris": {"ios": "https://dc.lft.to/lastmile_qr_scan", "android": "https://dc.lft.to/lastmile_qr_scan"}, "is_reserved": 0, "fusion_lon": 0.0, "fusion_lat": 0.0, "lon": -77.0072455, "name": "356cf1f2a95b627256a4cb5e455cbbf0"}, {"bike_id": "7877f1ebbc2c8a28930b6bd05f2c93b2", "type": "electric_scooter", "is_disabled": 0, "lat": 38.90062183333333, "rental_uris": {"ios": "https://dc.lft.to/lastmile_qr_scan", "android": "https://dc.lft.to/lastmile_qr_scan"}, "is_reserved": 0, "fusion_lon": 0.0, "fusion_lat": 0.0, "lon": -77.03646583333334, "name": "7877f1ebbc2c8a28930b6bd05f2c93b2"}, {"bike_id": "2f9f7759db56fa1c410f8c42b0c0f2be", "type": "electric_scooter", "is_disabled": 0, "lat": 38.90566183333333, "rental_uris": {"ios": "https://dc.lft.to/lastmile_qr_scan", "android": "https://dc.lft.to/lastmile_qr_scan"}, "is_reserved": 0, "fusion_lon": 0.0, "fusion_lat": 0.0, "lon": -77.06531483333333, "name": "2f9f7759db56fa1c410f8c42b0c0f2be"}, {"bike_id": "2a28a7106e829b593e0c7e5ad468706f", "type": "electric_scooter", "is_disabled": 0, "lat": 38.91281883333333, "rental_uris": {"ios": "https://dc.lft.to/lastmile_qr_scan", "android": "https://dc.lft.to/lastmile_qr_scan"}, "is_reserved": 0, "fusion_lon": 0.0, "fusion_lat": 0.0, "lon": -77.06113266666667, "name": "2a28a7106e829b593e0c7e5ad468706f"}, {"bike_id": "16b5d2185c97620b8fff0af911db7908", "type": "electric_scooter", "is_disabled": 0, "lat": 38.914258333333336, "rental_uris": {"ios": "https://dc.lft.to/lastmile_qr_scan", "android": "https://dc.lft.to/lastmile_qr_scan"}, "is_reserved": 0, "fusion_lon": 0.0, "fusion_lat": 0.0, "lon": -77.0213, "name": "16b5d2185c97620b8fff0af911db7908"}, {"bike_id": "b680640196e237ad15a44bf4e3f68765", "type": "electric_scooter", "is_disabled": 0, "lat": 38.92517766666667, "rental_uris": {"ios": "https://dc.lft.to/lastmile_qr_scan", "android": "https://dc.lft.to/lastmile_qr_scan"}, "is_reserved": 0, "fusion_lon": 0.0, "fusion_lat": 0.0, "lon": -77.02359633333333, "name": "b680640196e237ad15a44bf4e3f68765"}, {"bike_id": "fd658bce901fd8ba589cc3deea0e20b1", "type": "electric_scooter", "is_disabled": 0, "lat": 38.923611, "rental_uris": {"ios": "https://dc.lft.to/lastmile_qr_scan", "android": "https://dc.lft.to/lastmile_qr_scan"}, "is_reserved": 0, "fusion_lon": 0.0, "fusion_lat": 0.0, "lon": -77.0512875, "name": "fd658bce901fd8ba589cc3deea0e20b1"}, {"bike_id": "1241f81f15668843635935d107dc0899", "type": "electric_scooter", "is_disabled": 0, "lat": 38.9131595, "rental_uris": {"ios": "https://dc.lft.to/lastmile_qr_scan", "android": "https://dc.lft.to/lastmile_qr_scan"}, "is_reserved": 0, "fusion_lon": 0.0, "fusion_lat": 0.0, "lon": -77.044859, "name": "1241f81f15668843635935d107dc0899"}, {"bike_id": "45257d60ffda8c9af97a0cd155b69e87", "type": "electric_scooter", "is_disabled": 0, "lat": 38.935074, "rental_uris": {"ios": "https://dc.lft.to/lastmile_qr_scan", "android": "https://dc.lft.to/lastmile_qr_scan"}, "is_reserved": 0, "fusion_lon": 0.0, "fusion_lat": 0.0, "lon": -77.03446966666667, "name": "45257d60ffda8c9af97a0cd155b69e87"}, {"bike_id": "47a1ab202a12853ad9f390f82ac308eb", "type": "electric_scooter", "is_disabled": 0, "lat": 38.91408533333333, "rental_uris": {"ios": "https://dc.lft.to/lastmile_qr_scan", "android": "https://dc.lft.to/lastmile_qr_scan"}, "is_reserved": 0, "fusion_lon": 0.0, "fusion_lat": 0.0, "lon": -77.03593216666667, "name": "47a1ab202a12853ad9f390f82ac308eb"}, {"bike_id": "0bd044cac78d484c7a5cd84078a8ae9e", "type": "electric_scooter", "is_disabled": 0, "lat": 38.8717635, "rental_uris": {"ios": "https://dc.lft.to/lastmile_qr_scan", "android": "https://dc.lft.to/lastmile_qr_scan"}, "is_reserved": 0, "fusion_lon": 0.0, "fusion_lat": 0.0, "lon": -77.006114, "name": "0bd044cac78d484c7a5cd84078a8ae9e"}, {"bike_id": "91320d7cd4ffb20c45a780ca481b785c", "type": "electric_scooter", "is_disabled": 0, "lat": 38.84318583333334, "rental_uris": {"ios": "https://dc.lft.to/lastmile_qr_scan", "android": "https://dc.lft.to/lastmile_qr_scan"}, "is_reserved": 0, "fusion_lon": 0.0, "fusion_lat": 0.0, "lon": -76.99914083333333, "name": "91320d7cd4ffb20c45a780ca481b785c"}, {"bike_id": "8fed9ed6f00cb5cf952cc0b3381e7143", "type": "electric_scooter", "is_disabled": 0, "lat": 38.908496666666665, "rental_uris": {"ios": "https://dc.lft.to/lastmile_qr_scan", "android": "https://dc.lft.to/lastmile_qr_scan"}, "is_reserved": 0, "fusion_lon": 0.0, "fusion_lat": 0.0, "lon": -77.02703933333333, "name": "8fed9ed6f00cb5cf952cc0b3381e7143"}, {"bike_id": "14f7f06ccbe041da55bbf7ee2e83a7d6", "type": "electric_bike", "is_disabled": 0, "lat": 38.842716333333335, "rental_uris": {"ios": "https://dc.lft.to/lastmile_qr_scan", "android": "https://dc.lft.to/lastmile_qr_scan"}, "is_reserved": 0, "fusion_lon": 0.0, "fusion_lat": 0.0, "lon": -76.98837633333333, "name": "14f7f06ccbe041da55bbf7ee2e83a7d6"}, {"bike_id": "0d8e0ded08e11dca292386e783c4f118", "type": "electric_scooter", "is_disabled": 0, "lat": 38.908071166666666, "rental_uris": {"ios": "https://dc.lft.to/lastmile_qr_scan", "android": "https://dc.lft.to/lastmile_qr_scan"}, "is_reserved": 0, "fusion_lon": 0.0, "fusion_lat": 0.0, "lon": -77.0306315, "name": "0d8e0ded08e11dca292386e783c4f118"}, {"bike_id": "bfe7ba41f367be10f1f3f404eb9f8ac9", "type": "electric_scooter", "is_disabled": 0, "lat": 38.91616416666667, "rental_uris": {"ios": "https://dc.lft.to/lastmile_qr_scan", "android": "https://dc.lft.to/lastmile_qr_scan"}, "is_reserved": 0, "fusion_lon": 0.0, "fusion_lat": 0.0, "lon": -77.023882, "name": "bfe7ba41f367be10f1f3f404eb9f8ac9"}, {"bike_id": "aab602315831545ada7f3dec0c2ac1a8", "type": "electric_scooter", "is_disabled": 0, "lat": 38.922004666666666, "rental_uris": {"ios": "https://dc.lft.to/lastmile_qr_scan", "android": "https://dc.lft.to/lastmile_qr_scan"}, "is_reserved": 0, "fusion_lon": 0.0, "fusion_lat": 0.0, "lon": -77.020367, "name": "aab602315831545ada7f3dec0c2ac1a8"}, {"bike_id": "cae8880976d57d8c65708e540ab7975a", "type": "electric_scooter", "is_disabled": 0, "lat": 38.90484033333333, "rental_uris": {"ios": "https://dc.lft.to/lastmile_qr_scan", "android": "https://dc.lft.to/lastmile_qr_scan"}, "is_reserved": 0, "fusion_lon": 0.0, "fusion_lat": 0.0, "lon": -77.05376066666666, "name": "cae8880976d57d8c65708e540ab7975a"}, {"bike_id": "9543434bd177aa28c4f2067972cecd4a", "type": "electric_bike", "is_disabled": 0, "lat": 38.954093, "rental_uris": {"ios": "https://dc.lft.to/lastmile_qr_scan", "android": "https://dc.lft.to/lastmile_qr_scan"}, "is_reserved": 0, "fusion_lon": 0.0, "fusion_lat": 0.0, "lon": -76.98041233333333, "name": "9543434bd177aa28c4f2067972cecd4a"}, {"bike_id": "e632fb1642822bca2664606a9ae5e594", "type": "electric_scooter", "is_disabled": 0, "lat": 38.89609033333333, "rental_uris": {"ios": "https://dc.lft.to/lastmile_qr_scan", "android": "https://dc.lft.to/lastmile_qr_scan"}, "is_reserved": 0, "fusion_lon": 0.0, "fusion_lat": 0.0, "lon": -77.00335733333333, "name": "e632fb1642822bca2664606a9ae5e594"}, {"bike_id": "3f73a19072a061b436b84ba04f227c4f", "type": "electric_scooter", "is_disabled": 0, "lat": 38.916981, "rental_uris": {"ios": "https://dc.lft.to/lastmile_qr_scan", "android": "https://dc.lft.to/lastmile_qr_scan"}, "is_reserved": 0, "fusion_lon": 0.0, "fusion_lat": 0.0, "lon": -77.02880683333333, "name": "3f73a19072a061b436b84ba04f227c4f"}, {"bike_id": "0782a6443e0b8a0418ac1b36ceeec5c4", "type": "electric_scooter", "is_disabled": 0, "lat": 38.89897283333333, "rental_uris": {"ios": "https://dc.lft.to/lastmile_qr_scan", "android": "https://dc.lft.to/lastmile_qr_scan"}, "is_reserved": 0, "fusion_lon": 0.0, "fusion_lat": 0.0, "lon": -76.97697366666667, "name": "0782a6443e0b8a0418ac1b36ceeec5c4"}, {"bike_id": "ab39948bb7610cb9bb03ab87c2d02982", "type": "electric_scooter", "is_disabled": 0, "lat": 38.918862, "rental_uris": {"ios": "https://dc.lft.to/lastmile_qr_scan", "android": "https://dc.lft.to/lastmile_qr_scan"}, "is_reserved": 0, "fusion_lon": 0.0, "fusion_lat": 0.0, "lon": -77.0351465, "name": "ab39948bb7610cb9bb03ab87c2d02982"}, {"bike_id": "cac86fe1b0c056b91d66d9f0a2373a93", "type": "electric_scooter", "is_disabled": 0, "lat": 38.91873016666667, "rental_uris": {"ios": "https://dc.lft.to/lastmile_qr_scan", "android": "https://dc.lft.to/lastmile_qr_scan"}, "is_reserved": 0, "fusion_lon": 0.0, "fusion_lat": 0.0, "lon": -77.012038, "name": "cac86fe1b0c056b91d66d9f0a2373a93"}, {"bike_id": "a13df9554c99635c9fac4e869e58f7c8", "type": "electric_scooter", "is_disabled": 0, "lat": 38.9565585, "rental_uris": {"ios": "https://dc.lft.to/lastmile_qr_scan", "android": "https://dc.lft.to/lastmile_qr_scan"}, "is_reserved": 0, "fusion_lon": 0.0, "fusion_lat": 0.0, "lon": -77.02398883333333, "name": "a13df9554c99635c9fac4e869e58f7c8"}, {"bike_id": "616886dd80d6a5ec155bb2ad07560e2b", "type": "electric_scooter", "is_disabled": 0, "lat": 38.93901733333333, "rental_uris": {"ios": "https://dc.lft.to/lastmile_qr_scan", "android": "https://dc.lft.to/lastmile_qr_scan"}, "is_reserved": 0, "fusion_lon": 0.0, "fusion_lat": 0.0, "lon": -77.01680516666667, "name": "616886dd80d6a5ec155bb2ad07560e2b"}, {"bike_id": "2fab3d32af20cb349824e9e15c2ea9de", "type": "electric_scooter", "is_disabled": 0, "lat": 38.9064085, "rental_uris": {"ios": "https://dc.lft.to/lastmile_qr_scan", "android": "https://dc.lft.to/lastmile_qr_scan"}, "is_reserved": 0, "fusion_lon": 0.0, "fusion_lat": 0.0, "lon": -77.02504266666666, "name": "2fab3d32af20cb349824e9e15c2ea9de"}, {"bike_id": "4a6e23aafb40a0ae9dc7b2eab81aba2a", "type": "electric_scooter", "is_disabled": 0, "lat": 38.92546383333333, "rental_uris": {"ios": "https://dc.lft.to/lastmile_qr_scan", "android": "https://dc.lft.to/lastmile_qr_scan"}, "is_reserved": 0, "fusion_lon": 0.0, "fusion_lat": 0.0, "lon": -77.04127866666667, "name": "4a6e23aafb40a0ae9dc7b2eab81aba2a"}, {"bike_id": "2040196c337c7cabbc0319b97ace19c0", "type": "electric_scooter", "is_disabled": 0, "lat": 38.91457833333333, "rental_uris": {"ios": "https://dc.lft.to/lastmile_qr_scan", "android": "https://dc.lft.to/lastmile_qr_scan"}, "is_reserved": 0, "fusion_lon": 0.0, "fusion_lat": 0.0, "lon": -77.07105, "name": "2040196c337c7cabbc0319b97ace19c0"}, {"bike_id": "c437e536c2b16a01b2eb221e5fe00292", "type": "electric_bike", "is_disabled": 0, "lat": 38.84356433333333, "rental_uris": {"ios": "https://dc.lft.to/lastmile_qr_scan", "android": "https://dc.lft.to/lastmile_qr_scan"}, "is_reserved": 0, "fusion_lon": 0.0, "fusion_lat": 0.0, "lon": -76.99953233333333, "name": "c437e536c2b16a01b2eb221e5fe00292"}, {"bike_id": "e5dac98527abea3fdca7f78da8c7c9b0", "type": "electric_scooter", "is_disabled": 0, "lat": 38.8948025, "rental_uris": {"ios": "https://dc.lft.to/lastmile_qr_scan", "android": "https://dc.lft.to/lastmile_qr_scan"}, "is_reserved": 0, "fusion_lon": 0.0, "fusion_lat": 0.0, "lon": -77.011037, "name": "e5dac98527abea3fdca7f78da8c7c9b0"}, {"bike_id": "cc367454bd5b48f61f2b2f2aad1d0a42", "type": "electric_scooter", "is_disabled": 0, "lat": 38.937531, "rental_uris": {"ios": "https://dc.lft.to/lastmile_qr_scan", "android": "https://dc.lft.to/lastmile_qr_scan"}, "is_reserved": 0, "fusion_lon": 0.0, "fusion_lat": 0.0, "lon": -77.0357905, "name": "cc367454bd5b48f61f2b2f2aad1d0a42"}, {"bike_id": "63135588ea6ae4ca043f10da8b989140", "type": "electric_scooter", "is_disabled": 0, "lat": 38.907134166666665, "rental_uris": {"ios": "https://dc.lft.to/lastmile_qr_scan", "android": "https://dc.lft.to/lastmile_qr_scan"}, "is_reserved": 0, "fusion_lon": 0.0, "fusion_lat": 0.0, "lon": -77.02396716666667, "name": "63135588ea6ae4ca043f10da8b989140"}, {"bike_id": "49befc62450d647c29baf11e8def01a6", "type": "electric_scooter", "is_disabled": 0, "lat": 38.94067833333333, "rental_uris": {"ios": "https://dc.lft.to/lastmile_qr_scan", "android": "https://dc.lft.to/lastmile_qr_scan"}, "is_reserved": 0, "fusion_lon": 0.0, "fusion_lat": 0.0, "lon": -77.0610675, "name": "49befc62450d647c29baf11e8def01a6"}, {"bike_id": "e4d4fe8951507b752f74a0c43e8a6387", "type": "electric_scooter", "is_disabled": 0, "lat": 38.905491166666664, "rental_uris": {"ios": "https://dc.lft.to/lastmile_qr_scan", "android": "https://dc.lft.to/lastmile_qr_scan"}, "is_reserved": 0, "fusion_lon": 0.0, "fusion_lat": 0.0, "lon": -77.00557183333333, "name": "e4d4fe8951507b752f74a0c43e8a6387"}, {"bike_id": "566c0b7b1d5c58542db6a779efed618b", "type": "electric_scooter", "is_disabled": 0, "lat": 38.92579333333333, "rental_uris": {"ios": "https://dc.lft.to/lastmile_qr_scan", "android": "https://dc.lft.to/lastmile_qr_scan"}, "is_reserved": 0, "fusion_lon": 0.0, "fusion_lat": 0.0, "lon": -77.03028466666666, "name": "566c0b7b1d5c58542db6a779efed618b"}, {"bike_id": "65a91ff5d4d79974cf1a824db12bdd31", "type": "electric_scooter", "is_disabled": 0, "lat": 38.91702316666667, "rental_uris": {"ios": "https://dc.lft.to/lastmile_qr_scan", "android": "https://dc.lft.to/lastmile_qr_scan"}, "is_reserved": 0, "fusion_lon": 0.0, "fusion_lat": 0.0, "lon": -77.03475333333333, "name": "65a91ff5d4d79974cf1a824db12bdd31"}, {"bike_id": "0f2bf267d346083ccd1991a28a2ae052", "type": "electric_scooter", "is_disabled": 0, "lat": 38.933956333333334, "rental_uris": {"ios": "https://dc.lft.to/lastmile_qr_scan", "android": "https://dc.lft.to/lastmile_qr_scan"}, "is_reserved": 0, "fusion_lon": 0.0, "fusion_lat": 0.0, "lon": -77.02227766666667, "name": "0f2bf267d346083ccd1991a28a2ae052"}, {"bike_id": "66cb91ad6397f080789ed76a559c53dd", "type": "electric_scooter", "is_disabled": 0, "lat": 38.91681033333333, "rental_uris": {"ios": "https://dc.lft.to/lastmile_qr_scan", "android": "https://dc.lft.to/lastmile_qr_scan"}, "is_reserved": 0, "fusion_lon": 0.0, "fusion_lat": 0.0, "lon": -77.023926, "name": "66cb91ad6397f080789ed76a559c53dd"}, {"bike_id": "b82efdba94531d197cfc0460371a96c1", "type": "electric_scooter", "is_disabled": 0, "lat": 38.91377583333333, "rental_uris": {"ios": "https://dc.lft.to/lastmile_qr_scan", "android": "https://dc.lft.to/lastmile_qr_scan"}, "is_reserved": 0, "fusion_lon": 0.0, "fusion_lat": 0.0, "lon": -77.04135266666667, "name": "b82efdba94531d197cfc0460371a96c1"}, {"bike_id": "52eebfc1032147d54591c39c79927e30", "type": "electric_scooter", "is_disabled": 0, "lat": 38.91243566666667, "rental_uris": {"ios": "https://dc.lft.to/lastmile_qr_scan", "android": "https://dc.lft.to/lastmile_qr_scan"}, "is_reserved": 0, "fusion_lon": 0.0, "fusion_lat": 0.0, "lon": -77.02224383333333, "name": "52eebfc1032147d54591c39c79927e30"}, {"bike_id": "ebfce3f44ac907f7b46a3b8bf283db8f", "type": "electric_bike", "is_disabled": 0, "lat": 38.948687, "rental_uris": {"ios": "https://dc.lft.to/lastmile_qr_scan", "android": "https://dc.lft.to/lastmile_qr_scan"}, "is_reserved": 0, "fusion_lon": 0.0, "fusion_lat": 0.0, "lon": -77.02199933333333, "name": "ebfce3f44ac907f7b46a3b8bf283db8f"}, {"bike_id": "5b9a4723e59f3a98eb28f24f7bd2fad5", "type": "electric_scooter", "is_disabled": 0, "lat": 38.9429495, "rental_uris": {"ios": "https://dc.lft.to/lastmile_qr_scan", "android": "https://dc.lft.to/lastmile_qr_scan"}, "is_reserved": 0, "fusion_lon": 0.0, "fusion_lat": 0.0, "lon": -77.02170933333333, "name": "5b9a4723e59f3a98eb28f24f7bd2fad5"}, {"bike_id": "cc9808c60d46211b35fe635cf1a7ed0d", "type": "electric_scooter", "is_disabled": 0, "lat": 38.95625016666666, "rental_uris": {"ios": "https://dc.lft.to/lastmile_qr_scan", "android": "https://dc.lft.to/lastmile_qr_scan"}, "is_reserved": 0, "fusion_lon": 0.0, "fusion_lat": 0.0, "lon": -77.03618933333334, "name": "cc9808c60d46211b35fe635cf1a7ed0d"}, {"bike_id": "097f86f5b74481670e1864525162c702", "type": "electric_scooter", "is_disabled": 0, "lat": 38.90579916666667, "rental_uris": {"ios": "https://dc.lft.to/lastmile_qr_scan", "android": "https://dc.lft.to/lastmile_qr_scan"}, "is_reserved": 0, "fusion_lon": 0.0, "fusion_lat": 0.0, "lon": -77.02698133333334, "name": "097f86f5b74481670e1864525162c702"}, {"bike_id": "db78e3cac55c52259e3fe756f62eb690", "type": "electric_scooter", "is_disabled": 0, "lat": 38.885336833333334, "rental_uris": {"ios": "https://dc.lft.to/lastmile_qr_scan", "android": "https://dc.lft.to/lastmile_qr_scan"}, "is_reserved": 0, "fusion_lon": 0.0, "fusion_lat": 0.0, "lon": -76.99824266666667, "name": "db78e3cac55c52259e3fe756f62eb690"}, {"bike_id": "0c1a931b2925d48e87202882ef872a81", "type": "electric_scooter", "is_disabled": 0, "lat": 38.923367666666664, "rental_uris": {"ios": "https://dc.lft.to/lastmile_qr_scan", "android": "https://dc.lft.to/lastmile_qr_scan"}, "is_reserved": 0, "fusion_lon": 0.0, "fusion_lat": 0.0, "lon": -77.0378125, "name": "0c1a931b2925d48e87202882ef872a81"}, {"bike_id": "6fd47a308bfe41401ab4875cef4b97a9", "type": "electric_scooter", "is_disabled": 0, "lat": 38.901203333333335, "rental_uris": {"ios": "https://dc.lft.to/lastmile_qr_scan", "android": "https://dc.lft.to/lastmile_qr_scan"}, "is_reserved": 0, "fusion_lon": 0.0, "fusion_lat": 0.0, "lon": -76.9295345, "name": "6fd47a308bfe41401ab4875cef4b97a9"}, {"bike_id": "e654b8408c09e1bdce5036585655d003", "type": "electric_bike", "is_disabled": 0, "lat": 38.974076833333335, "rental_uris": {"ios": "https://dc.lft.to/lastmile_qr_scan", "android": "https://dc.lft.to/lastmile_qr_scan"}, "is_reserved": 0, "fusion_lon": 0.0, "fusion_lat": 0.0, "lon": -77.06454616666667, "name": "e654b8408c09e1bdce5036585655d003"}, {"bike_id": "61883b0b70244539746b69719a26f58e", "type": "electric_scooter", "is_disabled": 0, "lat": 38.90292733333333, "rental_uris": {"ios": "https://dc.lft.to/lastmile_qr_scan", "android": "https://dc.lft.to/lastmile_qr_scan"}, "is_reserved": 0, "fusion_lon": 0.0, "fusion_lat": 0.0, "lon": -77.06532883333334, "name": "61883b0b70244539746b69719a26f58e"}, {"bike_id": "2659c4bb948de883011828afb8a51f7f", "type": "electric_scooter", "is_disabled": 0, "lat": 38.924815, "rental_uris": {"ios": "https://dc.lft.to/lastmile_qr_scan", "android": "https://dc.lft.to/lastmile_qr_scan"}, "is_reserved": 0, "fusion_lon": 0.0, "fusion_lat": 0.0, "lon": -77.02651333333333, "name": "2659c4bb948de883011828afb8a51f7f"}, {"bike_id": "406f7f1d264f5110e56a42437422b461", "type": "electric_scooter", "is_disabled": 0, "lat": 38.89919116666667, "rental_uris": {"ios": "https://dc.lft.to/lastmile_qr_scan", "android": "https://dc.lft.to/lastmile_qr_scan"}, "is_reserved": 0, "fusion_lon": 0.0, "fusion_lat": 0.0, "lon": -77.03932716666667, "name": "406f7f1d264f5110e56a42437422b461"}, {"bike_id": "eb647ec0e9e38f71579f106b6fa082c8", "type": "electric_scooter", "is_disabled": 0, "lat": 38.91223733333333, "rental_uris": {"ios": "https://dc.lft.to/lastmile_qr_scan", "android": "https://dc.lft.to/lastmile_qr_scan"}, "is_reserved": 0, "fusion_lon": 0.0, "fusion_lat": 0.0, "lon": -77.03193916666666, "name": "eb647ec0e9e38f71579f106b6fa082c8"}, {"bike_id": "5aff0abe086db6666d4715642b4abf05", "type": "electric_bike", "is_disabled": 0, "lat": 38.9317805, "rental_uris": {"ios": "https://dc.lft.to/lastmile_qr_scan", "android": "https://dc.lft.to/lastmile_qr_scan"}, "is_reserved": 0, "fusion_lon": 0.0, "fusion_lat": 0.0, "lon": -77.035502, "name": "5aff0abe086db6666d4715642b4abf05"}, {"bike_id": "d6d595ef19f1631179f6ca9436165de0", "type": "electric_scooter", "is_disabled": 0, "lat": 38.918091833333335, "rental_uris": {"ios": "https://dc.lft.to/lastmile_qr_scan", "android": "https://dc.lft.to/lastmile_qr_scan"}, "is_reserved": 0, "fusion_lon": 0.0, "fusion_lat": 0.0, "lon": -77.02701933333333, "name": "d6d595ef19f1631179f6ca9436165de0"}, {"bike_id": "acc16b4ba96a31f94a75b46078a73221", "type": "electric_scooter", "is_disabled": 0, "lat": 38.900287166666665, "rental_uris": {"ios": "https://dc.lft.to/lastmile_qr_scan", "android": "https://dc.lft.to/lastmile_qr_scan"}, "is_reserved": 0, "fusion_lon": 0.0, "fusion_lat": 0.0, "lon": -77.036716, "name": "acc16b4ba96a31f94a75b46078a73221"}, {"bike_id": "b6cd1a7b85c45c019a1884b6d2eaeb2d", "type": "electric_scooter", "is_disabled": 0, "lat": 38.909763, "rental_uris": {"ios": "https://dc.lft.to/lastmile_qr_scan", "android": "https://dc.lft.to/lastmile_qr_scan"}, "is_reserved": 0, "fusion_lon": 0.0, "fusion_lat": 0.0, "lon": -77.03435816666666, "name": "b6cd1a7b85c45c019a1884b6d2eaeb2d"}, {"bike_id": "31d1f9f8e5ea84f611734dd76a48a8a0", "type": "electric_scooter", "is_disabled": 0, "lat": 38.87390033333333, "rental_uris": {"ios": "https://dc.lft.to/lastmile_qr_scan", "android": "https://dc.lft.to/lastmile_qr_scan"}, "is_reserved": 0, "fusion_lon": 0.0, "fusion_lat": 0.0, "lon": -77.04344983333333, "name": "31d1f9f8e5ea84f611734dd76a48a8a0"}, {"bike_id": "1d9b9f3da43edbf68715947d012fae3c", "type": "electric_scooter", "is_disabled": 0, "lat": 38.936750833333335, "rental_uris": {"ios": "https://dc.lft.to/lastmile_qr_scan", "android": "https://dc.lft.to/lastmile_qr_scan"}, "is_reserved": 0, "fusion_lon": 0.0, "fusion_lat": 0.0, "lon": -77.02472083333333, "name": "1d9b9f3da43edbf68715947d012fae3c"}, {"bike_id": "822754e7f2708415c45c73d2ba696ae7", "type": "electric_scooter", "is_disabled": 0, "lat": 38.893457166666664, "rental_uris": {"ios": "https://dc.lft.to/lastmile_qr_scan", "android": "https://dc.lft.to/lastmile_qr_scan"}, "is_reserved": 0, "fusion_lon": 0.0, "fusion_lat": 0.0, "lon": -76.950582, "name": "822754e7f2708415c45c73d2ba696ae7"}, {"bike_id": "772df0e8263e2137a52803484cb2e1e2", "type": "electric_scooter", "is_disabled": 0, "lat": 38.91671083333333, "rental_uris": {"ios": "https://dc.lft.to/lastmile_qr_scan", "android": "https://dc.lft.to/lastmile_qr_scan"}, "is_reserved": 0, "fusion_lon": 0.0, "fusion_lat": 0.0, "lon": -77.046876, "name": "772df0e8263e2137a52803484cb2e1e2"}, {"bike_id": "7ff4d9b9fa92d85cca4f242a2d8d1cee", "type": "electric_scooter", "is_disabled": 0, "lat": 38.93525983333333, "rental_uris": {"ios": "https://dc.lft.to/lastmile_qr_scan", "android": "https://dc.lft.to/lastmile_qr_scan"}, "is_reserved": 0, "fusion_lon": 0.0, "fusion_lat": 0.0, "lon": -77.03357733333333, "name": "7ff4d9b9fa92d85cca4f242a2d8d1cee"}, {"bike_id": "41295d6ce6e28f173bff1f12b2e53ae0", "type": "electric_scooter", "is_disabled": 0, "lat": 38.902592166666665, "rental_uris": {"ios": "https://dc.lft.to/lastmile_qr_scan", "android": "https://dc.lft.to/lastmile_qr_scan"}, "is_reserved": 0, "fusion_lon": 0.0, "fusion_lat": 0.0, "lon": -77.0338025, "name": "41295d6ce6e28f173bff1f12b2e53ae0"}, {"bike_id": "d0d9496a1aa03e479efa3fc9820d8b5b", "type": "electric_scooter", "is_disabled": 0, "lat": 38.9247805, "rental_uris": {"ios": "https://dc.lft.to/lastmile_qr_scan", "android": "https://dc.lft.to/lastmile_qr_scan"}, "is_reserved": 0, "fusion_lon": 0.0, "fusion_lat": 0.0, "lon": -77.0520545, "name": "d0d9496a1aa03e479efa3fc9820d8b5b"}, {"bike_id": "db84badf9a1c91958ceb007291fa299d", "type": "electric_scooter", "is_disabled": 0, "lat": 38.9140765, "rental_uris": {"ios": "https://dc.lft.to/lastmile_qr_scan", "android": "https://dc.lft.to/lastmile_qr_scan"}, "is_reserved": 0, "fusion_lon": 0.0, "fusion_lat": 0.0, "lon": -77.0322545, "name": "db84badf9a1c91958ceb007291fa299d"}, {"bike_id": "bb5b91623cec3d2f72199e8e282319ea", "type": "electric_scooter", "is_disabled": 0, "lat": 38.900923166666665, "rental_uris": {"ios": "https://dc.lft.to/lastmile_qr_scan", "android": "https://dc.lft.to/lastmile_qr_scan"}, "is_reserved": 0, "fusion_lon": 0.0, "fusion_lat": 0.0, "lon": -76.983351, "name": "bb5b91623cec3d2f72199e8e282319ea"}, {"bike_id": "0355707577e5e8efceecf2dd39696665", "type": "electric_scooter", "is_disabled": 0, "lat": 38.876974833333335, "rental_uris": {"ios": "https://dc.lft.to/lastmile_qr_scan", "android": "https://dc.lft.to/lastmile_qr_scan"}, "is_reserved": 0, "fusion_lon": 0.0, "fusion_lat": 0.0, "lon": -77.01658016666667, "name": "0355707577e5e8efceecf2dd39696665"}, {"bike_id": "635aad0bcc08e97ece5656837de5d28d", "type": "electric_bike", "is_disabled": 0, "lat": 38.857162, "rental_uris": {"ios": "https://dc.lft.to/lastmile_qr_scan", "android": "https://dc.lft.to/lastmile_qr_scan"}, "is_reserved": 0, "fusion_lon": 0.0, "fusion_lat": 0.0, "lon": -77.07970066666667, "name": "635aad0bcc08e97ece5656837de5d28d"}, {"bike_id": "54edbfcc46f01d933ffddff9b3a5f923", "type": "electric_bike", "is_disabled": 0, "lat": 38.936931333333334, "rental_uris": {"ios": "https://dc.lft.to/lastmile_qr_scan", "android": "https://dc.lft.to/lastmile_qr_scan"}, "is_reserved": 0, "fusion_lon": 0.0, "fusion_lat": 0.0, "lon": -77.05647233333333, "name": "54edbfcc46f01d933ffddff9b3a5f923"}, {"bike_id": "f93c8736c9c6220450d986d6df7b851a", "type": "electric_scooter", "is_disabled": 0, "lat": 38.88068666666667, "rental_uris": {"ios": "https://dc.lft.to/lastmile_qr_scan", "android": "https://dc.lft.to/lastmile_qr_scan"}, "is_reserved": 0, "fusion_lon": 0.0, "fusion_lat": 0.0, "lon": -77.025502, "name": "f93c8736c9c6220450d986d6df7b851a"}, {"bike_id": "48984216b216a7c9fc36790b047d110d", "type": "electric_scooter", "is_disabled": 0, "lat": 38.90224933333333, "rental_uris": {"ios": "https://dc.lft.to/lastmile_qr_scan", "android": "https://dc.lft.to/lastmile_qr_scan"}, "is_reserved": 0, "fusion_lon": 0.0, "fusion_lat": 0.0, "lon": -77.04112066666667, "name": "48984216b216a7c9fc36790b047d110d"}, {"bike_id": "82cf86532c59b55fbdca5ff5dd45d422", "type": "electric_scooter", "is_disabled": 0, "lat": 38.899197, "rental_uris": {"ios": "https://dc.lft.to/lastmile_qr_scan", "android": "https://dc.lft.to/lastmile_qr_scan"}, "is_reserved": 0, "fusion_lon": 0.0, "fusion_lat": 0.0, "lon": -76.933689, "name": "82cf86532c59b55fbdca5ff5dd45d422"}, {"bike_id": "51362a9cebaef95b7ff6b25cb52f9c25", "type": "electric_scooter", "is_disabled": 0, "lat": 38.91697166666667, "rental_uris": {"ios": "https://dc.lft.to/lastmile_qr_scan", "android": "https://dc.lft.to/lastmile_qr_scan"}, "is_reserved": 0, "fusion_lon": 0.0, "fusion_lat": 0.0, "lon": -77.03149366666666, "name": "51362a9cebaef95b7ff6b25cb52f9c25"}, {"bike_id": "c5f69b638c0f7da7f74df9be273f11e9", "type": "electric_scooter", "is_disabled": 0, "lat": 38.91991683333333, "rental_uris": {"ios": "https://dc.lft.to/lastmile_qr_scan", "android": "https://dc.lft.to/lastmile_qr_scan"}, "is_reserved": 0, "fusion_lon": 0.0, "fusion_lat": 0.0, "lon": -77.01789433333333, "name": "c5f69b638c0f7da7f74df9be273f11e9"}, {"bike_id": "fc27ff11311f0dd98bf1ea2ec6476c52", "type": "electric_scooter", "is_disabled": 0, "lat": 38.934509, "rental_uris": {"ios": "https://dc.lft.to/lastmile_qr_scan", "android": "https://dc.lft.to/lastmile_qr_scan"}, "is_reserved": 0, "fusion_lon": 0.0, "fusion_lat": 0.0, "lon": -77.04533183333334, "name": "fc27ff11311f0dd98bf1ea2ec6476c52"}, {"bike_id": "88645da9fea8dd8411d730514ea24672", "type": "electric_scooter", "is_disabled": 0, "lat": 38.9085045, "rental_uris": {"ios": "https://dc.lft.to/lastmile_qr_scan", "android": "https://dc.lft.to/lastmile_qr_scan"}, "is_reserved": 0, "fusion_lon": 0.0, "fusion_lat": 0.0, "lon": -77.02229066666666, "name": "88645da9fea8dd8411d730514ea24672"}, {"bike_id": "6cadee15b1cd92f07bf69cc33de092e9", "type": "electric_scooter", "is_disabled": 0, "lat": 38.9024555, "rental_uris": {"ios": "https://dc.lft.to/lastmile_qr_scan", "android": "https://dc.lft.to/lastmile_qr_scan"}, "is_reserved": 0, "fusion_lon": 0.0, "fusion_lat": 0.0, "lon": -77.001988, "name": "6cadee15b1cd92f07bf69cc33de092e9"}, {"bike_id": "50a65d88762ce3e20f3605d89207c63e", "type": "electric_scooter", "is_disabled": 0, "lat": 38.90628016666667, "rental_uris": {"ios": "https://dc.lft.to/lastmile_qr_scan", "android": "https://dc.lft.to/lastmile_qr_scan"}, "is_reserved": 0, "fusion_lon": 0.0, "fusion_lat": 0.0, "lon": -77.05559483333333, "name": "50a65d88762ce3e20f3605d89207c63e"}, {"bike_id": "0dbe8bac378db7c90955d6112d66c5ff", "type": "electric_scooter", "is_disabled": 0, "lat": 38.928734, "rental_uris": {"ios": "https://dc.lft.to/lastmile_qr_scan", "android": "https://dc.lft.to/lastmile_qr_scan"}, "is_reserved": 0, "fusion_lon": 0.0, "fusion_lat": 0.0, "lon": -77.03357533333333, "name": "0dbe8bac378db7c90955d6112d66c5ff"}, {"bike_id": "48b548fdbdd002e0a8c29d8218d821e4", "type": "electric_scooter", "is_disabled": 0, "lat": 38.89201583333333, "rental_uris": {"ios": "https://dc.lft.to/lastmile_qr_scan", "android": "https://dc.lft.to/lastmile_qr_scan"}, "is_reserved": 0, "fusion_lon": 0.0, "fusion_lat": 0.0, "lon": -77.002308, "name": "48b548fdbdd002e0a8c29d8218d821e4"}, {"bike_id": "21f869b5f3304e7f2c87fac8ce9c50cd", "type": "electric_scooter", "is_disabled": 0, "lat": 38.924204833333334, "rental_uris": {"ios": "https://dc.lft.to/lastmile_qr_scan", "android": "https://dc.lft.to/lastmile_qr_scan"}, "is_reserved": 0, "fusion_lon": 0.0, "fusion_lat": 0.0, "lon": -77.03636716666666, "name": "21f869b5f3304e7f2c87fac8ce9c50cd"}, {"bike_id": "ed5796f3e1f9abba6feec18c115a68b2", "type": "electric_bike", "is_disabled": 0, "lat": 38.95688483333333, "rental_uris": {"ios": "https://dc.lft.to/lastmile_qr_scan", "android": "https://dc.lft.to/lastmile_qr_scan"}, "is_reserved": 0, "fusion_lon": 0.0, "fusion_lat": 0.0, "lon": -77.02230316666666, "name": "ed5796f3e1f9abba6feec18c115a68b2"}, {"bike_id": "7d4c9153cba6ed7cdc5e2dee70c43224", "type": "electric_scooter", "is_disabled": 0, "lat": 38.966074166666665, "rental_uris": {"ios": "https://dc.lft.to/lastmile_qr_scan", "android": "https://dc.lft.to/lastmile_qr_scan"}, "is_reserved": 0, "fusion_lon": 0.0, "fusion_lat": 0.0, "lon": -77.01974083333333, "name": "7d4c9153cba6ed7cdc5e2dee70c43224"}, {"bike_id": "7fa19bf2fb1dcb7c300b2a8b0387aaab", "type": "electric_scooter", "is_disabled": 0, "lat": 38.917206666666665, "rental_uris": {"ios": "https://dc.lft.to/lastmile_qr_scan", "android": "https://dc.lft.to/lastmile_qr_scan"}, "is_reserved": 0, "fusion_lon": 0.0, "fusion_lat": 0.0, "lon": -77.04604366666666, "name": "7fa19bf2fb1dcb7c300b2a8b0387aaab"}, {"bike_id": "57e7d2d6f1fcfe74d7acdba90b4b1c7c", "type": "electric_scooter", "is_disabled": 0, "lat": 38.91425783333333, "rental_uris": {"ios": "https://dc.lft.to/lastmile_qr_scan", "android": "https://dc.lft.to/lastmile_qr_scan"}, "is_reserved": 0, "fusion_lon": 0.0, "fusion_lat": 0.0, "lon": -77.02204983333333, "name": "57e7d2d6f1fcfe74d7acdba90b4b1c7c"}, {"bike_id": "2965aa1d81e4098c334b6f2f011da6d5", "type": "electric_scooter", "is_disabled": 0, "lat": 38.92060583333333, "rental_uris": {"ios": "https://dc.lft.to/lastmile_qr_scan", "android": "https://dc.lft.to/lastmile_qr_scan"}, "is_reserved": 0, "fusion_lon": 0.0, "fusion_lat": 0.0, "lon": -77.03456866666667, "name": "2965aa1d81e4098c334b6f2f011da6d5"}, {"bike_id": "d2b17d68bb6912964f546484c2ab5489", "type": "electric_scooter", "is_disabled": 0, "lat": 38.89673766666667, "rental_uris": {"ios": "https://dc.lft.to/lastmile_qr_scan", "android": "https://dc.lft.to/lastmile_qr_scan"}, "is_reserved": 0, "fusion_lon": 0.0, "fusion_lat": 0.0, "lon": -76.98817983333333, "name": "d2b17d68bb6912964f546484c2ab5489"}, {"bike_id": "8962f3dc6af3fd5f324286e433dd7cf9", "type": "electric_scooter", "is_disabled": 0, "lat": 38.91924433333333, "rental_uris": {"ios": "https://dc.lft.to/lastmile_qr_scan", "android": "https://dc.lft.to/lastmile_qr_scan"}, "is_reserved": 0, "fusion_lon": 0.0, "fusion_lat": 0.0, "lon": -77.04484283333333, "name": "8962f3dc6af3fd5f324286e433dd7cf9"}, {"bike_id": "28bf40d236312ceffac6fa899352c5a7", "type": "electric_scooter", "is_disabled": 0, "lat": 38.908347, "rental_uris": {"ios": "https://dc.lft.to/lastmile_qr_scan", "android": "https://dc.lft.to/lastmile_qr_scan"}, "is_reserved": 0, "fusion_lon": 0.0, "fusion_lat": 0.0, "lon": -77.0366575, "name": "28bf40d236312ceffac6fa899352c5a7"}, {"bike_id": "46df194be98daf47b19d786a62abd2bb", "type": "electric_scooter", "is_disabled": 0, "lat": 38.90972216666667, "rental_uris": {"ios": "https://dc.lft.to/lastmile_qr_scan", "android": "https://dc.lft.to/lastmile_qr_scan"}, "is_reserved": 0, "fusion_lon": 0.0, "fusion_lat": 0.0, "lon": -77.03865366666666, "name": "46df194be98daf47b19d786a62abd2bb"}, {"bike_id": "4e564ef5e82561cd6783bbc075a7fcee", "type": "electric_scooter", "is_disabled": 0, "lat": 38.910554, "rental_uris": {"ios": "https://dc.lft.to/lastmile_qr_scan", "android": "https://dc.lft.to/lastmile_qr_scan"}, "is_reserved": 0, "fusion_lon": 0.0, "fusion_lat": 0.0, "lon": -77.05285233333333, "name": "4e564ef5e82561cd6783bbc075a7fcee"}, {"bike_id": "ac223f461e3f7a1cc3175327f91e486c", "type": "electric_scooter", "is_disabled": 0, "lat": 38.865692833333334, "rental_uris": {"ios": "https://dc.lft.to/lastmile_qr_scan", "android": "https://dc.lft.to/lastmile_qr_scan"}, "is_reserved": 0, "fusion_lon": 0.0, "fusion_lat": 0.0, "lon": -76.98215283333333, "name": "ac223f461e3f7a1cc3175327f91e486c"}, {"bike_id": "eafdea1979b3decb67692fef17d533c2", "type": "electric_scooter", "is_disabled": 0, "lat": 38.88744416666667, "rental_uris": {"ios": "https://dc.lft.to/lastmile_qr_scan", "android": "https://dc.lft.to/lastmile_qr_scan"}, "is_reserved": 0, "fusion_lon": 0.0, "fusion_lat": 0.0, "lon": -76.99629166666666, "name": "eafdea1979b3decb67692fef17d533c2"}, {"bike_id": "0cba6878c9989aba5a4823701895dc5c", "type": "electric_scooter", "is_disabled": 0, "lat": 38.93334933333333, "rental_uris": {"ios": "https://dc.lft.to/lastmile_qr_scan", "android": "https://dc.lft.to/lastmile_qr_scan"}, "is_reserved": 0, "fusion_lon": 0.0, "fusion_lat": 0.0, "lon": -77.03990783333333, "name": "0cba6878c9989aba5a4823701895dc5c"}, {"bike_id": "82cf1c0582f77d61643d28037e952693", "type": "electric_scooter", "is_disabled": 0, "lat": 38.88880066666667, "rental_uris": {"ios": "https://dc.lft.to/lastmile_qr_scan", "android": "https://dc.lft.to/lastmile_qr_scan"}, "is_reserved": 0, "fusion_lon": 0.0, "fusion_lat": 0.0, "lon": -76.99037083333333, "name": "82cf1c0582f77d61643d28037e952693"}, {"bike_id": "78885c75662fc68e1c1cd67c2c188cd4", "type": "electric_scooter", "is_disabled": 0, "lat": 38.905250333333335, "rental_uris": {"ios": "https://dc.lft.to/lastmile_qr_scan", "android": "https://dc.lft.to/lastmile_qr_scan"}, "is_reserved": 0, "fusion_lon": 0.0, "fusion_lat": 0.0, "lon": -76.99635983333333, "name": "78885c75662fc68e1c1cd67c2c188cd4"}, {"bike_id": "1777beeb08f07f3fd3be8608fd40cceb", "type": "electric_scooter", "is_disabled": 0, "lat": 38.9547525, "rental_uris": {"ios": "https://dc.lft.to/lastmile_qr_scan", "android": "https://dc.lft.to/lastmile_qr_scan"}, "is_reserved": 0, "fusion_lon": 0.0, "fusion_lat": 0.0, "lon": -77.09248766666667, "name": "1777beeb08f07f3fd3be8608fd40cceb"}, {"bike_id": "749bcecc2dd2791050767bf0b81f0c8d", "type": "electric_scooter", "is_disabled": 0, "lat": 38.919531166666665, "rental_uris": {"ios": "https://dc.lft.to/lastmile_qr_scan", "android": "https://dc.lft.to/lastmile_qr_scan"}, "is_reserved": 0, "fusion_lon": 0.0, "fusion_lat": 0.0, "lon": -77.0248965, "name": "749bcecc2dd2791050767bf0b81f0c8d"}, {"bike_id": "69eac8c6676e3c168e3f52ac83508460", "type": "electric_scooter", "is_disabled": 0, "lat": 38.942894333333335, "rental_uris": {"ios": "https://dc.lft.to/lastmile_qr_scan", "android": "https://dc.lft.to/lastmile_qr_scan"}, "is_reserved": 0, "fusion_lon": 0.0, "fusion_lat": 0.0, "lon": -77.02170316666667, "name": "69eac8c6676e3c168e3f52ac83508460"}, {"bike_id": "7fde5de6a55bbc710f554f6c1620d43e", "type": "electric_scooter", "is_disabled": 0, "lat": 38.948382, "rental_uris": {"ios": "https://dc.lft.to/lastmile_qr_scan", "android": "https://dc.lft.to/lastmile_qr_scan"}, "is_reserved": 0, "fusion_lon": 0.0, "fusion_lat": 0.0, "lon": -77.02541616666667, "name": "7fde5de6a55bbc710f554f6c1620d43e"}, {"bike_id": "7b88d191b4fe83ed8d0abb1d518b2e13", "type": "electric_scooter", "is_disabled": 0, "lat": 38.907750666666665, "rental_uris": {"ios": "https://dc.lft.to/lastmile_qr_scan", "android": "https://dc.lft.to/lastmile_qr_scan"}, "is_reserved": 0, "fusion_lon": 0.0, "fusion_lat": 0.0, "lon": -77.04502766666667, "name": "7b88d191b4fe83ed8d0abb1d518b2e13"}, {"bike_id": "51b48ec3f035cee19451efcbaed01bfa", "type": "electric_scooter", "is_disabled": 0, "lat": 38.90174866666667, "rental_uris": {"ios": "https://dc.lft.to/lastmile_qr_scan", "android": "https://dc.lft.to/lastmile_qr_scan"}, "is_reserved": 0, "fusion_lon": 0.0, "fusion_lat": 0.0, "lon": -76.98444716666667, "name": "51b48ec3f035cee19451efcbaed01bfa"}, {"bike_id": "7ebb9c0d403b58bddafdbfbb2451593e", "type": "electric_scooter", "is_disabled": 0, "lat": 38.904249166666666, "rental_uris": {"ios": "https://dc.lft.to/lastmile_qr_scan", "android": "https://dc.lft.to/lastmile_qr_scan"}, "is_reserved": 0, "fusion_lon": 0.0, "fusion_lat": 0.0, "lon": -76.97376766666666, "name": "7ebb9c0d403b58bddafdbfbb2451593e"}, {"bike_id": "afeb4ea92d8a591eede842ff84b0d073", "type": "electric_scooter", "is_disabled": 0, "lat": 38.92451333333333, "rental_uris": {"ios": "https://dc.lft.to/lastmile_qr_scan", "android": "https://dc.lft.to/lastmile_qr_scan"}, "is_reserved": 0, "fusion_lon": 0.0, "fusion_lat": 0.0, "lon": -77.0241175, "name": "afeb4ea92d8a591eede842ff84b0d073"}, {"bike_id": "dcb0088a5822943c78fb20eb096082ff", "type": "electric_bike", "is_disabled": 0, "lat": 38.8540825, "rental_uris": {"ios": "https://dc.lft.to/lastmile_qr_scan", "android": "https://dc.lft.to/lastmile_qr_scan"}, "is_reserved": 0, "fusion_lon": 0.0, "fusion_lat": 0.0, "lon": -77.12080816666666, "name": "dcb0088a5822943c78fb20eb096082ff"}, {"bike_id": "99c4f8c568704c9c1b71bc988261f63a", "type": "electric_scooter", "is_disabled": 0, "lat": 38.9079125, "rental_uris": {"ios": "https://dc.lft.to/lastmile_qr_scan", "android": "https://dc.lft.to/lastmile_qr_scan"}, "is_reserved": 0, "fusion_lon": 0.0, "fusion_lat": 0.0, "lon": -77.00200266666667, "name": "99c4f8c568704c9c1b71bc988261f63a"}, {"bike_id": "5039bf2c92abc3e0979d94711d9f7f07", "type": "electric_scooter", "is_disabled": 0, "lat": 38.9072435, "rental_uris": {"ios": "https://dc.lft.to/lastmile_qr_scan", "android": "https://dc.lft.to/lastmile_qr_scan"}, "is_reserved": 0, "fusion_lon": 0.0, "fusion_lat": 0.0, "lon": -77.01023833333333, "name": "5039bf2c92abc3e0979d94711d9f7f07"}, {"bike_id": "af9ac7cea294f8c410992e14f3caa977", "type": "electric_bike", "is_disabled": 0, "lat": 38.89995533333333, "rental_uris": {"ios": "https://dc.lft.to/lastmile_qr_scan", "android": "https://dc.lft.to/lastmile_qr_scan"}, "is_reserved": 0, "fusion_lon": 0.0, "fusion_lat": 0.0, "lon": -77.0754265, "name": "af9ac7cea294f8c410992e14f3caa977"}, {"bike_id": "1cddfc1152394e78d0d09483f635bfbb", "type": "electric_bike", "is_disabled": 0, "lat": 38.95333466666666, "rental_uris": {"ios": "https://dc.lft.to/lastmile_qr_scan", "android": "https://dc.lft.to/lastmile_qr_scan"}, "is_reserved": 0, "fusion_lon": 0.0, "fusion_lat": 0.0, "lon": -76.98250733333333, "name": "1cddfc1152394e78d0d09483f635bfbb"}, {"bike_id": "9d9fdde5c1bda42af0e83839db90d5d4", "type": "electric_scooter", "is_disabled": 0, "lat": 38.92267866666667, "rental_uris": {"ios": "https://dc.lft.to/lastmile_qr_scan", "android": "https://dc.lft.to/lastmile_qr_scan"}, "is_reserved": 0, "fusion_lon": 0.0, "fusion_lat": 0.0, "lon": -76.99450116666667, "name": "9d9fdde5c1bda42af0e83839db90d5d4"}, {"bike_id": "1615a8d976fb2b5826ac7271683c62a8", "type": "electric_scooter", "is_disabled": 0, "lat": 38.9223335, "rental_uris": {"ios": "https://dc.lft.to/lastmile_qr_scan", "android": "https://dc.lft.to/lastmile_qr_scan"}, "is_reserved": 0, "fusion_lon": 0.0, "fusion_lat": 0.0, "lon": -76.973441, "name": "1615a8d976fb2b5826ac7271683c62a8"}, {"bike_id": "40af5fa62365af0ad20f0bee25f19e8f", "type": "electric_bike", "is_disabled": 0, "lat": 38.877129333333336, "rental_uris": {"ios": "https://dc.lft.to/lastmile_qr_scan", "android": "https://dc.lft.to/lastmile_qr_scan"}, "is_reserved": 0, "fusion_lon": 0.0, "fusion_lat": 0.0, "lon": -77.00289983333333, "name": "40af5fa62365af0ad20f0bee25f19e8f"}, {"bike_id": "c5d94794346cf874856a9079710184bb", "type": "electric_scooter", "is_disabled": 0, "lat": 38.922526500000004, "rental_uris": {"ios": "https://dc.lft.to/lastmile_qr_scan", "android": "https://dc.lft.to/lastmile_qr_scan"}, "is_reserved": 0, "fusion_lon": 0.0, "fusion_lat": 0.0, "lon": -77.0388845, "name": "c5d94794346cf874856a9079710184bb"}, {"bike_id": "15953f86c8a1b15223b3eed8fdc4e9e1", "type": "electric_bike", "is_disabled": 0, "lat": 38.81174883333333, "rental_uris": {"ios": "https://dc.lft.to/lastmile_qr_scan", "android": "https://dc.lft.to/lastmile_qr_scan"}, "is_reserved": 0, "fusion_lon": 0.0, "fusion_lat": 0.0, "lon": -77.06964516666666, "name": "15953f86c8a1b15223b3eed8fdc4e9e1"}, {"bike_id": "186cc3d8b3dce69bf2aeca7cf5962314", "type": "electric_scooter", "is_disabled": 0, "lat": 38.919600833333334, "rental_uris": {"ios": "https://dc.lft.to/lastmile_qr_scan", "android": "https://dc.lft.to/lastmile_qr_scan"}, "is_reserved": 0, "fusion_lon": 0.0, "fusion_lat": 0.0, "lon": -77.042155, "name": "186cc3d8b3dce69bf2aeca7cf5962314"}, {"bike_id": "2e44fd028ef24a3f5bd2e7051ee62b22", "type": "electric_scooter", "is_disabled": 0, "lat": 38.905504, "rental_uris": {"ios": "https://dc.lft.to/lastmile_qr_scan", "android": "https://dc.lft.to/lastmile_qr_scan"}, "is_reserved": 0, "fusion_lon": 0.0, "fusion_lat": 0.0, "lon": -76.99619166666666, "name": "2e44fd028ef24a3f5bd2e7051ee62b22"}, {"bike_id": "6953cfb3d56883cfe0e1348f6b0f5eaa", "type": "electric_scooter", "is_disabled": 0, "lat": 38.92655533333333, "rental_uris": {"ios": "https://dc.lft.to/lastmile_qr_scan", "android": "https://dc.lft.to/lastmile_qr_scan"}, "is_reserved": 0, "fusion_lon": 0.0, "fusion_lat": 0.0, "lon": -77.02451866666667, "name": "6953cfb3d56883cfe0e1348f6b0f5eaa"}, {"bike_id": "e1cdef9e6e51cb50b013667a9b524b4d", "type": "electric_scooter", "is_disabled": 0, "lat": 38.92485216666667, "rental_uris": {"ios": "https://dc.lft.to/lastmile_qr_scan", "android": "https://dc.lft.to/lastmile_qr_scan"}, "is_reserved": 0, "fusion_lon": 0.0, "fusion_lat": 0.0, "lon": -77.05218766666667, "name": "e1cdef9e6e51cb50b013667a9b524b4d"}, {"bike_id": "f3de352b8da4c54b7b20ef18be8fd963", "type": "electric_bike", "is_disabled": 0, "lat": 38.906468333333336, "rental_uris": {"ios": "https://dc.lft.to/lastmile_qr_scan", "android": "https://dc.lft.to/lastmile_qr_scan"}, "is_reserved": 0, "fusion_lon": 0.0, "fusion_lat": 0.0, "lon": -77.05129716666667, "name": "f3de352b8da4c54b7b20ef18be8fd963"}, {"bike_id": "28096b76aff7be534014bf7efae2778d", "type": "electric_scooter", "is_disabled": 0, "lat": 38.88426916666667, "rental_uris": {"ios": "https://dc.lft.to/lastmile_qr_scan", "android": "https://dc.lft.to/lastmile_qr_scan"}, "is_reserved": 0, "fusion_lon": 0.0, "fusion_lat": 0.0, "lon": -76.9575285, "name": "28096b76aff7be534014bf7efae2778d"}, {"bike_id": "71310c7250b9e58a58ef6d153d6f9826", "type": "electric_bike", "is_disabled": 0, "lat": 38.8041475, "rental_uris": {"ios": "https://dc.lft.to/lastmile_qr_scan", "android": "https://dc.lft.to/lastmile_qr_scan"}, "is_reserved": 0, "fusion_lon": 0.0, "fusion_lat": 0.0, "lon": -77.0555335, "name": "71310c7250b9e58a58ef6d153d6f9826"}, {"bike_id": "e1c16b3e526ea16b4884b5c73de180b5", "type": "electric_scooter", "is_disabled": 0, "lat": 38.905574666666666, "rental_uris": {"ios": "https://dc.lft.to/lastmile_qr_scan", "android": "https://dc.lft.to/lastmile_qr_scan"}, "is_reserved": 0, "fusion_lon": 0.0, "fusion_lat": 0.0, "lon": -77.006053, "name": "e1c16b3e526ea16b4884b5c73de180b5"}, {"bike_id": "0556651ecd49832ca924ea49b809fd79", "type": "electric_scooter", "is_disabled": 0, "lat": 38.915181833333335, "rental_uris": {"ios": "https://dc.lft.to/lastmile_qr_scan", "android": "https://dc.lft.to/lastmile_qr_scan"}, "is_reserved": 0, "fusion_lon": 0.0, "fusion_lat": 0.0, "lon": -77.012232, "name": "0556651ecd49832ca924ea49b809fd79"}, {"bike_id": "d1b1936bfa0f595bd3f86bfc68a97576", "type": "electric_scooter", "is_disabled": 0, "lat": 38.900612833333334, "rental_uris": {"ios": "https://dc.lft.to/lastmile_qr_scan", "android": "https://dc.lft.to/lastmile_qr_scan"}, "is_reserved": 0, "fusion_lon": 0.0, "fusion_lat": 0.0, "lon": -77.0364125, "name": "d1b1936bfa0f595bd3f86bfc68a97576"}, {"bike_id": "53feb7dad93deadfa7afae2ee17726a7", "type": "electric_scooter", "is_disabled": 0, "lat": 38.90707583333333, "rental_uris": {"ios": "https://dc.lft.to/lastmile_qr_scan", "android": "https://dc.lft.to/lastmile_qr_scan"}, "is_reserved": 0, "fusion_lon": 0.0, "fusion_lat": 0.0, "lon": -77.0238455, "name": "53feb7dad93deadfa7afae2ee17726a7"}, {"bike_id": "d01851af9ffdb1810b2432a99a4b85c0", "type": "electric_scooter", "is_disabled": 0, "lat": 38.9402595, "rental_uris": {"ios": "https://dc.lft.to/lastmile_qr_scan", "android": "https://dc.lft.to/lastmile_qr_scan"}, "is_reserved": 0, "fusion_lon": 0.0, "fusion_lat": 0.0, "lon": -77.0277255, "name": "d01851af9ffdb1810b2432a99a4b85c0"}, {"bike_id": "b6402765a9a96d102f17f23d685bad75", "type": "electric_scooter", "is_disabled": 0, "lat": 38.90820266666667, "rental_uris": {"ios": "https://dc.lft.to/lastmile_qr_scan", "android": "https://dc.lft.to/lastmile_qr_scan"}, "is_reserved": 0, "fusion_lon": 0.0, "fusion_lat": 0.0, "lon": -77.034462, "name": "b6402765a9a96d102f17f23d685bad75"}, {"bike_id": "902c6b55af05aa695fbe53f9a2074f47", "type": "electric_scooter", "is_disabled": 0, "lat": 38.92221083333333, "rental_uris": {"ios": "https://dc.lft.to/lastmile_qr_scan", "android": "https://dc.lft.to/lastmile_qr_scan"}, "is_reserved": 0, "fusion_lon": 0.0, "fusion_lat": 0.0, "lon": -77.03454916666666, "name": "902c6b55af05aa695fbe53f9a2074f47"}, {"bike_id": "f1ce80560971b672f69b6bcb30efce07", "type": "electric_scooter", "is_disabled": 0, "lat": 38.920966666666665, "rental_uris": {"ios": "https://dc.lft.to/lastmile_qr_scan", "android": "https://dc.lft.to/lastmile_qr_scan"}, "is_reserved": 0, "fusion_lon": 0.0, "fusion_lat": 0.0, "lon": -77.025159, "name": "f1ce80560971b672f69b6bcb30efce07"}, {"bike_id": "dc8eba847b6ea0ebccd29b6ec90195ca", "type": "electric_scooter", "is_disabled": 0, "lat": 38.917057666666665, "rental_uris": {"ios": "https://dc.lft.to/lastmile_qr_scan", "android": "https://dc.lft.to/lastmile_qr_scan"}, "is_reserved": 0, "fusion_lon": 0.0, "fusion_lat": 0.0, "lon": -77.04616033333333, "name": "dc8eba847b6ea0ebccd29b6ec90195ca"}, {"bike_id": "0fd3d814d3c6a7795a9c1c02303a48e0", "type": "electric_scooter", "is_disabled": 0, "lat": 38.892964, "rental_uris": {"ios": "https://dc.lft.to/lastmile_qr_scan", "android": "https://dc.lft.to/lastmile_qr_scan"}, "is_reserved": 0, "fusion_lon": 0.0, "fusion_lat": 0.0, "lon": -77.04873183333333, "name": "0fd3d814d3c6a7795a9c1c02303a48e0"}, {"bike_id": "77a0796448b9c18a9b1e17036f73d343", "type": "electric_scooter", "is_disabled": 0, "lat": 38.909716833333334, "rental_uris": {"ios": "https://dc.lft.to/lastmile_qr_scan", "android": "https://dc.lft.to/lastmile_qr_scan"}, "is_reserved": 0, "fusion_lon": 0.0, "fusion_lat": 0.0, "lon": -77.033018, "name": "77a0796448b9c18a9b1e17036f73d343"}, {"bike_id": "7a5ab0643bee25b81f0c306e47233fa2", "type": "electric_scooter", "is_disabled": 0, "lat": 38.90373916666667, "rental_uris": {"ios": "https://dc.lft.to/lastmile_qr_scan", "android": "https://dc.lft.to/lastmile_qr_scan"}, "is_reserved": 0, "fusion_lon": 0.0, "fusion_lat": 0.0, "lon": -77.03841, "name": "7a5ab0643bee25b81f0c306e47233fa2"}, {"bike_id": "ad5ff2e56ac87d58587bcec7b2260c96", "type": "electric_bike", "is_disabled": 0, "lat": 39.03989983333334, "rental_uris": {"ios": "https://dc.lft.to/lastmile_qr_scan", "android": "https://dc.lft.to/lastmile_qr_scan"}, "is_reserved": 0, "fusion_lon": 0.0, "fusion_lat": 0.0, "lon": -76.9992955, "name": "ad5ff2e56ac87d58587bcec7b2260c96"}, {"bike_id": "bba5a06aa6133d64bee36c56fe570848", "type": "electric_scooter", "is_disabled": 0, "lat": 38.9026115, "rental_uris": {"ios": "https://dc.lft.to/lastmile_qr_scan", "android": "https://dc.lft.to/lastmile_qr_scan"}, "is_reserved": 0, "fusion_lon": 0.0, "fusion_lat": 0.0, "lon": -76.97551, "name": "bba5a06aa6133d64bee36c56fe570848"}, {"bike_id": "06d472b43a87ee722affc01e593426f1", "type": "electric_scooter", "is_disabled": 0, "lat": 38.89729766666667, "rental_uris": {"ios": "https://dc.lft.to/lastmile_qr_scan", "android": "https://dc.lft.to/lastmile_qr_scan"}, "is_reserved": 0, "fusion_lon": 0.0, "fusion_lat": 0.0, "lon": -77.05473733333334, "name": "06d472b43a87ee722affc01e593426f1"}, {"bike_id": "97fd94cb2e71eb2c4c90897152f9f01c", "type": "electric_bike", "is_disabled": 0, "lat": 38.9447655, "rental_uris": {"ios": "https://dc.lft.to/lastmile_qr_scan", "android": "https://dc.lft.to/lastmile_qr_scan"}, "is_reserved": 0, "fusion_lon": 0.0, "fusion_lat": 0.0, "lon": -76.9868455, "name": "97fd94cb2e71eb2c4c90897152f9f01c"}, {"bike_id": "76d0c510bf9c6aa0e3b6e6b643572c47", "type": "electric_bike", "is_disabled": 0, "lat": 38.84970233333333, "rental_uris": {"ios": "https://dc.lft.to/lastmile_qr_scan", "android": "https://dc.lft.to/lastmile_qr_scan"}, "is_reserved": 0, "fusion_lon": 0.0, "fusion_lat": 0.0, "lon": -77.07759783333333, "name": "76d0c510bf9c6aa0e3b6e6b643572c47"}, {"bike_id": "7b1a2827bffd0b7afc533aaee54edebe", "type": "electric_scooter", "is_disabled": 0, "lat": 38.905965, "rental_uris": {"ios": "https://dc.lft.to/lastmile_qr_scan", "android": "https://dc.lft.to/lastmile_qr_scan"}, "is_reserved": 0, "fusion_lon": 0.0, "fusion_lat": 0.0, "lon": -77.0270725, "name": "7b1a2827bffd0b7afc533aaee54edebe"}, {"bike_id": "7491b252c8e05cbe298f1756a5b1184d", "type": "electric_scooter", "is_disabled": 0, "lat": 38.9122825, "rental_uris": {"ios": "https://dc.lft.to/lastmile_qr_scan", "android": "https://dc.lft.to/lastmile_qr_scan"}, "is_reserved": 0, "fusion_lon": 0.0, "fusion_lat": 0.0, "lon": -76.98790466666667, "name": "7491b252c8e05cbe298f1756a5b1184d"}, {"bike_id": "c14639622a19962db762aee917d34b40", "type": "electric_scooter", "is_disabled": 0, "lat": 38.915076666666664, "rental_uris": {"ios": "https://dc.lft.to/lastmile_qr_scan", "android": "https://dc.lft.to/lastmile_qr_scan"}, "is_reserved": 0, "fusion_lon": 0.0, "fusion_lat": 0.0, "lon": -77.017779, "name": "c14639622a19962db762aee917d34b40"}, {"bike_id": "f9793b3503d08db9209c9822bb8736cd", "type": "electric_scooter", "is_disabled": 0, "lat": 38.92262066666667, "rental_uris": {"ios": "https://dc.lft.to/lastmile_qr_scan", "android": "https://dc.lft.to/lastmile_qr_scan"}, "is_reserved": 0, "fusion_lon": 0.0, "fusion_lat": 0.0, "lon": -77.03709366666666, "name": "f9793b3503d08db9209c9822bb8736cd"}, {"bike_id": "6ad01aec09f8781c0afbf2b84d3b5a77", "type": "electric_scooter", "is_disabled": 0, "lat": 38.94143716666667, "rental_uris": {"ios": "https://dc.lft.to/lastmile_qr_scan", "android": "https://dc.lft.to/lastmile_qr_scan"}, "is_reserved": 0, "fusion_lon": 0.0, "fusion_lat": 0.0, "lon": -77.09265066666667, "name": "6ad01aec09f8781c0afbf2b84d3b5a77"}, {"bike_id": "7c69e52f20561e73203b06ba7fdc87f9", "type": "electric_scooter", "is_disabled": 0, "lat": 38.9041595, "rental_uris": {"ios": "https://dc.lft.to/lastmile_qr_scan", "android": "https://dc.lft.to/lastmile_qr_scan"}, "is_reserved": 0, "fusion_lon": 0.0, "fusion_lat": 0.0, "lon": -77.06884, "name": "7c69e52f20561e73203b06ba7fdc87f9"}, {"bike_id": "1109700e95560f02d1d6abcefdc168f3", "type": "electric_scooter", "is_disabled": 0, "lat": 38.86657783333333, "rental_uris": {"ios": "https://dc.lft.to/lastmile_qr_scan", "android": "https://dc.lft.to/lastmile_qr_scan"}, "is_reserved": 0, "fusion_lon": 0.0, "fusion_lat": 0.0, "lon": -76.9888535, "name": "1109700e95560f02d1d6abcefdc168f3"}, {"bike_id": "9cd5f9612fa0657684a92f6edef392e7", "type": "electric_scooter", "is_disabled": 0, "lat": 38.9267205, "rental_uris": {"ios": "https://dc.lft.to/lastmile_qr_scan", "android": "https://dc.lft.to/lastmile_qr_scan"}, "is_reserved": 0, "fusion_lon": 0.0, "fusion_lat": 0.0, "lon": -77.031976, "name": "9cd5f9612fa0657684a92f6edef392e7"}, {"bike_id": "7a1c98cadacdc43aea51052b6b97f9ac", "type": "electric_scooter", "is_disabled": 0, "lat": 38.9171755, "rental_uris": {"ios": "https://dc.lft.to/lastmile_qr_scan", "android": "https://dc.lft.to/lastmile_qr_scan"}, "is_reserved": 0, "fusion_lon": 0.0, "fusion_lat": 0.0, "lon": -77.01198533333333, "name": "7a1c98cadacdc43aea51052b6b97f9ac"}, {"bike_id": "899d04005d6bac92a9163a59cf9f7e63", "type": "electric_scooter", "is_disabled": 0, "lat": 38.9281405, "rental_uris": {"ios": "https://dc.lft.to/lastmile_qr_scan", "android": "https://dc.lft.to/lastmile_qr_scan"}, "is_reserved": 0, "fusion_lon": 0.0, "fusion_lat": 0.0, "lon": -77.02811483333333, "name": "899d04005d6bac92a9163a59cf9f7e63"}, {"bike_id": "aa735e893ac94d7407a0ecb9aacb3ea1", "type": "electric_scooter", "is_disabled": 0, "lat": 38.9081485, "rental_uris": {"ios": "https://dc.lft.to/lastmile_qr_scan", "android": "https://dc.lft.to/lastmile_qr_scan"}, "is_reserved": 0, "fusion_lon": 0.0, "fusion_lat": 0.0, "lon": -77.0344145, "name": "aa735e893ac94d7407a0ecb9aacb3ea1"}, {"bike_id": "b1b669710a0d52a896c637d2405454e0", "type": "electric_scooter", "is_disabled": 0, "lat": 38.951923666666666, "rental_uris": {"ios": "https://dc.lft.to/lastmile_qr_scan", "android": "https://dc.lft.to/lastmile_qr_scan"}, "is_reserved": 0, "fusion_lon": 0.0, "fusion_lat": 0.0, "lon": -77.02615816666666, "name": "b1b669710a0d52a896c637d2405454e0"}, {"bike_id": "5aa55339bc515d6bb093c014f778206a", "type": "electric_scooter", "is_disabled": 0, "lat": 38.90815683333334, "rental_uris": {"ios": "https://dc.lft.to/lastmile_qr_scan", "android": "https://dc.lft.to/lastmile_qr_scan"}, "is_reserved": 0, "fusion_lon": 0.0, "fusion_lat": 0.0, "lon": -77.03669083333334, "name": "5aa55339bc515d6bb093c014f778206a"}, {"bike_id": "4cde5bc2adf29d6df5c8f029f6919a75", "type": "electric_scooter", "is_disabled": 0, "lat": 38.899123833333334, "rental_uris": {"ios": "https://dc.lft.to/lastmile_qr_scan", "android": "https://dc.lft.to/lastmile_qr_scan"}, "is_reserved": 0, "fusion_lon": 0.0, "fusion_lat": 0.0, "lon": -76.93369116666666, "name": "4cde5bc2adf29d6df5c8f029f6919a75"}, {"bike_id": "c36c6006741f1aee8793fee65331dc96", "type": "electric_bike", "is_disabled": 0, "lat": 38.92375583333333, "rental_uris": {"ios": "https://dc.lft.to/lastmile_qr_scan", "android": "https://dc.lft.to/lastmile_qr_scan"}, "is_reserved": 0, "fusion_lon": 0.0, "fusion_lat": 0.0, "lon": -77.00212083333334, "name": "c36c6006741f1aee8793fee65331dc96"}, {"bike_id": "3eb400653264969e5f891aadb96b5e0c", "type": "electric_scooter", "is_disabled": 0, "lat": 38.882774833333336, "rental_uris": {"ios": "https://dc.lft.to/lastmile_qr_scan", "android": "https://dc.lft.to/lastmile_qr_scan"}, "is_reserved": 0, "fusion_lon": 0.0, "fusion_lat": 0.0, "lon": -76.98775466666666, "name": "3eb400653264969e5f891aadb96b5e0c"}, {"bike_id": "ce7cc97ea6735261de4e2652d693a020", "type": "electric_scooter", "is_disabled": 0, "lat": 38.916829166666666, "rental_uris": {"ios": "https://dc.lft.to/lastmile_qr_scan", "android": "https://dc.lft.to/lastmile_qr_scan"}, "is_reserved": 0, "fusion_lon": 0.0, "fusion_lat": 0.0, "lon": -77.0296685, "name": "ce7cc97ea6735261de4e2652d693a020"}, {"bike_id": "7563841e59692af224e544d4371bfe77", "type": "electric_scooter", "is_disabled": 0, "lat": 38.90562383333334, "rental_uris": {"ios": "https://dc.lft.to/lastmile_qr_scan", "android": "https://dc.lft.to/lastmile_qr_scan"}, "is_reserved": 0, "fusion_lon": 0.0, "fusion_lat": 0.0, "lon": -77.02811266666667, "name": "7563841e59692af224e544d4371bfe77"}, {"bike_id": "23f98e04c209c08197710c8b92b259e1", "type": "electric_scooter", "is_disabled": 0, "lat": 38.95856116666667, "rental_uris": {"ios": "https://dc.lft.to/lastmile_qr_scan", "android": "https://dc.lft.to/lastmile_qr_scan"}, "is_reserved": 0, "fusion_lon": 0.0, "fusion_lat": 0.0, "lon": -77.02793416666667, "name": "23f98e04c209c08197710c8b92b259e1"}, {"bike_id": "e90507405ba10b3ada6929599060be55", "type": "electric_scooter", "is_disabled": 0, "lat": 38.936048, "rental_uris": {"ios": "https://dc.lft.to/lastmile_qr_scan", "android": "https://dc.lft.to/lastmile_qr_scan"}, "is_reserved": 0, "fusion_lon": 0.0, "fusion_lat": 0.0, "lon": -77.056023, "name": "e90507405ba10b3ada6929599060be55"}, {"bike_id": "b592ba4b2f11b97dacedab4b1120d945", "type": "electric_scooter", "is_disabled": 0, "lat": 38.90807316666667, "rental_uris": {"ios": "https://dc.lft.to/lastmile_qr_scan", "android": "https://dc.lft.to/lastmile_qr_scan"}, "is_reserved": 0, "fusion_lon": 0.0, "fusion_lat": 0.0, "lon": -77.03065983333333, "name": "b592ba4b2f11b97dacedab4b1120d945"}, {"bike_id": "d6c4ba478496a63c4484847dd3c69153", "type": "electric_scooter", "is_disabled": 0, "lat": 38.93085283333333, "rental_uris": {"ios": "https://dc.lft.to/lastmile_qr_scan", "android": "https://dc.lft.to/lastmile_qr_scan"}, "is_reserved": 0, "fusion_lon": 0.0, "fusion_lat": 0.0, "lon": -77.03739466666667, "name": "d6c4ba478496a63c4484847dd3c69153"}, {"bike_id": "9dc7917d210750c46001592a8cbaee09", "type": "electric_scooter", "is_disabled": 0, "lat": 38.94260166666667, "rental_uris": {"ios": "https://dc.lft.to/lastmile_qr_scan", "android": "https://dc.lft.to/lastmile_qr_scan"}, "is_reserved": 0, "fusion_lon": 0.0, "fusion_lat": 0.0, "lon": -77.02527133333334, "name": "9dc7917d210750c46001592a8cbaee09"}, {"bike_id": "32753ec398eee0e66e5f95bab70ae943", "type": "electric_scooter", "is_disabled": 0, "lat": 38.915619166666666, "rental_uris": {"ios": "https://dc.lft.to/lastmile_qr_scan", "android": "https://dc.lft.to/lastmile_qr_scan"}, "is_reserved": 0, "fusion_lon": 0.0, "fusion_lat": 0.0, "lon": -77.03175933333333, "name": "32753ec398eee0e66e5f95bab70ae943"}, {"bike_id": "424953de22ebe973fcda87193763888d", "type": "electric_scooter", "is_disabled": 0, "lat": 38.89747166666667, "rental_uris": {"ios": "https://dc.lft.to/lastmile_qr_scan", "android": "https://dc.lft.to/lastmile_qr_scan"}, "is_reserved": 0, "fusion_lon": 0.0, "fusion_lat": 0.0, "lon": -77.00009533333333, "name": "424953de22ebe973fcda87193763888d"}, {"bike_id": "bd85d6e20873d65adc587ba49453389e", "type": "electric_scooter", "is_disabled": 0, "lat": 38.8955025, "rental_uris": {"ios": "https://dc.lft.to/lastmile_qr_scan", "android": "https://dc.lft.to/lastmile_qr_scan"}, "is_reserved": 0, "fusion_lon": 0.0, "fusion_lat": 0.0, "lon": -76.92953366666667, "name": "bd85d6e20873d65adc587ba49453389e"}, {"bike_id": "c88f43c1807d87295fc903899ef72e83", "type": "electric_scooter", "is_disabled": 0, "lat": 38.87293866666667, "rental_uris": {"ios": "https://dc.lft.to/lastmile_qr_scan", "android": "https://dc.lft.to/lastmile_qr_scan"}, "is_reserved": 0, "fusion_lon": 0.0, "fusion_lat": 0.0, "lon": -76.97728683333334, "name": "c88f43c1807d87295fc903899ef72e83"}, {"bike_id": "e52e2ccf92e537f312c348c9192bb6f5", "type": "electric_scooter", "is_disabled": 0, "lat": 38.93156283333333, "rental_uris": {"ios": "https://dc.lft.to/lastmile_qr_scan", "android": "https://dc.lft.to/lastmile_qr_scan"}, "is_reserved": 0, "fusion_lon": 0.0, "fusion_lat": 0.0, "lon": -77.03633283333333, "name": "e52e2ccf92e537f312c348c9192bb6f5"}, {"bike_id": "f9a31081e591db88cbf9d01f4c796dbb", "type": "electric_scooter", "is_disabled": 0, "lat": 38.92043483333333, "rental_uris": {"ios": "https://dc.lft.to/lastmile_qr_scan", "android": "https://dc.lft.to/lastmile_qr_scan"}, "is_reserved": 0, "fusion_lon": 0.0, "fusion_lat": 0.0, "lon": -77.0339265, "name": "f9a31081e591db88cbf9d01f4c796dbb"}, {"bike_id": "1713f5c99cee297b16b8b8e2afe70dce", "type": "electric_scooter", "is_disabled": 0, "lat": 38.91290766666667, "rental_uris": {"ios": "https://dc.lft.to/lastmile_qr_scan", "android": "https://dc.lft.to/lastmile_qr_scan"}, "is_reserved": 0, "fusion_lon": 0.0, "fusion_lat": 0.0, "lon": -77.046584, "name": "1713f5c99cee297b16b8b8e2afe70dce"}, {"bike_id": "bfffe60944c044f75a552c790758a35d", "type": "electric_scooter", "is_disabled": 0, "lat": 38.909826833333334, "rental_uris": {"ios": "https://dc.lft.to/lastmile_qr_scan", "android": "https://dc.lft.to/lastmile_qr_scan"}, "is_reserved": 0, "fusion_lon": 0.0, "fusion_lat": 0.0, "lon": -77.03344883333334, "name": "bfffe60944c044f75a552c790758a35d"}, {"bike_id": "fe87526b79211e61e60844e9ca74049a", "type": "electric_scooter", "is_disabled": 0, "lat": 38.894963, "rental_uris": {"ios": "https://dc.lft.to/lastmile_qr_scan", "android": "https://dc.lft.to/lastmile_qr_scan"}, "is_reserved": 0, "fusion_lon": 0.0, "fusion_lat": 0.0, "lon": -77.00061933333333, "name": "fe87526b79211e61e60844e9ca74049a"}, {"bike_id": "9081f4f3a4e74515625566fbd6b5922d", "type": "electric_scooter", "is_disabled": 0, "lat": 38.89960416666667, "rental_uris": {"ios": "https://dc.lft.to/lastmile_qr_scan", "android": "https://dc.lft.to/lastmile_qr_scan"}, "is_reserved": 0, "fusion_lon": 0.0, "fusion_lat": 0.0, "lon": -76.98304066666667, "name": "9081f4f3a4e74515625566fbd6b5922d"}, {"bike_id": "66b5379ee57d1587097c37d5a408f76b", "type": "electric_scooter", "is_disabled": 0, "lat": 38.917142166666665, "rental_uris": {"ios": "https://dc.lft.to/lastmile_qr_scan", "android": "https://dc.lft.to/lastmile_qr_scan"}, "is_reserved": 0, "fusion_lon": 0.0, "fusion_lat": 0.0, "lon": -77.02890783333334, "name": "66b5379ee57d1587097c37d5a408f76b"}, {"bike_id": "79c2b51b7673ac9b7cc4c20b66163c3b", "type": "electric_scooter", "is_disabled": 0, "lat": 38.904727, "rental_uris": {"ios": "https://dc.lft.to/lastmile_qr_scan", "android": "https://dc.lft.to/lastmile_qr_scan"}, "is_reserved": 0, "fusion_lon": 0.0, "fusion_lat": 0.0, "lon": -77.00919433333334, "name": "79c2b51b7673ac9b7cc4c20b66163c3b"}, {"bike_id": "ab5e00dd9272a01c2b5b6f17a817294c", "type": "electric_scooter", "is_disabled": 0, "lat": 38.9456245, "rental_uris": {"ios": "https://dc.lft.to/lastmile_qr_scan", "android": "https://dc.lft.to/lastmile_qr_scan"}, "is_reserved": 0, "fusion_lon": 0.0, "fusion_lat": 0.0, "lon": -77.07123916666667, "name": "ab5e00dd9272a01c2b5b6f17a817294c"}, {"bike_id": "05d432c87561a0468ec9b052ad85192b", "type": "electric_bike", "is_disabled": 0, "lat": 38.9578235, "rental_uris": {"ios": "https://dc.lft.to/lastmile_qr_scan", "android": "https://dc.lft.to/lastmile_qr_scan"}, "is_reserved": 0, "fusion_lon": 0.0, "fusion_lat": 0.0, "lon": -77.020008, "name": "05d432c87561a0468ec9b052ad85192b"}, {"bike_id": "f66e0432b9c6e12d32e262a2620dcfae", "type": "electric_scooter", "is_disabled": 0, "lat": 38.88451, "rental_uris": {"ios": "https://dc.lft.to/lastmile_qr_scan", "android": "https://dc.lft.to/lastmile_qr_scan"}, "is_reserved": 0, "fusion_lon": 0.0, "fusion_lat": 0.0, "lon": -76.95096933333333, "name": "f66e0432b9c6e12d32e262a2620dcfae"}, {"bike_id": "adcb21610d1da0bea0e531eb1025fd62", "type": "electric_scooter", "is_disabled": 0, "lat": 38.905598499999996, "rental_uris": {"ios": "https://dc.lft.to/lastmile_qr_scan", "android": "https://dc.lft.to/lastmile_qr_scan"}, "is_reserved": 0, "fusion_lon": 0.0, "fusion_lat": 0.0, "lon": -77.00634966666667, "name": "adcb21610d1da0bea0e531eb1025fd62"}, {"bike_id": "48102c5686964373cf8ce8cccac0b592", "type": "electric_scooter", "is_disabled": 0, "lat": 38.915895, "rental_uris": {"ios": "https://dc.lft.to/lastmile_qr_scan", "android": "https://dc.lft.to/lastmile_qr_scan"}, "is_reserved": 0, "fusion_lon": 0.0, "fusion_lat": 0.0, "lon": -77.001983, "name": "48102c5686964373cf8ce8cccac0b592"}, {"bike_id": "729dbdcde936c0830e51d1f4ea5c4cf4", "type": "electric_bike", "is_disabled": 0, "lat": 38.858933, "rental_uris": {"ios": "https://dc.lft.to/lastmile_qr_scan", "android": "https://dc.lft.to/lastmile_qr_scan"}, "is_reserved": 0, "fusion_lon": 0.0, "fusion_lat": 0.0, "lon": -77.11866533333334, "name": "729dbdcde936c0830e51d1f4ea5c4cf4"}, {"bike_id": "5737950bb2b88d70f664da78728dc73f", "type": "electric_scooter", "is_disabled": 0, "lat": 38.904129166666664, "rental_uris": {"ios": "https://dc.lft.to/lastmile_qr_scan", "android": "https://dc.lft.to/lastmile_qr_scan"}, "is_reserved": 0, "fusion_lon": 0.0, "fusion_lat": 0.0, "lon": -76.97332533333334, "name": "5737950bb2b88d70f664da78728dc73f"}, {"bike_id": "cb867dc270b12c49a5f1054dfb999396", "type": "electric_scooter", "is_disabled": 0, "lat": 38.909545666666666, "rental_uris": {"ios": "https://dc.lft.to/lastmile_qr_scan", "android": "https://dc.lft.to/lastmile_qr_scan"}, "is_reserved": 0, "fusion_lon": 0.0, "fusion_lat": 0.0, "lon": -77.04786683333333, "name": "cb867dc270b12c49a5f1054dfb999396"}, {"bike_id": "2ffc809748fbfd833ca9a177c2321f48", "type": "electric_scooter", "is_disabled": 0, "lat": 38.93621183333333, "rental_uris": {"ios": "https://dc.lft.to/lastmile_qr_scan", "android": "https://dc.lft.to/lastmile_qr_scan"}, "is_reserved": 0, "fusion_lon": 0.0, "fusion_lat": 0.0, "lon": -76.97611833333333, "name": "2ffc809748fbfd833ca9a177c2321f48"}, {"bike_id": "96b00a895f45ce447edbbc6e1317d804", "type": "electric_scooter", "is_disabled": 0, "lat": 38.894806, "rental_uris": {"ios": "https://dc.lft.to/lastmile_qr_scan", "android": "https://dc.lft.to/lastmile_qr_scan"}, "is_reserved": 0, "fusion_lon": 0.0, "fusion_lat": 0.0, "lon": -76.9486075, "name": "96b00a895f45ce447edbbc6e1317d804"}, {"bike_id": "b82538cddfe89daa1ce9518507fa548b", "type": "electric_scooter", "is_disabled": 0, "lat": 38.8762665, "rental_uris": {"ios": "https://dc.lft.to/lastmile_qr_scan", "android": "https://dc.lft.to/lastmile_qr_scan"}, "is_reserved": 0, "fusion_lon": 0.0, "fusion_lat": 0.0, "lon": -77.00406066666666, "name": "b82538cddfe89daa1ce9518507fa548b"}, {"bike_id": "d85d6cdfb7963dec838c07a4d13a8aaf", "type": "electric_scooter", "is_disabled": 0, "lat": 38.93145033333333, "rental_uris": {"ios": "https://dc.lft.to/lastmile_qr_scan", "android": "https://dc.lft.to/lastmile_qr_scan"}, "is_reserved": 0, "fusion_lon": 0.0, "fusion_lat": 0.0, "lon": -77.0334865, "name": "d85d6cdfb7963dec838c07a4d13a8aaf"}, {"bike_id": "2e8b91f62800548913436050bcccce32", "type": "electric_scooter", "is_disabled": 0, "lat": 38.901843666666664, "rental_uris": {"ios": "https://dc.lft.to/lastmile_qr_scan", "android": "https://dc.lft.to/lastmile_qr_scan"}, "is_reserved": 0, "fusion_lon": 0.0, "fusion_lat": 0.0, "lon": -77.01294133333333, "name": "2e8b91f62800548913436050bcccce32"}, {"bike_id": "c8c290c523052246bea46d398aa656e6", "type": "electric_bike", "is_disabled": 0, "lat": 38.933239, "rental_uris": {"ios": "https://dc.lft.to/lastmile_qr_scan", "android": "https://dc.lft.to/lastmile_qr_scan"}, "is_reserved": 0, "fusion_lon": 0.0, "fusion_lat": 0.0, "lon": -77.0395905, "name": "c8c290c523052246bea46d398aa656e6"}, {"bike_id": "b79fb82aa8bfd12d8fb38189eff0a3ce", "type": "electric_bike", "is_disabled": 0, "lat": 38.97881, "rental_uris": {"ios": "https://dc.lft.to/lastmile_qr_scan", "android": "https://dc.lft.to/lastmile_qr_scan"}, "is_reserved": 0, "fusion_lon": 0.0, "fusion_lat": 0.0, "lon": -77.06028833333333, "name": "b79fb82aa8bfd12d8fb38189eff0a3ce"}, {"bike_id": "17f61440b4841fc5eb81ae168c72d804", "type": "electric_bike", "is_disabled": 0, "lat": 38.996858833333334, "rental_uris": {"ios": "https://dc.lft.to/lastmile_qr_scan", "android": "https://dc.lft.to/lastmile_qr_scan"}, "is_reserved": 0, "fusion_lon": 0.0, "fusion_lat": 0.0, "lon": -77.03799866666667, "name": "17f61440b4841fc5eb81ae168c72d804"}, {"bike_id": "3891812bb634a7334465047bcc66a8ad", "type": "electric_bike", "is_disabled": 0, "lat": 38.896126833333334, "rental_uris": {"ios": "https://dc.lft.to/lastmile_qr_scan", "android": "https://dc.lft.to/lastmile_qr_scan"}, "is_reserved": 0, "fusion_lon": 0.0, "fusion_lat": 0.0, "lon": -76.9073635, "name": "3891812bb634a7334465047bcc66a8ad"}, {"bike_id": "25db14d09a521ff078f60766acf64295", "type": "electric_scooter", "is_disabled": 0, "lat": 38.928965166666664, "rental_uris": {"ios": "https://dc.lft.to/lastmile_qr_scan", "android": "https://dc.lft.to/lastmile_qr_scan"}, "is_reserved": 0, "fusion_lon": 0.0, "fusion_lat": 0.0, "lon": -77.03267916666667, "name": "25db14d09a521ff078f60766acf64295"}, {"bike_id": "680442f0382ef29a66cbf42316673d6d", "type": "electric_scooter", "is_disabled": 0, "lat": 38.947328166666665, "rental_uris": {"ios": "https://dc.lft.to/lastmile_qr_scan", "android": "https://dc.lft.to/lastmile_qr_scan"}, "is_reserved": 0, "fusion_lon": 0.0, "fusion_lat": 0.0, "lon": -77.07864983333333, "name": "680442f0382ef29a66cbf42316673d6d"}, {"bike_id": "83e6111f1e82b3935674265848926252", "type": "electric_scooter", "is_disabled": 0, "lat": 38.915699000000004, "rental_uris": {"ios": "https://dc.lft.to/lastmile_qr_scan", "android": "https://dc.lft.to/lastmile_qr_scan"},