{"data": {"bikes": [{"is_disabled": 0, "is_reserved": 0, "fusion_lat": 0.0, "lat": 38.91110716666667, "fusion_lon": 0.0, "rental_uris": {"ios": "https://dc.lft.to/lastmile_qr_scan", "android": "https://dc.lft.to/lastmile_qr_scan"}, "lon": -77.011526, "bike_id": "2a5d6754fa46b88a91c468983effa662", "type": "electric_scooter", "name": "2a5d6754fa46b88a91c468983effa662"}, {"is_disabled": 0, "is_reserved": 0, "fusion_lat": 0.0, "lat": 38.9234665, "fusion_lon": 0.0, "rental_uris": {"ios": "https://dc.lft.to/lastmile_qr_scan", "android": "https://dc.lft.to/lastmile_qr_scan"}, "lon": -77.01895383333333, "bike_id": "3dc27197ad6bc3f811fa72d3c590704b", "type": "electric_scooter", "name": "3dc27197ad6bc3f811fa72d3c590704b"}, {"is_disabled": 0, "is_reserved": 0, "fusion_lat": 0.0, "lat": 38.90727916666667, "fusion_lon": 0.0, "rental_uris": {"ios": "https://dc.lft.to/lastmile_qr_scan", "android": "https://dc.lft.to/lastmile_qr_scan"}, "lon": -77.07163433333334, "bike_id": "dacc3adc2c580f98e0c861998c10eb1c", "type": "electric_scooter", "name": "dacc3adc2c580f98e0c861998c10eb1c"}, {"is_disabled": 0, "is_reserved": 0, "fusion_lat": 0.0, "lat": 38.897201833333334, "fusion_lon": 0.0, "rental_uris": {"ios": "https://dc.lft.to/lastmile_qr_scan", "android": "https://dc.lft.to/lastmile_qr_scan"}, "lon": -77.02602583333334, "bike_id": "4ae159b39fa1ce47745d92c17faa628c", "type": "electric_scooter", "name": "4ae159b39fa1ce47745d92c17faa628c"}, {"is_disabled": 0, "is_reserved": 0, "fusion_lat": 0.0, "lat": 38.93173983333333, "fusion_lon": 0.0, "rental_uris": {"ios": "https://dc.lft.to/lastmile_qr_scan", "android": "https://dc.lft.to/lastmile_qr_scan"}, "lon": -77.0281605, "bike_id": "64da5dbcbb59f8da55fedd3f3027fc16", "type": "electric_scooter", "name": "64da5dbcbb59f8da55fedd3f3027fc16"}, {"is_disabled": 0, "is_reserved": 0, "fusion_lat": 0.0, "lat": 38.896074666666664, "fusion_lon": 0.0, "rental_uris": {"ios": "https://dc.lft.to/lastmile_qr_scan", "android": "https://dc.lft.to/lastmile_qr_scan"}, "lon": -76.99802833333334, "bike_id": "e987a93772a32f4930beb3795c5283e7", "type": "electric_scooter", "name": "e987a93772a32f4930beb3795c5283e7"}, {"is_disabled": 0, "is_reserved": 0, "fusion_lat": 0.0, "lat": 38.92825216666667, "fusion_lon": 0.0, "rental_uris": {"ios": "https://dc.lft.to/lastmile_qr_scan", "android": "https://dc.lft.to/lastmile_qr_scan"}, "lon": -77.02255833333334, "bike_id": "fa1aae400529bb932d0dc4365c9f346d", "type": "electric_scooter", "name": "fa1aae400529bb932d0dc4365c9f346d"}, {"is_disabled": 0, "is_reserved": 0, "fusion_lat": 0.0, "lat": 38.91212383333333, "fusion_lon": 0.0, "rental_uris": {"ios": "https://dc.lft.to/lastmile_qr_scan", "android": "https://dc.lft.to/lastmile_qr_scan"}, "lon": -77.03857883333333, "bike_id": "7b60e5d30e213eb70c08116727feb086", "type": "electric_scooter", "name": "7b60e5d30e213eb70c08116727feb086"}, {"is_disabled": 0, "is_reserved": 0, "fusion_lat": 0.0, "lat": 38.918348, "fusion_lon": 0.0, "rental_uris": {"ios": "https://dc.lft.to/lastmile_qr_scan", "android": "https://dc.lft.to/lastmile_qr_scan"}, "lon": -77.05318333333334, "bike_id": "e67755e0bda11a42e3800e768129a3c4", "type": "electric_scooter", "name": "e67755e0bda11a42e3800e768129a3c4"}, {"is_disabled": 0, "is_reserved": 0, "fusion_lat": 0.0, "lat": 38.89229316666667, "fusion_lon": 0.0, "rental_uris": {"ios": "https://dc.lft.to/lastmile_qr_scan", "android": "https://dc.lft.to/lastmile_qr_scan"}, "lon": -77.0318835, "bike_id": "cc58d4aca328914ab85909cadb6c1b05", "type": "electric_scooter", "name": "cc58d4aca328914ab85909cadb6c1b05"}, {"is_disabled": 0, "is_reserved": 0, "fusion_lat": 0.0, "lat": 38.8765415, "fusion_lon": 0.0, "rental_uris": {"ios": "https://dc.lft.to/lastmile_qr_scan", "android": "https://dc.lft.to/lastmile_qr_scan"}, "lon": -77.00574916666666, "bike_id": "fd5b5ea97243496b60096dc702f81f59", "type": "electric_scooter", "name": "fd5b5ea97243496b60096dc702f81f59"}, {"is_disabled": 0, "is_reserved": 0, "fusion_lat": 0.0, "lat": 38.85084033333333, "fusion_lon": 0.0, "rental_uris": {"ios": "https://dc.lft.to/lastmile_qr_scan", "android": "https://dc.lft.to/lastmile_qr_scan"}, "lon": -76.9813135, "bike_id": "58e8f0dfdef97246df8d2a6d7698571a", "type": "electric_bike", "name": "58e8f0dfdef97246df8d2a6d7698571a"}, {"is_disabled": 0, "is_reserved": 0, "fusion_lat": 0.0, "lat": 38.92333216666667, "fusion_lon": 0.0, "rental_uris": {"ios": "https://dc.lft.to/lastmile_qr_scan", "android": "https://dc.lft.to/lastmile_qr_scan"}, "lon": -77.04667866666666, "bike_id": "fb003ae89d7557ed6c53b196744ed64d", "type": "electric_scooter", "name": "fb003ae89d7557ed6c53b196744ed64d"}, {"is_disabled": 0, "is_reserved": 0, "fusion_lat": 0.0, "lat": 38.91415766666667, "fusion_lon": 0.0, "rental_uris": {"ios": "https://dc.lft.to/lastmile_qr_scan", "android": "https://dc.lft.to/lastmile_qr_scan"}, "lon": -77.02211166666666, "bike_id": "cb9e46875eb50f9a086653e5391a61af", "type": "electric_scooter", "name": "cb9e46875eb50f9a086653e5391a61af"}, {"is_disabled": 0, "is_reserved": 0, "fusion_lat": 0.0, "lat": 38.905268166666666, "fusion_lon": 0.0, "rental_uris": {"ios": "https://dc.lft.to/lastmile_qr_scan", "android": "https://dc.lft.to/lastmile_qr_scan"}, "lon": -77.05155083333334, "bike_id": "4f25bcfd9b2c06c257f6990a82a02f09", "type": "electric_scooter", "name": "4f25bcfd9b2c06c257f6990a82a02f09"}, {"is_disabled": 0, "is_reserved": 0, "fusion_lat": 0.0, "lat": 38.932906833333334, "fusion_lon": 0.0, "rental_uris": {"ios": "https://dc.lft.to/lastmile_qr_scan", "android": "https://dc.lft.to/lastmile_qr_scan"}, "lon": -77.02314266666667, "bike_id": "4584d24d5b1214bb63e87fb2cca3619a", "type": "electric_scooter", "name": "4584d24d5b1214bb63e87fb2cca3619a"}, {"is_disabled": 0, "is_reserved": 0, "fusion_lat": 0.0, "lat": 38.9007435, "fusion_lon": 0.0, "rental_uris": {"ios": "https://dc.lft.to/lastmile_qr_scan", "android": "https://dc.lft.to/lastmile_qr_scan"}, "lon": -77.04882016666667, "bike_id": "f739e565e092f15103897796675d7667", "type": "electric_scooter", "name": "f739e565e092f15103897796675d7667"}, {"is_disabled": 0, "is_reserved": 0, "fusion_lat": 0.0, "lat": 38.9201105, "fusion_lon": 0.0, "rental_uris": {"ios": "https://dc.lft.to/lastmile_qr_scan", "android": "https://dc.lft.to/lastmile_qr_scan"}, "lon": -77.02209366666666, "bike_id": "0dd8735de467cbf9c65741e20d425d04", "type": "electric_scooter", "name": "0dd8735de467cbf9c65741e20d425d04"}, {"is_disabled": 0, "is_reserved": 0, "fusion_lat": 0.0, "lat": 38.88748616666667, "fusion_lon": 0.0, "rental_uris": {"ios": "https://dc.lft.to/lastmile_qr_scan", "android": "https://dc.lft.to/lastmile_qr_scan"}, "lon": -77.03218916666667, "bike_id": "a8126b3386aabc09a8999f9750edf5af", "type": "electric_scooter", "name": "a8126b3386aabc09a8999f9750edf5af"}, {"is_disabled": 0, "is_reserved": 0, "fusion_lat": 0.0, "lat": 38.92385933333333, "fusion_lon": 0.0, "rental_uris": {"ios": "https://dc.lft.to/lastmile_qr_scan", "android": "https://dc.lft.to/lastmile_qr_scan"}, "lon": -77.04041116666667, "bike_id": "a950c28de246cd3664882a048504331d", "type": "electric_scooter", "name": "a950c28de246cd3664882a048504331d"}, {"is_disabled": 0, "is_reserved": 0, "fusion_lat": 0.0, "lat": 38.965868, "fusion_lon": 0.0, "rental_uris": {"ios": "https://dc.lft.to/lastmile_qr_scan", "android": "https://dc.lft.to/lastmile_qr_scan"}, "lon": -77.02758133333333, "bike_id": "bae8592d599f3f7acbc8551b09474f8b", "type": "electric_scooter", "name": "bae8592d599f3f7acbc8551b09474f8b"}, {"is_disabled": 0, "is_reserved": 0, "fusion_lat": 0.0, "lat": 38.904582, "fusion_lon": 0.0, "rental_uris": {"ios": "https://dc.lft.to/lastmile_qr_scan", "android": "https://dc.lft.to/lastmile_qr_scan"}, "lon": -76.93276933333334, "bike_id": "ff494efae61f14e0287eb1417cb39f91", "type": "electric_scooter", "name": "ff494efae61f14e0287eb1417cb39f91"}, {"is_disabled": 0, "is_reserved": 0, "fusion_lat": 0.0, "lat": 38.919828333333335, "fusion_lon": 0.0, "rental_uris": {"ios": "https://dc.lft.to/lastmile_qr_scan", "android": "https://dc.lft.to/lastmile_qr_scan"}, "lon": -77.04772033333333, "bike_id": "5694db0f1bb0106123d8354d62e3eadf", "type": "electric_scooter", "name": "5694db0f1bb0106123d8354d62e3eadf"}, {"is_disabled": 0, "is_reserved": 0, "fusion_lat": 0.0, "lat": 38.92750316666667, "fusion_lon": 0.0, "rental_uris": {"ios": "https://dc.lft.to/lastmile_qr_scan", "android": "https://dc.lft.to/lastmile_qr_scan"}, "lon": -77.0329865, "bike_id": "3ce5610399ed5df8063990e5b8e038e7", "type": "electric_scooter", "name": "3ce5610399ed5df8063990e5b8e038e7"}, {"is_disabled": 0, "is_reserved": 0, "fusion_lat": 0.0, "lat": 38.908433333333335, "fusion_lon": 0.0, "rental_uris": {"ios": "https://dc.lft.to/lastmile_qr_scan", "android": "https://dc.lft.to/lastmile_qr_scan"}, "lon": -76.9344655, "bike_id": "2523d2247bda8fedc1fac847069b0b4a", "type": "electric_scooter", "name": "2523d2247bda8fedc1fac847069b0b4a"}, {"is_disabled": 0, "is_reserved": 0, "fusion_lat": 0.0, "lat": 38.9274855, "fusion_lon": 0.0, "rental_uris": {"ios": "https://dc.lft.to/lastmile_qr_scan", "android": "https://dc.lft.to/lastmile_qr_scan"}, "lon": -77.03303183333334, "bike_id": "6ca158665a59bee6e31f8722337ef043", "type": "electric_scooter", "name": "6ca158665a59bee6e31f8722337ef043"}, {"is_disabled": 0, "is_reserved": 0, "fusion_lat": 0.0, "lat": 38.967963166666664, "fusion_lon": 0.0, "rental_uris": {"ios": "https://dc.lft.to/lastmile_qr_scan", "android": "https://dc.lft.to/lastmile_qr_scan"}, "lon": -77.02430816666667, "bike_id": "7a2070fab050db77280a62d39eac85fe", "type": "electric_scooter", "name": "7a2070fab050db77280a62d39eac85fe"}, {"is_disabled": 0, "is_reserved": 0, "fusion_lat": 0.0, "lat": 38.9206085, "fusion_lon": 0.0, "rental_uris": {"ios": "https://dc.lft.to/lastmile_qr_scan", "android": "https://dc.lft.to/lastmile_qr_scan"}, "lon": -77.04177066666666, "bike_id": "e47dcb64518c96dfaa4edc68b92472fa", "type": "electric_scooter", "name": "e47dcb64518c96dfaa4edc68b92472fa"}, {"is_disabled": 0, "is_reserved": 0, "fusion_lat": 0.0, "lat": 38.895389, "fusion_lon": 0.0, "rental_uris": {"ios": "https://dc.lft.to/lastmile_qr_scan", "android": "https://dc.lft.to/lastmile_qr_scan"}, "lon": -77.01145933333333, "bike_id": "4e38eb2b785f893ec5531b1da0c7c65b", "type": "electric_scooter", "name": "4e38eb2b785f893ec5531b1da0c7c65b"}, {"is_disabled": 0, "is_reserved": 0, "fusion_lat": 0.0, "lat": 38.9449395, "fusion_lon": 0.0, "rental_uris": {"ios": "https://dc.lft.to/lastmile_qr_scan", "android": "https://dc.lft.to/lastmile_qr_scan"}, "lon": -77.00740183333333, "bike_id": "fece85ecf306387f9410fa8a09186a4a", "type": "electric_bike", "name": "fece85ecf306387f9410fa8a09186a4a"}, {"is_disabled": 0, "is_reserved": 0, "fusion_lat": 0.0, "lat": 38.878612833333335, "fusion_lon": 0.0, "rental_uris": {"ios": "https://dc.lft.to/lastmile_qr_scan", "android": "https://dc.lft.to/lastmile_qr_scan"}, "lon": -77.01766333333333, "bike_id": "6accc5a540a6f62475fc418a1c9275eb", "type": "electric_scooter", "name": "6accc5a540a6f62475fc418a1c9275eb"}, {"is_disabled": 0, "is_reserved": 0, "fusion_lat": 0.0, "lat": 38.90258766666667, "fusion_lon": 0.0, "rental_uris": {"ios": "https://dc.lft.to/lastmile_qr_scan", "android": "https://dc.lft.to/lastmile_qr_scan"}, "lon": -77.01529666666667, "bike_id": "6d1ac6f0a56998ae664bf9eb2e2fc415", "type": "electric_scooter", "name": "6d1ac6f0a56998ae664bf9eb2e2fc415"}, {"is_disabled": 0, "is_reserved": 0, "fusion_lat": 0.0, "lat": 38.90634933333333, "fusion_lon": 0.0, "rental_uris": {"ios": "https://dc.lft.to/lastmile_qr_scan", "android": "https://dc.lft.to/lastmile_qr_scan"}, "lon": -77.0690775, "bike_id": "3f883874d01e85ebbb082c0b43e96b60", "type": "electric_scooter", "name": "3f883874d01e85ebbb082c0b43e96b60"}, {"is_disabled": 0, "is_reserved": 0, "fusion_lat": 0.0, "lat": 38.916712833333335, "fusion_lon": 0.0, "rental_uris": {"ios": "https://dc.lft.to/lastmile_qr_scan", "android": "https://dc.lft.to/lastmile_qr_scan"}, "lon": -77.04617216666666, "bike_id": "4e667c6d93af1fc5c68f8408da67a88c", "type": "electric_scooter", "name": "4e667c6d93af1fc5c68f8408da67a88c"}, {"is_disabled": 0, "is_reserved": 0, "fusion_lat": 0.0, "lat": 38.95243466666667, "fusion_lon": 0.0, "rental_uris": {"ios": "https://dc.lft.to/lastmile_qr_scan", "android": "https://dc.lft.to/lastmile_qr_scan"}, "lon": -76.9795305, "bike_id": "73d9cfd6e74167c3883c72eb61bc50f8", "type": "electric_bike", "name": "73d9cfd6e74167c3883c72eb61bc50f8"}, {"is_disabled": 0, "is_reserved": 0, "fusion_lat": 0.0, "lat": 38.89616383333333, "fusion_lon": 0.0, "rental_uris": {"ios": "https://dc.lft.to/lastmile_qr_scan", "android": "https://dc.lft.to/lastmile_qr_scan"}, "lon": -77.03168716666667, "bike_id": "27f7c4823a8e621670803fdfd2554ffd", "type": "electric_scooter", "name": "27f7c4823a8e621670803fdfd2554ffd"}, {"is_disabled": 0, "is_reserved": 0, "fusion_lat": 0.0, "lat": 38.91516416666666, "fusion_lon": 0.0, "rental_uris": {"ios": "https://dc.lft.to/lastmile_qr_scan", "android": "https://dc.lft.to/lastmile_qr_scan"}, "lon": -77.01843033333333, "bike_id": "de00851187e83c5d4db090d6b19503ec", "type": "electric_scooter", "name": "de00851187e83c5d4db090d6b19503ec"}, {"is_disabled": 0, "is_reserved": 0, "fusion_lat": 0.0, "lat": 38.957837833333336, "fusion_lon": 0.0, "rental_uris": {"ios": "https://dc.lft.to/lastmile_qr_scan", "android": "https://dc.lft.to/lastmile_qr_scan"}, "lon": -77.02414816666666, "bike_id": "7f284d12c86947f4448ac25d6c5b7741", "type": "electric_scooter", "name": "7f284d12c86947f4448ac25d6c5b7741"}, {"is_disabled": 0, "is_reserved": 0, "fusion_lat": 0.0, "lat": 38.9297185, "fusion_lon": 0.0, "rental_uris": {"ios": "https://dc.lft.to/lastmile_qr_scan", "android": "https://dc.lft.to/lastmile_qr_scan"}, "lon": -77.0281875, "bike_id": "47107868326498ab6327128c42ce0917", "type": "electric_scooter", "name": "47107868326498ab6327128c42ce0917"}, {"is_disabled": 0, "is_reserved": 0, "fusion_lat": 0.0, "lat": 38.91267666666667, "fusion_lon": 0.0, "rental_uris": {"ios": "https://dc.lft.to/lastmile_qr_scan", "android": "https://dc.lft.to/lastmile_qr_scan"}, "lon": -77.031424, "bike_id": "3e35af55eaadf587946f96ba59eec450", "type": "electric_scooter", "name": "3e35af55eaadf587946f96ba59eec450"}, {"is_disabled": 0, "is_reserved": 0, "fusion_lat": 0.0, "lat": 38.89312283333334, "fusion_lon": 0.0, "rental_uris": {"ios": "https://dc.lft.to/lastmile_qr_scan", "android": "https://dc.lft.to/lastmile_qr_scan"}, "lon": -77.02206866666667, "bike_id": "440063014f5ac7c7846631cfa2ef848e", "type": "electric_scooter", "name": "440063014f5ac7c7846631cfa2ef848e"}, {"is_disabled": 0, "is_reserved": 0, "fusion_lat": 0.0, "lat": 38.916000833333335, "fusion_lon": 0.0, "rental_uris": {"ios": "https://dc.lft.to/lastmile_qr_scan", "android": "https://dc.lft.to/lastmile_qr_scan"}, "lon": -77.02110216666667, "bike_id": "23f2ca3826fe0f327fa019e2014fb515", "type": "electric_scooter", "name": "23f2ca3826fe0f327fa019e2014fb515"}, {"is_disabled": 0, "is_reserved": 0, "fusion_lat": 0.0, "lat": 38.90531633333333, "fusion_lon": 0.0, "rental_uris": {"ios": "https://dc.lft.to/lastmile_qr_scan", "android": "https://dc.lft.to/lastmile_qr_scan"}, "lon": -77.06523183333333, "bike_id": "0e1fc97a4329695482b19d91317d9ecc", "type": "electric_scooter", "name": "0e1fc97a4329695482b19d91317d9ecc"}, {"is_disabled": 0, "is_reserved": 0, "fusion_lat": 0.0, "lat": 38.9003715, "fusion_lon": 0.0, "rental_uris": {"ios": "https://dc.lft.to/lastmile_qr_scan", "android": "https://dc.lft.to/lastmile_qr_scan"}, "lon": -76.99864233333334, "bike_id": "a9595fd8b097eec0689ff1777c55105e", "type": "electric_scooter", "name": "a9595fd8b097eec0689ff1777c55105e"}, {"is_disabled": 0, "is_reserved": 0, "fusion_lat": 0.0, "lat": 39.084739, "fusion_lon": 0.0, "rental_uris": {"ios": "https://dc.lft.to/lastmile_qr_scan", "android": "https://dc.lft.to/lastmile_qr_scan"}, "lon": -76.95066733333333, "bike_id": "fba2b4ef8491a5915efd11f146e391d0", "type": "electric_bike", "name": "fba2b4ef8491a5915efd11f146e391d0"}, {"is_disabled": 0, "is_reserved": 0, "fusion_lat": 0.0, "lat": 38.899713, "fusion_lon": 0.0, "rental_uris": {"ios": "https://dc.lft.to/lastmile_qr_scan", "android": "https://dc.lft.to/lastmile_qr_scan"}, "lon": -76.92630283333334, "bike_id": "dcee96ac0140585b93eb2bd3a1bcdcef", "type": "electric_scooter", "name": "dcee96ac0140585b93eb2bd3a1bcdcef"}, {"is_disabled": 0, "is_reserved": 0, "fusion_lat": 0.0, "lat": 38.903066333333335, "fusion_lon": 0.0, "rental_uris": {"ios": "https://dc.lft.to/lastmile_qr_scan", "android": "https://dc.lft.to/lastmile_qr_scan"}, "lon": -77.0320525, "bike_id": "c3cb0efae79088d6260c0965fd320fd5", "type": "electric_scooter", "name": "c3cb0efae79088d6260c0965fd320fd5"}, {"is_disabled": 0, "is_reserved": 0, "fusion_lat": 0.0, "lat": 38.89970483333333, "fusion_lon": 0.0, "rental_uris": {"ios": "https://dc.lft.to/lastmile_qr_scan", "android": "https://dc.lft.to/lastmile_qr_scan"}, "lon": -77.01614933333333, "bike_id": "d14110c2bd5165d2d30390be60918f38", "type": "electric_scooter", "name": "d14110c2bd5165d2d30390be60918f38"}, {"is_disabled": 0, "is_reserved": 0, "fusion_lat": 0.0, "lat": 38.95347316666667, "fusion_lon": 0.0, "rental_uris": {"ios": "https://dc.lft.to/lastmile_qr_scan", "android": "https://dc.lft.to/lastmile_qr_scan"}, "lon": -77.08147966666667, "bike_id": "4eaf010aff0598530da7d9c3796f589b", "type": "electric_scooter", "name": "4eaf010aff0598530da7d9c3796f589b"}, {"is_disabled": 0, "is_reserved": 0, "fusion_lat": 0.0, "lat": 38.92165166666667, "fusion_lon": 0.0, "rental_uris": {"ios": "https://dc.lft.to/lastmile_qr_scan", "android": "https://dc.lft.to/lastmile_qr_scan"}, "lon": -77.04026533333334, "bike_id": "b62a6a92547dde39e991287000528dfe", "type": "electric_scooter", "name": "b62a6a92547dde39e991287000528dfe"}, {"is_disabled": 0, "is_reserved": 0, "fusion_lat": 0.0, "lat": 38.90034433333334, "fusion_lon": 0.0, "rental_uris": {"ios": "https://dc.lft.to/lastmile_qr_scan", "android": "https://dc.lft.to/lastmile_qr_scan"}, "lon": -76.99863383333333, "bike_id": "3540d9714b194fe6dd4e9ce13d65374d", "type": "electric_scooter", "name": "3540d9714b194fe6dd4e9ce13d65374d"}, {"is_disabled": 0, "is_reserved": 0, "fusion_lat": 0.0, "lat": 38.90568283333333, "fusion_lon": 0.0, "rental_uris": {"ios": "https://dc.lft.to/lastmile_qr_scan", "android": "https://dc.lft.to/lastmile_qr_scan"}, "lon": -77.0326065, "bike_id": "1067a272c41eefaa158f8ce536bfd152", "type": "electric_scooter", "name": "1067a272c41eefaa158f8ce536bfd152"}, {"is_disabled": 0, "is_reserved": 0, "fusion_lat": 0.0, "lat": 38.923540833333334, "fusion_lon": 0.0, "rental_uris": {"ios": "https://dc.lft.to/lastmile_qr_scan", "android": "https://dc.lft.to/lastmile_qr_scan"}, "lon": -76.972069, "bike_id": "b5c3e27473a7e47b111fb5265689bd01", "type": "electric_scooter", "name": "b5c3e27473a7e47b111fb5265689bd01"}, {"is_disabled": 0, "is_reserved": 0, "fusion_lat": 0.0, "lat": 38.917114833333336, "fusion_lon": 0.0, "rental_uris": {"ios": "https://dc.lft.to/lastmile_qr_scan", "android": "https://dc.lft.to/lastmile_qr_scan"}, "lon": -77.02282583333333, "bike_id": "591e933f7dc032a33eebba4ecdbd2ccf", "type": "electric_scooter", "name": "591e933f7dc032a33eebba4ecdbd2ccf"}, {"is_disabled": 0, "is_reserved": 0, "fusion_lat": 0.0, "lat": 39.025199666666666, "fusion_lon": 0.0, "rental_uris": {"ios": "https://dc.lft.to/lastmile_qr_scan", "android": "https://dc.lft.to/lastmile_qr_scan"}, "lon": -77.019673, "bike_id": "c68e03dc09a4d278d2b4f3a309c77deb", "type": "electric_bike", "name": "c68e03dc09a4d278d2b4f3a309c77deb"}, {"is_disabled": 0, "is_reserved": 0, "fusion_lat": 0.0, "lat": 38.914168, "fusion_lon": 0.0, "rental_uris": {"ios": "https://dc.lft.to/lastmile_qr_scan", "android": "https://dc.lft.to/lastmile_qr_scan"}, "lon": -77.02230016666667, "bike_id": "5dbb670203cb6fb11a886d731211675f", "type": "electric_scooter", "name": "5dbb670203cb6fb11a886d731211675f"}, {"is_disabled": 0, "is_reserved": 0, "fusion_lat": 0.0, "lat": 38.891822, "fusion_lon": 0.0, "rental_uris": {"ios": "https://dc.lft.to/lastmile_qr_scan", "android": "https://dc.lft.to/lastmile_qr_scan"}, "lon": -77.01577033333334, "bike_id": "6706183e2e32e1210abeb05d1fe4969f", "type": "electric_scooter", "name": "6706183e2e32e1210abeb05d1fe4969f"}, {"is_disabled": 0, "is_reserved": 0, "fusion_lat": 0.0, "lat": 38.86957616666667, "fusion_lon": 0.0, "rental_uris": {"ios": "https://dc.lft.to/lastmile_qr_scan", "android": "https://dc.lft.to/lastmile_qr_scan"}, "lon": -77.012692, "bike_id": "450ce4321e9026bc6f0f68f6ca64e1d1", "type": "electric_bike", "name": "450ce4321e9026bc6f0f68f6ca64e1d1"}, {"is_disabled": 0, "is_reserved": 0, "fusion_lat": 0.0, "lat": 38.9075205, "fusion_lon": 0.0, "rental_uris": {"ios": "https://dc.lft.to/lastmile_qr_scan", "android": "https://dc.lft.to/lastmile_qr_scan"}, "lon": -76.99930033333334, "bike_id": "fc9bde1b6fa24bfb2a9c405aff856775", "type": "electric_scooter", "name": "fc9bde1b6fa24bfb2a9c405aff856775"}, {"is_disabled": 0, "is_reserved": 0, "fusion_lat": 0.0, "lat": 38.918533833333335, "fusion_lon": 0.0, "rental_uris": {"ios": "https://dc.lft.to/lastmile_qr_scan", "android": "https://dc.lft.to/lastmile_qr_scan"}, "lon": -77.02446516666667, "bike_id": "367f1d1191ca81218972789039d7abf0", "type": "electric_scooter", "name": "367f1d1191ca81218972789039d7abf0"}, {"is_disabled": 0, "is_reserved": 0, "fusion_lat": 0.0, "lat": 38.8918445, "fusion_lon": 0.0, "rental_uris": {"ios": "https://dc.lft.to/lastmile_qr_scan", "android": "https://dc.lft.to/lastmile_qr_scan"}, "lon": -77.01503983333333, "bike_id": "f1fca9cb0e9af5914bc115d7c09cccb5", "type": "electric_scooter", "name": "f1fca9cb0e9af5914bc115d7c09cccb5"}, {"is_disabled": 0, "is_reserved": 0, "fusion_lat": 0.0, "lat": 38.8858435, "fusion_lon": 0.0, "rental_uris": {"ios": "https://dc.lft.to/lastmile_qr_scan", "android": "https://dc.lft.to/lastmile_qr_scan"}, "lon": -76.99496516666666, "bike_id": "e3f68b385a8921e7f5285f0aae683031", "type": "electric_scooter", "name": "e3f68b385a8921e7f5285f0aae683031"}, {"is_disabled": 0, "is_reserved": 0, "fusion_lat": 0.0, "lat": 38.920491166666665, "fusion_lon": 0.0, "rental_uris": {"ios": "https://dc.lft.to/lastmile_qr_scan", "android": "https://dc.lft.to/lastmile_qr_scan"}, "lon": -77.03332533333334, "bike_id": "6473e278280fab071f96ebc4e6c94d64", "type": "electric_scooter", "name": "6473e278280fab071f96ebc4e6c94d64"}, {"is_disabled": 0, "is_reserved": 0, "fusion_lat": 0.0, "lat": 38.895577833333334, "fusion_lon": 0.0, "rental_uris": {"ios": "https://dc.lft.to/lastmile_qr_scan", "android": "https://dc.lft.to/lastmile_qr_scan"}, "lon": -77.0160375, "bike_id": "1e8d946dfee08eaaeb4056e97492d6a7", "type": "electric_scooter", "name": "1e8d946dfee08eaaeb4056e97492d6a7"}, {"is_disabled": 0, "is_reserved": 0, "fusion_lat": 0.0, "lat": 38.915511, "fusion_lon": 0.0, "rental_uris": {"ios": "https://dc.lft.to/lastmile_qr_scan", "android": "https://dc.lft.to/lastmile_qr_scan"}, "lon": -77.02030316666666, "bike_id": "58a08526dbb586e7e447693105dc482b", "type": "electric_scooter", "name": "58a08526dbb586e7e447693105dc482b"}, {"is_disabled": 0, "is_reserved": 0, "fusion_lat": 0.0, "lat": 38.9105535, "fusion_lon": 0.0, "rental_uris": {"ios": "https://dc.lft.to/lastmile_qr_scan", "android": "https://dc.lft.to/lastmile_qr_scan"}, "lon": -77.03705816666667, "bike_id": "dfcb71e39812e4c62a11122bcfb8398a", "type": "electric_scooter", "name": "dfcb71e39812e4c62a11122bcfb8398a"}, {"is_disabled": 0, "is_reserved": 0, "fusion_lat": 0.0, "lat": 38.923824833333335, "fusion_lon": 0.0, "rental_uris": {"ios": "https://dc.lft.to/lastmile_qr_scan", "android": "https://dc.lft.to/lastmile_qr_scan"}, "lon": -77.04024283333334, "bike_id": "51b94d7c75ab1978946b9fc56e47a5a7", "type": "electric_scooter", "name": "51b94d7c75ab1978946b9fc56e47a5a7"}, {"is_disabled": 0, "is_reserved": 0, "fusion_lat": 0.0, "lat": 38.93430983333333, "fusion_lon": 0.0, "rental_uris": {"ios": "https://dc.lft.to/lastmile_qr_scan", "android": "https://dc.lft.to/lastmile_qr_scan"}, "lon": -77.043099, "bike_id": "5bc3e7fe5e727ff4c6be9f6ac64b8dcf", "type": "electric_scooter", "name": "5bc3e7fe5e727ff4c6be9f6ac64b8dcf"}, {"is_disabled": 0, "is_reserved": 0, "fusion_lat": 0.0, "lat": 38.8959755, "fusion_lon": 0.0, "rental_uris": {"ios": "https://dc.lft.to/lastmile_qr_scan", "android": "https://dc.lft.to/lastmile_qr_scan"}, "lon": -77.02217766666666, "bike_id": "5db3ea2db7f6eb8362403ed8b5a7fcc4", "type": "electric_scooter", "name": "5db3ea2db7f6eb8362403ed8b5a7fcc4"}, {"is_disabled": 0, "is_reserved": 0, "fusion_lat": 0.0, "lat": 38.918207, "fusion_lon": 0.0, "rental_uris": {"ios": "https://dc.lft.to/lastmile_qr_scan", "android": "https://dc.lft.to/lastmile_qr_scan"}, "lon": -77.02710166666667, "bike_id": "bb648cd87866d10b838f666437f4c80a", "type": "electric_scooter", "name": "bb648cd87866d10b838f666437f4c80a"}, {"is_disabled": 0, "is_reserved": 0, "fusion_lat": 0.0, "lat": 38.906567333333335, "fusion_lon": 0.0, "rental_uris": {"ios": "https://dc.lft.to/lastmile_qr_scan", "android": "https://dc.lft.to/lastmile_qr_scan"}, "lon": -77.04556716666667, "bike_id": "82d8cb29397bc5c32bc2ba1cd5704853", "type": "electric_scooter", "name": "82d8cb29397bc5c32bc2ba1cd5704853"}, {"is_disabled": 0, "is_reserved": 0, "fusion_lat": 0.0, "lat": 38.806754833333336, "fusion_lon": 0.0, "rental_uris": {"ios": "https://dc.lft.to/lastmile_qr_scan", "android": "https://dc.lft.to/lastmile_qr_scan"}, "lon": -77.069164, "bike_id": "761599b4613b567d6901007ef33dd262", "type": "electric_bike", "name": "761599b4613b567d6901007ef33dd262"}, {"is_disabled": 0, "is_reserved": 0, "fusion_lat": 0.0, "lat": 38.90679216666667, "fusion_lon": 0.0, "rental_uris": {"ios": "https://dc.lft.to/lastmile_qr_scan", "android": "https://dc.lft.to/lastmile_qr_scan"}, "lon": -77.06246416666667, "bike_id": "4beab70c346c9373190f5b93dc7d2ea9", "type": "electric_scooter", "name": "4beab70c346c9373190f5b93dc7d2ea9"}, {"is_disabled": 0, "is_reserved": 0, "fusion_lat": 0.0, "lat": 38.9459075, "fusion_lon": 0.0, "rental_uris": {"ios": "https://dc.lft.to/lastmile_qr_scan", "android": "https://dc.lft.to/lastmile_qr_scan"}, "lon": -77.02032166666666, "bike_id": "a905ee0b3c95eaff9691a12795378c46", "type": "electric_scooter", "name": "a905ee0b3c95eaff9691a12795378c46"}, {"is_disabled": 0, "is_reserved": 0, "fusion_lat": 0.0, "lat": 38.94632, "fusion_lon": 0.0, "rental_uris": {"ios": "https://dc.lft.to/lastmile_qr_scan", "android": "https://dc.lft.to/lastmile_qr_scan"}, "lon": -77.018424, "bike_id": "ca60c0908cc955bd8c570e9b34379d93", "type": "electric_scooter", "name": "ca60c0908cc955bd8c570e9b34379d93"}, {"is_disabled": 0, "is_reserved": 0, "fusion_lat": 0.0, "lat": 38.83607416666667, "fusion_lon": 0.0, "rental_uris": {"ios": "https://dc.lft.to/lastmile_qr_scan", "android": "https://dc.lft.to/lastmile_qr_scan"}, "lon": -77.00380516666667, "bike_id": "723f263202e664b1769f2c854e78c180", "type": "electric_bike", "name": "723f263202e664b1769f2c854e78c180"}, {"is_disabled": 0, "is_reserved": 0, "fusion_lat": 0.0, "lat": 38.91048983333334, "fusion_lon": 0.0, "rental_uris": {"ios": "https://dc.lft.to/lastmile_qr_scan", "android": "https://dc.lft.to/lastmile_qr_scan"}, "lon": -77.01513366666667, "bike_id": "397f95a0312720f7a4dee85b8d9afc60", "type": "electric_scooter", "name": "397f95a0312720f7a4dee85b8d9afc60"}, {"is_disabled": 0, "is_reserved": 0, "fusion_lat": 0.0, "lat": 38.877354, "fusion_lon": 0.0, "rental_uris": {"ios": "https://dc.lft.to/lastmile_qr_scan", "android": "https://dc.lft.to/lastmile_qr_scan"}, "lon": -77.118446, "bike_id": "2a6dd49db7fb437552da0edcfdbba9d6", "type": "electric_bike", "name": "2a6dd49db7fb437552da0edcfdbba9d6"}, {"is_disabled": 0, "is_reserved": 0, "fusion_lat": 0.0, "lat": 38.883949666666666, "fusion_lon": 0.0, "rental_uris": {"ios": "https://dc.lft.to/lastmile_qr_scan", "android": "https://dc.lft.to/lastmile_qr_scan"}, "lon": -77.029918, "bike_id": "2397b5dd1b488fa5b4432aa0920f440e", "type": "electric_scooter", "name": "2397b5dd1b488fa5b4432aa0920f440e"}, {"is_disabled": 0, "is_reserved": 0, "fusion_lat": 0.0, "lat": 38.926687, "fusion_lon": 0.0, "rental_uris": {"ios": "https://dc.lft.to/lastmile_qr_scan", "android": "https://dc.lft.to/lastmile_qr_scan"}, "lon": -77.02275383333334, "bike_id": "5e7f0f2ddf03ecbd9adbfc8b46d2955d", "type": "electric_scooter", "name": "5e7f0f2ddf03ecbd9adbfc8b46d2955d"}, {"is_disabled": 0, "is_reserved": 0, "fusion_lat": 0.0, "lat": 38.89478716666667, "fusion_lon": 0.0, "rental_uris": {"ios": "https://dc.lft.to/lastmile_qr_scan", "android": "https://dc.lft.to/lastmile_qr_scan"}, "lon": -77.03353216666666, "bike_id": "a1f0f85967d3e8329a309415fa89e0a9", "type": "electric_scooter", "name": "a1f0f85967d3e8329a309415fa89e0a9"}, {"is_disabled": 0, "is_reserved": 0, "fusion_lat": 0.0, "lat": 38.92342216666667, "fusion_lon": 0.0, "rental_uris": {"ios": "https://dc.lft.to/lastmile_qr_scan", "android": "https://dc.lft.to/lastmile_qr_scan"}, "lon": -77.03522683333334, "bike_id": "5274222f1e184f3b7cb07445692cd160", "type": "electric_scooter", "name": "5274222f1e184f3b7cb07445692cd160"}, {"is_disabled": 0, "is_reserved": 0, "fusion_lat": 0.0, "lat": 38.909468, "fusion_lon": 0.0, "rental_uris": {"ios": "https://dc.lft.to/lastmile_qr_scan", "android": "https://dc.lft.to/lastmile_qr_scan"}, "lon": -77.03188983333334, "bike_id": "754b1d7574f32598454526f03b1a7a82", "type": "electric_scooter", "name": "754b1d7574f32598454526f03b1a7a82"}, {"is_disabled": 0, "is_reserved": 0, "fusion_lat": 0.0, "lat": 38.929087333333335, "fusion_lon": 0.0, "rental_uris": {"ios": "https://dc.lft.to/lastmile_qr_scan", "android": "https://dc.lft.to/lastmile_qr_scan"}, "lon": -77.0598365, "bike_id": "4bc66e67afebce65c2a91f0ccebf231c", "type": "electric_scooter", "name": "4bc66e67afebce65c2a91f0ccebf231c"}, {"is_disabled": 0, "is_reserved": 0, "fusion_lat": 0.0, "lat": 38.915662833333336, "fusion_lon": 0.0, "rental_uris": {"ios": "https://dc.lft.to/lastmile_qr_scan", "android": "https://dc.lft.to/lastmile_qr_scan"}, "lon": -77.02157833333334, "bike_id": "40033b714b695fc265facdf4389fb9db", "type": "electric_scooter", "name": "40033b714b695fc265facdf4389fb9db"}, {"is_disabled": 0, "is_reserved": 0, "fusion_lat": 0.0, "lat": 38.919828, "fusion_lon": 0.0, "rental_uris": {"ios": "https://dc.lft.to/lastmile_qr_scan", "android": "https://dc.lft.to/lastmile_qr_scan"}, "lon": -77.0333045, "bike_id": "1ff2f205b3855e91f330bad5b7e0ffac", "type": "electric_scooter", "name": "1ff2f205b3855e91f330bad5b7e0ffac"}, {"is_disabled": 0, "is_reserved": 0, "fusion_lat": 0.0, "lat": 38.897682, "fusion_lon": 0.0, "rental_uris": {"ios": "https://dc.lft.to/lastmile_qr_scan", "android": "https://dc.lft.to/lastmile_qr_scan"}, "lon": -77.02986166666666, "bike_id": "42f8972a6ae4ef42702e412bf14fbcf7", "type": "electric_scooter", "name": "42f8972a6ae4ef42702e412bf14fbcf7"}, {"is_disabled": 0, "is_reserved": 0, "fusion_lat": 0.0, "lat": 38.84235483333333, "fusion_lon": 0.0, "rental_uris": {"ios": "https://dc.lft.to/lastmile_qr_scan", "android": "https://dc.lft.to/lastmile_qr_scan"}, "lon": -77.00163866666666, "bike_id": "f05c8af7f65d2f40d46ad935246ca119", "type": "electric_scooter", "name": "f05c8af7f65d2f40d46ad935246ca119"}, {"is_disabled": 0, "is_reserved": 0, "fusion_lat": 0.0, "lat": 38.957490666666665, "fusion_lon": 0.0, "rental_uris": {"ios": "https://dc.lft.to/lastmile_qr_scan", "android": "https://dc.lft.to/lastmile_qr_scan"}, "lon": -77.02063233333334, "bike_id": "fb8e82f3fdd5558f7f592029ff576e7a", "type": "electric_scooter", "name": "fb8e82f3fdd5558f7f592029ff576e7a"}, {"is_disabled": 0, "is_reserved": 0, "fusion_lat": 0.0, "lat": 38.91353866666667, "fusion_lon": 0.0, "rental_uris": {"ios": "https://dc.lft.to/lastmile_qr_scan", "android": "https://dc.lft.to/lastmile_qr_scan"}, "lon": -77.02051216666666, "bike_id": "ea21bd6453a78ef0e1f83cd75834844c", "type": "electric_scooter", "name": "ea21bd6453a78ef0e1f83cd75834844c"}, {"is_disabled": 0, "is_reserved": 0, "fusion_lat": 0.0, "lat": 38.921509, "fusion_lon": 0.0, "rental_uris": {"ios": "https://dc.lft.to/lastmile_qr_scan", "android": "https://dc.lft.to/lastmile_qr_scan"}, "lon": -77.03667033333333, "bike_id": "4f9abe1463c7f67daf57d1b970341af2", "type": "electric_scooter", "name": "4f9abe1463c7f67daf57d1b970341af2"}, {"is_disabled": 0, "is_reserved": 0, "fusion_lat": 0.0, "lat": 38.924875166666666, "fusion_lon": 0.0, "rental_uris": {"ios": "https://dc.lft.to/lastmile_qr_scan", "android": "https://dc.lft.to/lastmile_qr_scan"}, "lon": -77.0324145, "bike_id": "3e67c205d7ba3c6f0a5000d2929c6d0e", "type": "electric_scooter", "name": "3e67c205d7ba3c6f0a5000d2929c6d0e"}, {"is_disabled": 0, "is_reserved": 0, "fusion_lat": 0.0, "lat": 38.8422885, "fusion_lon": 0.0, "rental_uris": {"ios": "https://dc.lft.to/lastmile_qr_scan", "android": "https://dc.lft.to/lastmile_qr_scan"}, "lon": -76.94889583333334, "bike_id": "41d9d625e714cea1122a72d15e4c9704", "type": "electric_bike", "name": "41d9d625e714cea1122a72d15e4c9704"}, {"is_disabled": 0, "is_reserved": 0, "fusion_lat": 0.0, "lat": 38.85558283333334, "fusion_lon": 0.0, "rental_uris": {"ios": "https://dc.lft.to/lastmile_qr_scan", "android": "https://dc.lft.to/lastmile_qr_scan"}, "lon": -77.06400266666667, "bike_id": "e643c8d873b429a8e1d6e5c6e9c9354a", "type": "electric_bike", "name": "e643c8d873b429a8e1d6e5c6e9c9354a"}, {"is_disabled": 0, "is_reserved": 0, "fusion_lat": 0.0, "lat": 38.87642, "fusion_lon": 0.0, "rental_uris": {"ios": "https://dc.lft.to/lastmile_qr_scan", "android": "https://dc.lft.to/lastmile_qr_scan"}, "lon": -77.00595783333333, "bike_id": "1c7665ca39fa47e6bf2c26c747b6643b", "type": "electric_scooter", "name": "1c7665ca39fa47e6bf2c26c747b6643b"}, {"is_disabled": 0, "is_reserved": 0, "fusion_lat": 0.0, "lat": 38.894663666666666, "fusion_lon": 0.0, "rental_uris": {"ios": "https://dc.lft.to/lastmile_qr_scan", "android": "https://dc.lft.to/lastmile_qr_scan"}, "lon": -77.0418845, "bike_id": "a0a27efaf4f5483ebd219daac4530f5e", "type": "electric_scooter", "name": "a0a27efaf4f5483ebd219daac4530f5e"}, {"is_disabled": 0, "is_reserved": 0, "fusion_lat": 0.0, "lat": 38.887752666666664, "fusion_lon": 0.0, "rental_uris": {"ios": "https://dc.lft.to/lastmile_qr_scan", "android": "https://dc.lft.to/lastmile_qr_scan"}, "lon": -76.93262483333334, "bike_id": "8046fc84db9a1f6604d0128ea6793c91", "type": "electric_scooter", "name": "8046fc84db9a1f6604d0128ea6793c91"}, {"is_disabled": 0, "is_reserved": 0, "fusion_lat": 0.0, "lat": 38.9836905, "fusion_lon": 0.0, "rental_uris": {"ios": "https://dc.lft.to/lastmile_qr_scan", "android": "https://dc.lft.to/lastmile_qr_scan"}, "lon": -76.98847716666667, "bike_id": "1dce508f34d7c45912ca6e48f285dc4e", "type": "electric_bike", "name": "1dce508f34d7c45912ca6e48f285dc4e"}, {"is_disabled": 0, "is_reserved": 0, "fusion_lat": 0.0, "lat": 38.923336, "fusion_lon": 0.0, "rental_uris": {"ios": "https://dc.lft.to/lastmile_qr_scan", "android": "https://dc.lft.to/lastmile_qr_scan"}, "lon": -77.05679416666666, "bike_id": "6ea367198e6b49c15cb2e47f95fc3a4f", "type": "electric_scooter", "name": "6ea367198e6b49c15cb2e47f95fc3a4f"}, {"is_disabled": 0, "is_reserved": 0, "fusion_lat": 0.0, "lat": 38.956148, "fusion_lon": 0.0, "rental_uris": {"ios": "https://dc.lft.to/lastmile_qr_scan", "android": "https://dc.lft.to/lastmile_qr_scan"}, "lon": -76.96180116666666, "bike_id": "ef0dea21eeee9e424ac9ba330f720635", "type": "electric_bike", "name": "ef0dea21eeee9e424ac9ba330f720635"}, {"is_disabled": 0, "is_reserved": 0, "fusion_lat": 0.0, "lat": 38.9178095, "fusion_lon": 0.0, "rental_uris": {"ios": "https://dc.lft.to/lastmile_qr_scan", "android": "https://dc.lft.to/lastmile_qr_scan"}, "lon": -77.0241865, "bike_id": "b41bb3461fabda23f67b5ff06c40ddc8", "type": "electric_scooter", "name": "b41bb3461fabda23f67b5ff06c40ddc8"}, {"is_disabled": 0, "is_reserved": 0, "fusion_lat": 0.0, "lat": 38.8987315, "fusion_lon": 0.0, "rental_uris": {"ios": "https://dc.lft.to/lastmile_qr_scan", "android": "https://dc.lft.to/lastmile_qr_scan"}, "lon": -77.04997516666667, "bike_id": "e4fb3250a8866f055048ab57b33fae81", "type": "electric_scooter", "name": "e4fb3250a8866f055048ab57b33fae81"}, {"is_disabled": 0, "is_reserved": 0, "fusion_lat": 0.0, "lat": 38.88988533333333, "fusion_lon": 0.0, "rental_uris": {"ios": "https://dc.lft.to/lastmile_qr_scan", "android": "https://dc.lft.to/lastmile_qr_scan"}, "lon": -77.03533666666667, "bike_id": "22c7c6b73518fd5890d27caf32e1353c", "type": "electric_scooter", "name": "22c7c6b73518fd5890d27caf32e1353c"}, {"is_disabled": 0, "is_reserved": 0, "fusion_lat": 0.0, "lat": 38.8978715, "fusion_lon": 0.0, "rental_uris": {"ios": "https://dc.lft.to/lastmile_qr_scan", "android": "https://dc.lft.to/lastmile_qr_scan"}, "lon": -77.0281655, "bike_id": "44842cc16281841370e6f5cb3be52114", "type": "electric_scooter", "name": "44842cc16281841370e6f5cb3be52114"}, {"is_disabled": 0, "is_reserved": 0, "fusion_lat": 0.0, "lat": 38.914115833333334, "fusion_lon": 0.0, "rental_uris": {"ios": "https://dc.lft.to/lastmile_qr_scan", "android": "https://dc.lft.to/lastmile_qr_scan"}, "lon": -77.01144416666666, "bike_id": "838e241c1b18616c2925ec6d0e75c935", "type": "electric_scooter", "name": "838e241c1b18616c2925ec6d0e75c935"}, {"is_disabled": 0, "is_reserved": 0, "fusion_lat": 0.0, "lat": 38.809839833333335, "fusion_lon": 0.0, "rental_uris": {"ios": "https://dc.lft.to/lastmile_qr_scan", "android": "https://dc.lft.to/lastmile_qr_scan"}, "lon": -77.07656983333334, "bike_id": "0bb03b5926aeb9f300c04b01605131bf", "type": "electric_bike", "name": "0bb03b5926aeb9f300c04b01605131bf"}, {"is_disabled": 0, "is_reserved": 0, "fusion_lat": 0.0, "lat": 38.941009666666666, "fusion_lon": 0.0, "rental_uris": {"ios": "https://dc.lft.to/lastmile_qr_scan", "android": "https://dc.lft.to/lastmile_qr_scan"}, "lon": -77.02508183333333, "bike_id": "6bc1a0076a077123d3a8849549b9ae57", "type": "electric_scooter", "name": "6bc1a0076a077123d3a8849549b9ae57"}, {"is_disabled": 0, "is_reserved": 0, "fusion_lat": 0.0, "lat": 38.917768, "fusion_lon": 0.0, "rental_uris": {"ios": "https://dc.lft.to/lastmile_qr_scan", "android": "https://dc.lft.to/lastmile_qr_scan"}, "lon": -77.03221733333334, "bike_id": "13d47825f287999cdad5d3f5ea800d4d", "type": "electric_scooter", "name": "13d47825f287999cdad5d3f5ea800d4d"}, {"is_disabled": 0, "is_reserved": 0, "fusion_lat": 0.0, "lat": 38.905848666666664, "fusion_lon": 0.0, "rental_uris": {"ios": "https://dc.lft.to/lastmile_qr_scan", "android": "https://dc.lft.to/lastmile_qr_scan"}, "lon": -77.0080615, "bike_id": "65eb9923004afa92df6689c361aec364", "type": "electric_scooter", "name": "65eb9923004afa92df6689c361aec364"}, {"is_disabled": 0, "is_reserved": 0, "fusion_lat": 0.0, "lat": 38.89335116666667, "fusion_lon": 0.0, "rental_uris": {"ios": "https://dc.lft.to/lastmile_qr_scan", "android": "https://dc.lft.to/lastmile_qr_scan"}, "lon": -76.928865, "bike_id": "beb1bf75d4e2a38634dfdc575af669a4", "type": "electric_scooter", "name": "beb1bf75d4e2a38634dfdc575af669a4"}, {"is_disabled": 0, "is_reserved": 0, "fusion_lat": 0.0, "lat": 38.93864116666666, "fusion_lon": 0.0, "rental_uris": {"ios": "https://dc.lft.to/lastmile_qr_scan", "android": "https://dc.lft.to/lastmile_qr_scan"}, "lon": -77.03043916666667, "bike_id": "9487f6b441fa8065f0b1877e3064e9f4", "type": "electric_scooter", "name": "9487f6b441fa8065f0b1877e3064e9f4"}, {"is_disabled": 0, "is_reserved": 0, "fusion_lat": 0.0, "lat": 38.8827455, "fusion_lon": 0.0, "rental_uris": {"ios": "https://dc.lft.to/lastmile_qr_scan", "android": "https://dc.lft.to/lastmile_qr_scan"}, "lon": -76.9323285, "bike_id": "7fef3fe04e3b9ad3ddf089c5421eba8e", "type": "electric_bike", "name": "7fef3fe04e3b9ad3ddf089c5421eba8e"}, {"is_disabled": 0, "is_reserved": 0, "fusion_lat": 0.0, "lat": 38.92245783333333, "fusion_lon": 0.0, "rental_uris": {"ios": "https://dc.lft.to/lastmile_qr_scan", "android": "https://dc.lft.to/lastmile_qr_scan"}, "lon": -77.04481283333334, "bike_id": "5a9d7d09deeab8c73d18cb23ebf63d5d", "type": "electric_scooter", "name": "5a9d7d09deeab8c73d18cb23ebf63d5d"}, {"is_disabled": 0, "is_reserved": 0, "fusion_lat": 0.0, "lat": 38.9068595, "fusion_lon": 0.0, "rental_uris": {"ios": "https://dc.lft.to/lastmile_qr_scan", "android": "https://dc.lft.to/lastmile_qr_scan"}, "lon": -77.0532645, "bike_id": "dde4c0477ad6c42a3742584f54544c79", "type": "electric_scooter", "name": "dde4c0477ad6c42a3742584f54544c79"}, {"is_disabled": 0, "is_reserved": 0, "fusion_lat": 0.0, "lat": 38.912676166666664, "fusion_lon": 0.0, "rental_uris": {"ios": "https://dc.lft.to/lastmile_qr_scan", "android": "https://dc.lft.to/lastmile_qr_scan"}, "lon": -77.01534633333333, "bike_id": "ffa4952cdc4014e6fa4078faef72298f", "type": "electric_scooter", "name": "ffa4952cdc4014e6fa4078faef72298f"}, {"is_disabled": 0, "is_reserved": 0, "fusion_lat": 0.0, "lat": 38.847089, "fusion_lon": 0.0, "rental_uris": {"ios": "https://dc.lft.to/lastmile_qr_scan", "android": "https://dc.lft.to/lastmile_qr_scan"}, "lon": -76.9961185, "bike_id": "4af1cc91bcdba09f3eb16b7abcffd09e", "type": "electric_bike", "name": "4af1cc91bcdba09f3eb16b7abcffd09e"}, {"is_disabled": 0, "is_reserved": 0, "fusion_lat": 0.0, "lat": 38.867262833333335, "fusion_lon": 0.0, "rental_uris": {"ios": "https://dc.lft.to/lastmile_qr_scan", "android": "https://dc.lft.to/lastmile_qr_scan"}, "lon": -77.0137105, "bike_id": "24fef02d17e9f29c6a99205ef72383f9", "type": "electric_scooter", "name": "24fef02d17e9f29c6a99205ef72383f9"}, {"is_disabled": 0, "is_reserved": 0, "fusion_lat": 0.0, "lat": 38.92469416666667, "fusion_lon": 0.0, "rental_uris": {"ios": "https://dc.lft.to/lastmile_qr_scan", "android": "https://dc.lft.to/lastmile_qr_scan"}, "lon": -77.03534716666667, "bike_id": "1504047ddcfaae4a818c566f5f621abb", "type": "electric_scooter", "name": "1504047ddcfaae4a818c566f5f621abb"}, {"is_disabled": 0, "is_reserved": 0, "fusion_lat": 0.0, "lat": 38.9027945, "fusion_lon": 0.0, "rental_uris": {"ios": "https://dc.lft.to/lastmile_qr_scan", "android": "https://dc.lft.to/lastmile_qr_scan"}, "lon": -77.05896666666666, "bike_id": "bf8100c78689f7ce1e4eb8db5556aa1b", "type": "electric_scooter", "name": "bf8100c78689f7ce1e4eb8db5556aa1b"}, {"is_disabled": 0, "is_reserved": 0, "fusion_lat": 0.0, "lat": 38.908754333333334, "fusion_lon": 0.0, "rental_uris": {"ios": "https://dc.lft.to/lastmile_qr_scan", "android": "https://dc.lft.to/lastmile_qr_scan"}, "lon": -77.00187233333334, "bike_id": "cd68586d1111113cede01218fe0d6ca2", "type": "electric_scooter", "name": "cd68586d1111113cede01218fe0d6ca2"}, {"is_disabled": 0, "is_reserved": 0, "fusion_lat": 0.0, "lat": 38.900209833333335, "fusion_lon": 0.0, "rental_uris": {"ios": "https://dc.lft.to/lastmile_qr_scan", "android": "https://dc.lft.to/lastmile_qr_scan"}, "lon": -77.00374583333333, "bike_id": "2f50d0df15613e7ce5686d6991cf93ad", "type": "electric_scooter", "name": "2f50d0df15613e7ce5686d6991cf93ad"}, {"is_disabled": 0, "is_reserved": 0, "fusion_lat": 0.0, "lat": 38.872945666666666, "fusion_lon": 0.0, "rental_uris": {"ios": "https://dc.lft.to/lastmile_qr_scan", "android": "https://dc.lft.to/lastmile_qr_scan"}, "lon": -77.009806, "bike_id": "937fc9d0261cec6a13aacda0ffdd75f1", "type": "electric_scooter", "name": "937fc9d0261cec6a13aacda0ffdd75f1"}, {"is_disabled": 0, "is_reserved": 0, "fusion_lat": 0.0, "lat": 38.919212333333334, "fusion_lon": 0.0, "rental_uris": {"ios": "https://dc.lft.to/lastmile_qr_scan", "android": "https://dc.lft.to/lastmile_qr_scan"}, "lon": -77.02315766666666, "bike_id": "6c38e524a0cbd280cb524d3c441b3de1", "type": "electric_scooter", "name": "6c38e524a0cbd280cb524d3c441b3de1"}, {"is_disabled": 0, "is_reserved": 0, "fusion_lat": 0.0, "lat": 38.9352195, "fusion_lon": 0.0, "rental_uris": {"ios": "https://dc.lft.to/lastmile_qr_scan", "android": "https://dc.lft.to/lastmile_qr_scan"}, "lon": -77.0285015, "bike_id": "c33808c0b638834ffb362ebac805b7f2", "type": "electric_scooter", "name": "c33808c0b638834ffb362ebac805b7f2"}, {"is_disabled": 0, "is_reserved": 0, "fusion_lat": 0.0, "lat": 38.91914166666667, "fusion_lon": 0.0, "rental_uris": {"ios": "https://dc.lft.to/lastmile_qr_scan", "android": "https://dc.lft.to/lastmile_qr_scan"}, "lon": -77.04466466666666, "bike_id": "31b9b610066f95eede07bccacaebe7c6", "type": "electric_scooter", "name": "31b9b610066f95eede07bccacaebe7c6"}, {"is_disabled": 0, "is_reserved": 0, "fusion_lat": 0.0, "lat": 38.917065, "fusion_lon": 0.0, "rental_uris": {"ios": "https://dc.lft.to/lastmile_qr_scan", "android": "https://dc.lft.to/lastmile_qr_scan"}, "lon": -77.041725, "bike_id": "9da2f9b8c71569b031fc78f0a28a8355", "type": "electric_scooter", "name": "9da2f9b8c71569b031fc78f0a28a8355"}, {"is_disabled": 0, "is_reserved": 0, "fusion_lat": 0.0, "lat": 38.874526333333336, "fusion_lon": 0.0, "rental_uris": {"ios": "https://dc.lft.to/lastmile_qr_scan", "android": "https://dc.lft.to/lastmile_qr_scan"}, "lon": -77.00438233333334, "bike_id": "5508f03bd1d78cba0cf7bf9e38089cfb", "type": "electric_scooter", "name": "5508f03bd1d78cba0cf7bf9e38089cfb"}, {"is_disabled": 0, "is_reserved": 0, "fusion_lat": 0.0, "lat": 38.9244745, "fusion_lon": 0.0, "rental_uris": {"ios": "https://dc.lft.to/lastmile_qr_scan", "android": "https://dc.lft.to/lastmile_qr_scan"}, "lon": -77.04405183333333, "bike_id": "73d24d30ac6c96a1daa9bdc0d8f5dc35", "type": "electric_scooter", "name": "73d24d30ac6c96a1daa9bdc0d8f5dc35"}, {"is_disabled": 0, "is_reserved": 0, "fusion_lat": 0.0, "lat": 38.938602333333336, "fusion_lon": 0.0, "rental_uris": {"ios": "https://dc.lft.to/lastmile_qr_scan", "android": "https://dc.lft.to/lastmile_qr_scan"}, "lon": -76.99430483333333, "bike_id": "830fba8918bde984e0714f7c8402e07d", "type": "electric_scooter", "name": "830fba8918bde984e0714f7c8402e07d"}, {"is_disabled": 0, "is_reserved": 0, "fusion_lat": 0.0, "lat": 38.89222566666667, "fusion_lon": 0.0, "rental_uris": {"ios": "https://dc.lft.to/lastmile_qr_scan", "android": "https://dc.lft.to/lastmile_qr_scan"}, "lon": -77.032176, "bike_id": "4ffc6f547452eec32d106ef4a55fd07d", "type": "electric_scooter", "name": "4ffc6f547452eec32d106ef4a55fd07d"}, {"is_disabled": 0, "is_reserved": 0, "fusion_lat": 0.0, "lat": 38.93555966666667, "fusion_lon": 0.0, "rental_uris": {"ios": "https://dc.lft.to/lastmile_qr_scan", "android": "https://dc.lft.to/lastmile_qr_scan"}, "lon": -77.07702483333334, "bike_id": "a587b466ad5562a3ce667b537d2f194a", "type": "electric_scooter", "name": "a587b466ad5562a3ce667b537d2f194a"}, {"is_disabled": 0, "is_reserved": 0, "fusion_lat": 0.0, "lat": 38.90075216666666, "fusion_lon": 0.0, "rental_uris": {"ios": "https://dc.lft.to/lastmile_qr_scan", "android": "https://dc.lft.to/lastmile_qr_scan"}, "lon": -77.048812, "bike_id": "210e6ff3df811c0be5d95efd576255f8", "type": "electric_scooter", "name": "210e6ff3df811c0be5d95efd576255f8"}, {"is_disabled": 0, "is_reserved": 0, "fusion_lat": 0.0, "lat": 38.898614333333335, "fusion_lon": 0.0, "rental_uris": {"ios": "https://dc.lft.to/lastmile_qr_scan", "android": "https://dc.lft.to/lastmile_qr_scan"}, "lon": -77.04878316666667, "bike_id": "26ab3e6c95bb8cbeab7d85e1ad7b10e5", "type": "electric_scooter", "name": "26ab3e6c95bb8cbeab7d85e1ad7b10e5"}, {"is_disabled": 0, "is_reserved": 0, "fusion_lat": 0.0, "lat": 39.005372333333334, "fusion_lon": 0.0, "rental_uris": {"ios": "https://dc.lft.to/lastmile_qr_scan", "android": "https://dc.lft.to/lastmile_qr_scan"}, "lon": -77.1040055, "bike_id": "d3c7359a303c23b6c9c481acf9701faa", "type": "electric_bike", "name": "d3c7359a303c23b6c9c481acf9701faa"}, {"is_disabled": 0, "is_reserved": 0, "fusion_lat": 0.0, "lat": 38.906650166666665, "fusion_lon": 0.0, "rental_uris": {"ios": "https://dc.lft.to/lastmile_qr_scan", "android": "https://dc.lft.to/lastmile_qr_scan"}, "lon": -77.0099565, "bike_id": "c8b01be2fe2a9aef51f837bb80033c7a", "type": "electric_scooter", "name": "c8b01be2fe2a9aef51f837bb80033c7a"}, {"is_disabled": 0, "is_reserved": 0, "fusion_lat": 0.0, "lat": 38.8773835, "fusion_lon": 0.0, "rental_uris": {"ios": "https://dc.lft.to/lastmile_qr_scan", "android": "https://dc.lft.to/lastmile_qr_scan"}, "lon": -77.14872333333334, "bike_id": "54f40bc269be4cfc3eae4b017744441a", "type": "electric_bike", "name": "54f40bc269be4cfc3eae4b017744441a"}, {"is_disabled": 0, "is_reserved": 0, "fusion_lat": 0.0, "lat": 38.896742833333334, "fusion_lon": 0.0, "rental_uris": {"ios": "https://dc.lft.to/lastmile_qr_scan", "android": "https://dc.lft.to/lastmile_qr_scan"}, "lon": -76.98629966666667, "bike_id": "f5384d32c6bb496d1916d595ba5e0ddb", "type": "electric_bike", "name": "f5384d32c6bb496d1916d595ba5e0ddb"}, {"is_disabled": 0, "is_reserved": 0, "fusion_lat": 0.0, "lat": 38.885267999999996, "fusion_lon": 0.0, "rental_uris": {"ios": "https://dc.lft.to/lastmile_qr_scan", "android": "https://dc.lft.to/lastmile_qr_scan"}, "lon": -76.99606233333333, "bike_id": "042ac954c632219f41ad5ca355d9f0bb", "type": "electric_scooter", "name": "042ac954c632219f41ad5ca355d9f0bb"}, {"is_disabled": 0, "is_reserved": 0, "fusion_lat": 0.0, "lat": 38.881059, "fusion_lon": 0.0, "rental_uris": {"ios": "https://dc.lft.to/lastmile_qr_scan", "android": "https://dc.lft.to/lastmile_qr_scan"}, "lon": -77.01234166666667, "bike_id": "788167ce68061bc3d8caa1203dbcc542", "type": "electric_scooter", "name": "788167ce68061bc3d8caa1203dbcc542"}, {"is_disabled": 0, "is_reserved": 0, "fusion_lat": 0.0, "lat": 38.9196005, "fusion_lon": 0.0, "rental_uris": {"ios": "https://dc.lft.to/lastmile_qr_scan", "android": "https://dc.lft.to/lastmile_qr_scan"}, "lon": -77.0787085, "bike_id": "750e65c1077ce19af01ffa4d38c9535e", "type": "electric_scooter", "name": "750e65c1077ce19af01ffa4d38c9535e"}, {"is_disabled": 0, "is_reserved": 0, "fusion_lat": 0.0, "lat": 38.87904783333333, "fusion_lon": 0.0, "rental_uris": {"ios": "https://dc.lft.to/lastmile_qr_scan", "android": "https://dc.lft.to/lastmile_qr_scan"}, "lon": -77.00771566666667, "bike_id": "5e56be0a3142280299d43606d8f0ed8e", "type": "electric_scooter", "name": "5e56be0a3142280299d43606d8f0ed8e"}, {"is_disabled": 0, "is_reserved": 0, "fusion_lat": 0.0, "lat": 38.95615766666667, "fusion_lon": 0.0, "rental_uris": {"ios": "https://dc.lft.to/lastmile_qr_scan", "android": "https://dc.lft.to/lastmile_qr_scan"}, "lon": -77.010076, "bike_id": "cba99999143273950a76dc9bfcc46e94", "type": "electric_bike", "name": "cba99999143273950a76dc9bfcc46e94"}, {"is_disabled": 0, "is_reserved": 0, "fusion_lat": 0.0, "lat": 38.84860066666667, "fusion_lon": 0.0, "rental_uris": {"ios": "https://dc.lft.to/lastmile_qr_scan", "android": "https://dc.lft.to/lastmile_qr_scan"}, "lon": -77.06827833333334, "bike_id": "84f9db3962d8f0bdb247414664080285", "type": "electric_bike", "name": "84f9db3962d8f0bdb247414664080285"}, {"is_disabled": 0, "is_reserved": 0, "fusion_lat": 0.0, "lat": 38.91369316666667, "fusion_lon": 0.0, "rental_uris": {"ios": "https://dc.lft.to/lastmile_qr_scan", "android": "https://dc.lft.to/lastmile_qr_scan"}, "lon": -77.02967033333333, "bike_id": "ac7ef14563a8b138a2016fc8139ac686", "type": "electric_scooter", "name": "ac7ef14563a8b138a2016fc8139ac686"}, {"is_disabled": 0, "is_reserved": 0, "fusion_lat": 0.0, "lat": 38.902946166666666, "fusion_lon": 0.0, "rental_uris": {"ios": "https://dc.lft.to/lastmile_qr_scan", "android": "https://dc.lft.to/lastmile_qr_scan"}, "lon": -76.9903645, "bike_id": "a75f0561aa6cb3534f98a22c1f2f57ab", "type": "electric_scooter", "name": "a75f0561aa6cb3534f98a22c1f2f57ab"}, {"is_disabled": 0, "is_reserved": 0, "fusion_lat": 0.0, "lat": 38.902568333333335, "fusion_lon": 0.0, "rental_uris": {"ios": "https://dc.lft.to/lastmile_qr_scan", "android": "https://dc.lft.to/lastmile_qr_scan"}, "lon": -77.03591083333333, "bike_id": "d571db78322be02d87cfdd623f0306cd", "type": "electric_scooter", "name": "d571db78322be02d87cfdd623f0306cd"}, {"is_disabled": 0, "is_reserved": 0, "fusion_lat": 0.0, "lat": 38.93592833333334, "fusion_lon": 0.0, "rental_uris": {"ios": "https://dc.lft.to/lastmile_qr_scan", "android": "https://dc.lft.to/lastmile_qr_scan"}, "lon": -77.02851766666667, "bike_id": "dcd3167f2e96702d235068ee17b9b337", "type": "electric_scooter", "name": "dcd3167f2e96702d235068ee17b9b337"}, {"is_disabled": 0, "is_reserved": 0, "fusion_lat": 0.0, "lat": 38.917817666666664, "fusion_lon": 0.0, "rental_uris": {"ios": "https://dc.lft.to/lastmile_qr_scan", "android": "https://dc.lft.to/lastmile_qr_scan"}, "lon": -77.0409645, "bike_id": "5d598b6f612668c48373efd6251eb8c1", "type": "electric_scooter", "name": "5d598b6f612668c48373efd6251eb8c1"}, {"is_disabled": 0, "is_reserved": 0, "fusion_lat": 0.0, "lat": 38.879674666666666, "fusion_lon": 0.0, "rental_uris": {"ios": "https://dc.lft.to/lastmile_qr_scan", "android": "https://dc.lft.to/lastmile_qr_scan"}, "lon": -77.006128, "bike_id": "1bee307653c9dceb10bc1e092d21cf2e", "type": "electric_scooter", "name": "1bee307653c9dceb10bc1e092d21cf2e"}, {"is_disabled": 0, "is_reserved": 0, "fusion_lat": 0.0, "lat": 38.92844266666667, "fusion_lon": 0.0, "rental_uris": {"ios": "https://dc.lft.to/lastmile_qr_scan", "android": "https://dc.lft.to/lastmile_qr_scan"}, "lon": -77.037299, "bike_id": "569af6c2e519da834268096d1a7d804a", "type": "electric_scooter", "name": "569af6c2e519da834268096d1a7d804a"}, {"is_disabled": 0, "is_reserved": 0, "fusion_lat": 0.0, "lat": 38.90724483333334, "fusion_lon": 0.0, "rental_uris": {"ios": "https://dc.lft.to/lastmile_qr_scan", "android": "https://dc.lft.to/lastmile_qr_scan"}, "lon": -77.03204666666667, "bike_id": "e0ccc84bd34b1edd931ead2ca75f4d95", "type": "electric_scooter", "name": "e0ccc84bd34b1edd931ead2ca75f4d95"}, {"is_disabled": 0, "is_reserved": 0, "fusion_lat": 0.0, "lat": 38.904101833333335, "fusion_lon": 0.0, "rental_uris": {"ios": "https://dc.lft.to/lastmile_qr_scan", "android": "https://dc.lft.to/lastmile_qr_scan"}, "lon": -77.06942933333333, "bike_id": "2035287c25ae9a66428fe71f240d5b77", "type": "electric_scooter", "name": "2035287c25ae9a66428fe71f240d5b77"}, {"is_disabled": 0, "is_reserved": 0, "fusion_lat": 0.0, "lat": 38.91039266666667, "fusion_lon": 0.0, "rental_uris": {"ios": "https://dc.lft.to/lastmile_qr_scan", "android": "https://dc.lft.to/lastmile_qr_scan"}, "lon": -76.93834416666667, "bike_id": "3104a3c02134067562bbe061492cd8ec", "type": "electric_scooter", "name": "3104a3c02134067562bbe061492cd8ec"}, {"is_disabled": 0, "is_reserved": 0, "fusion_lat": 0.0, "lat": 38.911067333333335, "fusion_lon": 0.0, "rental_uris": {"ios": "https://dc.lft.to/lastmile_qr_scan", "android": "https://dc.lft.to/lastmile_qr_scan"}, "lon": -77.02230433333334, "bike_id": "8e61de298033021ca75786f462b69d85", "type": "electric_scooter", "name": "8e61de298033021ca75786f462b69d85"}, {"is_disabled": 0, "is_reserved": 0, "fusion_lat": 0.0, "lat": 38.899097166666664, "fusion_lon": 0.0, "rental_uris": {"ios": "https://dc.lft.to/lastmile_qr_scan", "android": "https://dc.lft.to/lastmile_qr_scan"}, "lon": -76.98036833333333, "bike_id": "6b59b870af9b3c1da58228887ee5b5a8", "type": "electric_scooter", "name": "6b59b870af9b3c1da58228887ee5b5a8"}, {"is_disabled": 0, "is_reserved": 0, "fusion_lat": 0.0, "lat": 38.899323333333335, "fusion_lon": 0.0, "rental_uris": {"ios": "https://dc.lft.to/lastmile_qr_scan", "android": "https://dc.lft.to/lastmile_qr_scan"}, "lon": -76.9375885, "bike_id": "28a253a383123530cd0a0e74a66ca818", "type": "electric_scooter", "name": "28a253a383123530cd0a0e74a66ca818"}, {"is_disabled": 0, "is_reserved": 0, "fusion_lat": 0.0, "lat": 38.89019616666667, "fusion_lon": 0.0, "rental_uris": {"ios": "https://dc.lft.to/lastmile_qr_scan", "android": "https://dc.lft.to/lastmile_qr_scan"}, "lon": -76.93734483333333, "bike_id": "60b5a5fe8495c78ab65efece43c78351", "type": "electric_scooter", "name": "60b5a5fe8495c78ab65efece43c78351"}, {"is_disabled": 0, "is_reserved": 0, "fusion_lat": 0.0, "lat": 38.901869166666664, "fusion_lon": 0.0, "rental_uris": {"ios": "https://dc.lft.to/lastmile_qr_scan", "android": "https://dc.lft.to/lastmile_qr_scan"}, "lon": -76.97672283333333, "bike_id": "78d2cf06bb05881f7deddd254da303b5", "type": "electric_scooter", "name": "78d2cf06bb05881f7deddd254da303b5"}, {"is_disabled": 0, "is_reserved": 0, "fusion_lat": 0.0, "lat": 38.903516333333336, "fusion_lon": 0.0, "rental_uris": {"ios": "https://dc.lft.to/lastmile_qr_scan", "android": "https://dc.lft.to/lastmile_qr_scan"}, "lon": -77.02120766666667, "bike_id": "6c37321c3f7099b9e3dd36a14bbac962", "type": "electric_scooter", "name": "6c37321c3f7099b9e3dd36a14bbac962"}, {"is_disabled": 0, "is_reserved": 0, "fusion_lat": 0.0, "lat": 38.9160385, "fusion_lon": 0.0, "rental_uris": {"ios": "https://dc.lft.to/lastmile_qr_scan", "android": "https://dc.lft.to/lastmile_qr_scan"}, "lon": -77.0158605, "bike_id": "31371fe469702573040300114539b1db", "type": "electric_scooter", "name": "31371fe469702573040300114539b1db"}, {"is_disabled": 0, "is_reserved": 0, "fusion_lat": 0.0, "lat": 38.880075166666664, "fusion_lon": 0.0, "rental_uris": {"ios": "https://dc.lft.to/lastmile_qr_scan", "android": "https://dc.lft.to/lastmile_qr_scan"}, "lon": -76.998345, "bike_id": "4ef448b509b968e67d1f29c2266d57f0", "type": "electric_scooter", "name": "4ef448b509b968e67d1f29c2266d57f0"}, {"is_disabled": 0, "is_reserved": 0, "fusion_lat": 0.0, "lat": 38.914151333333336, "fusion_lon": 0.0, "rental_uris": {"ios": "https://dc.lft.to/lastmile_qr_scan", "android": "https://dc.lft.to/lastmile_qr_scan"}, "lon": -77.022088, "bike_id": "1ad678b0ced0bc957299da2f6fa72b24", "type": "electric_scooter", "name": "1ad678b0ced0bc957299da2f6fa72b24"}, {"is_disabled": 0, "is_reserved": 0, "fusion_lat": 0.0, "lat": 38.955955833333334, "fusion_lon": 0.0, "rental_uris": {"ios": "https://dc.lft.to/lastmile_qr_scan", "android": "https://dc.lft.to/lastmile_qr_scan"}, "lon": -77.01000766666667, "bike_id": "397824d51947065ef17ea6c790082e9b", "type": "electric_bike", "name": "397824d51947065ef17ea6c790082e9b"}, {"is_disabled": 0, "is_reserved": 0, "fusion_lat": 0.0, "lat": 38.89635166666667, "fusion_lon": 0.0, "rental_uris": {"ios": "https://dc.lft.to/lastmile_qr_scan", "android": "https://dc.lft.to/lastmile_qr_scan"}, "lon": -77.04348016666667, "bike_id": "b9ae2090b6b2f333cf9b50b3a67322c2", "type": "electric_scooter", "name": "b9ae2090b6b2f333cf9b50b3a67322c2"}, {"is_disabled": 0, "is_reserved": 0, "fusion_lat": 0.0, "lat": 38.90073816666666, "fusion_lon": 0.0, "rental_uris": {"ios": "https://dc.lft.to/lastmile_qr_scan", "android": "https://dc.lft.to/lastmile_qr_scan"}, "lon": -77.001958, "bike_id": "b6a7833dcd14308856d9b19e2c700739", "type": "electric_scooter", "name": "b6a7833dcd14308856d9b19e2c700739"}, {"is_disabled": 0, "is_reserved": 0, "fusion_lat": 0.0, "lat": 38.827716333333335, "fusion_lon": 0.0, "rental_uris": {"ios": "https://dc.lft.to/lastmile_qr_scan", "android": "https://dc.lft.to/lastmile_qr_scan"}, "lon": -77.06011216666667, "bike_id": "2a33dcab3158574421f6eb24eb7db7ca", "type": "electric_bike", "name": "2a33dcab3158574421f6eb24eb7db7ca"}, {"is_disabled": 0, "is_reserved": 0, "fusion_lat": 0.0, "lat": 38.957324166666666, "fusion_lon": 0.0, "rental_uris": {"ios": "https://dc.lft.to/lastmile_qr_scan", "android": "https://dc.lft.to/lastmile_qr_scan"}, "lon": -77.02400733333333, "bike_id": "e8f598f0449571ceb471a09b7fe327f6", "type": "electric_scooter", "name": "e8f598f0449571ceb471a09b7fe327f6"}, {"is_disabled": 0, "is_reserved": 0, "fusion_lat": 0.0, "lat": 38.933476666666664, "fusion_lon": 0.0, "rental_uris": {"ios": "https://dc.lft.to/lastmile_qr_scan", "android": "https://dc.lft.to/lastmile_qr_scan"}, "lon": -77.0604455, "bike_id": "d3220c682a3c2312eab62b6a8177133a", "type": "electric_scooter", "name": "d3220c682a3c2312eab62b6a8177133a"}, {"is_disabled": 0, "is_reserved": 0, "fusion_lat": 0.0, "lat": 38.931305, "fusion_lon": 0.0, "rental_uris": {"ios": "https://dc.lft.to/lastmile_qr_scan", "android": "https://dc.lft.to/lastmile_qr_scan"}, "lon": -77.0280375, "bike_id": "b1de4f3528a9f5445485faa2484d49fc", "type": "electric_scooter", "name": "b1de4f3528a9f5445485faa2484d49fc"}, {"is_disabled": 0, "is_reserved": 0, "fusion_lat": 0.0, "lat": 38.929051333333334, "fusion_lon": 0.0, "rental_uris": {"ios": "https://dc.lft.to/lastmile_qr_scan", "android": "https://dc.lft.to/lastmile_qr_scan"}, "lon": -77.05493033333333, "bike_id": "924e23c7505fdd9acd1ab73bf2fcd5ba", "type": "electric_scooter", "name": "924e23c7505fdd9acd1ab73bf2fcd5ba"}, {"is_disabled": 0, "is_reserved": 0, "fusion_lat": 0.0, "lat": 38.925663, "fusion_lon": 0.0, "rental_uris": {"ios": "https://dc.lft.to/lastmile_qr_scan", "android": "https://dc.lft.to/lastmile_qr_scan"}, "lon": -77.022847, "bike_id": "f581d5268f5dbcca801182db8e6719b4", "type": "electric_scooter", "name": "f581d5268f5dbcca801182db8e6719b4"}, {"is_disabled": 0, "is_reserved": 0, "fusion_lat": 0.0, "lat": 38.90976533333333, "fusion_lon": 0.0, "rental_uris": {"ios": "https://dc.lft.to/lastmile_qr_scan", "android": "https://dc.lft.to/lastmile_qr_scan"}, "lon": -77.03251766666666, "bike_id": "02abfdd4b3e2ee6b46d57615cf1ba91b", "type": "electric_scooter", "name": "02abfdd4b3e2ee6b46d57615cf1ba91b"}, {"is_disabled": 0, "is_reserved": 0, "fusion_lat": 0.0, "lat": 38.951496666666664, "fusion_lon": 0.0, "rental_uris": {"ios": "https://dc.lft.to/lastmile_qr_scan", "android": "https://dc.lft.to/lastmile_qr_scan"}, "lon": -77.01865133333334, "bike_id": "c857b3de80e5b9947ff662420cf18ccd", "type": "electric_scooter", "name": "c857b3de80e5b9947ff662420cf18ccd"}, {"is_disabled": 0, "is_reserved": 0, "fusion_lat": 0.0, "lat": 38.92043783333333, "fusion_lon": 0.0, "rental_uris": {"ios": "https://dc.lft.to/lastmile_qr_scan", "android": "https://dc.lft.to/lastmile_qr_scan"}, "lon": -77.01771416666666, "bike_id": "c3a7b6efd19912bb8643ae236be43ee1", "type": "electric_scooter", "name": "c3a7b6efd19912bb8643ae236be43ee1"}, {"is_disabled": 0, "is_reserved": 0, "fusion_lat": 0.0, "lat": 38.8990805, "fusion_lon": 0.0, "rental_uris": {"ios": "https://dc.lft.to/lastmile_qr_scan", "android": "https://dc.lft.to/lastmile_qr_scan"}, "lon": -77.03228166666666, "bike_id": "2fe4199ce2dd6640b94b9a36d77c2ce1", "type": "electric_scooter", "name": "2fe4199ce2dd6640b94b9a36d77c2ce1"}, {"is_disabled": 0, "is_reserved": 0, "fusion_lat": 0.0, "lat": 38.91258716666667, "fusion_lon": 0.0, "rental_uris": {"ios": "https://dc.lft.to/lastmile_qr_scan", "android": "https://dc.lft.to/lastmile_qr_scan"}, "lon": -77.01907016666667, "bike_id": "73962fda0246182a5380c0e803672c31", "type": "electric_scooter", "name": "73962fda0246182a5380c0e803672c31"}, {"is_disabled": 0, "is_reserved": 0, "fusion_lat": 0.0, "lat": 38.900135, "fusion_lon": 0.0, "rental_uris": {"ios": "https://dc.lft.to/lastmile_qr_scan", "android": "https://dc.lft.to/lastmile_qr_scan"}, "lon": -77.04892533333333, "bike_id": "c193e1059d6341cb79db481d8e0ef9aa", "type": "electric_scooter", "name": "c193e1059d6341cb79db481d8e0ef9aa"}, {"is_disabled": 0, "is_reserved": 0, "fusion_lat": 0.0, "lat": 38.92071266666667, "fusion_lon": 0.0, "rental_uris": {"ios": "https://dc.lft.to/lastmile_qr_scan", "android": "https://dc.lft.to/lastmile_qr_scan"}, "lon": -77.04211183333334, "bike_id": "f9133217b5a174d9a68d7173c2a1c986", "type": "electric_scooter", "name": "f9133217b5a174d9a68d7173c2a1c986"}, {"is_disabled": 0, "is_reserved": 0, "fusion_lat": 0.0, "lat": 38.91657633333333, "fusion_lon": 0.0, "rental_uris": {"ios": "https://dc.lft.to/lastmile_qr_scan", "android": "https://dc.lft.to/lastmile_qr_scan"}, "lon": -77.02387466666667, "bike_id": "5dfb42478a7e92c9d27944a234abb7c7", "type": "electric_scooter", "name": "5dfb42478a7e92c9d27944a234abb7c7"}, {"is_disabled": 0, "is_reserved": 0, "fusion_lat": 0.0, "lat": 38.896422666666666, "fusion_lon": 0.0, "rental_uris": {"ios": "https://dc.lft.to/lastmile_qr_scan", "android": "https://dc.lft.to/lastmile_qr_scan"}, "lon": -77.03204666666667, "bike_id": "38a411a6b42a138bc58f02c4a8213844", "type": "electric_scooter", "name": "38a411a6b42a138bc58f02c4a8213844"}, {"is_disabled": 0, "is_reserved": 0, "fusion_lat": 0.0, "lat": 38.911023, "fusion_lon": 0.0, "rental_uris": {"ios": "https://dc.lft.to/lastmile_qr_scan", "android": "https://dc.lft.to/lastmile_qr_scan"}, "lon": -77.0319365, "bike_id": "01939da16f3d1ef32a5bf337bbf0ad58", "type": "electric_scooter", "name": "01939da16f3d1ef32a5bf337bbf0ad58"}, {"is_disabled": 0, "is_reserved": 0, "fusion_lat": 0.0, "lat": 38.90732716666667, "fusion_lon": 0.0, "rental_uris": {"ios": "https://dc.lft.to/lastmile_qr_scan", "android": "https://dc.lft.to/lastmile_qr_scan"}, "lon": -77.02437666666667, "bike_id": "b63e5f279bc6289b3cb2194e689fd3f2", "type": "electric_scooter", "name": "b63e5f279bc6289b3cb2194e689fd3f2"}, {"is_disabled": 0, "is_reserved": 0, "fusion_lat": 0.0, "lat": 38.895159166666666, "fusion_lon": 0.0, "rental_uris": {"ios": "https://dc.lft.to/lastmile_qr_scan", "android": "https://dc.lft.to/lastmile_qr_scan"}, "lon": -77.02283016666667, "bike_id": "66e43f1e22339405c6a15a346c03dce3", "type": "electric_scooter", "name": "66e43f1e22339405c6a15a346c03dce3"}, {"is_disabled": 0, "is_reserved": 0, "fusion_lat": 0.0, "lat": 38.89631133333334, "fusion_lon": 0.0, "rental_uris": {"ios": "https://dc.lft.to/lastmile_qr_scan", "android": "https://dc.lft.to/lastmile_qr_scan"}, "lon": -77.02596766666667, "bike_id": "240ab51de9ae92295d0e058f352c5b1b", "type": "electric_scooter", "name": "240ab51de9ae92295d0e058f352c5b1b"}, {"is_disabled": 0, "is_reserved": 0, "fusion_lat": 0.0, "lat": 38.902641, "fusion_lon": 0.0, "rental_uris": {"ios": "https://dc.lft.to/lastmile_qr_scan", "android": "https://dc.lft.to/lastmile_qr_scan"}, "lon": -77.05196916666667, "bike_id": "df3235a9c62d8831ab9b11beef9e2d58", "type": "electric_scooter", "name": "df3235a9c62d8831ab9b11beef9e2d58"}, {"is_disabled": 0, "is_reserved": 0, "fusion_lat": 0.0, "lat": 38.90536916666667, "fusion_lon": 0.0, "rental_uris": {"ios": "https://dc.lft.to/lastmile_qr_scan", "android": "https://dc.lft.to/lastmile_qr_scan"}, "lon": -77.0651885, "bike_id": "32543da37471d6884345b5fc070c2357", "type": "electric_scooter", "name": "32543da37471d6884345b5fc070c2357"}, {"is_disabled": 0, "is_reserved": 0, "fusion_lat": 0.0, "lat": 38.82039983333333, "fusion_lon": 0.0, "rental_uris": {"ios": "https://dc.lft.to/lastmile_qr_scan", "android": "https://dc.lft.to/lastmile_qr_scan"}, "lon": -77.054548, "bike_id": "883c66daecea5e1e642be564bd4961e1", "type": "electric_bike", "name": "883c66daecea5e1e642be564bd4961e1"}, {"is_disabled": 0, "is_reserved": 0, "fusion_lat": 0.0, "lat": 38.93525116666667, "fusion_lon": 0.0, "rental_uris": {"ios": "https://dc.lft.to/lastmile_qr_scan", "android": "https://dc.lft.to/lastmile_qr_scan"}, "lon": -77.0381165, "bike_id": "f0176359f8b20fb110913b9dfa4e8421", "type": "electric_scooter", "name": "f0176359f8b20fb110913b9dfa4e8421"}, {"is_disabled": 0, "is_reserved": 0, "fusion_lat": 0.0, "lat": 38.93702, "fusion_lon": 0.0, "rental_uris": {"ios": "https://dc.lft.to/lastmile_qr_scan", "android": "https://dc.lft.to/lastmile_qr_scan"}, "lon": -77.05684416666666, "bike_id": "6d31150ce55a009522beb11816ab2160", "type": "electric_scooter", "name": "6d31150ce55a009522beb11816ab2160"}, {"is_disabled": 0, "is_reserved": 0, "fusion_lat": 0.0, "lat": 38.88656983333333, "fusion_lon": 0.0, "rental_uris": {"ios": "https://dc.lft.to/lastmile_qr_scan", "android": "https://dc.lft.to/lastmile_qr_scan"}, "lon": -77.03388016666666, "bike_id": "728e3d2eaa62ea7bd6d783608ba4051a", "type": "electric_scooter", "name": "728e3d2eaa62ea7bd6d783608ba4051a"}, {"is_disabled": 0, "is_reserved": 0, "fusion_lat": 0.0, "lat": 38.9244665, "fusion_lon": 0.0, "rental_uris": {"ios": "https://dc.lft.to/lastmile_qr_scan", "android": "https://dc.lft.to/lastmile_qr_scan"}, "lon": -77.0402995, "bike_id": "e907c0f6f2dd01747c0161d04aedb5ca", "type": "electric_scooter", "name": "e907c0f6f2dd01747c0161d04aedb5ca"}, {"is_disabled": 0, "is_reserved": 0, "fusion_lat": 0.0, "lat": 38.906038, "fusion_lon": 0.0, "rental_uris": {"ios": "https://dc.lft.to/lastmile_qr_scan", "android": "https://dc.lft.to/lastmile_qr_scan"}, "lon": -77.04194366666667, "bike_id": "711bf229b3c20733cc42dfdb69b97fdd", "type": "electric_scooter", "name": "711bf229b3c20733cc42dfdb69b97fdd"}, {"is_disabled": 0, "is_reserved": 0, "fusion_lat": 0.0, "lat": 38.890219, "fusion_lon": 0.0, "rental_uris": {"ios": "https://dc.lft.to/lastmile_qr_scan", "android": "https://dc.lft.to/lastmile_qr_scan"}, "lon": -76.93729566666667, "bike_id": "13eee65d4ce602775c0482b29e3fda86", "type": "electric_scooter", "name": "13eee65d4ce602775c0482b29e3fda86"}, {"is_disabled": 0, "is_reserved": 0, "fusion_lat": 0.0, "lat": 38.8949445, "fusion_lon": 0.0, "rental_uris": {"ios": "https://dc.lft.to/lastmile_qr_scan", "android": "https://dc.lft.to/lastmile_qr_scan"}, "lon": -77.04196133333333, "bike_id": "c1fc5e50fd0a01156c4ebec1cf86e9eb", "type": "electric_scooter", "name": "c1fc5e50fd0a01156c4ebec1cf86e9eb"}, {"is_disabled": 0, "is_reserved": 0, "fusion_lat": 0.0, "lat": 38.894222, "fusion_lon": 0.0, "rental_uris": {"ios": "https://dc.lft.to/lastmile_qr_scan", "android": "https://dc.lft.to/lastmile_qr_scan"}, "lon": -77.021335, "bike_id": "da1c248f77cca8f1d4dd57a5a955b916", "type": "electric_scooter", "name": "da1c248f77cca8f1d4dd57a5a955b916"}, {"is_disabled": 0, "is_reserved": 0, "fusion_lat": 0.0, "lat": 38.9497755, "fusion_lon": 0.0, "rental_uris": {"ios": "https://dc.lft.to/lastmile_qr_scan", "android": "https://dc.lft.to/lastmile_qr_scan"}, "lon": -77.02446633333334, "bike_id": "99bc859eb1a67078aebf1b507e757273", "type": "electric_scooter", "name": "99bc859eb1a67078aebf1b507e757273"}, {"is_disabled": 0, "is_reserved": 0, "fusion_lat": 0.0, "lat": 38.928752333333335, "fusion_lon": 0.0, "rental_uris": {"ios": "https://dc.lft.to/lastmile_qr_scan", "android": "https://dc.lft.to/lastmile_qr_scan"}, "lon": -77.03263233333334, "bike_id": "5f738790553a929876b317b6a64e688d", "type": "electric_scooter", "name": "5f738790553a929876b317b6a64e688d"}, {"is_disabled": 0, "is_reserved": 0, "fusion_lat": 0.0, "lat": 38.96175366666667, "fusion_lon": 0.0, "rental_uris": {"ios": "https://dc.lft.to/lastmile_qr_scan", "android": "https://dc.lft.to/lastmile_qr_scan"}, "lon": -77.03228733333333, "bike_id": "28716bf0ad44cf3f663f9ef6bf00ae0e", "type": "electric_scooter", "name": "28716bf0ad44cf3f663f9ef6bf00ae0e"}, {"is_disabled": 0, "is_reserved": 0, "fusion_lat": 0.0, "lat": 38.8943325, "fusion_lon": 0.0, "rental_uris": {"ios": "https://dc.lft.to/lastmile_qr_scan", "android": "https://dc.lft.to/lastmile_qr_scan"}, "lon": -77.02196316666667, "bike_id": "a87b290d49f457d41c73651204ea7290", "type": "electric_scooter", "name": "a87b290d49f457d41c73651204ea7290"}, {"is_disabled": 0, "is_reserved": 0, "fusion_lat": 0.0, "lat": 38.94364016666667, "fusion_lon": 0.0, "rental_uris": {"ios": "https://dc.lft.to/lastmile_qr_scan", "android": "https://dc.lft.to/lastmile_qr_scan"}, "lon": -77.0611975, "bike_id": "0d7102489ed8a92fe07133b0844064a1", "type": "electric_scooter", "name": "0d7102489ed8a92fe07133b0844064a1"}, {"is_disabled": 0, "is_reserved": 0, "fusion_lat": 0.0, "lat": 38.9156515, "fusion_lon": 0.0, "rental_uris": {"ios": "https://dc.lft.to/lastmile_qr_scan", "android": "https://dc.lft.to/lastmile_qr_scan"}, "lon": -77.04011616666666, "bike_id": "7ab00926df9220bea3be396126b0b043", "type": "electric_scooter", "name": "7ab00926df9220bea3be396126b0b043"}, {"is_disabled": 0, "is_reserved": 0, "fusion_lat": 0.0, "lat": 38.903533833333334, "fusion_lon": 0.0, "rental_uris": {"ios": "https://dc.lft.to/lastmile_qr_scan", "android": "https://dc.lft.to/lastmile_qr_scan"}, "lon": -77.04824733333334, "bike_id": "f1e516e6318eaa0f1bcece1531c5be03", "type": "electric_scooter", "name": "f1e516e6318eaa0f1bcece1531c5be03"}, {"is_disabled": 0, "is_reserved": 0, "fusion_lat": 0.0, "lat": 38.91418183333333, "fusion_lon": 0.0, "rental_uris": {"ios": "https://dc.lft.to/lastmile_qr_scan", "android": "https://dc.lft.to/lastmile_qr_scan"}, "lon": -77.02952916666666, "bike_id": "34646e7577e07d6f2be38ff8660d369b", "type": "electric_scooter", "name": "34646e7577e07d6f2be38ff8660d369b"}, {"is_disabled": 0, "is_reserved": 0, "fusion_lat": 0.0, "lat": 38.894177666666664, "fusion_lon": 0.0, "rental_uris": {"ios": "https://dc.lft.to/lastmile_qr_scan", "android": "https://dc.lft.to/lastmile_qr_scan"}, "lon": -77.02416683333334, "bike_id": "785abe81bf220f1b22de4c01abe8a139", "type": "electric_scooter", "name": "785abe81bf220f1b22de4c01abe8a139"}, {"is_disabled": 0, "is_reserved": 0, "fusion_lat": 0.0, "lat": 38.9051755, "fusion_lon": 0.0, "rental_uris": {"ios": "https://dc.lft.to/lastmile_qr_scan", "android": "https://dc.lft.to/lastmile_qr_scan"}, "lon": -77.00905966666667, "bike_id": "3d041de13240f3a858d7d1e001e68b16", "type": "electric_scooter", "name": "3d041de13240f3a858d7d1e001e68b16"}, {"is_disabled": 0, "is_reserved": 0, "fusion_lat": 0.0, "lat": 38.90425616666667, "fusion_lon": 0.0, "rental_uris": {"ios": "https://dc.lft.to/lastmile_qr_scan", "android": "https://dc.lft.to/lastmile_qr_scan"}, "lon": -77.06116283333333, "bike_id": "9aa8a8218a6902108b167e987373cc90", "type": "electric_scooter", "name": "9aa8a8218a6902108b167e987373cc90"}, {"is_disabled": 0, "is_reserved": 0, "fusion_lat": 0.0, "lat": 38.9444945, "fusion_lon": 0.0, "rental_uris": {"ios": "https://dc.lft.to/lastmile_qr_scan", "android": "https://dc.lft.to/lastmile_qr_scan"}, "lon": -77.03282066666667, "bike_id": "4bbc5375a62381d59152912dab2fd8cd", "type": "electric_scooter", "name": "4bbc5375a62381d59152912dab2fd8cd"}, {"is_disabled": 0, "is_reserved": 0, "fusion_lat": 0.0, "lat": 38.916965, "fusion_lon": 0.0, "rental_uris": {"ios": "https://dc.lft.to/lastmile_qr_scan", "android": "https://dc.lft.to/lastmile_qr_scan"}, "lon": -77.03772383333333, "bike_id": "36443a06f4c64cc29f77fb2430514db5", "type": "electric_scooter", "name": "36443a06f4c64cc29f77fb2430514db5"}, {"is_disabled": 0, "is_reserved": 0, "fusion_lat": 0.0, "lat": 38.915919333333335, "fusion_lon": 0.0, "rental_uris": {"ios": "https://dc.lft.to/lastmile_qr_scan", "android": "https://dc.lft.to/lastmile_qr_scan"}, "lon": -77.03210516666667, "bike_id": "3b5b138df1fb6e2c7ba735951d5ba4b9", "type": "electric_scooter", "name": "3b5b138df1fb6e2c7ba735951d5ba4b9"}, {"is_disabled": 0, "is_reserved": 0, "fusion_lat": 0.0, "lat": 38.95617033333333, "fusion_lon": 0.0, "rental_uris": {"ios": "https://dc.lft.to/lastmile_qr_scan", "android": "https://dc.lft.to/lastmile_qr_scan"}, "lon": -77.03310816666666, "bike_id": "172d3a9b45ce1909d913f67e7a822035", "type": "electric_scooter", "name": "172d3a9b45ce1909d913f67e7a822035"}, {"is_disabled": 0, "is_reserved": 0, "fusion_lat": 0.0, "lat": 38.89499983333333, "fusion_lon": 0.0, "rental_uris": {"ios": "https://dc.lft.to/lastmile_qr_scan", "android": "https://dc.lft.to/lastmile_qr_scan"}, "lon": -77.02200666666667, "bike_id": "e773b325c0f92c7afeaf98f4ee87c5b5", "type": "electric_scooter", "name": "e773b325c0f92c7afeaf98f4ee87c5b5"}, {"is_disabled": 0, "is_reserved": 0, "fusion_lat": 0.0, "lat": 38.9039755, "fusion_lon": 0.0, "rental_uris": {"ios": "https://dc.lft.to/lastmile_qr_scan", "android": "https://dc.lft.to/lastmile_qr_scan"}, "lon": -77.0629305, "bike_id": "4e61373d6f86cd886c4aaacfc6349cce", "type": "electric_scooter", "name": "4e61373d6f86cd886c4aaacfc6349cce"}, {"is_disabled": 0, "is_reserved": 0, "fusion_lat": 0.0, "lat": 38.91956033333334, "fusion_lon": 0.0, "rental_uris": {"ios": "https://dc.lft.to/lastmile_qr_scan", "android": "https://dc.lft.to/lastmile_qr_scan"}, "lon": -77.02308666666667, "bike_id": "e4ae80a6f1964c6baf71c32b585fa47f", "type": "electric_scooter", "name": "e4ae80a6f1964c6baf71c32b585fa47f"}, {"is_disabled": 0, "is_reserved": 0, "fusion_lat": 0.0, "lat": 38.928749833333335, "fusion_lon": 0.0, "rental_uris": {"ios": "https://dc.lft.to/lastmile_qr_scan", "android": "https://dc.lft.to/lastmile_qr_scan"}, "lon": -77.0399465, "bike_id": "58fd1d2b7fd647380eb61909c939dffc", "type": "electric_scooter", "name": "58fd1d2b7fd647380eb61909c939dffc"}, {"is_disabled": 0, "is_reserved": 0, "fusion_lat": 0.0, "lat": 38.91490366666667, "fusion_lon": 0.0, "rental_uris": {"ios": "https://dc.lft.to/lastmile_qr_scan", "android": "https://dc.lft.to/lastmile_qr_scan"}, "lon": -76.98365816666667, "bike_id": "f05fb1f0212a1eb8017ab57bbb293b09", "type": "electric_scooter", "name": "f05fb1f0212a1eb8017ab57bbb293b09"}, {"is_disabled": 0, "is_reserved": 0, "fusion_lat": 0.0, "lat": 38.90652716666666, "fusion_lon": 0.0, "rental_uris": {"ios": "https://dc.lft.to/lastmile_qr_scan", "android": "https://dc.lft.to/lastmile_qr_scan"}, "lon": -76.97941316666666, "bike_id": "f06c440bc6ffb7aedee1130d03916dc0", "type": "electric_scooter", "name": "f06c440bc6ffb7aedee1130d03916dc0"}, {"is_disabled": 0, "is_reserved": 0, "fusion_lat": 0.0, "lat": 38.90858716666666, "fusion_lon": 0.0, "rental_uris": {"ios": "https://dc.lft.to/lastmile_qr_scan", "android": "https://dc.lft.to/lastmile_qr_scan"}, "lon": -77.05488666666666, "bike_id": "71fc2589da658fc055be890c990e74ea", "type": "electric_bike", "name": "71fc2589da658fc055be890c990e74ea"}, {"is_disabled": 0, "is_reserved": 0, "fusion_lat": 0.0, "lat": 38.987165, "fusion_lon": 0.0, "rental_uris": {"ios": "https://dc.lft.to/lastmile_qr_scan", "android": "https://dc.lft.to/lastmile_qr_scan"}, "lon": -77.03762816666666, "bike_id": "49de34e7449bfe92a648e02fcf4ea411", "type": "electric_bike", "name": "49de34e7449bfe92a648e02fcf4ea411"}, {"is_disabled": 0, "is_reserved": 0, "fusion_lat": 0.0, "lat": 38.89750733333333, "fusion_lon": 0.0, "rental_uris": {"ios": "https://dc.lft.to/lastmile_qr_scan", "android": "https://dc.lft.to/lastmile_qr_scan"}, "lon": -77.0453705, "bike_id": "a330f594ba19699f6ebb0f9dadc0777b", "type": "electric_scooter", "name": "a330f594ba19699f6ebb0f9dadc0777b"}, {"is_disabled": 0, "is_reserved": 0, "fusion_lat": 0.0, "lat": 38.95085616666667, "fusion_lon": 0.0, "rental_uris": {"ios": "https://dc.lft.to/lastmile_qr_scan", "android": "https://dc.lft.to/lastmile_qr_scan"}, "lon": -77.0125505, "bike_id": "53cdafc065089363c8904dc04d8904fe", "type": "electric_bike", "name": "53cdafc065089363c8904dc04d8904fe"}, {"is_disabled": 0, "is_reserved": 0, "fusion_lat": 0.0, "lat": 38.8429035, "fusion_lon": 0.0, "rental_uris": {"ios": "https://dc.lft.to/lastmile_qr_scan", "android": "https://dc.lft.to/lastmile_qr_scan"}, "lon": -77.06382116666667, "bike_id": "a01cbac743a23d6e5f02a12dbe0d6cf6", "type": "electric_bike", "name": "a01cbac743a23d6e5f02a12dbe0d6cf6"}, {"is_disabled": 0, "is_reserved": 0, "fusion_lat": 0.0, "lat": 38.910679333333334, "fusion_lon": 0.0, "rental_uris": {"ios": "https://dc.lft.to/lastmile_qr_scan", "android": "https://dc.lft.to/lastmile_qr_scan"}, "lon": -77.0198235, "bike_id": "69f1352254f4d0c3800007c8eafef21f", "type": "electric_scooter", "name": "69f1352254f4d0c3800007c8eafef21f"}, {"is_disabled": 0, "is_reserved": 0, "fusion_lat": 0.0, "lat": 38.952493833333335, "fusion_lon": 0.0, "rental_uris": {"ios": "https://dc.lft.to/lastmile_qr_scan", "android": "https://dc.lft.to/lastmile_qr_scan"}, "lon": -77.09625516666667, "bike_id": "f8416522a02659bf3397be20167eae70", "type": "electric_bike", "name": "f8416522a02659bf3397be20167eae70"}, {"is_disabled": 0, "is_reserved": 0, "fusion_lat": 0.0, "lat": 38.975915666666666, "fusion_lon": 0.0, "rental_uris": {"ios": "https://dc.lft.to/lastmile_qr_scan", "android": "https://dc.lft.to/lastmile_qr_scan"}, "lon": -77.01873716666667, "bike_id": "b4675506e4602e5c0c1dd56575635d30", "type": "electric_scooter", "name": "b4675506e4602e5c0c1dd56575635d30"}, {"is_disabled": 0, "is_reserved": 0, "fusion_lat": 0.0, "lat": 38.89515216666667, "fusion_lon": 0.0, "rental_uris": {"ios": "https://dc.lft.to/lastmile_qr_scan", "android": "https://dc.lft.to/lastmile_qr_scan"}, "lon": -77.022801, "bike_id": "14f06ad1e267c34e15e93668a6da28f9", "type": "electric_scooter", "name": "14f06ad1e267c34e15e93668a6da28f9"}, {"is_disabled": 0, "is_reserved": 0, "fusion_lat": 0.0, "lat": 38.928581666666666, "fusion_lon": 0.0, "rental_uris": {"ios": "https://dc.lft.to/lastmile_qr_scan", "android": "https://dc.lft.to/lastmile_qr_scan"}, "lon": -77.03721766666666, "bike_id": "ba5fedf1b23d701396227633120f9fe2", "type": "electric_scooter", "name": "ba5fedf1b23d701396227633120f9fe2"}, {"is_disabled": 0, "is_reserved": 0, "fusion_lat": 0.0, "lat": 38.9202915, "fusion_lon": 0.0, "rental_uris": {"ios": "https://dc.lft.to/lastmile_qr_scan", "android": "https://dc.lft.to/lastmile_qr_scan"}, "lon": -77.03077883333333, "bike_id": "4573993901b23a4968261796d939ce58", "type": "electric_scooter", "name": "4573993901b23a4968261796d939ce58"}, {"is_disabled": 0, "is_reserved": 0, "fusion_lat": 0.0, "lat": 38.936647666666666, "fusion_lon": 0.0, "rental_uris": {"ios": "https://dc.lft.to/lastmile_qr_scan", "android": "https://dc.lft.to/lastmile_qr_scan"}, "lon": -77.0660705, "bike_id": "baa7d3dc04f3b35ee9114f32e05b4507", "type": "electric_scooter", "name": "baa7d3dc04f3b35ee9114f32e05b4507"}, {"is_disabled": 0, "is_reserved": 0, "fusion_lat": 0.0, "lat": 38.901539166666666, "fusion_lon": 0.0, "rental_uris": {"ios": "https://dc.lft.to/lastmile_qr_scan", "android": "https://dc.lft.to/lastmile_qr_scan"}, "lon": -77.03240516666666, "bike_id": "08e06876c1fbef2fc200cbfe4beb86b7", "type": "electric_scooter", "name": "08e06876c1fbef2fc200cbfe4beb86b7"}, {"is_disabled": 0, "is_reserved": 0, "fusion_lat": 0.0, "lat": 38.918178833333336, "fusion_lon": 0.0, "rental_uris": {"ios": "https://dc.lft.to/lastmile_qr_scan", "android": "https://dc.lft.to/lastmile_qr_scan"}, "lon": -77.027746, "bike_id": "30f0a4eb6d48f26460f4251a6abe8f6a", "type": "electric_scooter", "name": "30f0a4eb6d48f26460f4251a6abe8f6a"}, {"is_disabled": 0, "is_reserved": 0, "fusion_lat": 0.0, "lat": 38.884142, "fusion_lon": 0.0, "rental_uris": {"ios": "https://dc.lft.to/lastmile_qr_scan", "android": "https://dc.lft.to/lastmile_qr_scan"}, "lon": -77.02905533333333, "bike_id": "c012e8915ca7f21374e07af7ffbe8c6e", "type": "electric_scooter", "name": "c012e8915ca7f21374e07af7ffbe8c6e"}, {"is_disabled": 0, "is_reserved": 0, "fusion_lat": 0.0, "lat": 38.87720066666667, "fusion_lon": 0.0, "rental_uris": {"ios": "https://dc.lft.to/lastmile_qr_scan", "android": "https://dc.lft.to/lastmile_qr_scan"}, "lon": -77.01753783333334, "bike_id": "18f8f07a1d7ea27732a814bdc4373845", "type": "electric_scooter", "name": "18f8f07a1d7ea27732a814bdc4373845"}, {"is_disabled": 0, "is_reserved": 0, "fusion_lat": 0.0, "lat": 38.9209635, "fusion_lon": 0.0, "rental_uris": {"ios": "https://dc.lft.to/lastmile_qr_scan", "android": "https://dc.lft.to/lastmile_qr_scan"}, "lon": -77.0174825, "bike_id": "dd98ce64acdbff1cbb975c2a73e08bfd", "type": "electric_scooter", "name": "dd98ce64acdbff1cbb975c2a73e08bfd"}, {"is_disabled": 0, "is_reserved": 0, "fusion_lat": 0.0, "lat": 38.91611116666667, "fusion_lon": 0.0, "rental_uris": {"ios": "https://dc.lft.to/lastmile_qr_scan", "android": "https://dc.lft.to/lastmile_qr_scan"}, "lon": -77.02132183333333, "bike_id": "62b2bcf2ca94411d6147283699dc8f5a", "type": "electric_scooter", "name": "62b2bcf2ca94411d6147283699dc8f5a"}, {"is_disabled": 0, "is_reserved": 0, "fusion_lat": 0.0, "lat": 38.899187833333336, "fusion_lon": 0.0, "rental_uris": {"ios": "https://dc.lft.to/lastmile_qr_scan", "android": "https://dc.lft.to/lastmile_qr_scan"}, "lon": -77.0322685, "bike_id": "1e6e39949ba0f056e82d0bd830b8c617", "type": "electric_scooter", "name": "1e6e39949ba0f056e82d0bd830b8c617"}, {"is_disabled": 0, "is_reserved": 0, "fusion_lat": 0.0, "lat": 38.871734000000004, "fusion_lon": 0.0, "rental_uris": {"ios": "https://dc.lft.to/lastmile_qr_scan", "android": "https://dc.lft.to/lastmile_qr_scan"}, "lon": -77.00552816666666, "bike_id": "0003b0b10226911f1a0d68ae78cd9c25", "type": "electric_scooter", "name": "0003b0b10226911f1a0d68ae78cd9c25"}, {"is_disabled": 0, "is_reserved": 0, "fusion_lat": 0.0, "lat": 38.920095, "fusion_lon": 0.0, "rental_uris": {"ios": "https://dc.lft.to/lastmile_qr_scan", "android": "https://dc.lft.to/lastmile_qr_scan"}, "lon": -77.04175816666667, "bike_id": "e628f0775ecd0fd35a71a445ee8e5591", "type": "electric_scooter", "name": "e628f0775ecd0fd35a71a445ee8e5591"}, {"is_disabled": 0, "is_reserved": 0, "fusion_lat": 0.0, "lat": 38.90862333333333, "fusion_lon": 0.0, "rental_uris": {"ios": "https://dc.lft.to/lastmile_qr_scan", "android": "https://dc.lft.to/lastmile_qr_scan"}, "lon": -77.04590466666667, "bike_id": "251b7fff931d434e14b6540fd5659f97", "type": "electric_scooter", "name": "251b7fff931d434e14b6540fd5659f97"}, {"is_disabled": 0, "is_reserved": 0, "fusion_lat": 0.0, "lat": 38.920999, "fusion_lon": 0.0, "rental_uris": {"ios": "https://dc.lft.to/lastmile_qr_scan", "android": "https://dc.lft.to/lastmile_qr_scan"}, "lon": -77.03175583333334, "bike_id": "ac800544a34d979ba78af50fdc8c4a4f", "type": "electric_scooter", "name": "ac800544a34d979ba78af50fdc8c4a4f"}, {"is_disabled": 0, "is_reserved": 0, "fusion_lat": 0.0, "lat": 38.932364166666666, "fusion_lon": 0.0, "rental_uris": {"ios": "https://dc.lft.to/lastmile_qr_scan", "android": "https://dc.lft.to/lastmile_qr_scan"}, "lon": -76.99698616666667, "bike_id": "4e9f798e10e635e1f85c806d84347617", "type": "electric_scooter", "name": "4e9f798e10e635e1f85c806d84347617"}, {"is_disabled": 0, "is_reserved": 0, "fusion_lat": 0.0, "lat": 38.915530833333335, "fusion_lon": 0.0, "rental_uris": {"ios": "https://dc.lft.to/lastmile_qr_scan", "android": "https://dc.lft.to/lastmile_qr_scan"}, "lon": -77.04623033333333, "bike_id": "1a8b60c73d08895e4d0726eea3c28d30", "type": "electric_scooter", "name": "1a8b60c73d08895e4d0726eea3c28d30"}, {"is_disabled": 0, "is_reserved": 0, "fusion_lat": 0.0, "lat": 38.91554433333334, "fusion_lon": 0.0, "rental_uris": {"ios": "https://dc.lft.to/lastmile_qr_scan", "android": "https://dc.lft.to/lastmile_qr_scan"}, "lon": -77.04617216666666, "bike_id": "33f200fc5b14c44a521c555b65e8716e", "type": "electric_scooter", "name": "33f200fc5b14c44a521c555b65e8716e"}, {"is_disabled": 0, "is_reserved": 0, "fusion_lat": 0.0, "lat": 38.974803333333334, "fusion_lon": 0.0, "rental_uris": {"ios": "https://dc.lft.to/lastmile_qr_scan", "android": "https://dc.lft.to/lastmile_qr_scan"}, "lon": -77.01485483333333, "bike_id": "0d78e10070f6f5cdb0c0fbe79e22de53", "type": "electric_scooter", "name": "0d78e10070f6f5cdb0c0fbe79e22de53"}, {"is_disabled": 0, "is_reserved": 0, "fusion_lat": 0.0, "lat": 38.90662483333333, "fusion_lon": 0.0, "rental_uris": {"ios": "https://dc.lft.to/lastmile_qr_scan", "android": "https://dc.lft.to/lastmile_qr_scan"}, "lon": -77.00059483333334, "bike_id": "04e756e8db0ce9b2ff284cd5802a460e", "type": "electric_scooter", "name": "04e756e8db0ce9b2ff284cd5802a460e"}, {"is_disabled": 0, "is_reserved": 0, "fusion_lat": 0.0, "lat": 38.8948635, "fusion_lon": 0.0, "rental_uris": {"ios": "https://dc.lft.to/lastmile_qr_scan", "android": "https://dc.lft.to/lastmile_qr_scan"}, "lon": -76.97877216666667, "bike_id": "46704f7f72ced10c308d43ecab385066", "type": "electric_scooter", "name": "46704f7f72ced10c308d43ecab385066"}, {"is_disabled": 0, "is_reserved": 0, "fusion_lat": 0.0, "lat": 38.916882666666666, "fusion_lon": 0.0, "rental_uris": {"ios": "https://dc.lft.to/lastmile_qr_scan", "android": "https://dc.lft.to/lastmile_qr_scan"}, "lon": -77.02806266666667, "bike_id": "17fac43b4c409de90cd826e700bd9408", "type": "electric_scooter", "name": "17fac43b4c409de90cd826e700bd9408"}, {"is_disabled": 0, "is_reserved": 0, "fusion_lat": 0.0, "lat": 38.901421166666665, "fusion_lon": 0.0, "rental_uris": {"ios": "https://dc.lft.to/lastmile_qr_scan", "android": "https://dc.lft.to/lastmile_qr_scan"}, "lon": -77.03218016666666, "bike_id": "389988ceacc85367887d35fe9f820e08", "type": "electric_scooter", "name": "389988ceacc85367887d35fe9f820e08"}, {"is_disabled": 0, "is_reserved": 0, "fusion_lat": 0.0, "lat": 38.871764666666664, "fusion_lon": 0.0, "rental_uris": {"ios": "https://dc.lft.to/lastmile_qr_scan", "android": "https://dc.lft.to/lastmile_qr_scan"}, "lon": -77.006213, "bike_id": "c0cd49df1c211d9c8524823133d0224a", "type": "electric_scooter", "name": "c0cd49df1c211d9c8524823133d0224a"}, {"is_disabled": 0, "is_reserved": 0, "fusion_lat": 0.0, "lat": 38.97157116666666, "fusion_lon": 0.0, "rental_uris": {"ios": "https://dc.lft.to/lastmile_qr_scan", "android": "https://dc.lft.to/lastmile_qr_scan"}, "lon": -76.98362233333333, "bike_id": "fc0f7c5c2efcd8b496cdb8664542a552", "type": "electric_bike", "name": "fc0f7c5c2efcd8b496cdb8664542a552"}, {"is_disabled": 0, "is_reserved": 0, "fusion_lat": 0.0, "lat": 38.92654116666667, "fusion_lon": 0.0, "rental_uris": {"ios": "https://dc.lft.to/lastmile_qr_scan", "android": "https://dc.lft.to/lastmile_qr_scan"}, "lon": -77.090198, "bike_id": "598c7b4c6e1f514d9595c79c4361a652", "type": "electric_bike", "name": "598c7b4c6e1f514d9595c79c4361a652"}, {"is_disabled": 0, "is_reserved": 0, "fusion_lat": 0.0, "lat": 38.9115645, "fusion_lon": 0.0, "rental_uris": {"ios": "https://dc.lft.to/lastmile_qr_scan", "android": "https://dc.lft.to/lastmile_qr_scan"}, "lon": -77.01085883333333, "bike_id": "8b2ca98dcebc70d58078daad732dfb05", "type": "electric_scooter", "name": "8b2ca98dcebc70d58078daad732dfb05"}, {"is_disabled": 0, "is_reserved": 0, "fusion_lat": 0.0, "lat": 38.897069333333334, "fusion_lon": 0.0, "rental_uris": {"ios": "https://dc.lft.to/lastmile_qr_scan", "android": "https://dc.lft.to/lastmile_qr_scan"}, "lon": -76.939141, "bike_id": "ac223196d7aa80365cee298f0bc20237", "type": "electric_scooter", "name": "ac223196d7aa80365cee298f0bc20237"}, {"is_disabled": 0, "is_reserved": 0, "fusion_lat": 0.0, "lat": 38.890224, "fusion_lon": 0.0, "rental_uris": {"ios": "https://dc.lft.to/lastmile_qr_scan", "android": "https://dc.lft.to/lastmile_qr_scan"}, "lon": -76.9373175, "bike_id": "3091868af2c18720e52ea22228218d11", "type": "electric_scooter", "name": "3091868af2c18720e52ea22228218d11"}, {"is_disabled": 0, "is_reserved": 0, "fusion_lat": 0.0, "lat": 38.939371, "fusion_lon": 0.0, "rental_uris": {"ios": "https://dc.lft.to/lastmile_qr_scan", "android": "https://dc.lft.to/lastmile_qr_scan"}, "lon": -77.02581816666667, "bike_id": "4fe86fb7c3b62fded3576374bba26fae", "type": "electric_scooter", "name": "4fe86fb7c3b62fded3576374bba26fae"}, {"is_disabled": 0, "is_reserved": 0, "fusion_lat": 0.0, "lat": 38.894870833333336, "fusion_lon": 0.0, "rental_uris": {"ios": "https://dc.lft.to/lastmile_qr_scan", "android": "https://dc.lft.to/lastmile_qr_scan"}, "lon": -77.0098555, "bike_id": "505fc535855584ffe94ff98a5f30f1e1", "type": "electric_scooter", "name": "505fc535855584ffe94ff98a5f30f1e1"}, {"is_disabled": 0, "is_reserved": 0, "fusion_lat": 0.0, "lat": 38.89567016666667, "fusion_lon": 0.0, "rental_uris": {"ios": "https://dc.lft.to/lastmile_qr_scan", "android": "https://dc.lft.to/lastmile_qr_scan"}, "lon": -77.1273295, "bike_id": "28766098d52501a2ca87e26c1d234050", "type": "electric_bike", "name": "28766098d52501a2ca87e26c1d234050"}, {"is_disabled": 0, "is_reserved": 0, "fusion_lat": 0.0, "lat": 38.910699, "fusion_lon": 0.0, "rental_uris": {"ios": "https://dc.lft.to/lastmile_qr_scan", "android": "https://dc.lft.to/lastmile_qr_scan"}, "lon": -77.03731933333333, "bike_id": "cf9340dc0d712a6f480ef0243b10a1a3", "type": "electric_scooter", "name": "cf9340dc0d712a6f480ef0243b10a1a3"}, {"is_disabled": 0, "is_reserved": 0, "fusion_lat": 0.0, "lat": 38.903256999999996, "fusion_lon": 0.0, "rental_uris": {"ios": "https://dc.lft.to/lastmile_qr_scan", "android": "https://dc.lft.to/lastmile_qr_scan"}, "lon": -76.97540916666667, "bike_id": "c07b43074257771e4ed0ef52be589c97", "type": "electric_scooter", "name": "c07b43074257771e4ed0ef52be589c97"}, {"is_disabled": 0, "is_reserved": 0, "fusion_lat": 0.0, "lat": 38.91716366666667, "fusion_lon": 0.0, "rental_uris": {"ios": "https://dc.lft.to/lastmile_qr_scan", "android": "https://dc.lft.to/lastmile_qr_scan"}, "lon": -77.0417475, "bike_id": "80097e6a8e34f300fed8e626286b4ccb", "type": "electric_scooter", "name": "80097e6a8e34f300fed8e626286b4ccb"}, {"is_disabled": 0, "is_reserved": 0, "fusion_lat": 0.0, "lat": 38.90978466666667, "fusion_lon": 0.0, "rental_uris": {"ios": "https://dc.lft.to/lastmile_qr_scan", "android": "https://dc.lft.to/lastmile_qr_scan"}, "lon": -77.03327166666666, "bike_id": "5859ae3803cd9bd0caed44cfff1e8101", "type": "electric_scooter", "name": "5859ae3803cd9bd0caed44cfff1e8101"}, {"is_disabled": 0, "is_reserved": 0, "fusion_lat": 0.0, "lat": 38.92413116666667, "fusion_lon": 0.0, "rental_uris": {"ios": "https://dc.lft.to/lastmile_qr_scan", "android": "https://dc.lft.to/lastmile_qr_scan"}, "lon": -77.02705216666666, "bike_id": "73b7a82538c13e7083e8c68e3b76b5f5", "type": "electric_scooter", "name": "73b7a82538c13e7083e8c68e3b76b5f5"}, {"is_disabled": 0, "is_reserved": 0, "fusion_lat": 0.0, "lat": 38.85840233333333, "fusion_lon": 0.0, "rental_uris": {"ios": "https://dc.lft.to/lastmile_qr_scan", "android": "https://dc.lft.to/lastmile_qr_scan"}, "lon": -76.98817483333333, "bike_id": "dc696cca8bb760da31c6a2992e0201e6", "type": "electric_scooter", "name": "dc696cca8bb760da31c6a2992e0201e6"}, {"is_disabled": 0, "is_reserved": 0, "fusion_lat": 0.0, "lat": 38.85790183333334, "fusion_lon": 0.0, "rental_uris": {"ios": "https://dc.lft.to/lastmile_qr_scan", "android": "https://dc.lft.to/lastmile_qr_scan"}, "lon": -76.98748716666667, "bike_id": "5ab9d15367dcde3c5d39f8ed0828b0eb", "type": "electric_bike", "name": "5ab9d15367dcde3c5d39f8ed0828b0eb"}, {"is_disabled": 0, "is_reserved": 0, "fusion_lat": 0.0, "lat": 38.923114, "fusion_lon": 0.0, "rental_uris": {"ios": "https://dc.lft.to/lastmile_qr_scan", "android": "https://dc.lft.to/lastmile_qr_scan"}, "lon": -77.02814733333334, "bike_id": "e64c37d8178db718340d876c93a0e648", "type": "electric_scooter", "name": "e64c37d8178db718340d876c93a0e648"}, {"is_disabled": 0, "is_reserved": 0, "fusion_lat": 0.0, "lat": 38.89729116666667, "fusion_lon": 0.0, "rental_uris": {"ios": "https://dc.lft.to/lastmile_qr_scan", "android": "https://dc.lft.to/lastmile_qr_scan"}, "lon": -77.027341, "bike_id": "ecaa78735b2b022464207ee7113c79d2", "type": "electric_scooter", "name": "ecaa78735b2b022464207ee7113c79d2"}, {"is_disabled": 0, "is_reserved": 0, "fusion_lat": 0.0, "lat": 38.922598666666666, "fusion_lon": 0.0, "rental_uris": {"ios": "https://dc.lft.to/lastmile_qr_scan", "android": "https://dc.lft.to/lastmile_qr_scan"}, "lon": -77.04294166666666, "bike_id": "c6b63ebb632ce41530796c7d95b225b6", "type": "electric_scooter", "name": "c6b63ebb632ce41530796c7d95b225b6"}, {"is_disabled": 0, "is_reserved": 0, "fusion_lat": 0.0, "lat": 38.9181745, "fusion_lon": 0.0, "rental_uris": {"ios": "https://dc.lft.to/lastmile_qr_scan", "android": "https://dc.lft.to/lastmile_qr_scan"}, "lon": -77.03791966666667, "bike_id": "9ea94fbcb5ccadce715c37e3a4ee4130", "type": "electric_scooter", "name": "9ea94fbcb5ccadce715c37e3a4ee4130"}, {"is_disabled": 0, "is_reserved": 0, "fusion_lat": 0.0, "lat": 38.9141, "fusion_lon": 0.0, "rental_uris": {"ios": "https://dc.lft.to/lastmile_qr_scan", "android": "https://dc.lft.to/lastmile_qr_scan"}, "lon": -77.02974733333333, "bike_id": "d65951138f0f214a5f2fde63d22477d5", "type": "electric_scooter", "name": "d65951138f0f214a5f2fde63d22477d5"}, {"is_disabled": 0, "is_reserved": 0, "fusion_lat": 0.0, "lat": 38.926438, "fusion_lon": 0.0, "rental_uris": {"ios": "https://dc.lft.to/lastmile_qr_scan", "android": "https://dc.lft.to/lastmile_qr_scan"}, "lon": -77.03699583333334, "bike_id": "09078146a75cd90999eba99cf5416b63", "type": "electric_scooter", "name": "09078146a75cd90999eba99cf5416b63"}, {"is_disabled": 0, "is_reserved": 0, "fusion_lat": 0.0, "lat": 38.9026135, "fusion_lon": 0.0, "rental_uris": {"ios": "https://dc.lft.to/lastmile_qr_scan", "android": "https://dc.lft.to/lastmile_qr_scan"}, "lon": -77.03954066666667, "bike_id": "99c7836f57e79a9a483bd110c37341d2", "type": "electric_scooter", "name": "99c7836f57e79a9a483bd110c37341d2"}, {"is_disabled": 0, "is_reserved": 0, "fusion_lat": 0.0, "lat": 38.832991666666665, "fusion_lon": 0.0, "rental_uris": {"ios": "https://dc.lft.to/lastmile_qr_scan", "android": "https://dc.lft.to/lastmile_qr_scan"}, "lon": -77.084073, "bike_id": "a3e854ee8c0ff082c5d2726a88a2168f", "type": "electric_bike", "name": "a3e854ee8c0ff082c5d2726a88a2168f"}, {"is_disabled": 0, "is_reserved": 0, "fusion_lat": 0.0, "lat": 38.89850833333333, "fusion_lon": 0.0, "rental_uris": {"ios": "https://dc.lft.to/lastmile_qr_scan", "android": "https://dc.lft.to/lastmile_qr_scan"}, "lon": -76.927498, "bike_id": "ff0c535439adbd7d2a575fdf55aac4c6", "type": "electric_scooter", "name": "ff0c535439adbd7d2a575fdf55aac4c6"}, {"is_disabled": 0, "is_reserved": 0, "fusion_lat": 0.0, "lat": 38.904398, "fusion_lon": 0.0, "rental_uris": {"ios": "https://dc.lft.to/lastmile_qr_scan", "android": "https://dc.lft.to/lastmile_qr_scan"}, "lon": -76.972271, "bike_id": "9e7fc1acb7e90530b501f139f628cc44", "type": "electric_bike", "name": "9e7fc1acb7e90530b501f139f628cc44"}, {"is_disabled": 0, "is_reserved": 0, "fusion_lat": 0.0, "lat": 38.883822333333335, "fusion_lon": 0.0, "rental_uris": {"ios": "https://dc.lft.to/lastmile_qr_scan", "android": "https://dc.lft.to/lastmile_qr_scan"}, "lon": -76.99511883333334, "bike_id": "b3b880a4a06291cec6ba38b8cae60712", "type": "electric_scooter", "name": "b3b880a4a06291cec6ba38b8cae60712"}, {"is_disabled": 0, "is_reserved": 0, "fusion_lat": 0.0, "lat": 38.923634, "fusion_lon": 0.0, "rental_uris": {"ios": "https://dc.lft.to/lastmile_qr_scan", "android": "https://dc.lft.to/lastmile_qr_scan"}, "lon": -77.04308, "bike_id": "2db5390c55c45e94e46e42dfdaaa892a", "type": "electric_scooter", "name": "2db5390c55c45e94e46e42dfdaaa892a"}, {"is_disabled": 0, "is_reserved": 0, "fusion_lat": 0.0, "lat": 38.9287375, "fusion_lon": 0.0, "rental_uris": {"ios": "https://dc.lft.to/lastmile_qr_scan", "android": "https://dc.lft.to/lastmile_qr_scan"}, "lon": -77.0565325, "bike_id": "6ee715f75627a4ea243b9d8601c56788", "type": "electric_scooter", "name": "6ee715f75627a4ea243b9d8601c56788"}, {"is_disabled": 0, "is_reserved": 0, "fusion_lat": 0.0, "lat": 38.89511, "fusion_lon": 0.0, "rental_uris": {"ios": "https://dc.lft.to/lastmile_qr_scan", "android": "https://dc.lft.to/lastmile_qr_scan"}, "lon": -77.022055, "bike_id": "76dc30822294bf238a3d077f07654c2e", "type": "electric_scooter", "name": "76dc30822294bf238a3d077f07654c2e"}, {"is_disabled": 0, "is_reserved": 0, "fusion_lat": 0.0, "lat": 38.8803615, "fusion_lon": 0.0, "rental_uris": {"ios": "https://dc.lft.to/lastmile_qr_scan", "android": "https://dc.lft.to/lastmile_qr_scan"}, "lon": -76.92723366666667, "bike_id": "aa28c5dd78b43344f8be4b26883eaa8b", "type": "electric_scooter", "name": "aa28c5dd78b43344f8be4b26883eaa8b"}, {"is_disabled": 0, "is_reserved": 0, "fusion_lat": 0.0, "lat": 38.89915216666667, "fusion_lon": 0.0, "rental_uris": {"ios": "https://dc.lft.to/lastmile_qr_scan", "android": "https://dc.lft.to/lastmile_qr_scan"}, "lon": -76.93369316666667, "bike_id": "dd06388f9681d98513a1d698f70f8c98", "type": "electric_scooter", "name": "dd06388f9681d98513a1d698f70f8c98"}, {"is_disabled": 0, "is_reserved": 0, "fusion_lat": 0.0, "lat": 38.922618, "fusion_lon": 0.0, "rental_uris": {"ios": "https://dc.lft.to/lastmile_qr_scan", "android": "https://dc.lft.to/lastmile_qr_scan"}, "lon": -77.07273, "bike_id": "f139607d9dea973d9ebc532def7a25e8", "type": "electric_scooter", "name": "f139607d9dea973d9ebc532def7a25e8"}, {"is_disabled": 0, "is_reserved": 0, "fusion_lat": 0.0, "lat": 38.8923215, "fusion_lon": 0.0, "rental_uris": {"ios": "https://dc.lft.to/lastmile_qr_scan", "android": "https://dc.lft.to/lastmile_qr_scan"}, "lon": -77.03164583333333, "bike_id": "9dd04b65c8cbe826f9681c4aff054195", "type": "electric_scooter", "name": "9dd04b65c8cbe826f9681c4aff054195"}, {"is_disabled": 0, "is_reserved": 0, "fusion_lat": 0.0, "lat": 38.90391533333333, "fusion_lon": 0.0, "rental_uris": {"ios": "https://dc.lft.to/lastmile_qr_scan", "android": "https://dc.lft.to/lastmile_qr_scan"}, "lon": -77.00573933333334, "bike_id": "bf1d3d34acccb652b6a648cb1bfea25a", "type": "electric_scooter", "name": "bf1d3d34acccb652b6a648cb1bfea25a"},