{"data": {"bikes": [{"is_disabled": 0, "rental_uris": {"android": "https://dc.lft.to/lastmile_qr_scan", "ios": "https://dc.lft.to/lastmile_qr_scan"}, "is_reserved": 0, "name": "863fb38c85781d3253c94d9c3d703614", "lon": -77.05911966666666, "type": "electric_scooter", "bike_id": "863fb38c85781d3253c94d9c3d703614", "fusion_lon": 0.0, "lat": 38.90536266666667, "fusion_lat": 0.0}, {"is_disabled": 0, "rental_uris": {"android": "https://dc.lft.to/lastmile_qr_scan", "ios": "https://dc.lft.to/lastmile_qr_scan"}, "is_reserved": 0, "name": "1e19e4a7f3b68b66d0acd296dca784a9", "lon": -77.04981883333333, "type": "electric_bike", "bike_id": "1e19e4a7f3b68b66d0acd296dca784a9", "fusion_lon": 0.0, "lat": 38.99241416666667, "fusion_lat": 0.0}, {"is_disabled": 0, "rental_uris": {"android": "https://dc.lft.to/lastmile_qr_scan", "ios": "https://dc.lft.to/lastmile_qr_scan"}, "is_reserved": 0, "name": "85e1bde6589dd21d1e948b1e9288fc8c", "lon": -76.98096583333333, "type": "electric_bike", "bike_id": "85e1bde6589dd21d1e948b1e9288fc8c", "fusion_lon": 0.0, "lat": 38.85717133333333, "fusion_lat": 0.0}, {"is_disabled": 0, "rental_uris": {"android": "https://dc.lft.to/lastmile_qr_scan", "ios": "https://dc.lft.to/lastmile_qr_scan"}, "is_reserved": 0, "name": "4aabb816cdc0509545c1f745c00a7000", "lon": -77.0176275, "type": "electric_scooter", "bike_id": "4aabb816cdc0509545c1f745c00a7000", "fusion_lon": 0.0, "lat": 38.8858315, "fusion_lat": 0.0}, {"is_disabled": 0, "rental_uris": {"android": "https://dc.lft.to/lastmile_qr_scan", "ios": "https://dc.lft.to/lastmile_qr_scan"}, "is_reserved": 0, "name": "76fa65886ab3000f15c2d68423dcdb65", "lon": -77.04679616666667, "type": "electric_scooter", "bike_id": "76fa65886ab3000f15c2d68423dcdb65", "fusion_lon": 0.0, "lat": 38.91577866666667, "fusion_lat": 0.0}, {"is_disabled": 0, "rental_uris": {"android": "https://dc.lft.to/lastmile_qr_scan", "ios": "https://dc.lft.to/lastmile_qr_scan"}, "is_reserved": 0, "name": "43686a38091cb2ec229ea7e438817545", "lon": -77.19549283333333, "type": "electric_bike", "bike_id": "43686a38091cb2ec229ea7e438817545", "fusion_lon": 0.0, "lat": 39.11505783333333, "fusion_lat": 0.0}, {"is_disabled": 0, "rental_uris": {"android": "https://dc.lft.to/lastmile_qr_scan", "ios": "https://dc.lft.to/lastmile_qr_scan"}, "is_reserved": 0, "name": "ecd5f9f4c934ea57ae9cb9c804fe1bfe", "lon": -77.0255235, "type": "electric_scooter", "bike_id": "ecd5f9f4c934ea57ae9cb9c804fe1bfe", "fusion_lon": 0.0, "lat": 38.916341, "fusion_lat": 0.0}, {"is_disabled": 0, "rental_uris": {"android": "https://dc.lft.to/lastmile_qr_scan", "ios": "https://dc.lft.to/lastmile_qr_scan"}, "is_reserved": 0, "name": "ac8fb556f56d77249465055d231a1500", "lon": -77.02350266666667, "type": "electric_scooter", "bike_id": "ac8fb556f56d77249465055d231a1500", "fusion_lon": 0.0, "lat": 38.942919833333335, "fusion_lat": 0.0}, {"is_disabled": 0, "rental_uris": {"android": "https://dc.lft.to/lastmile_qr_scan", "ios": "https://dc.lft.to/lastmile_qr_scan"}, "is_reserved": 0, "name": "c28924aabcc43fe3f0b00655ed323064", "lon": -76.94284983333333, "type": "electric_scooter", "bike_id": "c28924aabcc43fe3f0b00655ed323064", "fusion_lon": 0.0, "lat": 38.883043666666666, "fusion_lat": 0.0}, {"is_disabled": 0, "rental_uris": {"android": "https://dc.lft.to/lastmile_qr_scan", "ios": "https://dc.lft.to/lastmile_qr_scan"}, "is_reserved": 0, "name": "dcb50849aaaab13838bf689bd2ebcd34", "lon": -77.07389266666667, "type": "electric_bike", "bike_id": "dcb50849aaaab13838bf689bd2ebcd34", "fusion_lon": 0.0, "lat": 38.9617105, "fusion_lat": 0.0}, {"is_disabled": 0, "rental_uris": {"android": "https://dc.lft.to/lastmile_qr_scan", "ios": "https://dc.lft.to/lastmile_qr_scan"}, "is_reserved": 0, "name": "6670a50e1324f264b658e5ceb4437843", "lon": -77.012088, "type": "electric_scooter", "bike_id": "6670a50e1324f264b658e5ceb4437843", "fusion_lon": 0.0, "lat": 38.91825166666667, "fusion_lat": 0.0}, {"is_disabled": 0, "rental_uris": {"android": "https://dc.lft.to/lastmile_qr_scan", "ios": "https://dc.lft.to/lastmile_qr_scan"}, "is_reserved": 0, "name": "3bb0aff16db10b3ab4cb4769c1d6e23c", "lon": -77.0463835, "type": "electric_scooter", "bike_id": "3bb0aff16db10b3ab4cb4769c1d6e23c", "fusion_lon": 0.0, "lat": 38.893389, "fusion_lat": 0.0}, {"is_disabled": 0, "rental_uris": {"android": "https://dc.lft.to/lastmile_qr_scan", "ios": "https://dc.lft.to/lastmile_qr_scan"}, "is_reserved": 0, "name": "fc42bc76e08a719fe6d212769de95538", "lon": -77.0317705, "type": "electric_scooter", "bike_id": "fc42bc76e08a719fe6d212769de95538", "fusion_lon": 0.0, "lat": 38.919253833333336, "fusion_lat": 0.0}, {"is_disabled": 0, "rental_uris": {"android": "https://dc.lft.to/lastmile_qr_scan", "ios": "https://dc.lft.to/lastmile_qr_scan"}, "is_reserved": 0, "name": "c1cc1cd7d6b612edef5adfd8961f1afd", "lon": -77.0038645, "type": "electric_scooter", "bike_id": "c1cc1cd7d6b612edef5adfd8961f1afd", "fusion_lon": 0.0, "lat": 38.910721333333335, "fusion_lat": 0.0}, {"is_disabled": 0, "rental_uris": {"android": "https://dc.lft.to/lastmile_qr_scan", "ios": "https://dc.lft.to/lastmile_qr_scan"}, "is_reserved": 0, "name": "dab7064ac2217d10443d6f519a3f1e5d", "lon": -77.03859, "type": "electric_scooter", "bike_id": "dab7064ac2217d10443d6f519a3f1e5d", "fusion_lon": 0.0, "lat": 38.918076666666664, "fusion_lat": 0.0}, {"is_disabled": 0, "rental_uris": {"android": "https://dc.lft.to/lastmile_qr_scan", "ios": "https://dc.lft.to/lastmile_qr_scan"}, "is_reserved": 0, "name": "5f2b79664a53e17fdb3b3e5ff4940632", "lon": -77.0321735, "type": "electric_scooter", "bike_id": "5f2b79664a53e17fdb3b3e5ff4940632", "fusion_lon": 0.0, "lat": 38.887048666666665, "fusion_lat": 0.0}, {"is_disabled": 0, "rental_uris": {"android": "https://dc.lft.to/lastmile_qr_scan", "ios": "https://dc.lft.to/lastmile_qr_scan"}, "is_reserved": 0, "name": "757e4d323c34ac68aa5983e81a9844e9", "lon": -76.98199533333333, "type": "electric_bike", "bike_id": "757e4d323c34ac68aa5983e81a9844e9", "fusion_lon": 0.0, "lat": 38.9849535, "fusion_lat": 0.0}, {"is_disabled": 0, "rental_uris": {"android": "https://dc.lft.to/lastmile_qr_scan", "ios": "https://dc.lft.to/lastmile_qr_scan"}, "is_reserved": 0, "name": "be8a68bf3e4b18c0ffec7470b787dcd9", "lon": -77.0436085, "type": "electric_scooter", "bike_id": "be8a68bf3e4b18c0ffec7470b787dcd9", "fusion_lon": 0.0, "lat": 38.90267633333333, "fusion_lat": 0.0}, {"is_disabled": 0, "rental_uris": {"android": "https://dc.lft.to/lastmile_qr_scan", "ios": "https://dc.lft.to/lastmile_qr_scan"}, "is_reserved": 0, "name": "4124affa892d5e9e40ba992bef4a8049", "lon": -77.025834, "type": "electric_scooter", "bike_id": "4124affa892d5e9e40ba992bef4a8049", "fusion_lon": 0.0, "lat": 38.892170666666665, "fusion_lat": 0.0}, {"is_disabled": 0, "rental_uris": {"android": "https://dc.lft.to/lastmile_qr_scan", "ios": "https://dc.lft.to/lastmile_qr_scan"}, "is_reserved": 0, "name": "5edca118882e8e44d093eb753d893232", "lon": -77.04842583333334, "type": "electric_scooter", "bike_id": "5edca118882e8e44d093eb753d893232", "fusion_lon": 0.0, "lat": 38.8882955, "fusion_lat": 0.0}, {"is_disabled": 0, "rental_uris": {"android": "https://dc.lft.to/lastmile_qr_scan", "ios": "https://dc.lft.to/lastmile_qr_scan"}, "is_reserved": 0, "name": "e9a6eb972a3abf9b5c6f63e3832d26ca", "lon": -77.01672033333334, "type": "electric_scooter", "bike_id": "e9a6eb972a3abf9b5c6f63e3832d26ca", "fusion_lon": 0.0, "lat": 38.90261916666667, "fusion_lat": 0.0}, {"is_disabled": 0, "rental_uris": {"android": "https://dc.lft.to/lastmile_qr_scan", "ios": "https://dc.lft.to/lastmile_qr_scan"}, "is_reserved": 0, "name": "84ed4e56c68666fbde5d6f80a0062f0f", "lon": -77.03171083333334, "type": "electric_scooter", "bike_id": "84ed4e56c68666fbde5d6f80a0062f0f", "fusion_lon": 0.0, "lat": 38.919307, "fusion_lat": 0.0}, {"is_disabled": 0, "rental_uris": {"android": "https://dc.lft.to/lastmile_qr_scan", "ios": "https://dc.lft.to/lastmile_qr_scan"}, "is_reserved": 0, "name": "6d4bdb828cce0aecbbd978e81398f8b5", "lon": -77.03161866666666, "type": "electric_scooter", "bike_id": "6d4bdb828cce0aecbbd978e81398f8b5", "fusion_lon": 0.0, "lat": 38.92716683333333, "fusion_lat": 0.0}, {"is_disabled": 0, "rental_uris": {"android": "https://dc.lft.to/lastmile_qr_scan", "ios": "https://dc.lft.to/lastmile_qr_scan"}, "is_reserved": 0, "name": "5afda0fec6a949993662434802782e2d", "lon": -77.0375735, "type": "electric_scooter", "bike_id": "5afda0fec6a949993662434802782e2d", "fusion_lon": 0.0, "lat": 38.92905433333333, "fusion_lat": 0.0}, {"is_disabled": 0, "rental_uris": {"android": "https://dc.lft.to/lastmile_qr_scan", "ios": "https://dc.lft.to/lastmile_qr_scan"}, "is_reserved": 0, "name": "bd52e59535b711b5e1d2aff9c593b425", "lon": -77.1227115, "type": "electric_bike", "bike_id": "bd52e59535b711b5e1d2aff9c593b425", "fusion_lon": 0.0, "lat": 38.8973575, "fusion_lat": 0.0}, {"is_disabled": 0, "rental_uris": {"android": "https://dc.lft.to/lastmile_qr_scan", "ios": "https://dc.lft.to/lastmile_qr_scan"}, "is_reserved": 0, "name": "45a0eb17f92af9c71d85e6197f5383ce", "lon": -76.91658816666667, "type": "electric_bike", "bike_id": "45a0eb17f92af9c71d85e6197f5383ce", "fusion_lon": 0.0, "lat": 38.86858516666667, "fusion_lat": 0.0}, {"is_disabled": 0, "rental_uris": {"android": "https://dc.lft.to/lastmile_qr_scan", "ios": "https://dc.lft.to/lastmile_qr_scan"}, "is_reserved": 0, "name": "948a1c58967c797d23572fe2e0544a97", "lon": -77.0235815, "type": "electric_scooter", "bike_id": "948a1c58967c797d23572fe2e0544a97", "fusion_lon": 0.0, "lat": 38.925121, "fusion_lat": 0.0}, {"is_disabled": 0, "rental_uris": {"android": "https://dc.lft.to/lastmile_qr_scan", "ios": "https://dc.lft.to/lastmile_qr_scan"}, "is_reserved": 0, "name": "c7d7b8cc58d1ab2682cba85076d37aea", "lon": -77.03602916666667, "type": "electric_scooter", "bike_id": "c7d7b8cc58d1ab2682cba85076d37aea", "fusion_lon": 0.0, "lat": 38.9348375, "fusion_lat": 0.0}, {"is_disabled": 0, "rental_uris": {"android": "https://dc.lft.to/lastmile_qr_scan", "ios": "https://dc.lft.to/lastmile_qr_scan"}, "is_reserved": 0, "name": "847efe443e701c8561e30ed1e036c44e", "lon": -77.22936616666667, "type": "electric_bike", "bike_id": "847efe443e701c8561e30ed1e036c44e", "fusion_lon": 0.0, "lat": 38.93189066666667, "fusion_lat": 0.0}, {"is_disabled": 0, "rental_uris": {"android": "https://dc.lft.to/lastmile_qr_scan", "ios": "https://dc.lft.to/lastmile_qr_scan"}, "is_reserved": 0, "name": "862649116dbe685313d65a5bedad8338", "lon": -77.02889966666666, "type": "electric_bike", "bike_id": "862649116dbe685313d65a5bedad8338", "fusion_lon": 0.0, "lat": 38.8954685, "fusion_lat": 0.0}, {"is_disabled": 0, "rental_uris": {"android": "https://dc.lft.to/lastmile_qr_scan", "ios": "https://dc.lft.to/lastmile_qr_scan"}, "is_reserved": 0, "name": "81e6b75ab669854ea1c684ec9c306c1a", "lon": -77.022271, "type": "electric_scooter", "bike_id": "81e6b75ab669854ea1c684ec9c306c1a", "fusion_lon": 0.0, "lat": 38.89216366666667, "fusion_lat": 0.0}, {"is_disabled": 0, "rental_uris": {"android": "https://dc.lft.to/lastmile_qr_scan", "ios": "https://dc.lft.to/lastmile_qr_scan"}, "is_reserved": 0, "name": "f9746f05982d625c56cbf4e089908d5a", "lon": -77.00692183333334, "type": "electric_scooter", "bike_id": "f9746f05982d625c56cbf4e089908d5a", "fusion_lon": 0.0, "lat": 38.9000745, "fusion_lat": 0.0}, {"is_disabled": 0, "rental_uris": {"android": "https://dc.lft.to/lastmile_qr_scan", "ios": "https://dc.lft.to/lastmile_qr_scan"}, "is_reserved": 0, "name": "209dabae6371c34c3fb880c2a01aa5b2", "lon": -77.03693333333334, "type": "electric_scooter", "bike_id": "209dabae6371c34c3fb880c2a01aa5b2", "fusion_lon": 0.0, "lat": 38.92724033333333, "fusion_lat": 0.0}, {"is_disabled": 0, "rental_uris": {"android": "https://dc.lft.to/lastmile_qr_scan", "ios": "https://dc.lft.to/lastmile_qr_scan"}, "is_reserved": 0, "name": "e32d86aa21c845fdfd46badc576cac44", "lon": -77.00566016666667, "type": "electric_scooter", "bike_id": "e32d86aa21c845fdfd46badc576cac44", "fusion_lon": 0.0, "lat": 38.8850145, "fusion_lat": 0.0}, {"is_disabled": 0, "rental_uris": {"android": "https://dc.lft.to/lastmile_qr_scan", "ios": "https://dc.lft.to/lastmile_qr_scan"}, "is_reserved": 0, "name": "185df289c418de67bfada1ce68910d8e", "lon": -77.042906, "type": "electric_scooter", "bike_id": "185df289c418de67bfada1ce68910d8e", "fusion_lon": 0.0, "lat": 38.9038565, "fusion_lat": 0.0}, {"is_disabled": 0, "rental_uris": {"android": "https://dc.lft.to/lastmile_qr_scan", "ios": "https://dc.lft.to/lastmile_qr_scan"}, "is_reserved": 0, "name": "ae138f7b3a95db5cdfcfac6ae65e54cc", "lon": -77.0395115, "type": "electric_scooter", "bike_id": "ae138f7b3a95db5cdfcfac6ae65e54cc", "fusion_lon": 0.0, "lat": 38.91397516666667, "fusion_lat": 0.0}, {"is_disabled": 0, "rental_uris": {"android": "https://dc.lft.to/lastmile_qr_scan", "ios": "https://dc.lft.to/lastmile_qr_scan"}, "is_reserved": 0, "name": "8b278f305c3252d04768986cf1ea3c50", "lon": -76.94247166666666, "type": "electric_scooter", "bike_id": "8b278f305c3252d04768986cf1ea3c50", "fusion_lon": 0.0, "lat": 38.896814666666664, "fusion_lat": 0.0}, {"is_disabled": 0, "rental_uris": {"android": "https://dc.lft.to/lastmile_qr_scan", "ios": "https://dc.lft.to/lastmile_qr_scan"}, "is_reserved": 0, "name": "77706d40746332016c8663b2a3298229", "lon": -77.02577583333333, "type": "electric_scooter", "bike_id": "77706d40746332016c8663b2a3298229", "fusion_lon": 0.0, "lat": 38.89516016666666, "fusion_lat": 0.0}, {"is_disabled": 0, "rental_uris": {"android": "https://dc.lft.to/lastmile_qr_scan", "ios": "https://dc.lft.to/lastmile_qr_scan"}, "is_reserved": 0, "name": "8adc6b6c0d5b125cfeea374a28afb6f1", "lon": -77.0291445, "type": "electric_bike", "bike_id": "8adc6b6c0d5b125cfeea374a28afb6f1", "fusion_lon": 0.0, "lat": 38.998234, "fusion_lat": 0.0}, {"is_disabled": 0, "rental_uris": {"android": "https://dc.lft.to/lastmile_qr_scan", "ios": "https://dc.lft.to/lastmile_qr_scan"}, "is_reserved": 0, "name": "cbef94307cc2c4ae79050b160c2695ae", "lon": -77.01644033333334, "type": "electric_scooter", "bike_id": "cbef94307cc2c4ae79050b160c2695ae", "fusion_lon": 0.0, "lat": 38.87632383333333, "fusion_lat": 0.0}, {"is_disabled": 0, "rental_uris": {"android": "https://dc.lft.to/lastmile_qr_scan", "ios": "https://dc.lft.to/lastmile_qr_scan"}, "is_reserved": 0, "name": "f8179d334f6aa9559919b90e263669ad", "lon": -77.01618866666666, "type": "electric_scooter", "bike_id": "f8179d334f6aa9559919b90e263669ad", "fusion_lon": 0.0, "lat": 38.887588666666666, "fusion_lat": 0.0}, {"is_disabled": 0, "rental_uris": {"android": "https://dc.lft.to/lastmile_qr_scan", "ios": "https://dc.lft.to/lastmile_qr_scan"}, "is_reserved": 0, "name": "f8a3aa80bf84ed26c0d8362a656951df", "lon": -76.98116516666667, "type": "electric_scooter", "bike_id": "f8a3aa80bf84ed26c0d8362a656951df", "fusion_lon": 0.0, "lat": 38.896030833333334, "fusion_lat": 0.0}, {"is_disabled": 0, "rental_uris": {"android": "https://dc.lft.to/lastmile_qr_scan", "ios": "https://dc.lft.to/lastmile_qr_scan"}, "is_reserved": 0, "name": "fcc1a2f59980c274216f690463811c68", "lon": -77.01392266666667, "type": "electric_scooter", "bike_id": "fcc1a2f59980c274216f690463811c68", "fusion_lon": 0.0, "lat": 38.880254666666666, "fusion_lat": 0.0}, {"is_disabled": 0, "rental_uris": {"android": "https://dc.lft.to/lastmile_qr_scan", "ios": "https://dc.lft.to/lastmile_qr_scan"}, "is_reserved": 0, "name": "24046003efc5a63d44053baf8eb5e87b", "lon": -77.02797383333333, "type": "electric_scooter", "bike_id": "24046003efc5a63d44053baf8eb5e87b", "fusion_lon": 0.0, "lat": 38.916777, "fusion_lat": 0.0}, {"is_disabled": 0, "rental_uris": {"android": "https://dc.lft.to/lastmile_qr_scan", "ios": "https://dc.lft.to/lastmile_qr_scan"}, "is_reserved": 0, "name": "9ac93c877494ef1d7bdd21ea3790e50f", "lon": -77.02804533333334, "type": "electric_scooter", "bike_id": "9ac93c877494ef1d7bdd21ea3790e50f", "fusion_lon": 0.0, "lat": 38.9073625, "fusion_lat": 0.0}, {"is_disabled": 0, "rental_uris": {"android": "https://dc.lft.to/lastmile_qr_scan", "ios": "https://dc.lft.to/lastmile_qr_scan"}, "is_reserved": 0, "name": "f6382a2ddc103cb7d3cb947998f24a7e", "lon": -77.07080266666667, "type": "electric_scooter", "bike_id": "f6382a2ddc103cb7d3cb947998f24a7e", "fusion_lon": 0.0, "lat": 38.9390315, "fusion_lat": 0.0}, {"is_disabled": 0, "rental_uris": {"android": "https://dc.lft.to/lastmile_qr_scan", "ios": "https://dc.lft.to/lastmile_qr_scan"}, "is_reserved": 0, "name": "3b29195f76bc62eb25be04eb917c9899", "lon": -77.0166685, "type": "electric_scooter", "bike_id": "3b29195f76bc62eb25be04eb917c9899", "fusion_lon": 0.0, "lat": 38.8831935, "fusion_lat": 0.0}, {"is_disabled": 0, "rental_uris": {"android": "https://dc.lft.to/lastmile_qr_scan", "ios": "https://dc.lft.to/lastmile_qr_scan"}, "is_reserved": 0, "name": "9d6602ca731035b5f09b4f2cd5e66214", "lon": -76.99615166666666, "type": "electric_scooter", "bike_id": "9d6602ca731035b5f09b4f2cd5e66214", "fusion_lon": 0.0, "lat": 38.86463116666667, "fusion_lat": 0.0}, {"is_disabled": 0, "rental_uris": {"android": "https://dc.lft.to/lastmile_qr_scan", "ios": "https://dc.lft.to/lastmile_qr_scan"}, "is_reserved": 0, "name": "515ddfc9d875e0a20ce46d3b8d3b0d98", "lon": -77.0362915, "type": "electric_scooter", "bike_id": "515ddfc9d875e0a20ce46d3b8d3b0d98", "fusion_lon": 0.0, "lat": 38.936803, "fusion_lat": 0.0}, {"is_disabled": 0, "rental_uris": {"android": "https://dc.lft.to/lastmile_qr_scan", "ios": "https://dc.lft.to/lastmile_qr_scan"}, "is_reserved": 0, "name": "6952f66f04a6dfb96c72d53d768775ac", "lon": -76.99505516666666, "type": "electric_scooter", "bike_id": "6952f66f04a6dfb96c72d53d768775ac", "fusion_lon": 0.0, "lat": 38.885806, "fusion_lat": 0.0}, {"is_disabled": 0, "rental_uris": {"android": "https://dc.lft.to/lastmile_qr_scan", "ios": "https://dc.lft.to/lastmile_qr_scan"}, "is_reserved": 0, "name": "97783d993a6b6286c90b58b1c5eafec7", "lon": -77.03463266666667, "type": "electric_scooter", "bike_id": "97783d993a6b6286c90b58b1c5eafec7", "fusion_lon": 0.0, "lat": 38.90497583333333, "fusion_lat": 0.0}, {"is_disabled": 0, "rental_uris": {"android": "https://dc.lft.to/lastmile_qr_scan", "ios": "https://dc.lft.to/lastmile_qr_scan"}, "is_reserved": 0, "name": "2f28f1e5016f7ae9f1146b97680a9508", "lon": -77.04815866666667, "type": "electric_scooter", "bike_id": "2f28f1e5016f7ae9f1146b97680a9508", "fusion_lon": 0.0, "lat": 38.8974725, "fusion_lat": 0.0}, {"is_disabled": 0, "rental_uris": {"android": "https://dc.lft.to/lastmile_qr_scan", "ios": "https://dc.lft.to/lastmile_qr_scan"}, "is_reserved": 0, "name": "bb8086a6fcc6f025fe582b0a2798d31d", "lon": -77.021115, "type": "electric_scooter", "bike_id": "bb8086a6fcc6f025fe582b0a2798d31d", "fusion_lon": 0.0, "lat": 38.94097033333333, "fusion_lat": 0.0}, {"is_disabled": 0, "rental_uris": {"android": "https://dc.lft.to/lastmile_qr_scan", "ios": "https://dc.lft.to/lastmile_qr_scan"}, "is_reserved": 0, "name": "22f0a827106617054aed4428709f4153", "lon": -77.024684, "type": "electric_scooter", "bike_id": "22f0a827106617054aed4428709f4153", "fusion_lon": 0.0, "lat": 38.937585, "fusion_lat": 0.0}, {"is_disabled": 0, "rental_uris": {"android": "https://dc.lft.to/lastmile_qr_scan", "ios": "https://dc.lft.to/lastmile_qr_scan"}, "is_reserved": 0, "name": "f2f4c07ee0853deb2cbea0113c8aa67e", "lon": -77.012446, "type": "electric_scooter", "bike_id": "f2f4c07ee0853deb2cbea0113c8aa67e", "fusion_lon": 0.0, "lat": 38.931127333333336, "fusion_lat": 0.0}, {"is_disabled": 0, "rental_uris": {"android": "https://dc.lft.to/lastmile_qr_scan", "ios": "https://dc.lft.to/lastmile_qr_scan"}, "is_reserved": 0, "name": "8bd2f79484801ec86e1f4171fc685b1c", "lon": -77.03119466666666, "type": "electric_scooter", "bike_id": "8bd2f79484801ec86e1f4171fc685b1c", "fusion_lon": 0.0, "lat": 38.936712, "fusion_lat": 0.0}, {"is_disabled": 0, "rental_uris": {"android": "https://dc.lft.to/lastmile_qr_scan", "ios": "https://dc.lft.to/lastmile_qr_scan"}, "is_reserved": 0, "name": "bc057e3e82110180b63ca14f51815de3", "lon": -77.041333, "type": "electric_scooter", "bike_id": "bc057e3e82110180b63ca14f51815de3", "fusion_lon": 0.0, "lat": 38.921317333333334, "fusion_lat": 0.0}, {"is_disabled": 0, "rental_uris": {"android": "https://dc.lft.to/lastmile_qr_scan", "ios": "https://dc.lft.to/lastmile_qr_scan"}, "is_reserved": 0, "name": "6042adb5b490dcda0ca103c16c8c9dab", "lon": -76.99058516666666, "type": "electric_scooter", "bike_id": "6042adb5b490dcda0ca103c16c8c9dab", "fusion_lon": 0.0, "lat": 38.8637155, "fusion_lat": 0.0}, {"is_disabled": 0, "rental_uris": {"android": "https://dc.lft.to/lastmile_qr_scan", "ios": "https://dc.lft.to/lastmile_qr_scan"}, "is_reserved": 0, "name": "3baf85de6f17038d5a79020dc2fd25df", "lon": -77.00749816666666, "type": "electric_scooter", "bike_id": "3baf85de6f17038d5a79020dc2fd25df", "fusion_lon": 0.0, "lat": 38.90746716666666, "fusion_lat": 0.0}, {"is_disabled": 0, "rental_uris": {"android": "https://dc.lft.to/lastmile_qr_scan", "ios": "https://dc.lft.to/lastmile_qr_scan"}, "is_reserved": 0, "name": "23c3b17058cf5b3926fba1a68551e12f", "lon": -77.1065035, "type": "electric_bike", "bike_id": "23c3b17058cf5b3926fba1a68551e12f", "fusion_lon": 0.0, "lat": 39.02998266666667, "fusion_lat": 0.0}, {"is_disabled": 0, "rental_uris": {"android": "https://dc.lft.to/lastmile_qr_scan", "ios": "https://dc.lft.to/lastmile_qr_scan"}, "is_reserved": 0, "name": "50f7a7e2db6c7f27f1dd96a24531f08c", "lon": -77.04402333333333, "type": "electric_scooter", "bike_id": "50f7a7e2db6c7f27f1dd96a24531f08c", "fusion_lon": 0.0, "lat": 38.929469166666664, "fusion_lat": 0.0}, {"is_disabled": 0, "rental_uris": {"android": "https://dc.lft.to/lastmile_qr_scan", "ios": "https://dc.lft.to/lastmile_qr_scan"}, "is_reserved": 0, "name": "d6c1348b21bda36f138aff2c9cb291c1", "lon": -77.02048416666666, "type": "electric_scooter", "bike_id": "d6c1348b21bda36f138aff2c9cb291c1", "fusion_lon": 0.0, "lat": 38.95871133333333, "fusion_lat": 0.0}, {"is_disabled": 0, "rental_uris": {"android": "https://dc.lft.to/lastmile_qr_scan", "ios": "https://dc.lft.to/lastmile_qr_scan"}, "is_reserved": 0, "name": "bb4ec259023e4f47c52bb0724487ea48", "lon": -77.03855616666667, "type": "electric_scooter", "bike_id": "bb4ec259023e4f47c52bb0724487ea48", "fusion_lon": 0.0, "lat": 38.91616116666667, "fusion_lat": 0.0}, {"is_disabled": 0, "rental_uris": {"android": "https://dc.lft.to/lastmile_qr_scan", "ios": "https://dc.lft.to/lastmile_qr_scan"}, "is_reserved": 0, "name": "fe292cba630e4922d4370e0c10627f84", "lon": -77.00957033333333, "type": "electric_bike", "bike_id": "fe292cba630e4922d4370e0c10627f84", "fusion_lon": 0.0, "lat": 38.90704366666667, "fusion_lat": 0.0}, {"is_disabled": 0, "rental_uris": {"android": "https://dc.lft.to/lastmile_qr_scan", "ios": "https://dc.lft.to/lastmile_qr_scan"}, "is_reserved": 0, "name": "8cd51765c4d419850de9aa03f3cd4d9c", "lon": -77.02336, "type": "electric_scooter", "bike_id": "8cd51765c4d419850de9aa03f3cd4d9c", "fusion_lon": 0.0, "lat": 38.91603416666667, "fusion_lat": 0.0}, {"is_disabled": 0, "rental_uris": {"android": "https://dc.lft.to/lastmile_qr_scan", "ios": "https://dc.lft.to/lastmile_qr_scan"}, "is_reserved": 0, "name": "e8e51d473464b02529edb6b8d6adde20", "lon": -77.03836333333334, "type": "electric_scooter", "bike_id": "e8e51d473464b02529edb6b8d6adde20", "fusion_lon": 0.0, "lat": 38.9033765, "fusion_lat": 0.0}, {"is_disabled": 0, "rental_uris": {"android": "https://dc.lft.to/lastmile_qr_scan", "ios": "https://dc.lft.to/lastmile_qr_scan"}, "is_reserved": 0, "name": "d6663ce5b28ccca74069da937eca81bf", "lon": -77.04338766666666, "type": "electric_scooter", "bike_id": "d6663ce5b28ccca74069da937eca81bf", "fusion_lon": 0.0, "lat": 38.89841033333333, "fusion_lat": 0.0}, {"is_disabled": 0, "rental_uris": {"android": "https://dc.lft.to/lastmile_qr_scan", "ios": "https://dc.lft.to/lastmile_qr_scan"}, "is_reserved": 0, "name": "deb6015765b8f271632a8f7118d0a821", "lon": -77.04576166666666, "type": "electric_scooter", "bike_id": "deb6015765b8f271632a8f7118d0a821", "fusion_lon": 0.0, "lat": 38.917796833333334, "fusion_lat": 0.0}, {"is_disabled": 0, "rental_uris": {"android": "https://dc.lft.to/lastmile_qr_scan", "ios": "https://dc.lft.to/lastmile_qr_scan"}, "is_reserved": 0, "name": "31c7fd3bcf944371f95b572eb6782221", "lon": -77.023064, "type": "electric_scooter", "bike_id": "31c7fd3bcf944371f95b572eb6782221", "fusion_lon": 0.0, "lat": 38.917837, "fusion_lat": 0.0}, {"is_disabled": 0, "rental_uris": {"android": "https://dc.lft.to/lastmile_qr_scan", "ios": "https://dc.lft.to/lastmile_qr_scan"}, "is_reserved": 0, "name": "7a4699841c957ef51b64af3bc66ed50c", "lon": -77.0406475, "type": "electric_scooter", "bike_id": "7a4699841c957ef51b64af3bc66ed50c", "fusion_lon": 0.0, "lat": 38.89849, "fusion_lat": 0.0}, {"is_disabled": 0, "rental_uris": {"android": "https://dc.lft.to/lastmile_qr_scan", "ios": "https://dc.lft.to/lastmile_qr_scan"}, "is_reserved": 0, "name": "c3921b32214ad5861ac2926dd2f7199f", "lon": -77.01952816666666, "type": "electric_scooter", "bike_id": "c3921b32214ad5861ac2926dd2f7199f", "fusion_lon": 0.0, "lat": 38.922572833333334, "fusion_lat": 0.0}, {"is_disabled": 0, "rental_uris": {"android": "https://dc.lft.to/lastmile_qr_scan", "ios": "https://dc.lft.to/lastmile_qr_scan"}, "is_reserved": 0, "name": "a6d946749556178d03dd2786ac42f874", "lon": -77.04372833333333, "type": "electric_scooter", "bike_id": "a6d946749556178d03dd2786ac42f874", "fusion_lon": 0.0, "lat": 38.90101383333333, "fusion_lat": 0.0}, {"is_disabled": 0, "rental_uris": {"android": "https://dc.lft.to/lastmile_qr_scan", "ios": "https://dc.lft.to/lastmile_qr_scan"}, "is_reserved": 0, "name": "dc0e230669edde466a9b436041e5b7e6", "lon": -77.03299683333333, "type": "electric_scooter", "bike_id": "dc0e230669edde466a9b436041e5b7e6", "fusion_lon": 0.0, "lat": 38.8984765, "fusion_lat": 0.0}, {"is_disabled": 0, "rental_uris": {"android": "https://dc.lft.to/lastmile_qr_scan", "ios": "https://dc.lft.to/lastmile_qr_scan"}, "is_reserved": 0, "name": "8dc54df88b3563f50b0266ae21987976", "lon": -77.01227633333333, "type": "electric_scooter", "bike_id": "8dc54df88b3563f50b0266ae21987976", "fusion_lon": 0.0, "lat": 38.88580966666667, "fusion_lat": 0.0}, {"is_disabled": 0, "rental_uris": {"android": "https://dc.lft.to/lastmile_qr_scan", "ios": "https://dc.lft.to/lastmile_qr_scan"}, "is_reserved": 0, "name": "bfbc00957c7cbf97e399948c6e76b7ad", "lon": -77.00849583333333, "type": "electric_scooter", "bike_id": "bfbc00957c7cbf97e399948c6e76b7ad", "fusion_lon": 0.0, "lat": 38.9064315, "fusion_lat": 0.0}, {"is_disabled": 0, "rental_uris": {"android": "https://dc.lft.to/lastmile_qr_scan", "ios": "https://dc.lft.to/lastmile_qr_scan"}, "is_reserved": 0, "name": "8f5232089b8e757cbfa1ef69bef4603b", "lon": -76.97881916666667, "type": "electric_scooter", "bike_id": "8f5232089b8e757cbfa1ef69bef4603b", "fusion_lon": 0.0, "lat": 38.927356833333334, "fusion_lat": 0.0}, {"is_disabled": 0, "rental_uris": {"android": "https://dc.lft.to/lastmile_qr_scan", "ios": "https://dc.lft.to/lastmile_qr_scan"}, "is_reserved": 0, "name": "e35f827572dbab0727c8febc26ea00a1", "lon": -76.948253, "type": "electric_scooter", "bike_id": "e35f827572dbab0727c8febc26ea00a1", "fusion_lon": 0.0, "lat": 38.885126166666666, "fusion_lat": 0.0}, {"is_disabled": 0, "rental_uris": {"android": "https://dc.lft.to/lastmile_qr_scan", "ios": "https://dc.lft.to/lastmile_qr_scan"}, "is_reserved": 0, "name": "ee6e8e36d3e705bc543ed3c4f72eaa0b", "lon": -77.03764366666667, "type": "electric_scooter", "bike_id": "ee6e8e36d3e705bc543ed3c4f72eaa0b", "fusion_lon": 0.0, "lat": 38.9169585, "fusion_lat": 0.0}, {"is_disabled": 0, "rental_uris": {"android": "https://dc.lft.to/lastmile_qr_scan", "ios": "https://dc.lft.to/lastmile_qr_scan"}, "is_reserved": 0, "name": "f1a48b824b0be154f9c0d179be69b4d9", "lon": -77.05439416666667, "type": "electric_scooter", "bike_id": "f1a48b824b0be154f9c0d179be69b4d9", "fusion_lon": 0.0, "lat": 38.89603183333333, "fusion_lat": 0.0}, {"is_disabled": 0, "rental_uris": {"android": "https://dc.lft.to/lastmile_qr_scan", "ios": "https://dc.lft.to/lastmile_qr_scan"}, "is_reserved": 0, "name": "ec562b69fe4597195705bf1054ecdc83", "lon": -77.03851083333333, "type": "electric_scooter", "bike_id": "ec562b69fe4597195705bf1054ecdc83", "fusion_lon": 0.0, "lat": 38.916227166666665, "fusion_lat": 0.0}, {"is_disabled": 0, "rental_uris": {"android": "https://dc.lft.to/lastmile_qr_scan", "ios": "https://dc.lft.to/lastmile_qr_scan"}, "is_reserved": 0, "name": "3623ccd965df79132b6ff1236062fb10", "lon": -77.05012866666667, "type": "electric_scooter", "bike_id": "3623ccd965df79132b6ff1236062fb10", "fusion_lon": 0.0, "lat": 38.90505483333333, "fusion_lat": 0.0}, {"is_disabled": 0, "rental_uris": {"android": "https://dc.lft.to/lastmile_qr_scan", "ios": "https://dc.lft.to/lastmile_qr_scan"}, "is_reserved": 0, "name": "87dfd8860d8762cfe9af8d53b984211d", "lon": -77.0634785, "type": "electric_scooter", "bike_id": "87dfd8860d8762cfe9af8d53b984211d", "fusion_lon": 0.0, "lat": 38.944393833333336, "fusion_lat": 0.0}, {"is_disabled": 0, "rental_uris": {"android": "https://dc.lft.to/lastmile_qr_scan", "ios": "https://dc.lft.to/lastmile_qr_scan"}, "is_reserved": 0, "name": "06cd399db6b194d3a7772b50ad42a43f", "lon": -77.01532083333333, "type": "electric_scooter", "bike_id": "06cd399db6b194d3a7772b50ad42a43f", "fusion_lon": 0.0, "lat": 38.8873975, "fusion_lat": 0.0}, {"is_disabled": 0, "rental_uris": {"android": "https://dc.lft.to/lastmile_qr_scan", "ios": "https://dc.lft.to/lastmile_qr_scan"}, "is_reserved": 0, "name": "46b54151e99ddc9acebfee95d84d69c2", "lon": -77.07280283333333, "type": "electric_scooter", "bike_id": "46b54151e99ddc9acebfee95d84d69c2", "fusion_lon": 0.0, "lat": 38.9347225, "fusion_lat": 0.0}, {"is_disabled": 0, "rental_uris": {"android": "https://dc.lft.to/lastmile_qr_scan", "ios": "https://dc.lft.to/lastmile_qr_scan"}, "is_reserved": 0, "name": "cf6b717ec60c62533803a626e123b699", "lon": -77.04109583333333, "type": "electric_scooter", "bike_id": "cf6b717ec60c62533803a626e123b699", "fusion_lon": 0.0, "lat": 38.916937, "fusion_lat": 0.0}, {"is_disabled": 0, "rental_uris": {"android": "https://dc.lft.to/lastmile_qr_scan", "ios": "https://dc.lft.to/lastmile_qr_scan"}, "is_reserved": 0, "name": "db9129a055aeec1cf2cc0ab57700b3fe", "lon": -77.01375583333333, "type": "electric_scooter", "bike_id": "db9129a055aeec1cf2cc0ab57700b3fe", "fusion_lon": 0.0, "lat": 38.88640983333333, "fusion_lat": 0.0}, {"is_disabled": 0, "rental_uris": {"android": "https://dc.lft.to/lastmile_qr_scan", "ios": "https://dc.lft.to/lastmile_qr_scan"}, "is_reserved": 0, "name": "f22eaf50926442873d06115a01357dbc", "lon": -77.04164316666666, "type": "electric_scooter", "bike_id": "f22eaf50926442873d06115a01357dbc", "fusion_lon": 0.0, "lat": 38.90055733333333, "fusion_lat": 0.0}, {"is_disabled": 0, "rental_uris": {"android": "https://dc.lft.to/lastmile_qr_scan", "ios": "https://dc.lft.to/lastmile_qr_scan"}, "is_reserved": 0, "name": "2a7eef97bf1c36bc903d3957dcc0a4e8", "lon": -77.04212816666667, "type": "electric_scooter", "bike_id": "2a7eef97bf1c36bc903d3957dcc0a4e8", "fusion_lon": 0.0, "lat": 38.9141895, "fusion_lat": 0.0}, {"is_disabled": 0, "rental_uris": {"android": "https://dc.lft.to/lastmile_qr_scan", "ios": "https://dc.lft.to/lastmile_qr_scan"}, "is_reserved": 0, "name": "0f69ca1de51957457b981095520017f5", "lon": -77.01353683333333, "type": "electric_scooter", "bike_id": "0f69ca1de51957457b981095520017f5", "fusion_lon": 0.0, "lat": 38.928792666666666, "fusion_lat": 0.0}, {"is_disabled": 0, "rental_uris": {"android": "https://dc.lft.to/lastmile_qr_scan", "ios": "https://dc.lft.to/lastmile_qr_scan"}, "is_reserved": 0, "name": "cad9d35a34f264857f1b95e1c668dfc1", "lon": -77.04431, "type": "electric_scooter", "bike_id": "cad9d35a34f264857f1b95e1c668dfc1", "fusion_lon": 0.0, "lat": 38.91255183333333, "fusion_lat": 0.0}, {"is_disabled": 0, "rental_uris": {"android": "https://dc.lft.to/lastmile_qr_scan", "ios": "https://dc.lft.to/lastmile_qr_scan"}, "is_reserved": 0, "name": "d607edd65af51f0f7c429c5cadd257a5", "lon": -77.034379, "type": "electric_scooter", "bike_id": "d607edd65af51f0f7c429c5cadd257a5", "fusion_lon": 0.0, "lat": 38.90970133333333, "fusion_lat": 0.0}, {"is_disabled": 0, "rental_uris": {"android": "https://dc.lft.to/lastmile_qr_scan", "ios": "https://dc.lft.to/lastmile_qr_scan"}, "is_reserved": 0, "name": "a4a931f4b2210156b66f23c513e79e18", "lon": -77.06379433333333, "type": "electric_scooter", "bike_id": "a4a931f4b2210156b66f23c513e79e18", "fusion_lon": 0.0, "lat": 38.90522133333333, "fusion_lat": 0.0}, {"is_disabled": 0, "rental_uris": {"android": "https://dc.lft.to/lastmile_qr_scan", "ios": "https://dc.lft.to/lastmile_qr_scan"}, "is_reserved": 0, "name": "258a3874df47a8b450448892f6da52d8", "lon": -76.905389, "type": "electric_bike", "bike_id": "258a3874df47a8b450448892f6da52d8", "fusion_lon": 0.0, "lat": 38.897323166666666, "fusion_lat": 0.0}, {"is_disabled": 0, "rental_uris": {"android": "https://dc.lft.to/lastmile_qr_scan", "ios": "https://dc.lft.to/lastmile_qr_scan"}, "is_reserved": 0, "name": "96fa1cc3d6aeae6385557b30bb1e442e", "lon": -77.01019333333333, "type": "electric_scooter", "bike_id": "96fa1cc3d6aeae6385557b30bb1e442e", "fusion_lon": 0.0, "lat": 38.9063285, "fusion_lat": 0.0}, {"is_disabled": 0, "rental_uris": {"android": "https://dc.lft.to/lastmile_qr_scan", "ios": "https://dc.lft.to/lastmile_qr_scan"}, "is_reserved": 0, "name": "65177b4002743ff37285ffb63a60b21b", "lon": -77.03245966666667, "type": "electric_scooter", "bike_id": "65177b4002743ff37285ffb63a60b21b", "fusion_lon": 0.0, "lat": 38.928757833333336, "fusion_lat": 0.0}, {"is_disabled": 0, "rental_uris": {"android": "https://dc.lft.to/lastmile_qr_scan", "ios": "https://dc.lft.to/lastmile_qr_scan"}, "is_reserved": 0, "name": "2a2ab3595b841351322ae77f60f17876", "lon": -77.02943683333334, "type": "electric_scooter", "bike_id": "2a2ab3595b841351322ae77f60f17876", "fusion_lon": 0.0, "lat": 38.904911166666665, "fusion_lat": 0.0}, {"is_disabled": 0, "rental_uris": {"android": "https://dc.lft.to/lastmile_qr_scan", "ios": "https://dc.lft.to/lastmile_qr_scan"}, "is_reserved": 0, "name": "52f5ecd0a347317bc42bfc452d24ced0", "lon": -77.02349616666666, "type": "electric_scooter", "bike_id": "52f5ecd0a347317bc42bfc452d24ced0", "fusion_lon": 0.0, "lat": 38.922644166666664, "fusion_lat": 0.0}, {"is_disabled": 0, "rental_uris": {"android": "https://dc.lft.to/lastmile_qr_scan", "ios": "https://dc.lft.to/lastmile_qr_scan"}, "is_reserved": 0, "name": "ffb498015354586ee9fb18b3b2ec5d5d", "lon": -77.0434335, "type": "electric_scooter", "bike_id": "ffb498015354586ee9fb18b3b2ec5d5d", "fusion_lon": 0.0, "lat": 38.8982415, "fusion_lat": 0.0}, {"is_disabled": 0, "rental_uris": {"android": "https://dc.lft.to/lastmile_qr_scan", "ios": "https://dc.lft.to/lastmile_qr_scan"}, "is_reserved": 0, "name": "3f6d18ed709beea64168b7739a275f5d", "lon": -76.95206966666667, "type": "electric_bike", "bike_id": "3f6d18ed709beea64168b7739a275f5d", "fusion_lon": 0.0, "lat": 38.93666733333333, "fusion_lat": 0.0}, {"is_disabled": 0, "rental_uris": {"android": "https://dc.lft.to/lastmile_qr_scan", "ios": "https://dc.lft.to/lastmile_qr_scan"}, "is_reserved": 0, "name": "3e277d6ceb5a6bc83d4a585619d07c77", "lon": -77.003295, "type": "electric_scooter", "bike_id": "3e277d6ceb5a6bc83d4a585619d07c77", "fusion_lon": 0.0, "lat": 38.893522, "fusion_lat": 0.0}, {"is_disabled": 0, "rental_uris": {"android": "https://dc.lft.to/lastmile_qr_scan", "ios": "https://dc.lft.to/lastmile_qr_scan"}, "is_reserved": 0, "name": "df3f74b50a99529b62cb820ec2d47f78", "lon": -77.01155416666667, "type": "electric_scooter", "bike_id": "df3f74b50a99529b62cb820ec2d47f78", "fusion_lon": 0.0, "lat": 38.897442166666664, "fusion_lat": 0.0}, {"is_disabled": 0, "rental_uris": {"android": "https://dc.lft.to/lastmile_qr_scan", "ios": "https://dc.lft.to/lastmile_qr_scan"}, "is_reserved": 0, "name": "32a8f0e0d50ee23c78593413e7d37a67", "lon": -77.04753683333334, "type": "electric_scooter", "bike_id": "32a8f0e0d50ee23c78593413e7d37a67", "fusion_lon": 0.0, "lat": 38.90711666666667, "fusion_lat": 0.0}, {"is_disabled": 0, "rental_uris": {"android": "https://dc.lft.to/lastmile_qr_scan", "ios": "https://dc.lft.to/lastmile_qr_scan"}, "is_reserved": 0, "name": "4b12812def16f70c674ab0641032934c", "lon": -77.03456183333333, "type": "electric_scooter", "bike_id": "4b12812def16f70c674ab0641032934c", "fusion_lon": 0.0, "lat": 38.902624833333334, "fusion_lat": 0.0}, {"is_disabled": 0, "rental_uris": {"android": "https://dc.lft.to/lastmile_qr_scan", "ios": "https://dc.lft.to/lastmile_qr_scan"}, "is_reserved": 0, "name": "e14610662c7eafa9028b1c1f40bba162", "lon": -76.987286, "type": "electric_scooter", "bike_id": "e14610662c7eafa9028b1c1f40bba162", "fusion_lon": 0.0, "lat": 38.867081, "fusion_lat": 0.0}, {"is_disabled": 0, "rental_uris": {"android": "https://dc.lft.to/lastmile_qr_scan", "ios": "https://dc.lft.to/lastmile_qr_scan"}, "is_reserved": 0, "name": "1f3cb1c1a3a433e99eb0c6afbcbaa5d3", "lon": -77.032167, "type": "electric_scooter", "bike_id": "1f3cb1c1a3a433e99eb0c6afbcbaa5d3", "fusion_lon": 0.0, "lat": 38.907454666666666, "fusion_lat": 0.0}, {"is_disabled": 0, "rental_uris": {"android": "https://dc.lft.to/lastmile_qr_scan", "ios": "https://dc.lft.to/lastmile_qr_scan"}, "is_reserved": 0, "name": "3ade912c2178ce716270593662fd359e", "lon": -77.01982833333334, "type": "electric_scooter", "bike_id": "3ade912c2178ce716270593662fd359e", "fusion_lon": 0.0, "lat": 38.877883, "fusion_lat": 0.0}, {"is_disabled": 0, "rental_uris": {"android": "https://dc.lft.to/lastmile_qr_scan", "ios": "https://dc.lft.to/lastmile_qr_scan"}, "is_reserved": 0, "name": "f917a4a391b7ca78a0dd955261a03a03", "lon": -77.04366166666667, "type": "electric_scooter", "bike_id": "f917a4a391b7ca78a0dd955261a03a03", "fusion_lon": 0.0, "lat": 38.915705333333335, "fusion_lat": 0.0}, {"is_disabled": 0, "rental_uris": {"android": "https://dc.lft.to/lastmile_qr_scan", "ios": "https://dc.lft.to/lastmile_qr_scan"}, "is_reserved": 0, "name": "07c5dcd3905fe8e8810d572156af3d61", "lon": -77.03842133333333, "type": "electric_scooter", "bike_id": "07c5dcd3905fe8e8810d572156af3d61", "fusion_lon": 0.0, "lat": 38.92653283333333, "fusion_lat": 0.0}, {"is_disabled": 0, "rental_uris": {"android": "https://dc.lft.to/lastmile_qr_scan", "ios": "https://dc.lft.to/lastmile_qr_scan"}, "is_reserved": 0, "name": "eb18ce00504539c2af63d34f9ceefb5d", "lon": -76.93356316666667, "type": "electric_scooter", "bike_id": "eb18ce00504539c2af63d34f9ceefb5d", "fusion_lon": 0.0, "lat": 38.8879295, "fusion_lat": 0.0}, {"is_disabled": 0, "rental_uris": {"android": "https://dc.lft.to/lastmile_qr_scan", "ios": "https://dc.lft.to/lastmile_qr_scan"}, "is_reserved": 0, "name": "81e9414ed841d94bdcc72ee144b7d370", "lon": -77.04987616666666, "type": "electric_scooter", "bike_id": "81e9414ed841d94bdcc72ee144b7d370", "fusion_lon": 0.0, "lat": 38.9016605, "fusion_lat": 0.0}, {"is_disabled": 0, "rental_uris": {"android": "https://dc.lft.to/lastmile_qr_scan", "ios": "https://dc.lft.to/lastmile_qr_scan"}, "is_reserved": 0, "name": "9c05f0d5317b083eac738acd2e4350d8", "lon": -77.03718483333333, "type": "electric_scooter", "bike_id": "9c05f0d5317b083eac738acd2e4350d8", "fusion_lon": 0.0, "lat": 38.91119416666667, "fusion_lat": 0.0}, {"is_disabled": 0, "rental_uris": {"android": "https://dc.lft.to/lastmile_qr_scan", "ios": "https://dc.lft.to/lastmile_qr_scan"}, "is_reserved": 0, "name": "b160a672dc2369cd2ffe30eea9b3563d", "lon": -77.05003883333333, "type": "electric_scooter", "bike_id": "b160a672dc2369cd2ffe30eea9b3563d", "fusion_lon": 0.0, "lat": 38.915744, "fusion_lat": 0.0}, {"is_disabled": 0, "rental_uris": {"android": "https://dc.lft.to/lastmile_qr_scan", "ios": "https://dc.lft.to/lastmile_qr_scan"}, "is_reserved": 0, "name": "805e2d9f1b5e815cd8fe645edac6abc7", "lon": -77.02602566666667, "type": "electric_scooter", "bike_id": "805e2d9f1b5e815cd8fe645edac6abc7", "fusion_lon": 0.0, "lat": 38.89717983333333, "fusion_lat": 0.0}, {"is_disabled": 0, "rental_uris": {"android": "https://dc.lft.to/lastmile_qr_scan", "ios": "https://dc.lft.to/lastmile_qr_scan"}, "is_reserved": 0, "name": "0c386f124c331a17a921c7d3b474cee2", "lon": -77.04048016666667, "type": "electric_scooter", "bike_id": "0c386f124c331a17a921c7d3b474cee2", "fusion_lon": 0.0, "lat": 38.90867266666667, "fusion_lat": 0.0}, {"is_disabled": 0, "rental_uris": {"android": "https://dc.lft.to/lastmile_qr_scan", "ios": "https://dc.lft.to/lastmile_qr_scan"}, "is_reserved": 0, "name": "fa017bce41fa449173a54fbd95410ea2", "lon": -77.00536916666667, "type": "electric_scooter", "bike_id": "fa017bce41fa449173a54fbd95410ea2", "fusion_lon": 0.0, "lat": 38.87469, "fusion_lat": 0.0}, {"is_disabled": 0, "rental_uris": {"android": "https://dc.lft.to/lastmile_qr_scan", "ios": "https://dc.lft.to/lastmile_qr_scan"}, "is_reserved": 0, "name": "b0a2bb832c964cbd38971d36335d8675", "lon": -77.01235883333334, "type": "electric_scooter", "bike_id": "b0a2bb832c964cbd38971d36335d8675", "fusion_lon": 0.0, "lat": 38.9003795, "fusion_lat": 0.0}, {"is_disabled": 0, "rental_uris": {"android": "https://dc.lft.to/lastmile_qr_scan", "ios": "https://dc.lft.to/lastmile_qr_scan"}, "is_reserved": 0, "name": "e0dd5731607fe552a119d7057868bf0d", "lon": -77.03567716666667, "type": "electric_scooter", "bike_id": "e0dd5731607fe552a119d7057868bf0d", "fusion_lon": 0.0, "lat": 38.90468583333333, "fusion_lat": 0.0}, {"is_disabled": 0, "rental_uris": {"android": "https://dc.lft.to/lastmile_qr_scan", "ios": "https://dc.lft.to/lastmile_qr_scan"}, "is_reserved": 0, "name": "4ca1f6a2324625ecdfeb1b0ed92d6408", "lon": -77.05401833333333, "type": "electric_bike", "bike_id": "4ca1f6a2324625ecdfeb1b0ed92d6408", "fusion_lon": 0.0, "lat": 38.93498666666667, "fusion_lat": 0.0}, {"is_disabled": 0, "rental_uris": {"android": "https://dc.lft.to/lastmile_qr_scan", "ios": "https://dc.lft.to/lastmile_qr_scan"}, "is_reserved": 0, "name": "967b8937aa4cd93c47d54916a4cec551", "lon": -76.92886733333333, "type": "electric_bike", "bike_id": "967b8937aa4cd93c47d54916a4cec551", "fusion_lon": 0.0, "lat": 38.97841916666667, "fusion_lat": 0.0}, {"is_disabled": 0, "rental_uris": {"android": "https://dc.lft.to/lastmile_qr_scan", "ios": "https://dc.lft.to/lastmile_qr_scan"}, "is_reserved": 0, "name": "356d7372f28a0967922d4af024c2a09f", "lon": -76.98754533333333, "type": "electric_bike", "bike_id": "356d7372f28a0967922d4af024c2a09f", "fusion_lon": 0.0, "lat": 38.988195833333336, "fusion_lat": 0.0}, {"is_disabled": 0, "rental_uris": {"android": "https://dc.lft.to/lastmile_qr_scan", "ios": "https://dc.lft.to/lastmile_qr_scan"}, "is_reserved": 0, "name": "776f2a55023718902e9c98eb69f8d322", "lon": -77.03155166666667, "type": "electric_scooter", "bike_id": "776f2a55023718902e9c98eb69f8d322", "fusion_lon": 0.0, "lat": 38.928105, "fusion_lat": 0.0}, {"is_disabled": 0, "rental_uris": {"android": "https://dc.lft.to/lastmile_qr_scan", "ios": "https://dc.lft.to/lastmile_qr_scan"}, "is_reserved": 0, "name": "ed2aade131d74362ee861030f8dc2990", "lon": -77.02156466666666, "type": "electric_scooter", "bike_id": "ed2aade131d74362ee861030f8dc2990", "fusion_lon": 0.0, "lat": 38.926087, "fusion_lat": 0.0}, {"is_disabled": 0, "rental_uris": {"android": "https://dc.lft.to/lastmile_qr_scan", "ios": "https://dc.lft.to/lastmile_qr_scan"}, "is_reserved": 0, "name": "7b48eea852de6d8d6433f8cf5d40913c", "lon": -77.01217366666667, "type": "electric_scooter", "bike_id": "7b48eea852de6d8d6433f8cf5d40913c", "fusion_lon": 0.0, "lat": 38.895375, "fusion_lat": 0.0}, {"is_disabled": 0, "rental_uris": {"android": "https://dc.lft.to/lastmile_qr_scan", "ios": "https://dc.lft.to/lastmile_qr_scan"}, "is_reserved": 0, "name": "7fbec492ec60012d63db973ae75e63ff", "lon": -76.996334, "type": "electric_scooter", "bike_id": "7fbec492ec60012d63db973ae75e63ff", "fusion_lon": 0.0, "lat": 38.84621966666667, "fusion_lat": 0.0}, {"is_disabled": 0, "rental_uris": {"android": "https://dc.lft.to/lastmile_qr_scan", "ios": "https://dc.lft.to/lastmile_qr_scan"}, "is_reserved": 0, "name": "32ea850261b17581c0da4219ff4856b6", "lon": -77.03640033333333, "type": "electric_scooter", "bike_id": "32ea850261b17581c0da4219ff4856b6", "fusion_lon": 0.0, "lat": 38.93146683333333, "fusion_lat": 0.0}, {"is_disabled": 0, "rental_uris": {"android": "https://dc.lft.to/lastmile_qr_scan", "ios": "https://dc.lft.to/lastmile_qr_scan"}, "is_reserved": 0, "name": "060f72ac7898356b5f85402f6423307c", "lon": -77.005833, "type": "electric_scooter", "bike_id": "060f72ac7898356b5f85402f6423307c", "fusion_lon": 0.0, "lat": 38.90566366666667, "fusion_lat": 0.0}, {"is_disabled": 0, "rental_uris": {"android": "https://dc.lft.to/lastmile_qr_scan", "ios": "https://dc.lft.to/lastmile_qr_scan"}, "is_reserved": 0, "name": "1404165136774229b78d9987de7937d4", "lon": -77.0082685, "type": "electric_scooter", "bike_id": "1404165136774229b78d9987de7937d4", "fusion_lon": 0.0, "lat": 38.912574166666666, "fusion_lat": 0.0}, {"is_disabled": 0, "rental_uris": {"android": "https://dc.lft.to/lastmile_qr_scan", "ios": "https://dc.lft.to/lastmile_qr_scan"}, "is_reserved": 0, "name": "6fe011455075ec92308be3f59a19de5c", "lon": -77.03827516666666, "type": "electric_scooter", "bike_id": "6fe011455075ec92308be3f59a19de5c", "fusion_lon": 0.0, "lat": 38.90336466666667, "fusion_lat": 0.0}, {"is_disabled": 0, "rental_uris": {"android": "https://dc.lft.to/lastmile_qr_scan", "ios": "https://dc.lft.to/lastmile_qr_scan"}, "is_reserved": 0, "name": "2678f6c3c7e725f8eb6f9e4138b10aa0", "lon": -76.88906783333333, "type": "electric_bike", "bike_id": "2678f6c3c7e725f8eb6f9e4138b10aa0", "fusion_lon": 0.0, "lat": 38.9259295, "fusion_lat": 0.0}, {"is_disabled": 0, "rental_uris": {"android": "https://dc.lft.to/lastmile_qr_scan", "ios": "https://dc.lft.to/lastmile_qr_scan"}, "is_reserved": 0, "name": "0427e537c902c929e8270e595e7354ca", "lon": -76.9850445, "type": "electric_bike", "bike_id": "0427e537c902c929e8270e595e7354ca", "fusion_lon": 0.0, "lat": 38.985175, "fusion_lat": 0.0}, {"is_disabled": 0, "rental_uris": {"android": "https://dc.lft.to/lastmile_qr_scan", "ios": "https://dc.lft.to/lastmile_qr_scan"}, "is_reserved": 0, "name": "3ae211823bb17d6f627841995d20cd47", "lon": -77.05423416666666, "type": "electric_scooter", "bike_id": "3ae211823bb17d6f627841995d20cd47", "fusion_lon": 0.0, "lat": 38.8991395, "fusion_lat": 0.0}, {"is_disabled": 0, "rental_uris": {"android": "https://dc.lft.to/lastmile_qr_scan", "ios": "https://dc.lft.to/lastmile_qr_scan"}, "is_reserved": 0, "name": "511e152fa30b52d9ea74d8ef1bb5840d", "lon": -77.02087466666667, "type": "electric_scooter", "bike_id": "511e152fa30b52d9ea74d8ef1bb5840d", "fusion_lon": 0.0, "lat": 38.9300765, "fusion_lat": 0.0}, {"is_disabled": 0, "rental_uris": {"android": "https://dc.lft.to/lastmile_qr_scan", "ios": "https://dc.lft.to/lastmile_qr_scan"}, "is_reserved": 0, "name": "26b49cd630529bedad6f3ac9852624c5", "lon": -76.95217216666667, "type": "electric_bike", "bike_id": "26b49cd630529bedad6f3ac9852624c5", "fusion_lon": 0.0, "lat": 38.89233333333333, "fusion_lat": 0.0}, {"is_disabled": 0, "rental_uris": {"android": "https://dc.lft.to/lastmile_qr_scan", "ios": "https://dc.lft.to/lastmile_qr_scan"}, "is_reserved": 0, "name": "f33c4dc58e14172d0b9aa919a6e37e52", "lon": -77.051691, "type": "electric_scooter", "bike_id": "f33c4dc58e14172d0b9aa919a6e37e52", "fusion_lon": 0.0, "lat": 38.90581183333333, "fusion_lat": 0.0}, {"is_disabled": 0, "rental_uris": {"android": "https://dc.lft.to/lastmile_qr_scan", "ios": "https://dc.lft.to/lastmile_qr_scan"}, "is_reserved": 0, "name": "7dccdb038ceca90f05922be59e6a69da", "lon": -77.01414033333333, "type": "electric_scooter", "bike_id": "7dccdb038ceca90f05922be59e6a69da", "fusion_lon": 0.0, "lat": 38.92840483333333, "fusion_lat": 0.0}, {"is_disabled": 0, "rental_uris": {"android": "https://dc.lft.to/lastmile_qr_scan", "ios": "https://dc.lft.to/lastmile_qr_scan"}, "is_reserved": 0, "name": "565775609c0993d4e8105d99a848b97a", "lon": -77.00335083333333, "type": "electric_scooter", "bike_id": "565775609c0993d4e8105d99a848b97a", "fusion_lon": 0.0, "lat": 38.8935525, "fusion_lat": 0.0}, {"is_disabled": 0, "rental_uris": {"android": "https://dc.lft.to/lastmile_qr_scan", "ios": "https://dc.lft.to/lastmile_qr_scan"}, "is_reserved": 0, "name": "e52a08566aa7d214acffa81b20adb909", "lon": -77.0653125, "type": "electric_scooter", "bike_id": "e52a08566aa7d214acffa81b20adb909", "fusion_lon": 0.0, "lat": 38.905213, "fusion_lat": 0.0}, {"is_disabled": 0, "rental_uris": {"android": "https://dc.lft.to/lastmile_qr_scan", "ios": "https://dc.lft.to/lastmile_qr_scan"}, "is_reserved": 0, "name": "45f3fcabdfa782e3c1a13a8239b8d223", "lon": -77.0436235, "type": "electric_scooter", "bike_id": "45f3fcabdfa782e3c1a13a8239b8d223", "fusion_lon": 0.0, "lat": 38.91124683333334, "fusion_lat": 0.0}, {"is_disabled": 0, "rental_uris": {"android": "https://dc.lft.to/lastmile_qr_scan", "ios": "https://dc.lft.to/lastmile_qr_scan"}, "is_reserved": 0, "name": "7688ba86a2c76248ee38fa28711de6ac", "lon": -77.08051916666666, "type": "electric_bike", "bike_id": "7688ba86a2c76248ee38fa28711de6ac", "fusion_lon": 0.0, "lat": 38.848407, "fusion_lat": 0.0}, {"is_disabled": 0, "rental_uris": {"android": "https://dc.lft.to/lastmile_qr_scan", "ios": "https://dc.lft.to/lastmile_qr_scan"}, "is_reserved": 0, "name": "04413cab5498feffd0065036c967bf1f", "lon": -77.04584183333333, "type": "electric_scooter", "bike_id": "04413cab5498feffd0065036c967bf1f", "fusion_lon": 0.0, "lat": 38.91711933333333, "fusion_lat": 0.0}, {"is_disabled": 0, "rental_uris": {"android": "https://dc.lft.to/lastmile_qr_scan", "ios": "https://dc.lft.to/lastmile_qr_scan"}, "is_reserved": 0, "name": "4bf86485094dd99809abed572dd66bf3", "lon": -77.05407366666667, "type": "electric_scooter", "bike_id": "4bf86485094dd99809abed572dd66bf3", "fusion_lon": 0.0, "lat": 38.9283835, "fusion_lat": 0.0}, {"is_disabled": 0, "rental_uris": {"android": "https://dc.lft.to/lastmile_qr_scan", "ios": "https://dc.lft.to/lastmile_qr_scan"}, "is_reserved": 0, "name": "1e09ec4fa55812643fb37b5569024302", "lon": -77.0342005, "type": "electric_scooter", "bike_id": "1e09ec4fa55812643fb37b5569024302", "fusion_lon": 0.0, "lat": 38.91923216666667, "fusion_lat": 0.0}, {"is_disabled": 0, "rental_uris": {"android": "https://dc.lft.to/lastmile_qr_scan", "ios": "https://dc.lft.to/lastmile_qr_scan"}, "is_reserved": 0, "name": "3349aa6a4cb32bb2695814239355b4b9", "lon": -77.0316135, "type": "electric_scooter", "bike_id": "3349aa6a4cb32bb2695814239355b4b9", "fusion_lon": 0.0, "lat": 38.916358333333335, "fusion_lat": 0.0}, {"is_disabled": 0, "rental_uris": {"android": "https://dc.lft.to/lastmile_qr_scan", "ios": "https://dc.lft.to/lastmile_qr_scan"}, "is_reserved": 0, "name": "7913d7def760db445c62405dbe37377f", "lon": -76.95750983333333, "type": "electric_scooter", "bike_id": "7913d7def760db445c62405dbe37377f", "fusion_lon": 0.0, "lat": 38.88428016666667, "fusion_lat": 0.0}, {"is_disabled": 0, "rental_uris": {"android": "https://dc.lft.to/lastmile_qr_scan", "ios": "https://dc.lft.to/lastmile_qr_scan"}, "is_reserved": 0, "name": "edc4a67c40c3b8b3198efcc004d06cbe", "lon": -77.02227933333333, "type": "electric_scooter", "bike_id": "edc4a67c40c3b8b3198efcc004d06cbe", "fusion_lon": 0.0, "lat": 38.887420666666664, "fusion_lat": 0.0}, {"is_disabled": 0, "rental_uris": {"android": "https://dc.lft.to/lastmile_qr_scan", "ios": "https://dc.lft.to/lastmile_qr_scan"}, "is_reserved": 0, "name": "2d7eb6611ea1dfc19f817e00841349ea", "lon": -76.99820633333333, "type": "electric_scooter", "bike_id": "2d7eb6611ea1dfc19f817e00841349ea", "fusion_lon": 0.0, "lat": 38.84434533333334, "fusion_lat": 0.0}, {"is_disabled": 0, "rental_uris": {"android": "https://dc.lft.to/lastmile_qr_scan", "ios": "https://dc.lft.to/lastmile_qr_scan"}, "is_reserved": 0, "name": "62d490cb6208b74636edce94151da54a", "lon": -76.94997583333334, "type": "electric_scooter", "bike_id": "62d490cb6208b74636edce94151da54a", "fusion_lon": 0.0, "lat": 38.89389966666667, "fusion_lat": 0.0}, {"is_disabled": 0, "rental_uris": {"android": "https://dc.lft.to/lastmile_qr_scan", "ios": "https://dc.lft.to/lastmile_qr_scan"}, "is_reserved": 0, "name": "19e0e440c155a6e367713048c2f1bba8", "lon": -76.98247333333333, "type": "electric_bike", "bike_id": "19e0e440c155a6e367713048c2f1bba8", "fusion_lon": 0.0, "lat": 38.9532595, "fusion_lat": 0.0}, {"is_disabled": 0, "rental_uris": {"android": "https://dc.lft.to/lastmile_qr_scan", "ios": "https://dc.lft.to/lastmile_qr_scan"}, "is_reserved": 0, "name": "fdd1b56d9c080aeadef79c9d9e6868f7", "lon": -77.04796966666666, "type": "electric_scooter", "bike_id": "fdd1b56d9c080aeadef79c9d9e6868f7", "fusion_lon": 0.0, "lat": 38.8902575, "fusion_lat": 0.0}, {"is_disabled": 0, "rental_uris": {"android": "https://dc.lft.to/lastmile_qr_scan", "ios": "https://dc.lft.to/lastmile_qr_scan"}, "is_reserved": 0, "name": "82d4f5c4d53ba497cae37a75960fb2f4", "lon": -77.034644, "type": "electric_scooter", "bike_id": "82d4f5c4d53ba497cae37a75960fb2f4", "fusion_lon": 0.0, "lat": 38.909780166666664, "fusion_lat": 0.0}, {"is_disabled": 0, "rental_uris": {"android": "https://dc.lft.to/lastmile_qr_scan", "ios": "https://dc.lft.to/lastmile_qr_scan"}, "is_reserved": 0, "name": "4c427bc533b3eb2abea8a4acc0967bd0", "lon": -77.0465395, "type": "electric_scooter", "bike_id": "4c427bc533b3eb2abea8a4acc0967bd0", "fusion_lon": 0.0, "lat": 38.893395166666664, "fusion_lat": 0.0}, {"is_disabled": 0, "rental_uris": {"android": "https://dc.lft.to/lastmile_qr_scan", "ios": "https://dc.lft.to/lastmile_qr_scan"}, "is_reserved": 0, "name": "0985104ce8e832e45820f5ff0f8581eb", "lon": -77.00338133333334, "type": "electric_scooter", "bike_id": "0985104ce8e832e45820f5ff0f8581eb", "fusion_lon": 0.0, "lat": 38.893563, "fusion_lat": 0.0}, {"is_disabled": 0, "rental_uris": {"android": "https://dc.lft.to/lastmile_qr_scan", "ios": "https://dc.lft.to/lastmile_qr_scan"}, "is_reserved": 0, "name": "9aba0394e7243c17590e2ca603bd1860", "lon": -76.96689633333334, "type": "electric_bike", "bike_id": "9aba0394e7243c17590e2ca603bd1860", "fusion_lon": 0.0, "lat": 38.95882683333333, "fusion_lat": 0.0}, {"is_disabled": 0, "rental_uris": {"android": "https://dc.lft.to/lastmile_qr_scan", "ios": "https://dc.lft.to/lastmile_qr_scan"}, "is_reserved": 0, "name": "0d4fb1f0d71fb1dbbc44b633ef688664", "lon": -77.02617483333333, "type": "electric_scooter", "bike_id": "0d4fb1f0d71fb1dbbc44b633ef688664", "fusion_lon": 0.0, "lat": 38.90568783333333, "fusion_lat": 0.0}, {"is_disabled": 0, "rental_uris": {"android": "https://dc.lft.to/lastmile_qr_scan", "ios": "https://dc.lft.to/lastmile_qr_scan"}, "is_reserved": 0, "name": "3a0d35df2be36206c0b20c4eb83acf8d", "lon": -76.99499766666666, "type": "electric_scooter", "bike_id": "3a0d35df2be36206c0b20c4eb83acf8d", "fusion_lon": 0.0, "lat": 38.8624195, "fusion_lat": 0.0}, {"is_disabled": 0, "rental_uris": {"android": "https://dc.lft.to/lastmile_qr_scan", "ios": "https://dc.lft.to/lastmile_qr_scan"}, "is_reserved": 0, "name": "0101b5d0d00940ceac73a2fb0337aeff", "lon": -77.04476516666666, "type": "electric_scooter", "bike_id": "0101b5d0d00940ceac73a2fb0337aeff", "fusion_lon": 0.0, "lat": 38.9083905, "fusion_lat": 0.0}, {"is_disabled": 0, "rental_uris": {"android": "https://dc.lft.to/lastmile_qr_scan", "ios": "https://dc.lft.to/lastmile_qr_scan"}, "is_reserved": 0, "name": "cd1605ed53b4323b0844caf33040b5b2", "lon": -77.019967, "type": "electric_scooter", "bike_id": "cd1605ed53b4323b0844caf33040b5b2", "fusion_lon": 0.0, "lat": 38.87575566666667, "fusion_lat": 0.0}, {"is_disabled": 0, "rental_uris": {"android": "https://dc.lft.to/lastmile_qr_scan", "ios": "https://dc.lft.to/lastmile_qr_scan"}, "is_reserved": 0, "name": "de763889068d0e60199bcc46a41069dd", "lon": -77.03181016666667, "type": "electric_scooter", "bike_id": "de763889068d0e60199bcc46a41069dd", "fusion_lon": 0.0, "lat": 38.892292, "fusion_lat": 0.0}, {"is_disabled": 0, "rental_uris": {"android": "https://dc.lft.to/lastmile_qr_scan", "ios": "https://dc.lft.to/lastmile_qr_scan"}, "is_reserved": 0, "name": "947bd5fec634ff4b02354daf7a95d502", "lon": -77.0519505, "type": "electric_scooter", "bike_id": "947bd5fec634ff4b02354daf7a95d502", "fusion_lon": 0.0, "lat": 38.9254695, "fusion_lat": 0.0}, {"is_disabled": 0, "rental_uris": {"android": "https://dc.lft.to/lastmile_qr_scan", "ios": "https://dc.lft.to/lastmile_qr_scan"}, "is_reserved": 0, "name": "b30e0afdeae8704fc7822e9fe30073fa", "lon": -77.038854, "type": "electric_scooter", "bike_id": "b30e0afdeae8704fc7822e9fe30073fa", "fusion_lon": 0.0, "lat": 38.912644666666665, "fusion_lat": 0.0}, {"is_disabled": 0, "rental_uris": {"android": "https://dc.lft.to/lastmile_qr_scan", "ios": "https://dc.lft.to/lastmile_qr_scan"}, "is_reserved": 0, "name": "b73407aa194f96e2bf69c04155c72261", "lon": -77.01025433333334, "type": "electric_scooter", "bike_id": "b73407aa194f96e2bf69c04155c72261", "fusion_lon": 0.0, "lat": 38.911141666666666, "fusion_lat": 0.0}, {"is_disabled": 0, "rental_uris": {"android": "https://dc.lft.to/lastmile_qr_scan", "ios": "https://dc.lft.to/lastmile_qr_scan"}, "is_reserved": 0, "name": "094ec57509b52c66021ca6200c2276d8", "lon": -77.02492716666667, "type": "electric_scooter", "bike_id": "094ec57509b52c66021ca6200c2276d8", "fusion_lon": 0.0, "lat": 38.94185933333333, "fusion_lat": 0.0}, {"is_disabled": 0, "rental_uris": {"android": "https://dc.lft.to/lastmile_qr_scan", "ios": "https://dc.lft.to/lastmile_qr_scan"}, "is_reserved": 0, "name": "ecb3cb4637ff30ae9496fb614b2c4080", "lon": -76.9575175, "type": "electric_scooter", "bike_id": "ecb3cb4637ff30ae9496fb614b2c4080", "fusion_lon": 0.0, "lat": 38.8842585, "fusion_lat": 0.0}, {"is_disabled": 0, "rental_uris": {"android": "https://dc.lft.to/lastmile_qr_scan", "ios": "https://dc.lft.to/lastmile_qr_scan"}, "is_reserved": 0, "name": "8e2e31828f83994c71436e4f78f88827", "lon": -77.050425, "type": "electric_scooter", "bike_id": "8e2e31828f83994c71436e4f78f88827", "fusion_lon": 0.0, "lat": 38.923626, "fusion_lat": 0.0}, {"is_disabled": 0, "rental_uris": {"android": "https://dc.lft.to/lastmile_qr_scan", "ios": "https://dc.lft.to/lastmile_qr_scan"}, "is_reserved": 0, "name": "714e6af26b0c86a6c1973381955ec856", "lon": -77.02979783333333, "type": "electric_scooter", "bike_id": "714e6af26b0c86a6c1973381955ec856", "fusion_lon": 0.0, "lat": 38.945249833333335, "fusion_lat": 0.0}, {"is_disabled": 0, "rental_uris": {"android": "https://dc.lft.to/lastmile_qr_scan", "ios": "https://dc.lft.to/lastmile_qr_scan"}, "is_reserved": 0, "name": "cc007d288706a2a1039799574856c0fc", "lon": -77.02594316666666, "type": "electric_scooter", "bike_id": "cc007d288706a2a1039799574856c0fc", "fusion_lon": 0.0, "lat": 38.9043235, "fusion_lat": 0.0}, {"is_disabled": 0, "rental_uris": {"android": "https://dc.lft.to/lastmile_qr_scan", "ios": "https://dc.lft.to/lastmile_qr_scan"}, "is_reserved": 0, "name": "6d6f8d54db541b8e36539154ed272885", "lon": -77.046567, "type": "electric_scooter", "bike_id": "6d6f8d54db541b8e36539154ed272885", "fusion_lon": 0.0, "lat": 38.900193333333334, "fusion_lat": 0.0}, {"is_disabled": 0, "rental_uris": {"android": "https://dc.lft.to/lastmile_qr_scan", "ios": "https://dc.lft.to/lastmile_qr_scan"}, "is_reserved": 0, "name": "0a927de068d010200ba136e3afacc81b", "lon": -76.99391133333333, "type": "electric_scooter", "bike_id": "0a927de068d010200ba136e3afacc81b", "fusion_lon": 0.0, "lat": 38.884526, "fusion_lat": 0.0}, {"is_disabled": 0, "rental_uris": {"android": "https://dc.lft.to/lastmile_qr_scan", "ios": "https://dc.lft.to/lastmile_qr_scan"}, "is_reserved": 0, "name": "bf41d8f5ddce6fad5c12ae4fee64ac53", "lon": -77.024892, "type": "electric_bike", "bike_id": "bf41d8f5ddce6fad5c12ae4fee64ac53", "fusion_lon": 0.0, "lat": 38.97365516666667, "fusion_lat": 0.0}, {"is_disabled": 0, "rental_uris": {"android": "https://dc.lft.to/lastmile_qr_scan", "ios": "https://dc.lft.to/lastmile_qr_scan"}, "is_reserved": 0, "name": "df68694c1b8a93f4e0b4d9cdd9bf1b02", "lon": -77.00774483333333, "type": "electric_scooter", "bike_id": "df68694c1b8a93f4e0b4d9cdd9bf1b02", "fusion_lon": 0.0, "lat": 38.914942833333335, "fusion_lat": 0.0}, {"is_disabled": 0, "rental_uris": {"android": "https://dc.lft.to/lastmile_qr_scan", "ios": "https://dc.lft.to/lastmile_qr_scan"}, "is_reserved": 0, "name": "86e540e288bce648d8c678adc643552d", "lon": -77.02309383333333, "type": "electric_scooter", "bike_id": "86e540e288bce648d8c678adc643552d", "fusion_lon": 0.0, "lat": 38.916897, "fusion_lat": 0.0}, {"is_disabled": 0, "rental_uris": {"android": "https://dc.lft.to/lastmile_qr_scan", "ios": "https://dc.lft.to/lastmile_qr_scan"}, "is_reserved": 0, "name": "d33893dc2627d1732006a72a544ad414", "lon": -77.0445625, "type": "electric_scooter", "bike_id": "d33893dc2627d1732006a72a544ad414", "fusion_lon": 0.0, "lat": 38.91864733333333, "fusion_lat": 0.0}, {"is_disabled": 0, "rental_uris": {"android": "https://dc.lft.to/lastmile_qr_scan", "ios": "https://dc.lft.to/lastmile_qr_scan"}, "is_reserved": 0, "name": "ef370e107da38306bb636c35583f4716", "lon": -77.0167275, "type": "electric_scooter", "bike_id": "ef370e107da38306bb636c35583f4716", "fusion_lon": 0.0, "lat": 38.90246633333334, "fusion_lat": 0.0}, {"is_disabled": 0, "rental_uris": {"android": "https://dc.lft.to/lastmile_qr_scan", "ios": "https://dc.lft.to/lastmile_qr_scan"}, "is_reserved": 0, "name": "c1c7f5b469ac795126ab77b3eac9edf1", "lon": -76.97129233333334, "type": "electric_bike", "bike_id": "c1c7f5b469ac795126ab77b3eac9edf1", "fusion_lon": 0.0, "lat": 38.9196515, "fusion_lat": 0.0}, {"is_disabled": 0, "rental_uris": {"android": "https://dc.lft.to/lastmile_qr_scan", "ios": "https://dc.lft.to/lastmile_qr_scan"}, "is_reserved": 0, "name": "9e128bbed6e2c4cba9484a01e7783e0b", "lon": -77.04518666666667, "type": "electric_scooter", "bike_id": "9e128bbed6e2c4cba9484a01e7783e0b", "fusion_lon": 0.0, "lat": 38.90784766666667, "fusion_lat": 0.0}, {"is_disabled": 0, "rental_uris": {"android": "https://dc.lft.to/lastmile_qr_scan", "ios": "https://dc.lft.to/lastmile_qr_scan"}, "is_reserved": 0, "name": "7a9f6258bc63df896402723075a6b46b", "lon": -76.9901835, "type": "electric_scooter", "bike_id": "7a9f6258bc63df896402723075a6b46b", "fusion_lon": 0.0, "lat": 38.86105766666667, "fusion_lat": 0.0}, {"is_disabled": 0, "rental_uris": {"android": "https://dc.lft.to/lastmile_qr_scan", "ios": "https://dc.lft.to/lastmile_qr_scan"}, "is_reserved": 0, "name": "e162857c5140c4f4c77e2bcd5c7ff28c", "lon": -76.99632766666667, "type": "electric_scooter", "bike_id": "e162857c5140c4f4c77e2bcd5c7ff28c", "fusion_lon": 0.0, "lat": 38.846176666666665, "fusion_lat": 0.0}, {"is_disabled": 0, "rental_uris": {"android": "https://dc.lft.to/lastmile_qr_scan", "ios": "https://dc.lft.to/lastmile_qr_scan"}, "is_reserved": 0, "name": "49784ecd7061f232d2a5964a12abff1e", "lon": -77.007141, "type": "electric_scooter", "bike_id": "49784ecd7061f232d2a5964a12abff1e", "fusion_lon": 0.0, "lat": 38.884894333333335, "fusion_lat": 0.0}, {"is_disabled": 0, "rental_uris": {"android": "https://dc.lft.to/lastmile_qr_scan", "ios": "https://dc.lft.to/lastmile_qr_scan"}, "is_reserved": 0, "name": "c6e7e42c6f81a0c1cd91c8bab1d16e56", "lon": -77.03239333333333, "type": "electric_bike", "bike_id": "c6e7e42c6f81a0c1cd91c8bab1d16e56", "fusion_lon": 0.0, "lat": 38.90275033333333, "fusion_lat": 0.0}, {"is_disabled": 0, "rental_uris": {"android": "https://dc.lft.to/lastmile_qr_scan", "ios": "https://dc.lft.to/lastmile_qr_scan"}, "is_reserved": 0, "name": "2c038b87d01548d86d1733705450cfa1", "lon": -77.0156875, "type": "electric_scooter", "bike_id": "2c038b87d01548d86d1733705450cfa1", "fusion_lon": 0.0, "lat": 38.872568666666666, "fusion_lat": 0.0}, {"is_disabled": 0, "rental_uris": {"android": "https://dc.lft.to/lastmile_qr_scan", "ios": "https://dc.lft.to/lastmile_qr_scan"}, "is_reserved": 0, "name": "18c34a77e4e09ed696fb7932170972a8", "lon": -77.03543633333334, "type": "electric_scooter", "bike_id": "18c34a77e4e09ed696fb7932170972a8", "fusion_lon": 0.0, "lat": 38.92283316666666, "fusion_lat": 0.0}, {"is_disabled": 0, "rental_uris": {"android": "https://dc.lft.to/lastmile_qr_scan", "ios": "https://dc.lft.to/lastmile_qr_scan"}, "is_reserved": 0, "name": "ac7a05578b292b74e57b7e61f33de970", "lon": -77.0175305, "type": "electric_scooter", "bike_id": "ac7a05578b292b74e57b7e61f33de970", "fusion_lon": 0.0, "lat": 38.88331266666667, "fusion_lat": 0.0}, {"is_disabled": 0, "rental_uris": {"android": "https://dc.lft.to/lastmile_qr_scan", "ios": "https://dc.lft.to/lastmile_qr_scan"}, "is_reserved": 0, "name": "29276f9d1dd7a42df0e39de2d2c4603d", "lon": -77.02414083333333, "type": "electric_scooter", "bike_id": "29276f9d1dd7a42df0e39de2d2c4603d", "fusion_lon": 0.0, "lat": 38.92659966666667, "fusion_lat": 0.0}, {"is_disabled": 0, "rental_uris": {"android": "https://dc.lft.to/lastmile_qr_scan", "ios": "https://dc.lft.to/lastmile_qr_scan"}, "is_reserved": 0, "name": "72b7a8a78ec1ebb7e3755bd291f88487", "lon": -76.99720516666666, "type": "electric_scooter", "bike_id": "72b7a8a78ec1ebb7e3755bd291f88487", "fusion_lon": 0.0, "lat": 38.910307833333334, "fusion_lat": 0.0}, {"is_disabled": 0, "rental_uris": {"android": "https://dc.lft.to/lastmile_qr_scan", "ios": "https://dc.lft.to/lastmile_qr_scan"}, "is_reserved": 0, "name": "2ffa4419104d206c7f519004904f2e34", "lon": -76.995367, "type": "electric_scooter", "bike_id": "2ffa4419104d206c7f519004904f2e34", "fusion_lon": 0.0, "lat": 38.86253083333333, "fusion_lat": 0.0}, {"is_disabled": 0, "rental_uris": {"android": "https://dc.lft.to/lastmile_qr_scan", "ios": "https://dc.lft.to/lastmile_qr_scan"}, "is_reserved": 0, "name": "fec3fdf58e2784a981c6ddb514a3b78d", "lon": -77.01103183333333, "type": "electric_scooter", "bike_id": "fec3fdf58e2784a981c6ddb514a3b78d", "fusion_lon": 0.0, "lat": 38.90966516666667, "fusion_lat": 0.0}, {"is_disabled": 0, "rental_uris": {"android": "https://dc.lft.to/lastmile_qr_scan", "ios": "https://dc.lft.to/lastmile_qr_scan"}, "is_reserved": 0, "name": "f4f5a80c2ab147f5a05ec8b58886d549", "lon": -77.07619333333334, "type": "electric_scooter", "bike_id": "f4f5a80c2ab147f5a05ec8b58886d549", "fusion_lon": 0.0, "lat": 38.912705333333335, "fusion_lat": 0.0}, {"is_disabled": 0, "rental_uris": {"android": "https://dc.lft.to/lastmile_qr_scan", "ios": "https://dc.lft.to/lastmile_qr_scan"}, "is_reserved": 0, "name": "5c9598a1385000dd0ac4d456ef4f4ee5", "lon": -77.0398725, "type": "electric_bike", "bike_id": "5c9598a1385000dd0ac4d456ef4f4ee5", "fusion_lon": 0.0, "lat": 38.802959666666666, "fusion_lat": 0.0}, {"is_disabled": 0, "rental_uris": {"android": "https://dc.lft.to/lastmile_qr_scan", "ios": "https://dc.lft.to/lastmile_qr_scan"}, "is_reserved": 0, "name": "8cc604ff86bd5383cef8c443fb4aa655", "lon": -77.03935333333334, "type": "electric_scooter", "bike_id": "8cc604ff86bd5383cef8c443fb4aa655", "fusion_lon": 0.0, "lat": 38.899785, "fusion_lat": 0.0}, {"is_disabled": 0, "rental_uris": {"android": "https://dc.lft.to/lastmile_qr_scan", "ios": "https://dc.lft.to/lastmile_qr_scan"}, "is_reserved": 0, "name": "1d144ec311b1b463efb74aaffe21433f", "lon": -77.03141066666667, "type": "electric_scooter", "bike_id": "1d144ec311b1b463efb74aaffe21433f", "fusion_lon": 0.0, "lat": 38.92483133333333, "fusion_lat": 0.0}, {"is_disabled": 0, "rental_uris": {"android": "https://dc.lft.to/lastmile_qr_scan", "ios": "https://dc.lft.to/lastmile_qr_scan"}, "is_reserved": 0, "name": "e1fe09e523201a35bdd510781bd7bae9", "lon": -77.04363833333333, "type": "electric_scooter", "bike_id": "e1fe09e523201a35bdd510781bd7bae9", "fusion_lon": 0.0, "lat": 38.902694, "fusion_lat": 0.0}, {"is_disabled": 0, "rental_uris": {"android": "https://dc.lft.to/lastmile_qr_scan", "ios": "https://dc.lft.to/lastmile_qr_scan"}, "is_reserved": 0, "name": "26a2b549edf8335c9f4aea254c4b85e3", "lon": -77.182941, "type": "electric_bike", "bike_id": "26a2b549edf8335c9f4aea254c4b85e3", "fusion_lon": 0.0, "lat": 38.88340766666666, "fusion_lat": 0.0}, {"is_disabled": 0, "rental_uris": {"android": "https://dc.lft.to/lastmile_qr_scan", "ios": "https://dc.lft.to/lastmile_qr_scan"}, "is_reserved": 0, "name": "14366f1a0d05f6cd676902bd8c6b356e", "lon": -77.03291416666667, "type": "electric_scooter", "bike_id": "14366f1a0d05f6cd676902bd8c6b356e", "fusion_lon": 0.0, "lat": 38.92876916666667, "fusion_lat": 0.0}, {"is_disabled": 0, "rental_uris": {"android": "https://dc.lft.to/lastmile_qr_scan", "ios": "https://dc.lft.to/lastmile_qr_scan"}, "is_reserved": 0, "name": "e31785a7f4f03d94f7076abc2b7d5cb2", "lon": -77.0158325, "type": "electric_bike", "bike_id": "e31785a7f4f03d94f7076abc2b7d5cb2", "fusion_lon": 0.0, "lat": 39.0463745, "fusion_lat": 0.0}, {"is_disabled": 0, "rental_uris": {"android": "https://dc.lft.to/lastmile_qr_scan", "ios": "https://dc.lft.to/lastmile_qr_scan"}, "is_reserved": 0, "name": "9ea8a393a363fe876c615e9b82f7b5c7", "lon": -77.0428925, "type": "electric_scooter", "bike_id": "9ea8a393a363fe876c615e9b82f7b5c7", "fusion_lon": 0.0, "lat": 38.911086833333336, "fusion_lat": 0.0}, {"is_disabled": 0, "rental_uris": {"android": "https://dc.lft.to/lastmile_qr_scan", "ios": "https://dc.lft.to/lastmile_qr_scan"}, "is_reserved": 0, "name": "77fe27961c2b0b37eddf6e6f4feb029f", "lon": -77.02489966666667, "type": "electric_scooter", "bike_id": "77fe27961c2b0b37eddf6e6f4feb029f", "fusion_lon": 0.0, "lat": 38.93906833333333, "fusion_lat": 0.0}, {"is_disabled": 0, "rental_uris": {"android": "https://dc.lft.to/lastmile_qr_scan", "ios": "https://dc.lft.to/lastmile_qr_scan"}, "is_reserved": 0, "name": "61c0311105b62405159377d92825361b", "lon": -76.98517883333334, "type": "electric_scooter", "bike_id": "61c0311105b62405159377d92825361b", "fusion_lon": 0.0, "lat": 38.8600125, "fusion_lat": 0.0}, {"is_disabled": 0, "rental_uris": {"android": "https://dc.lft.to/lastmile_qr_scan", "ios": "https://dc.lft.to/lastmile_qr_scan"}, "is_reserved": 0, "name": "18879576d34b07be3697b6f65bdff78a", "lon": -77.05931066666666, "type": "electric_scooter", "bike_id": "18879576d34b07be3697b6f65bdff78a", "fusion_lon": 0.0, "lat": 38.936668, "fusion_lat": 0.0}, {"is_disabled": 0, "rental_uris": {"android": "https://dc.lft.to/lastmile_qr_scan", "ios": "https://dc.lft.to/lastmile_qr_scan"}, "is_reserved": 0, "name": "77f8b4267a0a253a9c68d5a7df6bb0c7", "lon": -77.02837033333333, "type": "electric_scooter", "bike_id": "77f8b4267a0a253a9c68d5a7df6bb0c7", "fusion_lon": 0.0, "lat": 38.89525033333334, "fusion_lat": 0.0}, {"is_disabled": 0, "rental_uris": {"android": "https://dc.lft.to/lastmile_qr_scan", "ios": "https://dc.lft.to/lastmile_qr_scan"}, "is_reserved": 0, "name": "d3fd3632ffda07ceac30c21ed4469977", "lon": -76.930942, "type": "electric_scooter", "bike_id": "d3fd3632ffda07ceac30c21ed4469977", "fusion_lon": 0.0, "lat": 38.88019, "fusion_lat": 0.0}, {"is_disabled": 0, "rental_uris": {"android": "https://dc.lft.to/lastmile_qr_scan", "ios": "https://dc.lft.to/lastmile_qr_scan"}, "is_reserved": 0, "name": "3ec455bc42af16f06f4292a0e4663523", "lon": -77.030567, "type": "electric_scooter", "bike_id": "3ec455bc42af16f06f4292a0e4663523", "fusion_lon": 0.0, "lat": 38.909760166666665, "fusion_lat": 0.0}, {"is_disabled": 0, "rental_uris": {"android": "https://dc.lft.to/lastmile_qr_scan", "ios": "https://dc.lft.to/lastmile_qr_scan"}, "is_reserved": 0, "name": "66d5b360762d422163674a426a07bd56", "lon": -76.98092566666666, "type": "electric_scooter", "bike_id": "66d5b360762d422163674a426a07bd56", "fusion_lon": 0.0, "lat": 38.85718683333333, "fusion_lat": 0.0}, {"is_disabled": 0, "rental_uris": {"android": "https://dc.lft.to/lastmile_qr_scan", "ios": "https://dc.lft.to/lastmile_qr_scan"}, "is_reserved": 0, "name": "dd4e0ecdb2b20ec7c4620868b6f93d8d", "lon": -77.05096066666667, "type": "electric_scooter", "bike_id": "dd4e0ecdb2b20ec7c4620868b6f93d8d", "fusion_lon": 0.0, "lat": 38.92341416666667, "fusion_lat": 0.0}, {"is_disabled": 0, "rental_uris": {"android": "https://dc.lft.to/lastmile_qr_scan", "ios": "https://dc.lft.to/lastmile_qr_scan"}, "is_reserved": 0, "name": "161055c8c96c368c57d83f77c490bd3e", "lon": -77.045388, "type": "electric_scooter", "bike_id": "161055c8c96c368c57d83f77c490bd3e", "fusion_lon": 0.0, "lat": 38.901454333333334, "fusion_lat": 0.0}, {"is_disabled": 0, "rental_uris": {"android": "https://dc.lft.to/lastmile_qr_scan", "ios": "https://dc.lft.to/lastmile_qr_scan"}, "is_reserved": 0, "name": "26b58a72aad513718d9b7bc27de80222", "lon": -76.969189, "type": "electric_scooter", "bike_id": "26b58a72aad513718d9b7bc27de80222", "fusion_lon": 0.0, "lat": 38.85524066666667, "fusion_lat": 0.0}, {"is_disabled": 0, "rental_uris": {"android": "https://dc.lft.to/lastmile_qr_scan", "ios": "https://dc.lft.to/lastmile_qr_scan"}, "is_reserved": 0, "name": "d2f728f7f1d0c80aa148775c9c5f462c", "lon": -77.0237835, "type": "electric_scooter", "bike_id": "d2f728f7f1d0c80aa148775c9c5f462c", "fusion_lon": 0.0, "lat": 38.8872245, "fusion_lat": 0.0}, {"is_disabled": 0, "rental_uris": {"android": "https://dc.lft.to/lastmile_qr_scan", "ios": "https://dc.lft.to/lastmile_qr_scan"}, "is_reserved": 0, "name": "ac81d919cd826829b71ea8e6cadac4e3", "lon": -77.05003033333334, "type": "electric_scooter", "bike_id": "ac81d919cd826829b71ea8e6cadac4e3", "fusion_lon": 0.0, "lat": 38.893602, "fusion_lat": 0.0}, {"is_disabled": 0, "rental_uris": {"android": "https://dc.lft.to/lastmile_qr_scan", "ios": "https://dc.lft.to/lastmile_qr_scan"}, "is_reserved": 0, "name": "274a3da11459d629d1c586fb911850f3", "lon": -77.03832, "type": "electric_scooter", "bike_id": "274a3da11459d629d1c586fb911850f3", "fusion_lon": 0.0, "lat": 38.91107983333333, "fusion_lat": 0.0}, {"is_disabled": 0, "rental_uris": {"android": "https://dc.lft.to/lastmile_qr_scan", "ios": "https://dc.lft.to/lastmile_qr_scan"}, "is_reserved": 0, "name": "b69842ba1b60eb2e2050d9565ffd347b", "lon": -77.02414283333333, "type": "electric_scooter", "bike_id": "b69842ba1b60eb2e2050d9565ffd347b", "fusion_lon": 0.0, "lat": 38.91253866666667, "fusion_lat": 0.0}, {"is_disabled": 0, "rental_uris": {"android": "https://dc.lft.to/lastmile_qr_scan", "ios": "https://dc.lft.to/lastmile_qr_scan"}, "is_reserved": 0, "name": "3fdc7e7cb99e2473ebc411e910d6e331", "lon": -77.040949, "type": "electric_scooter", "bike_id": "3fdc7e7cb99e2473ebc411e910d6e331", "fusion_lon": 0.0, "lat": 38.899500333333336, "fusion_lat": 0.0}, {"is_disabled": 0, "rental_uris": {"android": "https://dc.lft.to/lastmile_qr_scan", "ios": "https://dc.lft.to/lastmile_qr_scan"}, "is_reserved": 0, "name": "ed87ad4b7a1e0d5a24b4731839937981", "lon": -77.0436335, "type": "electric_scooter", "bike_id": "ed87ad4b7a1e0d5a24b4731839937981", "fusion_lon": 0.0, "lat": 38.908345833333335, "fusion_lat": 0.0}, {"is_disabled": 0, "rental_uris": {"android": "https://dc.lft.to/lastmile_qr_scan", "ios": "https://dc.lft.to/lastmile_qr_scan"}, "is_reserved": 0, "name": "3ffdbf76b07c104a088d5c2d72d57577", "lon": -76.96374066666667, "type": "electric_bike", "bike_id": "3ffdbf76b07c104a088d5c2d72d57577", "fusion_lon": 0.0, "lat": 38.948980666666664, "fusion_lat": 0.0}, {"is_disabled": 0, "rental_uris": {"android": "https://dc.lft.to/lastmile_qr_scan", "ios": "https://dc.lft.to/lastmile_qr_scan"}, "is_reserved": 0, "name": "bea894c2a3c8f47e29facb78d5a084bb", "lon": -76.993958, "type": "electric_scooter", "bike_id": "bea894c2a3c8f47e29facb78d5a084bb", "fusion_lon": 0.0, "lat": 38.92161816666667, "fusion_lat": 0.0}, {"is_disabled": 0, "rental_uris": {"android": "https://dc.lft.to/lastmile_qr_scan", "ios": "https://dc.lft.to/lastmile_qr_scan"}, "is_reserved": 0, "name": "fcba0560f95fb7fd1744deba9912eb20", "lon": -77.04155366666667, "type": "electric_scooter", "bike_id": "fcba0560f95fb7fd1744deba9912eb20", "fusion_lon": 0.0, "lat": 38.917467, "fusion_lat": 0.0}, {"is_disabled": 0, "rental_uris": {"android": "https://dc.lft.to/lastmile_qr_scan", "ios": "https://dc.lft.to/lastmile_qr_scan"}, "is_reserved": 0, "name": "a974e22a4f9816adc4c4bbd7186f0fc5", "lon": -77.03171966666666, "type": "electric_scooter", "bike_id": "a974e22a4f9816adc4c4bbd7186f0fc5", "fusion_lon": 0.0, "lat": 38.89993333333334, "fusion_lat": 0.0}, {"is_disabled": 0, "rental_uris": {"android": "https://dc.lft.to/lastmile_qr_scan", "ios": "https://dc.lft.to/lastmile_qr_scan"}, "is_reserved": 0, "name": "a9e08b38052b484947d79ba47bfec344", "lon": -77.02813783333333, "type": "electric_bike", "bike_id": "a9e08b38052b484947d79ba47bfec344", "fusion_lon": 0.0, "lat": 38.993753166666664, "fusion_lat": 0.0}, {"is_disabled": 0, "rental_uris": {"android": "https://dc.lft.to/lastmile_qr_scan", "ios": "https://dc.lft.to/lastmile_qr_scan"}, "is_reserved": 0, "name": "06be42e1a90b2147f88759cb8b8fbb80", "lon": -76.94632266666666, "type": "electric_scooter", "bike_id": "06be42e1a90b2147f88759cb8b8fbb80", "fusion_lon": 0.0, "lat": 38.89841666666667, "fusion_lat": 0.0}, {"is_disabled": 0, "rental_uris": {"android": "https://dc.lft.to/lastmile_qr_scan", "ios": "https://dc.lft.to/lastmile_qr_scan"}, "is_reserved": 0, "name": "e67d8a0cfa914fec20ed2ae4430e5833", "lon": -77.02838866666667, "type": "electric_scooter", "bike_id": "e67d8a0cfa914fec20ed2ae4430e5833", "fusion_lon": 0.0, "lat": 38.922324333333336, "fusion_lat": 0.0}, {"is_disabled": 0, "rental_uris": {"android": "https://dc.lft.to/lastmile_qr_scan", "ios": "https://dc.lft.to/lastmile_qr_scan"}, "is_reserved": 0, "name": "8520b4119bf754c0d0c137cfe8dd36bd", "lon": -77.02696866666666, "type": "electric_scooter", "bike_id": "8520b4119bf754c0d0c137cfe8dd36bd", "fusion_lon": 0.0, "lat": 38.936304666666665, "fusion_lat": 0.0}, {"is_disabled": 0, "rental_uris": {"android": "https://dc.lft.to/lastmile_qr_scan", "ios": "https://dc.lft.to/lastmile_qr_scan"}, "is_reserved": 0, "name": "e0e4a03e239682fc1b848327a8ff6336", "lon": -77.04418616666666, "type": "electric_scooter", "bike_id": "e0e4a03e239682fc1b848327a8ff6336", "fusion_lon": 0.0, "lat": 38.894022166666666, "fusion_lat": 0.0}, {"is_disabled": 0, "rental_uris": {"android": "https://dc.lft.to/lastmile_qr_scan", "ios": "https://dc.lft.to/lastmile_qr_scan"}, "is_reserved": 0, "name": "231cdb60482d361548983eedfcf6c32a", "lon": -77.03941316666666, "type": "electric_scooter", "bike_id": "231cdb60482d361548983eedfcf6c32a", "fusion_lon": 0.0, "lat": 38.9096675, "fusion_lat": 0.0}, {"is_disabled": 0, "rental_uris": {"android": "https://dc.lft.to/lastmile_qr_scan", "ios": "https://dc.lft.to/lastmile_qr_scan"}, "is_reserved": 0, "name": "e1334e32237d34516e16189796a03138", "lon": -77.04370433333334, "type": "electric_scooter", "bike_id": "e1334e32237d34516e16189796a03138", "fusion_lon": 0.0, "lat": 38.904639833333334, "fusion_lat": 0.0}, {"is_disabled": 0, "rental_uris": {"android": "https://dc.lft.to/lastmile_qr_scan", "ios": "https://dc.lft.to/lastmile_qr_scan"}, "is_reserved": 0, "name": "72765e037e0e5558ba9456945e1ec27b", "lon": -77.034981, "type": "electric_scooter", "bike_id": "72765e037e0e5558ba9456945e1ec27b", "fusion_lon": 0.0, "lat": 38.92346083333333, "fusion_lat": 0.0}, {"is_disabled": 0, "rental_uris": {"android": "https://dc.lft.to/lastmile_qr_scan", "ios": "https://dc.lft.to/lastmile_qr_scan"}, "is_reserved": 0, "name": "736c4e0e53828a9a76b5b2d4c4532d87", "lon": -77.03349783333333, "type": "electric_scooter", "bike_id": "736c4e0e53828a9a76b5b2d4c4532d87", "fusion_lon": 0.0, "lat": 38.89573516666667, "fusion_lat": 0.0}, {"is_disabled": 0, "rental_uris": {"android": "https://dc.lft.to/lastmile_qr_scan", "ios": "https://dc.lft.to/lastmile_qr_scan"}, "is_reserved": 0, "name": "d55a378076310fec47cf3184b4dc59fc", "lon": -76.9951715, "type": "electric_scooter", "bike_id": "d55a378076310fec47cf3184b4dc59fc", "fusion_lon": 0.0, "lat": 38.894845, "fusion_lat": 0.0}, {"is_disabled": 0, "rental_uris": {"android": "https://dc.lft.to/lastmile_qr_scan", "ios": "https://dc.lft.to/lastmile_qr_scan"}, "is_reserved": 0, "name": "7cb638841782bb04a905a6261f36f2ae", "lon": -77.00046366666666, "type": "electric_scooter", "bike_id": "7cb638841782bb04a905a6261f36f2ae", "fusion_lon": 0.0, "lat": 38.918976666666666, "fusion_lat": 0.0}, {"is_disabled": 0, "rental_uris": {"android": "https://dc.lft.to/lastmile_qr_scan", "ios": "https://dc.lft.to/lastmile_qr_scan"}, "is_reserved": 0, "name": "fb98ed8fe60fb1460a8a7821c4013e6f", "lon": -77.04596516666666, "type": "electric_scooter", "bike_id": "fb98ed8fe60fb1460a8a7821c4013e6f", "fusion_lon": 0.0, "lat": 38.902717, "fusion_lat": 0.0}, {"is_disabled": 0, "rental_uris": {"android": "https://dc.lft.to/lastmile_qr_scan", "ios": "https://dc.lft.to/lastmile_qr_scan"}, "is_reserved": 0, "name": "ee4dbaec2366a34145f61944d42facf1", "lon": -77.05055616666667, "type": "electric_scooter", "bike_id": "ee4dbaec2366a34145f61944d42facf1", "fusion_lon": 0.0, "lat": 38.916376, "fusion_lat": 0.0}, {"is_disabled": 0, "rental_uris": {"android": "https://dc.lft.to/lastmile_qr_scan", "ios": "https://dc.lft.to/lastmile_qr_scan"}, "is_reserved": 0, "name": "6c4c45ed1e4d67bbe8cc569b6e45b0b7", "lon": -77.04207633333333, "type": "electric_scooter", "bike_id": "6c4c45ed1e4d67bbe8cc569b6e45b0b7", "fusion_lon": 0.0, "lat": 38.92317216666667, "fusion_lat": 0.0}, {"is_disabled": 0, "rental_uris": {"android": "https://dc.lft.to/lastmile_qr_scan", "ios": "https://dc.lft.to/lastmile_qr_scan"}, "is_reserved": 0, "name": "11b1eebaf482cfaf2509ec70bb2bf899", "lon": -77.00726, "type": "electric_scooter", "bike_id": "11b1eebaf482cfaf2509ec70bb2bf899", "fusion_lon": 0.0, "lat": 38.8849295, "fusion_lat": 0.0}, {"is_disabled": 0, "rental_uris": {"android": "https://dc.lft.to/lastmile_qr_scan", "ios": "https://dc.lft.to/lastmile_qr_scan"}, "is_reserved": 0, "name": "e44794114b35c9509a84bc734d653767", "lon": -77.02517283333333, "type": "electric_scooter", "bike_id": "e44794114b35c9509a84bc734d653767", "fusion_lon": 0.0, "lat": 38.91939266666667, "fusion_lat": 0.0}, {"is_disabled": 0, "rental_uris": {"android": "https://dc.lft.to/lastmile_qr_scan", "ios": "https://dc.lft.to/lastmile_qr_scan"}, "is_reserved": 0, "name": "1e607594d21b6739ff528dc571029d4e", "lon": -77.034347, "type": "electric_scooter", "bike_id": "1e607594d21b6739ff528dc571029d4e", "fusion_lon": 0.0, "lat": 38.9043435, "fusion_lat": 0.0}, {"is_disabled": 0, "rental_uris": {"android": "https://dc.lft.to/lastmile_qr_scan", "ios": "https://dc.lft.to/lastmile_qr_scan"}, "is_reserved": 0, "name": "a773a1e54c63cc131a0704fc653f7d32", "lon": -77.011436, "type": "electric_scooter", "bike_id": "a773a1e54c63cc131a0704fc653f7d32", "fusion_lon": 0.0, "lat": 38.90644283333334, "fusion_lat": 0.0}, {"is_disabled": 0, "rental_uris": {"android": "https://dc.lft.to/lastmile_qr_scan", "ios": "https://dc.lft.to/lastmile_qr_scan"}, "is_reserved": 0, "name": "c780304eb256412279f7f03c231ae000", "lon": -77.03856216666667, "type": "electric_scooter", "bike_id": "c780304eb256412279f7f03c231ae000", "fusion_lon": 0.0, "lat": 38.91836, "fusion_lat": 0.0}, {"is_disabled": 0, "rental_uris": {"android": "https://dc.lft.to/lastmile_qr_scan", "ios": "https://dc.lft.to/lastmile_qr_scan"}, "is_reserved": 0, "name": "5658c22a0aafe729c81d1883baf2e91c", "lon": -77.0254635, "type": "electric_scooter", "bike_id": "5658c22a0aafe729c81d1883baf2e91c", "fusion_lon": 0.0, "lat": 38.94836183333334, "fusion_lat": 0.0}, {"is_disabled": 0, "rental_uris": {"android": "https://dc.lft.to/lastmile_qr_scan", "ios": "https://dc.lft.to/lastmile_qr_scan"}, "is_reserved": 0, "name": "56f0c93d95bba91d81ceef03f26c51eb", "lon": -76.93021683333333, "type": "electric_bike", "bike_id": "56f0c93d95bba91d81ceef03f26c51eb", "fusion_lon": 0.0, "lat": 38.96646483333333, "fusion_lat": 0.0}, {"is_disabled": 0, "rental_uris": {"android": "https://dc.lft.to/lastmile_qr_scan", "ios": "https://dc.lft.to/lastmile_qr_scan"}, "is_reserved": 0, "name": "529bbdbf70ab9be3385418bd97a86b9b", "lon": -77.04049683333334, "type": "electric_scooter", "bike_id": "529bbdbf70ab9be3385418bd97a86b9b", "fusion_lon": 0.0, "lat": 38.90152833333333, "fusion_lat": 0.0}, {"is_disabled": 0, "rental_uris": {"android": "https://dc.lft.to/lastmile_qr_scan", "ios": "https://dc.lft.to/lastmile_qr_scan"}, "is_reserved": 0, "name": "736db2c8bfb5723a88e238cae989e32b", "lon": -76.91421716666666, "type": "electric_bike", "bike_id": "736db2c8bfb5723a88e238cae989e32b", "fusion_lon": 0.0, "lat": 38.898344, "fusion_lat": 0.0}, {"is_disabled": 0, "rental_uris": {"android": "https://dc.lft.to/lastmile_qr_scan", "ios": "https://dc.lft.to/lastmile_qr_scan"}, "is_reserved": 0, "name": "3584299601e11efd44339513c7204ae4", "lon": -77.039416, "type": "electric_scooter", "bike_id": "3584299601e11efd44339513c7204ae4", "fusion_lon": 0.0, "lat": 38.9081615, "fusion_lat": 0.0}, {"is_disabled": 0, "rental_uris": {"android": "https://dc.lft.to/lastmile_qr_scan", "ios": "https://dc.lft.to/lastmile_qr_scan"}, "is_reserved": 0, "name": "fc8ade448547bb1785a476550e6add6f", "lon": -76.91881433333333, "type": "electric_scooter", "bike_id": "fc8ade448547bb1785a476550e6add6f", "fusion_lon": 0.0, "lat": 38.8908325, "fusion_lat": 0.0}, {"is_disabled": 0, "rental_uris": {"android": "https://dc.lft.to/lastmile_qr_scan", "ios": "https://dc.lft.to/lastmile_qr_scan"}, "is_reserved": 0, "name": "a746584a2aee709988ea87354b9ac276", "lon": -77.03221383333333, "type": "electric_scooter", "bike_id": "a746584a2aee709988ea87354b9ac276", "fusion_lon": 0.0, "lat": 38.9184025, "fusion_lat": 0.0}, {"is_disabled": 0, "rental_uris": {"android": "https://dc.lft.to/lastmile_qr_scan", "ios": "https://dc.lft.to/lastmile_qr_scan"}, "is_reserved": 0, "name": "9afb922771fdfd573d992064cbe0c8ea", "lon": -77.0216125, "type": "electric_scooter", "bike_id": "9afb922771fdfd573d992064cbe0c8ea", "fusion_lon": 0.0, "lat": 38.88628116666667, "fusion_lat": 0.0}, {"is_disabled": 0, "rental_uris": {"android": "https://dc.lft.to/lastmile_qr_scan", "ios": "https://dc.lft.to/lastmile_qr_scan"}, "is_reserved": 0, "name": "e7084c794e03a2cba62be7d9eee46e6b", "lon": -76.99965816666666, "type": "electric_scooter", "bike_id": "e7084c794e03a2cba62be7d9eee46e6b", "fusion_lon": 0.0, "lat": 38.90107166666667, "fusion_lat": 0.0}, {"is_disabled": 0, "rental_uris": {"android": "https://dc.lft.to/lastmile_qr_scan", "ios": "https://dc.lft.to/lastmile_qr_scan"}, "is_reserved": 0, "name": "466cb65f8edeec4a386c10c9d2ef25d6", "lon": -77.07275683333333, "type": "electric_scooter", "bike_id": "466cb65f8edeec4a386c10c9d2ef25d6", "fusion_lon": 0.0, "lat": 38.9346855, "fusion_lat": 0.0}, {"is_disabled": 0, "rental_uris": {"android": "https://dc.lft.to/lastmile_qr_scan", "ios": "https://dc.lft.to/lastmile_qr_scan"}, "is_reserved": 0, "name": "f360165adab5c0c1c930357580641510", "lon": -77.04887733333334, "type": "electric_scooter", "bike_id": "f360165adab5c0c1c930357580641510", "fusion_lon": 0.0, "lat": 38.898107, "fusion_lat": 0.0}, {"is_disabled": 0, "rental_uris": {"android": "https://dc.lft.to/lastmile_qr_scan", "ios": "https://dc.lft.to/lastmile_qr_scan"}, "is_reserved": 0, "name": "d876406a418c71c406113484fd3c3dd9", "lon": -77.048952, "type": "electric_scooter", "bike_id": "d876406a418c71c406113484fd3c3dd9", "fusion_lon": 0.0, "lat": 38.890002833333334, "fusion_lat": 0.0}, {"is_disabled": 0, "rental_uris": {"android": "https://dc.lft.to/lastmile_qr_scan", "ios": "https://dc.lft.to/lastmile_qr_scan"}, "is_reserved": 0, "name": "b9fcba74e6f004ebc54ad26f51540039", "lon": -77.0053735, "type": "electric_scooter", "bike_id": "b9fcba74e6f004ebc54ad26f51540039", "fusion_lon": 0.0, "lat": 38.9053925, "fusion_lat": 0.0}, {"is_disabled": 0, "rental_uris": {"android": "https://dc.lft.to/lastmile_qr_scan", "ios": "https://dc.lft.to/lastmile_qr_scan"}, "is_reserved": 0, "name": "c46ca6dba96553027be816b89598dfcc", "lon": -77.0488645, "type": "electric_scooter", "bike_id": "c46ca6dba96553027be816b89598dfcc", "fusion_lon": 0.0, "lat": 38.908310666666665, "fusion_lat": 0.0}, {"is_disabled": 0, "rental_uris": {"android": "https://dc.lft.to/lastmile_qr_scan", "ios": "https://dc.lft.to/lastmile_qr_scan"}, "is_reserved": 0, "name": "a56af34371f578a44a893454d72a90a9", "lon": -77.00495083333334, "type": "electric_scooter", "bike_id": "a56af34371f578a44a893454d72a90a9", "fusion_lon": 0.0, "lat": 38.896870666666665, "fusion_lat": 0.0}, {"is_disabled": 0, "rental_uris": {"android": "https://dc.lft.to/lastmile_qr_scan", "ios": "https://dc.lft.to/lastmile_qr_scan"}, "is_reserved": 0, "name": "bca6f7b2017f193f7d8568522f709cdb", "lon": -76.9938895, "type": "electric_scooter", "bike_id": "bca6f7b2017f193f7d8568522f709cdb", "fusion_lon": 0.0, "lat": 38.91012516666667, "fusion_lat": 0.0}, {"is_disabled": 0, "rental_uris": {"android": "https://dc.lft.to/lastmile_qr_scan", "ios": "https://dc.lft.to/lastmile_qr_scan"}, "is_reserved": 0, "name": "dfaea941cb94f485b4c1cb7770210bcf", "lon": -77.032571, "type": "electric_scooter", "bike_id": "dfaea941cb94f485b4c1cb7770210bcf", "fusion_lon": 0.0, "lat": 38.90965383333333, "fusion_lat": 0.0}, {"is_disabled": 0, "rental_uris": {"android": "https://dc.lft.to/lastmile_qr_scan", "ios": "https://dc.lft.to/lastmile_qr_scan"}, "is_reserved": 0, "name": "6e427f98ecd7b181ef32db747d481dc2", "lon": -77.05428566666667, "type": "electric_scooter", "bike_id": "6e427f98ecd7b181ef32db747d481dc2", "fusion_lon": 0.0, "lat": 38.931898, "fusion_lat": 0.0}, {"is_disabled": 0, "rental_uris": {"android": "https://dc.lft.to/lastmile_qr_scan", "ios": "https://dc.lft.to/lastmile_qr_scan"}, "is_reserved": 0, "name": "e1fd7d06bb45a6f34d6a61a6b7a7d94a", "lon": -77.0012215, "type": "electric_scooter", "bike_id": "e1fd7d06bb45a6f34d6a61a6b7a7d94a", "fusion_lon": 0.0, "lat": 38.90763616666667, "fusion_lat": 0.0}, {"is_disabled": 0, "rental_uris": {"android": "https://dc.lft.to/lastmile_qr_scan", "ios": "https://dc.lft.to/lastmile_qr_scan"}, "is_reserved": 0, "name": "82ab4e00d7670fb9df82b6d5e30e1621", "lon": -77.05988883333333, "type": "electric_scooter", "bike_id": "82ab4e00d7670fb9df82b6d5e30e1621", "fusion_lon": 0.0, "lat": 38.911925333333336, "fusion_lat": 0.0}, {"is_disabled": 0, "rental_uris": {"android": "https://dc.lft.to/lastmile_qr_scan", "ios": "https://dc.lft.to/lastmile_qr_scan"}, "is_reserved": 0, "name": "82e6d7033df583403e6291e871df36b2", "lon": -77.002916, "type": "electric_scooter", "bike_id": "82e6d7033df583403e6291e871df36b2", "fusion_lon": 0.0, "lat": 38.89229483333333, "fusion_lat": 0.0}, {"is_disabled": 0, "rental_uris": {"android": "https://dc.lft.to/lastmile_qr_scan", "ios": "https://dc.lft.to/lastmile_qr_scan"}, "is_reserved": 0, "name": "a8137c420e6f04dceade50f7bc6d15fb", "lon": -77.03741733333334, "type": "electric_bike", "bike_id": "a8137c420e6f04dceade50f7bc6d15fb", "fusion_lon": 0.0, "lat": 38.87996116666667, "fusion_lat": 0.0}, {"is_disabled": 0, "rental_uris": {"android": "https://dc.lft.to/lastmile_qr_scan", "ios": "https://dc.lft.to/lastmile_qr_scan"}, "is_reserved": 0, "name": "b73f2de8a2ef99b4b8d87f93faf18934", "lon": -76.99872883333333, "type": "electric_scooter", "bike_id": "b73f2de8a2ef99b4b8d87f93faf18934", "fusion_lon": 0.0, "lat": 38.900188, "fusion_lat": 0.0}, {"is_disabled": 0, "rental_uris": {"android": "https://dc.lft.to/lastmile_qr_scan", "ios": "https://dc.lft.to/lastmile_qr_scan"}, "is_reserved": 0, "name": "d3c3d557d85279010364308d05d13a77", "lon": -77.033978, "type": "electric_scooter", "bike_id": "d3c3d557d85279010364308d05d13a77", "fusion_lon": 0.0, "lat": 38.921564333333336, "fusion_lat": 0.0}, {"is_disabled": 0, "rental_uris": {"android": "https://dc.lft.to/lastmile_qr_scan", "ios": "https://dc.lft.to/lastmile_qr_scan"}, "is_reserved": 0, "name": "ff9c2b86e96aa4970b663d92d27c9a0a", "lon": -77.02586133333334, "type": "electric_scooter", "bike_id": "ff9c2b86e96aa4970b663d92d27c9a0a", "fusion_lon": 0.0, "lat": 38.92033333333333, "fusion_lat": 0.0}, {"is_disabled": 0, "rental_uris": {"android": "https://dc.lft.to/lastmile_qr_scan", "ios": "https://dc.lft.to/lastmile_qr_scan"}, "is_reserved": 0, "name": "14ef09a6dcce011b31c32da6deff341d", "lon": -77.02213133333333, "type": "electric_scooter", "bike_id": "14ef09a6dcce011b31c32da6deff341d", "fusion_lon": 0.0, "lat": 38.89582083333333, "fusion_lat": 0.0}, {"is_disabled": 0, "rental_uris": {"android": "https://dc.lft.to/lastmile_qr_scan", "ios": "https://dc.lft.to/lastmile_qr_scan"}, "is_reserved": 0, "name": "ce77ae913adbb7063df62a4429854e72", "lon": -77.05065666666667, "type": "electric_scooter", "bike_id": "ce77ae913adbb7063df62a4429854e72", "fusion_lon": 0.0, "lat": 38.900817, "fusion_lat": 0.0}, {"is_disabled": 0, "rental_uris": {"android": "https://dc.lft.to/lastmile_qr_scan", "ios": "https://dc.lft.to/lastmile_qr_scan"}, "is_reserved": 0, "name": "1afe236030e6592065685a2f3a9bf845", "lon": -77.03202466666667, "type": "electric_scooter", "bike_id": "1afe236030e6592065685a2f3a9bf845", "fusion_lon": 0.0, "lat": 38.939688333333336, "fusion_lat": 0.0}, {"is_disabled": 0, "rental_uris": {"android": "https://dc.lft.to/lastmile_qr_scan", "ios": "https://dc.lft.to/lastmile_qr_scan"}, "is_reserved": 0, "name": "b307d7b485952e89f7dcc3e985207a8a", "lon": -76.98758433333333, "type": "electric_bike", "bike_id": "b307d7b485952e89f7dcc3e985207a8a", "fusion_lon": 0.0, "lat": 38.8578035, "fusion_lat": 0.0}, {"is_disabled": 0, "rental_uris": {"android": "https://dc.lft.to/lastmile_qr_scan", "ios": "https://dc.lft.to/lastmile_qr_scan"}, "is_reserved": 0, "name": "f6715e8eb68a968e3736c6191f50fa26", "lon": -77.01496983333334, "type": "electric_scooter", "bike_id": "f6715e8eb68a968e3736c6191f50fa26", "fusion_lon": 0.0, "lat": 38.956495833333335, "fusion_lat": 0.0}, {"is_disabled": 0, "rental_uris": {"android": "https://dc.lft.to/lastmile_qr_scan", "ios": "https://dc.lft.to/lastmile_qr_scan"}, "is_reserved": 0, "name": "b2d28e319be68f3c2f3001a51b00ae72", "lon": -77.0195215, "type": "electric_scooter", "bike_id": "b2d28e319be68f3c2f3001a51b00ae72", "fusion_lon": 0.0, "lat": 38.9225765, "fusion_lat": 0.0}, {"is_disabled": 0, "rental_uris": {"android": "https://dc.lft.to/lastmile_qr_scan", "ios": "https://dc.lft.to/lastmile_qr_scan"}, "is_reserved": 0, "name": "af03fadf6a18d1be9c49e31264f01ded", "lon": -77.00337366666666, "type": "electric_scooter", "bike_id": "af03fadf6a18d1be9c49e31264f01ded", "fusion_lon": 0.0, "lat": 38.893556833333335, "fusion_lat": 0.0}, {"is_disabled": 0, "rental_uris": {"android": "https://dc.lft.to/lastmile_qr_scan", "ios": "https://dc.lft.to/lastmile_qr_scan"}, "is_reserved": 0, "name": "3b5a75edd83c29811613cba7b84c6b17", "lon": -76.98670733333333, "type": "electric_scooter", "bike_id": "3b5a75edd83c29811613cba7b84c6b17", "fusion_lon": 0.0, "lat": 38.901506499999996, "fusion_lat": 0.0}, {"is_disabled": 0, "rental_uris": {"android": "https://dc.lft.to/lastmile_qr_scan", "ios": "https://dc.lft.to/lastmile_qr_scan"}, "is_reserved": 0, "name": "64640badb82e4e09aaa428bc45498834", "lon": -77.033134, "type": "electric_scooter", "bike_id": "64640badb82e4e09aaa428bc45498834", "fusion_lon": 0.0, "lat": 38.91414816666666, "fusion_lat": 0.0}, {"is_disabled": 0, "rental_uris": {"android": "https://dc.lft.to/lastmile_qr_scan", "ios": "https://dc.lft.to/lastmile_qr_scan"}, "is_reserved": 0, "name": "4917d627717d1b8471aa71338385660e", "lon": -77.01394883333333, "type": "electric_scooter", "bike_id": "4917d627717d1b8471aa71338385660e", "fusion_lon": 0.0, "lat": 38.88026716666667, "fusion_lat": 0.0}, {"is_disabled": 0, "rental_uris": {"android": "https://dc.lft.to/lastmile_qr_scan", "ios": "https://dc.lft.to/lastmile_qr_scan"}, "is_reserved": 0, "name": "0061f2efde3ab31424526dccfe782ba1", "lon": -77.00589916666667, "type": "electric_scooter", "bike_id": "0061f2efde3ab31424526dccfe782ba1", "fusion_lon": 0.0, "lat": 38.91179116666667, "fusion_lat": 0.0}, {"is_disabled": 0, "rental_uris": {"android": "https://dc.lft.to/lastmile_qr_scan", "ios": "https://dc.lft.to/lastmile_qr_scan"}, "is_reserved": 0, "name": "885a165cb79d61c0b171d19a06b47715", "lon": -77.04417583333333, "type": "electric_scooter", "bike_id": "885a165cb79d61c0b171d19a06b47715", "fusion_lon": 0.0, "lat": 38.91773, "fusion_lat": 0.0}, {"is_disabled": 0, "rental_uris": {"android": "https://dc.lft.to/lastmile_qr_scan", "ios": "https://dc.lft.to/lastmile_qr_scan"}, "is_reserved": 0, "name": "736dfc9c24760c1e16ac2114242fb2ad", "lon": -77.0296135, "type": "electric_scooter", "bike_id": "736dfc9c24760c1e16ac2114242fb2ad", "fusion_lon": 0.0, "lat": 38.8962695, "fusion_lat": 0.0}, {"is_disabled": 0, "rental_uris": {"android": "https://dc.lft.to/lastmile_qr_scan", "ios": "https://dc.lft.to/lastmile_qr_scan"}, "is_reserved": 0, "name": "964308d8b14a4557e72f98d6a3ea606c", "lon": -76.9790725, "type": "electric_scooter", "bike_id": "964308d8b14a4557e72f98d6a3ea606c", "fusion_lon": 0.0, "lat": 38.89432033333333, "fusion_lat": 0.0}, {"is_disabled": 0, "rental_uris": {"android": "https://dc.lft.to/lastmile_qr_scan", "ios": "https://dc.lft.to/lastmile_qr_scan"}, "is_reserved": 0, "name": "6818d4abe3ff415528d1bfc06d91b1a2", "lon": -77.03271266666667, "type": "electric_scooter", "bike_id": "6818d4abe3ff415528d1bfc06d91b1a2", "fusion_lon": 0.0, "lat": 38.898437, "fusion_lat": 0.0}, {"is_disabled": 0, "rental_uris": {"android": "https://dc.lft.to/lastmile_qr_scan", "ios": "https://dc.lft.to/lastmile_qr_scan"}, "is_reserved": 0, "name": "c1184fef833a9d80b17206cdc6348e33", "lon": -77.03102133333333, "type": "electric_scooter", "bike_id": "c1184fef833a9d80b17206cdc6348e33", "fusion_lon": 0.0, "lat": 38.9257285, "fusion_lat": 0.0}, {"is_disabled": 0, "rental_uris": {"android": "https://dc.lft.to/lastmile_qr_scan", "ios": "https://dc.lft.to/lastmile_qr_scan"}, "is_reserved": 0, "name": "b4113bad025dfc43e93ddb68f883ef74", "lon": -77.10686216666667, "type": "electric_bike", "bike_id": "b4113bad025dfc43e93ddb68f883ef74", "fusion_lon": 0.0, "lat": 38.9358125, "fusion_lat": 0.0}, {"is_disabled": 0, "rental_uris": {"android": "https://dc.lft.to/lastmile_qr_scan", "ios": "https://dc.lft.to/lastmile_qr_scan"}, "is_reserved": 0, "name": "3431a41a5442d9b2d0bcf4acb396f91e", "lon": -77.0013995, "type": "electric_scooter", "bike_id": "3431a41a5442d9b2d0bcf4acb396f91e", "fusion_lon": 0.0, "lat": 38.90016816666667, "fusion_lat": 0.0}, {"is_disabled": 0, "rental_uris": {"android": "https://dc.lft.to/lastmile_qr_scan", "ios": "https://dc.lft.to/lastmile_qr_scan"}, "is_reserved": 0, "name": "de632a07465275d863183bb395b9c076", "lon": -77.03632416666666, "type": "electric_scooter", "bike_id": "de632a07465275d863183bb395b9c076", "fusion_lon": 0.0, "lat": 38.956045333333336, "fusion_lat": 0.0}, {"is_disabled": 0, "rental_uris": {"android": "https://dc.lft.to/lastmile_qr_scan", "ios": "https://dc.lft.to/lastmile_qr_scan"}, "is_reserved": 0, "name": "d396e61d940aa46d9d157a537d55112e", "lon": -77.04030333333333, "type": "electric_scooter", "bike_id": "d396e61d940aa46d9d157a537d55112e", "fusion_lon": 0.0, "lat": 38.90471766666667, "fusion_lat": 0.0}, {"is_disabled": 0, "rental_uris": {"android": "https://dc.lft.to/lastmile_qr_scan", "ios": "https://dc.lft.to/lastmile_qr_scan"}, "is_reserved": 0, "name": "31ca4f078972de426067b509282f07ec", "lon": -77.033949, "type": "electric_bike", "bike_id": "31ca4f078972de426067b509282f07ec", "fusion_lon": 0.0, "lat": 38.960269, "fusion_lat": 0.0}, {"is_disabled": 0, "rental_uris": {"android": "https://dc.lft.to/lastmile_qr_scan", "ios": "https://dc.lft.to/lastmile_qr_scan"}, "is_reserved": 0, "name": "dfdef5bc4c635c862150e2057d13092c", "lon": -77.0448165, "type": "electric_scooter", "bike_id": "dfdef5bc4c635c862150e2057d13092c", "fusion_lon": 0.0, "lat": 38.903811833333336, "fusion_lat": 0.0}, {"is_disabled": 0, "rental_uris": {"android": "https://dc.lft.to/lastmile_qr_scan", "ios": "https://dc.lft.to/lastmile_qr_scan"}, "is_reserved": 0, "name": "c90e6a8768dad47a1b5b258a231370b4", "lon": -77.0244775, "type": "electric_scooter", "bike_id": "c90e6a8768dad47a1b5b258a231370b4", "fusion_lon": 0.0, "lat": 38.9371355, "fusion_lat": 0.0}, {"is_disabled": 0, "rental_uris": {"android": "https://dc.lft.to/lastmile_qr_scan", "ios": "https://dc.lft.to/lastmile_qr_scan"},