{"data": {"bikes": [{"type": "electric_scooter", "name": "634e800c8171cf1efab7125bb1b5c599", "rental_uris": {"ios": "https://dc.lft.to/lastmile_qr_scan", "android": "https://dc.lft.to/lastmile_qr_scan"}, "fusion_lon": 0.0, "lat": 38.93111666666667, "is_disabled": 0, "bike_id": "634e800c8171cf1efab7125bb1b5c599", "fusion_lat": 0.0, "is_reserved": 0, "lon": -77.03821266666667}, {"type": "electric_scooter", "name": "af19b7acf43be27679be0a0b67a2c0ab", "rental_uris": {"ios": "https://dc.lft.to/lastmile_qr_scan", "android": "https://dc.lft.to/lastmile_qr_scan"}, "fusion_lon": 0.0, "lat": 38.896889333333334, "is_disabled": 0, "bike_id": "af19b7acf43be27679be0a0b67a2c0ab", "fusion_lat": 0.0, "is_reserved": 0, "lon": -77.0466195}, {"type": "electric_scooter", "name": "80d144834a4fabb9913d154431a37e38", "rental_uris": {"ios": "https://dc.lft.to/lastmile_qr_scan", "android": "https://dc.lft.to/lastmile_qr_scan"}, "fusion_lon": 0.0, "lat": 38.90563483333333, "is_disabled": 0, "bike_id": "80d144834a4fabb9913d154431a37e38", "fusion_lat": 0.0, "is_reserved": 0, "lon": -77.01309083333334}, {"type": "electric_scooter", "name": "6a332ca033b88fd38d2ec96fd6ef7d7c", "rental_uris": {"ios": "https://dc.lft.to/lastmile_qr_scan", "android": "https://dc.lft.to/lastmile_qr_scan"}, "fusion_lon": 0.0, "lat": 38.8958, "is_disabled": 0, "bike_id": "6a332ca033b88fd38d2ec96fd6ef7d7c", "fusion_lat": 0.0, "is_reserved": 0, "lon": -77.0230585}, {"type": "electric_scooter", "name": "5999179707d8d5107ccb14899a2edfa9", "rental_uris": {"ios": "https://dc.lft.to/lastmile_qr_scan", "android": "https://dc.lft.to/lastmile_qr_scan"}, "fusion_lon": 0.0, "lat": 38.917721666666665, "is_disabled": 0, "bike_id": "5999179707d8d5107ccb14899a2edfa9", "fusion_lat": 0.0, "is_reserved": 0, "lon": -77.022851}, {"type": "electric_bike", "name": "5c94788958ade4a397d0879f9659af26", "rental_uris": {"ios": "https://dc.lft.to/lastmile_qr_scan", "android": "https://dc.lft.to/lastmile_qr_scan"}, "fusion_lon": 0.0, "lat": 38.89808166666667, "is_disabled": 0, "bike_id": "5c94788958ade4a397d0879f9659af26", "fusion_lat": 0.0, "is_reserved": 0, "lon": -77.0060005}, {"type": "electric_scooter", "name": "4123d896701db11980ddbf8d19371e13", "rental_uris": {"ios": "https://dc.lft.to/lastmile_qr_scan", "android": "https://dc.lft.to/lastmile_qr_scan"}, "fusion_lon": 0.0, "lat": 38.9367685, "is_disabled": 0, "bike_id": "4123d896701db11980ddbf8d19371e13", "fusion_lat": 0.0, "is_reserved": 0, "lon": -77.03588766666667}, {"type": "electric_scooter", "name": "d4b920b581806d80e1634c671cb77a65", "rental_uris": {"ios": "https://dc.lft.to/lastmile_qr_scan", "android": "https://dc.lft.to/lastmile_qr_scan"}, "fusion_lon": 0.0, "lat": 38.931813, "is_disabled": 0, "bike_id": "d4b920b581806d80e1634c671cb77a65", "fusion_lat": 0.0, "is_reserved": 0, "lon": -77.043036}, {"type": "electric_scooter", "name": "464786455581f8ebb5ddb181f440d728", "rental_uris": {"ios": "https://dc.lft.to/lastmile_qr_scan", "android": "https://dc.lft.to/lastmile_qr_scan"}, "fusion_lon": 0.0, "lat": 38.89228266666667, "is_disabled": 0, "bike_id": "464786455581f8ebb5ddb181f440d728", "fusion_lat": 0.0, "is_reserved": 0, "lon": -77.04329766666666}, {"type": "electric_scooter", "name": "b2da41c01a17c5f3870be43b61c107f1", "rental_uris": {"ios": "https://dc.lft.to/lastmile_qr_scan", "android": "https://dc.lft.to/lastmile_qr_scan"}, "fusion_lon": 0.0, "lat": 38.90499233333333, "is_disabled": 0, "bike_id": "b2da41c01a17c5f3870be43b61c107f1", "fusion_lat": 0.0, "is_reserved": 0, "lon": -76.9813845}, {"type": "electric_scooter", "name": "8845233db81b008c48319965c4842569", "rental_uris": {"ios": "https://dc.lft.to/lastmile_qr_scan", "android": "https://dc.lft.to/lastmile_qr_scan"}, "fusion_lon": 0.0, "lat": 38.94525633333333, "is_disabled": 0, "bike_id": "8845233db81b008c48319965c4842569", "fusion_lat": 0.0, "is_reserved": 0, "lon": -77.02269733333333}, {"type": "electric_scooter", "name": "aeb31ac0214c9c4e1c0e0c6d75f9d316", "rental_uris": {"ios": "https://dc.lft.to/lastmile_qr_scan", "android": "https://dc.lft.to/lastmile_qr_scan"}, "fusion_lon": 0.0, "lat": 38.921833166666666, "is_disabled": 0, "bike_id": "aeb31ac0214c9c4e1c0e0c6d75f9d316", "fusion_lat": 0.0, "is_reserved": 0, "lon": -77.018325}, {"type": "electric_scooter", "name": "44e64407e673edb17df0b82e900f47b1", "rental_uris": {"ios": "https://dc.lft.to/lastmile_qr_scan", "android": "https://dc.lft.to/lastmile_qr_scan"}, "fusion_lon": 0.0, "lat": 38.9141305, "is_disabled": 0, "bike_id": "44e64407e673edb17df0b82e900f47b1", "fusion_lat": 0.0, "is_reserved": 0, "lon": -77.0181325}, {"type": "electric_scooter", "name": "9b2671ed80f012cfaf246d8fab08365d", "rental_uris": {"ios": "https://dc.lft.to/lastmile_qr_scan", "android": "https://dc.lft.to/lastmile_qr_scan"}, "fusion_lon": 0.0, "lat": 38.900223, "is_disabled": 0, "bike_id": "9b2671ed80f012cfaf246d8fab08365d", "fusion_lat": 0.0, "is_reserved": 0, "lon": -76.97399116666666}, {"type": "electric_scooter", "name": "68803faf1f882d773db357f7f14b2aca", "rental_uris": {"ios": "https://dc.lft.to/lastmile_qr_scan", "android": "https://dc.lft.to/lastmile_qr_scan"}, "fusion_lon": 0.0, "lat": 38.9037765, "is_disabled": 0, "bike_id": "68803faf1f882d773db357f7f14b2aca", "fusion_lat": 0.0, "is_reserved": 0, "lon": -77.05052866666666}, {"type": "electric_scooter", "name": "8e8020edb5d4f4931446a4205c5a467e", "rental_uris": {"ios": "https://dc.lft.to/lastmile_qr_scan", "android": "https://dc.lft.to/lastmile_qr_scan"}, "fusion_lon": 0.0, "lat": 38.912240833333335, "is_disabled": 0, "bike_id": "8e8020edb5d4f4931446a4205c5a467e", "fusion_lat": 0.0, "is_reserved": 0, "lon": -77.03660233333333}, {"type": "electric_scooter", "name": "53dca5efedc106a7caf8e8222f885f84", "rental_uris": {"ios": "https://dc.lft.to/lastmile_qr_scan", "android": "https://dc.lft.to/lastmile_qr_scan"}, "fusion_lon": 0.0, "lat": 38.913330333333334, "is_disabled": 0, "bike_id": "53dca5efedc106a7caf8e8222f885f84", "fusion_lat": 0.0, "is_reserved": 0, "lon": -77.04860633333334}, {"type": "electric_scooter", "name": "14dc85fd4e0414364ed63db70ceadad9", "rental_uris": {"ios": "https://dc.lft.to/lastmile_qr_scan", "android": "https://dc.lft.to/lastmile_qr_scan"}, "fusion_lon": 0.0, "lat": 38.91709866666667, "is_disabled": 0, "bike_id": "14dc85fd4e0414364ed63db70ceadad9", "fusion_lat": 0.0, "is_reserved": 0, "lon": -77.03443033333333}, {"type": "electric_scooter", "name": "d9d12f2b9d711affb144e4e79429293d", "rental_uris": {"ios": "https://dc.lft.to/lastmile_qr_scan", "android": "https://dc.lft.to/lastmile_qr_scan"}, "fusion_lon": 0.0, "lat": 38.898392333333334, "is_disabled": 0, "bike_id": "d9d12f2b9d711affb144e4e79429293d", "fusion_lat": 0.0, "is_reserved": 0, "lon": -77.00747016666666}, {"type": "electric_scooter", "name": "284dc32767b673beb037827778b6bfbf", "rental_uris": {"ios": "https://dc.lft.to/lastmile_qr_scan", "android": "https://dc.lft.to/lastmile_qr_scan"}, "fusion_lon": 0.0, "lat": 38.90558633333333, "is_disabled": 0, "bike_id": "284dc32767b673beb037827778b6bfbf", "fusion_lat": 0.0, "is_reserved": 0, "lon": -77.03444666666667}, {"type": "electric_scooter", "name": "cb5cff762b218e40b6eea8b8cb7f6d8c", "rental_uris": {"ios": "https://dc.lft.to/lastmile_qr_scan", "android": "https://dc.lft.to/lastmile_qr_scan"}, "fusion_lon": 0.0, "lat": 38.9187845, "is_disabled": 0, "bike_id": "cb5cff762b218e40b6eea8b8cb7f6d8c", "fusion_lat": 0.0, "is_reserved": 0, "lon": -77.04307383333334}, {"type": "electric_scooter", "name": "9158060a3c4217bec6fe706de9096a6e", "rental_uris": {"ios": "https://dc.lft.to/lastmile_qr_scan", "android": "https://dc.lft.to/lastmile_qr_scan"}, "fusion_lon": 0.0, "lat": 38.86455183333333, "is_disabled": 0, "bike_id": "9158060a3c4217bec6fe706de9096a6e", "fusion_lat": 0.0, "is_reserved": 0, "lon": -77.012611}, {"type": "electric_scooter", "name": "78e4605dfd634539c1779007024cd8e1", "rental_uris": {"ios": "https://dc.lft.to/lastmile_qr_scan", "android": "https://dc.lft.to/lastmile_qr_scan"}, "fusion_lon": 0.0, "lat": 38.8936155, "is_disabled": 0, "bike_id": "78e4605dfd634539c1779007024cd8e1", "fusion_lat": 0.0, "is_reserved": 0, "lon": -76.92591583333333}, {"type": "electric_scooter", "name": "72f5eca494037c3d617d58c5bdea46da", "rental_uris": {"ios": "https://dc.lft.to/lastmile_qr_scan", "android": "https://dc.lft.to/lastmile_qr_scan"}, "fusion_lon": 0.0, "lat": 38.900067, "is_disabled": 0, "bike_id": "72f5eca494037c3d617d58c5bdea46da", "fusion_lat": 0.0, "is_reserved": 0, "lon": -77.00658833333334}, {"type": "electric_scooter", "name": "aa486115896f5a7f2dbcc0421693a4c7", "rental_uris": {"ios": "https://dc.lft.to/lastmile_qr_scan", "android": "https://dc.lft.to/lastmile_qr_scan"}, "fusion_lon": 0.0, "lat": 38.8876905, "is_disabled": 0, "bike_id": "aa486115896f5a7f2dbcc0421693a4c7", "fusion_lat": 0.0, "is_reserved": 0, "lon": -76.977499}, {"type": "electric_scooter", "name": "090e049d351e3364d978d8dd42e00267", "rental_uris": {"ios": "https://dc.lft.to/lastmile_qr_scan", "android": "https://dc.lft.to/lastmile_qr_scan"}, "fusion_lon": 0.0, "lat": 38.905043166666665, "is_disabled": 0, "bike_id": "090e049d351e3364d978d8dd42e00267", "fusion_lat": 0.0, "is_reserved": 0, "lon": -77.02986533333333}, {"type": "electric_bike", "name": "b22c21b2e977ba49c256665150f73054", "rental_uris": {"ios": "https://dc.lft.to/lastmile_qr_scan", "android": "https://dc.lft.to/lastmile_qr_scan"}, "fusion_lon": 0.0, "lat": 38.865172666666666, "is_disabled": 0, "bike_id": "b22c21b2e977ba49c256665150f73054", "fusion_lat": 0.0, "is_reserved": 0, "lon": -77.12937916666667}, {"type": "electric_bike", "name": "bfc90cb5080a16afa08cf5ca7b18ca27", "rental_uris": {"ios": "https://dc.lft.to/lastmile_qr_scan", "android": "https://dc.lft.to/lastmile_qr_scan"}, "fusion_lon": 0.0, "lat": 38.963150166666665, "is_disabled": 0, "bike_id": "bfc90cb5080a16afa08cf5ca7b18ca27", "fusion_lat": 0.0, "is_reserved": 0, "lon": -77.07490316666667}, {"type": "electric_scooter", "name": "71f20a12bce75176cdec53fd0a79fe8f", "rental_uris": {"ios": "https://dc.lft.to/lastmile_qr_scan", "android": "https://dc.lft.to/lastmile_qr_scan"}, "fusion_lon": 0.0, "lat": 38.9148975, "is_disabled": 0, "bike_id": "71f20a12bce75176cdec53fd0a79fe8f", "fusion_lat": 0.0, "is_reserved": 0, "lon": -77.04833966666666}, {"type": "electric_scooter", "name": "4424ec2cb456cfd43af98537b824263c", "rental_uris": {"ios": "https://dc.lft.to/lastmile_qr_scan", "android": "https://dc.lft.to/lastmile_qr_scan"}, "fusion_lon": 0.0, "lat": 38.92316666666667, "is_disabled": 0, "bike_id": "4424ec2cb456cfd43af98537b824263c", "fusion_lat": 0.0, "is_reserved": 0, "lon": -77.04110533333333}, {"type": "electric_scooter", "name": "c43138b6cc6ec1cd6d18726cef24b8f6", "rental_uris": {"ios": "https://dc.lft.to/lastmile_qr_scan", "android": "https://dc.lft.to/lastmile_qr_scan"}, "fusion_lon": 0.0, "lat": 38.900323666666665, "is_disabled": 0, "bike_id": "c43138b6cc6ec1cd6d18726cef24b8f6", "fusion_lat": 0.0, "is_reserved": 0, "lon": -77.01295}, {"type": "electric_bike", "name": "3838a0a84416800922450d1dac74fb9f", "rental_uris": {"ios": "https://dc.lft.to/lastmile_qr_scan", "android": "https://dc.lft.to/lastmile_qr_scan"}, "fusion_lon": 0.0, "lat": 38.82461166666667, "is_disabled": 0, "bike_id": "3838a0a84416800922450d1dac74fb9f", "fusion_lat": 0.0, "is_reserved": 0, "lon": -77.00793233333333}, {"type": "electric_scooter", "name": "c894bae0760988f67db69830553f0a92", "rental_uris": {"ios": "https://dc.lft.to/lastmile_qr_scan", "android": "https://dc.lft.to/lastmile_qr_scan"}, "fusion_lon": 0.0, "lat": 38.91265533333333, "is_disabled": 0, "bike_id": "c894bae0760988f67db69830553f0a92", "fusion_lat": 0.0, "is_reserved": 0, "lon": -77.04839983333333}, {"type": "electric_scooter", "name": "84bcc680b6c4966de9e02b1c2739b6b6", "rental_uris": {"ios": "https://dc.lft.to/lastmile_qr_scan", "android": "https://dc.lft.to/lastmile_qr_scan"}, "fusion_lon": 0.0, "lat": 38.909510166666664, "is_disabled": 0, "bike_id": "84bcc680b6c4966de9e02b1c2739b6b6", "fusion_lat": 0.0, "is_reserved": 0, "lon": -76.985481}, {"type": "electric_scooter", "name": "a97f000b1829d05a353d9ea8df050964", "rental_uris": {"ios": "https://dc.lft.to/lastmile_qr_scan", "android": "https://dc.lft.to/lastmile_qr_scan"}, "fusion_lon": 0.0, "lat": 38.89600633333333, "is_disabled": 0, "bike_id": "a97f000b1829d05a353d9ea8df050964", "fusion_lat": 0.0, "is_reserved": 0, "lon": -77.02573033333333}, {"type": "electric_scooter", "name": "70908b83e2aaa7dae665b7242529d06e", "rental_uris": {"ios": "https://dc.lft.to/lastmile_qr_scan", "android": "https://dc.lft.to/lastmile_qr_scan"}, "fusion_lon": 0.0, "lat": 38.920780666666666, "is_disabled": 0, "bike_id": "70908b83e2aaa7dae665b7242529d06e", "fusion_lat": 0.0, "is_reserved": 0, "lon": -77.03493416666667}, {"type": "electric_scooter", "name": "e9cb1f3dc2ed506bd5118787feacee6c", "rental_uris": {"ios": "https://dc.lft.to/lastmile_qr_scan", "android": "https://dc.lft.to/lastmile_qr_scan"}, "fusion_lon": 0.0, "lat": 38.949056, "is_disabled": 0, "bike_id": "e9cb1f3dc2ed506bd5118787feacee6c", "fusion_lat": 0.0, "is_reserved": 0, "lon": -77.066197}, {"type": "electric_scooter", "name": "e03333a13d30ab1c2a004d7de2aff2a6", "rental_uris": {"ios": "https://dc.lft.to/lastmile_qr_scan", "android": "https://dc.lft.to/lastmile_qr_scan"}, "fusion_lon": 0.0, "lat": 38.90963683333333, "is_disabled": 0, "bike_id": "e03333a13d30ab1c2a004d7de2aff2a6", "fusion_lat": 0.0, "is_reserved": 0, "lon": -77.03378333333333}, {"type": "electric_scooter", "name": "321888e08d0d10a6de4f4b04f6965be0", "rental_uris": {"ios": "https://dc.lft.to/lastmile_qr_scan", "android": "https://dc.lft.to/lastmile_qr_scan"}, "fusion_lon": 0.0, "lat": 38.923632833333336, "is_disabled": 0, "bike_id": "321888e08d0d10a6de4f4b04f6965be0", "fusion_lat": 0.0, "is_reserved": 0, "lon": -77.05055083333333}, {"type": "electric_scooter", "name": "a873c93bba6d52d647a57cbd1e96866d", "rental_uris": {"ios": "https://dc.lft.to/lastmile_qr_scan", "android": "https://dc.lft.to/lastmile_qr_scan"}, "fusion_lon": 0.0, "lat": 38.916985, "is_disabled": 0, "bike_id": "a873c93bba6d52d647a57cbd1e96866d", "fusion_lat": 0.0, "is_reserved": 0, "lon": -77.04212466666667}, {"type": "electric_scooter", "name": "8643a349bfd1b9e4947208f7d1442a58", "rental_uris": {"ios": "https://dc.lft.to/lastmile_qr_scan", "android": "https://dc.lft.to/lastmile_qr_scan"}, "fusion_lon": 0.0, "lat": 38.94177616666666, "is_disabled": 0, "bike_id": "8643a349bfd1b9e4947208f7d1442a58", "fusion_lat": 0.0, "is_reserved": 0, "lon": -77.03145933333333}, {"type": "electric_scooter", "name": "dd0947ec46b6f1525bbd05df919f5cfa", "rental_uris": {"ios": "https://dc.lft.to/lastmile_qr_scan", "android": "https://dc.lft.to/lastmile_qr_scan"}, "fusion_lon": 0.0, "lat": 38.9056905, "is_disabled": 0, "bike_id": "dd0947ec46b6f1525bbd05df919f5cfa", "fusion_lat": 0.0, "is_reserved": 0, "lon": -77.02227283333333}, {"type": "electric_scooter", "name": "5fb7344ef209c2893fca0eaf676f44d4", "rental_uris": {"ios": "https://dc.lft.to/lastmile_qr_scan", "android": "https://dc.lft.to/lastmile_qr_scan"}, "fusion_lon": 0.0, "lat": 38.9026885, "is_disabled": 0, "bike_id": "5fb7344ef209c2893fca0eaf676f44d4", "fusion_lat": 0.0, "is_reserved": 0, "lon": -77.0334365}, {"type": "electric_scooter", "name": "bf11ab65c4f6d9abe5fbe9b84f72269c", "rental_uris": {"ios": "https://dc.lft.to/lastmile_qr_scan", "android": "https://dc.lft.to/lastmile_qr_scan"}, "fusion_lon": 0.0, "lat": 38.92419616666667, "is_disabled": 0, "bike_id": "bf11ab65c4f6d9abe5fbe9b84f72269c", "fusion_lat": 0.0, "is_reserved": 0, "lon": -77.020356}, {"type": "electric_scooter", "name": "fd71c77b86a325b93e439b7f68de9a39", "rental_uris": {"ios": "https://dc.lft.to/lastmile_qr_scan", "android": "https://dc.lft.to/lastmile_qr_scan"}, "fusion_lon": 0.0, "lat": 38.89575633333333, "is_disabled": 0, "bike_id": "fd71c77b86a325b93e439b7f68de9a39", "fusion_lat": 0.0, "is_reserved": 0, "lon": -77.023071}, {"type": "electric_scooter", "name": "1424a3da08bf1727d01a27a8fbdfe167", "rental_uris": {"ios": "https://dc.lft.to/lastmile_qr_scan", "android": "https://dc.lft.to/lastmile_qr_scan"}, "fusion_lon": 0.0, "lat": 38.91785633333333, "is_disabled": 0, "bike_id": "1424a3da08bf1727d01a27a8fbdfe167", "fusion_lat": 0.0, "is_reserved": 0, "lon": -77.02218666666667}, {"type": "electric_scooter", "name": "3aaf8ce3154b2b8f31bdf2b769bfc305", "rental_uris": {"ios": "https://dc.lft.to/lastmile_qr_scan", "android": "https://dc.lft.to/lastmile_qr_scan"}, "fusion_lon": 0.0, "lat": 38.898964, "is_disabled": 0, "bike_id": "3aaf8ce3154b2b8f31bdf2b769bfc305", "fusion_lat": 0.0, "is_reserved": 0, "lon": -77.0022395}, {"type": "electric_scooter", "name": "f749a757bbb26aeeca738d7ca4230df1", "rental_uris": {"ios": "https://dc.lft.to/lastmile_qr_scan", "android": "https://dc.lft.to/lastmile_qr_scan"}, "fusion_lon": 0.0, "lat": 38.8765275, "is_disabled": 0, "bike_id": "f749a757bbb26aeeca738d7ca4230df1", "fusion_lat": 0.0, "is_reserved": 0, "lon": -77.00923}, {"type": "electric_scooter", "name": "f86f52baa391a49ed363e9240b925f8c", "rental_uris": {"ios": "https://dc.lft.to/lastmile_qr_scan", "android": "https://dc.lft.to/lastmile_qr_scan"}, "fusion_lon": 0.0, "lat": 38.90265483333334, "is_disabled": 0, "bike_id": "f86f52baa391a49ed363e9240b925f8c", "fusion_lat": 0.0, "is_reserved": 0, "lon": -77.05315983333334}, {"type": "electric_scooter", "name": "05f507d2e381ec998e963089cb72006e", "rental_uris": {"ios": "https://dc.lft.to/lastmile_qr_scan", "android": "https://dc.lft.to/lastmile_qr_scan"}, "fusion_lon": 0.0, "lat": 38.89623783333333, "is_disabled": 0, "bike_id": "05f507d2e381ec998e963089cb72006e", "fusion_lat": 0.0, "is_reserved": 0, "lon": -77.00921483333333}, {"type": "electric_scooter", "name": "f6393667112377d227801d2a2e1a73bd", "rental_uris": {"ios": "https://dc.lft.to/lastmile_qr_scan", "android": "https://dc.lft.to/lastmile_qr_scan"}, "fusion_lon": 0.0, "lat": 38.91910133333333, "is_disabled": 0, "bike_id": "f6393667112377d227801d2a2e1a73bd", "fusion_lat": 0.0, "is_reserved": 0, "lon": -77.041014}, {"type": "electric_bike", "name": "c2cdb36eab37d0185bd7e7bb83c35f23", "rental_uris": {"ios": "https://dc.lft.to/lastmile_qr_scan", "android": "https://dc.lft.to/lastmile_qr_scan"}, "fusion_lon": 0.0, "lat": 39.0525655, "is_disabled": 0, "bike_id": "c2cdb36eab37d0185bd7e7bb83c35f23", "fusion_lat": 0.0, "is_reserved": 0, "lon": -77.080653}, {"type": "electric_scooter", "name": "2d14545894dcac155f89fbc8d7643c1f", "rental_uris": {"ios": "https://dc.lft.to/lastmile_qr_scan", "android": "https://dc.lft.to/lastmile_qr_scan"}, "fusion_lon": 0.0, "lat": 38.8831465, "is_disabled": 0, "bike_id": "2d14545894dcac155f89fbc8d7643c1f", "fusion_lat": 0.0, "is_reserved": 0, "lon": -77.01776683333334}, {"type": "electric_scooter", "name": "776bae43942b56f0491d14b130a9d678", "rental_uris": {"ios": "https://dc.lft.to/lastmile_qr_scan", "android": "https://dc.lft.to/lastmile_qr_scan"}, "fusion_lon": 0.0, "lat": 38.87404683333333, "is_disabled": 0, "bike_id": "776bae43942b56f0491d14b130a9d678", "fusion_lat": 0.0, "is_reserved": 0, "lon": -77.00223333333334}, {"type": "electric_scooter", "name": "52c98e2a2fd804e2cb6b7609b514f95d", "rental_uris": {"ios": "https://dc.lft.to/lastmile_qr_scan", "android": "https://dc.lft.to/lastmile_qr_scan"}, "fusion_lon": 0.0, "lat": 38.904790166666665, "is_disabled": 0, "bike_id": "52c98e2a2fd804e2cb6b7609b514f95d", "fusion_lat": 0.0, "is_reserved": 0, "lon": -77.03473283333334}, {"type": "electric_scooter", "name": "f88b7c4d86bb288f660264f888853925", "rental_uris": {"ios": "https://dc.lft.to/lastmile_qr_scan", "android": "https://dc.lft.to/lastmile_qr_scan"}, "fusion_lon": 0.0, "lat": 38.89222266666667, "is_disabled": 0, "bike_id": "f88b7c4d86bb288f660264f888853925", "fusion_lat": 0.0, "is_reserved": 0, "lon": -77.02221566666667}, {"type": "electric_scooter", "name": "04b56ed63326fd95f6ddebeb796d6876", "rental_uris": {"ios": "https://dc.lft.to/lastmile_qr_scan", "android": "https://dc.lft.to/lastmile_qr_scan"}, "fusion_lon": 0.0, "lat": 38.923157833333335, "is_disabled": 0, "bike_id": "04b56ed63326fd95f6ddebeb796d6876", "fusion_lat": 0.0, "is_reserved": 0, "lon": -77.019519}, {"type": "electric_scooter", "name": "2c920b819c9ddba4a51dd8f305901375", "rental_uris": {"ios": "https://dc.lft.to/lastmile_qr_scan", "android": "https://dc.lft.to/lastmile_qr_scan"}, "fusion_lon": 0.0, "lat": 38.8987515, "is_disabled": 0, "bike_id": "2c920b819c9ddba4a51dd8f305901375", "fusion_lat": 0.0, "is_reserved": 0, "lon": -76.93184716666667}, {"type": "electric_scooter", "name": "7e8c8ec976082b2e3902bfb4874df036", "rental_uris": {"ios": "https://dc.lft.to/lastmile_qr_scan", "android": "https://dc.lft.to/lastmile_qr_scan"}, "fusion_lon": 0.0, "lat": 38.883377333333335, "is_disabled": 0, "bike_id": "7e8c8ec976082b2e3902bfb4874df036", "fusion_lat": 0.0, "is_reserved": 0, "lon": -77.01739283333333}, {"type": "electric_scooter", "name": "4920657ca037fa73a1f16c728bbf3471", "rental_uris": {"ios": "https://dc.lft.to/lastmile_qr_scan", "android": "https://dc.lft.to/lastmile_qr_scan"}, "fusion_lon": 0.0, "lat": 38.900125, "is_disabled": 0, "bike_id": "4920657ca037fa73a1f16c728bbf3471", "fusion_lat": 0.0, "is_reserved": 0, "lon": -76.9884565}, {"type": "electric_scooter", "name": "8b3bb1d9eb0d7bfaa612a37b97f118ce", "rental_uris": {"ios": "https://dc.lft.to/lastmile_qr_scan", "android": "https://dc.lft.to/lastmile_qr_scan"}, "fusion_lon": 0.0, "lat": 38.873739666666665, "is_disabled": 0, "bike_id": "8b3bb1d9eb0d7bfaa612a37b97f118ce", "fusion_lat": 0.0, "is_reserved": 0, "lon": -76.9700445}, {"type": "electric_scooter", "name": "d53ba811674b171ee732be5eadb673ac", "rental_uris": {"ios": "https://dc.lft.to/lastmile_qr_scan", "android": "https://dc.lft.to/lastmile_qr_scan"}, "fusion_lon": 0.0, "lat": 38.909826, "is_disabled": 0, "bike_id": "d53ba811674b171ee732be5eadb673ac", "fusion_lat": 0.0, "is_reserved": 0, "lon": -77.06502566666667}, {"type": "electric_scooter", "name": "c6258851754a1faad8a083e2adcb693e", "rental_uris": {"ios": "https://dc.lft.to/lastmile_qr_scan", "android": "https://dc.lft.to/lastmile_qr_scan"}, "fusion_lon": 0.0, "lat": 38.93910566666667, "is_disabled": 0, "bike_id": "c6258851754a1faad8a083e2adcb693e", "fusion_lat": 0.0, "is_reserved": 0, "lon": -77.03622066666667}, {"type": "electric_scooter", "name": "35037a0207e24b5f4acf8f7f04d8ac8a", "rental_uris": {"ios": "https://dc.lft.to/lastmile_qr_scan", "android": "https://dc.lft.to/lastmile_qr_scan"}, "fusion_lon": 0.0, "lat": 38.90502383333333, "is_disabled": 0, "bike_id": "35037a0207e24b5f4acf8f7f04d8ac8a", "fusion_lat": 0.0, "is_reserved": 0, "lon": -77.0294495}, {"type": "electric_bike", "name": "bc66e12e3e8e57610e7602291552acf4", "rental_uris": {"ios": "https://dc.lft.to/lastmile_qr_scan", "android": "https://dc.lft.to/lastmile_qr_scan"}, "fusion_lon": 0.0, "lat": 39.01224366666667, "is_disabled": 0, "bike_id": "bc66e12e3e8e57610e7602291552acf4", "fusion_lat": 0.0, "is_reserved": 0, "lon": -77.110853}, {"type": "electric_scooter", "name": "b7522bf5f39591acc88e3192687436e8", "rental_uris": {"ios": "https://dc.lft.to/lastmile_qr_scan", "android": "https://dc.lft.to/lastmile_qr_scan"}, "fusion_lon": 0.0, "lat": 38.928645833333334, "is_disabled": 0, "bike_id": "b7522bf5f39591acc88e3192687436e8", "fusion_lat": 0.0, "is_reserved": 0, "lon": -77.03286866666667}, {"type": "electric_scooter", "name": "a64b24acf7ab4e09c6e8a5f6aec5cc91", "rental_uris": {"ios": "https://dc.lft.to/lastmile_qr_scan", "android": "https://dc.lft.to/lastmile_qr_scan"}, "fusion_lon": 0.0, "lat": 38.894134666666666, "is_disabled": 0, "bike_id": "a64b24acf7ab4e09c6e8a5f6aec5cc91", "fusion_lat": 0.0, "is_reserved": 0, "lon": -77.02416616666666}, {"type": "electric_scooter", "name": "7508c81662cb125c75e3b825858b9a72", "rental_uris": {"ios": "https://dc.lft.to/lastmile_qr_scan", "android": "https://dc.lft.to/lastmile_qr_scan"}, "fusion_lon": 0.0, "lat": 38.904382, "is_disabled": 0, "bike_id": "7508c81662cb125c75e3b825858b9a72", "fusion_lat": 0.0, "is_reserved": 0, "lon": -77.02889333333333}, {"type": "electric_scooter", "name": "f436850b584480a69c85f8d493f6b52e", "rental_uris": {"ios": "https://dc.lft.to/lastmile_qr_scan", "android": "https://dc.lft.to/lastmile_qr_scan"}, "fusion_lon": 0.0, "lat": 38.95640233333334, "is_disabled": 0, "bike_id": "f436850b584480a69c85f8d493f6b52e", "fusion_lat": 0.0, "is_reserved": 0, "lon": -77.0237185}, {"type": "electric_scooter", "name": "bb6e5ebd60daa1fda06166f1b579716d", "rental_uris": {"ios": "https://dc.lft.to/lastmile_qr_scan", "android": "https://dc.lft.to/lastmile_qr_scan"}, "fusion_lon": 0.0, "lat": 38.89715966666667, "is_disabled": 0, "bike_id": "bb6e5ebd60daa1fda06166f1b579716d", "fusion_lat": 0.0, "is_reserved": 0, "lon": -77.0079475}, {"type": "electric_scooter", "name": "2cb3741734ad46a854b624872535b9e1", "rental_uris": {"ios": "https://dc.lft.to/lastmile_qr_scan", "android": "https://dc.lft.to/lastmile_qr_scan"}, "fusion_lon": 0.0, "lat": 38.88463733333333, "is_disabled": 0, "bike_id": "2cb3741734ad46a854b624872535b9e1", "fusion_lat": 0.0, "is_reserved": 0, "lon": -77.0151905}, {"type": "electric_scooter", "name": "182673c15621562bd977b076736c5607", "rental_uris": {"ios": "https://dc.lft.to/lastmile_qr_scan", "android": "https://dc.lft.to/lastmile_qr_scan"}, "fusion_lon": 0.0, "lat": 38.93354166666667, "is_disabled": 0, "bike_id": "182673c15621562bd977b076736c5607", "fusion_lat": 0.0, "is_reserved": 0, "lon": -77.073561}, {"type": "electric_bike", "name": "cd370a2ed056dbbe12a67f97af8c32ae", "rental_uris": {"ios": "https://dc.lft.to/lastmile_qr_scan", "android": "https://dc.lft.to/lastmile_qr_scan"}, "fusion_lon": 0.0, "lat": 39.0038015, "is_disabled": 0, "bike_id": "cd370a2ed056dbbe12a67f97af8c32ae", "fusion_lat": 0.0, "is_reserved": 0, "lon": -77.01288483333333}, {"type": "electric_scooter", "name": "6cd5b9bbfda1e1f5119c8749b26506f7", "rental_uris": {"ios": "https://dc.lft.to/lastmile_qr_scan", "android": "https://dc.lft.to/lastmile_qr_scan"}, "fusion_lon": 0.0, "lat": 38.90926983333333, "is_disabled": 0, "bike_id": "6cd5b9bbfda1e1f5119c8749b26506f7", "fusion_lat": 0.0, "is_reserved": 0, "lon": -77.03198816666666}, {"type": "electric_scooter", "name": "eb23d14f445f07c5b7f40e1dd3e1092b", "rental_uris": {"ios": "https://dc.lft.to/lastmile_qr_scan", "android": "https://dc.lft.to/lastmile_qr_scan"}, "fusion_lon": 0.0, "lat": 38.9237625, "is_disabled": 0, "bike_id": "eb23d14f445f07c5b7f40e1dd3e1092b", "fusion_lat": 0.0, "is_reserved": 0, "lon": -77.01906133333334}, {"type": "electric_scooter", "name": "336d64b1715eed966fb3f6a9995b2dd9", "rental_uris": {"ios": "https://dc.lft.to/lastmile_qr_scan", "android": "https://dc.lft.to/lastmile_qr_scan"}, "fusion_lon": 0.0, "lat": 38.923651666666665, "is_disabled": 0, "bike_id": "336d64b1715eed966fb3f6a9995b2dd9", "fusion_lat": 0.0, "is_reserved": 0, "lon": -77.05030416666666}, {"type": "electric_scooter", "name": "b03b16dbe2f3a9dc2fe88eea1fc0fb42", "rental_uris": {"ios": "https://dc.lft.to/lastmile_qr_scan", "android": "https://dc.lft.to/lastmile_qr_scan"}, "fusion_lon": 0.0, "lat": 38.8849325, "is_disabled": 0, "bike_id": "b03b16dbe2f3a9dc2fe88eea1fc0fb42", "fusion_lat": 0.0, "is_reserved": 0, "lon": -77.01084583333333}, {"type": "electric_scooter", "name": "64434463157adfe0a9b1db1234e8d5d0", "rental_uris": {"ios": "https://dc.lft.to/lastmile_qr_scan", "android": "https://dc.lft.to/lastmile_qr_scan"}, "fusion_lon": 0.0, "lat": 38.919361, "is_disabled": 0, "bike_id": "64434463157adfe0a9b1db1234e8d5d0", "fusion_lat": 0.0, "is_reserved": 0, "lon": -77.02065216666666}, {"type": "electric_scooter", "name": "f0a78df24f1c41cb548f5528c94bc3ae", "rental_uris": {"ios": "https://dc.lft.to/lastmile_qr_scan", "android": "https://dc.lft.to/lastmile_qr_scan"}, "fusion_lon": 0.0, "lat": 38.91711216666667, "is_disabled": 0, "bike_id": "f0a78df24f1c41cb548f5528c94bc3ae", "fusion_lat": 0.0, "is_reserved": 0, "lon": -77.03860066666667}, {"type": "electric_bike", "name": "31998e518ba11b7e9b054075ae88377f", "rental_uris": {"ios": "https://dc.lft.to/lastmile_qr_scan", "android": "https://dc.lft.to/lastmile_qr_scan"}, "fusion_lon": 0.0, "lat": 38.88016666666667, "is_disabled": 0, "bike_id": "31998e518ba11b7e9b054075ae88377f", "fusion_lat": 0.0, "is_reserved": 0, "lon": -77.10793}, {"type": "electric_scooter", "name": "476204fb9490302359fbfce30a1aaa49", "rental_uris": {"ios": "https://dc.lft.to/lastmile_qr_scan", "android": "https://dc.lft.to/lastmile_qr_scan"}, "fusion_lon": 0.0, "lat": 38.9057885, "is_disabled": 0, "bike_id": "476204fb9490302359fbfce30a1aaa49", "fusion_lat": 0.0, "is_reserved": 0, "lon": -76.984308}, {"type": "electric_scooter", "name": "6d0679c1b0b20c2d0b1874a8894cbf07", "rental_uris": {"ios": "https://dc.lft.to/lastmile_qr_scan", "android": "https://dc.lft.to/lastmile_qr_scan"}, "fusion_lon": 0.0, "lat": 38.956368, "is_disabled": 0, "bike_id": "6d0679c1b0b20c2d0b1874a8894cbf07", "fusion_lat": 0.0, "is_reserved": 0, "lon": -77.0330285}, {"type": "electric_scooter", "name": "929c42525257ed2b09ac1c40af2df7f6", "rental_uris": {"ios": "https://dc.lft.to/lastmile_qr_scan", "android": "https://dc.lft.to/lastmile_qr_scan"}, "fusion_lon": 0.0, "lat": 38.885010666666666, "is_disabled": 0, "bike_id": "929c42525257ed2b09ac1c40af2df7f6", "fusion_lat": 0.0, "is_reserved": 0, "lon": -77.0209845}, {"type": "electric_scooter", "name": "1cb26e18f4927c2d19d867b5b1eea3e5", "rental_uris": {"ios": "https://dc.lft.to/lastmile_qr_scan", "android": "https://dc.lft.to/lastmile_qr_scan"}, "fusion_lon": 0.0, "lat": 38.9066605, "is_disabled": 0, "bike_id": "1cb26e18f4927c2d19d867b5b1eea3e5", "fusion_lat": 0.0, "is_reserved": 0, "lon": -77.027031}, {"type": "electric_scooter", "name": "eeb2c6653774ff407193d745852f089f", "rental_uris": {"ios": "https://dc.lft.to/lastmile_qr_scan", "android": "https://dc.lft.to/lastmile_qr_scan"}, "fusion_lon": 0.0, "lat": 38.898171166666664, "is_disabled": 0, "bike_id": "eeb2c6653774ff407193d745852f089f", "fusion_lat": 0.0, "is_reserved": 0, "lon": -77.03169883333334}, {"type": "electric_scooter", "name": "912c20e3540fcc56326fff177fb5afde", "rental_uris": {"ios": "https://dc.lft.to/lastmile_qr_scan", "android": "https://dc.lft.to/lastmile_qr_scan"}, "fusion_lon": 0.0, "lat": 38.911193833333336, "is_disabled": 0, "bike_id": "912c20e3540fcc56326fff177fb5afde", "fusion_lat": 0.0, "is_reserved": 0, "lon": -77.0445805}, {"type": "electric_scooter", "name": "98c6bfe7a5da4a2ce49376d15c007ac0", "rental_uris": {"ios": "https://dc.lft.to/lastmile_qr_scan", "android": "https://dc.lft.to/lastmile_qr_scan"}, "fusion_lon": 0.0, "lat": 38.91812483333333, "is_disabled": 0, "bike_id": "98c6bfe7a5da4a2ce49376d15c007ac0", "fusion_lat": 0.0, "is_reserved": 0, "lon": -77.02816583333333}, {"type": "electric_scooter", "name": "a80c1982c5f9bddf475e89e7d92a5598", "rental_uris": {"ios": "https://dc.lft.to/lastmile_qr_scan", "android": "https://dc.lft.to/lastmile_qr_scan"}, "fusion_lon": 0.0, "lat": 38.92296566666667, "is_disabled": 0, "bike_id": "a80c1982c5f9bddf475e89e7d92a5598", "fusion_lat": 0.0, "is_reserved": 0, "lon": -77.03198433333333}, {"type": "electric_scooter", "name": "643af2561aa1748a3a5f0ed2ebde3272", "rental_uris": {"ios": "https://dc.lft.to/lastmile_qr_scan", "android": "https://dc.lft.to/lastmile_qr_scan"}, "fusion_lon": 0.0, "lat": 38.91774316666667, "is_disabled": 0, "bike_id": "643af2561aa1748a3a5f0ed2ebde3272", "fusion_lat": 0.0, "is_reserved": 0, "lon": -77.04105766666666}, {"type": "electric_bike", "name": "3695af519670cc5ca988670cdfe71f76", "rental_uris": {"ios": "https://dc.lft.to/lastmile_qr_scan", "android": "https://dc.lft.to/lastmile_qr_scan"}, "fusion_lon": 0.0, "lat": 38.92459933333333, "is_disabled": 0, "bike_id": "3695af519670cc5ca988670cdfe71f76", "fusion_lat": 0.0, "is_reserved": 0, "lon": -77.06735}, {"type": "electric_scooter", "name": "9c6269edbf83acd07743bea1865deafa", "rental_uris": {"ios": "https://dc.lft.to/lastmile_qr_scan", "android": "https://dc.lft.to/lastmile_qr_scan"}, "fusion_lon": 0.0, "lat": 38.90549, "is_disabled": 0, "bike_id": "9c6269edbf83acd07743bea1865deafa", "fusion_lat": 0.0, "is_reserved": 0, "lon": -77.049585}, {"type": "electric_scooter", "name": "44666b9f174ad12065c0b53a430a41ae", "rental_uris": {"ios": "https://dc.lft.to/lastmile_qr_scan", "android": "https://dc.lft.to/lastmile_qr_scan"}, "fusion_lon": 0.0, "lat": 38.88735166666667, "is_disabled": 0, "bike_id": "44666b9f174ad12065c0b53a430a41ae", "fusion_lat": 0.0, "is_reserved": 0, "lon": -77.02579666666666}, {"type": "electric_scooter", "name": "b61cead652149e38703d1560294eafa7", "rental_uris": {"ios": "https://dc.lft.to/lastmile_qr_scan", "android": "https://dc.lft.to/lastmile_qr_scan"}, "fusion_lon": 0.0, "lat": 38.883308666666665, "is_disabled": 0, "bike_id": "b61cead652149e38703d1560294eafa7", "fusion_lat": 0.0, "is_reserved": 0, "lon": -77.0177305}, {"type": "electric_scooter", "name": "79ffdb2c5bd67f85db9f97b7cc7e8052", "rental_uris": {"ios": "https://dc.lft.to/lastmile_qr_scan", "android": "https://dc.lft.to/lastmile_qr_scan"}, "fusion_lon": 0.0, "lat": 38.887479166666665, "is_disabled": 0, "bike_id": "79ffdb2c5bd67f85db9f97b7cc7e8052", "fusion_lat": 0.0, "is_reserved": 0, "lon": -77.02846166666667}, {"type": "electric_scooter", "name": "2a20964c4740f021b68eb991b5dd8c04", "rental_uris": {"ios": "https://dc.lft.to/lastmile_qr_scan", "android": "https://dc.lft.to/lastmile_qr_scan"}, "fusion_lon": 0.0, "lat": 38.89828116666666, "is_disabled": 0, "bike_id": "2a20964c4740f021b68eb991b5dd8c04", "fusion_lat": 0.0, "is_reserved": 0, "lon": -77.0334075}, {"type": "electric_scooter", "name": "ba88fcd83de172512646ebfa66d60eb5", "rental_uris": {"ios": "https://dc.lft.to/lastmile_qr_scan", "android": "https://dc.lft.to/lastmile_qr_scan"}, "fusion_lon": 0.0, "lat": 38.88406483333333, "is_disabled": 0, "bike_id": "ba88fcd83de172512646ebfa66d60eb5", "fusion_lat": 0.0, "is_reserved": 0, "lon": -77.015268}, {"type": "electric_scooter", "name": "2d582ec283250377db94509a9c76f5fa", "rental_uris": {"ios": "https://dc.lft.to/lastmile_qr_scan", "android": "https://dc.lft.to/lastmile_qr_scan"}, "fusion_lon": 0.0, "lat": 38.885409333333335, "is_disabled": 0, "bike_id": "2d582ec283250377db94509a9c76f5fa", "fusion_lat": 0.0, "is_reserved": 0, "lon": -77.00051}, {"type": "electric_scooter", "name": "b0e760cee8a573ffda17159ec0316482", "rental_uris": {"ios": "https://dc.lft.to/lastmile_qr_scan", "android": "https://dc.lft.to/lastmile_qr_scan"}, "fusion_lon": 0.0, "lat": 38.87959816666667, "is_disabled": 0, "bike_id": "b0e760cee8a573ffda17159ec0316482", "fusion_lat": 0.0, "is_reserved": 0, "lon": -77.0051585}, {"type": "electric_bike", "name": "89f1e867e2ce83e761f60c49b397cb4c", "rental_uris": {"ios": "https://dc.lft.to/lastmile_qr_scan", "android": "https://dc.lft.to/lastmile_qr_scan"}, "fusion_lon": 0.0, "lat": 38.82780183333333, "is_disabled": 0, "bike_id": "89f1e867e2ce83e761f60c49b397cb4c", "fusion_lat": 0.0, "is_reserved": 0, "lon": -77.124873}, {"type": "electric_scooter", "name": "0d9c3581c747ab804d13c53492c437a9", "rental_uris": {"ios": "https://dc.lft.to/lastmile_qr_scan", "android": "https://dc.lft.to/lastmile_qr_scan"}, "fusion_lon": 0.0, "lat": 38.9072795, "is_disabled": 0, "bike_id": "0d9c3581c747ab804d13c53492c437a9", "fusion_lat": 0.0, "is_reserved": 0, "lon": -77.0237175}, {"type": "electric_bike", "name": "d8275991a4661b5131bc8a2867039a6d", "rental_uris": {"ios": "https://dc.lft.to/lastmile_qr_scan", "android": "https://dc.lft.to/lastmile_qr_scan"}, "fusion_lon": 0.0, "lat": 38.90957366666667, "is_disabled": 0, "bike_id": "d8275991a4661b5131bc8a2867039a6d", "fusion_lat": 0.0, "is_reserved": 0, "lon": -76.98436216666667}, {"type": "electric_scooter", "name": "08b29254f5f4c16edf210ef8a3bb9a6a", "rental_uris": {"ios": "https://dc.lft.to/lastmile_qr_scan", "android": "https://dc.lft.to/lastmile_qr_scan"}, "fusion_lon": 0.0, "lat": 38.937401, "is_disabled": 0, "bike_id": "08b29254f5f4c16edf210ef8a3bb9a6a", "fusion_lat": 0.0, "is_reserved": 0, "lon": -77.02440416666667}, {"type": "electric_scooter", "name": "1855bdb08839e15b28b2a5e2b7a20abb", "rental_uris": {"ios": "https://dc.lft.to/lastmile_qr_scan", "android": "https://dc.lft.to/lastmile_qr_scan"}, "fusion_lon": 0.0, "lat": 38.93610416666667, "is_disabled": 0, "bike_id": "1855bdb08839e15b28b2a5e2b7a20abb", "fusion_lat": 0.0, "is_reserved": 0, "lon": -77.0585945}, {"type": "electric_scooter", "name": "54137f1ac47b107634dcfcb39675a97e", "rental_uris": {"ios": "https://dc.lft.to/lastmile_qr_scan", "android": "https://dc.lft.to/lastmile_qr_scan"}, "fusion_lon": 0.0, "lat": 38.902585, "is_disabled": 0, "bike_id": "54137f1ac47b107634dcfcb39675a97e", "fusion_lat": 0.0, "is_reserved": 0, "lon": -77.053245}, {"type": "electric_scooter", "name": "f3fbde18c29154defce77d4c7154269c", "rental_uris": {"ios": "https://dc.lft.to/lastmile_qr_scan", "android": "https://dc.lft.to/lastmile_qr_scan"}, "fusion_lon": 0.0, "lat": 38.8580555, "is_disabled": 0, "bike_id": "f3fbde18c29154defce77d4c7154269c", "fusion_lat": 0.0, "is_reserved": 0, "lon": -76.98656033333333}, {"type": "electric_scooter", "name": "2f4af75cd474de23c63206c95f3a5e1d", "rental_uris": {"ios": "https://dc.lft.to/lastmile_qr_scan", "android": "https://dc.lft.to/lastmile_qr_scan"}, "fusion_lon": 0.0, "lat": 38.866837, "is_disabled": 0, "bike_id": "2f4af75cd474de23c63206c95f3a5e1d", "fusion_lat": 0.0, "is_reserved": 0, "lon": -76.98573033333334}, {"type": "electric_scooter", "name": "7ddfd1fdab73533ea46ab60647b95480", "rental_uris": {"ios": "https://dc.lft.to/lastmile_qr_scan", "android": "https://dc.lft.to/lastmile_qr_scan"}, "fusion_lon": 0.0, "lat": 38.86630866666667, "is_disabled": 0, "bike_id": "7ddfd1fdab73533ea46ab60647b95480", "fusion_lat": 0.0, "is_reserved": 0, "lon": -76.987114}, {"type": "electric_scooter", "name": "e52c58e7d6c35fea6d75284030e3f740", "rental_uris": {"ios": "https://dc.lft.to/lastmile_qr_scan", "android": "https://dc.lft.to/lastmile_qr_scan"}, "fusion_lon": 0.0, "lat": 38.924709666666665, "is_disabled": 0, "bike_id": "e52c58e7d6c35fea6d75284030e3f740", "fusion_lat": 0.0, "is_reserved": 0, "lon": -77.0221755}, {"type": "electric_scooter", "name": "14ec5c01459beedda1379ae5e46e6900", "rental_uris": {"ios": "https://dc.lft.to/lastmile_qr_scan", "android": "https://dc.lft.to/lastmile_qr_scan"}, "fusion_lon": 0.0, "lat": 38.92719783333333, "is_disabled": 0, "bike_id": "14ec5c01459beedda1379ae5e46e6900", "fusion_lat": 0.0, "is_reserved": 0, "lon": -77.03994733333333}, {"type": "electric_scooter", "name": "0ddefc2de7aeb65418fdd1134b18ff79", "rental_uris": {"ios": "https://dc.lft.to/lastmile_qr_scan", "android": "https://dc.lft.to/lastmile_qr_scan"}, "fusion_lon": 0.0, "lat": 38.901542666666664, "is_disabled": 0, "bike_id": "0ddefc2de7aeb65418fdd1134b18ff79", "fusion_lat": 0.0, "is_reserved": 0, "lon": -77.04160566666667}, {"type": "electric_bike", "name": "c9ae7349acca22b745fea4aaa76a5f16", "rental_uris": {"ios": "https://dc.lft.to/lastmile_qr_scan", "android": "https://dc.lft.to/lastmile_qr_scan"}, "fusion_lon": 0.0, "lat": 38.86517533333333, "is_disabled": 0, "bike_id": "c9ae7349acca22b745fea4aaa76a5f16", "fusion_lat": 0.0, "is_reserved": 0, "lon": -76.97330633333334}, {"type": "electric_scooter", "name": "a7b1ea6dfd49756a6c368a0c3f0bf93c", "rental_uris": {"ios": "https://dc.lft.to/lastmile_qr_scan", "android": "https://dc.lft.to/lastmile_qr_scan"}, "fusion_lon": 0.0, "lat": 38.911157833333334, "is_disabled": 0, "bike_id": "a7b1ea6dfd49756a6c368a0c3f0bf93c", "fusion_lat": 0.0, "is_reserved": 0, "lon": -77.081343}, {"type": "electric_scooter", "name": "2a0334a041ad27cb72d71b932877a766", "rental_uris": {"ios": "https://dc.lft.to/lastmile_qr_scan", "android": "https://dc.lft.to/lastmile_qr_scan"}, "fusion_lon": 0.0, "lat": 38.876101, "is_disabled": 0, "bike_id": "2a0334a041ad27cb72d71b932877a766", "fusion_lat": 0.0, "is_reserved": 0, "lon": -76.96565333333334}, {"type": "electric_scooter", "name": "70a48387cf101a298efd62eb1fd936ea", "rental_uris": {"ios": "https://dc.lft.to/lastmile_qr_scan", "android": "https://dc.lft.to/lastmile_qr_scan"}, "fusion_lon": 0.0, "lat": 38.920478833333334, "is_disabled": 0, "bike_id": "70a48387cf101a298efd62eb1fd936ea", "fusion_lat": 0.0, "is_reserved": 0, "lon": -77.00207566666667}, {"type": "electric_scooter", "name": "b0ba328d3c185e2aec132bcf75d8e7c2", "rental_uris": {"ios": "https://dc.lft.to/lastmile_qr_scan", "android": "https://dc.lft.to/lastmile_qr_scan"}, "fusion_lon": 0.0, "lat": 38.90720533333333, "is_disabled": 0, "bike_id": "b0ba328d3c185e2aec132bcf75d8e7c2", "fusion_lat": 0.0, "is_reserved": 0, "lon": -77.02542733333334}, {"type": "electric_scooter", "name": "779406a464e01f690003f7a0eb497ce0", "rental_uris": {"ios": "https://dc.lft.to/lastmile_qr_scan", "android": "https://dc.lft.to/lastmile_qr_scan"}, "fusion_lon": 0.0, "lat": 38.89169016666666, "is_disabled": 0, "bike_id": "779406a464e01f690003f7a0eb497ce0", "fusion_lat": 0.0, "is_reserved": 0, "lon": -76.99950033333333}, {"type": "electric_scooter", "name": "04506efdbdd1cc6a5f73c21ccf5850c3", "rental_uris": {"ios": "https://dc.lft.to/lastmile_qr_scan", "android": "https://dc.lft.to/lastmile_qr_scan"}, "fusion_lon": 0.0, "lat": 38.901894166666665, "is_disabled": 0, "bike_id": "04506efdbdd1cc6a5f73c21ccf5850c3", "fusion_lat": 0.0, "is_reserved": 0, "lon": -76.92897333333333}, {"type": "electric_scooter", "name": "2b9034b4d2053bb4e68297dccd352d0b", "rental_uris": {"ios": "https://dc.lft.to/lastmile_qr_scan", "android": "https://dc.lft.to/lastmile_qr_scan"}, "fusion_lon": 0.0, "lat": 38.90236183333333, "is_disabled": 0, "bike_id": "2b9034b4d2053bb4e68297dccd352d0b", "fusion_lat": 0.0, "is_reserved": 0, "lon": -77.00198916666666}, {"type": "electric_scooter", "name": "81f227b5f973e86aef519cf83f427440", "rental_uris": {"ios": "https://dc.lft.to/lastmile_qr_scan", "android": "https://dc.lft.to/lastmile_qr_scan"}, "fusion_lon": 0.0, "lat": 38.93206283333333, "is_disabled": 0, "bike_id": "81f227b5f973e86aef519cf83f427440", "fusion_lat": 0.0, "is_reserved": 0, "lon": -77.03668183333333}, {"type": "electric_scooter", "name": "c7bdaf56f4a455d32c6d555b5ccdbc71", "rental_uris": {"ios": "https://dc.lft.to/lastmile_qr_scan", "android": "https://dc.lft.to/lastmile_qr_scan"}, "fusion_lon": 0.0, "lat": 38.886344666666666, "is_disabled": 0, "bike_id": "c7bdaf56f4a455d32c6d555b5ccdbc71", "fusion_lat": 0.0, "is_reserved": 0, "lon": -76.92582266666666}, {"type": "electric_scooter", "name": "0b0d3f7daae437f28721f2b50b2484fd", "rental_uris": {"ios": "https://dc.lft.to/lastmile_qr_scan", "android": "https://dc.lft.to/lastmile_qr_scan"}, "fusion_lon": 0.0, "lat": 38.9282995, "is_disabled": 0, "bike_id": "0b0d3f7daae437f28721f2b50b2484fd", "fusion_lat": 0.0, "is_reserved": 0, "lon": -77.05438283333334}, {"type": "electric_scooter", "name": "ec6e8512b2b034d8df6409657d05b26b", "rental_uris": {"ios": "https://dc.lft.to/lastmile_qr_scan", "android": "https://dc.lft.to/lastmile_qr_scan"}, "fusion_lon": 0.0, "lat": 38.89224766666667, "is_disabled": 0, "bike_id": "ec6e8512b2b034d8df6409657d05b26b", "fusion_lat": 0.0, "is_reserved": 0, "lon": -77.0223015}, {"type": "electric_scooter", "name": "9eaa9cc352f84ab47e6bfbce6720a610", "rental_uris": {"ios": "https://dc.lft.to/lastmile_qr_scan", "android": "https://dc.lft.to/lastmile_qr_scan"}, "fusion_lon": 0.0, "lat": 38.916911, "is_disabled": 0, "bike_id": "9eaa9cc352f84ab47e6bfbce6720a610", "fusion_lat": 0.0, "is_reserved": 0, "lon": -77.03154333333333}, {"type": "electric_scooter", "name": "f0a0231bb1e9f07bf4f4990c489f4cc5", "rental_uris": {"ios": "https://dc.lft.to/lastmile_qr_scan", "android": "https://dc.lft.to/lastmile_qr_scan"}, "fusion_lon": 0.0, "lat": 38.89223466666667, "is_disabled": 0, "bike_id": "f0a0231bb1e9f07bf4f4990c489f4cc5", "fusion_lat": 0.0, "is_reserved": 0, "lon": -77.04806116666667}, {"type": "electric_scooter", "name": "739e09a43f4037940584cade04f533b5", "rental_uris": {"ios": "https://dc.lft.to/lastmile_qr_scan", "android": "https://dc.lft.to/lastmile_qr_scan"}, "fusion_lon": 0.0, "lat": 38.9276155, "is_disabled": 0, "bike_id": "739e09a43f4037940584cade04f533b5", "fusion_lat": 0.0, "is_reserved": 0, "lon": -77.03272183333333}, {"type": "electric_bike", "name": "91e68bb0e3791764d0f18ce4afccf92d", "rental_uris": {"ios": "https://dc.lft.to/lastmile_qr_scan", "android": "https://dc.lft.to/lastmile_qr_scan"}, "fusion_lon": 0.0, "lat": 38.855140666666664, "is_disabled": 0, "bike_id": "91e68bb0e3791764d0f18ce4afccf92d", "fusion_lat": 0.0, "is_reserved": 0, "lon": -77.10539116666666}, {"type": "electric_bike", "name": "e7a52c9b8966f2d339d9bcf1f489586e", "rental_uris": {"ios": "https://dc.lft.to/lastmile_qr_scan", "android": "https://dc.lft.to/lastmile_qr_scan"}, "fusion_lon": 0.0, "lat": 38.864496833333334, "is_disabled": 0, "bike_id": "e7a52c9b8966f2d339d9bcf1f489586e", "fusion_lat": 0.0, "is_reserved": 0, "lon": -77.10685016666666}, {"type": "electric_scooter", "name": "8c09a92d07a364663540acd3eb15e0c0", "rental_uris": {"ios": "https://dc.lft.to/lastmile_qr_scan", "android": "https://dc.lft.to/lastmile_qr_scan"}, "fusion_lon": 0.0, "lat": 38.876608, "is_disabled": 0, "bike_id": "8c09a92d07a364663540acd3eb15e0c0", "fusion_lat": 0.0, "is_reserved": 0, "lon": -77.01611033333333}, {"type": "electric_scooter", "name": "71a1ed08f6b5b8447d382ed3ffcbbb3c", "rental_uris": {"ios": "https://dc.lft.to/lastmile_qr_scan", "android": "https://dc.lft.to/lastmile_qr_scan"}, "fusion_lon": 0.0, "lat": 38.89524883333333, "is_disabled": 0, "bike_id": "71a1ed08f6b5b8447d382ed3ffcbbb3c", "fusion_lat": 0.0, "is_reserved": 0, "lon": -77.048489}, {"type": "electric_scooter", "name": "e8c7dd7699f37e0b9efc6f8603656110", "rental_uris": {"ios": "https://dc.lft.to/lastmile_qr_scan", "android": "https://dc.lft.to/lastmile_qr_scan"}, "fusion_lon": 0.0, "lat": 38.90872133333333, "is_disabled": 0, "bike_id": "e8c7dd7699f37e0b9efc6f8603656110", "fusion_lat": 0.0, "is_reserved": 0, "lon": -77.026933}, {"type": "electric_scooter", "name": "451d84bd9497f57715f0d6a23012230a", "rental_uris": {"ios": "https://dc.lft.to/lastmile_qr_scan", "android": "https://dc.lft.to/lastmile_qr_scan"}, "fusion_lon": 0.0, "lat": 38.876895, "is_disabled": 0, "bike_id": "451d84bd9497f57715f0d6a23012230a", "fusion_lat": 0.0, "is_reserved": 0, "lon": -77.00441083333334}, {"type": "electric_scooter", "name": "94c69ffe5d0a06176981f93f12ba5969", "rental_uris": {"ios": "https://dc.lft.to/lastmile_qr_scan", "android": "https://dc.lft.to/lastmile_qr_scan"}, "fusion_lon": 0.0, "lat": 38.90980233333333, "is_disabled": 0, "bike_id": "94c69ffe5d0a06176981f93f12ba5969", "fusion_lat": 0.0, "is_reserved": 0, "lon": -77.03266416666666}, {"type": "electric_scooter", "name": "823ee6b36590b613c49f8bbc3a98f10f", "rental_uris": {"ios": "https://dc.lft.to/lastmile_qr_scan", "android": "https://dc.lft.to/lastmile_qr_scan"}, "fusion_lon": 0.0, "lat": 38.919253, "is_disabled": 0, "bike_id": "823ee6b36590b613c49f8bbc3a98f10f", "fusion_lat": 0.0, "is_reserved": 0, "lon": -77.00978316666667}, {"type": "electric_scooter", "name": "ef52ef48f91685ba63df0a24ab58d320", "rental_uris": {"ios": "https://dc.lft.to/lastmile_qr_scan", "android": "https://dc.lft.to/lastmile_qr_scan"}, "fusion_lon": 0.0, "lat": 38.88747166666667, "is_disabled": 0, "bike_id": "ef52ef48f91685ba63df0a24ab58d320", "fusion_lat": 0.0, "is_reserved": 0, "lon": -77.02843816666666}, {"type": "electric_scooter", "name": "1295b953587151a98e22d0b571318316", "rental_uris": {"ios": "https://dc.lft.to/lastmile_qr_scan", "android": "https://dc.lft.to/lastmile_qr_scan"}, "fusion_lon": 0.0, "lat": 38.941584, "is_disabled": 0, "bike_id": "1295b953587151a98e22d0b571318316", "fusion_lat": 0.0, "is_reserved": 0, "lon": -77.09271166666667}, {"type": "electric_scooter", "name": "8f829050a1ace193c63f404a33379758", "rental_uris": {"ios": "https://dc.lft.to/lastmile_qr_scan", "android": "https://dc.lft.to/lastmile_qr_scan"}, "fusion_lon": 0.0, "lat": 38.90974883333333, "is_disabled": 0, "bike_id": "8f829050a1ace193c63f404a33379758", "fusion_lat": 0.0, "is_reserved": 0, "lon": -77.03186366666667}, {"type": "electric_scooter", "name": "9b3bc3fc731c1b05ed64f8c6381ea103", "rental_uris": {"ios": "https://dc.lft.to/lastmile_qr_scan", "android": "https://dc.lft.to/lastmile_qr_scan"}, "fusion_lon": 0.0, "lat": 38.92053166666667, "is_disabled": 0, "bike_id": "9b3bc3fc731c1b05ed64f8c6381ea103", "fusion_lat": 0.0, "is_reserved": 0, "lon": -77.041907}, {"type": "electric_scooter", "name": "c33d3479a9b17cbd3b76d12697f2e8f3", "rental_uris": {"ios": "https://dc.lft.to/lastmile_qr_scan", "android": "https://dc.lft.to/lastmile_qr_scan"}, "fusion_lon": 0.0, "lat": 38.906360666666664, "is_disabled": 0, "bike_id": "c33d3479a9b17cbd3b76d12697f2e8f3", "fusion_lat": 0.0, "is_reserved": 0, "lon": -77.01011583333333}, {"type": "electric_scooter", "name": "9a7dca54e3c3590888fcd452726e4102", "rental_uris": {"ios": "https://dc.lft.to/lastmile_qr_scan", "android": "https://dc.lft.to/lastmile_qr_scan"}, "fusion_lon": 0.0, "lat": 38.9162275, "is_disabled": 0, "bike_id": "9a7dca54e3c3590888fcd452726e4102", "fusion_lat": 0.0, "is_reserved": 0, "lon": -77.03146283333334}, {"type": "electric_scooter", "name": "ff7d6ae93840cbf6678c297d76941c4f", "rental_uris": {"ios": "https://dc.lft.to/lastmile_qr_scan", "android": "https://dc.lft.to/lastmile_qr_scan"}, "fusion_lon": 0.0, "lat": 38.92862983333333, "is_disabled": 0, "bike_id": "ff7d6ae93840cbf6678c297d76941c4f", "fusion_lat": 0.0, "is_reserved": 0, "lon": -77.02902516666667}, {"type": "electric_scooter", "name": "341e6ecd3f38a3688a513f7ca31fa864", "rental_uris": {"ios": "https://dc.lft.to/lastmile_qr_scan", "android": "https://dc.lft.to/lastmile_qr_scan"}, "fusion_lon": 0.0, "lat": 38.9393075, "is_disabled": 0, "bike_id": "341e6ecd3f38a3688a513f7ca31fa864", "fusion_lat": 0.0, "is_reserved": 0, "lon": -77.02792066666666}, {"type": "electric_scooter", "name": "6889c868d9e9c4995793dac934d1cb2a", "rental_uris": {"ios": "https://dc.lft.to/lastmile_qr_scan", "android": "https://dc.lft.to/lastmile_qr_scan"}, "fusion_lon": 0.0, "lat": 38.876947666666666, "is_disabled": 0, "bike_id": "6889c868d9e9c4995793dac934d1cb2a", "fusion_lat": 0.0, "is_reserved": 0, "lon": -77.0042785}, {"type": "electric_scooter", "name": "8a89f0d082d0bf79cdbd3fcf5e9b5403", "rental_uris": {"ios": "https://dc.lft.to/lastmile_qr_scan", "android": "https://dc.lft.to/lastmile_qr_scan"}, "fusion_lon": 0.0, "lat": 38.934308333333334, "is_disabled": 0, "bike_id": "8a89f0d082d0bf79cdbd3fcf5e9b5403", "fusion_lat": 0.0, "is_reserved": 0, "lon": -77.0558535}, {"type": "electric_scooter", "name": "90568c10c856b3e92ccd92afced98fa1", "rental_uris": {"ios": "https://dc.lft.to/lastmile_qr_scan", "android": "https://dc.lft.to/lastmile_qr_scan"}, "fusion_lon": 0.0, "lat": 38.904088333333334, "is_disabled": 0, "bike_id": "90568c10c856b3e92ccd92afced98fa1", "fusion_lat": 0.0, "is_reserved": 0, "lon": -76.9733045}, {"type": "electric_scooter", "name": "f13bca33debc4950bdecd64d2fc2ff62", "rental_uris": {"ios": "https://dc.lft.to/lastmile_qr_scan", "android": "https://dc.lft.to/lastmile_qr_scan"}, "fusion_lon": 0.0, "lat": 38.9076535, "is_disabled": 0, "bike_id": "f13bca33debc4950bdecd64d2fc2ff62", "fusion_lat": 0.0, "is_reserved": 0, "lon": -77.04004616666667}, {"type": "electric_scooter", "name": "59b8d6b94c677049cc1b484d35fdf833", "rental_uris": {"ios": "https://dc.lft.to/lastmile_qr_scan", "android": "https://dc.lft.to/lastmile_qr_scan"}, "fusion_lon": 0.0, "lat": 38.91570466666667, "is_disabled": 0, "bike_id": "59b8d6b94c677049cc1b484d35fdf833", "fusion_lat": 0.0, "is_reserved": 0, "lon": -77.03848816666667}, {"type": "electric_scooter", "name": "d5e1cd971c4e2cdd1cea898bbf187fbd", "rental_uris": {"ios": "https://dc.lft.to/lastmile_qr_scan", "android": "https://dc.lft.to/lastmile_qr_scan"}, "fusion_lon": 0.0, "lat": 38.901074666666666, "is_disabled": 0, "bike_id": "d5e1cd971c4e2cdd1cea898bbf187fbd", "fusion_lat": 0.0, "is_reserved": 0, "lon": -77.02375333333333}, {"type": "electric_scooter", "name": "1de75f6c5bfb7a195b5b15de941b3c6b", "rental_uris": {"ios": "https://dc.lft.to/lastmile_qr_scan", "android": "https://dc.lft.to/lastmile_qr_scan"}, "fusion_lon": 0.0, "lat": 38.92459783333334, "is_disabled": 0, "bike_id": "1de75f6c5bfb7a195b5b15de941b3c6b", "fusion_lat": 0.0, "is_reserved": 0, "lon": -77.0523535}, {"type": "electric_scooter", "name": "76cf1ed49e2ac176b1b490f3eddc5748", "rental_uris": {"ios": "https://dc.lft.to/lastmile_qr_scan", "android": "https://dc.lft.to/lastmile_qr_scan"}, "fusion_lon": 0.0, "lat": 38.91712733333333, "is_disabled": 0, "bike_id": "76cf1ed49e2ac176b1b490f3eddc5748", "fusion_lat": 0.0, "is_reserved": 0, "lon": -77.03472233333333}, {"type": "electric_scooter", "name": "133e1e50c9cca86ab4211ff54dec850e", "rental_uris": {"ios": "https://dc.lft.to/lastmile_qr_scan", "android": "https://dc.lft.to/lastmile_qr_scan"}, "fusion_lon": 0.0, "lat": 38.909740166666666, "is_disabled": 0, "bike_id": "133e1e50c9cca86ab4211ff54dec850e", "fusion_lat": 0.0, "is_reserved": 0, "lon": -77.03449683333334}, {"type": "electric_scooter", "name": "f9ca42ca8937f63fc121dce75ceb4dfc", "rental_uris": {"ios": "https://dc.lft.to/lastmile_qr_scan", "android": "https://dc.lft.to/lastmile_qr_scan"}, "fusion_lon": 0.0, "lat": 38.92885866666667, "is_disabled": 0, "bike_id": "f9ca42ca8937f63fc121dce75ceb4dfc", "fusion_lat": 0.0, "is_reserved": 0, "lon": -77.02706133333334}, {"type": "electric_scooter", "name": "73fb27bf9a2316626421b8817585efd7", "rental_uris": {"ios": "https://dc.lft.to/lastmile_qr_scan", "android": "https://dc.lft.to/lastmile_qr_scan"}, "fusion_lon": 0.0, "lat": 38.898210166666665, "is_disabled": 0, "bike_id": "73fb27bf9a2316626421b8817585efd7", "fusion_lat": 0.0, "is_reserved": 0, "lon": -77.03169016666666}, {"type": "electric_scooter", "name": "da39e4a33636b382808f0a63d8c77b16", "rental_uris": {"ios": "https://dc.lft.to/lastmile_qr_scan", "android": "https://dc.lft.to/lastmile_qr_scan"}, "fusion_lon": 0.0, "lat": 38.91317216666667, "is_disabled": 0, "bike_id": "da39e4a33636b382808f0a63d8c77b16", "fusion_lat": 0.0, "is_reserved": 0, "lon": -77.01511416666666}, {"type": "electric_scooter", "name": "822a813de07896049d3eae3114039a3f", "rental_uris": {"ios": "https://dc.lft.to/lastmile_qr_scan", "android": "https://dc.lft.to/lastmile_qr_scan"}, "fusion_lon": 0.0, "lat": 38.90262716666667, "is_disabled": 0, "bike_id": "822a813de07896049d3eae3114039a3f", "fusion_lat": 0.0, "is_reserved": 0, "lon": -76.97456066666666}, {"type": "electric_scooter", "name": "85e49ba1861d35a52bc50ecd81f17b06", "rental_uris": {"ios": "https://dc.lft.to/lastmile_qr_scan", "android": "https://dc.lft.to/lastmile_qr_scan"}, "fusion_lon": 0.0, "lat": 38.90855766666667, "is_disabled": 0, "bike_id": "85e49ba1861d35a52bc50ecd81f17b06", "fusion_lat": 0.0, "is_reserved": 0, "lon": -76.9979455}, {"type": "electric_scooter", "name": "6b064e994e427f984fdfdf3f91615349", "rental_uris": {"ios": "https://dc.lft.to/lastmile_qr_scan", "android": "https://dc.lft.to/lastmile_qr_scan"}, "fusion_lon": 0.0, "lat": 38.892246, "is_disabled": 0, "bike_id": "6b064e994e427f984fdfdf3f91615349", "fusion_lat": 0.0, "is_reserved": 0, "lon": -77.04377883333333}, {"type": "electric_bike", "name": "ca4743bfbeea22ee7db4898c3f2fee61", "rental_uris": {"ios": "https://dc.lft.to/lastmile_qr_scan", "android": "https://dc.lft.to/lastmile_qr_scan"}, "fusion_lon": 0.0, "lat": 38.85899416666667, "is_disabled": 0, "bike_id": "ca4743bfbeea22ee7db4898c3f2fee61", "fusion_lat": 0.0, "is_reserved": 0, "lon": -77.09540533333333}, {"type": "electric_scooter", "name": "3259de127cbe2be24d6b164e3c00c882", "rental_uris": {"ios": "https://dc.lft.to/lastmile_qr_scan", "android": "https://dc.lft.to/lastmile_qr_scan"}, "fusion_lon": 0.0, "lat": 38.93608433333333, "is_disabled": 0, "bike_id": "3259de127cbe2be24d6b164e3c00c882", "fusion_lat": 0.0, "is_reserved": 0, "lon": -77.05862183333333}, {"type": "electric_scooter", "name": "10b1a0875f2fbf26061bdc97c62f64f0", "rental_uris": {"ios": "https://dc.lft.to/lastmile_qr_scan", "android": "https://dc.lft.to/lastmile_qr_scan"}, "fusion_lon": 0.0, "lat": 38.89791783333333, "is_disabled": 0, "bike_id": "10b1a0875f2fbf26061bdc97c62f64f0", "fusion_lat": 0.0, "is_reserved": 0, "lon": -76.9311945}, {"type": "electric_scooter", "name": "3550dfbc7a283e045b05c4c5e4c00670", "rental_uris": {"ios": "https://dc.lft.to/lastmile_qr_scan", "android": "https://dc.lft.to/lastmile_qr_scan"}, "fusion_lon": 0.0, "lat": 38.8650425, "is_disabled": 0, "bike_id": "3550dfbc7a283e045b05c4c5e4c00670", "fusion_lat": 0.0, "is_reserved": 0, "lon": -76.98999833333333}, {"type": "electric_scooter", "name": "10f7888dd7d7bee4e23bd27c5ad39932", "rental_uris": {"ios": "https://dc.lft.to/lastmile_qr_scan", "android": "https://dc.lft.to/lastmile_qr_scan"}, "fusion_lon": 0.0, "lat": 38.9155395, "is_disabled": 0, "bike_id": "10f7888dd7d7bee4e23bd27c5ad39932", "fusion_lat": 0.0, "is_reserved": 0, "lon": -77.02352366666666}, {"type": "electric_scooter", "name": "b67904b3efbd8fa06970b6fe7f78636d", "rental_uris": {"ios": "https://dc.lft.to/lastmile_qr_scan", "android": "https://dc.lft.to/lastmile_qr_scan"}, "fusion_lon": 0.0, "lat": 38.90018383333334, "is_disabled": 0, "bike_id": "b67904b3efbd8fa06970b6fe7f78636d", "fusion_lat": 0.0, "is_reserved": 0, "lon": -76.998201}, {"type": "electric_scooter", "name": "460e920b447f455b276487495523e6ab", "rental_uris": {"ios": "https://dc.lft.to/lastmile_qr_scan", "android": "https://dc.lft.to/lastmile_qr_scan"}, "fusion_lon": 0.0, "lat": 38.91330833333333, "is_disabled": 0, "bike_id": "460e920b447f455b276487495523e6ab", "fusion_lat": 0.0, "is_reserved": 0, "lon": -77.031725}, {"type": "electric_scooter", "name": "9024f55b62716f6e35f775e6b8f8a78e", "rental_uris": {"ios": "https://dc.lft.to/lastmile_qr_scan", "android": "https://dc.lft.to/lastmile_qr_scan"}, "fusion_lon": 0.0, "lat": 38.902636666666666, "is_disabled": 0, "bike_id": "9024f55b62716f6e35f775e6b8f8a78e", "fusion_lat": 0.0, "is_reserved": 0, "lon": -77.03516416666666}, {"type": "electric_scooter", "name": "32e85e8212d729df0d78294df19bed24", "rental_uris": {"ios": "https://dc.lft.to/lastmile_qr_scan", "android": "https://dc.lft.to/lastmile_qr_scan"}, "fusion_lon": 0.0, "lat": 38.9044275, "is_disabled": 0, "bike_id": "32e85e8212d729df0d78294df19bed24", "fusion_lat": 0.0, "is_reserved": 0, "lon": -77.018977}, {"type": "electric_scooter", "name": "223cbd9964dc0febc310a489358ffb4a", "rental_uris": {"ios": "https://dc.lft.to/lastmile_qr_scan", "android": "https://dc.lft.to/lastmile_qr_scan"}, "fusion_lon": 0.0, "lat": 38.929803166666666, "is_disabled": 0, "bike_id": "223cbd9964dc0febc310a489358ffb4a", "fusion_lat": 0.0, "is_reserved": 0, "lon": -77.0550315}, {"type": "electric_scooter", "name": "96dad3c53bb7215f262bd5fb2468cc91", "rental_uris": {"ios": "https://dc.lft.to/lastmile_qr_scan", "android": "https://dc.lft.to/lastmile_qr_scan"}, "fusion_lon": 0.0, "lat": 38.89224383333333, "is_disabled": 0, "bike_id": "96dad3c53bb7215f262bd5fb2468cc91", "fusion_lat": 0.0, "is_reserved": 0, "lon": -77.03338966666666}, {"type": "electric_scooter", "name": "b61dcb7d4f3a132d04dd536bb0dc83f2", "rental_uris": {"ios": "https://dc.lft.to/lastmile_qr_scan", "android": "https://dc.lft.to/lastmile_qr_scan"}, "fusion_lon": 0.0, "lat": 38.898381666666666, "is_disabled": 0, "bike_id": "b61dcb7d4f3a132d04dd536bb0dc83f2", "fusion_lat": 0.0, "is_reserved": 0, "lon": -77.007554}, {"type": "electric_scooter", "name": "ef1a460097ed23df7c3fd72ea2f80777", "rental_uris": {"ios": "https://dc.lft.to/lastmile_qr_scan", "android": "https://dc.lft.to/lastmile_qr_scan"}, "fusion_lon": 0.0, "lat": 38.90166683333333, "is_disabled": 0, "bike_id": "ef1a460097ed23df7c3fd72ea2f80777", "fusion_lat": 0.0, "is_reserved": 0, "lon": -77.01304016666667}, {"type": "electric_scooter", "name": "2f8e6754dc72e39af5ee8965a9c1c3e1", "rental_uris": {"ios": "https://dc.lft.to/lastmile_qr_scan", "android": "https://dc.lft.to/lastmile_qr_scan"}, "fusion_lon": 0.0, "lat": 38.912377166666666, "is_disabled": 0, "bike_id": "2f8e6754dc72e39af5ee8965a9c1c3e1", "fusion_lat": 0.0, "is_reserved": 0, "lon": -76.98790216666667}, {"type": "electric_scooter", "name": "b6c5dde3ed0130f17c55962b6c5cf613", "rental_uris": {"ios": "https://dc.lft.to/lastmile_qr_scan", "android": "https://dc.lft.to/lastmile_qr_scan"}, "fusion_lon": 0.0, "lat": 38.929606666666665, "is_disabled": 0, "bike_id": "b6c5dde3ed0130f17c55962b6c5cf613", "fusion_lat": 0.0, "is_reserved": 0, "lon": -77.01148216666667}, {"type": "electric_scooter", "name": "819146c690f7528c9c5baf95147934db", "rental_uris": {"ios": "https://dc.lft.to/lastmile_qr_scan", "android": "https://dc.lft.to/lastmile_qr_scan"}, "fusion_lon": 0.0, "lat": 38.89557166666667, "is_disabled": 0, "bike_id": "819146c690f7528c9c5baf95147934db", "fusion_lat": 0.0, "is_reserved": 0, "lon": -76.99841316666667}, {"type": "electric_scooter", "name": "9640caf26c00309202e12d292e2af6b1", "rental_uris": {"ios": "https://dc.lft.to/lastmile_qr_scan", "android": "https://dc.lft.to/lastmile_qr_scan"}, "fusion_lon": 0.0, "lat": 38.884036, "is_disabled": 0, "bike_id": "9640caf26c00309202e12d292e2af6b1", "fusion_lat": 0.0, "is_reserved": 0, "lon": -76.98587716666667}, {"type": "electric_scooter", "name": "d95fb8b6efc5bac3b1eaf2faf1125a4b", "rental_uris": {"ios": "https://dc.lft.to/lastmile_qr_scan", "android": "https://dc.lft.to/lastmile_qr_scan"}, "fusion_lon": 0.0, "lat": 38.90143966666667, "is_disabled": 0, "bike_id": "d95fb8b6efc5bac3b1eaf2faf1125a4b", "fusion_lat": 0.0, "is_reserved": 0, "lon": -77.0462505}, {"type": "electric_scooter", "name": "39a3b4fd760597307d5338e834bfc337", "rental_uris": {"ios": "https://dc.lft.to/lastmile_qr_scan", "android": "https://dc.lft.to/lastmile_qr_scan"}, "fusion_lon": 0.0, "lat": 38.9142825, "is_disabled": 0, "bike_id": "39a3b4fd760597307d5338e834bfc337", "fusion_lat": 0.0, "is_reserved": 0, "lon": -77.06419333333334}, {"type": "electric_scooter", "name": "2391c38127d2345e813f9d8fe41505ce", "rental_uris": {"ios": "https://dc.lft.to/lastmile_qr_scan", "android": "https://dc.lft.to/lastmile_qr_scan"}, "fusion_lon": 0.0, "lat": 38.88747883333333, "is_disabled": 0, "bike_id": "2391c38127d2345e813f9d8fe41505ce", "fusion_lat": 0.0, "is_reserved": 0, "lon": -77.01774316666666}, {"type": "electric_scooter", "name": "69aa4eb678522f7a18ca43bd3f4bb8eb", "rental_uris": {"ios": "https://dc.lft.to/lastmile_qr_scan", "android": "https://dc.lft.to/lastmile_qr_scan"}, "fusion_lon": 0.0, "lat": 38.88496516666667, "is_disabled": 0, "bike_id": "69aa4eb678522f7a18ca43bd3f4bb8eb", "fusion_lat": 0.0, "is_reserved": 0, "lon": -77.00726066666667}, {"type": "electric_scooter", "name": "fb911cc1fc199618fd98190b15d0a86b", "rental_uris": {"ios": "https://dc.lft.to/lastmile_qr_scan", "android": "https://dc.lft.to/lastmile_qr_scan"}, "fusion_lon": 0.0, "lat": 38.874592666666665, "is_disabled": 0, "bike_id": "fb911cc1fc199618fd98190b15d0a86b", "fusion_lat": 0.0, "is_reserved": 0, "lon": -77.0096425}, {"type": "electric_scooter", "name": "2b9a3198bbf0b63639ddecc6f8d5d6cb", "rental_uris": {"ios": "https://dc.lft.to/lastmile_qr_scan", "android": "https://dc.lft.to/lastmile_qr_scan"}, "fusion_lon": 0.0, "lat": 38.8851505, "is_disabled": 0, "bike_id": "2b9a3198bbf0b63639ddecc6f8d5d6cb", "fusion_lat": 0.0, "is_reserved": 0, "lon": -77.01518633333333}, {"type": "electric_scooter", "name": "0c3a4c824e92da69aa77e0eb056874b4", "rental_uris": {"ios": "https://dc.lft.to/lastmile_qr_scan", "android": "https://dc.lft.to/lastmile_qr_scan"}, "fusion_lon": 0.0, "lat": 38.9073545, "is_disabled": 0, "bike_id": "0c3a4c824e92da69aa77e0eb056874b4", "fusion_lat": 0.0, "is_reserved": 0, "lon": -77.01308516666667}, {"type": "electric_scooter", "name": "4ebfdadb5a317cf32e1f8fc94380fb09", "rental_uris": {"ios": "https://dc.lft.to/lastmile_qr_scan", "android": "https://dc.lft.to/lastmile_qr_scan"}, "fusion_lon": 0.0, "lat": 38.938590166666664, "is_disabled": 0, "bike_id": "4ebfdadb5a317cf32e1f8fc94380fb09", "fusion_lat": 0.0, "is_reserved": 0, "lon": -77.03382883333333}, {"type": "electric_scooter", "name": "bfc7ef8bdb57bf62a15b045278bb9803", "rental_uris": {"ios": "https://dc.lft.to/lastmile_qr_scan", "android": "https://dc.lft.to/lastmile_qr_scan"}, "fusion_lon": 0.0, "lat": 38.86064666666667, "is_disabled": 0, "bike_id": "bfc7ef8bdb57bf62a15b045278bb9803", "fusion_lat": 0.0, "is_reserved": 0, "lon": -76.98498666666667}, {"type": "electric_bike", "name": "60daa8b66e4134f35d0fd39b8919f19c", "rental_uris": {"ios": "https://dc.lft.to/lastmile_qr_scan", "android": "https://dc.lft.to/lastmile_qr_scan"}, "fusion_lon": 0.0, "lat": 38.985048, "is_disabled": 0, "bike_id": "60daa8b66e4134f35d0fd39b8919f19c", "fusion_lat": 0.0, "is_reserved": 0, "lon": -76.98187816666666}, {"type": "electric_scooter", "name": "78772ac0227ff8f1848939edbce3a274", "rental_uris": {"ios": "https://dc.lft.to/lastmile_qr_scan", "android": "https://dc.lft.to/lastmile_qr_scan"}, "fusion_lon": 0.0, "lat": 38.902046166666665, "is_disabled": 0, "bike_id": "78772ac0227ff8f1848939edbce3a274", "fusion_lat": 0.0, "is_reserved": 0, "lon": -77.0237635}, {"type": "electric_scooter", "name": "7c7002f88370455ef2582e45bca69788", "rental_uris": {"ios": "https://dc.lft.to/lastmile_qr_scan", "android": "https://dc.lft.to/lastmile_qr_scan"}, "fusion_lon": 0.0, "lat": 38.9089195, "is_disabled": 0, "bike_id": "7c7002f88370455ef2582e45bca69788", "fusion_lat": 0.0, "is_reserved": 0, "lon": -77.034308}, {"type": "electric_scooter", "name": "7f0125fdf95f5cbf6b71817431a49f34", "rental_uris": {"ios": "https://dc.lft.to/lastmile_qr_scan", "android": "https://dc.lft.to/lastmile_qr_scan"}, "fusion_lon": 0.0, "lat": 38.88488666666667, "is_disabled": 0, "bike_id": "7f0125fdf95f5cbf6b71817431a49f34", "fusion_lat": 0.0, "is_reserved": 0, "lon": -77.00711683333333}, {"type": "electric_scooter", "name": "bb4ebd00bf0fb60076057875b7f03f24", "rental_uris": {"ios": "https://dc.lft.to/lastmile_qr_scan", "android": "https://dc.lft.to/lastmile_qr_scan"}, "fusion_lon": 0.0, "lat": 38.928569833333334, "is_disabled": 0, "bike_id": "bb4ebd00bf0fb60076057875b7f03f24", "fusion_lat": 0.0, "is_reserved": 0, "lon": -77.0330485}, {"type": "electric_scooter", "name": "41e935de16300004259c5ce6765cf78e", "rental_uris": {"ios": "https://dc.lft.to/lastmile_qr_scan", "android": "https://dc.lft.to/lastmile_qr_scan"}, "fusion_lon": 0.0, "lat": 38.924178, "is_disabled": 0, "bike_id": "41e935de16300004259c5ce6765cf78e", "fusion_lat": 0.0, "is_reserved": 0, "lon": -77.05175783333334}, {"type": "electric_scooter", "name": "08e6beb3402c6e4766ff9fb0960c2e4d", "rental_uris": {"ios": "https://dc.lft.to/lastmile_qr_scan", "android": "https://dc.lft.to/lastmile_qr_scan"}, "fusion_lon": 0.0, "lat": 38.9171485, "is_disabled": 0, "bike_id": "08e6beb3402c6e4766ff9fb0960c2e4d", "fusion_lat": 0.0, "is_reserved": 0, "lon": -77.04154033333333}, {"type": "electric_scooter", "name": "effd9646695cf19f6eb532b70ebd927a", "rental_uris": {"ios": "https://dc.lft.to/lastmile_qr_scan", "android": "https://dc.lft.to/lastmile_qr_scan"}, "fusion_lon": 0.0, "lat": 38.9032845, "is_disabled": 0, "bike_id": "effd9646695cf19f6eb532b70ebd927a", "fusion_lat": 0.0, "is_reserved": 0, "lon": -77.02430833333334}, {"type": "electric_scooter", "name": "08388ae3e43ee407f12a99a04122cdc5", "rental_uris": {"ios": "https://dc.lft.to/lastmile_qr_scan", "android": "https://dc.lft.to/lastmile_qr_scan"}, "fusion_lon": 0.0, "lat": 38.91117233333333, "is_disabled": 0, "bike_id": "08388ae3e43ee407f12a99a04122cdc5", "fusion_lat": 0.0, "is_reserved": 0, "lon": -77.03439766666666}, {"type": "electric_scooter", "name": "371ac6efdfc0fd39561fa494b4cce2f6", "rental_uris": {"ios": "https://dc.lft.to/lastmile_qr_scan", "android": "https://dc.lft.to/lastmile_qr_scan"}, "fusion_lon": 0.0, "lat": 38.905743333333334, "is_disabled": 0, "bike_id": "371ac6efdfc0fd39561fa494b4cce2f6", "fusion_lat": 0.0, "is_reserved": 0, "lon": -77.00392866666667}, {"type": "electric_scooter", "name": "1b2efecd076aa1aec6092c8a6fcda498", "rental_uris": {"ios": "https://dc.lft.to/lastmile_qr_scan", "android": "https://dc.lft.to/lastmile_qr_scan"}, "fusion_lon": 0.0, "lat": 38.923178666666665, "is_disabled": 0, "bike_id": "1b2efecd076aa1aec6092c8a6fcda498", "fusion_lat": 0.0, "is_reserved": 0, "lon": -77.04520116666667}, {"type": "electric_scooter", "name": "8da595e071335b286b18c44e75fcafc8", "rental_uris": {"ios": "https://dc.lft.to/lastmile_qr_scan", "android": "https://dc.lft.to/lastmile_qr_scan"}, "fusion_lon": 0.0, "lat": 38.87836466666667, "is_disabled": 0, "bike_id": "8da595e071335b286b18c44e75fcafc8", "fusion_lat": 0.0, "is_reserved": 0, "lon": -76.990314}, {"type": "electric_scooter", "name": "c51eae7ee8c69a9534f45fe489c1bc4b", "rental_uris": {"ios": "https://dc.lft.to/lastmile_qr_scan", "android": "https://dc.lft.to/lastmile_qr_scan"}, "fusion_lon": 0.0, "lat": 38.90406016666667, "is_disabled": 0, "bike_id": "c51eae7ee8c69a9534f45fe489c1bc4b", "fusion_lat": 0.0, "is_reserved": 0, "lon": -77.04009183333334}, {"type": "electric_scooter", "name": "b5947426a53db19acafd02ff33c828a7", "rental_uris": {"ios": "https://dc.lft.to/lastmile_qr_scan", "android": "https://dc.lft.to/lastmile_qr_scan"}, "fusion_lon": 0.0, "lat": 38.9270405, "is_disabled": 0, "bike_id": "b5947426a53db19acafd02ff33c828a7", "fusion_lat": 0.0, "is_reserved": 0, "lon": -77.02433283333333}, {"type": "electric_scooter", "name": "60657ae6f297bc4e9193d8ece865ca02", "rental_uris": {"ios": "https://dc.lft.to/lastmile_qr_scan", "android": "https://dc.lft.to/lastmile_qr_scan"}, "fusion_lon": 0.0, "lat": 38.92823383333333, "is_disabled": 0, "bike_id": "60657ae6f297bc4e9193d8ece865ca02", "fusion_lat": 0.0, "is_reserved": 0, "lon": -77.02619683333333}, {"type": "electric_scooter", "name": "245453162646c3825da8a4e8bf5cd214", "rental_uris": {"ios": "https://dc.lft.to/lastmile_qr_scan", "android": "https://dc.lft.to/lastmile_qr_scan"}, "fusion_lon": 0.0, "lat": 38.921131333333335, "is_disabled": 0, "bike_id": "245453162646c3825da8a4e8bf5cd214", "fusion_lat": 0.0, "is_reserved": 0, "lon": -77.02034483333334}, {"type": "electric_scooter", "name": "cb7db5e6c34bbddfa630e8f56025b215", "rental_uris": {"ios": "https://dc.lft.to/lastmile_qr_scan", "android": "https://dc.lft.to/lastmile_qr_scan"}, "fusion_lon": 0.0, "lat": 38.9113775, "is_disabled": 0, "bike_id": "cb7db5e6c34bbddfa630e8f56025b215", "fusion_lat": 0.0, "is_reserved": 0, "lon": -77.028002}, {"type": "electric_scooter", "name": "f4452eadf901f404145c43f3e474d70a", "rental_uris": {"ios": "https://dc.lft.to/lastmile_qr_scan", "android": "https://dc.lft.to/lastmile_qr_scan"}, "fusion_lon": 0.0, "lat": 38.88488516666666, "is_disabled": 0, "bike_id": "f4452eadf901f404145c43f3e474d70a", "fusion_lat": 0.0, "is_reserved": 0, "lon": -76.95648983333334}, {"type": "electric_scooter", "name": "f7d46c7968536158b6f95e80c1eb48b7", "rental_uris": {"ios": "https://dc.lft.to/lastmile_qr_scan", "android": "https://dc.lft.to/lastmile_qr_scan"}, "fusion_lon": 0.0, "lat": 38.89220866666667, "is_disabled": 0, "bike_id": "f7d46c7968536158b6f95e80c1eb48b7", "fusion_lat": 0.0, "is_reserved": 0, "lon": -77.02424083333334}, {"type": "electric_scooter", "name": "7a646ce245e592a6c9bdcb8c767c7edd", "rental_uris": {"ios": "https://dc.lft.to/lastmile_qr_scan", "android": "https://dc.lft.to/lastmile_qr_scan"}, "fusion_lon": 0.0, "lat": 38.90945033333333, "is_disabled": 0, "bike_id": "7a646ce245e592a6c9bdcb8c767c7edd", "fusion_lat": 0.0, "is_reserved": 0, "lon": -77.02390733333333}, {"type": "electric_scooter", "name": "639f9dd36d49f9cf91edc269d3ac3919", "rental_uris": {"ios": "https://dc.lft.to/lastmile_qr_scan", "android": "https://dc.lft.to/lastmile_qr_scan"}, "fusion_lon": 0.0, "lat": 38.93664183333333, "is_disabled": 0, "bike_id": "639f9dd36d49f9cf91edc269d3ac3919", "fusion_lat": 0.0, "is_reserved": 0, "lon": -77.02381566666666}, {"type": "electric_scooter", "name": "2d49c59661e4aa16b1c1efab53edad42", "rental_uris": {"ios": "https://dc.lft.to/lastmile_qr_scan", "android": "https://dc.lft.to/lastmile_qr_scan"}, "fusion_lon": 0.0, "lat": 38.9132925, "is_disabled": 0, "bike_id": "2d49c59661e4aa16b1c1efab53edad42", "fusion_lat": 0.0, "is_reserved": 0, "lon": -77.03170233333333}, {"type": "electric_scooter", "name": "ec67efa1e790d1647202004f7ad49197", "rental_uris": {"ios": "https://dc.lft.to/lastmile_qr_scan", "android": "https://dc.lft.to/lastmile_qr_scan"}, "fusion_lon": 0.0, "lat": 38.92127466666667, "is_disabled": 0, "bike_id": "ec67efa1e790d1647202004f7ad49197", "fusion_lat": 0.0, "is_reserved": 0, "lon": -77.0411765}, {"type": "electric_bike", "name": "f9f7a1589efd3ef452fbdc767b038ae5", "rental_uris": {"ios": "https://dc.lft.to/lastmile_qr_scan", "android": "https://dc.lft.to/lastmile_qr_scan"}, "fusion_lon": 0.0, "lat": 38.839507, "is_disabled": 0, "bike_id": "f9f7a1589efd3ef452fbdc767b038ae5", "fusion_lat": 0.0, "is_reserved": 0, "lon": -77.08758166666667}, {"type": "electric_scooter", "name": "8a1faa30f7181f97802b785d4e8514d8", "rental_uris": {"ios": "https://dc.lft.to/lastmile_qr_scan", "android": "https://dc.lft.to/lastmile_qr_scan"}, "fusion_lon": 0.0, "lat": 38.90781066666667, "is_disabled": 0, "bike_id": "8a1faa30f7181f97802b785d4e8514d8", "fusion_lat": 0.0, "is_reserved": 0, "lon": -77.03862633333334}, {"type": "electric_scooter", "name": "1cf290ee5ea5b089ee4a1bb5829bd4ab", "rental_uris": {"ios": "https://dc.lft.to/lastmile_qr_scan", "android": "https://dc.lft.to/lastmile_qr_scan"}, "fusion_lon": 0.0, "lat": 38.838662666666664, "is_disabled": 0, "bike_id": "1cf290ee5ea5b089ee4a1bb5829bd4ab", "fusion_lat": 0.0, "is_reserved": 0, "lon": -76.996985}, {"type": "electric_scooter", "name": "d985b044ca32a19f56b84aab234343fc", "rental_uris": {"ios": "https://dc.lft.to/lastmile_qr_scan", "android": "https://dc.lft.to/lastmile_qr_scan"}, "fusion_lon": 0.0, "lat": 38.90640716666667, "is_disabled": 0, "bike_id": "d985b044ca32a19f56b84aab234343fc", "fusion_lat": 0.0, "is_reserved": 0, "lon": -77.03451883333334}, {"type": "electric_scooter", "name": "132ea34d88d93a171011a8b64e71b0fe", "rental_uris": {"ios": "https://dc.lft.to/lastmile_qr_scan", "android": "https://dc.lft.to/lastmile_qr_scan"}, "fusion_lon": 0.0, "lat": 38.94186783333333, "is_disabled": 0, "bike_id": "132ea34d88d93a171011a8b64e71b0fe", "fusion_lat": 0.0, "is_reserved": 0, "lon": -77.02407533333333}, {"type": "electric_scooter", "name": "d5e1563e3e0edaadef124f57d4a8b091", "rental_uris": {"ios": "https://dc.lft.to/lastmile_qr_scan", "android": "https://dc.lft.to/lastmile_qr_scan"}, "fusion_lon": 0.0, "lat": 38.92245483333333, "is_disabled": 0, "bike_id": "d5e1563e3e0edaadef124f57d4a8b091", "fusion_lat": 0.0, "is_reserved": 0, "lon": -77.080766}, {"type": "electric_scooter", "name": "142706522900b9d3e44a04ac89133659", "rental_uris": {"ios": "https://dc.lft.to/lastmile_qr_scan", "android": "https://dc.lft.to/lastmile_qr_scan"}, "fusion_lon": 0.0, "lat": 38.901789, "is_disabled": 0, "bike_id": "142706522900b9d3e44a04ac89133659", "fusion_lat": 0.0, "is_reserved": 0, "lon": -77.01616266666667}, {"type": "electric_scooter", "name": "9defcaf68014f3b843a325d3eeec2f29", "rental_uris": {"ios": "https://dc.lft.to/lastmile_qr_scan", "android": "https://dc.lft.to/lastmile_qr_scan"}, "fusion_lon": 0.0, "lat": 38.90506633333333, "is_disabled": 0, "bike_id": "9defcaf68014f3b843a325d3eeec2f29", "fusion_lat": 0.0, "is_reserved": 0, "lon": -77.01986016666666}, {"type": "electric_scooter", "name": "a4fbe9ae61567e56f891860d988a205a", "rental_uris": {"ios": "https://dc.lft.to/lastmile_qr_scan", "android": "https://dc.lft.to/lastmile_qr_scan"}, "fusion_lon": 0.0, "lat": 38.8982745, "is_disabled": 0, "bike_id": "a4fbe9ae61567e56f891860d988a205a", "fusion_lat": 0.0, "is_reserved": 0, "lon": -77.04828933333333}, {"type": "electric_scooter", "name": "14283de9366d9b1b3413f10968a0c823", "rental_uris": {"ios": "https://dc.lft.to/lastmile_qr_scan", "android": "https://dc.lft.to/lastmile_qr_scan"}, "fusion_lon": 0.0, "lat": 38.913041666666665, "is_disabled": 0, "bike_id": "14283de9366d9b1b3413f10968a0c823", "fusion_lat": 0.0, "is_reserved": 0, "lon": -77.03174533333333}, {"type": "electric_scooter", "name": "d4c4387bde7e2431c5389310327f18c9", "rental_uris": {"ios": "https://dc.lft.to/lastmile_qr_scan", "android": "https://dc.lft.to/lastmile_qr_scan"}, "fusion_lon": 0.0, "lat": 38.909584333333335, "is_disabled": 0, "bike_id": "d4c4387bde7e2431c5389310327f18c9", "fusion_lat": 0.0, "is_reserved": 0, "lon": -77.03499866666667}, {"type": "electric_scooter", "name": "0ee8423712b4a1102824763d9c0cda57", "rental_uris": {"ios": "https://dc.lft.to/lastmile_qr_scan", "android": "https://dc.lft.to/lastmile_qr_scan"}, "fusion_lon": 0.0, "lat": 38.9099445, "is_disabled": 0, "bike_id": "0ee8423712b4a1102824763d9c0cda57", "fusion_lat": 0.0, "is_reserved": 0, "lon": -77.02688116666667}, {"type": "electric_scooter", "name": "a92a75c5b747afdf3bb16ebabec3ea74", "rental_uris": {"ios": "https://dc.lft.to/lastmile_qr_scan", "android": "https://dc.lft.to/lastmile_qr_scan"}, "fusion_lon": 0.0, "lat": 38.94966633333333, "is_disabled": 0, "bike_id": "a92a75c5b747afdf3bb16ebabec3ea74", "fusion_lat": 0.0, "is_reserved": 0, "lon": -77.0752545}, {"type": "electric_scooter", "name": "047162e7261aa7d7049bd8b714e9fb2b", "rental_uris": {"ios": "https://dc.lft.to/lastmile_qr_scan", "android": "https://dc.lft.to/lastmile_qr_scan"}, "fusion_lon": 0.0, "lat": 38.934701833333335, "is_disabled": 0, "bike_id": "047162e7261aa7d7049bd8b714e9fb2b", "fusion_lat": 0.0, "is_reserved": 0, "lon": -77.02975983333333}, {"type": "electric_scooter", "name": "7c3d256f53e544f3d302845901609767", "rental_uris": {"ios": "https://dc.lft.to/lastmile_qr_scan", "android": "https://dc.lft.to/lastmile_qr_scan"}, "fusion_lon": 0.0, "lat": 38.883972666666665, "is_disabled": 0, "bike_id": "7c3d256f53e544f3d302845901609767", "fusion_lat": 0.0, "is_reserved": 0, "lon": -76.93046366666667}, {"type": "electric_scooter", "name": "02b9eef3ae7c0ec0034611885e768879", "rental_uris": {"ios": "https://dc.lft.to/lastmile_qr_scan", "android": "https://dc.lft.to/lastmile_qr_scan"}, "fusion_lon": 0.0, "lat": 38.93629816666667, "is_disabled": 0, "bike_id": "02b9eef3ae7c0ec0034611885e768879", "fusion_lat": 0.0, "is_reserved": 0, "lon": -77.02462066666666}, {"type": "electric_scooter", "name": "bfbe946ded572009aae38e6e137b707b", "rental_uris": {"ios": "https://dc.lft.to/lastmile_qr_scan", "android": "https://dc.lft.to/lastmile_qr_scan"}, "fusion_lon": 0.0, "lat": 38.9070905, "is_disabled": 0, "bike_id": "bfbe946ded572009aae38e6e137b707b", "fusion_lat": 0.0, "is_reserved": 0, "lon": -77.00578516666667}, {"type": "electric_bike", "name": "1fc412422bed0e2a9153346015b2d6c4", "rental_uris": {"ios": "https://dc.lft.to/lastmile_qr_scan", "android": "https://dc.lft.to/lastmile_qr_scan"}, "fusion_lon": 0.0, "lat": 38.953564666666665, "is_disabled": 0, "bike_id": "1fc412422bed0e2a9153346015b2d6c4", "fusion_lat": 0.0, "is_reserved": 0, "lon": -76.980915}, {"type": "electric_scooter", "name": "4949f1156e64efb373f7a10b9e71dfb6", "rental_uris": {"ios": "https://dc.lft.to/lastmile_qr_scan", "android": "https://dc.lft.to/lastmile_qr_scan"}, "fusion_lon": 0.0, "lat": 38.898855833333336, "is_disabled": 0, "bike_id": "4949f1156e64efb373f7a10b9e71dfb6", "fusion_lat": 0.0, "is_reserved": 0, "lon": -77.02699233333334}, {"type": "electric_scooter", "name": "cbbae398ec8fb4a93f47b7378b9efd21", "rental_uris": {"ios": "https://dc.lft.to/lastmile_qr_scan", "android": "https://dc.lft.to/lastmile_qr_scan"}, "fusion_lon": 0.0, "lat": 38.89701616666667, "is_disabled": 0, "bike_id": "cbbae398ec8fb4a93f47b7378b9efd21", "fusion_lat": 0.0, "is_reserved": 0, "lon": -77.01611283333334}, {"type": "electric_scooter", "name": "fc6463495a63104c6041d624a58dd943", "rental_uris": {"ios": "https://dc.lft.to/lastmile_qr_scan", "android": "https://dc.lft.to/lastmile_qr_scan"}, "fusion_lon": 0.0, "lat": 38.875490666666664, "is_disabled": 0, "bike_id": "fc6463495a63104c6041d624a58dd943", "fusion_lat": 0.0, "is_reserved": 0, "lon": -77.00535}, {"type": "electric_scooter", "name": "0ca50073b7be763d364cd186878323db", "rental_uris": {"ios": "https://dc.lft.to/lastmile_qr_scan", "android": "https://dc.lft.to/lastmile_qr_scan"}, "fusion_lon": 0.0, "lat": 38.905385, "is_disabled": 0, "bike_id": "0ca50073b7be763d364cd186878323db", "fusion_lat": 0.0, "is_reserved": 0, "lon": -77.02717116666666}, {"type": "electric_scooter", "name": "c8683de46984d21cb1f2de68b018d4c3", "rental_uris": {"ios": "https://dc.lft.to/lastmile_qr_scan", "android": "https://dc.lft.to/lastmile_qr_scan"}, "fusion_lon": 0.0, "lat": 38.888107, "is_disabled": 0, "bike_id": "c8683de46984d21cb1f2de68b018d4c3", "fusion_lat": 0.0, "is_reserved": 0, "lon": -76.9835555}, {"type": "electric_scooter", "name": "00fb627d52c4011944c1eff7db5b4553", "rental_uris": {"ios": "https://dc.lft.to/lastmile_qr_scan", "android": "https://dc.lft.to/lastmile_qr_scan"}, "fusion_lon": 0.0, "lat": 38.92088066666667, "is_disabled": 0, "bike_id": "00fb627d52c4011944c1eff7db5b4553", "fusion_lat": 0.0, "is_reserved": 0, "lon": -77.02253316666666}, {"type": "electric_bike", "name": "347cf27a58f5cd4b34abae50c23dbedb", "rental_uris": {"ios": "https://dc.lft.to/lastmile_qr_scan", "android": "https://dc.lft.to/lastmile_qr_scan"}, "fusion_lon": 0.0, "lat": 38.85649466666667, "is_disabled": 0, "bike_id": "347cf27a58f5cd4b34abae50c23dbedb", "fusion_lat": 0.0, "is_reserved": 0, "lon": -77.08527583333333}, {"type": "electric_scooter", "name": "ddfea8935a686c3b4919ea8f0ed204ff", "rental_uris": {"ios": "https://dc.lft.to/lastmile_qr_scan", "android": "https://dc.lft.to/lastmile_qr_scan"}, "fusion_lon": 0.0, "lat": 38.915346166666666, "is_disabled": 0, "bike_id": "ddfea8935a686c3b4919ea8f0ed204ff", "fusion_lat": 0.0, "is_reserved": 0, "lon": -77.01224333333333}, {"type": "electric_scooter", "name": "4e64d09e44ad71acfd7cee3eba971357", "rental_uris": {"ios": "https://dc.lft.to/lastmile_qr_scan", "android": "https://dc.lft.to/lastmile_qr_scan"}, "fusion_lon": 0.0, "lat": 38.882556, "is_disabled": 0, "bike_id": "4e64d09e44ad71acfd7cee3eba971357", "fusion_lat": 0.0, "is_reserved": 0, "lon": -76.926658}, {"type": "electric_scooter", "name": "e310e3aa179058994ed91940edf9e901", "rental_uris": {"ios": "https://dc.lft.to/lastmile_qr_scan", "android": "https://dc.lft.to/lastmile_qr_scan"}, "fusion_lon": 0.0, "lat": 38.92436583333333, "is_disabled": 0, "bike_id": "e310e3aa179058994ed91940edf9e901", "fusion_lat": 0.0, "is_reserved": 0, "lon": -77.05206516666667}, {"type": "electric_bike", "name": "736f6bd3e21a11dd7d5306ea8a72c96d", "rental_uris": {"ios": "https://dc.lft.to/lastmile_qr_scan", "android": "https://dc.lft.to/lastmile_qr_scan"}, "fusion_lon": 0.0, "lat": 38.944115, "is_disabled": 0, "bike_id": "736f6bd3e21a11dd7d5306ea8a72c96d", "fusion_lat": 0.0, "is_reserved": 0, "lon": -77.06259716666666}, {"type": "electric_scooter", "name": "761f011ad22ce533ba4c32e4f0358954", "rental_uris": {"ios": "https://dc.lft.to/lastmile_qr_scan", "android": "https://dc.lft.to/lastmile_qr_scan"}, "fusion_lon": 0.0, "lat": 38.935364, "is_disabled": 0, "bike_id": "761f011ad22ce533ba4c32e4f0358954", "fusion_lat": 0.0, "is_reserved": 0, "lon": -77.02351833333333}, {"type": "electric_scooter", "name": "ab72ad257752569df750bfea45b242a6", "rental_uris": {"ios": "https://dc.lft.to/lastmile_qr_scan", "android": "https://dc.lft.to/lastmile_qr_scan"}, "fusion_lon": 0.0, "lat": 38.8971715, "is_disabled": 0, "bike_id": "ab72ad257752569df750bfea45b242a6", "fusion_lat": 0.0, "is_reserved": 0, "lon": -77.0080365}, {"type": "electric_scooter", "name": "6c4dc475da58a426e986fdcf482a9770", "rental_uris": {"ios": "https://dc.lft.to/lastmile_qr_scan", "android": "https://dc.lft.to/lastmile_qr_scan"}, "fusion_lon": 0.0, "lat": 38.90285266666667, "is_disabled": 0, "bike_id": "6c4dc475da58a426e986fdcf482a9770", "fusion_lat": 0.0, "is_reserved": 0, "lon": -77.03834166666667}, {"type": "electric_scooter", "name": "1c79ad421a9fb3639a14d2a587c30c67", "rental_uris": {"ios": "https://dc.lft.to/lastmile_qr_scan", "android": "https://dc.lft.to/lastmile_qr_scan"}, "fusion_lon": 0.0, "lat": 38.87896533333333, "is_disabled": 0, "bike_id": "1c79ad421a9fb3639a14d2a587c30c67", "fusion_lat": 0.0, "is_reserved": 0, "lon": -77.01360783333334}, {"type": "electric_scooter", "name": "30d1876c50c7b51cc5f4c8a477f55335", "rental_uris": {"ios": "https://dc.lft.to/lastmile_qr_scan", "android": "https://dc.lft.to/lastmile_qr_scan"}, "fusion_lon": 0.0, "lat": 38.937347833333334, "is_disabled": 0, "bike_id": "30d1876c50c7b51cc5f4c8a477f55335", "fusion_lat": 0.0, "is_reserved": 0, "lon": -77.03260533333334}, {"type": "electric_scooter", "name": "06b773b05e6d285fe3fd80f5279b9328", "rental_uris": {"ios": "https://dc.lft.to/lastmile_qr_scan", "android": "https://dc.lft.to/lastmile_qr_scan"}, "fusion_lon": 0.0, "lat": 38.918065666666664, "is_disabled": 0, "bike_id": "06b773b05e6d285fe3fd80f5279b9328", "fusion_lat": 0.0, "is_reserved": 0, "lon": -77.03718516666666}, {"type": "electric_scooter", "name": "fca66e53d010e75679c8b466f18a6a8e", "rental_uris": {"ios": "https://dc.lft.to/lastmile_qr_scan", "android": "https://dc.lft.to/lastmile_qr_scan"}, "fusion_lon": 0.0, "lat": 38.901733666666665, "is_disabled": 0, "bike_id": "fca66e53d010e75679c8b466f18a6a8e", "fusion_lat": 0.0, "is_reserved": 0, "lon": -77.024886}, {"type": "electric_scooter", "name": "c29328ec485e762c856dd391538b3950", "rental_uris": {"ios": "https://dc.lft.to/lastmile_qr_scan", "android": "https://dc.lft.to/lastmile_qr_scan"}, "fusion_lon": 0.0, "lat": 38.929620166666666, "is_disabled": 0, "bike_id": "c29328ec485e762c856dd391538b3950", "fusion_lat": 0.0, "is_reserved": 0, "lon": -77.03092683333334}, {"type": "electric_scooter", "name": "f3af418dbdcd0b1e3e959a8d89dba3a6", "rental_uris": {"ios": "https://dc.lft.to/lastmile_qr_scan", "android": "https://dc.lft.to/lastmile_qr_scan"}, "fusion_lon": 0.0, "lat": 38.89219216666667, "is_disabled": 0, "bike_id": "f3af418dbdcd0b1e3e959a8d89dba3a6", "fusion_lat": 0.0, "is_reserved": 0, "lon": -77.02225616666666}, {"type": "electric_scooter", "name": "1967f85e3090fe076f4c358a607fa575", "rental_uris": {"ios": "https://dc.lft.to/lastmile_qr_scan", "android": "https://dc.lft.to/lastmile_qr_scan"}, "fusion_lon": 0.0, "lat": 38.91398483333333, "is_disabled": 0, "bike_id": "1967f85e3090fe076f4c358a607fa575", "fusion_lat": 0.0, "is_reserved": 0, "lon": -77.0417305}, {"type": "electric_scooter", "name": "0e1da2dd452e8a342dc13a55506dafa7", "rental_uris": {"ios": "https://dc.lft.to/lastmile_qr_scan", "android": "https://dc.lft.to/lastmile_qr_scan"}, "fusion_lon": 0.0, "lat": 38.97539533333333, "is_disabled": 0, "bike_id": "0e1da2dd452e8a342dc13a55506dafa7", "fusion_lat": 0.0, "is_reserved": 0, "lon": -77.01458066666666}, {"type": "electric_scooter", "name": "f2df342a781bcb4e86e1d7ad248d5f58", "rental_uris": {"ios": "https://dc.lft.to/lastmile_qr_scan", "android": "https://dc.lft.to/lastmile_qr_scan"}, "fusion_lon": 0.0, "lat": 38.9047265, "is_disabled": 0, "bike_id": "f2df342a781bcb4e86e1d7ad248d5f58", "fusion_lat": 0.0, "is_reserved": 0, "lon": -77.04863266666666}, {"type": "electric_scooter", "name": "faf9cc802b9eef2d831c9ae847cd64b0", "rental_uris": {"ios": "https://dc.lft.to/lastmile_qr_scan", "android": "https://dc.lft.to/lastmile_qr_scan"}, "fusion_lon": 0.0, "lat": 38.90465433333333, "is_disabled": 0, "bike_id": "faf9cc802b9eef2d831c9ae847cd64b0", "fusion_lat": 0.0, "is_reserved": 0, "lon": -77.06521933333333}, {"type": "electric_scooter", "name": "9507dcafa93db4e47340e0d88d75797c", "rental_uris": {"ios": "https://dc.lft.to/lastmile_qr_scan", "android": "https://dc.lft.to/lastmile_qr_scan"}, "fusion_lon": 0.0, "lat": 38.901222833333335, "is_disabled": 0, "bike_id": "9507dcafa93db4e47340e0d88d75797c", "fusion_lat": 0.0, "is_reserved": 0, "lon": -77.042492}, {"type": "electric_scooter", "name": "066e679efe0bc906e703a6c1e0524ac1", "rental_uris": {"ios": "https://dc.lft.to/lastmile_qr_scan", "android": "https://dc.lft.to/lastmile_qr_scan"}, "fusion_lon": 0.0, "lat": 38.942512666666666, "is_disabled": 0, "bike_id": "066e679efe0bc906e703a6c1e0524ac1", "fusion_lat": 0.0, "is_reserved": 0, "lon": -77.02171133333333}, {"type": "electric_bike", "name": "b420302918c7cc4354325546f68a0bee", "rental_uris": {"ios": "https://dc.lft.to/lastmile_qr_scan", "android": "https://dc.lft.to/lastmile_qr_scan"}, "fusion_lon": 0.0, "lat": 38.8830465, "is_disabled": 0, "bike_id": "b420302918c7cc4354325546f68a0bee", "fusion_lat": 0.0, "is_reserved": 0, "lon": -76.996211}, {"type": "electric_bike", "name": "41cf672b575c70afeb0c08a8116ca12b", "rental_uris": {"ios": "https://dc.lft.to/lastmile_qr_scan", "android": "https://dc.lft.to/lastmile_qr_scan"}, "fusion_lon": 0.0, "lat": 38.99778333333333, "is_disabled": 0, "bike_id": "41cf672b575c70afeb0c08a8116ca12b", "fusion_lat": 0.0, "is_reserved": 0, "lon": -77.04713766666667}, {"type": "electric_scooter", "name": "d5f165db82c7deb348f5b29593e5a249", "rental_uris": {"ios": "https://dc.lft.to/lastmile_qr_scan", "android": "https://dc.lft.to/lastmile_qr_scan"}, "fusion_lon": 0.0, "lat": 38.90335183333333, "is_disabled": 0, "bike_id": "d5f165db82c7deb348f5b29593e5a249", "fusion_lat": 0.0, "is_reserved": 0, "lon": -77.05276283333333}, {"type": "electric_scooter", "name": "688486bc4ee561affcb55bc17ae12ad0", "rental_uris": {"ios": "https://dc.lft.to/lastmile_qr_scan", "android": "https://dc.lft.to/lastmile_qr_scan"}, "fusion_lon": 0.0, "lat": 38.933969, "is_disabled": 0, "bike_id": "688486bc4ee561affcb55bc17ae12ad0", "fusion_lat": 0.0, "is_reserved": 0, "lon": -77.05742616666667}, {"type": "electric_scooter", "name": "56580a6dd20a0a90206b4874b26d554b", "rental_uris": {"ios": "https://dc.lft.to/lastmile_qr_scan", "android": "https://dc.lft.to/lastmile_qr_scan"}, "fusion_lon": 0.0, "lat": 38.90292616666667, "is_disabled": 0, "bike_id": "56580a6dd20a0a90206b4874b26d554b", "fusion_lat": 0.0, "is_reserved": 0, "lon": -76.976348}, {"type": "electric_scooter", "name": "449873535a984bb25a7ed730379c465d", "rental_uris": {"ios": "https://dc.lft.to/lastmile_qr_scan", "android": "https://dc.lft.to/lastmile_qr_scan"}, "fusion_lon": 0.0, "lat": 38.900718, "is_disabled": 0, "bike_id": "449873535a984bb25a7ed730379c465d", "fusion_lat": 0.0, "is_reserved": 0, "lon": -77.027126}, {"type": "electric_scooter", "name": "d738bbe683eb3c50fdb0e6928f40747b", "rental_uris": {"ios": "https://dc.lft.to/lastmile_qr_scan", "android": "https://dc.lft.to/lastmile_qr_scan"}, "fusion_lon": 0.0, "lat": 38.97513983333333, "is_disabled": 0, "bike_id": "d738bbe683eb3c50fdb0e6928f40747b", "fusion_lat": 0.0, "is_reserved": 0, "lon": -77.016692}, {"type": "electric_scooter", "name": "fcff1d5830339da341fbb9c1c5575d52", "rental_uris": {"ios": "https://dc.lft.to/lastmile_qr_scan", "android": "https://dc.lft.to/lastmile_qr_scan"}, "fusion_lon": 0.0, "lat": 38.90516683333333, "is_disabled": 0, "bike_id": "fcff1d5830339da341fbb9c1c5575d52", "fusion_lat": 0.0, "is_reserved": 0, "lon": -77.048493}, {"type": "electric_scooter", "name": "54cc392b0a692ded427ce30bb301d62f", "rental_uris": {"ios": "https://dc.lft.to/lastmile_qr_scan", "android": "https://dc.lft.to/lastmile_qr_scan"}, "fusion_lon": 0.0, "lat": 38.940479833333335, "is_disabled": 0, "bike_id": "54cc392b0a692ded427ce30bb301d62f", "fusion_lat": 0.0, "is_reserved": 0, "lon": -77.02982333333334}, {"type": "electric_scooter", "name": "481112bf6f8e07ae3fc5377ffb616bed", "rental_uris": {"ios": "https://dc.lft.to/lastmile_qr_scan", "android": "https://dc.lft.to/lastmile_qr_scan"}, "fusion_lon": 0.0, "lat": 38.926972166666665, "is_disabled": 0, "bike_id": "481112bf6f8e07ae3fc5377ffb616bed", "fusion_lat": 0.0, "is_reserved": 0, "lon": -77.03236183333334}, {"type": "electric_scooter", "name": "713b3a1594cd4c1899cf019c1ab4e488", "rental_uris": {"ios": "https://dc.lft.to/lastmile_qr_scan", "android": "https://dc.lft.to/lastmile_qr_scan"}, "fusion_lon": 0.0, "lat": 38.912707, "is_disabled": 0, "bike_id": "713b3a1594cd4c1899cf019c1ab4e488", "fusion_lat": 0.0, "is_reserved": 0, "lon": -77.02210616666666}, {"type": "electric_scooter", "name": "5198959bb10517915fb7686f45eb23ad", "rental_uris": {"ios": "https://dc.lft.to/lastmile_qr_scan", "android": "https://dc.lft.to/lastmile_qr_scan"}, "fusion_lon": 0.0, "lat": 38.91258166666667, "is_disabled": 0, "bike_id": "5198959bb10517915fb7686f45eb23ad", "fusion_lat": 0.0, "is_reserved": 0, "lon": -77.04440883333334}, {"type": "electric_scooter", "name": "8528246ac445b8f825ee4cac72d46e87", "rental_uris": {"ios": "https://dc.lft.to/lastmile_qr_scan", "android": "https://dc.lft.to/lastmile_qr_scan"}, "fusion_lon": 0.0, "lat": 38.9025975, "is_disabled": 0, "bike_id": "8528246ac445b8f825ee4cac72d46e87", "fusion_lat": 0.0, "is_reserved": 0, "lon": -77.01838283333333}, {"type": "electric_scooter", "name": "bcf12f2c6ae49a3dfa419a416540151e", "rental_uris": {"ios": "https://dc.lft.to/lastmile_qr_scan", "android": "https://dc.lft.to/lastmile_qr_scan"}, "fusion_lon": 0.0, "lat": 38.922575, "is_disabled": 0, "bike_id": "bcf12f2c6ae49a3dfa419a416540151e", "fusion_lat": 0.0, "is_reserved": 0, "lon": -77.00918}, {"type": "electric_scooter", "name": "7776544ecc56896b82afc9738a2c4dc7", "rental_uris": {"ios": "https://dc.lft.to/lastmile_qr_scan", "android": "https://dc.lft.to/lastmile_qr_scan"}, "fusion_lon": 0.0, "lat": 38.91537733333333, "is_disabled": 0, "bike_id": "7776544ecc56896b82afc9738a2c4dc7", "fusion_lat": 0.0, "is_reserved": 0, "lon": -77.01224316666666}, {"type": "electric_scooter", "name": "fb43265d7905ec1ba61d2596cd10ea0a", "rental_uris": {"ios": "https://dc.lft.to/lastmile_qr_scan", "android": "https://dc.lft.to/lastmile_qr_scan"}, "fusion_lon": 0.0, "lat": 38.93413366666667, "is_disabled": 0, "bike_id": "fb43265d7905ec1ba61d2596cd10ea0a", "fusion_lat": 0.0, "is_reserved": 0, "lon": -77.020367}, {"type": "electric_scooter", "name": "7772d48f25a13a5add7b18d2cf7c684d", "rental_uris": {"ios": "https://dc.lft.to/lastmile_qr_scan", "android": "https://dc.lft.to/lastmile_qr_scan"}, "fusion_lon": 0.0, "lat": 38.877077, "is_disabled": 0, "bike_id": "7772d48f25a13a5add7b18d2cf7c684d", "fusion_lat": 0.0, "is_reserved": 0, "lon": -77.00422183333333}, {"type": "electric_bike", "name": "ac49ef421612531388f795f186134218", "rental_uris": {"ios": "https://dc.lft.to/lastmile_qr_scan", "android": "https://dc.lft.to/lastmile_qr_scan"}, "fusion_lon": 0.0, "lat": 38.900319333333336, "is_disabled": 0, "bike_id": "ac49ef421612531388f795f186134218", "fusion_lat": 0.0, "is_reserved": 0, "lon": -76.97222666666667}, {"type": "electric_scooter", "name": "b1270b89d7a057a1dea251e762c3ddbc", "rental_uris": {"ios": "https://dc.lft.to/lastmile_qr_scan", "android": "https://dc.lft.to/lastmile_qr_scan"}, "fusion_lon": 0.0, "lat": 38.913970666666664, "is_disabled": 0, "bike_id": "b1270b89d7a057a1dea251e762c3ddbc", "fusion_lat": 0.0, "is_reserved": 0, "lon": -77.04171183333334}, {"type": "electric_bike", "name": "7ee9816824f8644ed3f36648a7a1dbe3", "rental_uris": {"ios": "https://dc.lft.to/lastmile_qr_scan", "android": "https://dc.lft.to/lastmile_qr_scan"}, "fusion_lon": 0.0, "lat": 38.831598, "is_disabled": 0, "bike_id": "7ee9816824f8644ed3f36648a7a1dbe3", "fusion_lat": 0.0, "is_reserved": 0, "lon": -76.99544766666666}, {"type": "electric_scooter", "name": "b97da5d0394a07063d4d80cc0a0dc090", "rental_uris": {"ios": "https://dc.lft.to/lastmile_qr_scan", "android": "https://dc.lft.to/lastmile_qr_scan"}, "fusion_lon": 0.0, "lat": 38.89552833333333, "is_disabled": 0, "bike_id": "b97da5d0394a07063d4d80cc0a0dc090", "fusion_lat": 0.0, "is_reserved": 0, "lon": -77.0395175}, {"type": "electric_scooter", "name": "79da525ddeeb6fff96c6beb694ad35af", "rental_uris": {"ios": "https://dc.lft.to/lastmile_qr_scan", "android": "https://dc.lft.to/lastmile_qr_scan"}, "fusion_lon": 0.0, "lat": 38.895293, "is_disabled": 0, "bike_id": "79da525ddeeb6fff96c6beb694ad35af", "fusion_lat": 0.0, "is_reserved": 0, "lon": -77.02816066666666}, {"type": "electric_bike", "name": "0ac9069a18c7ca97dd1d336fecf82bc8", "rental_uris": {"ios": "https://dc.lft.to/lastmile_qr_scan", "android": "https://dc.lft.to/lastmile_qr_scan"}, "fusion_lon": 0.0, "lat": 38.8350415, "is_disabled": 0, "bike_id": "0ac9069a18c7ca97dd1d336fecf82bc8", "fusion_lat": 0.0, "is_reserved": 0, "lon": -77.0010785}, {"type": "electric_bike", "name": "54ed06a17a7b90a92bc9b985bc893e88", "rental_uris": {"ios": "https://dc.lft.to/lastmile_qr_scan", "android": "https://dc.lft.to/lastmile_qr_scan"}, "fusion_lon": 0.0, "lat": 38.903066, "is_disabled": 0, "bike_id": "54ed06a17a7b90a92bc9b985bc893e88", "fusion_lat": 0.0, "is_reserved": 0, "lon": -76.97652033333334}, {"type": "electric_scooter", "name": "2739484d35d40634b365e405662601cb", "rental_uris": {"ios": "https://dc.lft.to/lastmile_qr_scan", "android": "https://dc.lft.to/lastmile_qr_scan"}, "fusion_lon": 0.0, "lat": 38.894254333333336, "is_disabled": 0, "bike_id": "2739484d35d40634b365e405662601cb", "fusion_lat": 0.0, "is_reserved": 0, "lon": -77.00095566666667}, {"type": "electric_scooter", "name": "082b681d0d57882a9125afc957a69be5", "rental_uris": {"ios": "https://dc.lft.to/lastmile_qr_scan", "android": "https://dc.lft.to/lastmile_qr_scan"}, "fusion_lon": 0.0, "lat": 38.909608166666665, "is_disabled": 0, "bike_id": "082b681d0d57882a9125afc957a69be5", "fusion_lat": 0.0, "is_reserved": 0, "lon": -77.022734}, {"type": "electric_scooter", "name": "41d2292f88cbf5ae05182d4505a94f30", "rental_uris": {"ios": "https://dc.lft.to/lastmile_qr_scan", "android": "https://dc.lft.to/lastmile_qr_scan"}, "fusion_lon": 0.0, "lat": 38.92325966666667, "is_disabled": 0, "bike_id": "41d2292f88cbf5ae05182d4505a94f30", "fusion_lat": 0.0, "is_reserved": 0, "lon": -77.0296765}, {"type": "electric_scooter", "name": "11060509ee51d9c350e380e783ec8a77", "rental_uris": {"ios": "https://dc.lft.to/lastmile_qr_scan", "android": "https://dc.lft.to/lastmile_qr_scan"}, "fusion_lon": 0.0, "lat": 38.92651566666667, "is_disabled": 0, "bike_id": "11060509ee51d9c350e380e783ec8a77", "fusion_lat": 0.0, "is_reserved": 0, "lon": -77.037138}, {"type": "electric_scooter", "name": "bb72ce3214b37f886e24d8fb05653d1a", "rental_uris": {"ios": "https://dc.lft.to/lastmile_qr_scan", "android": "https://dc.lft.to/lastmile_qr_scan"}, "fusion_lon": 0.0, "lat": 38.90681283333333, "is_disabled": 0, "bike_id": "bb72ce3214b37f886e24d8fb05653d1a", "fusion_lat": 0.0, "is_reserved": 0, "lon": -77.038084}, {"type": "electric_scooter", "name": "a61430e586218bcf4517fb5dd0dee035", "rental_uris": {"ios": "https://dc.lft.to/lastmile_qr_scan", "android": "https://dc.lft.to/lastmile_qr_scan"}, "fusion_lon": 0.0, "lat": 38.93171016666667, "is_disabled": 0, "bike_id": "a61430e586218bcf4517fb5dd0dee035", "fusion_lat": 0.0, "is_reserved": 0, "lon": -77.0366865}, {"type": "electric_scooter", "name": "41e42d8ed9df431c5464171aa219e3b8", "rental_uris": {"ios": "https://dc.lft.to/lastmile_qr_scan", "android": "https://dc.lft.to/lastmile_qr_scan"}, "fusion_lon": 0.0, "lat": 38.927483333333335, "is_disabled": 0, "bike_id": "41e42d8ed9df431c5464171aa219e3b8", "fusion_lat": 0.0, "is_reserved": 0, "lon": -77.02131983333334}, {"type": "electric_scooter", "name": "07bfd2d55a857fe14069282f5b139fc0", "rental_uris": {"ios": "https://dc.lft.to/lastmile_qr_scan", "android": "https://dc.lft.to/lastmile_qr_scan"}, "fusion_lon": 0.0, "lat": 38.93902683333334, "is_disabled": 0, "bike_id": "07bfd2d55a857fe14069282f5b139fc0", "fusion_lat": 0.0, "is_reserved": 0, "lon": -77.03312933333333}, {"type": "electric_scooter", "name": "deaee8cfce5fae5f73e98918d7a90a1a", "rental_uris": {"ios": "https://dc.lft.to/lastmile_qr_scan", "android": "https://dc.lft.to/lastmile_qr_scan"}, "fusion_lon": 0.0, "lat": 38.8962255, "is_disabled": 0, "bike_id": "deaee8cfce5fae5f73e98918d7a90a1a", "fusion_lat": 0.0, "is_reserved": 0, "lon": -77.04803233333334},