{"data": {"bikes": [{"fusion_lat": 0.0, "type": "electric_scooter", "name": "0a66cfeb7d650d2755e1c2fa6e5317ca", "fusion_lon": 0.0, "bike_id": "0a66cfeb7d650d2755e1c2fa6e5317ca", "is_reserved": 0, "rental_uris": {"android": "https://dc.lft.to/lastmile_qr_scan", "ios": "https://dc.lft.to/lastmile_qr_scan"}, "lat": 38.927478, "is_disabled": 0, "lon": -77.0356245}, {"fusion_lat": 0.0, "type": "electric_bike", "name": "1db877ef6acc7f4be4eef6e539f18fc4", "fusion_lon": 0.0, "bike_id": "1db877ef6acc7f4be4eef6e539f18fc4", "is_reserved": 0, "rental_uris": {"android": "https://dc.lft.to/lastmile_qr_scan", "ios": "https://dc.lft.to/lastmile_qr_scan"}, "lat": 38.942269, "is_disabled": 0, "lon": -76.9661815}, {"fusion_lat": 0.0, "type": "electric_scooter", "name": "3039faf85292ec52262aa702526df78a", "fusion_lon": 0.0, "bike_id": "3039faf85292ec52262aa702526df78a", "is_reserved": 0, "rental_uris": {"android": "https://dc.lft.to/lastmile_qr_scan", "ios": "https://dc.lft.to/lastmile_qr_scan"}, "lat": 38.92143333333333, "is_disabled": 0, "lon": -77.04224033333334}, {"fusion_lat": 0.0, "type": "electric_scooter", "name": "bc5b356aac062b0a66f36aa6da71ac21", "fusion_lon": 0.0, "bike_id": "bc5b356aac062b0a66f36aa6da71ac21", "is_reserved": 0, "rental_uris": {"android": "https://dc.lft.to/lastmile_qr_scan", "ios": "https://dc.lft.to/lastmile_qr_scan"}, "lat": 38.920981833333336, "is_disabled": 0, "lon": -77.0317255}, {"fusion_lat": 0.0, "type": "electric_scooter", "name": "31c0f1425676d45df3a8b2d132c9b3d5", "fusion_lon": 0.0, "bike_id": "31c0f1425676d45df3a8b2d132c9b3d5", "is_reserved": 0, "rental_uris": {"android": "https://dc.lft.to/lastmile_qr_scan", "ios": "https://dc.lft.to/lastmile_qr_scan"}, "lat": 38.86698633333334, "is_disabled": 0, "lon": -76.98592733333334}, {"fusion_lat": 0.0, "type": "electric_scooter", "name": "f1572709db95c314ad1f2a672a23d85e", "fusion_lon": 0.0, "bike_id": "f1572709db95c314ad1f2a672a23d85e", "is_reserved": 0, "rental_uris": {"android": "https://dc.lft.to/lastmile_qr_scan", "ios": "https://dc.lft.to/lastmile_qr_scan"}, "lat": 38.900879833333335, "is_disabled": 0, "lon": -77.04767333333334}, {"fusion_lat": 0.0, "type": "electric_scooter", "name": "9a6235de31da0d29eeb0156887c7fd48", "fusion_lon": 0.0, "bike_id": "9a6235de31da0d29eeb0156887c7fd48", "is_reserved": 0, "rental_uris": {"android": "https://dc.lft.to/lastmile_qr_scan", "ios": "https://dc.lft.to/lastmile_qr_scan"}, "lat": 38.909536833333334, "is_disabled": 0, "lon": -77.0320975}, {"fusion_lat": 0.0, "type": "electric_scooter", "name": "36910ec6335b6f7c5299e21e6ced34d3", "fusion_lon": 0.0, "bike_id": "36910ec6335b6f7c5299e21e6ced34d3", "is_reserved": 0, "rental_uris": {"android": "https://dc.lft.to/lastmile_qr_scan", "ios": "https://dc.lft.to/lastmile_qr_scan"}, "lat": 38.8922105, "is_disabled": 0, "lon": -77.022363}, {"fusion_lat": 0.0, "type": "electric_scooter", "name": "8e9be00053b87b5e6bbf02fb2bc4a812", "fusion_lon": 0.0, "bike_id": "8e9be00053b87b5e6bbf02fb2bc4a812", "is_reserved": 0, "rental_uris": {"android": "https://dc.lft.to/lastmile_qr_scan", "ios": "https://dc.lft.to/lastmile_qr_scan"}, "lat": 38.9224605, "is_disabled": 0, "lon": -77.02119783333333}, {"fusion_lat": 0.0, "type": "electric_scooter", "name": "f339bc8424c8b156190c5ca6653829a5", "fusion_lon": 0.0, "bike_id": "f339bc8424c8b156190c5ca6653829a5", "is_reserved": 0, "rental_uris": {"android": "https://dc.lft.to/lastmile_qr_scan", "ios": "https://dc.lft.to/lastmile_qr_scan"}, "lat": 38.887241333333336, "is_disabled": 0, "lon": -77.02821566666667}, {"fusion_lat": 0.0, "type": "electric_bike", "name": "8aa61c4ecd5c8fec391dc25b666d709f", "fusion_lon": 0.0, "bike_id": "8aa61c4ecd5c8fec391dc25b666d709f", "is_reserved": 0, "rental_uris": {"android": "https://dc.lft.to/lastmile_qr_scan", "ios": "https://dc.lft.to/lastmile_qr_scan"}, "lat": 38.91016283333333, "is_disabled": 0, "lon": -77.228007}, {"fusion_lat": 0.0, "type": "electric_scooter", "name": "f8ba82b99f504f13926548b42cebf438", "fusion_lon": 0.0, "bike_id": "f8ba82b99f504f13926548b42cebf438", "is_reserved": 0, "rental_uris": {"android": "https://dc.lft.to/lastmile_qr_scan", "ios": "https://dc.lft.to/lastmile_qr_scan"}, "lat": 38.89292733333333, "is_disabled": 0, "lon": -77.01234283333334}, {"fusion_lat": 0.0, "type": "electric_scooter", "name": "6a87aebad098555f6efd87951cec0d03", "fusion_lon": 0.0, "bike_id": "6a87aebad098555f6efd87951cec0d03", "is_reserved": 0, "rental_uris": {"android": "https://dc.lft.to/lastmile_qr_scan", "ios": "https://dc.lft.to/lastmile_qr_scan"}, "lat": 38.941964, "is_disabled": 0, "lon": -77.02504083333334}, {"fusion_lat": 0.0, "type": "electric_bike", "name": "dbb9cd843909d38f22c8307c82e6af3e", "fusion_lon": 0.0, "bike_id": "dbb9cd843909d38f22c8307c82e6af3e", "is_reserved": 0, "rental_uris": {"android": "https://dc.lft.to/lastmile_qr_scan", "ios": "https://dc.lft.to/lastmile_qr_scan"}, "lat": 38.87275983333333, "is_disabled": 0, "lon": -77.23314183333333}, {"fusion_lat": 0.0, "type": "electric_scooter", "name": "a5e542fbfd81a4441b27960115867cab", "fusion_lon": 0.0, "bike_id": "a5e542fbfd81a4441b27960115867cab", "is_reserved": 0, "rental_uris": {"android": "https://dc.lft.to/lastmile_qr_scan", "ios": "https://dc.lft.to/lastmile_qr_scan"}, "lat": 38.865390166666664, "is_disabled": 0, "lon": -76.98705966666667}, {"fusion_lat": 0.0, "type": "electric_scooter", "name": "17cad68e52753be4ea1a3e2527aad172", "fusion_lon": 0.0, "bike_id": "17cad68e52753be4ea1a3e2527aad172", "is_reserved": 0, "rental_uris": {"android": "https://dc.lft.to/lastmile_qr_scan", "ios": "https://dc.lft.to/lastmile_qr_scan"}, "lat": 38.91849766666667, "is_disabled": 0, "lon": -77.0166945}, {"fusion_lat": 0.0, "type": "electric_scooter", "name": "f592992bca0c4dc55319b194f767ac4e", "fusion_lon": 0.0, "bike_id": "f592992bca0c4dc55319b194f767ac4e", "is_reserved": 0, "rental_uris": {"android": "https://dc.lft.to/lastmile_qr_scan", "ios": "https://dc.lft.to/lastmile_qr_scan"}, "lat": 38.89895416666667, "is_disabled": 0, "lon": -77.03933783333333}, {"fusion_lat": 0.0, "type": "electric_scooter", "name": "1cf20381d5f99192bdd7904db18fbd13", "fusion_lon": 0.0, "bike_id": "1cf20381d5f99192bdd7904db18fbd13", "is_reserved": 0, "rental_uris": {"android": "https://dc.lft.to/lastmile_qr_scan", "ios": "https://dc.lft.to/lastmile_qr_scan"}, "lat": 38.905060666666664, "is_disabled": 0, "lon": -76.99609166666667}, {"fusion_lat": 0.0, "type": "electric_scooter", "name": "ff06e1e8bd198bb5f207779ddb07c37a", "fusion_lon": 0.0, "bike_id": "ff06e1e8bd198bb5f207779ddb07c37a", "is_reserved": 0, "rental_uris": {"android": "https://dc.lft.to/lastmile_qr_scan", "ios": "https://dc.lft.to/lastmile_qr_scan"}, "lat": 38.8978885, "is_disabled": 0, "lon": -77.05009683333333}, {"fusion_lat": 0.0, "type": "electric_scooter", "name": "fd2973c819357947ca5802143b00c214", "fusion_lon": 0.0, "bike_id": "fd2973c819357947ca5802143b00c214", "is_reserved": 0, "rental_uris": {"android": "https://dc.lft.to/lastmile_qr_scan", "ios": "https://dc.lft.to/lastmile_qr_scan"}, "lat": 38.9118115, "is_disabled": 0, "lon": -77.034986}, {"fusion_lat": 0.0, "type": "electric_scooter", "name": "f5cafa511ddb8a3860586bd4d8ff4659", "fusion_lon": 0.0, "bike_id": "f5cafa511ddb8a3860586bd4d8ff4659", "is_reserved": 0, "rental_uris": {"android": "https://dc.lft.to/lastmile_qr_scan", "ios": "https://dc.lft.to/lastmile_qr_scan"}, "lat": 38.922535333333336, "is_disabled": 0, "lon": -77.0298055}, {"fusion_lat": 0.0, "type": "electric_scooter", "name": "4e6a76f38937884e0b7f2d947296c372", "fusion_lon": 0.0, "bike_id": "4e6a76f38937884e0b7f2d947296c372", "is_reserved": 0, "rental_uris": {"android": "https://dc.lft.to/lastmile_qr_scan", "ios": "https://dc.lft.to/lastmile_qr_scan"}, "lat": 38.896055833333335, "is_disabled": 0, "lon": -76.99970783333333}, {"fusion_lat": 0.0, "type": "electric_scooter", "name": "bd9b704ef926ab37ef93b2fb6a11314f", "fusion_lon": 0.0, "bike_id": "bd9b704ef926ab37ef93b2fb6a11314f", "is_reserved": 0, "rental_uris": {"android": "https://dc.lft.to/lastmile_qr_scan", "ios": "https://dc.lft.to/lastmile_qr_scan"}, "lat": 38.95396916666667, "is_disabled": 0, "lon": -77.027833}, {"fusion_lat": 0.0, "type": "electric_scooter", "name": "b262984bc46bdb1dffb62cca5e1f6956", "fusion_lon": 0.0, "bike_id": "b262984bc46bdb1dffb62cca5e1f6956", "is_reserved": 0, "rental_uris": {"android": "https://dc.lft.to/lastmile_qr_scan", "ios": "https://dc.lft.to/lastmile_qr_scan"}, "lat": 38.873389333333336, "is_disabled": 0, "lon": -76.991652}, {"fusion_lat": 0.0, "type": "electric_scooter", "name": "53de3bf13bd9033ef11a827de6797a09", "fusion_lon": 0.0, "bike_id": "53de3bf13bd9033ef11a827de6797a09", "is_reserved": 0, "rental_uris": {"android": "https://dc.lft.to/lastmile_qr_scan", "ios": "https://dc.lft.to/lastmile_qr_scan"}, "lat": 38.920332333333334, "is_disabled": 0, "lon": -77.01219833333333}, {"fusion_lat": 0.0, "type": "electric_scooter", "name": "3e0fb5f1de8c9f82fe4b89c07425ed90", "fusion_lon": 0.0, "bike_id": "3e0fb5f1de8c9f82fe4b89c07425ed90", "is_reserved": 0, "rental_uris": {"android": "https://dc.lft.to/lastmile_qr_scan", "ios": "https://dc.lft.to/lastmile_qr_scan"}, "lat": 38.91170183333333, "is_disabled": 0, "lon": -77.0045325}, {"fusion_lat": 0.0, "type": "electric_scooter", "name": "cc8a5f1260fa12a6d613025210392eb1", "fusion_lon": 0.0, "bike_id": "cc8a5f1260fa12a6d613025210392eb1", "is_reserved": 0, "rental_uris": {"android": "https://dc.lft.to/lastmile_qr_scan", "ios": "https://dc.lft.to/lastmile_qr_scan"}, "lat": 38.93090733333333, "is_disabled": 0, "lon": -77.02534266666666}, {"fusion_lat": 0.0, "type": "electric_bike", "name": "a953d25c060755ae7060cca7c1d377d0", "fusion_lon": 0.0, "bike_id": "a953d25c060755ae7060cca7c1d377d0", "is_reserved": 0, "rental_uris": {"android": "https://dc.lft.to/lastmile_qr_scan", "ios": "https://dc.lft.to/lastmile_qr_scan"}, "lat": 38.906235833333334, "is_disabled": 0, "lon": -76.98600983333333}, {"fusion_lat": 0.0, "type": "electric_bike", "name": "b8ef2d3f5ab06f33a0c7ce8ffeb293ba", "fusion_lon": 0.0, "bike_id": "b8ef2d3f5ab06f33a0c7ce8ffeb293ba", "is_reserved": 0, "rental_uris": {"android": "https://dc.lft.to/lastmile_qr_scan", "ios": "https://dc.lft.to/lastmile_qr_scan"}, "lat": 39.043041833333334, "is_disabled": 0, "lon": -77.0515955}, {"fusion_lat": 0.0, "type": "electric_scooter", "name": "b04fce5021fa5e28cd1147b2f19adfaa", "fusion_lon": 0.0, "bike_id": "b04fce5021fa5e28cd1147b2f19adfaa", "is_reserved": 0, "rental_uris": {"android": "https://dc.lft.to/lastmile_qr_scan", "ios": "https://dc.lft.to/lastmile_qr_scan"}, "lat": 38.90029083333334, "is_disabled": 0, "lon": -77.0316895}, {"fusion_lat": 0.0, "type": "electric_scooter", "name": "c3a85786196e8926c886669bff4884fe", "fusion_lon": 0.0, "bike_id": "c3a85786196e8926c886669bff4884fe", "is_reserved": 0, "rental_uris": {"android": "https://dc.lft.to/lastmile_qr_scan", "ios": "https://dc.lft.to/lastmile_qr_scan"}, "lat": 38.891926, "is_disabled": 0, "lon": -76.93303733333333}, {"fusion_lat": 0.0, "type": "electric_scooter", "name": "c149d448e4f24372d9510566310aa428", "fusion_lon": 0.0, "bike_id": "c149d448e4f24372d9510566310aa428", "is_reserved": 0, "rental_uris": {"android": "https://dc.lft.to/lastmile_qr_scan", "ios": "https://dc.lft.to/lastmile_qr_scan"}, "lat": 38.926534, "is_disabled": 0, "lon": -77.02429166666667}, {"fusion_lat": 0.0, "type": "electric_scooter", "name": "ac911a308d12d5de6ccc5de354ae1857", "fusion_lon": 0.0, "bike_id": "ac911a308d12d5de6ccc5de354ae1857", "is_reserved": 0, "rental_uris": {"android": "https://dc.lft.to/lastmile_qr_scan", "ios": "https://dc.lft.to/lastmile_qr_scan"}, "lat": 38.907303, "is_disabled": 0, "lon": -76.98694866666666}, {"fusion_lat": 0.0, "type": "electric_scooter", "name": "2ed3e722a714df7764ae6adaa088fccd", "fusion_lon": 0.0, "bike_id": "2ed3e722a714df7764ae6adaa088fccd", "is_reserved": 0, "rental_uris": {"android": "https://dc.lft.to/lastmile_qr_scan", "ios": "https://dc.lft.to/lastmile_qr_scan"}, "lat": 38.92376866666667, "is_disabled": 0, "lon": -77.01916783333333}, {"fusion_lat": 0.0, "type": "electric_scooter", "name": "29dcb2b4964b433afaf9a84e33e877e1", "fusion_lon": 0.0, "bike_id": "29dcb2b4964b433afaf9a84e33e877e1", "is_reserved": 0, "rental_uris": {"android": "https://dc.lft.to/lastmile_qr_scan", "ios": "https://dc.lft.to/lastmile_qr_scan"}, "lat": 38.892430833333336, "is_disabled": 0, "lon": -77.02206266666667}, {"fusion_lat": 0.0, "type": "electric_scooter", "name": "2bb139183a9ec2cc87e26f873f5a95c2", "fusion_lon": 0.0, "bike_id": "2bb139183a9ec2cc87e26f873f5a95c2", "is_reserved": 0, "rental_uris": {"android": "https://dc.lft.to/lastmile_qr_scan", "ios": "https://dc.lft.to/lastmile_qr_scan"}, "lat": 38.907376, "is_disabled": 0, "lon": -77.02693916666666}, {"fusion_lat": 0.0, "type": "electric_scooter", "name": "3fadbf88d2b9c6209eddacd0d8d69257", "fusion_lon": 0.0, "bike_id": "3fadbf88d2b9c6209eddacd0d8d69257", "is_reserved": 0, "rental_uris": {"android": "https://dc.lft.to/lastmile_qr_scan", "ios": "https://dc.lft.to/lastmile_qr_scan"}, "lat": 38.9247475, "is_disabled": 0, "lon": -77.04152866666666}, {"fusion_lat": 0.0, "type": "electric_scooter", "name": "bdc55442e4d20b5e74ba2837a1210890", "fusion_lon": 0.0, "bike_id": "bdc55442e4d20b5e74ba2837a1210890", "is_reserved": 0, "rental_uris": {"android": "https://dc.lft.to/lastmile_qr_scan", "ios": "https://dc.lft.to/lastmile_qr_scan"}, "lat": 38.872858, "is_disabled": 0, "lon": -77.00986983333334}, {"fusion_lat": 0.0, "type": "electric_scooter", "name": "cf8eca33bea395ca6575f9ce5403aabf", "fusion_lon": 0.0, "bike_id": "cf8eca33bea395ca6575f9ce5403aabf", "is_reserved": 0, "rental_uris": {"android": "https://dc.lft.to/lastmile_qr_scan", "ios": "https://dc.lft.to/lastmile_qr_scan"}, "lat": 38.903194, "is_disabled": 0, "lon": -76.991203}, {"fusion_lat": 0.0, "type": "electric_scooter", "name": "8896a60e7370bcd52b59b48144dd9cc1", "fusion_lon": 0.0, "bike_id": "8896a60e7370bcd52b59b48144dd9cc1", "is_reserved": 0, "rental_uris": {"android": "https://dc.lft.to/lastmile_qr_scan", "ios": "https://dc.lft.to/lastmile_qr_scan"}, "lat": 38.935793333333336, "is_disabled": 0, "lon": -77.03511183333333}, {"fusion_lat": 0.0, "type": "electric_scooter", "name": "3fce29832b018e1e90ffc24e11aa01e9", "fusion_lon": 0.0, "bike_id": "3fce29832b018e1e90ffc24e11aa01e9", "is_reserved": 0, "rental_uris": {"android": "https://dc.lft.to/lastmile_qr_scan", "ios": "https://dc.lft.to/lastmile_qr_scan"}, "lat": 38.8600995, "is_disabled": 0, "lon": -76.98524866666666}, {"fusion_lat": 0.0, "type": "electric_scooter", "name": "a75929d3b5cc7ac7ee484e15e2a95146", "fusion_lon": 0.0, "bike_id": "a75929d3b5cc7ac7ee484e15e2a95146", "is_reserved": 0, "rental_uris": {"android": "https://dc.lft.to/lastmile_qr_scan", "ios": "https://dc.lft.to/lastmile_qr_scan"}, "lat": 38.916794333333335, "is_disabled": 0, "lon": -77.01577416666667}, {"fusion_lat": 0.0, "type": "electric_scooter", "name": "1fba4872d0c599e2c204116ca6b3f85a", "fusion_lon": 0.0, "bike_id": "1fba4872d0c599e2c204116ca6b3f85a", "is_reserved": 0, "rental_uris": {"android": "https://dc.lft.to/lastmile_qr_scan", "ios": "https://dc.lft.to/lastmile_qr_scan"}, "lat": 38.909526666666665, "is_disabled": 0, "lon": -76.9853865}, {"fusion_lat": 0.0, "type": "electric_scooter", "name": "9b10e9040a49fb572a30ced314e46701", "fusion_lon": 0.0, "bike_id": "9b10e9040a49fb572a30ced314e46701", "is_reserved": 0, "rental_uris": {"android": "https://dc.lft.to/lastmile_qr_scan", "ios": "https://dc.lft.to/lastmile_qr_scan"}, "lat": 38.9432455, "is_disabled": 0, "lon": -77.026795}, {"fusion_lat": 0.0, "type": "electric_scooter", "name": "a3af2355c3da0811e1818b82817e430c", "fusion_lon": 0.0, "bike_id": "a3af2355c3da0811e1818b82817e430c", "is_reserved": 0, "rental_uris": {"android": "https://dc.lft.to/lastmile_qr_scan", "ios": "https://dc.lft.to/lastmile_qr_scan"}, "lat": 38.92407433333333, "is_disabled": 0, "lon": -77.02978383333334}, {"fusion_lat": 0.0, "type": "electric_scooter", "name": "fdf2dbb8de7ac09f42a0040b8d203e2a", "fusion_lon": 0.0, "bike_id": "fdf2dbb8de7ac09f42a0040b8d203e2a", "is_reserved": 0, "rental_uris": {"android": "https://dc.lft.to/lastmile_qr_scan", "ios": "https://dc.lft.to/lastmile_qr_scan"}, "lat": 38.87631066666667, "is_disabled": 0, "lon": -77.01263066666667}, {"fusion_lat": 0.0, "type": "electric_scooter", "name": "64c7ee6d629932b52fab368750857f62", "fusion_lon": 0.0, "bike_id": "64c7ee6d629932b52fab368750857f62", "is_reserved": 0, "rental_uris": {"android": "https://dc.lft.to/lastmile_qr_scan", "ios": "https://dc.lft.to/lastmile_qr_scan"}, "lat": 38.88082333333333, "is_disabled": 0, "lon": -76.99838766666667}, {"fusion_lat": 0.0, "type": "electric_scooter", "name": "fb0f977b45f074bcd5d97ec1ef37bcc2", "fusion_lon": 0.0, "bike_id": "fb0f977b45f074bcd5d97ec1ef37bcc2", "is_reserved": 0, "rental_uris": {"android": "https://dc.lft.to/lastmile_qr_scan", "ios": "https://dc.lft.to/lastmile_qr_scan"}, "lat": 38.87466883333333, "is_disabled": 0, "lon": -77.018943}, {"fusion_lat": 0.0, "type": "electric_scooter", "name": "4d58a90947eaa5168d2724a8c4e6d8f1", "fusion_lon": 0.0, "bike_id": "4d58a90947eaa5168d2724a8c4e6d8f1", "is_reserved": 0, "rental_uris": {"android": "https://dc.lft.to/lastmile_qr_scan", "ios": "https://dc.lft.to/lastmile_qr_scan"}, "lat": 38.9527535, "is_disabled": 0, "lon": -77.06978766666667}, {"fusion_lat": 0.0, "type": "electric_scooter", "name": "8990d118656c06b06e8ed3b6f8646e2b", "fusion_lon": 0.0, "bike_id": "8990d118656c06b06e8ed3b6f8646e2b", "is_reserved": 0, "rental_uris": {"android": "https://dc.lft.to/lastmile_qr_scan", "ios": "https://dc.lft.to/lastmile_qr_scan"}, "lat": 38.91637633333333, "is_disabled": 0, "lon": -77.04253833333334}, {"fusion_lat": 0.0, "type": "electric_scooter", "name": "fe3d60b345de9d6446265f7c377961ef", "fusion_lon": 0.0, "bike_id": "fe3d60b345de9d6446265f7c377961ef", "is_reserved": 0, "rental_uris": {"android": "https://dc.lft.to/lastmile_qr_scan", "ios": "https://dc.lft.to/lastmile_qr_scan"}, "lat": 38.8990915, "is_disabled": 0, "lon": -77.039551}, {"fusion_lat": 0.0, "type": "electric_scooter", "name": "0a06afca790d716866281b612015e5c1", "fusion_lon": 0.0, "bike_id": "0a06afca790d716866281b612015e5c1", "is_reserved": 0, "rental_uris": {"android": "https://dc.lft.to/lastmile_qr_scan", "ios": "https://dc.lft.to/lastmile_qr_scan"}, "lat": 38.948672333333334, "is_disabled": 0, "lon": -77.03885933333333}, {"fusion_lat": 0.0, "type": "electric_scooter", "name": "4dffd34d7ce00597568a93c7859ddf92", "fusion_lon": 0.0, "bike_id": "4dffd34d7ce00597568a93c7859ddf92", "is_reserved": 0, "rental_uris": {"android": "https://dc.lft.to/lastmile_qr_scan", "ios": "https://dc.lft.to/lastmile_qr_scan"}, "lat": 38.918155666666664, "is_disabled": 0, "lon": -77.0247685}, {"fusion_lat": 0.0, "type": "electric_scooter", "name": "164e52140899cf267b6b6da03e0b5214", "fusion_lon": 0.0, "bike_id": "164e52140899cf267b6b6da03e0b5214", "is_reserved": 0, "rental_uris": {"android": "https://dc.lft.to/lastmile_qr_scan", "ios": "https://dc.lft.to/lastmile_qr_scan"}, "lat": 38.895759, "is_disabled": 0, "lon": -77.015928}, {"fusion_lat": 0.0, "type": "electric_bike", "name": "0aa363fc690bff96c42a6d37a0860ef9", "fusion_lon": 0.0, "bike_id": "0aa363fc690bff96c42a6d37a0860ef9", "is_reserved": 0, "rental_uris": {"android": "https://dc.lft.to/lastmile_qr_scan", "ios": "https://dc.lft.to/lastmile_qr_scan"}, "lat": 38.9459715, "is_disabled": 0, "lon": -77.00715233333334}, {"fusion_lat": 0.0, "type": "electric_scooter", "name": "8eb9a668dbcf3a818561328f090a7066", "fusion_lon": 0.0, "bike_id": "8eb9a668dbcf3a818561328f090a7066", "is_reserved": 0, "rental_uris": {"android": "https://dc.lft.to/lastmile_qr_scan", "ios": "https://dc.lft.to/lastmile_qr_scan"}, "lat": 38.9235535, "is_disabled": 0, "lon": -77.05276933333333}, {"fusion_lat": 0.0, "type": "electric_bike", "name": "00f0191ed14ab5490348ef860572ec99", "fusion_lon": 0.0, "bike_id": "00f0191ed14ab5490348ef860572ec99", "is_reserved": 0, "rental_uris": {"android": "https://dc.lft.to/lastmile_qr_scan", "ios": "https://dc.lft.to/lastmile_qr_scan"}, "lat": 38.9069085, "is_disabled": 0, "lon": -76.95253366666667}, {"fusion_lat": 0.0, "type": "electric_scooter", "name": "ad729b4b59eaa3c09af533909d008a99", "fusion_lon": 0.0, "bike_id": "ad729b4b59eaa3c09af533909d008a99", "is_reserved": 0, "rental_uris": {"android": "https://dc.lft.to/lastmile_qr_scan", "ios": "https://dc.lft.to/lastmile_qr_scan"}, "lat": 38.90946733333333, "is_disabled": 0, "lon": -77.0321185}, {"fusion_lat": 0.0, "type": "electric_scooter", "name": "f82251fc00ba7f2bd3d9214f48bfe440", "fusion_lon": 0.0, "bike_id": "f82251fc00ba7f2bd3d9214f48bfe440", "is_reserved": 0, "rental_uris": {"android": "https://dc.lft.to/lastmile_qr_scan", "ios": "https://dc.lft.to/lastmile_qr_scan"}, "lat": 38.8879935, "is_disabled": 0, "lon": -76.93356366666667}, {"fusion_lat": 0.0, "type": "electric_scooter", "name": "424083b504201001e9924bd1903e6095", "fusion_lon": 0.0, "bike_id": "424083b504201001e9924bd1903e6095", "is_reserved": 0, "rental_uris": {"android": "https://dc.lft.to/lastmile_qr_scan", "ios": "https://dc.lft.to/lastmile_qr_scan"}, "lat": 38.915521166666664, "is_disabled": 0, "lon": -77.02558983333333}, {"fusion_lat": 0.0, "type": "electric_scooter", "name": "ede43b59b3d27d3c9cb872b616c70ffc", "fusion_lon": 0.0, "bike_id": "ede43b59b3d27d3c9cb872b616c70ffc", "is_reserved": 0, "rental_uris": {"android": "https://dc.lft.to/lastmile_qr_scan", "ios": "https://dc.lft.to/lastmile_qr_scan"}, "lat": 38.91775533333333, "is_disabled": 0, "lon": -77.0321105}, {"fusion_lat": 0.0, "type": "electric_scooter", "name": "5937521305b6bfbd30b622ea3662b236", "fusion_lon": 0.0, "bike_id": "5937521305b6bfbd30b622ea3662b236", "is_reserved": 0, "rental_uris": {"android": "https://dc.lft.to/lastmile_qr_scan", "ios": "https://dc.lft.to/lastmile_qr_scan"}, "lat": 38.909716, "is_disabled": 0, "lon": -77.0347175}, {"fusion_lat": 0.0, "type": "electric_scooter", "name": "b1c0ee42a5d033f911df84c4dc6e646f", "fusion_lon": 0.0, "bike_id": "b1c0ee42a5d033f911df84c4dc6e646f", "is_reserved": 0, "rental_uris": {"android": "https://dc.lft.to/lastmile_qr_scan", "ios": "https://dc.lft.to/lastmile_qr_scan"}, "lat": 38.91806033333334, "is_disabled": 0, "lon": -77.03439433333334}, {"fusion_lat": 0.0, "type": "electric_scooter", "name": "c825307f8108826de4f796cfc5daeac5", "fusion_lon": 0.0, "bike_id": "c825307f8108826de4f796cfc5daeac5", "is_reserved": 0, "rental_uris": {"android": "https://dc.lft.to/lastmile_qr_scan", "ios": "https://dc.lft.to/lastmile_qr_scan"}, "lat": 38.876241666666665, "is_disabled": 0, "lon": -77.00566233333333}, {"fusion_lat": 0.0, "type": "electric_scooter", "name": "5272d4d8ae744ce7fe105215206e8b1f", "fusion_lon": 0.0, "bike_id": "5272d4d8ae744ce7fe105215206e8b1f", "is_reserved": 0, "rental_uris": {"android": "https://dc.lft.to/lastmile_qr_scan", "ios": "https://dc.lft.to/lastmile_qr_scan"}, "lat": 38.9223485, "is_disabled": 0, "lon": -77.03093816666667}, {"fusion_lat": 0.0, "type": "electric_scooter", "name": "c7a2cd6c14df336cf15a707a3daba21e", "fusion_lon": 0.0, "bike_id": "c7a2cd6c14df336cf15a707a3daba21e", "is_reserved": 0, "rental_uris": {"android": "https://dc.lft.to/lastmile_qr_scan", "ios": "https://dc.lft.to/lastmile_qr_scan"}, "lat": 38.835619333333334, "is_disabled": 0, "lon": -76.99498933333334}, {"fusion_lat": 0.0, "type": "electric_scooter", "name": "15420eec5b859e52b76cd0d8a407e904", "fusion_lon": 0.0, "bike_id": "15420eec5b859e52b76cd0d8a407e904", "is_reserved": 0, "rental_uris": {"android": "https://dc.lft.to/lastmile_qr_scan", "ios": "https://dc.lft.to/lastmile_qr_scan"}, "lat": 38.9006505, "is_disabled": 0, "lon": -76.927439}, {"fusion_lat": 0.0, "type": "electric_scooter", "name": "29729cde57cf7d0007fdb8084f2464c7", "fusion_lon": 0.0, "bike_id": "29729cde57cf7d0007fdb8084f2464c7", "is_reserved": 0, "rental_uris": {"android": "https://dc.lft.to/lastmile_qr_scan", "ios": "https://dc.lft.to/lastmile_qr_scan"}, "lat": 38.901197, "is_disabled": 0, "lon": -77.0323825}, {"fusion_lat": 0.0, "type": "electric_scooter", "name": "473ca3612d5eda3ac2eb172a1c9ae241", "fusion_lon": 0.0, "bike_id": "473ca3612d5eda3ac2eb172a1c9ae241", "is_reserved": 0, "rental_uris": {"android": "https://dc.lft.to/lastmile_qr_scan", "ios": "https://dc.lft.to/lastmile_qr_scan"}, "lat": 38.89990383333333, "is_disabled": 0, "lon": -77.04826416666667}, {"fusion_lat": 0.0, "type": "electric_scooter", "name": "8788d93947d6483086e46dd660a6370d", "fusion_lon": 0.0, "bike_id": "8788d93947d6483086e46dd660a6370d", "is_reserved": 0, "rental_uris": {"android": "https://dc.lft.to/lastmile_qr_scan", "ios": "https://dc.lft.to/lastmile_qr_scan"}, "lat": 38.88323533333333, "is_disabled": 0, "lon": -76.99223583333334}, {"fusion_lat": 0.0, "type": "electric_scooter", "name": "a7944db2455d23eac26883d3170f86d1", "fusion_lon": 0.0, "bike_id": "a7944db2455d23eac26883d3170f86d1", "is_reserved": 0, "rental_uris": {"android": "https://dc.lft.to/lastmile_qr_scan", "ios": "https://dc.lft.to/lastmile_qr_scan"}, "lat": 38.93917366666667, "is_disabled": 0, "lon": -77.03268133333333}, {"fusion_lat": 0.0, "type": "electric_scooter", "name": "613874dcfe1f12061dcb2f49a2bc2227", "fusion_lon": 0.0, "bike_id": "613874dcfe1f12061dcb2f49a2bc2227", "is_reserved": 0, "rental_uris": {"android": "https://dc.lft.to/lastmile_qr_scan", "ios": "https://dc.lft.to/lastmile_qr_scan"}, "lat": 38.9097165, "is_disabled": 0, "lon": -77.038688}, {"fusion_lat": 0.0, "type": "electric_scooter", "name": "55656d4f2dd3dbc7be5cc30b654421db", "fusion_lon": 0.0, "bike_id": "55656d4f2dd3dbc7be5cc30b654421db", "is_reserved": 0, "rental_uris": {"android": "https://dc.lft.to/lastmile_qr_scan", "ios": "https://dc.lft.to/lastmile_qr_scan"}, "lat": 38.90656366666666, "is_disabled": 0, "lon": -77.03869833333333}, {"fusion_lat": 0.0, "type": "electric_scooter", "name": "6ac7667c607436b00d9dfbbe47ef3c51", "fusion_lon": 0.0, "bike_id": "6ac7667c607436b00d9dfbbe47ef3c51", "is_reserved": 0, "rental_uris": {"android": "https://dc.lft.to/lastmile_qr_scan", "ios": "https://dc.lft.to/lastmile_qr_scan"}, "lat": 38.921228666666664, "is_disabled": 0, "lon": -77.02538533333333}, {"fusion_lat": 0.0, "type": "electric_scooter", "name": "6288738f99a40cae3ce08cc762e39bae", "fusion_lon": 0.0, "bike_id": "6288738f99a40cae3ce08cc762e39bae", "is_reserved": 0, "rental_uris": {"android": "https://dc.lft.to/lastmile_qr_scan", "ios": "https://dc.lft.to/lastmile_qr_scan"}, "lat": 38.9181755, "is_disabled": 0, "lon": -77.03451966666667}, {"fusion_lat": 0.0, "type": "electric_bike", "name": "892fff3e59d085bfefb4aaabb258053c", "fusion_lon": 0.0, "bike_id": "892fff3e59d085bfefb4aaabb258053c", "is_reserved": 0, "rental_uris": {"android": "https://dc.lft.to/lastmile_qr_scan", "ios": "https://dc.lft.to/lastmile_qr_scan"}, "lat": 38.90326366666667, "is_disabled": 0, "lon": -76.97534316666666}, {"fusion_lat": 0.0, "type": "electric_scooter", "name": "75a01950e22e74b9efa48bbb3813aaa9", "fusion_lon": 0.0, "bike_id": "75a01950e22e74b9efa48bbb3813aaa9", "is_reserved": 0, "rental_uris": {"android": "https://dc.lft.to/lastmile_qr_scan", "ios": "https://dc.lft.to/lastmile_qr_scan"}, "lat": 38.91323466666667, "is_disabled": 0, "lon": -77.04531433333334}, {"fusion_lat": 0.0, "type": "electric_scooter", "name": "561cdad8c16765c4a2aca9586aced6ce", "fusion_lon": 0.0, "bike_id": "561cdad8c16765c4a2aca9586aced6ce", "is_reserved": 0, "rental_uris": {"android": "https://dc.lft.to/lastmile_qr_scan", "ios": "https://dc.lft.to/lastmile_qr_scan"}, "lat": 38.935237, "is_disabled": 0, "lon": -77.072827}, {"fusion_lat": 0.0, "type": "electric_scooter", "name": "8b72511922ab89cd1885ff601dd3b9d3", "fusion_lon": 0.0, "bike_id": "8b72511922ab89cd1885ff601dd3b9d3", "is_reserved": 0, "rental_uris": {"android": "https://dc.lft.to/lastmile_qr_scan", "ios": "https://dc.lft.to/lastmile_qr_scan"}, "lat": 38.919473833333335, "is_disabled": 0, "lon": -76.9808325}, {"fusion_lat": 0.0, "type": "electric_scooter", "name": "664bc29cc576b7201b489328c101a393", "fusion_lon": 0.0, "bike_id": "664bc29cc576b7201b489328c101a393", "is_reserved": 0, "rental_uris": {"android": "https://dc.lft.to/lastmile_qr_scan", "ios": "https://dc.lft.to/lastmile_qr_scan"}, "lat": 38.9085695, "is_disabled": 0, "lon": -77.04252983333333}, {"fusion_lat": 0.0, "type": "electric_scooter", "name": "18f65e76185e96d88980bf1fe172e707", "fusion_lon": 0.0, "bike_id": "18f65e76185e96d88980bf1fe172e707", "is_reserved": 0, "rental_uris": {"android": "https://dc.lft.to/lastmile_qr_scan", "ios": "https://dc.lft.to/lastmile_qr_scan"}, "lat": 38.92235266666667, "is_disabled": 0, "lon": -77.0436555}, {"fusion_lat": 0.0, "type": "electric_scooter", "name": "26c8086d78e29b2ae3b8f83562024bf8", "fusion_lon": 0.0, "bike_id": "26c8086d78e29b2ae3b8f83562024bf8", "is_reserved": 0, "rental_uris": {"android": "https://dc.lft.to/lastmile_qr_scan", "ios": "https://dc.lft.to/lastmile_qr_scan"}, "lat": 38.905419, "is_disabled": 0, "lon": -77.0483615}, {"fusion_lat": 0.0, "type": "electric_bike", "name": "616c6d48b75aff1f866276135600edb7", "fusion_lon": 0.0, "bike_id": "616c6d48b75aff1f866276135600edb7", "is_reserved": 0, "rental_uris": {"android": "https://dc.lft.to/lastmile_qr_scan", "ios": "https://dc.lft.to/lastmile_qr_scan"}, "lat": 38.89650116666667, "is_disabled": 0, "lon": -76.93010516666666}, {"fusion_lat": 0.0, "type": "electric_scooter", "name": "d613b70ce869114055db9e30beb94997", "fusion_lon": 0.0, "bike_id": "d613b70ce869114055db9e30beb94997", "is_reserved": 0, "rental_uris": {"android": "https://dc.lft.to/lastmile_qr_scan", "ios": "https://dc.lft.to/lastmile_qr_scan"}, "lat": 38.901684333333336, "is_disabled": 0, "lon": -76.98059116666667}, {"fusion_lat": 0.0, "type": "electric_scooter", "name": "b57c2ff062e90dd251564d5e725deda0", "fusion_lon": 0.0, "bike_id": "b57c2ff062e90dd251564d5e725deda0", "is_reserved": 0, "rental_uris": {"android": "https://dc.lft.to/lastmile_qr_scan", "ios": "https://dc.lft.to/lastmile_qr_scan"}, "lat": 38.9367315, "is_disabled": 0, "lon": -77.03593933333333}, {"fusion_lat": 0.0, "type": "electric_scooter", "name": "c01c8c5e3f595d3e527ccfdf7d1d0529", "fusion_lon": 0.0, "bike_id": "c01c8c5e3f595d3e527ccfdf7d1d0529", "is_reserved": 0, "rental_uris": {"android": "https://dc.lft.to/lastmile_qr_scan", "ios": "https://dc.lft.to/lastmile_qr_scan"}, "lat": 38.910354166666664, "is_disabled": 0, "lon": -77.03496783333334}, {"fusion_lat": 0.0, "type": "electric_scooter", "name": "fc18fdb8caa63f69d488d67f503d29c4", "fusion_lon": 0.0, "bike_id": "fc18fdb8caa63f69d488d67f503d29c4", "is_reserved": 0, "rental_uris": {"android": "https://dc.lft.to/lastmile_qr_scan", "ios": "https://dc.lft.to/lastmile_qr_scan"}, "lat": 38.89192716666667, "is_disabled": 0, "lon": -76.9886045}, {"fusion_lat": 0.0, "type": "electric_bike", "name": "82ff280c70018d2fc6194b4e318cc956", "fusion_lon": 0.0, "bike_id": "82ff280c70018d2fc6194b4e318cc956", "is_reserved": 0, "rental_uris": {"android": "https://dc.lft.to/lastmile_qr_scan", "ios": "https://dc.lft.to/lastmile_qr_scan"}, "lat": 38.951556333333336, "is_disabled": 0, "lon": -77.01287066666667}, {"fusion_lat": 0.0, "type": "electric_bike", "name": "df1a281229daafaa26844b2622a0becd", "fusion_lon": 0.0, "bike_id": "df1a281229daafaa26844b2622a0becd", "is_reserved": 0, "rental_uris": {"android": "https://dc.lft.to/lastmile_qr_scan", "ios": "https://dc.lft.to/lastmile_qr_scan"}, "lat": 38.983631833333334, "is_disabled": 0, "lon": -76.97218333333333}, {"fusion_lat": 0.0, "type": "electric_scooter", "name": "735a2b81738fa6a74a94a4fa0abbfaab", "fusion_lon": 0.0, "bike_id": "735a2b81738fa6a74a94a4fa0abbfaab", "is_reserved": 0, "rental_uris": {"android": "https://dc.lft.to/lastmile_qr_scan", "ios": "https://dc.lft.to/lastmile_qr_scan"}, "lat": 38.91500166666667, "is_disabled": 0, "lon": -77.00775666666667}, {"fusion_lat": 0.0, "type": "electric_scooter", "name": "da7cfb39015c2e3e4406ee548c508c2c", "fusion_lon": 0.0, "bike_id": "da7cfb39015c2e3e4406ee548c508c2c", "is_reserved": 0, "rental_uris": {"android": "https://dc.lft.to/lastmile_qr_scan", "ios": "https://dc.lft.to/lastmile_qr_scan"}, "lat": 38.879180833333336, "is_disabled": 0, "lon": -77.02135033333333}, {"fusion_lat": 0.0, "type": "electric_scooter", "name": "809885af3e2c81265caf46fdaa18b473", "fusion_lon": 0.0, "bike_id": "809885af3e2c81265caf46fdaa18b473", "is_reserved": 0, "rental_uris": {"android": "https://dc.lft.to/lastmile_qr_scan", "ios": "https://dc.lft.to/lastmile_qr_scan"}, "lat": 38.95744233333333, "is_disabled": 0, "lon": -77.02073233333333}, {"fusion_lat": 0.0, "type": "electric_scooter", "name": "1c1d81138d0332a9f410e7c7703ab8f5", "fusion_lon": 0.0, "bike_id": "1c1d81138d0332a9f410e7c7703ab8f5", "is_reserved": 0, "rental_uris": {"android": "https://dc.lft.to/lastmile_qr_scan", "ios": "https://dc.lft.to/lastmile_qr_scan"}, "lat": 38.899555166666666, "is_disabled": 0, "lon": -76.97538916666667}, {"fusion_lat": 0.0, "type": "electric_bike", "name": "ea7333ca1d92fef31fd6dfe93cf97f33", "fusion_lon": 0.0, "bike_id": "ea7333ca1d92fef31fd6dfe93cf97f33", "is_reserved": 0, "rental_uris": {"android": "https://dc.lft.to/lastmile_qr_scan", "ios": "https://dc.lft.to/lastmile_qr_scan"}, "lat": 38.93207983333333, "is_disabled": 0, "lon": -77.0187775}, {"fusion_lat": 0.0, "type": "electric_bike", "name": "9ca208e483adfd2f0d0a2c6bd01c604e", "fusion_lon": 0.0, "bike_id": "9ca208e483adfd2f0d0a2c6bd01c604e", "is_reserved": 0, "rental_uris": {"android": "https://dc.lft.to/lastmile_qr_scan", "ios": "https://dc.lft.to/lastmile_qr_scan"}, "lat": 38.92338683333333, "is_disabled": 0, "lon": -76.97147033333333}, {"fusion_lat": 0.0, "type": "electric_scooter", "name": "7ec1660c08d661e184eeb06f8d2cec0e", "fusion_lon": 0.0, "bike_id": "7ec1660c08d661e184eeb06f8d2cec0e", "is_reserved": 0, "rental_uris": {"android": "https://dc.lft.to/lastmile_qr_scan", "ios": "https://dc.lft.to/lastmile_qr_scan"}, "lat": 38.91344566666667, "is_disabled": 0, "lon": -77.03183066666666}, {"fusion_lat": 0.0, "type": "electric_scooter", "name": "1930a4d3a9bbbf7054a562d5f324f224", "fusion_lon": 0.0, "bike_id": "1930a4d3a9bbbf7054a562d5f324f224", "is_reserved": 0, "rental_uris": {"android": "https://dc.lft.to/lastmile_qr_scan", "ios": "https://dc.lft.to/lastmile_qr_scan"}, "lat": 38.9238595, "is_disabled": 0, "lon": -77.03657416666667}, {"fusion_lat": 0.0, "type": "electric_scooter", "name": "f1739628b6c085e0590150dddade8435", "fusion_lon": 0.0, "bike_id": "f1739628b6c085e0590150dddade8435", "is_reserved": 0, "rental_uris": {"android": "https://dc.lft.to/lastmile_qr_scan", "ios": "https://dc.lft.to/lastmile_qr_scan"}, "lat": 38.92029933333333, "is_disabled": 0, "lon": -77.04182816666666}, {"fusion_lat": 0.0, "type": "electric_scooter", "name": "f14cea9f22f3587d65ba1e2dbc105078", "fusion_lon": 0.0, "bike_id": "f14cea9f22f3587d65ba1e2dbc105078", "is_reserved": 0, "rental_uris": {"android": "https://dc.lft.to/lastmile_qr_scan", "ios": "https://dc.lft.to/lastmile_qr_scan"}, "lat": 38.93604, "is_disabled": 0, "lon": -77.02919933333334}, {"fusion_lat": 0.0, "type": "electric_scooter", "name": "45699788f1cd3aaa38c5546ca7f15615", "fusion_lon": 0.0, "bike_id": "45699788f1cd3aaa38c5546ca7f15615", "is_reserved": 0, "rental_uris": {"android": "https://dc.lft.to/lastmile_qr_scan", "ios": "https://dc.lft.to/lastmile_qr_scan"}, "lat": 38.924765666666666, "is_disabled": 0, "lon": -77.03493133333333}, {"fusion_lat": 0.0, "type": "electric_scooter", "name": "aa2fe255a1c13aa80012f053090ab076", "fusion_lon": 0.0, "bike_id": "aa2fe255a1c13aa80012f053090ab076", "is_reserved": 0, "rental_uris": {"android": "https://dc.lft.to/lastmile_qr_scan", "ios": "https://dc.lft.to/lastmile_qr_scan"}, "lat": 38.9264615, "is_disabled": 0, "lon": -77.04139766666667}, {"fusion_lat": 0.0, "type": "electric_scooter", "name": "c6260db462b319da0509127ad24521c8", "fusion_lon": 0.0, "bike_id": "c6260db462b319da0509127ad24521c8", "is_reserved": 0, "rental_uris": {"android": "https://dc.lft.to/lastmile_qr_scan", "ios": "https://dc.lft.to/lastmile_qr_scan"}, "lat": 38.83695183333333, "is_disabled": 0, "lon": -77.00572833333334}, {"fusion_lat": 0.0, "type": "electric_scooter", "name": "80276171d2dbfcb71d15b1fe41338217", "fusion_lon": 0.0, "bike_id": "80276171d2dbfcb71d15b1fe41338217", "is_reserved": 0, "rental_uris": {"android": "https://dc.lft.to/lastmile_qr_scan", "ios": "https://dc.lft.to/lastmile_qr_scan"}, "lat": 38.91799366666667, "is_disabled": 0, "lon": -77.0302455}, {"fusion_lat": 0.0, "type": "electric_scooter", "name": "815b3ed7e599b388acc037c385ebe00c", "fusion_lon": 0.0, "bike_id": "815b3ed7e599b388acc037c385ebe00c", "is_reserved": 0, "rental_uris": {"android": "https://dc.lft.to/lastmile_qr_scan", "ios": "https://dc.lft.to/lastmile_qr_scan"}, "lat": 38.92084916666667, "is_disabled": 0, "lon": -77.07362316666666}, {"fusion_lat": 0.0, "type": "electric_scooter", "name": "c7a01c4d4bf8c2aa1299f5bb76710dd3", "fusion_lon": 0.0, "bike_id": "c7a01c4d4bf8c2aa1299f5bb76710dd3", "is_reserved": 0, "rental_uris": {"android": "https://dc.lft.to/lastmile_qr_scan", "ios": "https://dc.lft.to/lastmile_qr_scan"}, "lat": 38.941189666666666, "is_disabled": 0, "lon": -77.0154115}, {"fusion_lat": 0.0, "type": "electric_scooter", "name": "d705175c8bc92e7e4cff3b20817ce51a", "fusion_lon": 0.0, "bike_id": "d705175c8bc92e7e4cff3b20817ce51a", "is_reserved": 0, "rental_uris": {"android": "https://dc.lft.to/lastmile_qr_scan", "ios": "https://dc.lft.to/lastmile_qr_scan"}, "lat": 38.844232, "is_disabled": 0, "lon": -76.997761}, {"fusion_lat": 0.0, "type": "electric_scooter", "name": "7b5c8b7acaf7cfa42ad3c1d143ce4d2c", "fusion_lon": 0.0, "bike_id": "7b5c8b7acaf7cfa42ad3c1d143ce4d2c", "is_reserved": 0, "rental_uris": {"android": "https://dc.lft.to/lastmile_qr_scan", "ios": "https://dc.lft.to/lastmile_qr_scan"}, "lat": 38.934843666666666, "is_disabled": 0, "lon": -77.02424933333333}, {"fusion_lat": 0.0, "type": "electric_scooter", "name": "bd98491a8fe0b8a3713f0fdb701f68ef", "fusion_lon": 0.0, "bike_id": "bd98491a8fe0b8a3713f0fdb701f68ef", "is_reserved": 0, "rental_uris": {"android": "https://dc.lft.to/lastmile_qr_scan", "ios": "https://dc.lft.to/lastmile_qr_scan"}, "lat": 38.90349666666667, "is_disabled": 0, "lon": -77.06111466666667}, {"fusion_lat": 0.0, "type": "electric_bike", "name": "0487c73a581b0deb67ce86477c40aaa2", "fusion_lon": 0.0, "bike_id": "0487c73a581b0deb67ce86477c40aaa2", "is_reserved": 0, "rental_uris": {"android": "https://dc.lft.to/lastmile_qr_scan", "ios": "https://dc.lft.to/lastmile_qr_scan"}, "lat": 38.831585, "is_disabled": 0, "lon": -76.99545033333334}, {"fusion_lat": 0.0, "type": "electric_bike", "name": "c36460feb51d9e687d66c24289103db4", "fusion_lon": 0.0, "bike_id": "c36460feb51d9e687d66c24289103db4", "is_reserved": 0, "rental_uris": {"android": "https://dc.lft.to/lastmile_qr_scan", "ios": "https://dc.lft.to/lastmile_qr_scan"}, "lat": 38.812000833333336, "is_disabled": 0, "lon": -77.1082895}, {"fusion_lat": 0.0, "type": "electric_scooter", "name": "0d1358c157d4b4a980c4ba06c9406894", "fusion_lon": 0.0, "bike_id": "0d1358c157d4b4a980c4ba06c9406894", "is_reserved": 0, "rental_uris": {"android": "https://dc.lft.to/lastmile_qr_scan", "ios": "https://dc.lft.to/lastmile_qr_scan"}, "lat": 38.91674366666667, "is_disabled": 0, "lon": -77.022833}, {"fusion_lat": 0.0, "type": "electric_scooter", "name": "3d84af90f95b6c93bccc59a2ba215946", "fusion_lon": 0.0, "bike_id": "3d84af90f95b6c93bccc59a2ba215946", "is_reserved": 0, "rental_uris": {"android": "https://dc.lft.to/lastmile_qr_scan", "ios": "https://dc.lft.to/lastmile_qr_scan"}, "lat": 38.921393333333334, "is_disabled": 0, "lon": -77.0287525}, {"fusion_lat": 0.0, "type": "electric_scooter", "name": "745fe5fcebc53810ddd2b12135906a9d", "fusion_lon": 0.0, "bike_id": "745fe5fcebc53810ddd2b12135906a9d", "is_reserved": 0, "rental_uris": {"android": "https://dc.lft.to/lastmile_qr_scan", "ios": "https://dc.lft.to/lastmile_qr_scan"}, "lat": 38.92335466666667, "is_disabled": 0, "lon": -77.02118683333333}, {"fusion_lat": 0.0, "type": "electric_scooter", "name": "3bc353c233f98dc43bbc3e4769d61512", "fusion_lon": 0.0, "bike_id": "3bc353c233f98dc43bbc3e4769d61512", "is_reserved": 0, "rental_uris": {"android": "https://dc.lft.to/lastmile_qr_scan", "ios": "https://dc.lft.to/lastmile_qr_scan"}, "lat": 38.88459616666667, "is_disabled": 0, "lon": -76.92621383333334}, {"fusion_lat": 0.0, "type": "electric_scooter", "name": "965ba8fff3de70566f6c8de2595a63f0", "fusion_lon": 0.0, "bike_id": "965ba8fff3de70566f6c8de2595a63f0", "is_reserved": 0, "rental_uris": {"android": "https://dc.lft.to/lastmile_qr_scan", "ios": "https://dc.lft.to/lastmile_qr_scan"}, "lat": 38.934557, "is_disabled": 0, "lon": -77.02214016666667}, {"fusion_lat": 0.0, "type": "electric_bike", "name": "8e2284199e78aaae464da60c1cfd8776", "fusion_lon": 0.0, "bike_id": "8e2284199e78aaae464da60c1cfd8776", "is_reserved": 0, "rental_uris": {"android": "https://dc.lft.to/lastmile_qr_scan", "ios": "https://dc.lft.to/lastmile_qr_scan"}, "lat": 38.96224016666667, "is_disabled": 0, "lon": -77.02630266666667}, {"fusion_lat": 0.0, "type": "electric_bike", "name": "304a1fe2e46dfd8f46ca46257b913d9c", "fusion_lon": 0.0, "bike_id": "304a1fe2e46dfd8f46ca46257b913d9c", "is_reserved": 0, "rental_uris": {"android": "https://dc.lft.to/lastmile_qr_scan", "ios": "https://dc.lft.to/lastmile_qr_scan"}, "lat": 38.93867216666666, "is_disabled": 0, "lon": -76.94292516666667}, {"fusion_lat": 0.0, "type": "electric_scooter", "name": "023d7d0b87c8f6ec705620b77cbbd210", "fusion_lon": 0.0, "bike_id": "023d7d0b87c8f6ec705620b77cbbd210", "is_reserved": 0, "rental_uris": {"android": "https://dc.lft.to/lastmile_qr_scan", "ios": "https://dc.lft.to/lastmile_qr_scan"}, "lat": 38.89730483333334, "is_disabled": 0, "lon": -77.0437205}, {"fusion_lat": 0.0, "type": "electric_scooter", "name": "54bbc456f0e11e0160385e35fe637fa3", "fusion_lon": 0.0, "bike_id": "54bbc456f0e11e0160385e35fe637fa3", "is_reserved": 0, "rental_uris": {"android": "https://dc.lft.to/lastmile_qr_scan", "ios": "https://dc.lft.to/lastmile_qr_scan"}, "lat": 38.89172966666667, "is_disabled": 0, "lon": -76.99029433333334}, {"fusion_lat": 0.0, "type": "electric_scooter", "name": "896f964bfdbe9c1589f38ad97c12e47e", "fusion_lon": 0.0, "bike_id": "896f964bfdbe9c1589f38ad97c12e47e", "is_reserved": 0, "rental_uris": {"android": "https://dc.lft.to/lastmile_qr_scan", "ios": "https://dc.lft.to/lastmile_qr_scan"}, "lat": 38.91101783333333, "is_disabled": 0, "lon": -77.00462883333333}, {"fusion_lat": 0.0, "type": "electric_scooter", "name": "ead733a4fb2bca391d560fcdf440e4cf", "fusion_lon": 0.0, "bike_id": "ead733a4fb2bca391d560fcdf440e4cf", "is_reserved": 0, "rental_uris": {"android": "https://dc.lft.to/lastmile_qr_scan", "ios": "https://dc.lft.to/lastmile_qr_scan"}, "lat": 38.92358133333333, "is_disabled": 0, "lon": -77.0505345}, {"fusion_lat": 0.0, "type": "electric_bike", "name": "899a3952f870496c8a23168a30fe124b", "fusion_lon": 0.0, "bike_id": "899a3952f870496c8a23168a30fe124b", "is_reserved": 0, "rental_uris": {"android": "https://dc.lft.to/lastmile_qr_scan", "ios": "https://dc.lft.to/lastmile_qr_scan"}, "lat": 38.95956, "is_disabled": 0, "lon": -77.10091183333333}, {"fusion_lat": 0.0, "type": "electric_scooter", "name": "f99a50d24bd194983c9dfd81435c498d", "fusion_lon": 0.0, "bike_id": "f99a50d24bd194983c9dfd81435c498d", "is_reserved": 0, "rental_uris": {"android": "https://dc.lft.to/lastmile_qr_scan", "ios": "https://dc.lft.to/lastmile_qr_scan"}, "lat": 38.9334145, "is_disabled": 0, "lon": -77.0412355}, {"fusion_lat": 0.0, "type": "electric_scooter", "name": "91c5a38f7af8b9ac7a5ae8649af900c2", "fusion_lon": 0.0, "bike_id": "91c5a38f7af8b9ac7a5ae8649af900c2", "is_reserved": 0, "rental_uris": {"android": "https://dc.lft.to/lastmile_qr_scan", "ios": "https://dc.lft.to/lastmile_qr_scan"}, "lat": 38.865785333333335, "is_disabled": 0, "lon": -76.98917733333333}, {"fusion_lat": 0.0, "type": "electric_bike", "name": "bbd416872d38d56c484e77bb7639527d", "fusion_lon": 0.0, "bike_id": "bbd416872d38d56c484e77bb7639527d", "is_reserved": 0, "rental_uris": {"android": "https://dc.lft.to/lastmile_qr_scan", "ios": "https://dc.lft.to/lastmile_qr_scan"}, "lat": 39.05633, "is_disabled": 0, "lon": -77.12526883333334}, {"fusion_lat": 0.0, "type": "electric_scooter", "name": "977a14b3159e467d39156664e2218599", "fusion_lon": 0.0, "bike_id": "977a14b3159e467d39156664e2218599", "is_reserved": 0, "rental_uris": {"android": "https://dc.lft.to/lastmile_qr_scan", "ios": "https://dc.lft.to/lastmile_qr_scan"}, "lat": 38.918047, "is_disabled": 0, "lon": -77.03181666666667}, {"fusion_lat": 0.0, "type": "electric_scooter", "name": "8fb7eced4bf5ad5d3d924cbca309aa22", "fusion_lon": 0.0, "bike_id": "8fb7eced4bf5ad5d3d924cbca309aa22", "is_reserved": 0, "rental_uris": {"android": "https://dc.lft.to/lastmile_qr_scan", "ios": "https://dc.lft.to/lastmile_qr_scan"}, "lat": 38.9188525, "is_disabled": 0, "lon": -77.02965066666667}, {"fusion_lat": 0.0, "type": "electric_scooter", "name": "348b3d9a5cee6cd20e857f064d3222a3", "fusion_lon": 0.0, "bike_id": "348b3d9a5cee6cd20e857f064d3222a3", "is_reserved": 0, "rental_uris": {"android": "https://dc.lft.to/lastmile_qr_scan", "ios": "https://dc.lft.to/lastmile_qr_scan"}, "lat": 38.92263033333333, "is_disabled": 0, "lon": -77.036873}, {"fusion_lat": 0.0, "type": "electric_scooter", "name": "b409296432c269869f93c8598c7f0ee6", "fusion_lon": 0.0, "bike_id": "b409296432c269869f93c8598c7f0ee6", "is_reserved": 0, "rental_uris": {"android": "https://dc.lft.to/lastmile_qr_scan", "ios": "https://dc.lft.to/lastmile_qr_scan"}, "lat": 38.9032135, "is_disabled": 0, "lon": -77.033171}, {"fusion_lat": 0.0, "type": "electric_scooter", "name": "09b9a51e1e43c63590400d5fe609cc84", "fusion_lon": 0.0, "bike_id": "09b9a51e1e43c63590400d5fe609cc84", "is_reserved": 0, "rental_uris": {"android": "https://dc.lft.to/lastmile_qr_scan", "ios": "https://dc.lft.to/lastmile_qr_scan"}, "lat": 38.89505533333333, "is_disabled": 0, "lon": -76.93472966666667}, {"fusion_lat": 0.0, "type": "electric_scooter", "name": "8213a15f61f392ed808491240d37d023", "fusion_lon": 0.0, "bike_id": "8213a15f61f392ed808491240d37d023", "is_reserved": 0, "rental_uris": {"android": "https://dc.lft.to/lastmile_qr_scan", "ios": "https://dc.lft.to/lastmile_qr_scan"}, "lat": 38.89170216666667, "is_disabled": 0, "lon": -77.01571233333334}, {"fusion_lat": 0.0, "type": "electric_scooter", "name": "02a613e6c556c73c2662d8e6bf97f814", "fusion_lon": 0.0, "bike_id": "02a613e6c556c73c2662d8e6bf97f814", "is_reserved": 0, "rental_uris": {"android": "https://dc.lft.to/lastmile_qr_scan", "ios": "https://dc.lft.to/lastmile_qr_scan"}, "lat": 38.94509016666667, "is_disabled": 0, "lon": -77.07454316666667}, {"fusion_lat": 0.0, "type": "electric_scooter", "name": "8c28b137920a068e9cb720ece1c6a62e", "fusion_lon": 0.0, "bike_id": "8c28b137920a068e9cb720ece1c6a62e", "is_reserved": 0, "rental_uris": {"android": "https://dc.lft.to/lastmile_qr_scan", "ios": "https://dc.lft.to/lastmile_qr_scan"}, "lat": 38.92062216666667, "is_disabled": 0, "lon": -77.04704283333334}, {"fusion_lat": 0.0, "type": "electric_scooter", "name": "d98ef809f5b6d1f313b72d7dce81f648", "fusion_lon": 0.0, "bike_id": "d98ef809f5b6d1f313b72d7dce81f648", "is_reserved": 0, "rental_uris": {"android": "https://dc.lft.to/lastmile_qr_scan", "ios": "https://dc.lft.to/lastmile_qr_scan"}, "lat": 38.90082366666667, "is_disabled": 0, "lon": -77.05043683333334}, {"fusion_lat": 0.0, "type": "electric_scooter", "name": "baff801e6f8637b05b3459504509d9f3", "fusion_lon": 0.0, "bike_id": "baff801e6f8637b05b3459504509d9f3", "is_reserved": 0, "rental_uris": {"android": "https://dc.lft.to/lastmile_qr_scan", "ios": "https://dc.lft.to/lastmile_qr_scan"}, "lat": 38.843123166666665, "is_disabled": 0, "lon": -76.99932633333333}, {"fusion_lat": 0.0, "type": "electric_scooter", "name": "4c7a1aebfad221805dd14b85b96dd979", "fusion_lon": 0.0, "bike_id": "4c7a1aebfad221805dd14b85b96dd979", "is_reserved": 0, "rental_uris": {"android": "https://dc.lft.to/lastmile_qr_scan", "ios": "https://dc.lft.to/lastmile_qr_scan"}, "lat": 38.881321666666665, "is_disabled": 0, "lon": -77.0166}, {"fusion_lat": 0.0, "type": "electric_scooter", "name": "5bd3a9e0089a75aace0e2d192d6d04fd", "fusion_lon": 0.0, "bike_id": "5bd3a9e0089a75aace0e2d192d6d04fd", "is_reserved": 0, "rental_uris": {"android": "https://dc.lft.to/lastmile_qr_scan", "ios": "https://dc.lft.to/lastmile_qr_scan"}, "lat": 38.882587666666666, "is_disabled": 0, "lon": -76.99012433333333}, {"fusion_lat": 0.0, "type": "electric_scooter", "name": "afd06896adff640ad50242cdf65d251d", "fusion_lon": 0.0, "bike_id": "afd06896adff640ad50242cdf65d251d", "is_reserved": 0, "rental_uris": {"android": "https://dc.lft.to/lastmile_qr_scan", "ios": "https://dc.lft.to/lastmile_qr_scan"}, "lat": 38.91960533333334, "is_disabled": 0, "lon": -77.04308783333333}, {"fusion_lat": 0.0, "type": "electric_scooter", "name": "2450bbdc539cdab2dbd80b80a7665ac4", "fusion_lon": 0.0, "bike_id": "2450bbdc539cdab2dbd80b80a7665ac4", "is_reserved": 0, "rental_uris": {"android": "https://dc.lft.to/lastmile_qr_scan", "ios": "https://dc.lft.to/lastmile_qr_scan"}, "lat": 38.9122585, "is_disabled": 0, "lon": -77.022713}, {"fusion_lat": 0.0, "type": "electric_scooter", "name": "1efd0ee4f21a257a0fe190d10d4bc4c6", "fusion_lon": 0.0, "bike_id": "1efd0ee4f21a257a0fe190d10d4bc4c6", "is_reserved": 0, "rental_uris": {"android": "https://dc.lft.to/lastmile_qr_scan", "ios": "https://dc.lft.to/lastmile_qr_scan"}, "lat": 38.92360216666667, "is_disabled": 0, "lon": -77.05048533333333}, {"fusion_lat": 0.0, "type": "electric_scooter", "name": "fd4fc6632da94c84d28ef85a5fb3deb9", "fusion_lon": 0.0, "bike_id": "fd4fc6632da94c84d28ef85a5fb3deb9", "is_reserved": 0, "rental_uris": {"android": "https://dc.lft.to/lastmile_qr_scan", "ios": "https://dc.lft.to/lastmile_qr_scan"}, "lat": 38.8932355, "is_disabled": 0, "lon": -76.94381933333334}, {"fusion_lat": 0.0, "type": "electric_scooter", "name": "03eb6780fd2cc6ef0c6a3d986bd7e51b", "fusion_lon": 0.0, "bike_id": "03eb6780fd2cc6ef0c6a3d986bd7e51b", "is_reserved": 0, "rental_uris": {"android": "https://dc.lft.to/lastmile_qr_scan", "ios": "https://dc.lft.to/lastmile_qr_scan"}, "lat": 38.898828333333334, "is_disabled": 0, "lon": -76.931754}, {"fusion_lat": 0.0, "type": "electric_scooter", "name": "77420c703e387f48ffce33e23e6122e3", "fusion_lon": 0.0, "bike_id": "77420c703e387f48ffce33e23e6122e3", "is_reserved": 0, "rental_uris": {"android": "https://dc.lft.to/lastmile_qr_scan", "ios": "https://dc.lft.to/lastmile_qr_scan"}, "lat": 38.932411, "is_disabled": 0, "lon": -77.0341365}, {"fusion_lat": 0.0, "type": "electric_bike", "name": "75581de07f91195a10f9ef97982510d3", "fusion_lon": 0.0, "bike_id": "75581de07f91195a10f9ef97982510d3", "is_reserved": 0, "rental_uris": {"android": "https://dc.lft.to/lastmile_qr_scan", "ios": "https://dc.lft.to/lastmile_qr_scan"}, "lat": 38.85412916666667, "is_disabled": 0, "lon": -77.12080183333333}, {"fusion_lat": 0.0, "type": "electric_scooter", "name": "fbc433fe7f2675d7f145b27ffb8cc84a", "fusion_lon": 0.0, "bike_id": "fbc433fe7f2675d7f145b27ffb8cc84a", "is_reserved": 0, "rental_uris": {"android": "https://dc.lft.to/lastmile_qr_scan", "ios": "https://dc.lft.to/lastmile_qr_scan"}, "lat": 38.8874995, "is_disabled": 0, "lon": -77.0087805}, {"fusion_lat": 0.0, "type": "electric_scooter", "name": "2d6d14ee43a60ca7530ec413a837943f", "fusion_lon": 0.0, "bike_id": "2d6d14ee43a60ca7530ec413a837943f", "is_reserved": 0, "rental_uris": {"android": "https://dc.lft.to/lastmile_qr_scan", "ios": "https://dc.lft.to/lastmile_qr_scan"}, "lat": 38.90504683333333, "is_disabled": 0, "lon": -76.9792645}, {"fusion_lat": 0.0, "type": "electric_scooter", "name": "c90b9dce30ef20787f5a237d786b32df", "fusion_lon": 0.0, "bike_id": "c90b9dce30ef20787f5a237d786b32df", "is_reserved": 0, "rental_uris": {"android": "https://dc.lft.to/lastmile_qr_scan", "ios": "https://dc.lft.to/lastmile_qr_scan"}, "lat": 38.90555633333334, "is_disabled": 0, "lon": -76.973945}, {"fusion_lat": 0.0, "type": "electric_scooter", "name": "1dbf257c0d9823f7cc645e53bc2f1468", "fusion_lon": 0.0, "bike_id": "1dbf257c0d9823f7cc645e53bc2f1468", "is_reserved": 0, "rental_uris": {"android": "https://dc.lft.to/lastmile_qr_scan", "ios": "https://dc.lft.to/lastmile_qr_scan"}, "lat": 38.92458366666666, "is_disabled": 0, "lon": -77.0780995}, {"fusion_lat": 0.0, "type": "electric_scooter", "name": "5e8f6c48196ba68094f44720d26dc3b5", "fusion_lon": 0.0, "bike_id": "5e8f6c48196ba68094f44720d26dc3b5", "is_reserved": 0, "rental_uris": {"android": "https://dc.lft.to/lastmile_qr_scan", "ios": "https://dc.lft.to/lastmile_qr_scan"}, "lat": 38.92054783333333, "is_disabled": 0, "lon": -77.03347033333333}, {"fusion_lat": 0.0, "type": "electric_bike", "name": "3cffb711f225d5acdf32ce85dba587cd", "fusion_lon": 0.0, "bike_id": "3cffb711f225d5acdf32ce85dba587cd", "is_reserved": 0, "rental_uris": {"android": "https://dc.lft.to/lastmile_qr_scan", "ios": "https://dc.lft.to/lastmile_qr_scan"}, "lat": 38.89348483333333, "is_disabled": 0, "lon": -77.18739966666666}, {"fusion_lat": 0.0, "type": "electric_scooter", "name": "06308b3badd13e82593dfb0848d83e0a", "fusion_lon": 0.0, "bike_id": "06308b3badd13e82593dfb0848d83e0a", "is_reserved": 0, "rental_uris": {"android": "https://dc.lft.to/lastmile_qr_scan", "ios": "https://dc.lft.to/lastmile_qr_scan"}, "lat": 38.8991485, "is_disabled": 0, "lon": -76.933789}, {"fusion_lat": 0.0, "type": "electric_scooter", "name": "5e0b6a7dc010eaeb475dce3fb62aa443", "fusion_lon": 0.0, "bike_id": "5e0b6a7dc010eaeb475dce3fb62aa443", "is_reserved": 0, "rental_uris": {"android": "https://dc.lft.to/lastmile_qr_scan", "ios": "https://dc.lft.to/lastmile_qr_scan"}, "lat": 38.921663, "is_disabled": 0, "lon": -77.0383935}, {"fusion_lat": 0.0, "type": "electric_scooter", "name": "038aca093978198553ab6d144aa10399", "fusion_lon": 0.0, "bike_id": "038aca093978198553ab6d144aa10399", "is_reserved": 0, "rental_uris": {"android": "https://dc.lft.to/lastmile_qr_scan", "ios": "https://dc.lft.to/lastmile_qr_scan"}, "lat": 38.9026235, "is_disabled": 0, "lon": -77.02653983333333}, {"fusion_lat": 0.0, "type": "electric_scooter", "name": "e85e17d01ffb5039cde2524e08e585b8", "fusion_lon": 0.0, "bike_id": "e85e17d01ffb5039cde2524e08e585b8", "is_reserved": 0, "rental_uris": {"android": "https://dc.lft.to/lastmile_qr_scan", "ios": "https://dc.lft.to/lastmile_qr_scan"}, "lat": 38.911741166666665, "is_disabled": 0, "lon": -77.0492205}, {"fusion_lat": 0.0, "type": "electric_scooter", "name": "b2eeb6781f71109c7c32f6778f382ab8", "fusion_lon": 0.0, "bike_id": "b2eeb6781f71109c7c32f6778f382ab8", "is_reserved": 0, "rental_uris": {"android": "https://dc.lft.to/lastmile_qr_scan", "ios": "https://dc.lft.to/lastmile_qr_scan"}, "lat": 38.90890683333333, "is_disabled": 0, "lon": -77.03221516666666}, {"fusion_lat": 0.0, "type": "electric_scooter", "name": "266dcbdcd335fe77a5cdebd3ca297e1e", "fusion_lon": 0.0, "bike_id": "266dcbdcd335fe77a5cdebd3ca297e1e", "is_reserved": 0, "rental_uris": {"android": "https://dc.lft.to/lastmile_qr_scan", "ios": "https://dc.lft.to/lastmile_qr_scan"}, "lat": 38.860606833333335, "is_disabled": 0, "lon": -76.98424}, {"fusion_lat": 0.0, "type": "electric_scooter", "name": "f0c0b60e0d835382be97a1cd80ea28ed", "fusion_lon": 0.0, "bike_id": "f0c0b60e0d835382be97a1cd80ea28ed", "is_reserved": 0, "rental_uris": {"android": "https://dc.lft.to/lastmile_qr_scan", "ios": "https://dc.lft.to/lastmile_qr_scan"}, "lat": 38.90367533333333, "is_disabled": 0, "lon": -77.01783133333333}, {"fusion_lat": 0.0, "type": "electric_scooter", "name": "9dd2b9b183a6aa524d3fd523dc49f68a", "fusion_lon": 0.0, "bike_id": "9dd2b9b183a6aa524d3fd523dc49f68a", "is_reserved": 0, "rental_uris": {"android": "https://dc.lft.to/lastmile_qr_scan", "ios": "https://dc.lft.to/lastmile_qr_scan"}, "lat": 38.918404833333334, "is_disabled": 0, "lon": -77.02540616666667}, {"fusion_lat": 0.0, "type": "electric_scooter", "name": "d76107eaa2a86c50e5fce4c1399643c6", "fusion_lon": 0.0, "bike_id": "d76107eaa2a86c50e5fce4c1399643c6", "is_reserved": 0, "rental_uris": {"android": "https://dc.lft.to/lastmile_qr_scan", "ios": "https://dc.lft.to/lastmile_qr_scan"}, "lat": 38.8988055, "is_disabled": 0, "lon": -76.93175116666667}, {"fusion_lat": 0.0, "type": "electric_bike", "name": "66f9829646543ecb3559168b9d977830", "fusion_lon": 0.0, "bike_id": "66f9829646543ecb3559168b9d977830", "is_reserved": 0, "rental_uris": {"android": "https://dc.lft.to/lastmile_qr_scan", "ios": "https://dc.lft.to/lastmile_qr_scan"}, "lat": 38.877308, "is_disabled": 0, "lon": -76.98107516666667}, {"fusion_lat": 0.0, "type": "electric_scooter", "name": "ade4c29818e2fe4fb49da3c4ef672df3", "fusion_lon": 0.0, "bike_id": "ade4c29818e2fe4fb49da3c4ef672df3", "is_reserved": 0, "rental_uris": {"android": "https://dc.lft.to/lastmile_qr_scan", "ios": "https://dc.lft.to/lastmile_qr_scan"}, "lat": 38.90208616666666, "is_disabled": 0, "lon": -77.02316733333333}, {"fusion_lat": 0.0, "type": "electric_scooter", "name": "40b2f748b8b9375fbab6c806dad64284", "fusion_lon": 0.0, "bike_id": "40b2f748b8b9375fbab6c806dad64284", "is_reserved": 0, "rental_uris": {"android": "https://dc.lft.to/lastmile_qr_scan", "ios": "https://dc.lft.to/lastmile_qr_scan"}, "lat": 38.87458783333334, "is_disabled": 0, "lon": -77.0095905}, {"fusion_lat": 0.0, "type": "electric_scooter", "name": "81ab9f4af89b39bdfc7f30453cbc0367", "fusion_lon": 0.0, "bike_id": "81ab9f4af89b39bdfc7f30453cbc0367", "is_reserved": 0, "rental_uris": {"android": "https://dc.lft.to/lastmile_qr_scan", "ios": "https://dc.lft.to/lastmile_qr_scan"}, "lat": 38.94894583333333, "is_disabled": 0, "lon": -77.00649466666667}, {"fusion_lat": 0.0, "type": "electric_scooter", "name": "98baa797baaec218a0c3cb6df9ebc5b0", "fusion_lon": 0.0, "bike_id": "98baa797baaec218a0c3cb6df9ebc5b0", "is_reserved": 0, "rental_uris": {"android": "https://dc.lft.to/lastmile_qr_scan", "ios": "https://dc.lft.to/lastmile_qr_scan"}, "lat": 38.89219633333333, "is_disabled": 0, "lon": -77.04681333333333}, {"fusion_lat": 0.0, "type": "electric_scooter", "name": "7b7de5ac00f36668017807a939dfc65b", "fusion_lon": 0.0, "bike_id": "7b7de5ac00f36668017807a939dfc65b", "is_reserved": 0, "rental_uris": {"android": "https://dc.lft.to/lastmile_qr_scan", "ios": "https://dc.lft.to/lastmile_qr_scan"}, "lat": 38.909522833333334, "is_disabled": 0, "lon": -77.02717116666666}, {"fusion_lat": 0.0, "type": "electric_scooter", "name": "155e19db07fdde8dcbff3599eb84fd7f", "fusion_lon": 0.0, "bike_id": "155e19db07fdde8dcbff3599eb84fd7f", "is_reserved": 0, "rental_uris": {"android": "https://dc.lft.to/lastmile_qr_scan", "ios": "https://dc.lft.to/lastmile_qr_scan"}, "lat": 38.93532016666666, "is_disabled": 0, "lon": -77.02349766666667}, {"fusion_lat": 0.0, "type": "electric_scooter", "name": "8b60f2bcacfee8a61740e5f5a6cf0f74", "fusion_lon": 0.0, "bike_id": "8b60f2bcacfee8a61740e5f5a6cf0f74", "is_reserved": 0, "rental_uris": {"android": "https://dc.lft.to/lastmile_qr_scan", "ios": "https://dc.lft.to/lastmile_qr_scan"}, "lat": 38.93458916666667, "is_disabled": 0, "lon": -77.05780516666667}, {"fusion_lat": 0.0, "type": "electric_scooter", "name": "406b99eaaf77185a4d8f455c0f9afc64", "fusion_lon": 0.0, "bike_id": "406b99eaaf77185a4d8f455c0f9afc64", "is_reserved": 0, "rental_uris": {"android": "https://dc.lft.to/lastmile_qr_scan", "ios": "https://dc.lft.to/lastmile_qr_scan"}, "lat": 38.9168145, "is_disabled": 0, "lon": -77.02811533333333}, {"fusion_lat": 0.0, "type": "electric_scooter", "name": "ddc7c641f6405f03aaf9f45b2a4c8dd0", "fusion_lon": 0.0, "bike_id": "ddc7c641f6405f03aaf9f45b2a4c8dd0", "is_reserved": 0, "rental_uris": {"android": "https://dc.lft.to/lastmile_qr_scan", "ios": "https://dc.lft.to/lastmile_qr_scan"}, "lat": 38.9098815, "is_disabled": 0, "lon": -77.00910216666666}, {"fusion_lat": 0.0, "type": "electric_scooter", "name": "66dc4160b63c3fe12562945f68da0676", "fusion_lon": 0.0, "bike_id": "66dc4160b63c3fe12562945f68da0676", "is_reserved": 0, "rental_uris": {"android": "https://dc.lft.to/lastmile_qr_scan", "ios": "https://dc.lft.to/lastmile_qr_scan"}, "lat": 38.89842183333333, "is_disabled": 0, "lon": -76.94641533333333}, {"fusion_lat": 0.0, "type": "electric_scooter", "name": "bb6ded6c9a6820161e75362f18210bfa", "fusion_lon": 0.0, "bike_id": "bb6ded6c9a6820161e75362f18210bfa", "is_reserved": 0, "rental_uris": {"android": "https://dc.lft.to/lastmile_qr_scan", "ios": "https://dc.lft.to/lastmile_qr_scan"}, "lat": 38.92304433333334, "is_disabled": 0, "lon": -77.0446475}, {"fusion_lat": 0.0, "type": "electric_scooter", "name": "c35471ed8be17a44c04dc4fa3b3dc749", "fusion_lon": 0.0, "bike_id": "c35471ed8be17a44c04dc4fa3b3dc749", "is_reserved": 0, "rental_uris": {"android": "https://dc.lft.to/lastmile_qr_scan", "ios": "https://dc.lft.to/lastmile_qr_scan"}, "lat": 38.89776766666667, "is_disabled": 0, "lon": -77.054709}, {"fusion_lat": 0.0, "type": "electric_scooter", "name": "8659764b2f75810329d1b1a2cd223024", "fusion_lon": 0.0, "bike_id": "8659764b2f75810329d1b1a2cd223024", "is_reserved": 0, "rental_uris": {"android": "https://dc.lft.to/lastmile_qr_scan", "ios": "https://dc.lft.to/lastmile_qr_scan"}, "lat": 38.928237833333334, "is_disabled": 0, "lon": -77.0225545}, {"fusion_lat": 0.0, "type": "electric_scooter", "name": "0a9471fa90de0baaa9837704e5995f8b", "fusion_lon": 0.0, "bike_id": "0a9471fa90de0baaa9837704e5995f8b", "is_reserved": 0, "rental_uris": {"android": "https://dc.lft.to/lastmile_qr_scan", "ios": "https://dc.lft.to/lastmile_qr_scan"}, "lat": 38.943913, "is_disabled": 0, "lon": -77.02680633333334}, {"fusion_lat": 0.0, "type": "electric_scooter", "name": "26d17f980b5dba3531dee189ec629e4c", "fusion_lon": 0.0, "bike_id": "26d17f980b5dba3531dee189ec629e4c", "is_reserved": 0, "rental_uris": {"android": "https://dc.lft.to/lastmile_qr_scan", "ios": "https://dc.lft.to/lastmile_qr_scan"}, "lat": 38.86663716666666, "is_disabled": 0, "lon": -76.985002}, {"fusion_lat": 0.0, "type": "electric_scooter", "name": "3be24267b8a0fe661e98f945a04052ed", "fusion_lon": 0.0, "bike_id": "3be24267b8a0fe661e98f945a04052ed", "is_reserved": 0, "rental_uris": {"android": "https://dc.lft.to/lastmile_qr_scan", "ios": "https://dc.lft.to/lastmile_qr_scan"}, "lat": 38.91188616666667, "is_disabled": 0, "lon": -77.02191966666666}, {"fusion_lat": 0.0, "type": "electric_bike", "name": "b174b7269260aa25133f11f638aa1be7", "fusion_lon": 0.0, "bike_id": "b174b7269260aa25133f11f638aa1be7", "is_reserved": 0, "rental_uris": {"android": "https://dc.lft.to/lastmile_qr_scan", "ios": "https://dc.lft.to/lastmile_qr_scan"}, "lat": 38.89613133333334, "is_disabled": 0, "lon": -76.90743383333333}, {"fusion_lat": 0.0, "type": "electric_scooter", "name": "17c706378a88e64d77dc8d379c42e3f4", "fusion_lon": 0.0, "bike_id": "17c706378a88e64d77dc8d379c42e3f4", "is_reserved": 0, "rental_uris": {"android": "https://dc.lft.to/lastmile_qr_scan", "ios": "https://dc.lft.to/lastmile_qr_scan"}, "lat": 38.902444333333335, "is_disabled": 0, "lon": -76.9741195}, {"fusion_lat": 0.0, "type": "electric_scooter", "name": "a7ea9a5b886c7aafd017000950a43cd4", "fusion_lon": 0.0, "bike_id": "a7ea9a5b886c7aafd017000950a43cd4", "is_reserved": 0, "rental_uris": {"android": "https://dc.lft.to/lastmile_qr_scan", "ios": "https://dc.lft.to/lastmile_qr_scan"}, "lat": 38.9123705, "is_disabled": 0, "lon": -77.00912883333334}, {"fusion_lat": 0.0, "type": "electric_scooter", "name": "7d0110028d77c1599be2e1b5710db92a", "fusion_lon": 0.0, "bike_id": "7d0110028d77c1599be2e1b5710db92a", "is_reserved": 0, "rental_uris": {"android": "https://dc.lft.to/lastmile_qr_scan", "ios": "https://dc.lft.to/lastmile_qr_scan"}, "lat": 38.9224865, "is_disabled": 0, "lon": -77.028542}, {"fusion_lat": 0.0, "type": "electric_scooter", "name": "c57f8b8635cfb82684d27cb2e9c157fc", "fusion_lon": 0.0, "bike_id": "c57f8b8635cfb82684d27cb2e9c157fc", "is_reserved": 0, "rental_uris": {"android": "https://dc.lft.to/lastmile_qr_scan", "ios": "https://dc.lft.to/lastmile_qr_scan"}, "lat": 38.90883216666667, "is_disabled": 0, "lon": -77.02355283333333}, {"fusion_lat": 0.0, "type": "electric_scooter", "name": "4d7ff0d4502e34b375d01044161aefcb", "fusion_lon": 0.0, "bike_id": "4d7ff0d4502e34b375d01044161aefcb", "is_reserved": 0, "rental_uris": {"android": "https://dc.lft.to/lastmile_qr_scan", "ios": "https://dc.lft.to/lastmile_qr_scan"}, "lat": 38.874639333333334, "is_disabled": 0, "lon": -77.01587316666667}, {"fusion_lat": 0.0, "type": "electric_scooter", "name": "a9d5c94d9faac748db79394cc62db5ad", "fusion_lon": 0.0, "bike_id": "a9d5c94d9faac748db79394cc62db5ad", "is_reserved": 0, "rental_uris": {"android": "https://dc.lft.to/lastmile_qr_scan", "ios": "https://dc.lft.to/lastmile_qr_scan"}, "lat": 38.928545, "is_disabled": 0, "lon": -77.0308425}, {"fusion_lat": 0.0, "type": "electric_scooter", "name": "f8a3a4d0cca496c933ab0adfa24fc0ba", "fusion_lon": 0.0, "bike_id": "f8a3a4d0cca496c933ab0adfa24fc0ba", "is_reserved": 0, "rental_uris": {"android": "https://dc.lft.to/lastmile_qr_scan", "ios": "https://dc.lft.to/lastmile_qr_scan"}, "lat": 38.91485316666667, "is_disabled": 0, "lon": -77.02583033333333}, {"fusion_lat": 0.0, "type": "electric_scooter", "name": "856f2c1707f48656a2d7d8c69061710f", "fusion_lon": 0.0, "bike_id": "856f2c1707f48656a2d7d8c69061710f", "is_reserved": 0, "rental_uris": {"android": "https://dc.lft.to/lastmile_qr_scan", "ios": "https://dc.lft.to/lastmile_qr_scan"}, "lat": 38.9248105, "is_disabled": 0, "lon": -77.02142966666666}, {"fusion_lat": 0.0, "type": "electric_scooter", "name": "78be31f440cd4e8748b57fc5fb26afae", "fusion_lon": 0.0, "bike_id": "78be31f440cd4e8748b57fc5fb26afae", "is_reserved": 0, "rental_uris": {"android": "https://dc.lft.to/lastmile_qr_scan", "ios": "https://dc.lft.to/lastmile_qr_scan"}, "lat": 38.90746633333333, "is_disabled": 0, "lon": -77.00118916666666}, {"fusion_lat": 0.0, "type": "electric_scooter", "name": "d90fb13ec61a8942201a3c82eb6430bb", "fusion_lon": 0.0, "bike_id": "d90fb13ec61a8942201a3c82eb6430bb", "is_reserved": 0, "rental_uris": {"android": "https://dc.lft.to/lastmile_qr_scan", "ios": "https://dc.lft.to/lastmile_qr_scan"}, "lat": 38.92026233333333, "is_disabled": 0, "lon": -77.01115283333333}, {"fusion_lat": 0.0, "type": "electric_bike", "name": "0fa730c76489d10dc7330390e11f868f", "fusion_lon": 0.0, "bike_id": "0fa730c76489d10dc7330390e11f868f", "is_reserved": 0, "rental_uris": {"android": "https://dc.lft.to/lastmile_qr_scan", "ios": "https://dc.lft.to/lastmile_qr_scan"}, "lat": 38.93400116666667, "is_disabled": 0, "lon": -77.03541016666667}, {"fusion_lat": 0.0, "type": "electric_scooter", "name": "6cc9057de8775665bebf78c4bc6d9bb8", "fusion_lon": 0.0, "bike_id": "6cc9057de8775665bebf78c4bc6d9bb8", "is_reserved": 0, "rental_uris": {"android": "https://dc.lft.to/lastmile_qr_scan", "ios": "https://dc.lft.to/lastmile_qr_scan"}, "lat": 38.928023, "is_disabled": 0, "lon": -77.02477283333333}, {"fusion_lat": 0.0, "type": "electric_scooter", "name": "d125a2e1bc067f7255b16d0866ccdbf9", "fusion_lon": 0.0, "bike_id": "d125a2e1bc067f7255b16d0866ccdbf9", "is_reserved": 0, "rental_uris": {"android": "https://dc.lft.to/lastmile_qr_scan", "ios": "https://dc.lft.to/lastmile_qr_scan"}, "lat": 38.920565833333335, "is_disabled": 0, "lon": -77.03992433333333}, {"fusion_lat": 0.0, "type": "electric_scooter", "name": "27aed3b5471cf0cbf4e01a7e6ba76b7d", "fusion_lon": 0.0, "bike_id": "27aed3b5471cf0cbf4e01a7e6ba76b7d", "is_reserved": 0, "rental_uris": {"android": "https://dc.lft.to/lastmile_qr_scan", "ios": "https://dc.lft.to/lastmile_qr_scan"}, "lat": 38.973685833333334, "is_disabled": 0, "lon": -77.0186555}, {"fusion_lat": 0.0, "type": "electric_scooter", "name": "0a7412ad8f7533f6ddc6c379f17b3d9b", "fusion_lon": 0.0, "bike_id": "0a7412ad8f7533f6ddc6c379f17b3d9b", "is_reserved": 0, "rental_uris": {"android": "https://dc.lft.to/lastmile_qr_scan", "ios": "https://dc.lft.to/lastmile_qr_scan"}, "lat": 38.933347499999996, "is_disabled": 0, "lon": -77.05714316666666}, {"fusion_lat": 0.0, "type": "electric_scooter", "name": "347c4fc5431288ae14b3b7b69c9da70f", "fusion_lon": 0.0, "bike_id": "347c4fc5431288ae14b3b7b69c9da70f", "is_reserved": 0, "rental_uris": {"android": "https://dc.lft.to/lastmile_qr_scan", "ios": "https://dc.lft.to/lastmile_qr_scan"}, "lat": 38.870705666666666, "is_disabled": 0, "lon": -76.98896733333333}, {"fusion_lat": 0.0, "type": "electric_scooter", "name": "6ee92dbd4646857ebefb4709e2f39d35", "fusion_lon": 0.0, "bike_id": "6ee92dbd4646857ebefb4709e2f39d35", "is_reserved": 0, "rental_uris": {"android": "https://dc.lft.to/lastmile_qr_scan", "ios": "https://dc.lft.to/lastmile_qr_scan"}, "lat": 38.90108166666667, "is_disabled": 0, "lon": -77.04351116666666}, {"fusion_lat": 0.0, "type": "electric_bike", "name": "09a628aae875e70ab43efec2651b9a0b", "fusion_lon": 0.0, "bike_id": "09a628aae875e70ab43efec2651b9a0b", "is_reserved": 0, "rental_uris": {"android": "https://dc.lft.to/lastmile_qr_scan", "ios": "https://dc.lft.to/lastmile_qr_scan"}, "lat": 38.936415333333336, "is_disabled": 0, "lon": -77.03691633333334}, {"fusion_lat": 0.0, "type": "electric_scooter", "name": "2d7233aebd47845149df8602bae39336", "fusion_lon": 0.0, "bike_id": "2d7233aebd47845149df8602bae39336", "is_reserved": 0, "rental_uris": {"android": "https://dc.lft.to/lastmile_qr_scan", "ios": "https://dc.lft.to/lastmile_qr_scan"}, "lat": 38.885802166666664, "is_disabled": 0, "lon": -77.0173725}, {"fusion_lat": 0.0, "type": "electric_scooter", "name": "299b075c659a1e9a593c13910543a3d0", "fusion_lon": 0.0, "bike_id": "299b075c659a1e9a593c13910543a3d0", "is_reserved": 0, "rental_uris": {"android": "https://dc.lft.to/lastmile_qr_scan", "ios": "https://dc.lft.to/lastmile_qr_scan"}, "lat": 38.958426, "is_disabled": 0, "lon": -77.06858816666667}, {"fusion_lat": 0.0, "type": "electric_bike", "name": "2ceb9fa1cdf353754d4af0eeab387b70", "fusion_lon": 0.0, "bike_id": "2ceb9fa1cdf353754d4af0eeab387b70", "is_reserved": 0, "rental_uris": {"android": "https://dc.lft.to/lastmile_qr_scan", "ios": "https://dc.lft.to/lastmile_qr_scan"}, "lat": 38.878339833333335, "is_disabled": 0, "lon": -76.98375016666667}, {"fusion_lat": 0.0, "type": "electric_scooter", "name": "685b3d47c0bdbbe72cd9df9fb2a38831", "fusion_lon": 0.0, "bike_id": "685b3d47c0bdbbe72cd9df9fb2a38831", "is_reserved": 0, "rental_uris": {"android": "https://dc.lft.to/lastmile_qr_scan", "ios": "https://dc.lft.to/lastmile_qr_scan"}, "lat": 38.917183, "is_disabled": 0, "lon": -77.032437}, {"fusion_lat": 0.0, "type": "electric_scooter", "name": "dd5e5b723cb7574b85aef7852d967fea", "fusion_lon": 0.0, "bike_id": "dd5e5b723cb7574b85aef7852d967fea", "is_reserved": 0, "rental_uris": {"android": "https://dc.lft.to/lastmile_qr_scan", "ios": "https://dc.lft.to/lastmile_qr_scan"}, "lat": 38.90648483333333, "is_disabled": 0, "lon": -77.00581483333333}, {"fusion_lat": 0.0, "type": "electric_scooter", "name": "472765a39b5a17871ece518792ada21e", "fusion_lon": 0.0, "bike_id": "472765a39b5a17871ece518792ada21e", "is_reserved": 0, "rental_uris": {"android": "https://dc.lft.to/lastmile_qr_scan", "ios": "https://dc.lft.to/lastmile_qr_scan"}, "lat": 38.8704025, "is_disabled": 0, "lon": -77.00969816666667}, {"fusion_lat": 0.0, "type": "electric_bike", "name": "95fbaaf9df7081a8b2a3369b6ccdfe12", "fusion_lon": 0.0, "bike_id": "95fbaaf9df7081a8b2a3369b6ccdfe12", "is_reserved": 0, "rental_uris": {"android": "https://dc.lft.to/lastmile_qr_scan", "ios": "https://dc.lft.to/lastmile_qr_scan"}, "lat": 38.90326833333334, "is_disabled": 0, "lon": -76.97539066666667}, {"fusion_lat": 0.0, "type": "electric_scooter", "name": "d64dfd484bbcb1ea1e26764b21122e8a", "fusion_lon": 0.0, "bike_id": "d64dfd484bbcb1ea1e26764b21122e8a", "is_reserved": 0, "rental_uris": {"android": "https://dc.lft.to/lastmile_qr_scan", "ios": "https://dc.lft.to/lastmile_qr_scan"}, "lat": 38.897975333333335, "is_disabled": 0, "lon": -77.01903683333333}, {"fusion_lat": 0.0, "type": "electric_scooter", "name": "c3080641f92fd989433aae64bbadf4c4", "fusion_lon": 0.0, "bike_id": "c3080641f92fd989433aae64bbadf4c4", "is_reserved": 0, "rental_uris": {"android": "https://dc.lft.to/lastmile_qr_scan", "ios": "https://dc.lft.to/lastmile_qr_scan"}, "lat": 38.917033, "is_disabled": 0, "lon": -77.0417065}, {"fusion_lat": 0.0, "type": "electric_scooter", "name": "3fc3ae389af4ad877bac8d6e61d9cd3e", "fusion_lon": 0.0, "bike_id": "3fc3ae389af4ad877bac8d6e61d9cd3e", "is_reserved": 0, "rental_uris": {"android": "https://dc.lft.to/lastmile_qr_scan", "ios": "https://dc.lft.to/lastmile_qr_scan"}, "lat": 38.93076666666666, "is_disabled": 0, "lon": -77.03482166666667}, {"fusion_lat": 0.0, "type": "electric_scooter", "name": "7230929e5506b5b5973a6990aa40a360", "fusion_lon": 0.0, "bike_id": "7230929e5506b5b5973a6990aa40a360", "is_reserved": 0, "rental_uris": {"android": "https://dc.lft.to/lastmile_qr_scan", "ios": "https://dc.lft.to/lastmile_qr_scan"}, "lat": 38.923978, "is_disabled": 0, "lon": -77.03537533333333}, {"fusion_lat": 0.0, "type": "electric_scooter", "name": "d10451bed2029304a4557077d76781dd", "fusion_lon": 0.0, "bike_id": "d10451bed2029304a4557077d76781dd", "is_reserved": 0, "rental_uris": {"android": "https://dc.lft.to/lastmile_qr_scan", "ios": "https://dc.lft.to/lastmile_qr_scan"}, "lat": 38.909546666666664, "is_disabled": 0, "lon": -77.03211133333333}, {"fusion_lat": 0.0, "type": "electric_bike", "name": "397b1be24ac2fa1e493d5b0cfb346998", "fusion_lon": 0.0, "bike_id": "397b1be24ac2fa1e493d5b0cfb346998", "is_reserved": 0, "rental_uris": {"android": "https://dc.lft.to/lastmile_qr_scan", "ios": "https://dc.lft.to/lastmile_qr_scan"}, "lat": 38.945608666666665, "is_disabled": 0, "lon": -76.966899}, {"fusion_lat": 0.0, "type": "electric_scooter", "name": "fd472e3715814a44a970c21536661b64", "fusion_lon": 0.0, "bike_id": "fd472e3715814a44a970c21536661b64", "is_reserved": 0, "rental_uris": {"android": "https://dc.lft.to/lastmile_qr_scan", "ios": "https://dc.lft.to/lastmile_qr_scan"}, "lat": 38.892196, "is_disabled": 0, "lon": -77.01375566666667}, {"fusion_lat": 0.0, "type": "electric_scooter", "name": "cf1fad116b2a10b555833ef0cf9ab686", "fusion_lon": 0.0, "bike_id": "cf1fad116b2a10b555833ef0cf9ab686", "is_reserved": 0, "rental_uris": {"android": "https://dc.lft.to/lastmile_qr_scan", "ios": "https://dc.lft.to/lastmile_qr_scan"}, "lat": 38.868784166666664, "is_disabled": 0, "lon": -76.98237283333333}, {"fusion_lat": 0.0, "type": "electric_scooter", "name": "2b20f3c901029240c1eae45d8fb29b5f", "fusion_lon": 0.0, "bike_id": "2b20f3c901029240c1eae45d8fb29b5f", "is_reserved": 0, "rental_uris": {"android": "https://dc.lft.to/lastmile_qr_scan", "ios": "https://dc.lft.to/lastmile_qr_scan"}, "lat": 38.909011, "is_disabled": 0, "lon": -77.00470283333334}, {"fusion_lat": 0.0, "type": "electric_scooter", "name": "01e1698baf12ffac4f386847583b9471", "fusion_lon": 0.0, "bike_id": "01e1698baf12ffac4f386847583b9471", "is_reserved": 0, "rental_uris": {"android": "https://dc.lft.to/lastmile_qr_scan", "ios": "https://dc.lft.to/lastmile_qr_scan"}, "lat": 38.92072566666667, "is_disabled": 0, "lon": -77.02394633333333}, {"fusion_lat": 0.0, "type": "electric_scooter", "name": "3b9ca4d7df7a94c6bed7850050b45120", "fusion_lon": 0.0, "bike_id": "3b9ca4d7df7a94c6bed7850050b45120", "is_reserved": 0, "rental_uris": {"android": "https://dc.lft.to/lastmile_qr_scan", "ios": "https://dc.lft.to/lastmile_qr_scan"}, "lat": 38.86698583333333, "is_disabled": 0, "lon": -76.98712066666667}, {"fusion_lat": 0.0, "type": "electric_scooter", "name": "917ea7f413065f82966ef457af9910fe", "fusion_lon": 0.0, "bike_id": "917ea7f413065f82966ef457af9910fe", "is_reserved": 0, "rental_uris": {"android": "https://dc.lft.to/lastmile_qr_scan", "ios": "https://dc.lft.to/lastmile_qr_scan"}, "lat": 38.8431265, "is_disabled": 0, "lon": -76.99935766666667}, {"fusion_lat": 0.0, "type": "electric_scooter", "name": "1a7b9b49fcb27cf29e92a7c01c375606", "fusion_lon": 0.0, "bike_id": "1a7b9b49fcb27cf29e92a7c01c375606", "is_reserved": 0, "rental_uris": {"android": "https://dc.lft.to/lastmile_qr_scan", "ios": "https://dc.lft.to/lastmile_qr_scan"}, "lat": 38.88778633333333, "is_disabled": 0, "lon": -76.955351}, {"fusion_lat": 0.0, "type": "electric_scooter", "name": "cc6ba330c0ac9f9f3edba9be58fa7cfb", "fusion_lon": 0.0, "bike_id": "cc6ba330c0ac9f9f3edba9be58fa7cfb", "is_reserved": 0, "rental_uris": {"android": "https://dc.lft.to/lastmile_qr_scan", "ios": "https://dc.lft.to/lastmile_qr_scan"}, "lat": 38.89971083333333, "is_disabled": 0, "lon": -77.0184065}, {"fusion_lat": 0.0, "type": "electric_scooter", "name": "2f91d29f8fa59c8ff58a42986fbdc78b", "fusion_lon": 0.0, "bike_id": "2f91d29f8fa59c8ff58a42986fbdc78b", "is_reserved": 0, "rental_uris": {"android": "https://dc.lft.to/lastmile_qr_scan", "ios": "https://dc.lft.to/lastmile_qr_scan"}, "lat": 38.892241166666665, "is_disabled": 0, "lon": -77.04335333333333}, {"fusion_lat": 0.0, "type": "electric_bike", "name": "497e696d1e92f938c713c094a5fed9cd", "fusion_lon": 0.0, "bike_id": "497e696d1e92f938c713c094a5fed9cd", "is_reserved": 0, "rental_uris": {"android": "https://dc.lft.to/lastmile_qr_scan", "ios": "https://dc.lft.to/lastmile_qr_scan"}, "lat": 38.88866466666666, "is_disabled": 0, "lon": -77.08167166666667}, {"fusion_lat": 0.0, "type": "electric_scooter", "name": "00a86952aeeff3f8144c645450fe2490", "fusion_lon": 0.0, "bike_id": "00a86952aeeff3f8144c645450fe2490", "is_reserved": 0, "rental_uris": {"android": "https://dc.lft.to/lastmile_qr_scan", "ios": "https://dc.lft.to/lastmile_qr_scan"}, "lat": 38.93463716666667, "is_disabled": 0, "lon": -77.027693}, {"fusion_lat": 0.0, "type": "electric_scooter", "name": "ffb56cbd50f962803562316ed91f76b3", "fusion_lon": 0.0, "bike_id": "ffb56cbd50f962803562316ed91f76b3", "is_reserved": 0, "rental_uris": {"android": "https://dc.lft.to/lastmile_qr_scan", "ios": "https://dc.lft.to/lastmile_qr_scan"}, "lat": 38.92661416666667, "is_disabled": 0, "lon": -77.02329633333333}, {"fusion_lat": 0.0, "type": "electric_scooter", "name": "b46b7b10d309d890acd437035ea6788b", "fusion_lon": 0.0, "bike_id": "b46b7b10d309d890acd437035ea6788b", "is_reserved": 0, "rental_uris": {"android": "https://dc.lft.to/lastmile_qr_scan", "ios": "https://dc.lft.to/lastmile_qr_scan"}, "lat": 38.923668, "is_disabled": 0, "lon": -77.02800133333334}, {"fusion_lat": 0.0, "type": "electric_scooter", "name": "12b410ec5951c3e7072b67f826ef0d5b", "fusion_lon": 0.0, "bike_id": "12b410ec5951c3e7072b67f826ef0d5b", "is_reserved": 0, "rental_uris": {"android": "https://dc.lft.to/lastmile_qr_scan", "ios": "https://dc.lft.to/lastmile_qr_scan"}, "lat": 38.89997566666667, "is_disabled": 0, "lon": -76.99301666666666}, {"fusion_lat": 0.0, "type": "electric_bike", "name": "d727651a415802d1028ccd80a99b3991", "fusion_lon": 0.0, "bike_id": "d727651a415802d1028ccd80a99b3991", "is_reserved": 0, "rental_uris": {"android": "https://dc.lft.to/lastmile_qr_scan", "ios": "https://dc.lft.to/lastmile_qr_scan"}, "lat": 38.96226466666667, "is_disabled": 0, "lon": -77.02633216666666}, {"fusion_lat": 0.0, "type": "electric_scooter", "name": "2aae2be3d2ac684a3a506fb7b950a8a0", "fusion_lon": 0.0, "bike_id": "2aae2be3d2ac684a3a506fb7b950a8a0", "is_reserved": 0, "rental_uris": {"android": "https://dc.lft.to/lastmile_qr_scan", "ios": "https://dc.lft.to/lastmile_qr_scan"}, "lat": 38.937016666666665, "is_disabled": 0, "lon": -77.0610755}, {"fusion_lat": 0.0, "type": "electric_scooter", "name": "779282b68e46ed821d569c43c237790b", "fusion_lon": 0.0, "bike_id": "779282b68e46ed821d569c43c237790b", "is_reserved": 0, "rental_uris": {"android": "https://dc.lft.to/lastmile_qr_scan", "ios": "https://dc.lft.to/lastmile_qr_scan"}, "lat": 38.8973675, "is_disabled": 0, "lon": -77.01315916666667}, {"fusion_lat": 0.0, "type": "electric_scooter", "name": "afa2896937ef64abc1f5161ae298fc3f", "fusion_lon": 0.0, "bike_id": "afa2896937ef64abc1f5161ae298fc3f", "is_reserved": 0, "rental_uris": {"android": "https://dc.lft.to/lastmile_qr_scan", "ios": "https://dc.lft.to/lastmile_qr_scan"}, "lat": 38.888272666666666, "is_disabled": 0, "lon": -76.99370083333334}, {"fusion_lat": 0.0, "type": "electric_scooter", "name": "2775f0916704e4a716d0181aae849069", "fusion_lon": 0.0, "bike_id": "2775f0916704e4a716d0181aae849069", "is_reserved": 0, "rental_uris": {"android": "https://dc.lft.to/lastmile_qr_scan", "ios": "https://dc.lft.to/lastmile_qr_scan"}, "lat": 38.8668665, "is_disabled": 0, "lon": -76.98598666666666}, {"fusion_lat": 0.0, "type": "electric_scooter", "name": "3a21c041dfa34a76ae370bd76f12c59d", "fusion_lon": 0.0, "bike_id": "3a21c041dfa34a76ae370bd76f12c59d", "is_reserved": 0, "rental_uris": {"android": "https://dc.lft.to/lastmile_qr_scan", "ios": "https://dc.lft.to/lastmile_qr_scan"}, "lat": 38.90870966666667, "is_disabled": 0, "lon": -77.042703}, {"fusion_lat": 0.0, "type": "electric_scooter", "name": "da320df3cdf4907b3e0855d348f1df86", "fusion_lon": 0.0, "bike_id": "da320df3cdf4907b3e0855d348f1df86", "is_reserved": 0, "rental_uris": {"android": "https://dc.lft.to/lastmile_qr_scan", "ios": "https://dc.lft.to/lastmile_qr_scan"}, "lat": 38.92744866666666, "is_disabled": 0, "lon": -77.02537316666667}, {"fusion_lat": 0.0, "type": "electric_scooter", "name": "449f186b109c95e6a9876ef3415f825e", "fusion_lon": 0.0, "bike_id": "449f186b109c95e6a9876ef3415f825e", "is_reserved": 0, "rental_uris": {"android": "https://dc.lft.to/lastmile_qr_scan", "ios": "https://dc.lft.to/lastmile_qr_scan"}, "lat": 38.91429, "is_disabled": 0, "lon": -77.03922833333333}, {"fusion_lat": 0.0, "type": "electric_scooter", "name": "071452c8d89e66660571fffb55e5da4c", "fusion_lon": 0.0, "bike_id": "071452c8d89e66660571fffb55e5da4c", "is_reserved": 0, "rental_uris": {"android": "https://dc.lft.to/lastmile_qr_scan", "ios": "https://dc.lft.to/lastmile_qr_scan"}, "lat": 38.92064333333333, "is_disabled": 0, "lon": -77.03465333333334}, {"fusion_lat": 0.0, "type": "electric_scooter", "name": "e251b9b1f2bd59c088048bf024b39d6f", "fusion_lon": 0.0, "bike_id": "e251b9b1f2bd59c088048bf024b39d6f", "is_reserved": 0, "rental_uris": {"android": "https://dc.lft.to/lastmile_qr_scan", "ios": "https://dc.lft.to/lastmile_qr_scan"}, "lat": 38.9249345, "is_disabled": 0, "lon": -77.02437883333333}, {"fusion_lat": 0.0, "type": "electric_scooter", "name": "50fe3d9bab684117cc82712be4576881", "fusion_lon": 0.0, "bike_id": "50fe3d9bab684117cc82712be4576881", "is_reserved": 0, "rental_uris": {"android": "https://dc.lft.to/lastmile_qr_scan", "ios": "https://dc.lft.to/lastmile_qr_scan"}, "lat": 38.924712666666665, "is_disabled": 0, "lon": -77.02834683333333}, {"fusion_lat": 0.0, "type": "electric_scooter", "name": "c817f1182193a5f8683f57848497936e", "fusion_lon": 0.0, "bike_id": "c817f1182193a5f8683f57848497936e", "is_reserved": 0, "rental_uris": {"android": "https://dc.lft.to/lastmile_qr_scan", "ios": "https://dc.lft.to/lastmile_qr_scan"}, "lat": 38.90889116666666, "is_disabled": 0, "lon": -77.00407483333333}, {"fusion_lat": 0.0, "type": "electric_scooter", "name": "3c4432a8673e42164dd2ec481250eec3", "fusion_lon": 0.0, "bike_id": "3c4432a8673e42164dd2ec481250eec3", "is_reserved": 0, "rental_uris": {"android": "https://dc.lft.to/lastmile_qr_scan", "ios": "https://dc.lft.to/lastmile_qr_scan"}, "lat": 38.91587633333333, "is_disabled": 0, "lon": -77.04494766666667}, {"fusion_lat": 0.0, "type": "electric_scooter", "name": "b0b01e25a9fa4ae72f3c643a519e1902", "fusion_lon": 0.0, "bike_id": "b0b01e25a9fa4ae72f3c643a519e1902", "is_reserved": 0, "rental_uris": {"android": "https://dc.lft.to/lastmile_qr_scan", "ios": "https://dc.lft.to/lastmile_qr_scan"}, "lat": 38.8851, "is_disabled": 0, "lon": -77.01616733333333}, {"fusion_lat": 0.0, "type": "electric_scooter", "name": "ca74a961f4cdfea39f6c8122bea1f736", "fusion_lon": 0.0, "bike_id": "ca74a961f4cdfea39f6c8122bea1f736", "is_reserved": 0, "rental_uris": {"android": "https://dc.lft.to/lastmile_qr_scan", "ios": "https://dc.lft.to/lastmile_qr_scan"}, "lat": 38.888708333333334, "is_disabled": 0, "lon": -76.9903475}, {"fusion_lat": 0.0, "type": "electric_scooter", "name": "e41ff53ed5ef3b19a7c7a23814946b5a", "fusion_lon": 0.0, "bike_id": "e41ff53ed5ef3b19a7c7a23814946b5a", "is_reserved": 0, "rental_uris": {"android": "https://dc.lft.to/lastmile_qr_scan", "ios": "https://dc.lft.to/lastmile_qr_scan"}, "lat": 38.88130266666667, "is_disabled": 0, "lon": -77.02626066666667}, {"fusion_lat": 0.0, "type": "electric_scooter", "name": "763f51e524e63f705ae1a4b834794287", "fusion_lon": 0.0, "bike_id": "763f51e524e63f705ae1a4b834794287", "is_reserved": 0, "rental_uris": {"android": "https://dc.lft.to/lastmile_qr_scan", "ios": "https://dc.lft.to/lastmile_qr_scan"}, "lat": 38.951956333333335, "is_disabled": 0, "lon": -77.02739616666666}, {"fusion_lat": 0.0, "type": "electric_scooter", "name": "98bbe8cb1d59d612101632a06c8c0e88", "fusion_lon": 0.0, "bike_id": "98bbe8cb1d59d612101632a06c8c0e88", "is_reserved": 0, "rental_uris": {"android": "https://dc.lft.to/lastmile_qr_scan", "ios": "https://dc.lft.to/lastmile_qr_scan"}, "lat": 38.933651833333336, "is_disabled": 0, "lon": -77.057284}, {"fusion_lat": 0.0, "type": "electric_scooter", "name": "9b50c2c824fc6a7f110f2a98cd904ba9", "fusion_lon": 0.0, "bike_id": "9b50c2c824fc6a7f110f2a98cd904ba9", "is_reserved": 0, "rental_uris": {"android": "https://dc.lft.to/lastmile_qr_scan", "ios": "https://dc.lft.to/lastmile_qr_scan"}, "lat": 38.90571516666667, "is_disabled": 0, "lon": -76.97629766666667}, {"fusion_lat": 0.0, "type": "electric_scooter", "name": "26363fd3a617cb732355fdb1233e2761", "fusion_lon": 0.0, "bike_id": "26363fd3a617cb732355fdb1233e2761", "is_reserved": 0, "rental_uris": {"android": "https://dc.lft.to/lastmile_qr_scan", "ios": "https://dc.lft.to/lastmile_qr_scan"}, "lat": 38.9095425, "is_disabled": 0, "lon": -77.02203033333333}, {"fusion_lat": 0.0, "type": "electric_scooter", "name": "35f1b6c1158df019d350b946182a102e", "fusion_lon": 0.0, "bike_id": "35f1b6c1158df019d350b946182a102e", "is_reserved": 0, "rental_uris": {"android": "https://dc.lft.to/lastmile_qr_scan", "ios": "https://dc.lft.to/lastmile_qr_scan"}, "lat": 38.886685166666666, "is_disabled": 0, "lon": -76.93616016666667}, {"fusion_lat": 0.0, "type": "electric_scooter", "name": "9b5a2b083bb0c8ad6a2f99e2ab0e0029", "fusion_lon": 0.0, "bike_id": "9b5a2b083bb0c8ad6a2f99e2ab0e0029", "is_reserved": 0, "rental_uris": {"android": "https://dc.lft.to/lastmile_qr_scan", "ios": "https://dc.lft.to/lastmile_qr_scan"}, "lat": 38.92670533333333, "is_disabled": 0, "lon": -77.0230205}, {"fusion_lat": 0.0, "type": "electric_scooter", "name": "0328ce68973ce686e2692f0989d928aa", "fusion_lon": 0.0, "bike_id": "0328ce68973ce686e2692f0989d928aa", "is_reserved": 0, "rental_uris": {"android": "https://dc.lft.to/lastmile_qr_scan", "ios": "https://dc.lft.to/lastmile_qr_scan"}, "lat": 38.92903283333333, "is_disabled": 0, "lon": -77.03757033333333}, {"fusion_lat": 0.0, "type": "electric_scooter", "name": "2e7916d14802294165005ddb01e7a47d", "fusion_lon": 0.0, "bike_id": "2e7916d14802294165005ddb01e7a47d", "is_reserved": 0, "rental_uris": {"android": "https://dc.lft.to/lastmile_qr_scan", "ios": "https://dc.lft.to/lastmile_qr_scan"}, "lat": 38.92402633333333, "is_disabled": 0, "lon": -77.0253895}, {"fusion_lat": 0.0, "type": "electric_scooter", "name": "a6733191e7e7f7656432af1659cfb858", "fusion_lon": 0.0, "bike_id": "a6733191e7e7f7656432af1659cfb858", "is_reserved": 0, "rental_uris": {"android": "https://dc.lft.to/lastmile_qr_scan", "ios": "https://dc.lft.to/lastmile_qr_scan"}, "lat": 38.93210166666667, "is_disabled": 0, "lon": -77.02828166666667}, {"fusion_lat": 0.0, "type": "electric_bike", "name": "6f8c1fa5d6e38e995bfb0a7c50ed088f", "fusion_lon": 0.0, "bike_id": "6f8c1fa5d6e38e995bfb0a7c50ed088f", "is_reserved": 0, "rental_uris": {"android": "https://dc.lft.to/lastmile_qr_scan", "ios": "https://dc.lft.to/lastmile_qr_scan"}, "lat": 38.903134666666666, "is_disabled": 0, "lon": -76.91215166666667}, {"fusion_lat": 0.0, "type": "electric_scooter", "name": "aaa81b086c4d2e43760155dd26b60cd4", "fusion_lon": 0.0, "bike_id": "aaa81b086c4d2e43760155dd26b60cd4", "is_reserved": 0, "rental_uris": {"android": "https://dc.lft.to/lastmile_qr_scan", "ios": "https://dc.lft.to/lastmile_qr_scan"}, "lat": 38.939815833333334, "is_disabled": 0, "lon": -77.03267083333333}, {"fusion_lat": 0.0, "type": "electric_scooter", "name": "c51a511b1fe44501b0f8d3d80153d4d7", "fusion_lon": 0.0, "bike_id": "c51a511b1fe44501b0f8d3d80153d4d7", "is_reserved": 0, "rental_uris": {"android": "https://dc.lft.to/lastmile_qr_scan", "ios": "https://dc.lft.to/lastmile_qr_scan"}, "lat": 38.90719283333333, "is_disabled": 0, "lon": -77.03283716666667}, {"fusion_lat": 0.0, "type": "electric_scooter", "name": "13657e003529024970198c207f9b7a7a", "fusion_lon": 0.0, "bike_id": "13657e003529024970198c207f9b7a7a", "is_reserved": 0, "rental_uris": {"android": "https://dc.lft.to/lastmile_qr_scan", "ios": "https://dc.lft.to/lastmile_qr_scan"}, "lat": 38.86697616666667, "is_disabled": 0, "lon": -76.987126}, {"fusion_lat": 0.0, "type": "electric_scooter", "name": "53249c5022e5fa6e05546ded928125e0", "fusion_lon": 0.0, "bike_id": "53249c5022e5fa6e05546ded928125e0", "is_reserved": 0, "rental_uris": {"android": "https://dc.lft.to/lastmile_qr_scan", "ios": "https://dc.lft.to/lastmile_qr_scan"}, "lat": 38.891491333333335, "is_disabled": 0, "lon": -77.00581716666667}, {"fusion_lat": 0.0, "type": "electric_scooter", "name": "9953938e10fe7073ce50dd73549e60a0", "fusion_lon": 0.0, "bike_id": "9953938e10fe7073ce50dd73549e60a0", "is_reserved": 0, "rental_uris": {"android": "https://dc.lft.to/lastmile_qr_scan", "ios": "https://dc.lft.to/lastmile_qr_scan"}, "lat": 38.94416566666666, "is_disabled": 0, "lon": -77.017757}, {"fusion_lat": 0.0, "type": "electric_scooter", "name": "13acb332c07bff41ec384e6a6119bd36", "fusion_lon": 0.0, "bike_id": "13acb332c07bff41ec384e6a6119bd36", "is_reserved": 0, "rental_uris": {"android": "https://dc.lft.to/lastmile_qr_scan", "ios": "https://dc.lft.to/lastmile_qr_scan"}, "lat": 38.86468466666667, "is_disabled": 0, "lon": -76.97743316666667}, {"fusion_lat": 0.0, "type": "electric_scooter", "name": "dd00c49d135a80143e4d0c9d0e5389ba", "fusion_lon": 0.0, "bike_id": "dd00c49d135a80143e4d0c9d0e5389ba", "is_reserved": 0, "rental_uris": {"android": "https://dc.lft.to/lastmile_qr_scan", "ios": "https://dc.lft.to/lastmile_qr_scan"}, "lat": 38.87649233333333, "is_disabled": 0, "lon": -76.96507083333333}, {"fusion_lat": 0.0, "type": "electric_scooter", "name": "a118bed4ad52efb9cb11dba93187e4eb", "fusion_lon": 0.0, "bike_id": "a118bed4ad52efb9cb11dba93187e4eb", "is_reserved": 0, "rental_uris": {"android": "https://dc.lft.to/lastmile_qr_scan", "ios": "https://dc.lft.to/lastmile_qr_scan"}, "lat": 38.91212616666667, "is_disabled": 0, "lon": -77.03463033333334}, {"fusion_lat": 0.0, "type": "electric_scooter", "name": "7fdc84edf9790a74c06aea4a6a69dd35", "fusion_lon": 0.0, "bike_id": "7fdc84edf9790a74c06aea4a6a69dd35", "is_reserved": 0, "rental_uris": {"android": "https://dc.lft.to/lastmile_qr_scan", "ios": "https://dc.lft.to/lastmile_qr_scan"}, "lat": 38.911112, "is_disabled": 0, "lon": -77.03826266666667}, {"fusion_lat": 0.0, "type": "electric_scooter", "name": "8f842d06bc99b393047acb60291136df", "fusion_lon": 0.0, "bike_id": "8f842d06bc99b393047acb60291136df", "is_reserved": 0, "rental_uris": {"android": "https://dc.lft.to/lastmile_qr_scan", "ios": "https://dc.lft.to/lastmile_qr_scan"}, "lat": 38.8747085, "is_disabled": 0, "lon": -77.00518266666667}, {"fusion_lat": 0.0, "type": "electric_scooter", "name": "d8b7397aa605fb34c1fe49ea1371c35b", "fusion_lon": 0.0, "bike_id": "d8b7397aa605fb34c1fe49ea1371c35b", "is_reserved": 0, "rental_uris": {"android": "https://dc.lft.to/lastmile_qr_scan", "ios": "https://dc.lft.to/lastmile_qr_scan"}, "lat": 38.921732166666665, "is_disabled": 0, "lon": -77.04227683333333}, {"fusion_lat": 0.0, "type": "electric_scooter", "name": "4daf15946c75bea435ad0183e6501126", "fusion_lon": 0.0, "bike_id": "4daf15946c75bea435ad0183e6501126", "is_reserved": 0, "rental_uris": {"android": "https://dc.lft.to/lastmile_qr_scan", "ios": "https://dc.lft.to/lastmile_qr_scan"}, "lat": 38.93101633333333, "is_disabled": 0, "lon": -77.0363725}, {"fusion_lat": 0.0, "type": "electric_scooter", "name": "ad1d697b86cd75032599596bd029d11f", "fusion_lon": 0.0, "bike_id": "ad1d697b86cd75032599596bd029d11f", "is_reserved": 0, "rental_uris": {"android": "https://dc.lft.to/lastmile_qr_scan", "ios": "https://dc.lft.to/lastmile_qr_scan"}, "lat": 38.86354933333333, "is_disabled": 0, "lon": -76.99066366666666}, {"fusion_lat": 0.0, "type": "electric_scooter", "name": "e6a89a54d080a4dd9349531b0971423b", "fusion_lon": 0.0, "bike_id": "e6a89a54d080a4dd9349531b0971423b", "is_reserved": 0, "rental_uris": {"android": "https://dc.lft.to/lastmile_qr_scan", "ios": "https://dc.lft.to/lastmile_qr_scan"}, "lat": 38.93757466666667, "is_disabled": 0, "lon": -77.02261666666666}, {"fusion_lat": 0.0, "type": "electric_scooter", "name": "b8bb5917f19b127b12dfd7bb4e386a97", "fusion_lon": 0.0, "bike_id": "b8bb5917f19b127b12dfd7bb4e386a97", "is_reserved": 0, "rental_uris": {"android": "https://dc.lft.to/lastmile_qr_scan", "ios": "https://dc.lft.to/lastmile_qr_scan"}, "lat": 38.912542, "is_disabled": 0, "lon": -77.0446895}, {"fusion_lat": 0.0, "type": "electric_scooter", "name": "1c90d0ea347c9f70d0b77e8d14b6cb90", "fusion_lon": 0.0, "bike_id": "1c90d0ea347c9f70d0b77e8d14b6cb90", "is_reserved": 0, "rental_uris": {"android": "https://dc.lft.to/lastmile_qr_scan", "ios": "https://dc.lft.to/lastmile_qr_scan"}, "lat": 38.9140365, "is_disabled": 0, "lon": -77.038274}, {"fusion_lat": 0.0, "type": "electric_bike", "name": "c2f9018aad00c13d962981e18a0b9a60", "fusion_lon": 0.0, "bike_id": "c2f9018aad00c13d962981e18a0b9a60", "is_reserved": 0, "rental_uris": {"android": "https://dc.lft.to/lastmile_qr_scan", "ios": "https://dc.lft.to/lastmile_qr_scan"}, "lat": 38.85518716666667, "is_disabled": 0, "lon": -76.984314}, {"fusion_lat": 0.0, "type": "electric_scooter", "name": "43efeba09fdc67bef96a9879b3d62543", "fusion_lon": 0.0, "bike_id": "43efeba09fdc67bef96a9879b3d62543", "is_reserved": 0, "rental_uris": {"android": "https://dc.lft.to/lastmile_qr_scan", "ios": "https://dc.lft.to/lastmile_qr_scan"}, "lat": 38.924403, "is_disabled": 0, "lon": -77.04027333333333}, {"fusion_lat": 0.0, "type": "electric_scooter", "name": "598e62bd2e1c357df07b6214006d266f", "fusion_lon": 0.0, "bike_id": "598e62bd2e1c357df07b6214006d266f", "is_reserved": 0, "rental_uris": {"android": "https://dc.lft.to/lastmile_qr_scan", "ios": "https://dc.lft.to/lastmile_qr_scan"}, "lat": 38.89881533333333, "is_disabled": 0, "lon": -77.02573666666666}, {"fusion_lat": 0.0, "type": "electric_scooter", "name": "af1ec91605f757f164c59cdf3d1849f0", "fusion_lon": 0.0, "bike_id": "af1ec91605f757f164c59cdf3d1849f0", "is_reserved": 0, "rental_uris": {"android": "https://dc.lft.to/lastmile_qr_scan", "ios": "https://dc.lft.to/lastmile_qr_scan"}, "lat": 38.9064285, "is_disabled": 0, "lon": -77.01140066666666}, {"fusion_lat": 0.0, "type": "electric_scooter", "name": "739e01defdd5dd032847a47473f54369", "fusion_lon": 0.0, "bike_id": "739e01defdd5dd032847a47473f54369", "is_reserved": 0, "rental_uris": {"android": "https://dc.lft.to/lastmile_qr_scan", "ios": "https://dc.lft.to/lastmile_qr_scan"}, "lat": 38.90270233333333, "is_disabled": 0, "lon": -77.00582416666667}, {"fusion_lat": 0.0, "type": "electric_scooter", "name": "f21529a523409bfce5b8ec0c0659321f", "fusion_lon": 0.0, "bike_id": "f21529a523409bfce5b8ec0c0659321f", "is_reserved": 0, "rental_uris": {"android": "https://dc.lft.to/lastmile_qr_scan", "ios": "https://dc.lft.to/lastmile_qr_scan"}, "lat": 38.9095155, "is_disabled": 0, "lon": -77.02717566666666}, {"fusion_lat": 0.0, "type": "electric_scooter", "name": "3dedec3213a71fdbaecd33b5c09531da", "fusion_lon": 0.0, "bike_id": "3dedec3213a71fdbaecd33b5c09531da", "is_reserved": 0, "rental_uris": {"android": "https://dc.lft.to/lastmile_qr_scan", "ios": "https://dc.lft.to/lastmile_qr_scan"}, "lat": 38.918645833333336, "is_disabled": 0, "lon": -77.04173}, {"fusion_lat": 0.0, "type": "electric_bike", "name": "ff5d9d572f01c8fea53ffc2eb8ce9998", "fusion_lon": 0.0, "bike_id": "ff5d9d572f01c8fea53ffc2eb8ce9998", "is_reserved": 0, "rental_uris": {"android": "https://dc.lft.to/lastmile_qr_scan", "ios": "https://dc.lft.to/lastmile_qr_scan"}, "lat": 38.97704616666667, "is_disabled": 0, "lon": -77.09295816666666}, {"fusion_lat": 0.0, "type": "electric_bike", "name": "38f9a20078633186e9b29041f4add192", "fusion_lon": 0.0, "bike_id": "38f9a20078633186e9b29041f4add192", "is_reserved": 0, "rental_uris": {"android": "https://dc.lft.to/lastmile_qr_scan", "ios": "https://dc.lft.to/lastmile_qr_scan"}, "lat": 38.9117435, "is_disabled": 0, "lon": -77.08813966666666}, {"fusion_lat": 0.0, "type": "electric_bike", "name": "c8f46e7a64429ad8b380385ddf6ff268", "fusion_lon": 0.0, "bike_id": "c8f46e7a64429ad8b380385ddf6ff268", "is_reserved": 0, "rental_uris": {"android": "https://dc.lft.to/lastmile_qr_scan", "ios": "https://dc.lft.to/lastmile_qr_scan"}, "lat": 38.93677683333333, "is_disabled": 0, "lon": -77.0332625}, {"fusion_lat": 0.0, "type": "electric_scooter", "name": "69700da49db2b63323f4c629cf18e732", "fusion_lon": 0.0, "bike_id": "69700da49db2b63323f4c629cf18e732", "is_reserved": 0, "rental_uris": {"android": "https://dc.lft.to/lastmile_qr_scan", "ios": "https://dc.lft.to/lastmile_qr_scan"}, "lat": 38.90030616666667, "is_disabled": 0, "lon": -77.03196933333334}, {"fusion_lat": 0.0, "type": "electric_scooter", "name": "1b73ed1b6cf1b4fcd7075df0bbef818e", "fusion_lon": 0.0, "bike_id": "1b73ed1b6cf1b4fcd7075df0bbef818e", "is_reserved": 0, "rental_uris": {"android": "https://dc.lft.to/lastmile_qr_scan", "ios": "https://dc.lft.to/lastmile_qr_scan"}, "lat": 38.83492366666667, "is_disabled": 0, "lon": -77.0068025}, {"fusion_lat": 0.0, "type": "electric_bike", "name": "d09c4ae65522392a4fa3094c90069da7", "fusion_lon": 0.0, "bike_id": "d09c4ae65522392a4fa3094c90069da7", "is_reserved": 0, "rental_uris": {"android": "https://dc.lft.to/lastmile_qr_scan", "ios": "https://dc.lft.to/lastmile_qr_scan"}, "lat": 38.84268466666666, "is_disabled": 0, "lon": -76.9883915}, {"fusion_lat": 0.0, "type": "electric_scooter", "name": "a6e3355358998153341994f9f8541346", "fusion_lon": 0.0, "bike_id": "a6e3355358998153341994f9f8541346", "is_reserved": 0, "rental_uris": {"android": "https://dc.lft.to/lastmile_qr_scan", "ios": "https://dc.lft.to/lastmile_qr_scan"}, "lat": 38.89485216666667, "is_disabled": 0, "lon": -77.010795}, {"fusion_lat": 0.0, "type": "electric_scooter", "name": "728ffafb0c1737a0f3382be5eec8a1be", "fusion_lon": 0.0, "bike_id": "728ffafb0c1737a0f3382be5eec8a1be", "is_reserved": 0, "rental_uris": {"android": "https://dc.lft.to/lastmile_qr_scan", "ios": "https://dc.lft.to/lastmile_qr_scan"}, "lat": 38.890172, "is_disabled": 0, "lon": -76.93732133333333}, {"fusion_lat": 0.0, "type": "electric_scooter", "name": "6cd3ccf6c3833c5714dcb087d8a6afe6", "fusion_lon": 0.0, "bike_id": "6cd3ccf6c3833c5714dcb087d8a6afe6", "is_reserved": 0, "rental_uris": {"android": "https://dc.lft.to/lastmile_qr_scan", "ios": "https://dc.lft.to/lastmile_qr_scan"}, "lat": 38.8767515, "is_disabled": 0, "lon": -77.00728833333334}, {"fusion_lat": 0.0, "type": "electric_scooter", "name": "e21a5a9ecda2f3e9e479a0b7a7d448fe", "fusion_lon": 0.0, "bike_id": "e21a5a9ecda2f3e9e479a0b7a7d448fe", "is_reserved": 0, "rental_uris": {"android": "https://dc.lft.to/lastmile_qr_scan", "ios": "https://dc.lft.to/lastmile_qr_scan"}, "lat": 38.920385333333336, "is_disabled": 0, "lon": -77.03637583333334}, {"fusion_lat": 0.0, "type": "electric_scooter", "name": "d9a6fe677318793a229ccc4cae7febc4", "fusion_lon": 0.0, "bike_id": "d9a6fe677318793a229ccc4cae7febc4", "is_reserved": 0, "rental_uris": {"android": "https://dc.lft.to/lastmile_qr_scan", "ios": "https://dc.lft.to/lastmile_qr_scan"}, "lat": 38.89849783333333, "is_disabled": 0, "lon": -76.99033633333333},