{"data": {"bikes": [{"name": "b66040e6a38b2a3f55f9bf719a9572e5", "fusion_lat": 0.0, "type": "electric_scooter", "lat": 38.909811166666664, "is_reserved": 0, "is_disabled": 0, "fusion_lon": 0.0, "bike_id": "b66040e6a38b2a3f55f9bf719a9572e5", "lon": -77.06710683333333, "rental_uris": {"ios": "https://dc.lft.to/lastmile_qr_scan", "android": "https://dc.lft.to/lastmile_qr_scan"}}, {"name": "8a4a9180307f7f19ea8ce8730f7bfd27", "fusion_lat": 0.0, "type": "electric_scooter", "lat": 38.88901166666667, "is_reserved": 0, "is_disabled": 0, "fusion_lon": 0.0, "bike_id": "8a4a9180307f7f19ea8ce8730f7bfd27", "lon": -77.03285816666667, "rental_uris": {"ios": "https://dc.lft.to/lastmile_qr_scan", "android": "https://dc.lft.to/lastmile_qr_scan"}}, {"name": "458411f2db383b33185bef93a76837bd", "fusion_lat": 0.0, "type": "electric_scooter", "lat": 38.91121233333333, "is_reserved": 0, "is_disabled": 0, "fusion_lon": 0.0, "bike_id": "458411f2db383b33185bef93a76837bd", "lon": -77.03840533333333, "rental_uris": {"ios": "https://dc.lft.to/lastmile_qr_scan", "android": "https://dc.lft.to/lastmile_qr_scan"}}, {"name": "5e2a63e7c7b9b85fcbc2105d367ceaf1", "fusion_lat": 0.0, "type": "electric_scooter", "lat": 38.874210166666664, "is_reserved": 0, "is_disabled": 0, "fusion_lon": 0.0, "bike_id": "5e2a63e7c7b9b85fcbc2105d367ceaf1", "lon": -76.9609225, "rental_uris": {"ios": "https://dc.lft.to/lastmile_qr_scan", "android": "https://dc.lft.to/lastmile_qr_scan"}}, {"name": "0c7b77cc7f742daace31db7c84920535", "fusion_lat": 0.0, "type": "electric_scooter", "lat": 38.8966655, "is_reserved": 0, "is_disabled": 0, "fusion_lon": 0.0, "bike_id": "0c7b77cc7f742daace31db7c84920535", "lon": -76.94857933333333, "rental_uris": {"ios": "https://dc.lft.to/lastmile_qr_scan", "android": "https://dc.lft.to/lastmile_qr_scan"}}, {"name": "cf6332d26ea9b597b0349fbc5bcbb88c", "fusion_lat": 0.0, "type": "electric_scooter", "lat": 38.909083, "is_reserved": 0, "is_disabled": 0, "fusion_lon": 0.0, "bike_id": "cf6332d26ea9b597b0349fbc5bcbb88c", "lon": -77.03833016666667, "rental_uris": {"ios": "https://dc.lft.to/lastmile_qr_scan", "android": "https://dc.lft.to/lastmile_qr_scan"}}, {"name": "4455c13c0f13d1b2ff2c998dce4721a8", "fusion_lat": 0.0, "type": "electric_scooter", "lat": 38.918307, "is_reserved": 0, "is_disabled": 0, "fusion_lon": 0.0, "bike_id": "4455c13c0f13d1b2ff2c998dce4721a8", "lon": -77.0227185, "rental_uris": {"ios": "https://dc.lft.to/lastmile_qr_scan", "android": "https://dc.lft.to/lastmile_qr_scan"}}, {"name": "f46498b6301d9e01b32877a131fae799", "fusion_lat": 0.0, "type": "electric_scooter", "lat": 38.91871, "is_reserved": 0, "is_disabled": 0, "fusion_lon": 0.0, "bike_id": "f46498b6301d9e01b32877a131fae799", "lon": -77.02305216666667, "rental_uris": {"ios": "https://dc.lft.to/lastmile_qr_scan", "android": "https://dc.lft.to/lastmile_qr_scan"}}, {"name": "6d837dd787fcf5d6a109e9ad39fbd774", "fusion_lat": 0.0, "type": "electric_scooter", "lat": 38.903165, "is_reserved": 0, "is_disabled": 0, "fusion_lon": 0.0, "bike_id": "6d837dd787fcf5d6a109e9ad39fbd774", "lon": -76.991612, "rental_uris": {"ios": "https://dc.lft.to/lastmile_qr_scan", "android": "https://dc.lft.to/lastmile_qr_scan"}}, {"name": "958bfcd12ab1c0bfcd452bde0e3d1ce6", "fusion_lat": 0.0, "type": "electric_scooter", "lat": 38.942932166666665, "is_reserved": 0, "is_disabled": 0, "fusion_lon": 0.0, "bike_id": "958bfcd12ab1c0bfcd452bde0e3d1ce6", "lon": -77.02170583333333, "rental_uris": {"ios": "https://dc.lft.to/lastmile_qr_scan", "android": "https://dc.lft.to/lastmile_qr_scan"}}, {"name": "7d668969f2bd3c8abe7e3748a9f3fa27", "fusion_lat": 0.0, "type": "electric_bike", "lat": 38.81513, "is_reserved": 0, "is_disabled": 0, "fusion_lon": 0.0, "bike_id": "7d668969f2bd3c8abe7e3748a9f3fa27", "lon": -77.1265295, "rental_uris": {"ios": "https://dc.lft.to/lastmile_qr_scan", "android": "https://dc.lft.to/lastmile_qr_scan"}}, {"name": "8b43711799e938bd8d148feab6b45931", "fusion_lat": 0.0, "type": "electric_scooter", "lat": 38.86209083333333, "is_reserved": 0, "is_disabled": 0, "fusion_lon": 0.0, "bike_id": "8b43711799e938bd8d148feab6b45931", "lon": -76.99470483333333, "rental_uris": {"ios": "https://dc.lft.to/lastmile_qr_scan", "android": "https://dc.lft.to/lastmile_qr_scan"}}, {"name": "f536ce591fa2b92d5d2151b32cb8c181", "fusion_lat": 0.0, "type": "electric_scooter", "lat": 38.90968766666667, "is_reserved": 0, "is_disabled": 0, "fusion_lon": 0.0, "bike_id": "f536ce591fa2b92d5d2151b32cb8c181", "lon": -77.02681, "rental_uris": {"ios": "https://dc.lft.to/lastmile_qr_scan", "android": "https://dc.lft.to/lastmile_qr_scan"}}, {"name": "3fed385334a15b514a8cc99ac5eb88d5", "fusion_lat": 0.0, "type": "electric_scooter", "lat": 38.911902, "is_reserved": 0, "is_disabled": 0, "fusion_lon": 0.0, "bike_id": "3fed385334a15b514a8cc99ac5eb88d5", "lon": -77.03259233333333, "rental_uris": {"ios": "https://dc.lft.to/lastmile_qr_scan", "android": "https://dc.lft.to/lastmile_qr_scan"}}, {"name": "174aa8310e4e2ee7aeb46aeeffedc1f3", "fusion_lat": 0.0, "type": "electric_scooter", "lat": 38.919271333333334, "is_reserved": 0, "is_disabled": 0, "fusion_lon": 0.0, "bike_id": "174aa8310e4e2ee7aeb46aeeffedc1f3", "lon": -77.0310795, "rental_uris": {"ios": "https://dc.lft.to/lastmile_qr_scan", "android": "https://dc.lft.to/lastmile_qr_scan"}}, {"name": "8193bc051f8939cc2c55778475cf43c4", "fusion_lat": 0.0, "type": "electric_scooter", "lat": 38.913508, "is_reserved": 0, "is_disabled": 0, "fusion_lon": 0.0, "bike_id": "8193bc051f8939cc2c55778475cf43c4", "lon": -77.04237466666666, "rental_uris": {"ios": "https://dc.lft.to/lastmile_qr_scan", "android": "https://dc.lft.to/lastmile_qr_scan"}}, {"name": "7c4eea70c5c8a93873923af8ecaeb04e", "fusion_lat": 0.0, "type": "electric_scooter", "lat": 38.907279833333334, "is_reserved": 0, "is_disabled": 0, "fusion_lon": 0.0, "bike_id": "7c4eea70c5c8a93873923af8ecaeb04e", "lon": -77.03193516666667, "rental_uris": {"ios": "https://dc.lft.to/lastmile_qr_scan", "android": "https://dc.lft.to/lastmile_qr_scan"}}, {"name": "a73374e4ce86b41ef84542ba0e3c15e6", "fusion_lat": 0.0, "type": "electric_scooter", "lat": 38.92705733333333, "is_reserved": 0, "is_disabled": 0, "fusion_lon": 0.0, "bike_id": "a73374e4ce86b41ef84542ba0e3c15e6", "lon": -77.03728633333333, "rental_uris": {"ios": "https://dc.lft.to/lastmile_qr_scan", "android": "https://dc.lft.to/lastmile_qr_scan"}}, {"name": "56f92e5783867c58e3a1fc4d17e30efb", "fusion_lat": 0.0, "type": "electric_scooter", "lat": 38.895549, "is_reserved": 0, "is_disabled": 0, "fusion_lon": 0.0, "bike_id": "56f92e5783867c58e3a1fc4d17e30efb", "lon": -76.94877266666667, "rental_uris": {"ios": "https://dc.lft.to/lastmile_qr_scan", "android": "https://dc.lft.to/lastmile_qr_scan"}}, {"name": "c69962434bab9e2666388d8be0a21686", "fusion_lat": 0.0, "type": "electric_scooter", "lat": 38.898875333333336, "is_reserved": 0, "is_disabled": 0, "fusion_lon": 0.0, "bike_id": "c69962434bab9e2666388d8be0a21686", "lon": -77.01501, "rental_uris": {"ios": "https://dc.lft.to/lastmile_qr_scan", "android": "https://dc.lft.to/lastmile_qr_scan"}}, {"name": "93b3ddeb510b0e3337c8528e0b5cb9fe", "fusion_lat": 0.0, "type": "electric_scooter", "lat": 38.90233716666667, "is_reserved": 0, "is_disabled": 0, "fusion_lon": 0.0, "bike_id": "93b3ddeb510b0e3337c8528e0b5cb9fe", "lon": -77.053427, "rental_uris": {"ios": "https://dc.lft.to/lastmile_qr_scan", "android": "https://dc.lft.to/lastmile_qr_scan"}}, {"name": "5afde62150f4ac5dfb8982ac519b0cf4", "fusion_lat": 0.0, "type": "electric_scooter", "lat": 38.911251166666666, "is_reserved": 0, "is_disabled": 0, "fusion_lon": 0.0, "bike_id": "5afde62150f4ac5dfb8982ac519b0cf4", "lon": -77.03738683333333, "rental_uris": {"ios": "https://dc.lft.to/lastmile_qr_scan", "android": "https://dc.lft.to/lastmile_qr_scan"}}, {"name": "e7d8e6a7402657852c5faf1c05761c86", "fusion_lat": 0.0, "type": "electric_bike", "lat": 38.9436315, "is_reserved": 0, "is_disabled": 0, "fusion_lon": 0.0, "bike_id": "e7d8e6a7402657852c5faf1c05761c86", "lon": -77.00345, "rental_uris": {"ios": "https://dc.lft.to/lastmile_qr_scan", "android": "https://dc.lft.to/lastmile_qr_scan"}}, {"name": "7e0aa8d63522d636771c3e5ec02bc8b2", "fusion_lat": 0.0, "type": "electric_scooter", "lat": 38.904657666666665, "is_reserved": 0, "is_disabled": 0, "fusion_lon": 0.0, "bike_id": "7e0aa8d63522d636771c3e5ec02bc8b2", "lon": -76.982477, "rental_uris": {"ios": "https://dc.lft.to/lastmile_qr_scan", "android": "https://dc.lft.to/lastmile_qr_scan"}}, {"name": "fc471c6839c83d3bc98f0755d38375c2", "fusion_lat": 0.0, "type": "electric_scooter", "lat": 38.90652816666667, "is_reserved": 0, "is_disabled": 0, "fusion_lon": 0.0, "bike_id": "fc471c6839c83d3bc98f0755d38375c2", "lon": -77.05315116666667, "rental_uris": {"ios": "https://dc.lft.to/lastmile_qr_scan", "android": "https://dc.lft.to/lastmile_qr_scan"}}, {"name": "9c437584018d3cba113893e526c9d952", "fusion_lat": 0.0, "type": "electric_scooter", "lat": 38.9034355, "is_reserved": 0, "is_disabled": 0, "fusion_lon": 0.0, "bike_id": "9c437584018d3cba113893e526c9d952", "lon": -76.946663, "rental_uris": {"ios": "https://dc.lft.to/lastmile_qr_scan", "android": "https://dc.lft.to/lastmile_qr_scan"}}, {"name": "64fd97e4bcc22c05aad11a4e2dd71ea0", "fusion_lat": 0.0, "type": "electric_scooter", "lat": 38.901535833333334, "is_reserved": 0, "is_disabled": 0, "fusion_lon": 0.0, "bike_id": "64fd97e4bcc22c05aad11a4e2dd71ea0", "lon": -77.03976833333333, "rental_uris": {"ios": "https://dc.lft.to/lastmile_qr_scan", "android": "https://dc.lft.to/lastmile_qr_scan"}}, {"name": "57ef4822257b54e657c5eda03ea6d60c", "fusion_lat": 0.0, "type": "electric_scooter", "lat": 38.90739883333333, "is_reserved": 0, "is_disabled": 0, "fusion_lon": 0.0, "bike_id": "57ef4822257b54e657c5eda03ea6d60c", "lon": -77.03450183333334, "rental_uris": {"ios": "https://dc.lft.to/lastmile_qr_scan", "android": "https://dc.lft.to/lastmile_qr_scan"}}, {"name": "8637faf0c61746eec3bf8c9d7a19f883", "fusion_lat": 0.0, "type": "electric_scooter", "lat": 38.901342, "is_reserved": 0, "is_disabled": 0, "fusion_lon": 0.0, "bike_id": "8637faf0c61746eec3bf8c9d7a19f883", "lon": -77.04481033333333, "rental_uris": {"ios": "https://dc.lft.to/lastmile_qr_scan", "android": "https://dc.lft.to/lastmile_qr_scan"}}, {"name": "ac0be979a2878b334eaaf3474441b1ff", "fusion_lat": 0.0, "type": "electric_scooter", "lat": 38.9085405, "is_reserved": 0, "is_disabled": 0, "fusion_lon": 0.0, "bike_id": "ac0be979a2878b334eaaf3474441b1ff", "lon": -77.031894, "rental_uris": {"ios": "https://dc.lft.to/lastmile_qr_scan", "android": "https://dc.lft.to/lastmile_qr_scan"}}, {"name": "43a349cb64cf64dcff05c6021776d293", "fusion_lat": 0.0, "type": "electric_bike", "lat": 38.9923165, "is_reserved": 0, "is_disabled": 0, "fusion_lon": 0.0, "bike_id": "43a349cb64cf64dcff05c6021776d293", "lon": -76.878125, "rental_uris": {"ios": "https://dc.lft.to/lastmile_qr_scan", "android": "https://dc.lft.to/lastmile_qr_scan"}}, {"name": "a1b9cfc93f7ded95c7c5276f492515e2", "fusion_lat": 0.0, "type": "electric_scooter", "lat": 38.87376966666667, "is_reserved": 0, "is_disabled": 0, "fusion_lon": 0.0, "bike_id": "a1b9cfc93f7ded95c7c5276f492515e2", "lon": -77.00036066666667, "rental_uris": {"ios": "https://dc.lft.to/lastmile_qr_scan", "android": "https://dc.lft.to/lastmile_qr_scan"}}, {"name": "3c1aad9fb4ac0ef4dbf8fdaed10656f9", "fusion_lat": 0.0, "type": "electric_scooter", "lat": 38.886547, "is_reserved": 0, "is_disabled": 0, "fusion_lon": 0.0, "bike_id": "3c1aad9fb4ac0ef4dbf8fdaed10656f9", "lon": -77.001187, "rental_uris": {"ios": "https://dc.lft.to/lastmile_qr_scan", "android": "https://dc.lft.to/lastmile_qr_scan"}}, {"name": "4559c55b088b45da4f892309107d32a6", "fusion_lat": 0.0, "type": "electric_bike", "lat": 38.9062575, "is_reserved": 0, "is_disabled": 0, "fusion_lon": 0.0, "bike_id": "4559c55b088b45da4f892309107d32a6", "lon": -76.98606516666666, "rental_uris": {"ios": "https://dc.lft.to/lastmile_qr_scan", "android": "https://dc.lft.to/lastmile_qr_scan"}}, {"name": "1578ff12e0db37ebf86f939ec7ca00f8", "fusion_lat": 0.0, "type": "electric_scooter", "lat": 38.924921499999996, "is_reserved": 0, "is_disabled": 0, "fusion_lon": 0.0, "bike_id": "1578ff12e0db37ebf86f939ec7ca00f8", "lon": -77.052131, "rental_uris": {"ios": "https://dc.lft.to/lastmile_qr_scan", "android": "https://dc.lft.to/lastmile_qr_scan"}}, {"name": "be73fd772c2abbeba27f49eb1566642d", "fusion_lat": 0.0, "type": "electric_scooter", "lat": 38.90519183333333, "is_reserved": 0, "is_disabled": 0, "fusion_lon": 0.0, "bike_id": "be73fd772c2abbeba27f49eb1566642d", "lon": -77.02955383333334, "rental_uris": {"ios": "https://dc.lft.to/lastmile_qr_scan", "android": "https://dc.lft.to/lastmile_qr_scan"}}, {"name": "93aeec3977f1a5dd566f3aae8ec2909d", "fusion_lat": 0.0, "type": "electric_scooter", "lat": 38.91729816666667, "is_reserved": 0, "is_disabled": 0, "fusion_lon": 0.0, "bike_id": "93aeec3977f1a5dd566f3aae8ec2909d", "lon": -77.000189, "rental_uris": {"ios": "https://dc.lft.to/lastmile_qr_scan", "android": "https://dc.lft.to/lastmile_qr_scan"}}, {"name": "0ffb8713a080e66d5b791242e52867c0", "fusion_lat": 0.0, "type": "electric_scooter", "lat": 38.902254166666665, "is_reserved": 0, "is_disabled": 0, "fusion_lon": 0.0, "bike_id": "0ffb8713a080e66d5b791242e52867c0", "lon": -77.02378466666667, "rental_uris": {"ios": "https://dc.lft.to/lastmile_qr_scan", "android": "https://dc.lft.to/lastmile_qr_scan"}}, {"name": "04f3b19f7b3fb1cc19751a0a79ee99e0", "fusion_lat": 0.0, "type": "electric_scooter", "lat": 38.9191085, "is_reserved": 0, "is_disabled": 0, "fusion_lon": 0.0, "bike_id": "04f3b19f7b3fb1cc19751a0a79ee99e0", "lon": -77.021291, "rental_uris": {"ios": "https://dc.lft.to/lastmile_qr_scan", "android": "https://dc.lft.to/lastmile_qr_scan"}}, {"name": "20eb717a3bd94d0687a648a17f3e6a1c", "fusion_lat": 0.0, "type": "electric_scooter", "lat": 38.9187495, "is_reserved": 0, "is_disabled": 0, "fusion_lon": 0.0, "bike_id": "20eb717a3bd94d0687a648a17f3e6a1c", "lon": -77.04217016666666, "rental_uris": {"ios": "https://dc.lft.to/lastmile_qr_scan", "android": "https://dc.lft.to/lastmile_qr_scan"}}, {"name": "c24e4d3aa84066e99660d616517ac3b6", "fusion_lat": 0.0, "type": "electric_scooter", "lat": 38.90966683333333, "is_reserved": 0, "is_disabled": 0, "fusion_lon": 0.0, "bike_id": "c24e4d3aa84066e99660d616517ac3b6", "lon": -77.03866716666667, "rental_uris": {"ios": "https://dc.lft.to/lastmile_qr_scan", "android": "https://dc.lft.to/lastmile_qr_scan"}}, {"name": "d86ce2f5441cbbf03ecaa29cfc2b538b", "fusion_lat": 0.0, "type": "electric_scooter", "lat": 38.8851825, "is_reserved": 0, "is_disabled": 0, "fusion_lon": 0.0, "bike_id": "d86ce2f5441cbbf03ecaa29cfc2b538b", "lon": -77.03341, "rental_uris": {"ios": "https://dc.lft.to/lastmile_qr_scan", "android": "https://dc.lft.to/lastmile_qr_scan"}}, {"name": "fe642454d1e2c10d537a11caa7568ee6", "fusion_lat": 0.0, "type": "electric_scooter", "lat": 38.93285316666667, "is_reserved": 0, "is_disabled": 0, "fusion_lon": 0.0, "bike_id": "fe642454d1e2c10d537a11caa7568ee6", "lon": -77.0253505, "rental_uris": {"ios": "https://dc.lft.to/lastmile_qr_scan", "android": "https://dc.lft.to/lastmile_qr_scan"}}, {"name": "e7219a89434bdd4df97ebba81c410a6a", "fusion_lat": 0.0, "type": "electric_scooter", "lat": 38.91707383333333, "is_reserved": 0, "is_disabled": 0, "fusion_lon": 0.0, "bike_id": "e7219a89434bdd4df97ebba81c410a6a", "lon": -77.03338116666667, "rental_uris": {"ios": "https://dc.lft.to/lastmile_qr_scan", "android": "https://dc.lft.to/lastmile_qr_scan"}}, {"name": "38c87cb88fd73d9ecdf9a715cdafb2de", "fusion_lat": 0.0, "type": "electric_scooter", "lat": 38.8443535, "is_reserved": 0, "is_disabled": 0, "fusion_lon": 0.0, "bike_id": "38c87cb88fd73d9ecdf9a715cdafb2de", "lon": -76.997818, "rental_uris": {"ios": "https://dc.lft.to/lastmile_qr_scan", "android": "https://dc.lft.to/lastmile_qr_scan"}}, {"name": "f7b17f7c5cd054809284c671ffa6bc3d", "fusion_lat": 0.0, "type": "electric_bike", "lat": 38.86914816666667, "is_reserved": 0, "is_disabled": 0, "fusion_lon": 0.0, "bike_id": "f7b17f7c5cd054809284c671ffa6bc3d", "lon": -77.13182733333333, "rental_uris": {"ios": "https://dc.lft.to/lastmile_qr_scan", "android": "https://dc.lft.to/lastmile_qr_scan"}}, {"name": "1e7c80cfdb7d00725dac44b6ffc9721d", "fusion_lat": 0.0, "type": "electric_scooter", "lat": 38.89222733333333, "is_reserved": 0, "is_disabled": 0, "fusion_lon": 0.0, "bike_id": "1e7c80cfdb7d00725dac44b6ffc9721d", "lon": -77.01374983333334, "rental_uris": {"ios": "https://dc.lft.to/lastmile_qr_scan", "android": "https://dc.lft.to/lastmile_qr_scan"}}, {"name": "92f0db6237ee060d6703e8ddb9d1d616", "fusion_lat": 0.0, "type": "electric_scooter", "lat": 38.90557616666667, "is_reserved": 0, "is_disabled": 0, "fusion_lon": 0.0, "bike_id": "92f0db6237ee060d6703e8ddb9d1d616", "lon": -77.00569083333333, "rental_uris": {"ios": "https://dc.lft.to/lastmile_qr_scan", "android": "https://dc.lft.to/lastmile_qr_scan"}}, {"name": "70ab34599f958338f2390d8601aef536", "fusion_lat": 0.0, "type": "electric_scooter", "lat": 38.90644566666667, "is_reserved": 0, "is_disabled": 0, "fusion_lon": 0.0, "bike_id": "70ab34599f958338f2390d8601aef536", "lon": -76.985746, "rental_uris": {"ios": "https://dc.lft.to/lastmile_qr_scan", "android": "https://dc.lft.to/lastmile_qr_scan"}}, {"name": "c6da8b39444762e5c51357b6d12188ef", "fusion_lat": 0.0, "type": "electric_scooter", "lat": 38.900915, "is_reserved": 0, "is_disabled": 0, "fusion_lon": 0.0, "bike_id": "c6da8b39444762e5c51357b6d12188ef", "lon": -77.0133905, "rental_uris": {"ios": "https://dc.lft.to/lastmile_qr_scan", "android": "https://dc.lft.to/lastmile_qr_scan"}}, {"name": "201326e49c9b9c541821344f6a843307", "fusion_lat": 0.0, "type": "electric_scooter", "lat": 38.917672, "is_reserved": 0, "is_disabled": 0, "fusion_lon": 0.0, "bike_id": "201326e49c9b9c541821344f6a843307", "lon": -77.02714133333333, "rental_uris": {"ios": "https://dc.lft.to/lastmile_qr_scan", "android": "https://dc.lft.to/lastmile_qr_scan"}}, {"name": "919c9e53490afbe41e5084546eeca52a", "fusion_lat": 0.0, "type": "electric_scooter", "lat": 38.91114266666666, "is_reserved": 0, "is_disabled": 0, "fusion_lon": 0.0, "bike_id": "919c9e53490afbe41e5084546eeca52a", "lon": -77.03920933333333, "rental_uris": {"ios": "https://dc.lft.to/lastmile_qr_scan", "android": "https://dc.lft.to/lastmile_qr_scan"}}, {"name": "0fea7c3c77deb038e656a1546c867e16", "fusion_lat": 0.0, "type": "electric_bike", "lat": 38.834377333333336, "is_reserved": 0, "is_disabled": 0, "fusion_lon": 0.0, "bike_id": "0fea7c3c77deb038e656a1546c867e16", "lon": -77.00823, "rental_uris": {"ios": "https://dc.lft.to/lastmile_qr_scan", "android": "https://dc.lft.to/lastmile_qr_scan"}}, {"name": "b347ca965ec3636e328004e0ff9a4c80", "fusion_lat": 0.0, "type": "electric_scooter", "lat": 38.899323833333334, "is_reserved": 0, "is_disabled": 0, "fusion_lon": 0.0, "bike_id": "b347ca965ec3636e328004e0ff9a4c80", "lon": -77.00352516666666, "rental_uris": {"ios": "https://dc.lft.to/lastmile_qr_scan", "android": "https://dc.lft.to/lastmile_qr_scan"}}, {"name": "ac1d25b091a1b9025fd761b64a7c5c7f", "fusion_lat": 0.0, "type": "electric_scooter", "lat": 38.89370233333333, "is_reserved": 0, "is_disabled": 0, "fusion_lon": 0.0, "bike_id": "ac1d25b091a1b9025fd761b64a7c5c7f", "lon": -76.94981116666666, "rental_uris": {"ios": "https://dc.lft.to/lastmile_qr_scan", "android": "https://dc.lft.to/lastmile_qr_scan"}}, {"name": "64b43f7243f05e846683bc9d2bd0ad7c", "fusion_lat": 0.0, "type": "electric_scooter", "lat": 38.89632016666667, "is_reserved": 0, "is_disabled": 0, "fusion_lon": 0.0, "bike_id": "64b43f7243f05e846683bc9d2bd0ad7c", "lon": -77.0283915, "rental_uris": {"ios": "https://dc.lft.to/lastmile_qr_scan", "android": "https://dc.lft.to/lastmile_qr_scan"}}, {"name": "3fddd9ec665eb35c21980a28943ac0a7", "fusion_lat": 0.0, "type": "electric_scooter", "lat": 38.920774333333334, "is_reserved": 0, "is_disabled": 0, "fusion_lon": 0.0, "bike_id": "3fddd9ec665eb35c21980a28943ac0a7", "lon": -77.02390783333334, "rental_uris": {"ios": "https://dc.lft.to/lastmile_qr_scan", "android": "https://dc.lft.to/lastmile_qr_scan"}}, {"name": "13a3521a16c556b0262ea65248313d0b", "fusion_lat": 0.0, "type": "electric_scooter", "lat": 38.91722033333333, "is_reserved": 0, "is_disabled": 0, "fusion_lon": 0.0, "bike_id": "13a3521a16c556b0262ea65248313d0b", "lon": -77.03654533333334, "rental_uris": {"ios": "https://dc.lft.to/lastmile_qr_scan", "android": "https://dc.lft.to/lastmile_qr_scan"}}, {"name": "477e1914b867ac1ed39cca32b6655ba9", "fusion_lat": 0.0, "type": "electric_scooter", "lat": 38.914266, "is_reserved": 0, "is_disabled": 0, "fusion_lon": 0.0, "bike_id": "477e1914b867ac1ed39cca32b6655ba9", "lon": -77.02805216666667, "rental_uris": {"ios": "https://dc.lft.to/lastmile_qr_scan", "android": "https://dc.lft.to/lastmile_qr_scan"}}, {"name": "c9750f2ddc43d04ad23fec736ea63533", "fusion_lat": 0.0, "type": "electric_scooter", "lat": 38.924868333333336, "is_reserved": 0, "is_disabled": 0, "fusion_lon": 0.0, "bike_id": "c9750f2ddc43d04ad23fec736ea63533", "lon": -77.027085, "rental_uris": {"ios": "https://dc.lft.to/lastmile_qr_scan", "android": "https://dc.lft.to/lastmile_qr_scan"}}, {"name": "c28779a617454a53a2339eb7869bd468", "fusion_lat": 0.0, "type": "electric_scooter", "lat": 38.916874, "is_reserved": 0, "is_disabled": 0, "fusion_lon": 0.0, "bike_id": "c28779a617454a53a2339eb7869bd468", "lon": -77.03164533333333, "rental_uris": {"ios": "https://dc.lft.to/lastmile_qr_scan", "android": "https://dc.lft.to/lastmile_qr_scan"}}, {"name": "ea408c8105cb2d31552990734bce39c1", "fusion_lat": 0.0, "type": "electric_scooter", "lat": 38.916383833333335, "is_reserved": 0, "is_disabled": 0, "fusion_lon": 0.0, "bike_id": "ea408c8105cb2d31552990734bce39c1", "lon": -77.035977, "rental_uris": {"ios": "https://dc.lft.to/lastmile_qr_scan", "android": "https://dc.lft.to/lastmile_qr_scan"}}, {"name": "e3c2fd11481e399f1daa1b14ae13f44d", "fusion_lat": 0.0, "type": "electric_scooter", "lat": 38.882199166666666, "is_reserved": 0, "is_disabled": 0, "fusion_lon": 0.0, "bike_id": "e3c2fd11481e399f1daa1b14ae13f44d", "lon": -76.94175516666667, "rental_uris": {"ios": "https://dc.lft.to/lastmile_qr_scan", "android": "https://dc.lft.to/lastmile_qr_scan"}}, {"name": "a4f27690d87da6f7836b90166594a6f2", "fusion_lat": 0.0, "type": "electric_scooter", "lat": 38.932650333333335, "is_reserved": 0, "is_disabled": 0, "fusion_lon": 0.0, "bike_id": "a4f27690d87da6f7836b90166594a6f2", "lon": -77.03261866666666, "rental_uris": {"ios": "https://dc.lft.to/lastmile_qr_scan", "android": "https://dc.lft.to/lastmile_qr_scan"}}, {"name": "86caff335425bbc3590e44f82106d4dc", "fusion_lat": 0.0, "type": "electric_scooter", "lat": 38.9112305, "is_reserved": 0, "is_disabled": 0, "fusion_lon": 0.0, "bike_id": "86caff335425bbc3590e44f82106d4dc", "lon": -77.03186116666667, "rental_uris": {"ios": "https://dc.lft.to/lastmile_qr_scan", "android": "https://dc.lft.to/lastmile_qr_scan"}}, {"name": "b90db91f701ca09ffc29d7cfd8ba78bd", "fusion_lat": 0.0, "type": "electric_scooter", "lat": 38.91257616666667, "is_reserved": 0, "is_disabled": 0, "fusion_lon": 0.0, "bike_id": "b90db91f701ca09ffc29d7cfd8ba78bd", "lon": -77.0477275, "rental_uris": {"ios": "https://dc.lft.to/lastmile_qr_scan", "android": "https://dc.lft.to/lastmile_qr_scan"}}, {"name": "a6cc5e40e4aa9f7702a996cd47dc7d99", "fusion_lat": 0.0, "type": "electric_scooter", "lat": 38.908812, "is_reserved": 0, "is_disabled": 0, "fusion_lon": 0.0, "bike_id": "a6cc5e40e4aa9f7702a996cd47dc7d99", "lon": -77.0347375, "rental_uris": {"ios": "https://dc.lft.to/lastmile_qr_scan", "android": "https://dc.lft.to/lastmile_qr_scan"}}, {"name": "c26456e5c5b724879e30295b1d2570bf", "fusion_lat": 0.0, "type": "electric_scooter", "lat": 38.9033805, "is_reserved": 0, "is_disabled": 0, "fusion_lon": 0.0, "bike_id": "c26456e5c5b724879e30295b1d2570bf", "lon": -76.98979466666667, "rental_uris": {"ios": "https://dc.lft.to/lastmile_qr_scan", "android": "https://dc.lft.to/lastmile_qr_scan"}}, {"name": "63dc0ad332478dcea5b775bb6fb5f4c8", "fusion_lat": 0.0, "type": "electric_scooter", "lat": 38.881568, "is_reserved": 0, "is_disabled": 0, "fusion_lon": 0.0, "bike_id": "63dc0ad332478dcea5b775bb6fb5f4c8", "lon": -77.01293466666667, "rental_uris": {"ios": "https://dc.lft.to/lastmile_qr_scan", "android": "https://dc.lft.to/lastmile_qr_scan"}}, {"name": "0a1c354ff1a0aa3fb7e72922a891bdd6", "fusion_lat": 0.0, "type": "electric_scooter", "lat": 38.9247815, "is_reserved": 0, "is_disabled": 0, "fusion_lon": 0.0, "bike_id": "0a1c354ff1a0aa3fb7e72922a891bdd6", "lon": -77.03056866666667, "rental_uris": {"ios": "https://dc.lft.to/lastmile_qr_scan", "android": "https://dc.lft.to/lastmile_qr_scan"}}, {"name": "db8e81d1c88f8bab39f74d9d7dc17334", "fusion_lat": 0.0, "type": "electric_scooter", "lat": 38.929306833333335, "is_reserved": 0, "is_disabled": 0, "fusion_lon": 0.0, "bike_id": "db8e81d1c88f8bab39f74d9d7dc17334", "lon": -77.023377, "rental_uris": {"ios": "https://dc.lft.to/lastmile_qr_scan", "android": "https://dc.lft.to/lastmile_qr_scan"}}, {"name": "db02b657e6b0f1562caa769faedfe1e4", "fusion_lat": 0.0, "type": "electric_scooter", "lat": 38.942026166666665, "is_reserved": 0, "is_disabled": 0, "fusion_lon": 0.0, "bike_id": "db02b657e6b0f1562caa769faedfe1e4", "lon": -77.0251365, "rental_uris": {"ios": "https://dc.lft.to/lastmile_qr_scan", "android": "https://dc.lft.to/lastmile_qr_scan"}}, {"name": "123070076842e8d2bb24cea444f43610", "fusion_lat": 0.0, "type": "electric_scooter", "lat": 38.907092, "is_reserved": 0, "is_disabled": 0, "fusion_lon": 0.0, "bike_id": "123070076842e8d2bb24cea444f43610", "lon": -76.98701183333333, "rental_uris": {"ios": "https://dc.lft.to/lastmile_qr_scan", "android": "https://dc.lft.to/lastmile_qr_scan"}}, {"name": "d606f312a46767e1b5f48e523a1e7203", "fusion_lat": 0.0, "type": "electric_bike", "lat": 38.863727, "is_reserved": 0, "is_disabled": 0, "fusion_lon": 0.0, "bike_id": "d606f312a46767e1b5f48e523a1e7203", "lon": -76.97002733333333, "rental_uris": {"ios": "https://dc.lft.to/lastmile_qr_scan", "android": "https://dc.lft.to/lastmile_qr_scan"}}, {"name": "1aba7668d749d1e4963023c5fc7f61ef", "fusion_lat": 0.0, "type": "electric_scooter", "lat": 38.88417716666667, "is_reserved": 0, "is_disabled": 0, "fusion_lon": 0.0, "bike_id": "1aba7668d749d1e4963023c5fc7f61ef", "lon": -76.976008, "rental_uris": {"ios": "https://dc.lft.to/lastmile_qr_scan", "android": "https://dc.lft.to/lastmile_qr_scan"}}, {"name": "daf1035e06de8d4e1964e8c940d81c3e", "fusion_lat": 0.0, "type": "electric_scooter", "lat": 38.907302, "is_reserved": 0, "is_disabled": 0, "fusion_lon": 0.0, "bike_id": "daf1035e06de8d4e1964e8c940d81c3e", "lon": -77.02964266666666, "rental_uris": {"ios": "https://dc.lft.to/lastmile_qr_scan", "android": "https://dc.lft.to/lastmile_qr_scan"}}, {"name": "2ac01a7ffd55ecc65d660ef06ccb357b", "fusion_lat": 0.0, "type": "electric_scooter", "lat": 38.9355875, "is_reserved": 0, "is_disabled": 0, "fusion_lon": 0.0, "bike_id": "2ac01a7ffd55ecc65d660ef06ccb357b", "lon": -77.08191733333334, "rental_uris": {"ios": "https://dc.lft.to/lastmile_qr_scan", "android": "https://dc.lft.to/lastmile_qr_scan"}}, {"name": "39e4ac8f6233f8851fa45ce810fa1c6f", "fusion_lat": 0.0, "type": "electric_scooter", "lat": 38.89483666666667, "is_reserved": 0, "is_disabled": 0, "fusion_lon": 0.0, "bike_id": "39e4ac8f6233f8851fa45ce810fa1c6f", "lon": -77.02026, "rental_uris": {"ios": "https://dc.lft.to/lastmile_qr_scan", "android": "https://dc.lft.to/lastmile_qr_scan"}}, {"name": "c6c4e669670b7da34b1fa06afc2c3507", "fusion_lat": 0.0, "type": "electric_scooter", "lat": 38.918092, "is_reserved": 0, "is_disabled": 0, "fusion_lon": 0.0, "bike_id": "c6c4e669670b7da34b1fa06afc2c3507", "lon": -77.03215216666666, "rental_uris": {"ios": "https://dc.lft.to/lastmile_qr_scan", "android": "https://dc.lft.to/lastmile_qr_scan"}}, {"name": "e50502fba863866a7fafe164a50dd539", "fusion_lat": 0.0, "type": "electric_bike", "lat": 38.965409, "is_reserved": 0, "is_disabled": 0, "fusion_lon": 0.0, "bike_id": "e50502fba863866a7fafe164a50dd539", "lon": -77.03520783333333, "rental_uris": {"ios": "https://dc.lft.to/lastmile_qr_scan", "android": "https://dc.lft.to/lastmile_qr_scan"}}, {"name": "6d70da01b7efbdb23b3643be54c7c1c2", "fusion_lat": 0.0, "type": "electric_scooter", "lat": 38.905589166666665, "is_reserved": 0, "is_disabled": 0, "fusion_lon": 0.0, "bike_id": "6d70da01b7efbdb23b3643be54c7c1c2", "lon": -77.04515966666666, "rental_uris": {"ios": "https://dc.lft.to/lastmile_qr_scan", "android": "https://dc.lft.to/lastmile_qr_scan"}}, {"name": "9fbfbf0faa9d3fa010216888db1fcb3c", "fusion_lat": 0.0, "type": "electric_scooter", "lat": 38.91773366666666, "is_reserved": 0, "is_disabled": 0, "fusion_lon": 0.0, "bike_id": "9fbfbf0faa9d3fa010216888db1fcb3c", "lon": -77.0149335, "rental_uris": {"ios": "https://dc.lft.to/lastmile_qr_scan", "android": "https://dc.lft.to/lastmile_qr_scan"}}, {"name": "750272ecee95dd38104b22a3003661f8", "fusion_lat": 0.0, "type": "electric_scooter", "lat": 38.9031965, "is_reserved": 0, "is_disabled": 0, "fusion_lon": 0.0, "bike_id": "750272ecee95dd38104b22a3003661f8", "lon": -77.05326183333334, "rental_uris": {"ios": "https://dc.lft.to/lastmile_qr_scan", "android": "https://dc.lft.to/lastmile_qr_scan"}}, {"name": "0eba57028191b6b74239f24ade7cd103", "fusion_lat": 0.0, "type": "electric_bike", "lat": 38.81940933333333, "is_reserved": 0, "is_disabled": 0, "fusion_lon": 0.0, "bike_id": "0eba57028191b6b74239f24ade7cd103", "lon": -77.00206916666667, "rental_uris": {"ios": "https://dc.lft.to/lastmile_qr_scan", "android": "https://dc.lft.to/lastmile_qr_scan"}}, {"name": "fc43dc62fc2cb95bad73f166ee89997a", "fusion_lat": 0.0, "type": "electric_scooter", "lat": 38.915488333333336, "is_reserved": 0, "is_disabled": 0, "fusion_lon": 0.0, "bike_id": "fc43dc62fc2cb95bad73f166ee89997a", "lon": -77.03854933333334, "rental_uris": {"ios": "https://dc.lft.to/lastmile_qr_scan", "android": "https://dc.lft.to/lastmile_qr_scan"}}, {"name": "8008117bf425e2117a610d221947c517", "fusion_lat": 0.0, "type": "electric_scooter", "lat": 38.884008, "is_reserved": 0, "is_disabled": 0, "fusion_lon": 0.0, "bike_id": "8008117bf425e2117a610d221947c517", "lon": -76.985907, "rental_uris": {"ios": "https://dc.lft.to/lastmile_qr_scan", "android": "https://dc.lft.to/lastmile_qr_scan"}}, {"name": "40b114f1e50c56ded0907239ccb5c084", "fusion_lat": 0.0, "type": "electric_scooter", "lat": 38.92316, "is_reserved": 0, "is_disabled": 0, "fusion_lon": 0.0, "bike_id": "40b114f1e50c56ded0907239ccb5c084", "lon": -77.03541016666667, "rental_uris": {"ios": "https://dc.lft.to/lastmile_qr_scan", "android": "https://dc.lft.to/lastmile_qr_scan"}}, {"name": "771cb9c39255cdd069b2bdac7a41a50f", "fusion_lat": 0.0, "type": "electric_bike", "lat": 38.896396333333335, "is_reserved": 0, "is_disabled": 0, "fusion_lon": 0.0, "bike_id": "771cb9c39255cdd069b2bdac7a41a50f", "lon": -77.10461233333334, "rental_uris": {"ios": "https://dc.lft.to/lastmile_qr_scan", "android": "https://dc.lft.to/lastmile_qr_scan"}}, {"name": "d828688ced26b86c1cefe347133fc47e", "fusion_lat": 0.0, "type": "electric_scooter", "lat": 38.85529316666667, "is_reserved": 0, "is_disabled": 0, "fusion_lon": 0.0, "bike_id": "d828688ced26b86c1cefe347133fc47e", "lon": -76.96918816666667, "rental_uris": {"ios": "https://dc.lft.to/lastmile_qr_scan", "android": "https://dc.lft.to/lastmile_qr_scan"}}, {"name": "dcbd24ef1dd7e1fa79ca8310fcc2cc4e", "fusion_lat": 0.0, "type": "electric_scooter", "lat": 38.924854, "is_reserved": 0, "is_disabled": 0, "fusion_lon": 0.0, "bike_id": "dcbd24ef1dd7e1fa79ca8310fcc2cc4e", "lon": -77.03487683333333, "rental_uris": {"ios": "https://dc.lft.to/lastmile_qr_scan", "android": "https://dc.lft.to/lastmile_qr_scan"}}, {"name": "b216156baf15de164b2b60e738a75b5a", "fusion_lat": 0.0, "type": "electric_scooter", "lat": 38.9205995, "is_reserved": 0, "is_disabled": 0, "fusion_lon": 0.0, "bike_id": "b216156baf15de164b2b60e738a75b5a", "lon": -77.023476, "rental_uris": {"ios": "https://dc.lft.to/lastmile_qr_scan", "android": "https://dc.lft.to/lastmile_qr_scan"}}, {"name": "ff72464e716bbb65c9cb1a79ed64b04e", "fusion_lat": 0.0, "type": "electric_scooter", "lat": 38.923228, "is_reserved": 0, "is_disabled": 0, "fusion_lon": 0.0, "bike_id": "ff72464e716bbb65c9cb1a79ed64b04e", "lon": -77.04111416666667, "rental_uris": {"ios": "https://dc.lft.to/lastmile_qr_scan", "android": "https://dc.lft.to/lastmile_qr_scan"}}, {"name": "cd7bd5462f8a1b25219b499defc73864", "fusion_lat": 0.0, "type": "electric_scooter", "lat": 38.952678166666665, "is_reserved": 0, "is_disabled": 0, "fusion_lon": 0.0, "bike_id": "cd7bd5462f8a1b25219b499defc73864", "lon": -77.02569666666666, "rental_uris": {"ios": "https://dc.lft.to/lastmile_qr_scan", "android": "https://dc.lft.to/lastmile_qr_scan"}}, {"name": "fd10de55eea3c03179f461023e0058b6", "fusion_lat": 0.0, "type": "electric_scooter", "lat": 38.92389383333333, "is_reserved": 0, "is_disabled": 0, "fusion_lon": 0.0, "bike_id": "fd10de55eea3c03179f461023e0058b6", "lon": -77.029815, "rental_uris": {"ios": "https://dc.lft.to/lastmile_qr_scan", "android": "https://dc.lft.to/lastmile_qr_scan"}}, {"name": "c9e0997a77968eaa814b4b9e32acb32e", "fusion_lat": 0.0, "type": "electric_scooter", "lat": 38.86819833333333, "is_reserved": 0, "is_disabled": 0, "fusion_lon": 0.0, "bike_id": "c9e0997a77968eaa814b4b9e32acb32e", "lon": -76.98618616666667, "rental_uris": {"ios": "https://dc.lft.to/lastmile_qr_scan", "android": "https://dc.lft.to/lastmile_qr_scan"}}, {"name": "ecc9e47783e15115889cf4ab5d00c381", "fusion_lat": 0.0, "type": "electric_scooter", "lat": 38.894106666666666, "is_reserved": 0, "is_disabled": 0, "fusion_lon": 0.0, "bike_id": "ecc9e47783e15115889cf4ab5d00c381", "lon": -76.94798333333334, "rental_uris": {"ios": "https://dc.lft.to/lastmile_qr_scan", "android": "https://dc.lft.to/lastmile_qr_scan"}}, {"name": "395c5e0244b3f29872dbe25b3ca02d08", "fusion_lat": 0.0, "type": "electric_scooter", "lat": 38.86425233333333, "is_reserved": 0, "is_disabled": 0, "fusion_lon": 0.0, "bike_id": "395c5e0244b3f29872dbe25b3ca02d08", "lon": -76.98051366666667, "rental_uris": {"ios": "https://dc.lft.to/lastmile_qr_scan", "android": "https://dc.lft.to/lastmile_qr_scan"}}, {"name": "c64c4ca7baff11c3088de1f8fcdb3695", "fusion_lat": 0.0, "type": "electric_scooter", "lat": 38.9016785, "is_reserved": 0, "is_disabled": 0, "fusion_lon": 0.0, "bike_id": "c64c4ca7baff11c3088de1f8fcdb3695", "lon": -76.9806435, "rental_uris": {"ios": "https://dc.lft.to/lastmile_qr_scan", "android": "https://dc.lft.to/lastmile_qr_scan"}}, {"name": "7eb84f07b942c4a41a896e147ae96b3a", "fusion_lat": 0.0, "type": "electric_scooter", "lat": 38.934870333333336, "is_reserved": 0, "is_disabled": 0, "fusion_lon": 0.0, "bike_id": "7eb84f07b942c4a41a896e147ae96b3a", "lon": -77.0339195, "rental_uris": {"ios": "https://dc.lft.to/lastmile_qr_scan", "android": "https://dc.lft.to/lastmile_qr_scan"}}, {"name": "8ab12b5bc26a5343253ac37c7e2d6d64", "fusion_lat": 0.0, "type": "electric_scooter", "lat": 38.92166433333333, "is_reserved": 0, "is_disabled": 0, "fusion_lon": 0.0, "bike_id": "8ab12b5bc26a5343253ac37c7e2d6d64", "lon": -77.0337645, "rental_uris": {"ios": "https://dc.lft.to/lastmile_qr_scan", "android": "https://dc.lft.to/lastmile_qr_scan"}}, {"name": "5c3f298110224812a4a1ecd1d0511c65", "fusion_lat": 0.0, "type": "electric_scooter", "lat": 38.915482, "is_reserved": 0, "is_disabled": 0, "fusion_lon": 0.0, "bike_id": "5c3f298110224812a4a1ecd1d0511c65", "lon": -77.03848633333334, "rental_uris": {"ios": "https://dc.lft.to/lastmile_qr_scan", "android": "https://dc.lft.to/lastmile_qr_scan"}}, {"name": "cc0b5716d940633de3c43a716767dfdd", "fusion_lat": 0.0, "type": "electric_scooter", "lat": 38.900248, "is_reserved": 0, "is_disabled": 0, "fusion_lon": 0.0, "bike_id": "cc0b5716d940633de3c43a716767dfdd", "lon": -77.00891216666666, "rental_uris": {"ios": "https://dc.lft.to/lastmile_qr_scan", "android": "https://dc.lft.to/lastmile_qr_scan"}}, {"name": "895160dad493d7dbfa17dd25a0c90e06", "fusion_lat": 0.0, "type": "electric_bike", "lat": 38.928463, "is_reserved": 0, "is_disabled": 0, "fusion_lon": 0.0, "bike_id": "895160dad493d7dbfa17dd25a0c90e06", "lon": -77.02050433333334, "rental_uris": {"ios": "https://dc.lft.to/lastmile_qr_scan", "android": "https://dc.lft.to/lastmile_qr_scan"}}, {"name": "abf925e50ee2f1cd452d883c734b70e7", "fusion_lat": 0.0, "type": "electric_scooter", "lat": 38.86210033333333, "is_reserved": 0, "is_disabled": 0, "fusion_lon": 0.0, "bike_id": "abf925e50ee2f1cd452d883c734b70e7", "lon": -76.99472283333333, "rental_uris": {"ios": "https://dc.lft.to/lastmile_qr_scan", "android": "https://dc.lft.to/lastmile_qr_scan"}}, {"name": "68282b96b60bddc2d822f4b8d72850d7", "fusion_lat": 0.0, "type": "electric_scooter", "lat": 38.92157916666667, "is_reserved": 0, "is_disabled": 0, "fusion_lon": 0.0, "bike_id": "68282b96b60bddc2d822f4b8d72850d7", "lon": -77.03377233333333, "rental_uris": {"ios": "https://dc.lft.to/lastmile_qr_scan", "android": "https://dc.lft.to/lastmile_qr_scan"}}, {"name": "b49dec683ee010f101ab57cd73ea9893", "fusion_lat": 0.0, "type": "electric_scooter", "lat": 38.900062166666665, "is_reserved": 0, "is_disabled": 0, "fusion_lon": 0.0, "bike_id": "b49dec683ee010f101ab57cd73ea9893", "lon": -77.04026433333334, "rental_uris": {"ios": "https://dc.lft.to/lastmile_qr_scan", "android": "https://dc.lft.to/lastmile_qr_scan"}}, {"name": "4d44a981a3c2932b7619a122f65bed58", "fusion_lat": 0.0, "type": "electric_scooter", "lat": 38.9176545, "is_reserved": 0, "is_disabled": 0, "fusion_lon": 0.0, "bike_id": "4d44a981a3c2932b7619a122f65bed58", "lon": -77.04151316666666, "rental_uris": {"ios": "https://dc.lft.to/lastmile_qr_scan", "android": "https://dc.lft.to/lastmile_qr_scan"}}, {"name": "87821594934349d1d7118894178d6aee", "fusion_lat": 0.0, "type": "electric_scooter", "lat": 38.931016166666666, "is_reserved": 0, "is_disabled": 0, "fusion_lon": 0.0, "bike_id": "87821594934349d1d7118894178d6aee", "lon": -77.02488983333333, "rental_uris": {"ios": "https://dc.lft.to/lastmile_qr_scan", "android": "https://dc.lft.to/lastmile_qr_scan"}}, {"name": "ecb013f03a6921a32797bb3bea6f6222", "fusion_lat": 0.0, "type": "electric_scooter", "lat": 38.916342, "is_reserved": 0, "is_disabled": 0, "fusion_lon": 0.0, "bike_id": "ecb013f03a6921a32797bb3bea6f6222", "lon": -77.03200483333333, "rental_uris": {"ios": "https://dc.lft.to/lastmile_qr_scan", "android": "https://dc.lft.to/lastmile_qr_scan"}}, {"name": "b4dd208d823c9720db6dc1d634fe398a", "fusion_lat": 0.0, "type": "electric_scooter", "lat": 38.910089, "is_reserved": 0, "is_disabled": 0, "fusion_lon": 0.0, "bike_id": "b4dd208d823c9720db6dc1d634fe398a", "lon": -77.04424283333333, "rental_uris": {"ios": "https://dc.lft.to/lastmile_qr_scan", "android": "https://dc.lft.to/lastmile_qr_scan"}}, {"name": "cb648754a44f8a66f07f8ed5944e8a87", "fusion_lat": 0.0, "type": "electric_scooter", "lat": 38.906305833333334, "is_reserved": 0, "is_disabled": 0, "fusion_lon": 0.0, "bike_id": "cb648754a44f8a66f07f8ed5944e8a87", "lon": -77.051368, "rental_uris": {"ios": "https://dc.lft.to/lastmile_qr_scan", "android": "https://dc.lft.to/lastmile_qr_scan"}}, {"name": "b05f920f0694ee59f6b2cc7b8e0298c1", "fusion_lat": 0.0, "type": "electric_scooter", "lat": 38.97501116666667, "is_reserved": 0, "is_disabled": 0, "fusion_lon": 0.0, "bike_id": "b05f920f0694ee59f6b2cc7b8e0298c1", "lon": -77.01689033333334, "rental_uris": {"ios": "https://dc.lft.to/lastmile_qr_scan", "android": "https://dc.lft.to/lastmile_qr_scan"}}, {"name": "ca19da29f96a035cb8d6e6ceb73f82f9", "fusion_lat": 0.0, "type": "electric_scooter", "lat": 38.94359733333334, "is_reserved": 0, "is_disabled": 0, "fusion_lon": 0.0, "bike_id": "ca19da29f96a035cb8d6e6ceb73f82f9", "lon": -77.0613975, "rental_uris": {"ios": "https://dc.lft.to/lastmile_qr_scan", "android": "https://dc.lft.to/lastmile_qr_scan"}}, {"name": "7e0404ea11303e39ed79f9ee365e5fdc", "fusion_lat": 0.0, "type": "electric_scooter", "lat": 38.92370616666667, "is_reserved": 0, "is_disabled": 0, "fusion_lon": 0.0, "bike_id": "7e0404ea11303e39ed79f9ee365e5fdc", "lon": -77.01917583333334, "rental_uris": {"ios": "https://dc.lft.to/lastmile_qr_scan", "android": "https://dc.lft.to/lastmile_qr_scan"}}, {"name": "515dc102639957305e083d42f892b059", "fusion_lat": 0.0, "type": "electric_bike", "lat": 39.0335105, "is_reserved": 0, "is_disabled": 0, "fusion_lon": 0.0, "bike_id": "515dc102639957305e083d42f892b059", "lon": -77.04908766666667, "rental_uris": {"ios": "https://dc.lft.to/lastmile_qr_scan", "android": "https://dc.lft.to/lastmile_qr_scan"}}, {"name": "af033d569dbbd75ea0a4733244ff8272", "fusion_lat": 0.0, "type": "electric_scooter", "lat": 38.933084666666666, "is_reserved": 0, "is_disabled": 0, "fusion_lon": 0.0, "bike_id": "af033d569dbbd75ea0a4733244ff8272", "lon": -77.037687, "rental_uris": {"ios": "https://dc.lft.to/lastmile_qr_scan", "android": "https://dc.lft.to/lastmile_qr_scan"}}, {"name": "08395cd1df7e12a72f3bf14fbbb261a9", "fusion_lat": 0.0, "type": "electric_scooter", "lat": 38.915861, "is_reserved": 0, "is_disabled": 0, "fusion_lon": 0.0, "bike_id": "08395cd1df7e12a72f3bf14fbbb261a9", "lon": -77.04682333333334, "rental_uris": {"ios": "https://dc.lft.to/lastmile_qr_scan", "android": "https://dc.lft.to/lastmile_qr_scan"}}, {"name": "68f283f4a01f2c6cfaca760ae30e4513", "fusion_lat": 0.0, "type": "electric_scooter", "lat": 38.93607866666667, "is_reserved": 0, "is_disabled": 0, "fusion_lon": 0.0, "bike_id": "68f283f4a01f2c6cfaca760ae30e4513", "lon": -77.05858333333333, "rental_uris": {"ios": "https://dc.lft.to/lastmile_qr_scan", "android": "https://dc.lft.to/lastmile_qr_scan"}}, {"name": "ff4929c1534328b7b77b17f3e2b11431", "fusion_lat": 0.0, "type": "electric_scooter", "lat": 38.924403166666664, "is_reserved": 0, "is_disabled": 0, "fusion_lon": 0.0, "bike_id": "ff4929c1534328b7b77b17f3e2b11431", "lon": -77.0298155, "rental_uris": {"ios": "https://dc.lft.to/lastmile_qr_scan", "android": "https://dc.lft.to/lastmile_qr_scan"}}, {"name": "bc3261b0d6cf61ee447002f3ab29f6b2", "fusion_lat": 0.0, "type": "electric_scooter", "lat": 38.90730716666667, "is_reserved": 0, "is_disabled": 0, "fusion_lon": 0.0, "bike_id": "bc3261b0d6cf61ee447002f3ab29f6b2", "lon": -77.02962616666667, "rental_uris": {"ios": "https://dc.lft.to/lastmile_qr_scan", "android": "https://dc.lft.to/lastmile_qr_scan"}}, {"name": "d7ffb5cf6a86f14dfc848d3d10929fe8", "fusion_lat": 0.0, "type": "electric_scooter", "lat": 38.91564533333333, "is_reserved": 0, "is_disabled": 0, "fusion_lon": 0.0, "bike_id": "d7ffb5cf6a86f14dfc848d3d10929fe8", "lon": -77.0390805, "rental_uris": {"ios": "https://dc.lft.to/lastmile_qr_scan", "android": "https://dc.lft.to/lastmile_qr_scan"}}, {"name": "a8976a564dc8179b1b8fbaeb266a2c81", "fusion_lat": 0.0, "type": "electric_scooter", "lat": 38.880369, "is_reserved": 0, "is_disabled": 0, "fusion_lon": 0.0, "bike_id": "a8976a564dc8179b1b8fbaeb266a2c81", "lon": -76.92725833333333, "rental_uris": {"ios": "https://dc.lft.to/lastmile_qr_scan", "android": "https://dc.lft.to/lastmile_qr_scan"}}, {"name": "5623150b7bfdb20586af533621d3d0a2", "fusion_lat": 0.0, "type": "electric_bike", "lat": 38.89291566666667, "is_reserved": 0, "is_disabled": 0, "fusion_lon": 0.0, "bike_id": "5623150b7bfdb20586af533621d3d0a2", "lon": -76.98558916666667, "rental_uris": {"ios": "https://dc.lft.to/lastmile_qr_scan", "android": "https://dc.lft.to/lastmile_qr_scan"}}, {"name": "87fc333f7009d0ea5d18c6bed4b1de9d", "fusion_lat": 0.0, "type": "electric_scooter", "lat": 38.904753666666664, "is_reserved": 0, "is_disabled": 0, "fusion_lon": 0.0, "bike_id": "87fc333f7009d0ea5d18c6bed4b1de9d", "lon": -77.04825033333333, "rental_uris": {"ios": "https://dc.lft.to/lastmile_qr_scan", "android": "https://dc.lft.to/lastmile_qr_scan"}}, {"name": "f6d1a8733f9da65cd080343534f5852f", "fusion_lat": 0.0, "type": "electric_scooter", "lat": 38.9293045, "is_reserved": 0, "is_disabled": 0, "fusion_lon": 0.0, "bike_id": "f6d1a8733f9da65cd080343534f5852f", "lon": -77.01969133333333, "rental_uris": {"ios": "https://dc.lft.to/lastmile_qr_scan", "android": "https://dc.lft.to/lastmile_qr_scan"}}, {"name": "14b71c010ac19e52b56e61fb49517bc2", "fusion_lat": 0.0, "type": "electric_scooter", "lat": 38.9075415, "is_reserved": 0, "is_disabled": 0, "fusion_lon": 0.0, "bike_id": "14b71c010ac19e52b56e61fb49517bc2", "lon": -77.03090683333333, "rental_uris": {"ios": "https://dc.lft.to/lastmile_qr_scan", "android": "https://dc.lft.to/lastmile_qr_scan"}}, {"name": "768cd1ffebcd3be1b8356c7170d5a928", "fusion_lat": 0.0, "type": "electric_bike", "lat": 38.852358333333335, "is_reserved": 0, "is_disabled": 0, "fusion_lon": 0.0, "bike_id": "768cd1ffebcd3be1b8356c7170d5a928", "lon": -77.10341033333333, "rental_uris": {"ios": "https://dc.lft.to/lastmile_qr_scan", "android": "https://dc.lft.to/lastmile_qr_scan"}}, {"name": "d1edc6fcf68b052b7160398cc25253a2", "fusion_lat": 0.0, "type": "electric_bike", "lat": 38.88040316666667, "is_reserved": 0, "is_disabled": 0, "fusion_lon": 0.0, "bike_id": "d1edc6fcf68b052b7160398cc25253a2", "lon": -77.0132465, "rental_uris": {"ios": "https://dc.lft.to/lastmile_qr_scan", "android": "https://dc.lft.to/lastmile_qr_scan"}}, {"name": "407353081bfb9d5347528ad26c6e3030", "fusion_lat": 0.0, "type": "electric_scooter", "lat": 38.909688333333335, "is_reserved": 0, "is_disabled": 0, "fusion_lon": 0.0, "bike_id": "407353081bfb9d5347528ad26c6e3030", "lon": -77.023794, "rental_uris": {"ios": "https://dc.lft.to/lastmile_qr_scan", "android": "https://dc.lft.to/lastmile_qr_scan"}}, {"name": "06f4863e092e853b0a27a79ee1c9a153", "fusion_lat": 0.0, "type": "electric_scooter", "lat": 38.906633666666664, "is_reserved": 0, "is_disabled": 0, "fusion_lon": 0.0, "bike_id": "06f4863e092e853b0a27a79ee1c9a153", "lon": -77.02711166666667, "rental_uris": {"ios": "https://dc.lft.to/lastmile_qr_scan", "android": "https://dc.lft.to/lastmile_qr_scan"}}, {"name": "ea304643573debeac0f9b5301801f800", "fusion_lat": 0.0, "type": "electric_scooter", "lat": 38.919508, "is_reserved": 0, "is_disabled": 0, "fusion_lon": 0.0, "bike_id": "ea304643573debeac0f9b5301801f800", "lon": -77.0455335, "rental_uris": {"ios": "https://dc.lft.to/lastmile_qr_scan", "android": "https://dc.lft.to/lastmile_qr_scan"}}, {"name": "3f7cfd5dc0847995da889c6981dc36e2", "fusion_lat": 0.0, "type": "electric_scooter", "lat": 38.9480475, "is_reserved": 0, "is_disabled": 0, "fusion_lon": 0.0, "bike_id": "3f7cfd5dc0847995da889c6981dc36e2", "lon": -77.07909166666667, "rental_uris": {"ios": "https://dc.lft.to/lastmile_qr_scan", "android": "https://dc.lft.to/lastmile_qr_scan"}}, {"name": "5e4e2181c818914bdf1b934d3daa2c23", "fusion_lat": 0.0, "type": "electric_scooter", "lat": 38.89993966666667, "is_reserved": 0, "is_disabled": 0, "fusion_lon": 0.0, "bike_id": "5e4e2181c818914bdf1b934d3daa2c23", "lon": -77.02959766666666, "rental_uris": {"ios": "https://dc.lft.to/lastmile_qr_scan", "android": "https://dc.lft.to/lastmile_qr_scan"}}, {"name": "d816fa535e04d3073786ad9f497130fd", "fusion_lat": 0.0, "type": "electric_scooter", "lat": 38.9272545, "is_reserved": 0, "is_disabled": 0, "fusion_lon": 0.0, "bike_id": "d816fa535e04d3073786ad9f497130fd", "lon": -77.02302916666666, "rental_uris": {"ios": "https://dc.lft.to/lastmile_qr_scan", "android": "https://dc.lft.to/lastmile_qr_scan"}}, {"name": "96a051c7a001a1581e758b271331275f", "fusion_lat": 0.0, "type": "electric_scooter", "lat": 38.88848133333333, "is_reserved": 0, "is_disabled": 0, "fusion_lon": 0.0, "bike_id": "96a051c7a001a1581e758b271331275f", "lon": -77.04900533333333, "rental_uris": {"ios": "https://dc.lft.to/lastmile_qr_scan", "android": "https://dc.lft.to/lastmile_qr_scan"}}, {"name": "57d19282053dc812c879f343460b411f", "fusion_lat": 0.0, "type": "electric_scooter", "lat": 38.9042015, "is_reserved": 0, "is_disabled": 0, "fusion_lon": 0.0, "bike_id": "57d19282053dc812c879f343460b411f", "lon": -77.05316133333334, "rental_uris": {"ios": "https://dc.lft.to/lastmile_qr_scan", "android": "https://dc.lft.to/lastmile_qr_scan"}}, {"name": "14bb3b0d146760bfd549c0b3dd70025c", "fusion_lat": 0.0, "type": "electric_bike", "lat": 38.93467533333333, "is_reserved": 0, "is_disabled": 0, "fusion_lon": 0.0, "bike_id": "14bb3b0d146760bfd549c0b3dd70025c", "lon": -77.07288566666666, "rental_uris": {"ios": "https://dc.lft.to/lastmile_qr_scan", "android": "https://dc.lft.to/lastmile_qr_scan"}}, {"name": "2df326cafa982cc1a34da27d2219e3e6", "fusion_lat": 0.0, "type": "electric_scooter", "lat": 38.9336755, "is_reserved": 0, "is_disabled": 0, "fusion_lon": 0.0, "bike_id": "2df326cafa982cc1a34da27d2219e3e6", "lon": -77.0345355, "rental_uris": {"ios": "https://dc.lft.to/lastmile_qr_scan", "android": "https://dc.lft.to/lastmile_qr_scan"}}, {"name": "9672d785cc47f49d1093d2d0a77362c6", "fusion_lat": 0.0, "type": "electric_scooter", "lat": 38.91702866666667, "is_reserved": 0, "is_disabled": 0, "fusion_lon": 0.0, "bike_id": "9672d785cc47f49d1093d2d0a77362c6", "lon": -77.043381, "rental_uris": {"ios": "https://dc.lft.to/lastmile_qr_scan", "android": "https://dc.lft.to/lastmile_qr_scan"}}, {"name": "c29f060661ff1b72f16491a174084eaf", "fusion_lat": 0.0, "type": "electric_scooter", "lat": 38.86074633333333, "is_reserved": 0, "is_disabled": 0, "fusion_lon": 0.0, "bike_id": "c29f060661ff1b72f16491a174084eaf", "lon": -76.967304, "rental_uris": {"ios": "https://dc.lft.to/lastmile_qr_scan", "android": "https://dc.lft.to/lastmile_qr_scan"}}, {"name": "cd076c7cd3031643a98f4d32cc7aa01f", "fusion_lat": 0.0, "type": "electric_bike", "lat": 38.931269666666665, "is_reserved": 0, "is_disabled": 0, "fusion_lon": 0.0, "bike_id": "cd076c7cd3031643a98f4d32cc7aa01f", "lon": -77.02701283333333, "rental_uris": {"ios": "https://dc.lft.to/lastmile_qr_scan", "android": "https://dc.lft.to/lastmile_qr_scan"}}, {"name": "1027fbddb3d692f0df77f6011220a6c9", "fusion_lat": 0.0, "type": "electric_scooter", "lat": 38.903062, "is_reserved": 0, "is_disabled": 0, "fusion_lon": 0.0, "bike_id": "1027fbddb3d692f0df77f6011220a6c9", "lon": -77.03665266666667, "rental_uris": {"ios": "https://dc.lft.to/lastmile_qr_scan", "android": "https://dc.lft.to/lastmile_qr_scan"}}, {"name": "7679d9610c0e2098e05520f5b0f5d106", "fusion_lat": 0.0, "type": "electric_scooter", "lat": 38.91021833333333, "is_reserved": 0, "is_disabled": 0, "fusion_lon": 0.0, "bike_id": "7679d9610c0e2098e05520f5b0f5d106", "lon": -77.04424383333334, "rental_uris": {"ios": "https://dc.lft.to/lastmile_qr_scan", "android": "https://dc.lft.to/lastmile_qr_scan"}}, {"name": "125522933124d9f7f738b3d81a4ddeb2", "fusion_lat": 0.0, "type": "electric_scooter", "lat": 38.9012715, "is_reserved": 0, "is_disabled": 0, "fusion_lon": 0.0, "bike_id": "125522933124d9f7f738b3d81a4ddeb2", "lon": -77.0498915, "rental_uris": {"ios": "https://dc.lft.to/lastmile_qr_scan", "android": "https://dc.lft.to/lastmile_qr_scan"}}, {"name": "262d8fe1229b5ae24fd1e5cc2c7734de", "fusion_lat": 0.0, "type": "electric_scooter", "lat": 38.898920833333335, "is_reserved": 0, "is_disabled": 0, "fusion_lon": 0.0, "bike_id": "262d8fe1229b5ae24fd1e5cc2c7734de", "lon": -76.98574616666667, "rental_uris": {"ios": "https://dc.lft.to/lastmile_qr_scan", "android": "https://dc.lft.to/lastmile_qr_scan"}}, {"name": "d66ca7a2dd30c4255d99624248a6f9fd", "fusion_lat": 0.0, "type": "electric_scooter", "lat": 38.89893983333333, "is_reserved": 0, "is_disabled": 0, "fusion_lon": 0.0, "bike_id": "d66ca7a2dd30c4255d99624248a6f9fd", "lon": -76.93299766666667, "rental_uris": {"ios": "https://dc.lft.to/lastmile_qr_scan", "android": "https://dc.lft.to/lastmile_qr_scan"}}, {"name": "bb5d41454c3f1568867faf4a95338b88", "fusion_lat": 0.0, "type": "electric_scooter", "lat": 38.91102883333333, "is_reserved": 0, "is_disabled": 0, "fusion_lon": 0.0, "bike_id": "bb5d41454c3f1568867faf4a95338b88", "lon": -77.03189083333334, "rental_uris": {"ios": "https://dc.lft.to/lastmile_qr_scan", "android": "https://dc.lft.to/lastmile_qr_scan"}}, {"name": "b330f40e9bb3fe53a5716b3d101797e0", "fusion_lat": 0.0, "type": "electric_scooter", "lat": 38.91822483333333, "is_reserved": 0, "is_disabled": 0, "fusion_lon": 0.0, "bike_id": "b330f40e9bb3fe53a5716b3d101797e0", "lon": -77.03442533333333, "rental_uris": {"ios": "https://dc.lft.to/lastmile_qr_scan", "android": "https://dc.lft.to/lastmile_qr_scan"}}, {"name": "4083fc5f23e9e3dce5e71249d68e6b1d", "fusion_lat": 0.0, "type": "electric_scooter", "lat": 38.89608, "is_reserved": 0, "is_disabled": 0, "fusion_lon": 0.0, "bike_id": "4083fc5f23e9e3dce5e71249d68e6b1d", "lon": -77.01116016666667, "rental_uris": {"ios": "https://dc.lft.to/lastmile_qr_scan", "android": "https://dc.lft.to/lastmile_qr_scan"}}, {"name": "516c54e7b6447d449f205e14e479d860", "fusion_lat": 0.0, "type": "electric_scooter", "lat": 38.92242133333333, "is_reserved": 0, "is_disabled": 0, "fusion_lon": 0.0, "bike_id": "516c54e7b6447d449f205e14e479d860", "lon": -77.0221425, "rental_uris": {"ios": "https://dc.lft.to/lastmile_qr_scan", "android": "https://dc.lft.to/lastmile_qr_scan"}}, {"name": "707a387fd81593dd70654f1b3bb91b4f", "fusion_lat": 0.0, "type": "electric_scooter", "lat": 38.929755666666665, "is_reserved": 0, "is_disabled": 0, "fusion_lon": 0.0, "bike_id": "707a387fd81593dd70654f1b3bb91b4f", "lon": -77.0053365, "rental_uris": {"ios": "https://dc.lft.to/lastmile_qr_scan", "android": "https://dc.lft.to/lastmile_qr_scan"}}, {"name": "22f8ded0539c9bd5642c3b92c94d030b", "fusion_lat": 0.0, "type": "electric_scooter", "lat": 38.93370083333333, "is_reserved": 0, "is_disabled": 0, "fusion_lon": 0.0, "bike_id": "22f8ded0539c9bd5642c3b92c94d030b", "lon": -77.0572605, "rental_uris": {"ios": "https://dc.lft.to/lastmile_qr_scan", "android": "https://dc.lft.to/lastmile_qr_scan"}}, {"name": "5d8919d9e2fc57da63b761c2f665b369", "fusion_lat": 0.0, "type": "electric_scooter", "lat": 38.92388733333333, "is_reserved": 0, "is_disabled": 0, "fusion_lon": 0.0, "bike_id": "5d8919d9e2fc57da63b761c2f665b369", "lon": -77.029557, "rental_uris": {"ios": "https://dc.lft.to/lastmile_qr_scan", "android": "https://dc.lft.to/lastmile_qr_scan"}}, {"name": "e60255d9c9b8040f16faad07b3088c5b", "fusion_lat": 0.0, "type": "electric_bike", "lat": 38.91411183333334, "is_reserved": 0, "is_disabled": 0, "fusion_lon": 0.0, "bike_id": "e60255d9c9b8040f16faad07b3088c5b", "lon": -77.03225966666666, "rental_uris": {"ios": "https://dc.lft.to/lastmile_qr_scan", "android": "https://dc.lft.to/lastmile_qr_scan"}}, {"name": "48bf332bdb4eba5255dd5650307b61cf", "fusion_lat": 0.0, "type": "electric_bike", "lat": 38.89837566666667, "is_reserved": 0, "is_disabled": 0, "fusion_lon": 0.0, "bike_id": "48bf332bdb4eba5255dd5650307b61cf", "lon": -77.1180165, "rental_uris": {"ios": "https://dc.lft.to/lastmile_qr_scan", "android": "https://dc.lft.to/lastmile_qr_scan"}}, {"name": "4e41e00d91605ec9173b4f3a8f42ff23", "fusion_lat": 0.0, "type": "electric_scooter", "lat": 38.914254666666665, "is_reserved": 0, "is_disabled": 0, "fusion_lon": 0.0, "bike_id": "4e41e00d91605ec9173b4f3a8f42ff23", "lon": -77.041541, "rental_uris": {"ios": "https://dc.lft.to/lastmile_qr_scan", "android": "https://dc.lft.to/lastmile_qr_scan"}}, {"name": "dc52af2b72599977b0824072cc521eb1", "fusion_lat": 0.0, "type": "electric_scooter", "lat": 38.90661166666667, "is_reserved": 0, "is_disabled": 0, "fusion_lon": 0.0, "bike_id": "dc52af2b72599977b0824072cc521eb1", "lon": -76.98370533333333, "rental_uris": {"ios": "https://dc.lft.to/lastmile_qr_scan", "android": "https://dc.lft.to/lastmile_qr_scan"}}, {"name": "ef443c71ecbd816d27867a20126a2834", "fusion_lat": 0.0, "type": "electric_scooter", "lat": 38.912567833333334, "is_reserved": 0, "is_disabled": 0, "fusion_lon": 0.0, "bike_id": "ef443c71ecbd816d27867a20126a2834", "lon": -77.00777516666666, "rental_uris": {"ios": "https://dc.lft.to/lastmile_qr_scan", "android": "https://dc.lft.to/lastmile_qr_scan"}}, {"name": "30f405921278bd6c4981034af956efa1", "fusion_lat": 0.0, "type": "electric_scooter", "lat": 38.909804, "is_reserved": 0, "is_disabled": 0, "fusion_lon": 0.0, "bike_id": "30f405921278bd6c4981034af956efa1", "lon": -76.98718066666666, "rental_uris": {"ios": "https://dc.lft.to/lastmile_qr_scan", "android": "https://dc.lft.to/lastmile_qr_scan"}}, {"name": "98dd7f0da1f799f632955c7f3d904991", "fusion_lat": 0.0, "type": "electric_scooter", "lat": 38.886168, "is_reserved": 0, "is_disabled": 0, "fusion_lon": 0.0, "bike_id": "98dd7f0da1f799f632955c7f3d904991", "lon": -76.97816966666667, "rental_uris": {"ios": "https://dc.lft.to/lastmile_qr_scan", "android": "https://dc.lft.to/lastmile_qr_scan"}}, {"name": "a285ed83b62ad98fd6736ce0a25f083c", "fusion_lat": 0.0, "type": "electric_scooter", "lat": 38.92138383333333, "is_reserved": 0, "is_disabled": 0, "fusion_lon": 0.0, "bike_id": "a285ed83b62ad98fd6736ce0a25f083c", "lon": -77.04577266666666, "rental_uris": {"ios": "https://dc.lft.to/lastmile_qr_scan", "android": "https://dc.lft.to/lastmile_qr_scan"}}, {"name": "680cfba4e6681c35d571e52c81324ebf", "fusion_lat": 0.0, "type": "electric_bike", "lat": 38.89695666666667, "is_reserved": 0, "is_disabled": 0, "fusion_lon": 0.0, "bike_id": "680cfba4e6681c35d571e52c81324ebf", "lon": -76.94065316666666, "rental_uris": {"ios": "https://dc.lft.to/lastmile_qr_scan", "android": "https://dc.lft.to/lastmile_qr_scan"}}, {"name": "12f4ac82077ffaede478206a97afd8c1", "fusion_lat": 0.0, "type": "electric_scooter", "lat": 38.9037685, "is_reserved": 0, "is_disabled": 0, "fusion_lon": 0.0, "bike_id": "12f4ac82077ffaede478206a97afd8c1", "lon": -77.04509583333333, "rental_uris": {"ios": "https://dc.lft.to/lastmile_qr_scan", "android": "https://dc.lft.to/lastmile_qr_scan"}}, {"name": "9c044a241e808a7c46865bc92aa5829c", "fusion_lat": 0.0, "type": "electric_scooter", "lat": 38.90959, "is_reserved": 0, "is_disabled": 0, "fusion_lon": 0.0, "bike_id": "9c044a241e808a7c46865bc92aa5829c", "lon": -77.03868616666666, "rental_uris": {"ios": "https://dc.lft.to/lastmile_qr_scan", "android": "https://dc.lft.to/lastmile_qr_scan"}}, {"name": "894cb62a23072dbf56bb215db8935c80", "fusion_lat": 0.0, "type": "electric_scooter", "lat": 38.92065316666667, "is_reserved": 0, "is_disabled": 0, "fusion_lon": 0.0, "bike_id": "894cb62a23072dbf56bb215db8935c80", "lon": -77.02934916666666, "rental_uris": {"ios": "https://dc.lft.to/lastmile_qr_scan", "android": "https://dc.lft.to/lastmile_qr_scan"}}, {"name": "901ebc07e065d9dea2d6bda17170e8a7", "fusion_lat": 0.0, "type": "electric_scooter", "lat": 38.933163, "is_reserved": 0, "is_disabled": 0, "fusion_lon": 0.0, "bike_id": "901ebc07e065d9dea2d6bda17170e8a7", "lon": -77.03102683333333, "rental_uris": {"ios": "https://dc.lft.to/lastmile_qr_scan", "android": "https://dc.lft.to/lastmile_qr_scan"}}, {"name": "66f8f0febe077c93d2b25b6a3696be88", "fusion_lat": 0.0, "type": "electric_bike", "lat": 38.88638016666667, "is_reserved": 0, "is_disabled": 0, "fusion_lon": 0.0, "bike_id": "66f8f0febe077c93d2b25b6a3696be88", "lon": -76.95459983333333, "rental_uris": {"ios": "https://dc.lft.to/lastmile_qr_scan", "android": "https://dc.lft.to/lastmile_qr_scan"}}, {"name": "6c309780cac02b471c9b904a0b39dad5", "fusion_lat": 0.0, "type": "electric_scooter", "lat": 38.93190116666667, "is_reserved": 0, "is_disabled": 0, "fusion_lon": 0.0, "bike_id": "6c309780cac02b471c9b904a0b39dad5", "lon": -77.02787583333334, "rental_uris": {"ios": "https://dc.lft.to/lastmile_qr_scan", "android": "https://dc.lft.to/lastmile_qr_scan"}}, {"name": "67392a9b3028bed0a62d8dad53b3a14d", "fusion_lat": 0.0, "type": "electric_scooter", "lat": 38.918513, "is_reserved": 0, "is_disabled": 0, "fusion_lon": 0.0, "bike_id": "67392a9b3028bed0a62d8dad53b3a14d", "lon": -77.02607433333333, "rental_uris": {"ios": "https://dc.lft.to/lastmile_qr_scan", "android": "https://dc.lft.to/lastmile_qr_scan"}}, {"name": "d9a5c6da47a645f4d0b1f506e53c61ee", "fusion_lat": 0.0, "type": "electric_scooter", "lat": 38.90602066666667, "is_reserved": 0, "is_disabled": 0, "fusion_lon": 0.0, "bike_id": "d9a5c6da47a645f4d0b1f506e53c61ee", "lon": -77.04160383333334, "rental_uris": {"ios": "https://dc.lft.to/lastmile_qr_scan", "android": "https://dc.lft.to/lastmile_qr_scan"}}, {"name": "9e3620242cceb8c672597f18f746523d", "fusion_lat": 0.0, "type": "electric_scooter", "lat": 38.90038466666667, "is_reserved": 0, "is_disabled": 0, "fusion_lon": 0.0, "bike_id": "9e3620242cceb8c672597f18f746523d", "lon": -76.99829933333334, "rental_uris": {"ios": "https://dc.lft.to/lastmile_qr_scan", "android": "https://dc.lft.to/lastmile_qr_scan"}}, {"name": "4a2abf339a67806ebde8bb45f0e9d5f7", "fusion_lat": 0.0, "type": "electric_scooter", "lat": 38.92161983333333, "is_reserved": 0, "is_disabled": 0, "fusion_lon": 0.0, "bike_id": "4a2abf339a67806ebde8bb45f0e9d5f7", "lon": -77.04013316666666, "rental_uris": {"ios": "https://dc.lft.to/lastmile_qr_scan", "android": "https://dc.lft.to/lastmile_qr_scan"}}, {"name": "7a2a58d86ffd6603e7ecad6df833e695", "fusion_lat": 0.0, "type": "electric_scooter", "lat": 38.91490316666667, "is_reserved": 0, "is_disabled": 0, "fusion_lon": 0.0, "bike_id": "7a2a58d86ffd6603e7ecad6df833e695", "lon": -77.0406695, "rental_uris": {"ios": "https://dc.lft.to/lastmile_qr_scan", "android": "https://dc.lft.to/lastmile_qr_scan"}}, {"name": "ce543b5266d5671665870c181049dcfe", "fusion_lat": 0.0, "type": "electric_bike", "lat": 38.92993166666667, "is_reserved": 0, "is_disabled": 0, "fusion_lon": 0.0, "bike_id": "ce543b5266d5671665870c181049dcfe", "lon": -77.01967566666667, "rental_uris": {"ios": "https://dc.lft.to/lastmile_qr_scan", "android": "https://dc.lft.to/lastmile_qr_scan"}}, {"name": "94f0931d7e4fa52901d900c2800ecaad", "fusion_lat": 0.0, "type": "electric_scooter", "lat": 38.90873766666667, "is_reserved": 0, "is_disabled": 0, "fusion_lon": 0.0, "bike_id": "94f0931d7e4fa52901d900c2800ecaad", "lon": -77.0188535, "rental_uris": {"ios": "https://dc.lft.to/lastmile_qr_scan", "android": "https://dc.lft.to/lastmile_qr_scan"}}, {"name": "5a550d81aae657e2e08c101ebe9c5050", "fusion_lat": 0.0, "type": "electric_scooter", "lat": 38.9041685, "is_reserved": 0, "is_disabled": 0, "fusion_lon": 0.0, "bike_id": "5a550d81aae657e2e08c101ebe9c5050", "lon": -76.97884066666667, "rental_uris": {"ios": "https://dc.lft.to/lastmile_qr_scan", "android": "https://dc.lft.to/lastmile_qr_scan"}}, {"name": "25e7e495b8161d1a9ec791ec0e64ab6d", "fusion_lat": 0.0, "type": "electric_bike", "lat": 38.929869833333335, "is_reserved": 0, "is_disabled": 0, "fusion_lon": 0.0, "bike_id": "25e7e495b8161d1a9ec791ec0e64ab6d", "lon": -77.01978366666667, "rental_uris": {"ios": "https://dc.lft.to/lastmile_qr_scan", "android": "https://dc.lft.to/lastmile_qr_scan"}}, {"name": "31982ad5cd5dd12e8ed7bab7d5f9004f", "fusion_lat": 0.0, "type": "electric_scooter", "lat": 38.921319833333335, "is_reserved": 0, "is_disabled": 0, "fusion_lon": 0.0, "bike_id": "31982ad5cd5dd12e8ed7bab7d5f9004f", "lon": -77.04212683333333, "rental_uris": {"ios": "https://dc.lft.to/lastmile_qr_scan", "android": "https://dc.lft.to/lastmile_qr_scan"}}, {"name": "745fdea2e0e1cd2b3fa55b047627556b", "fusion_lat": 0.0, "type": "electric_scooter", "lat": 38.911305666666664, "is_reserved": 0, "is_disabled": 0, "fusion_lon": 0.0, "bike_id": "745fdea2e0e1cd2b3fa55b047627556b", "lon": -77.0239495, "rental_uris": {"ios": "https://dc.lft.to/lastmile_qr_scan", "android": "https://dc.lft.to/lastmile_qr_scan"}}, {"name": "5cb6aabeb10eff75a3921db63a1a00c2", "fusion_lat": 0.0, "type": "electric_scooter", "lat": 38.90769566666667, "is_reserved": 0, "is_disabled": 0, "fusion_lon": 0.0, "bike_id": "5cb6aabeb10eff75a3921db63a1a00c2", "lon": -77.03550633333333, "rental_uris": {"ios": "https://dc.lft.to/lastmile_qr_scan", "android": "https://dc.lft.to/lastmile_qr_scan"}}, {"name": "d817aec1a14dbad1da056d4b504db786", "fusion_lat": 0.0, "type": "electric_bike", "lat": 38.85794766666667, "is_reserved": 0, "is_disabled": 0, "fusion_lon": 0.0, "bike_id": "d817aec1a14dbad1da056d4b504db786", "lon": -76.9874415, "rental_uris": {"ios": "https://dc.lft.to/lastmile_qr_scan", "android": "https://dc.lft.to/lastmile_qr_scan"}}, {"name": "ac10bcf97bd4ae09030e3092e2d6aeb1", "fusion_lat": 0.0, "type": "electric_bike", "lat": 38.95958683333333, "is_reserved": 0, "is_disabled": 0, "fusion_lon": 0.0, "bike_id": "ac10bcf97bd4ae09030e3092e2d6aeb1", "lon": -77.100876, "rental_uris": {"ios": "https://dc.lft.to/lastmile_qr_scan", "android": "https://dc.lft.to/lastmile_qr_scan"}}, {"name": "427115dcb1bb18609bfde1bff6e66bb6", "fusion_lat": 0.0, "type": "electric_scooter", "lat": 38.90730383333333, "is_reserved": 0, "is_disabled": 0, "fusion_lon": 0.0, "bike_id": "427115dcb1bb18609bfde1bff6e66bb6", "lon": -77.00543366666666, "rental_uris": {"ios": "https://dc.lft.to/lastmile_qr_scan", "android": "https://dc.lft.to/lastmile_qr_scan"}}, {"name": "d10cd72e5f57dd2e91c1284b0df87b29", "fusion_lat": 0.0, "type": "electric_scooter", "lat": 38.935532333333335, "is_reserved": 0, "is_disabled": 0, "fusion_lon": 0.0, "bike_id": "d10cd72e5f57dd2e91c1284b0df87b29", "lon": -77.03418883333333, "rental_uris": {"ios": "https://dc.lft.to/lastmile_qr_scan", "android": "https://dc.lft.to/lastmile_qr_scan"}}, {"name": "05c497fc66fd733bbbea06dd65a352e1", "fusion_lat": 0.0, "type": "electric_scooter", "lat": 38.917033, "is_reserved": 0, "is_disabled": 0, "fusion_lon": 0.0, "bike_id": "05c497fc66fd733bbbea06dd65a352e1", "lon": -77.03163383333333, "rental_uris": {"ios": "https://dc.lft.to/lastmile_qr_scan", "android": "https://dc.lft.to/lastmile_qr_scan"}}, {"name": "b4ccaac656a2afba04deb6950244efd9", "fusion_lat": 0.0, "type": "electric_scooter", "lat": 38.904635666666664, "is_reserved": 0, "is_disabled": 0, "fusion_lon": 0.0, "bike_id": "b4ccaac656a2afba04deb6950244efd9", "lon": -77.01428116666666, "rental_uris": {"ios": "https://dc.lft.to/lastmile_qr_scan", "android": "https://dc.lft.to/lastmile_qr_scan"}}, {"name": "7541baa26aec915755a4fe067537e1a6", "fusion_lat": 0.0, "type": "electric_bike", "lat": 39.03054933333333, "is_reserved": 0, "is_disabled": 0, "fusion_lon": 0.0, "bike_id": "7541baa26aec915755a4fe067537e1a6", "lon": -77.094749, "rental_uris": {"ios": "https://dc.lft.to/lastmile_qr_scan", "android": "https://dc.lft.to/lastmile_qr_scan"}}, {"name": "b6e0d22533182dcb984147edbf1f8961", "fusion_lat": 0.0, "type": "electric_scooter", "lat": 38.90028566666667, "is_reserved": 0, "is_disabled": 0, "fusion_lon": 0.0, "bike_id": "b6e0d22533182dcb984147edbf1f8961", "lon": -76.98848866666667, "rental_uris": {"ios": "https://dc.lft.to/lastmile_qr_scan", "android": "https://dc.lft.to/lastmile_qr_scan"}}, {"name": "2693dc7373593ce1c03d30ea91ef7a58", "fusion_lat": 0.0, "type": "electric_scooter", "lat": 38.884358166666665, "is_reserved": 0, "is_disabled": 0, "fusion_lon": 0.0, "bike_id": "2693dc7373593ce1c03d30ea91ef7a58", "lon": -76.99591166666667, "rental_uris": {"ios": "https://dc.lft.to/lastmile_qr_scan", "android": "https://dc.lft.to/lastmile_qr_scan"}}, {"name": "e7aa0898e25a16e1a1211dd7a9d936ee", "fusion_lat": 0.0, "type": "electric_scooter", "lat": 38.900398833333334, "is_reserved": 0, "is_disabled": 0, "fusion_lon": 0.0, "bike_id": "e7aa0898e25a16e1a1211dd7a9d936ee", "lon": -76.998292, "rental_uris": {"ios": "https://dc.lft.to/lastmile_qr_scan", "android": "https://dc.lft.to/lastmile_qr_scan"}}, {"name": "330fedbe18111bda80d0db0c1ded56a2", "fusion_lat": 0.0, "type": "electric_scooter", "lat": 38.896037, "is_reserved": 0, "is_disabled": 0, "fusion_lon": 0.0, "bike_id": "330fedbe18111bda80d0db0c1ded56a2", "lon": -77.04132983333334, "rental_uris": {"ios": "https://dc.lft.to/lastmile_qr_scan", "android": "https://dc.lft.to/lastmile_qr_scan"}}, {"name": "b41e2eb2c7eaeb9d2ab114273614ad98", "fusion_lat": 0.0, "type": "electric_scooter", "lat": 38.906531333333334, "is_reserved": 0, "is_disabled": 0, "fusion_lon": 0.0, "bike_id": "b41e2eb2c7eaeb9d2ab114273614ad98", "lon": -77.014146, "rental_uris": {"ios": "https://dc.lft.to/lastmile_qr_scan", "android": "https://dc.lft.to/lastmile_qr_scan"}}, {"name": "b8a779b704ab1555d8e4e60f943141a0", "fusion_lat": 0.0, "type": "electric_scooter", "lat": 38.870827, "is_reserved": 0, "is_disabled": 0, "fusion_lon": 0.0, "bike_id": "b8a779b704ab1555d8e4e60f943141a0", "lon": -76.96864066666667, "rental_uris": {"ios": "https://dc.lft.to/lastmile_qr_scan", "android": "https://dc.lft.to/lastmile_qr_scan"}}, {"name": "5b9b54dedfb08b9e3485c234e1aacae5", "fusion_lat": 0.0, "type": "electric_scooter", "lat": 38.927799666666665, "is_reserved": 0, "is_disabled": 0, "fusion_lon": 0.0, "bike_id": "5b9b54dedfb08b9e3485c234e1aacae5", "lon": -77.0265405, "rental_uris": {"ios": "https://dc.lft.to/lastmile_qr_scan", "android": "https://dc.lft.to/lastmile_qr_scan"}}, {"name": "edbb8d5eff176ebd219d1f6e0783809b", "fusion_lat": 0.0, "type": "electric_scooter", "lat": 38.92019483333333, "is_reserved": 0, "is_disabled": 0, "fusion_lon": 0.0, "bike_id": "edbb8d5eff176ebd219d1f6e0783809b", "lon": -77.03968033333334, "rental_uris": {"ios": "https://dc.lft.to/lastmile_qr_scan", "android": "https://dc.lft.to/lastmile_qr_scan"}}, {"name": "cdd491594b33ed6969d58af910875bb0", "fusion_lat": 0.0, "type": "electric_scooter", "lat": 38.87236433333333, "is_reserved": 0, "is_disabled": 0, "fusion_lon": 0.0, "bike_id": "cdd491594b33ed6969d58af910875bb0", "lon": -77.01163366666667, "rental_uris": {"ios": "https://dc.lft.to/lastmile_qr_scan", "android": "https://dc.lft.to/lastmile_qr_scan"}}, {"name": "eb1e0903b1dda20cf76489959f3395ab", "fusion_lat": 0.0, "type": "electric_scooter", "lat": 38.92248466666667, "is_reserved": 0, "is_disabled": 0, "fusion_lon": 0.0, "bike_id": "eb1e0903b1dda20cf76489959f3395ab", "lon": -77.04489916666667, "rental_uris": {"ios": "https://dc.lft.to/lastmile_qr_scan", "android": "https://dc.lft.to/lastmile_qr_scan"}}, {"name": "0b7293f99dfd915d9efc55dddb24be3c", "fusion_lat": 0.0, "type": "electric_scooter", "lat": 38.9161125, "is_reserved": 0, "is_disabled": 0, "fusion_lon": 0.0, "bike_id": "0b7293f99dfd915d9efc55dddb24be3c", "lon": -77.04162533333333, "rental_uris": {"ios": "https://dc.lft.to/lastmile_qr_scan", "android": "https://dc.lft.to/lastmile_qr_scan"}}, {"name": "b7f345dfaf57489868155e2069b8efa5", "fusion_lat": 0.0, "type": "electric_scooter", "lat": 38.93607766666667, "is_reserved": 0, "is_disabled": 0, "fusion_lon": 0.0, "bike_id": "b7f345dfaf57489868155e2069b8efa5", "lon": -77.05856866666667, "rental_uris": {"ios": "https://dc.lft.to/lastmile_qr_scan", "android": "https://dc.lft.to/lastmile_qr_scan"}}, {"name": "4c2bd08fb6c418e9a076c409205e9ff8", "fusion_lat": 0.0, "type": "electric_scooter", "lat": 38.919273, "is_reserved": 0, "is_disabled": 0, "fusion_lon": 0.0, "bike_id": "4c2bd08fb6c418e9a076c409205e9ff8", "lon": -77.03225116666667, "rental_uris": {"ios": "https://dc.lft.to/lastmile_qr_scan", "android": "https://dc.lft.to/lastmile_qr_scan"}}, {"name": "548f1a75383439bd850d24261f7b33bc", "fusion_lat": 0.0, "type": "electric_scooter", "lat": 38.900498666666664, "is_reserved": 0, "is_disabled": 0, "fusion_lon": 0.0, "bike_id": "548f1a75383439bd850d24261f7b33bc", "lon": -77.00074183333334, "rental_uris": {"ios": "https://dc.lft.to/lastmile_qr_scan", "android": "https://dc.lft.to/lastmile_qr_scan"}}, {"name": "3ed3ca51bec0d3614109ae79a59a1955", "fusion_lat": 0.0, "type": "electric_scooter", "lat": 38.925830500000004, "is_reserved": 0, "is_disabled": 0, "fusion_lon": 0.0, "bike_id": "3ed3ca51bec0d3614109ae79a59a1955", "lon": -77.04374916666667, "rental_uris": {"ios": "https://dc.lft.to/lastmile_qr_scan", "android": "https://dc.lft.to/lastmile_qr_scan"}}, {"name": "89195cb72b37f94dc639ef89d55f7035", "fusion_lat": 0.0, "type": "electric_scooter", "lat": 38.9112235, "is_reserved": 0, "is_disabled": 0, "fusion_lon": 0.0, "bike_id": "89195cb72b37f94dc639ef89d55f7035", "lon": -77.03728566666666, "rental_uris": {"ios": "https://dc.lft.to/lastmile_qr_scan", "android": "https://dc.lft.to/lastmile_qr_scan"}}, {"name": "65b6215756ca9a06ce0919ea4517d5e6", "fusion_lat": 0.0, "type": "electric_scooter", "lat": 38.909511, "is_reserved": 0, "is_disabled": 0, "fusion_lon": 0.0, "bike_id": "65b6215756ca9a06ce0919ea4517d5e6", "lon": -77.04954133333334, "rental_uris": {"ios": "https://dc.lft.to/lastmile_qr_scan", "android": "https://dc.lft.to/lastmile_qr_scan"}}, {"name": "f93bb2ff82e05778d04fcf3de0b602cb", "fusion_lat": 0.0, "type": "electric_scooter", "lat": 38.883601666666664, "is_reserved": 0, "is_disabled": 0, "fusion_lon": 0.0, "bike_id": "f93bb2ff82e05778d04fcf3de0b602cb", "lon": -76.99611683333333, "rental_uris": {"ios": "https://dc.lft.to/lastmile_qr_scan", "android": "https://dc.lft.to/lastmile_qr_scan"}}, {"name": "d78ddd99cd19cc6d1d54144e24417845", "fusion_lat": 0.0, "type": "electric_scooter", "lat": 38.923384, "is_reserved": 0, "is_disabled": 0, "fusion_lon": 0.0, "bike_id": "d78ddd99cd19cc6d1d54144e24417845", "lon": -77.04188983333333, "rental_uris": {"ios": "https://dc.lft.to/lastmile_qr_scan", "android": "https://dc.lft.to/lastmile_qr_scan"}}, {"name": "db2396e7faeee0d2f51f7b322105d358", "fusion_lat": 0.0, "type": "electric_scooter", "lat": 38.917879166666665, "is_reserved": 0, "is_disabled": 0, "fusion_lon": 0.0, "bike_id": "db2396e7faeee0d2f51f7b322105d358", "lon": -77.02303416666666, "rental_uris": {"ios": "https://dc.lft.to/lastmile_qr_scan", "android": "https://dc.lft.to/lastmile_qr_scan"}}, {"name": "7f667eb8c7291144a60f19153cb0a262", "fusion_lat": 0.0, "type": "electric_scooter", "lat": 38.88740166666667, "is_reserved": 0, "is_disabled": 0, "fusion_lon": 0.0, "bike_id": "7f667eb8c7291144a60f19153cb0a262", "lon": -77.03216, "rental_uris": {"ios": "https://dc.lft.to/lastmile_qr_scan", "android": "https://dc.lft.to/lastmile_qr_scan"}}, {"name": "2657450a4d4239d69996328c849a7911", "fusion_lat": 0.0, "type": "electric_bike", "lat": 38.925828833333334, "is_reserved": 0, "is_disabled": 0, "fusion_lon": 0.0, "bike_id": "2657450a4d4239d69996328c849a7911", "lon": -76.994937, "rental_uris": {"ios": "https://dc.lft.to/lastmile_qr_scan", "android": "https://dc.lft.to/lastmile_qr_scan"}}, {"name": "af45578586cb8dc69cee5aec6dc89baa", "fusion_lat": 0.0, "type": "electric_scooter", "lat": 38.92040433333333, "is_reserved": 0, "is_disabled": 0, "fusion_lon": 0.0, "bike_id": "af45578586cb8dc69cee5aec6dc89baa", "lon": -77.07145866666667, "rental_uris": {"ios": "https://dc.lft.to/lastmile_qr_scan", "android": "https://dc.lft.to/lastmile_qr_scan"}}, {"name": "cf7157ca877a1a0eeff9d17dadc943a7", "fusion_lat": 0.0, "type": "electric_scooter", "lat": 38.90755683333333, "is_reserved": 0, "is_disabled": 0, "fusion_lon": 0.0, "bike_id": "cf7157ca877a1a0eeff9d17dadc943a7", "lon": -76.998758, "rental_uris": {"ios": "https://dc.lft.to/lastmile_qr_scan", "android": "https://dc.lft.to/lastmile_qr_scan"}}, {"name": "22996465def6bcc8ff87bc4ab7f5ed6e", "fusion_lat": 0.0, "type": "electric_scooter", "lat": 38.929453, "is_reserved": 0, "is_disabled": 0, "fusion_lon": 0.0, "bike_id": "22996465def6bcc8ff87bc4ab7f5ed6e", "lon": -77.03688716666667, "rental_uris": {"ios": "https://dc.lft.to/lastmile_qr_scan", "android": "https://dc.lft.to/lastmile_qr_scan"}}, {"name": "0b59321c7f65aee3ae64e7e8d3c76715", "fusion_lat": 0.0, "type": "electric_scooter", "lat": 38.901227, "is_reserved": 0, "is_disabled": 0, "fusion_lon": 0.0, "bike_id": "0b59321c7f65aee3ae64e7e8d3c76715", "lon": -77.04214483333334, "rental_uris": {"ios": "https://dc.lft.to/lastmile_qr_scan", "android": "https://dc.lft.to/lastmile_qr_scan"}}, {"name": "7ae7a0f9d663b6855cdfb49520b5465a", "fusion_lat": 0.0, "type": "electric_scooter", "lat": 38.946078666666665, "is_reserved": 0, "is_disabled": 0, "fusion_lon": 0.0, "bike_id": "7ae7a0f9d663b6855cdfb49520b5465a", "lon": -77.0297765, "rental_uris": {"ios": "https://dc.lft.to/lastmile_qr_scan", "android": "https://dc.lft.to/lastmile_qr_scan"}}, {"name": "c840251e0012daf46bc8a188a5bb0e01", "fusion_lat": 0.0, "type": "electric_scooter", "lat": 38.9057535, "is_reserved": 0, "is_disabled": 0, "fusion_lon": 0.0, "bike_id": "c840251e0012daf46bc8a188a5bb0e01", "lon": -77.04865183333334, "rental_uris": {"ios": "https://dc.lft.to/lastmile_qr_scan", "android": "https://dc.lft.to/lastmile_qr_scan"}}, {"name": "5efe266e1b54115acfbb1eaf609f8d29", "fusion_lat": 0.0, "type": "electric_scooter", "lat": 38.91611416666667, "is_reserved": 0, "is_disabled": 0, "fusion_lon": 0.0, "bike_id": "5efe266e1b54115acfbb1eaf609f8d29", "lon": -77.02168816666666, "rental_uris": {"ios": "https://dc.lft.to/lastmile_qr_scan", "android": "https://dc.lft.to/lastmile_qr_scan"}}, {"name": "37eba400ab9eb116bd955b1c04415fa7", "fusion_lat": 0.0, "type": "electric_bike", "lat": 38.948963666666664, "is_reserved": 0, "is_disabled": 0, "fusion_lon": 0.0, "bike_id": "37eba400ab9eb116bd955b1c04415fa7", "lon": -76.96376633333334, "rental_uris": {"ios": "https://dc.lft.to/lastmile_qr_scan", "android": "https://dc.lft.to/lastmile_qr_scan"}}, {"name": "741f7ac2ed67c871403f8d0c65ec24b2", "fusion_lat": 0.0, "type": "electric_scooter", "lat": 38.914894333333336, "is_reserved": 0, "is_disabled": 0, "fusion_lon": 0.0, "bike_id": "741f7ac2ed67c871403f8d0c65ec24b2", "lon": -77.03262733333334, "rental_uris": {"ios": "https://dc.lft.to/lastmile_qr_scan", "android": "https://dc.lft.to/lastmile_qr_scan"}}, {"name": "d650c4b7636c290123fc2ae30c3b6721", "fusion_lat": 0.0, "type": "electric_bike", "lat": 38.8639845, "is_reserved": 0, "is_disabled": 0, "fusion_lon": 0.0, "bike_id": "d650c4b7636c290123fc2ae30c3b6721", "lon": -76.98989366666666, "rental_uris": {"ios": "https://dc.lft.to/lastmile_qr_scan", "android": "https://dc.lft.to/lastmile_qr_scan"}}, {"name": "f41ef2074ffaa72db960eadda69e7efe", "fusion_lat": 0.0, "type": "electric_scooter", "lat": 38.941737333333336, "is_reserved": 0, "is_disabled": 0, "fusion_lon": 0.0, "bike_id": "f41ef2074ffaa72db960eadda69e7efe", "lon": -77.04135716666667, "rental_uris": {"ios": "https://dc.lft.to/lastmile_qr_scan", "android": "https://dc.lft.to/lastmile_qr_scan"}}, {"name": "079c851078e5a3c60807ab7fe8521818", "fusion_lat": 0.0, "type": "electric_bike", "lat": 38.998204333333334, "is_reserved": 0, "is_disabled": 0, "fusion_lon": 0.0, "bike_id": "079c851078e5a3c60807ab7fe8521818", "lon": -76.88369866666666, "rental_uris": {"ios": "https://dc.lft.to/lastmile_qr_scan", "android": "https://dc.lft.to/lastmile_qr_scan"}}, {"name": "7e64976dc17bb8cf4a41ae1a947bb307", "fusion_lat": 0.0, "type": "electric_scooter", "lat": 38.835952166666665, "is_reserved": 0, "is_disabled": 0, "fusion_lon": 0.0, "bike_id": "7e64976dc17bb8cf4a41ae1a947bb307", "lon": -76.99352866666666, "rental_uris": {"ios": "https://dc.lft.to/lastmile_qr_scan", "android": "https://dc.lft.to/lastmile_qr_scan"}}, {"name": "9815cc581909078b1c46383b98919456", "fusion_lat": 0.0, "type": "electric_scooter", "lat": 38.87429016666667, "is_reserved": 0, "is_disabled": 0, "fusion_lon": 0.0, "bike_id": "9815cc581909078b1c46383b98919456", "lon": -76.97185166666667, "rental_uris": {"ios": "https://dc.lft.to/lastmile_qr_scan", "android": "https://dc.lft.to/lastmile_qr_scan"}}, {"name": "90a82bdc998ddaf9070c391e395ada84", "fusion_lat": 0.0, "type": "electric_scooter", "lat": 38.918399, "is_reserved": 0, "is_disabled": 0, "fusion_lon": 0.0, "bike_id": "90a82bdc998ddaf9070c391e395ada84", "lon": -77.02596933333334, "rental_uris": {"ios": "https://dc.lft.to/lastmile_qr_scan", "android": "https://dc.lft.to/lastmile_qr_scan"}}, {"name": "3a32c53d2c2b3c75b5e7d3119dc75f9d", "fusion_lat": 0.0, "type": "electric_scooter", "lat": 38.90332983333333, "is_reserved": 0, "is_disabled": 0, "fusion_lon": 0.0, "bike_id": "3a32c53d2c2b3c75b5e7d3119dc75f9d", "lon": -77.06641, "rental_uris": {"ios": "https://dc.lft.to/lastmile_qr_scan", "android": "https://dc.lft.to/lastmile_qr_scan"}}, {"name": "eabccc4f2bca2dd81199389f2ec088c6", "fusion_lat": 0.0, "type": "electric_scooter", "lat": 38.903691, "is_reserved": 0, "is_disabled": 0, "fusion_lon": 0.0, "bike_id": "eabccc4f2bca2dd81199389f2ec088c6", "lon": -77.01104883333333, "rental_uris": {"ios": "https://dc.lft.to/lastmile_qr_scan", "android": "https://dc.lft.to/lastmile_qr_scan"}}, {"name": "ce7cd8b3d9bd1b598b92cf109b1b8c6d", "fusion_lat": 0.0, "type": "electric_scooter", "lat": 38.89879583333333, "is_reserved": 0, "is_disabled": 0, "fusion_lon": 0.0, "bike_id": "ce7cd8b3d9bd1b598b92cf109b1b8c6d", "lon": -76.93160166666667, "rental_uris": {"ios": "https://dc.lft.to/lastmile_qr_scan", "android": "https://dc.lft.to/lastmile_qr_scan"}}, {"name": "8511d2447351e2ba30d1096b9c2db7cf", "fusion_lat": 0.0, "type": "electric_scooter", "lat": 38.91196216666667, "is_reserved": 0, "is_disabled": 0, "fusion_lon": 0.0, "bike_id": "8511d2447351e2ba30d1096b9c2db7cf", "lon": -77.036419, "rental_uris": {"ios": "https://dc.lft.to/lastmile_qr_scan", "android": "https://dc.lft.to/lastmile_qr_scan"}}, {"name": "016d41018016a0cd6a19ce9d8e38690f", "fusion_lat": 0.0, "type": "electric_scooter", "lat": 38.90660666666667, "is_reserved": 0, "is_disabled": 0, "fusion_lon": 0.0, "bike_id": "016d41018016a0cd6a19ce9d8e38690f", "lon": -77.04159716666666, "rental_uris": {"ios": "https://dc.lft.to/lastmile_qr_scan", "android": "https://dc.lft.to/lastmile_qr_scan"}}, {"name": "02f9a31e92ee9aa4a3e0b3908a4e1966", "fusion_lat": 0.0, "type": "electric_scooter", "lat": 38.919525166666666, "is_reserved": 0, "is_disabled": 0, "fusion_lon": 0.0, "bike_id": "02f9a31e92ee9aa4a3e0b3908a4e1966", "lon": -77.01388016666667, "rental_uris": {"ios": "https://dc.lft.to/lastmile_qr_scan", "android": "https://dc.lft.to/lastmile_qr_scan"}}, {"name": "a970c13d5b8b1244371cf429723f0bac", "fusion_lat": 0.0, "type": "electric_scooter", "lat": 38.89527833333333, "is_reserved": 0, "is_disabled": 0, "fusion_lon": 0.0, "bike_id": "a970c13d5b8b1244371cf429723f0bac", "lon": -76.94899416666667, "rental_uris": {"ios": "https://dc.lft.to/lastmile_qr_scan", "android": "https://dc.lft.to/lastmile_qr_scan"}}, {"name": "23c82c449d2e13fdf96a4f9d813ec7bd", "fusion_lat": 0.0, "type": "electric_bike", "lat": 38.85222816666667, "is_reserved": 0, "is_disabled": 0, "fusion_lon": 0.0, "bike_id": "23c82c449d2e13fdf96a4f9d813ec7bd", "lon": -77.12954766666667, "rental_uris": {"ios": "https://dc.lft.to/lastmile_qr_scan", "android": "https://dc.lft.to/lastmile_qr_scan"}}, {"name": "227ac14791797eeab2b71eb1d685c7b5", "fusion_lat": 0.0, "type": "electric_scooter", "lat": 38.87923683333333, "is_reserved": 0, "is_disabled": 0, "fusion_lon": 0.0, "bike_id": "227ac14791797eeab2b71eb1d685c7b5", "lon": -77.02155816666667, "rental_uris": {"ios": "https://dc.lft.to/lastmile_qr_scan", "android": "https://dc.lft.to/lastmile_qr_scan"}}, {"name": "c1801a30c825d98c27aee89e25c42fde", "fusion_lat": 0.0, "type": "electric_scooter", "lat": 38.89554833333333, "is_reserved": 0, "is_disabled": 0, "fusion_lon": 0.0, "bike_id": "c1801a30c825d98c27aee89e25c42fde", "lon": -76.9837485, "rental_uris": {"ios": "https://dc.lft.to/lastmile_qr_scan", "android": "https://dc.lft.to/lastmile_qr_scan"}}, {"name": "f520c482eaf854f780fae5ed744bedf2", "fusion_lat": 0.0, "type": "electric_scooter", "lat": 38.90892316666667, "is_reserved": 0, "is_disabled": 0, "fusion_lon": 0.0, "bike_id": "f520c482eaf854f780fae5ed744bedf2", "lon": -77.03203583333334, "rental_uris": {"ios": "https://dc.lft.to/lastmile_qr_scan", "android": "https://dc.lft.to/lastmile_qr_scan"}}, {"name": "863ceae1a2ac11ea38381a47a92713d7", "fusion_lat": 0.0, "type": "electric_bike", "lat": 38.984623666666664, "is_reserved": 0, "is_disabled": 0, "fusion_lon": 0.0, "bike_id": "863ceae1a2ac11ea38381a47a92713d7", "lon": -76.955225, "rental_uris": {"ios": "https://dc.lft.to/lastmile_qr_scan", "android": "https://dc.lft.to/lastmile_qr_scan"}}, {"name": "dc837fd5d030f24adbab4c48e7f3a85c", "fusion_lat": 0.0, "type": "electric_bike", "lat": 38.86597016666666, "is_reserved": 0, "is_disabled": 0, "fusion_lon": 0.0, "bike_id": "dc837fd5d030f24adbab4c48e7f3a85c", "lon": -76.9323195, "rental_uris": {"ios": "https://dc.lft.to/lastmile_qr_scan", "android": "https://dc.lft.to/lastmile_qr_scan"}}, {"name": "d7ec03fdfc4804607975a5fafa532a9c", "fusion_lat": 0.0, "type": "electric_scooter", "lat": 38.87671366666667, "is_reserved": 0, "is_disabled": 0, "fusion_lon": 0.0, "bike_id": "d7ec03fdfc4804607975a5fafa532a9c", "lon": -77.00411533333333, "rental_uris": {"ios": "https://dc.lft.to/lastmile_qr_scan", "android": "https://dc.lft.to/lastmile_qr_scan"}}, {"name": "7163e5a838cebb32f46df1842550ba35", "fusion_lat": 0.0, "type": "electric_bike", "lat": 38.85329433333333, "is_reserved": 0, "is_disabled": 0, "fusion_lon": 0.0, "bike_id": "7163e5a838cebb32f46df1842550ba35", "lon": -77.05366466666666, "rental_uris": {"ios": "https://dc.lft.to/lastmile_qr_scan", "android": "https://dc.lft.to/lastmile_qr_scan"}}, {"name": "c650ba1fde8d758918768afec35a6e15", "fusion_lat": 0.0, "type": "electric_scooter", "lat": 38.900704, "is_reserved": 0, "is_disabled": 0, "fusion_lon": 0.0, "bike_id": "c650ba1fde8d758918768afec35a6e15", "lon": -77.04882283333333, "rental_uris": {"ios": "https://dc.lft.to/lastmile_qr_scan", "android": "https://dc.lft.to/lastmile_qr_scan"}}, {"name": "54f8839bf103a00b5b7b53c6c4258551", "fusion_lat": 0.0, "type": "electric_scooter", "lat": 38.9173055, "is_reserved": 0, "is_disabled": 0, "fusion_lon": 0.0, "bike_id": "54f8839bf103a00b5b7b53c6c4258551", "lon": -77.03841866666667, "rental_uris": {"ios": "https://dc.lft.to/lastmile_qr_scan", "android": "https://dc.lft.to/lastmile_qr_scan"}}, {"name": "e87a443454b73d3e21da2d50a92d6801", "fusion_lat": 0.0, "type": "electric_scooter", "lat": 38.929658, "is_reserved": 0, "is_disabled": 0, "fusion_lon": 0.0, "bike_id": "e87a443454b73d3e21da2d50a92d6801", "lon": -77.0197235, "rental_uris": {"ios": "https://dc.lft.to/lastmile_qr_scan", "android": "https://dc.lft.to/lastmile_qr_scan"}}, {"name": "344b119184cb1d8662f4b9bbf7c89b7e", "fusion_lat": 0.0, "type": "electric_scooter", "lat": 38.88054, "is_reserved": 0, "is_disabled": 0, "fusion_lon": 0.0, "bike_id": "344b119184cb1d8662f4b9bbf7c89b7e", "lon": -76.95984766666666, "rental_uris": {"ios": "https://dc.lft.to/lastmile_qr_scan", "android": "https://dc.lft.to/lastmile_qr_scan"}}, {"name": "943ef74d5d738a9a8d47661bc2a6ef77", "fusion_lat": 0.0, "type": "electric_scooter", "lat": 38.915711333333334, "is_reserved": 0, "is_disabled": 0, "fusion_lon": 0.0, "bike_id": "943ef74d5d738a9a8d47661bc2a6ef77", "lon": -77.03200016666666, "rental_uris": {"ios": "https://dc.lft.to/lastmile_qr_scan", "android": "https://dc.lft.to/lastmile_qr_scan"}}, {"name": "0763a6ba062ba3bb561218572234c013", "fusion_lat": 0.0, "type": "electric_bike", "lat": 38.95544983333333, "is_reserved": 0, "is_disabled": 0, "fusion_lon": 0.0, "bike_id": "0763a6ba062ba3bb561218572234c013", "lon": -77.0162335, "rental_uris": {"ios": "https://dc.lft.to/lastmile_qr_scan", "android": "https://dc.lft.to/lastmile_qr_scan"}}, {"name": "37dc0a3142db39f54141c22920d808a6", "fusion_lat": 0.0, "type": "electric_bike", "lat": 39.10567733333333, "is_reserved": 0, "is_disabled": 0, "fusion_lon": 0.0, "bike_id": "37dc0a3142db39f54141c22920d808a6", "lon": -77.15267916666667, "rental_uris": {"ios": "https://dc.lft.to/lastmile_qr_scan", "android": "https://dc.lft.to/lastmile_qr_scan"}}, {"name": "84f155d71f49ffaf10d6b7eb9cb199e7", "fusion_lat": 0.0, "type": "electric_scooter", "lat": 38.94283133333333, "is_reserved": 0, "is_disabled": 0, "fusion_lon": 0.0, "bike_id": "84f155d71f49ffaf10d6b7eb9cb199e7", "lon": -77.025088, "rental_uris": {"ios": "https://dc.lft.to/lastmile_qr_scan", "android": "https://dc.lft.to/lastmile_qr_scan"}}, {"name": "6bd716dfa643c02a05eb65895e716440", "fusion_lat": 0.0, "type": "electric_scooter", "lat": 38.87649183333333, "is_reserved": 0, "is_disabled": 0, "fusion_lon": 0.0, "bike_id": "6bd716dfa643c02a05eb65895e716440", "lon": -76.96505166666667, "rental_uris": {"ios": "https://dc.lft.to/lastmile_qr_scan", "android": "https://dc.lft.to/lastmile_qr_scan"}}, {"name": "7d7d605550eb7b0c440adfbb30c3ad00", "fusion_lat": 0.0, "type": "electric_scooter", "lat": 38.92382833333333, "is_reserved": 0, "is_disabled": 0, "fusion_lon": 0.0, "bike_id": "7d7d605550eb7b0c440adfbb30c3ad00", "lon": -77.030954, "rental_uris": {"ios": "https://dc.lft.to/lastmile_qr_scan", "android": "https://dc.lft.to/lastmile_qr_scan"}}, {"name": "0a2c15de322317abddaca27cc3e33961", "fusion_lat": 0.0, "type": "electric_scooter", "lat": 38.907076833333335, "is_reserved": 0, "is_disabled": 0, "fusion_lon": 0.0, "bike_id": "0a2c15de322317abddaca27cc3e33961", "lon": -77.02218133333334, "rental_uris": {"ios": "https://dc.lft.to/lastmile_qr_scan", "android": "https://dc.lft.to/lastmile_qr_scan"}}, {"name": "77baf5bab1d4b7543b905d141f448d0f", "fusion_lat": 0.0, "type": "electric_scooter", "lat": 38.909706, "is_reserved": 0, "is_disabled": 0, "fusion_lon": 0.0, "bike_id": "77baf5bab1d4b7543b905d141f448d0f", "lon": -77.0367815, "rental_uris": {"ios": "https://dc.lft.to/lastmile_qr_scan", "android": "https://dc.lft.to/lastmile_qr_scan"}}, {"name": "4e520eacc19edaa63ebe2e74d4da36b9", "fusion_lat": 0.0, "type": "electric_scooter", "lat": 38.905679, "is_reserved": 0, "is_disabled": 0, "fusion_lon": 0.0, "bike_id": "4e520eacc19edaa63ebe2e74d4da36b9", "lon": -77.02960983333334, "rental_uris": {"ios": "https://dc.lft.to/lastmile_qr_scan", "android": "https://dc.lft.to/lastmile_qr_scan"}}, {"name": "8dfbeb4ac14fd9624c20d8371b370ff2", "fusion_lat": 0.0, "type": "electric_bike", "lat": 38.89570616666666, "is_reserved": 0, "is_disabled": 0, "fusion_lon": 0.0, "bike_id": "8dfbeb4ac14fd9624c20d8371b370ff2", "lon": -77.12738566666667, "rental_uris": {"ios": "https://dc.lft.to/lastmile_qr_scan", "android": "https://dc.lft.to/lastmile_qr_scan"}}, {"name": "50a1d4efab06a5e04181b1870080f2ce", "fusion_lat": 0.0, "type": "electric_scooter", "lat": 38.91193083333334, "is_reserved": 0, "is_disabled": 0, "fusion_lon": 0.0, "bike_id": "50a1d4efab06a5e04181b1870080f2ce", "lon": -77.04504033333333, "rental_uris": {"ios": "https://dc.lft.to/lastmile_qr_scan", "android": "https://dc.lft.to/lastmile_qr_scan"}}, {"name": "21379347bd5dc5bbccdd123183b9d362", "fusion_lat": 0.0, "type": "electric_scooter", "lat": 38.896125, "is_reserved": 0, "is_disabled": 0, "fusion_lon": 0.0, "bike_id": "21379347bd5dc5bbccdd123183b9d362", "lon": -77.04120383333333, "rental_uris": {"ios": "https://dc.lft.to/lastmile_qr_scan", "android": "https://dc.lft.to/lastmile_qr_scan"}}, {"name": "b85c3fc7065579011b6f3cac5e0d9b32", "fusion_lat": 0.0, "type": "electric_scooter", "lat": 38.902462, "is_reserved": 0, "is_disabled": 0, "fusion_lon": 0.0, "bike_id": "b85c3fc7065579011b6f3cac5e0d9b32", "lon": -77.02692, "rental_uris": {"ios": "https://dc.lft.to/lastmile_qr_scan", "android": "https://dc.lft.to/lastmile_qr_scan"}}, {"name": "585f723858df02ab7267ee115a394c86", "fusion_lat": 0.0, "type": "electric_scooter", "lat": 38.919528, "is_reserved": 0, "is_disabled": 0, "fusion_lon": 0.0, "bike_id": "585f723858df02ab7267ee115a394c86", "lon": -77.01387316666667, "rental_uris": {"ios": "https://dc.lft.to/lastmile_qr_scan", "android": "https://dc.lft.to/lastmile_qr_scan"}}, {"name": "40bf751edc8ba46c59d38941512ea917", "fusion_lat": 0.0, "type": "electric_bike", "lat": 38.910985833333335, "is_reserved": 0, "is_disabled": 0, "fusion_lon": 0.0, "bike_id": "40bf751edc8ba46c59d38941512ea917", "lon": -77.00494233333333, "rental_uris": {"ios": "https://dc.lft.to/lastmile_qr_scan", "android": "https://dc.lft.to/lastmile_qr_scan"}}, {"name": "d8f9338640bb1f55ed3c0f884a33fdf6", "fusion_lat": 0.0, "type": "electric_scooter", "lat": 38.8923185, "is_reserved": 0, "is_disabled": 0, "fusion_lon": 0.0, "bike_id": "d8f9338640bb1f55ed3c0f884a33fdf6", "lon": -77.050027, "rental_uris": {"ios": "https://dc.lft.to/lastmile_qr_scan", "android": "https://dc.lft.to/lastmile_qr_scan"}}, {"name": "9aae3967201773720722b601328f7933", "fusion_lat": 0.0, "type": "electric_scooter", "lat": 38.924225666666665, "is_reserved": 0, "is_disabled": 0, "fusion_lon": 0.0, "bike_id": "9aae3967201773720722b601328f7933", "lon": -77.01950316666667, "rental_uris": {"ios": "https://dc.lft.to/lastmile_qr_scan", "android": "https://dc.lft.to/lastmile_qr_scan"}}, {"name": "a44baf9e15cc6daf1ce824472bbb9ee0", "fusion_lat": 0.0, "type": "electric_scooter", "lat": 38.9182285, "is_reserved": 0, "is_disabled": 0, "fusion_lon": 0.0, "bike_id": "a44baf9e15cc6daf1ce824472bbb9ee0", "lon": -77.04003483333334, "rental_uris": {"ios": "https://dc.lft.to/lastmile_qr_scan", "android": "https://dc.lft.to/lastmile_qr_scan"}}, {"name": "dc1b110e13f1919770d0842f0fcaf81f", "fusion_lat": 0.0, "type": "electric_scooter", "lat": 38.877477666666664, "is_reserved": 0, "is_disabled": 0, "fusion_lon": 0.0, "bike_id": "dc1b110e13f1919770d0842f0fcaf81f", "lon": -77.0198125, "rental_uris": {"ios": "https://dc.lft.to/lastmile_qr_scan", "android": "https://dc.lft.to/lastmile_qr_scan"}}, {"name": "1b33f2ae5dfdb55b27f2c76f5a2d0baa", "fusion_lat": 0.0, "type": "electric_scooter", "lat": 38.924880333333334, "is_reserved": 0, "is_disabled": 0, "fusion_lon": 0.0, "bike_id": "1b33f2ae5dfdb55b27f2c76f5a2d0baa", "lon": -77.02848833333333, "rental_uris": {"ios": "https://dc.lft.to/lastmile_qr_scan", "android": "https://dc.lft.to/lastmile_qr_scan"}}, {"name": "ab3daee06f34a3ee9b022bfb13df1f10", "fusion_lat": 0.0, "type": "electric_scooter", "lat": 38.9361635, "is_reserved": 0, "is_disabled": 0, "fusion_lon": 0.0, "bike_id": "ab3daee06f34a3ee9b022bfb13df1f10", "lon": -77.03210666666666, "rental_uris": {"ios": "https://dc.lft.to/lastmile_qr_scan", "android": "https://dc.lft.to/lastmile_qr_scan"}}, {"name": "79dded37ac4df2fe276b8c59bbd29396", "fusion_lat": 0.0, "type": "electric_scooter", "lat": 38.901369333333335, "is_reserved": 0, "is_disabled": 0, "fusion_lon": 0.0, "bike_id": "79dded37ac4df2fe276b8c59bbd29396", "lon": -77.00056766666667, "rental_uris": {"ios": "https://dc.lft.to/lastmile_qr_scan", "android": "https://dc.lft.to/lastmile_qr_scan"}}, {"name": "2c1ffd68559d4b738cd07672ff975866", "fusion_lat": 0.0, "type": "electric_scooter", "lat": 38.9294825, "is_reserved": 0, "is_disabled": 0, "fusion_lon": 0.0, "bike_id": "2c1ffd68559d4b738cd07672ff975866", "lon": -76.99746483333334, "rental_uris": {"ios": "https://dc.lft.to/lastmile_qr_scan", "android": "https://dc.lft.to/lastmile_qr_scan"}}, {"name": "fde592da7b5e5c8274c16c41d29e9914", "fusion_lat": 0.0, "type": "electric_scooter", "lat": 38.907396, "is_reserved": 0, "is_disabled": 0, "fusion_lon": 0.0, "bike_id": "fde592da7b5e5c8274c16c41d29e9914", "lon": -77.04665433333334, "rental_uris": {"ios": "https://dc.lft.to/lastmile_qr_scan", "android": "https://dc.lft.to/lastmile_qr_scan"}}, {"name": "701d01262dba11873f6a2689eb2ad0d9", "fusion_lat": 0.0, "type": "electric_scooter", "lat": 38.918477333333335, "is_reserved": 0, "is_disabled": 0, "fusion_lon": 0.0, "bike_id": "701d01262dba11873f6a2689eb2ad0d9", "lon": -77.03631483333334, "rental_uris": {"ios": "https://dc.lft.to/lastmile_qr_scan", "android": "https://dc.lft.to/lastmile_qr_scan"}}, {"name": "0773706db1b41d1e506d9c619b03b752", "fusion_lat": 0.0, "type": "electric_bike", "lat": 38.875506333333334, "is_reserved": 0, "is_disabled": 0, "fusion_lon": 0.0, "bike_id": "0773706db1b41d1e506d9c619b03b752", "lon": -76.9675785, "rental_uris": {"ios": "https://dc.lft.to/lastmile_qr_scan", "android": "https://dc.lft.to/lastmile_qr_scan"}}, {"name": "4b834046f4a1c65e090e9b781bed1ed1", "fusion_lat": 0.0, "type": "electric_scooter", "lat": 38.908376, "is_reserved": 0, "is_disabled": 0, "fusion_lon": 0.0, "bike_id": "4b834046f4a1c65e090e9b781bed1ed1", "lon": -77.00259866666667, "rental_uris": {"ios": "https://dc.lft.to/lastmile_qr_scan", "android": "https://dc.lft.to/lastmile_qr_scan"}}, {"name": "900cf1707bb5211400bf0ca89fd16e0b", "fusion_lat": 0.0, "type": "electric_scooter", "lat": 38.908045666666666, "is_reserved": 0, "is_disabled": 0, "fusion_lon": 0.0, "bike_id": "900cf1707bb5211400bf0ca89fd16e0b", "lon": -76.99698233333334, "rental_uris": {"ios": "https://dc.lft.to/lastmile_qr_scan", "android": "https://dc.lft.to/lastmile_qr_scan"}}, {"name": "9e7a21d1349d7a4c152476874707cfad", "fusion_lat": 0.0, "type": "electric_bike", "lat": 38.949781, "is_reserved": 0, "is_disabled": 0, "fusion_lon": 0.0, "bike_id": "9e7a21d1349d7a4c152476874707cfad", "lon": -76.972845, "rental_uris": {"ios": "https://dc.lft.to/lastmile_qr_scan", "android": "https://dc.lft.to/lastmile_qr_scan"}}, {"name": "1eb500e2b532787e418b29040387cfa1", "fusion_lat": 0.0, "type": "electric_scooter", "lat": 38.905015166666665, "is_reserved": 0, "is_disabled": 0, "fusion_lon": 0.0, "bike_id": "1eb500e2b532787e418b29040387cfa1", "lon": -77.01446633333333, "rental_uris": {"ios": "https://dc.lft.to/lastmile_qr_scan", "android": "https://dc.lft.to/lastmile_qr_scan"}}, {"name": "c1f389a4ea00b052752374a7d481230a", "fusion_lat": 0.0, "type": "electric_scooter", "lat": 38.90039316666667, "is_reserved": 0, "is_disabled": 0, "fusion_lon": 0.0, "bike_id": "c1f389a4ea00b052752374a7d481230a", "lon": -77.00633733333333, "rental_uris": {"ios": "https://dc.lft.to/lastmile_qr_scan", "android": "https://dc.lft.to/lastmile_qr_scan"}}, {"name": "bbdebdd65e47b071121e3e0792fa7503", "fusion_lat": 0.0, "type": "electric_scooter", "lat": 38.925212, "is_reserved": 0, "is_disabled": 0, "fusion_lon": 0.0, "bike_id": "bbdebdd65e47b071121e3e0792fa7503", "lon": -77.00222133333334, "rental_uris": {"ios": "https://dc.lft.to/lastmile_qr_scan", "android": "https://dc.lft.to/lastmile_qr_scan"}}, {"name": "77970fe69843270313c838882063335f", "fusion_lat": 0.0, "type": "electric_scooter", "lat": 38.9126285, "is_reserved": 0, "is_disabled": 0, "fusion_lon": 0.0, "bike_id": "77970fe69843270313c838882063335f", "lon": -77.04037466666666, "rental_uris": {"ios": "https://dc.lft.to/lastmile_qr_scan", "android": "https://dc.lft.to/lastmile_qr_scan"}}, {"name": "6246fe6ca324f8cffbec0ea5ac7a47cc", "fusion_lat": 0.0, "type": "electric_scooter", "lat": 38.896798833333335, "is_reserved": 0, "is_disabled": 0, "fusion_lon": 0.0, "bike_id": "6246fe6ca324f8cffbec0ea5ac7a47cc", "lon": -76.99623183333334, "rental_uris": {"ios": "https://dc.lft.to/lastmile_qr_scan", "android": "https://dc.lft.to/lastmile_qr_scan"}}, {"name": "5350dd307fe6618e59a98d0eed81b3bd", "fusion_lat": 0.0, "type": "electric_scooter", "lat": 38.909744333333336, "is_reserved": 0, "is_disabled": 0, "fusion_lon": 0.0, "bike_id": "5350dd307fe6618e59a98d0eed81b3bd", "lon": -77.02181566666667, "rental_uris": {"ios": "https://dc.lft.to/lastmile_qr_scan", "android": "https://dc.lft.to/lastmile_qr_scan"}}, {"name": "4f902e68867c38a6de232933a1331672", "fusion_lat": 0.0, "type": "electric_scooter", "lat": 38.913549833333335, "is_reserved": 0, "is_disabled": 0, "fusion_lon": 0.0, "bike_id": "4f902e68867c38a6de232933a1331672", "lon": -77.00348416666667, "rental_uris": {"ios": "https://dc.lft.to/lastmile_qr_scan", "android": "https://dc.lft.to/lastmile_qr_scan"}}, {"name": "bcebad95d45cfdbfb5eaf3013229b3bf", "fusion_lat": 0.0, "type": "electric_scooter", "lat": 38.9003165, "is_reserved": 0, "is_disabled": 0, "fusion_lon": 0.0, "bike_id": "bcebad95d45cfdbfb5eaf3013229b3bf", "lon": -76.98845816666666, "rental_uris": {"ios": "https://dc.lft.to/lastmile_qr_scan", "android": "https://dc.lft.to/lastmile_qr_scan"}}, {"name": "fbfd9032cb74e76a9b869fd6ae6ccde9", "fusion_lat": 0.0, "type": "electric_scooter", "lat": 38.9245555, "is_reserved": 0, "is_disabled": 0, "fusion_lon": 0.0, "bike_id": "fbfd9032cb74e76a9b869fd6ae6ccde9", "lon": -77.03276333333334, "rental_uris": {"ios": "https://dc.lft.to/lastmile_qr_scan", "android": "https://dc.lft.to/lastmile_qr_scan"}}, {"name": "162b86a8214350cfa0a829feb0451f27", "fusion_lat": 0.0, "type": "electric_scooter", "lat": 38.908671166666664, "is_reserved": 0, "is_disabled": 0, "fusion_lon": 0.0, "bike_id": "162b86a8214350cfa0a829feb0451f27", "lon": -77.08593566666667, "rental_uris": {"ios": "https://dc.lft.to/lastmile_qr_scan", "android": "https://dc.lft.to/lastmile_qr_scan"}},