{"data": {"bikes": [{"bike_id": "637898c496fe1e0753131af59860473e", "lat": 38.915391166666666, "is_disabled": 0, "lon": -77.03853983333333, "fusion_lon": 0.0, "is_reserved": 0, "fusion_lat": 0.0, "rental_uris": {"android": "https://dc.lft.to/lastmile_qr_scan", "ios": "https://dc.lft.to/lastmile_qr_scan"}, "type": "electric_scooter", "name": "637898c496fe1e0753131af59860473e"}, {"bike_id": "6f125a77770e91abe0131d544437697c", "lat": 38.89496366666667, "is_disabled": 0, "lon": -77.0094625, "fusion_lon": 0.0, "is_reserved": 0, "fusion_lat": 0.0, "rental_uris": {"android": "https://dc.lft.to/lastmile_qr_scan", "ios": "https://dc.lft.to/lastmile_qr_scan"}, "type": "electric_scooter", "name": "6f125a77770e91abe0131d544437697c"}, {"bike_id": "54124b033fec3a41ae28d7ba66080c52", "lat": 38.9276055, "is_disabled": 0, "lon": -77.02816733333333, "fusion_lon": 0.0, "is_reserved": 0, "fusion_lat": 0.0, "rental_uris": {"android": "https://dc.lft.to/lastmile_qr_scan", "ios": "https://dc.lft.to/lastmile_qr_scan"}, "type": "electric_scooter", "name": "54124b033fec3a41ae28d7ba66080c52"}, {"bike_id": "55d92511c9ddb3239e0ade2799080c50", "lat": 38.893708833333335, "is_disabled": 0, "lon": -77.046722, "fusion_lon": 0.0, "is_reserved": 0, "fusion_lat": 0.0, "rental_uris": {"android": "https://dc.lft.to/lastmile_qr_scan", "ios": "https://dc.lft.to/lastmile_qr_scan"}, "type": "electric_scooter", "name": "55d92511c9ddb3239e0ade2799080c50"}, {"bike_id": "899fb65d645add0cc0ab1c40fa189be6", "lat": 38.91940616666667, "is_disabled": 0, "lon": -77.0181, "fusion_lon": 0.0, "is_reserved": 0, "fusion_lat": 0.0, "rental_uris": {"android": "https://dc.lft.to/lastmile_qr_scan", "ios": "https://dc.lft.to/lastmile_qr_scan"}, "type": "electric_scooter", "name": "899fb65d645add0cc0ab1c40fa189be6"}, {"bike_id": "1ffc700228674265bf85de0d18148ccd", "lat": 38.93101016666667, "is_disabled": 0, "lon": -77.03266533333333, "fusion_lon": 0.0, "is_reserved": 0, "fusion_lat": 0.0, "rental_uris": {"android": "https://dc.lft.to/lastmile_qr_scan", "ios": "https://dc.lft.to/lastmile_qr_scan"}, "type": "electric_scooter", "name": "1ffc700228674265bf85de0d18148ccd"}, {"bike_id": "54f9bc3212497931d785b9a822ce6a9c", "lat": 38.911873666666665, "is_disabled": 0, "lon": -76.98734383333333, "fusion_lon": 0.0, "is_reserved": 0, "fusion_lat": 0.0, "rental_uris": {"android": "https://dc.lft.to/lastmile_qr_scan", "ios": "https://dc.lft.to/lastmile_qr_scan"}, "type": "electric_scooter", "name": "54f9bc3212497931d785b9a822ce6a9c"}, {"bike_id": "b78980e0ffa51351e5d9a4771a5eec40", "lat": 38.934279, "is_disabled": 0, "lon": -77.0398935, "fusion_lon": 0.0, "is_reserved": 0, "fusion_lat": 0.0, "rental_uris": {"android": "https://dc.lft.to/lastmile_qr_scan", "ios": "https://dc.lft.to/lastmile_qr_scan"}, "type": "electric_scooter", "name": "b78980e0ffa51351e5d9a4771a5eec40"}, {"bike_id": "228d784ed086f3ce1c6b429c0a016679", "lat": 38.8650545, "is_disabled": 0, "lon": -76.98982166666667, "fusion_lon": 0.0, "is_reserved": 0, "fusion_lat": 0.0, "rental_uris": {"android": "https://dc.lft.to/lastmile_qr_scan", "ios": "https://dc.lft.to/lastmile_qr_scan"}, "type": "electric_scooter", "name": "228d784ed086f3ce1c6b429c0a016679"}, {"bike_id": "4b8e3e317b265533ab2f4e00fcf91b60", "lat": 38.90099933333333, "is_disabled": 0, "lon": -77.02531916666666, "fusion_lon": 0.0, "is_reserved": 0, "fusion_lat": 0.0, "rental_uris": {"android": "https://dc.lft.to/lastmile_qr_scan", "ios": "https://dc.lft.to/lastmile_qr_scan"}, "type": "electric_scooter", "name": "4b8e3e317b265533ab2f4e00fcf91b60"}, {"bike_id": "636159a02fa05220251403576fdde153", "lat": 38.9202915, "is_disabled": 0, "lon": -77.01221366666667, "fusion_lon": 0.0, "is_reserved": 0, "fusion_lat": 0.0, "rental_uris": {"android": "https://dc.lft.to/lastmile_qr_scan", "ios": "https://dc.lft.to/lastmile_qr_scan"}, "type": "electric_scooter", "name": "636159a02fa05220251403576fdde153"}, {"bike_id": "7c33ceec204b11fdf496da20e75ffc69", "lat": 38.89220483333333, "is_disabled": 0, "lon": -77.04865383333333, "fusion_lon": 0.0, "is_reserved": 0, "fusion_lat": 0.0, "rental_uris": {"android": "https://dc.lft.to/lastmile_qr_scan", "ios": "https://dc.lft.to/lastmile_qr_scan"}, "type": "electric_scooter", "name": "7c33ceec204b11fdf496da20e75ffc69"}, {"bike_id": "a68d0520fb936f1e51faf094fc31db59", "lat": 38.903930833333334, "is_disabled": 0, "lon": -77.047653, "fusion_lon": 0.0, "is_reserved": 0, "fusion_lat": 0.0, "rental_uris": {"android": "https://dc.lft.to/lastmile_qr_scan", "ios": "https://dc.lft.to/lastmile_qr_scan"}, "type": "electric_scooter", "name": "a68d0520fb936f1e51faf094fc31db59"}, {"bike_id": "56ef833261bc393f43f599607e461580", "lat": 38.91891283333333, "is_disabled": 0, "lon": -77.02099833333334, "fusion_lon": 0.0, "is_reserved": 0, "fusion_lat": 0.0, "rental_uris": {"android": "https://dc.lft.to/lastmile_qr_scan", "ios": "https://dc.lft.to/lastmile_qr_scan"}, "type": "electric_scooter", "name": "56ef833261bc393f43f599607e461580"}, {"bike_id": "c6f9466009eac47fa0293c84da1e8094", "lat": 38.87916766666667, "is_disabled": 0, "lon": -76.98464583333333, "fusion_lon": 0.0, "is_reserved": 0, "fusion_lat": 0.0, "rental_uris": {"android": "https://dc.lft.to/lastmile_qr_scan", "ios": "https://dc.lft.to/lastmile_qr_scan"}, "type": "electric_bike", "name": "c6f9466009eac47fa0293c84da1e8094"}, {"bike_id": "29795336f29ccbbb2405bb8620aa575f", "lat": 38.9181665, "is_disabled": 0, "lon": -77.03931566666667, "fusion_lon": 0.0, "is_reserved": 0, "fusion_lat": 0.0, "rental_uris": {"android": "https://dc.lft.to/lastmile_qr_scan", "ios": "https://dc.lft.to/lastmile_qr_scan"}, "type": "electric_scooter", "name": "29795336f29ccbbb2405bb8620aa575f"}, {"bike_id": "166097abdfdc6e685b04a2b6a63ed22e", "lat": 38.91808266666666, "is_disabled": 0, "lon": -77.02711866666667, "fusion_lon": 0.0, "is_reserved": 0, "fusion_lat": 0.0, "rental_uris": {"android": "https://dc.lft.to/lastmile_qr_scan", "ios": "https://dc.lft.to/lastmile_qr_scan"}, "type": "electric_scooter", "name": "166097abdfdc6e685b04a2b6a63ed22e"}, {"bike_id": "43226194bcdbf1cb88e9997671c528b4", "lat": 38.886743833333334, "is_disabled": 0, "lon": -77.01374516666667, "fusion_lon": 0.0, "is_reserved": 0, "fusion_lat": 0.0, "rental_uris": {"android": "https://dc.lft.to/lastmile_qr_scan", "ios": "https://dc.lft.to/lastmile_qr_scan"}, "type": "electric_scooter", "name": "43226194bcdbf1cb88e9997671c528b4"}, {"bike_id": "cbff9dca0c844440d9f0a86b9c371bb7", "lat": 38.9118485, "is_disabled": 0, "lon": -77.042325, "fusion_lon": 0.0, "is_reserved": 0, "fusion_lat": 0.0, "rental_uris": {"android": "https://dc.lft.to/lastmile_qr_scan", "ios": "https://dc.lft.to/lastmile_qr_scan"}, "type": "electric_scooter", "name": "cbff9dca0c844440d9f0a86b9c371bb7"}, {"bike_id": "564874b2553adfc17aef6336b95fac4e", "lat": 38.9130475, "is_disabled": 0, "lon": -77.03657516666667, "fusion_lon": 0.0, "is_reserved": 0, "fusion_lat": 0.0, "rental_uris": {"android": "https://dc.lft.to/lastmile_qr_scan", "ios": "https://dc.lft.to/lastmile_qr_scan"}, "type": "electric_scooter", "name": "564874b2553adfc17aef6336b95fac4e"}, {"bike_id": "5e264ae297cda4b32297726aa63ae3c0", "lat": 38.857231, "is_disabled": 0, "lon": -76.97773716666667, "fusion_lon": 0.0, "is_reserved": 0, "fusion_lat": 0.0, "rental_uris": {"android": "https://dc.lft.to/lastmile_qr_scan", "ios": "https://dc.lft.to/lastmile_qr_scan"}, "type": "electric_bike", "name": "5e264ae297cda4b32297726aa63ae3c0"}, {"bike_id": "1db96c2fd933080004e44ee924656153", "lat": 38.92099983333333, "is_disabled": 0, "lon": -77.031855, "fusion_lon": 0.0, "is_reserved": 0, "fusion_lat": 0.0, "rental_uris": {"android": "https://dc.lft.to/lastmile_qr_scan", "ios": "https://dc.lft.to/lastmile_qr_scan"}, "type": "electric_scooter", "name": "1db96c2fd933080004e44ee924656153"}, {"bike_id": "41345c11b53e0600343b492743fc717d", "lat": 38.8972335, "is_disabled": 0, "lon": -77.0269595, "fusion_lon": 0.0, "is_reserved": 0, "fusion_lat": 0.0, "rental_uris": {"android": "https://dc.lft.to/lastmile_qr_scan", "ios": "https://dc.lft.to/lastmile_qr_scan"}, "type": "electric_scooter", "name": "41345c11b53e0600343b492743fc717d"}, {"bike_id": "86d42ceb3a0839bb425f789ab21faae2", "lat": 38.90585333333333, "is_disabled": 0, "lon": -77.04725266666667, "fusion_lon": 0.0, "is_reserved": 0, "fusion_lat": 0.0, "rental_uris": {"android": "https://dc.lft.to/lastmile_qr_scan", "ios": "https://dc.lft.to/lastmile_qr_scan"}, "type": "electric_scooter", "name": "86d42ceb3a0839bb425f789ab21faae2"}, {"bike_id": "b328bdb9ffe60735173f31e3464768c6", "lat": 38.799853166666665, "is_disabled": 0, "lon": -77.12977533333333, "fusion_lon": 0.0, "is_reserved": 0, "fusion_lat": 0.0, "rental_uris": {"android": "https://dc.lft.to/lastmile_qr_scan", "ios": "https://dc.lft.to/lastmile_qr_scan"}, "type": "electric_bike", "name": "b328bdb9ffe60735173f31e3464768c6"}, {"bike_id": "0671c399ca0b05dccb54e2d99dc23539", "lat": 38.876816833333336, "is_disabled": 0, "lon": -77.0178895, "fusion_lon": 0.0, "is_reserved": 0, "fusion_lat": 0.0, "rental_uris": {"android": "https://dc.lft.to/lastmile_qr_scan", "ios": "https://dc.lft.to/lastmile_qr_scan"}, "type": "electric_scooter", "name": "0671c399ca0b05dccb54e2d99dc23539"}, {"bike_id": "7060539c3344b66ce7c7e86b19245119", "lat": 38.924300833333334, "is_disabled": 0, "lon": -77.02027983333333, "fusion_lon": 0.0, "is_reserved": 0, "fusion_lat": 0.0, "rental_uris": {"android": "https://dc.lft.to/lastmile_qr_scan", "ios": "https://dc.lft.to/lastmile_qr_scan"}, "type": "electric_scooter", "name": "7060539c3344b66ce7c7e86b19245119"}, {"bike_id": "3888d72f2cfe431456b7816a8a7d2810", "lat": 38.92013033333333, "is_disabled": 0, "lon": -77.032145, "fusion_lon": 0.0, "is_reserved": 0, "fusion_lat": 0.0, "rental_uris": {"android": "https://dc.lft.to/lastmile_qr_scan", "ios": "https://dc.lft.to/lastmile_qr_scan"}, "type": "electric_scooter", "name": "3888d72f2cfe431456b7816a8a7d2810"}, {"bike_id": "a1cd02f4994e894cf68141081ca71dbd", "lat": 38.84278166666667, "is_disabled": 0, "lon": -76.98842233333333, "fusion_lon": 0.0, "is_reserved": 0, "fusion_lat": 0.0, "rental_uris": {"android": "https://dc.lft.to/lastmile_qr_scan", "ios": "https://dc.lft.to/lastmile_qr_scan"}, "type": "electric_bike", "name": "a1cd02f4994e894cf68141081ca71dbd"}, {"bike_id": "6774be011b69cd704f1f82c01096c17c", "lat": 38.917504666666666, "is_disabled": 0, "lon": -77.02808833333333, "fusion_lon": 0.0, "is_reserved": 0, "fusion_lat": 0.0, "rental_uris": {"android": "https://dc.lft.to/lastmile_qr_scan", "ios": "https://dc.lft.to/lastmile_qr_scan"}, "type": "electric_scooter", "name": "6774be011b69cd704f1f82c01096c17c"}, {"bike_id": "5bfd83e834e7d97830ee5b11dd0f6969", "lat": 38.904878833333335, "is_disabled": 0, "lon": -77.02591333333334, "fusion_lon": 0.0, "is_reserved": 0, "fusion_lat": 0.0, "rental_uris": {"android": "https://dc.lft.to/lastmile_qr_scan", "ios": "https://dc.lft.to/lastmile_qr_scan"}, "type": "electric_scooter", "name": "5bfd83e834e7d97830ee5b11dd0f6969"}, {"bike_id": "07ddb2d3014ad078216e25ee6e36f1d8", "lat": 38.93757816666667, "is_disabled": 0, "lon": -77.03273033333333, "fusion_lon": 0.0, "is_reserved": 0, "fusion_lat": 0.0, "rental_uris": {"android": "https://dc.lft.to/lastmile_qr_scan", "ios": "https://dc.lft.to/lastmile_qr_scan"}, "type": "electric_scooter", "name": "07ddb2d3014ad078216e25ee6e36f1d8"}, {"bike_id": "f5278d1290e60bcfc5d7dde4e9163f00", "lat": 38.927314833333334, "is_disabled": 0, "lon": -77.05253483333334, "fusion_lon": 0.0, "is_reserved": 0, "fusion_lat": 0.0, "rental_uris": {"android": "https://dc.lft.to/lastmile_qr_scan", "ios": "https://dc.lft.to/lastmile_qr_scan"}, "type": "electric_scooter", "name": "f5278d1290e60bcfc5d7dde4e9163f00"}, {"bike_id": "d5317a73b1fd35e359de02eaabb0270a", "lat": 38.91563683333333, "is_disabled": 0, "lon": -77.03728283333334, "fusion_lon": 0.0, "is_reserved": 0, "fusion_lat": 0.0, "rental_uris": {"android": "https://dc.lft.to/lastmile_qr_scan", "ios": "https://dc.lft.to/lastmile_qr_scan"}, "type": "electric_scooter", "name": "d5317a73b1fd35e359de02eaabb0270a"}, {"bike_id": "f00e1008ff1d75eb381cf18d4931d661", "lat": 38.92249, "is_disabled": 0, "lon": -77.0195095, "fusion_lon": 0.0, "is_reserved": 0, "fusion_lat": 0.0, "rental_uris": {"android": "https://dc.lft.to/lastmile_qr_scan", "ios": "https://dc.lft.to/lastmile_qr_scan"}, "type": "electric_scooter", "name": "f00e1008ff1d75eb381cf18d4931d661"}, {"bike_id": "a036e159fb612cb01a035b6a0d1d91b4", "lat": 38.90081166666667, "is_disabled": 0, "lon": -77.04780366666667, "fusion_lon": 0.0, "is_reserved": 0, "fusion_lat": 0.0, "rental_uris": {"android": "https://dc.lft.to/lastmile_qr_scan", "ios": "https://dc.lft.to/lastmile_qr_scan"}, "type": "electric_scooter", "name": "a036e159fb612cb01a035b6a0d1d91b4"}, {"bike_id": "5145b26dc44f266d9ddb3f6471b4832f", "lat": 38.9030335, "is_disabled": 0, "lon": -77.02890933333333, "fusion_lon": 0.0, "is_reserved": 0, "fusion_lat": 0.0, "rental_uris": {"android": "https://dc.lft.to/lastmile_qr_scan", "ios": "https://dc.lft.to/lastmile_qr_scan"}, "type": "electric_scooter", "name": "5145b26dc44f266d9ddb3f6471b4832f"}, {"bike_id": "0941da10c770a276f25e5ff6d5d7a37d", "lat": 38.887435333333336, "is_disabled": 0, "lon": -77.031505, "fusion_lon": 0.0, "is_reserved": 0, "fusion_lat": 0.0, "rental_uris": {"android": "https://dc.lft.to/lastmile_qr_scan", "ios": "https://dc.lft.to/lastmile_qr_scan"}, "type": "electric_scooter", "name": "0941da10c770a276f25e5ff6d5d7a37d"}, {"bike_id": "26640734a6b3890cb91613f0e8cb6aff", "lat": 38.89359683333333, "is_disabled": 0, "lon": -77.0220005, "fusion_lon": 0.0, "is_reserved": 0, "fusion_lat": 0.0, "rental_uris": {"android": "https://dc.lft.to/lastmile_qr_scan", "ios": "https://dc.lft.to/lastmile_qr_scan"}, "type": "electric_scooter", "name": "26640734a6b3890cb91613f0e8cb6aff"}, {"bike_id": "420463b8057b3935aec6512414625277", "lat": 38.928896333333334, "is_disabled": 0, "lon": -77.0325375, "fusion_lon": 0.0, "is_reserved": 0, "fusion_lat": 0.0, "rental_uris": {"android": "https://dc.lft.to/lastmile_qr_scan", "ios": "https://dc.lft.to/lastmile_qr_scan"}, "type": "electric_scooter", "name": "420463b8057b3935aec6512414625277"}, {"bike_id": "4fba44fb37bcd7269e36a1b04f20fa6e", "lat": 38.90537, "is_disabled": 0, "lon": -77.0457045, "fusion_lon": 0.0, "is_reserved": 0, "fusion_lat": 0.0, "rental_uris": {"android": "https://dc.lft.to/lastmile_qr_scan", "ios": "https://dc.lft.to/lastmile_qr_scan"}, "type": "electric_scooter", "name": "4fba44fb37bcd7269e36a1b04f20fa6e"}, {"bike_id": "752e0918b9f9ca3c42ac6e61171842c5", "lat": 38.92705516666667, "is_disabled": 0, "lon": -77.02096966666667, "fusion_lon": 0.0, "is_reserved": 0, "fusion_lat": 0.0, "rental_uris": {"android": "https://dc.lft.to/lastmile_qr_scan", "ios": "https://dc.lft.to/lastmile_qr_scan"}, "type": "electric_scooter", "name": "752e0918b9f9ca3c42ac6e61171842c5"}, {"bike_id": "c2f7a17bd023da773f48cf2a9559de7c", "lat": 38.831543, "is_disabled": 0, "lon": -76.99574733333333, "fusion_lon": 0.0, "is_reserved": 0, "fusion_lat": 0.0, "rental_uris": {"android": "https://dc.lft.to/lastmile_qr_scan", "ios": "https://dc.lft.to/lastmile_qr_scan"}, "type": "electric_bike", "name": "c2f7a17bd023da773f48cf2a9559de7c"}, {"bike_id": "395f295af44fc2ec33059625edbf058c", "lat": 38.90627033333333, "is_disabled": 0, "lon": -77.04666266666666, "fusion_lon": 0.0, "is_reserved": 0, "fusion_lat": 0.0, "rental_uris": {"android": "https://dc.lft.to/lastmile_qr_scan", "ios": "https://dc.lft.to/lastmile_qr_scan"}, "type": "electric_scooter", "name": "395f295af44fc2ec33059625edbf058c"}, {"bike_id": "1ea76f0ffecf3be5eacd65a6d31bbeef", "lat": 38.91999233333333, "is_disabled": 0, "lon": -77.03201266666666, "fusion_lon": 0.0, "is_reserved": 0, "fusion_lat": 0.0, "rental_uris": {"android": "https://dc.lft.to/lastmile_qr_scan", "ios": "https://dc.lft.to/lastmile_qr_scan"}, "type": "electric_scooter", "name": "1ea76f0ffecf3be5eacd65a6d31bbeef"}, {"bike_id": "ea47574ebe77079720bc5774590b64de", "lat": 38.892346833333335, "is_disabled": 0, "lon": -77.04161716666667, "fusion_lon": 0.0, "is_reserved": 0, "fusion_lat": 0.0, "rental_uris": {"android": "https://dc.lft.to/lastmile_qr_scan", "ios": "https://dc.lft.to/lastmile_qr_scan"}, "type": "electric_scooter", "name": "ea47574ebe77079720bc5774590b64de"}, {"bike_id": "b4d518ac354282d851a4f618e59a271a", "lat": 38.88489883333333, "is_disabled": 0, "lon": -77.00712866666667, "fusion_lon": 0.0, "is_reserved": 0, "fusion_lat": 0.0, "rental_uris": {"android": "https://dc.lft.to/lastmile_qr_scan", "ios": "https://dc.lft.to/lastmile_qr_scan"}, "type": "electric_scooter", "name": "b4d518ac354282d851a4f618e59a271a"}, {"bike_id": "cb966c4c917ceeabd2ffc8e424dfd1a9", "lat": 38.926270333333335, "is_disabled": 0, "lon": -76.99617383333333, "fusion_lon": 0.0, "is_reserved": 0, "fusion_lat": 0.0, "rental_uris": {"android": "https://dc.lft.to/lastmile_qr_scan", "ios": "https://dc.lft.to/lastmile_qr_scan"}, "type": "electric_scooter", "name": "cb966c4c917ceeabd2ffc8e424dfd1a9"}, {"bike_id": "0813ac7b8c7566c706efc7f8b3f14ec4", "lat": 38.895358, "is_disabled": 0, "lon": -77.02176466666667, "fusion_lon": 0.0, "is_reserved": 0, "fusion_lat": 0.0, "rental_uris": {"android": "https://dc.lft.to/lastmile_qr_scan", "ios": "https://dc.lft.to/lastmile_qr_scan"}, "type": "electric_scooter", "name": "0813ac7b8c7566c706efc7f8b3f14ec4"}, {"bike_id": "d79013623a1bdf2307d0ee5c6f98a775", "lat": 38.897632, "is_disabled": 0, "lon": -76.98650333333333, "fusion_lon": 0.0, "is_reserved": 0, "fusion_lat": 0.0, "rental_uris": {"android": "https://dc.lft.to/lastmile_qr_scan", "ios": "https://dc.lft.to/lastmile_qr_scan"}, "type": "electric_scooter", "name": "d79013623a1bdf2307d0ee5c6f98a775"}, {"bike_id": "ac1db7e580fa5b09a417b6377870b6a6", "lat": 38.9027795, "is_disabled": 0, "lon": -77.04552833333334, "fusion_lon": 0.0, "is_reserved": 0, "fusion_lat": 0.0, "rental_uris": {"android": "https://dc.lft.to/lastmile_qr_scan", "ios": "https://dc.lft.to/lastmile_qr_scan"}, "type": "electric_scooter", "name": "ac1db7e580fa5b09a417b6377870b6a6"}, {"bike_id": "103c1312799c98801af48e1d1c6c604a", "lat": 38.8811875, "is_disabled": 0, "lon": -77.02719233333333, "fusion_lon": 0.0, "is_reserved": 0, "fusion_lat": 0.0, "rental_uris": {"android": "https://dc.lft.to/lastmile_qr_scan", "ios": "https://dc.lft.to/lastmile_qr_scan"}, "type": "electric_scooter", "name": "103c1312799c98801af48e1d1c6c604a"}, {"bike_id": "245f5ac058c65b401286cf4e296727b3", "lat": 38.8985585, "is_disabled": 0, "lon": -77.02848, "fusion_lon": 0.0, "is_reserved": 0, "fusion_lat": 0.0, "rental_uris": {"android": "https://dc.lft.to/lastmile_qr_scan", "ios": "https://dc.lft.to/lastmile_qr_scan"}, "type": "electric_scooter", "name": "245f5ac058c65b401286cf4e296727b3"}, {"bike_id": "3786716d596d3aeceb144dba20288ba0", "lat": 38.89654633333333, "is_disabled": 0, "lon": -77.04015416666667, "fusion_lon": 0.0, "is_reserved": 0, "fusion_lat": 0.0, "rental_uris": {"android": "https://dc.lft.to/lastmile_qr_scan", "ios": "https://dc.lft.to/lastmile_qr_scan"}, "type": "electric_scooter", "name": "3786716d596d3aeceb144dba20288ba0"}, {"bike_id": "2d1645beab093ffe051bf7126393dc81", "lat": 38.8925035, "is_disabled": 0, "lon": -77.02197066666666, "fusion_lon": 0.0, "is_reserved": 0, "fusion_lat": 0.0, "rental_uris": {"android": "https://dc.lft.to/lastmile_qr_scan", "ios": "https://dc.lft.to/lastmile_qr_scan"}, "type": "electric_scooter", "name": "2d1645beab093ffe051bf7126393dc81"}, {"bike_id": "1d438d8f1ab9c688df54843fa4d9f7ef", "lat": 38.92610166666667, "is_disabled": 0, "lon": -77.02160566666667, "fusion_lon": 0.0, "is_reserved": 0, "fusion_lat": 0.0, "rental_uris": {"android": "https://dc.lft.to/lastmile_qr_scan", "ios": "https://dc.lft.to/lastmile_qr_scan"}, "type": "electric_scooter", "name": "1d438d8f1ab9c688df54843fa4d9f7ef"}, {"bike_id": "9f989a177a590865f963b98787d399af", "lat": 38.887499166666665, "is_disabled": 0, "lon": -76.99233583333333, "fusion_lon": 0.0, "is_reserved": 0, "fusion_lat": 0.0, "rental_uris": {"android": "https://dc.lft.to/lastmile_qr_scan", "ios": "https://dc.lft.to/lastmile_qr_scan"}, "type": "electric_scooter", "name": "9f989a177a590865f963b98787d399af"}, {"bike_id": "bcf6e88f09a348908cfbde6f624ab197", "lat": 38.90950816666667, "is_disabled": 0, "lon": -77.04630983333334, "fusion_lon": 0.0, "is_reserved": 0, "fusion_lat": 0.0, "rental_uris": {"android": "https://dc.lft.to/lastmile_qr_scan", "ios": "https://dc.lft.to/lastmile_qr_scan"}, "type": "electric_scooter", "name": "bcf6e88f09a348908cfbde6f624ab197"}, {"bike_id": "faf8d26484936da699d1d4d3ba1b9517", "lat": 38.866617, "is_disabled": 0, "lon": -76.9888945, "fusion_lon": 0.0, "is_reserved": 0, "fusion_lat": 0.0, "rental_uris": {"android": "https://dc.lft.to/lastmile_qr_scan", "ios": "https://dc.lft.to/lastmile_qr_scan"}, "type": "electric_scooter", "name": "faf8d26484936da699d1d4d3ba1b9517"}, {"bike_id": "28e57cbe39da2d6b527dbd15eaaba1f5", "lat": 38.90383833333333, "is_disabled": 0, "lon": -77.02480433333334, "fusion_lon": 0.0, "is_reserved": 0, "fusion_lat": 0.0, "rental_uris": {"android": "https://dc.lft.to/lastmile_qr_scan", "ios": "https://dc.lft.to/lastmile_qr_scan"}, "type": "electric_scooter", "name": "28e57cbe39da2d6b527dbd15eaaba1f5"}, {"bike_id": "46ade961b0a7e270f1bf3a9408586a7b", "lat": 38.918079666666664, "is_disabled": 0, "lon": -77.03435466666667, "fusion_lon": 0.0, "is_reserved": 0, "fusion_lat": 0.0, "rental_uris": {"android": "https://dc.lft.to/lastmile_qr_scan", "ios": "https://dc.lft.to/lastmile_qr_scan"}, "type": "electric_scooter", "name": "46ade961b0a7e270f1bf3a9408586a7b"}, {"bike_id": "052662a2aede1b6e400b35702b31ba03", "lat": 38.92077616666667, "is_disabled": 0, "lon": -77.04197583333334, "fusion_lon": 0.0, "is_reserved": 0, "fusion_lat": 0.0, "rental_uris": {"android": "https://dc.lft.to/lastmile_qr_scan", "ios": "https://dc.lft.to/lastmile_qr_scan"}, "type": "electric_scooter", "name": "052662a2aede1b6e400b35702b31ba03"}, {"bike_id": "87ef82d425d83665e2b050e6548e459a", "lat": 38.91796816666667, "is_disabled": 0, "lon": -77.0270505, "fusion_lon": 0.0, "is_reserved": 0, "fusion_lat": 0.0, "rental_uris": {"android": "https://dc.lft.to/lastmile_qr_scan", "ios": "https://dc.lft.to/lastmile_qr_scan"}, "type": "electric_scooter", "name": "87ef82d425d83665e2b050e6548e459a"}, {"bike_id": "6fbc62c03f25f3677ea1322f62244f91", "lat": 38.9162535, "is_disabled": 0, "lon": -77.03635533333333, "fusion_lon": 0.0, "is_reserved": 0, "fusion_lat": 0.0, "rental_uris": {"android": "https://dc.lft.to/lastmile_qr_scan", "ios": "https://dc.lft.to/lastmile_qr_scan"}, "type": "electric_scooter", "name": "6fbc62c03f25f3677ea1322f62244f91"}, {"bike_id": "2c97de6f6dd891616f0eda1d3e411abe", "lat": 38.90381716666667, "is_disabled": 0, "lon": -77.03393683333333, "fusion_lon": 0.0, "is_reserved": 0, "fusion_lat": 0.0, "rental_uris": {"android": "https://dc.lft.to/lastmile_qr_scan", "ios": "https://dc.lft.to/lastmile_qr_scan"}, "type": "electric_scooter", "name": "2c97de6f6dd891616f0eda1d3e411abe"}, {"bike_id": "a03161ef7e628a8e61c2c0797bde92a6", "lat": 38.896206, "is_disabled": 0, "lon": -77.03191633333333, "fusion_lon": 0.0, "is_reserved": 0, "fusion_lat": 0.0, "rental_uris": {"android": "https://dc.lft.to/lastmile_qr_scan", "ios": "https://dc.lft.to/lastmile_qr_scan"}, "type": "electric_scooter", "name": "a03161ef7e628a8e61c2c0797bde92a6"}, {"bike_id": "20c5a5e43c05b17755be4255be2e21cd", "lat": 38.907258166666665, "is_disabled": 0, "lon": -77.04394266666667, "fusion_lon": 0.0, "is_reserved": 0, "fusion_lat": 0.0, "rental_uris": {"android": "https://dc.lft.to/lastmile_qr_scan", "ios": "https://dc.lft.to/lastmile_qr_scan"}, "type": "electric_scooter", "name": "20c5a5e43c05b17755be4255be2e21cd"}, {"bike_id": "b1d3690f7d4489d37278a342ad10eee3", "lat": 38.906063333333336, "is_disabled": 0, "lon": -77.04140866666667, "fusion_lon": 0.0, "is_reserved": 0, "fusion_lat": 0.0, "rental_uris": {"android": "https://dc.lft.to/lastmile_qr_scan", "ios": "https://dc.lft.to/lastmile_qr_scan"}, "type": "electric_scooter", "name": "b1d3690f7d4489d37278a342ad10eee3"}, {"bike_id": "a18f6c90cfa5605318839348a6fa8f23", "lat": 38.89439733333333, "is_disabled": 0, "lon": -76.980861, "fusion_lon": 0.0, "is_reserved": 0, "fusion_lat": 0.0, "rental_uris": {"android": "https://dc.lft.to/lastmile_qr_scan", "ios": "https://dc.lft.to/lastmile_qr_scan"}, "type": "electric_scooter", "name": "a18f6c90cfa5605318839348a6fa8f23"}, {"bike_id": "24261936d8aad3ff833964595a744104", "lat": 38.900081166666666, "is_disabled": 0, "lon": -77.02406433333333, "fusion_lon": 0.0, "is_reserved": 0, "fusion_lat": 0.0, "rental_uris": {"android": "https://dc.lft.to/lastmile_qr_scan", "ios": "https://dc.lft.to/lastmile_qr_scan"}, "type": "electric_scooter", "name": "24261936d8aad3ff833964595a744104"}, {"bike_id": "1fec63b3e4712012644dff70782e48aa", "lat": 38.895251333333334, "is_disabled": 0, "lon": -77.0162245, "fusion_lon": 0.0, "is_reserved": 0, "fusion_lat": 0.0, "rental_uris": {"android": "https://dc.lft.to/lastmile_qr_scan", "ios": "https://dc.lft.to/lastmile_qr_scan"}, "type": "electric_scooter", "name": "1fec63b3e4712012644dff70782e48aa"}, {"bike_id": "5c3d0ce971903fef1a7afced52a5e460", "lat": 38.90775933333333, "is_disabled": 0, "lon": -77.07169383333333, "fusion_lon": 0.0, "is_reserved": 0, "fusion_lat": 0.0, "rental_uris": {"android": "https://dc.lft.to/lastmile_qr_scan", "ios": "https://dc.lft.to/lastmile_qr_scan"}, "type": "electric_scooter", "name": "5c3d0ce971903fef1a7afced52a5e460"}, {"bike_id": "bebbda7f4515a00afda9424a7fa55f65", "lat": 38.92447716666667, "is_disabled": 0, "lon": -77.04037316666667, "fusion_lon": 0.0, "is_reserved": 0, "fusion_lat": 0.0, "rental_uris": {"android": "https://dc.lft.to/lastmile_qr_scan", "ios": "https://dc.lft.to/lastmile_qr_scan"}, "type": "electric_scooter", "name": "bebbda7f4515a00afda9424a7fa55f65"}, {"bike_id": "cf1b2e6816a7356982707be98c747cf3", "lat": 38.906559333333334, "is_disabled": 0, "lon": -77.02696183333333, "fusion_lon": 0.0, "is_reserved": 0, "fusion_lat": 0.0, "rental_uris": {"android": "https://dc.lft.to/lastmile_qr_scan", "ios": "https://dc.lft.to/lastmile_qr_scan"}, "type": "electric_scooter", "name": "cf1b2e6816a7356982707be98c747cf3"}, {"bike_id": "11aba8514d3fbfc17135ef5a430f392b", "lat": 38.923363333333334, "is_disabled": 0, "lon": -77.019123, "fusion_lon": 0.0, "is_reserved": 0, "fusion_lat": 0.0, "rental_uris": {"android": "https://dc.lft.to/lastmile_qr_scan", "ios": "https://dc.lft.to/lastmile_qr_scan"}, "type": "electric_scooter", "name": "11aba8514d3fbfc17135ef5a430f392b"}, {"bike_id": "13d58f57ef1ad6307de1998fe7d01786", "lat": 38.891793, "is_disabled": 0, "lon": -76.95703683333333, "fusion_lon": 0.0, "is_reserved": 0, "fusion_lat": 0.0, "rental_uris": {"android": "https://dc.lft.to/lastmile_qr_scan", "ios": "https://dc.lft.to/lastmile_qr_scan"}, "type": "electric_scooter", "name": "13d58f57ef1ad6307de1998fe7d01786"}, {"bike_id": "08575b624032669bf168ae8af91d6500", "lat": 38.874476333333334, "is_disabled": 0, "lon": -77.005783, "fusion_lon": 0.0, "is_reserved": 0, "fusion_lat": 0.0, "rental_uris": {"android": "https://dc.lft.to/lastmile_qr_scan", "ios": "https://dc.lft.to/lastmile_qr_scan"}, "type": "electric_scooter", "name": "08575b624032669bf168ae8af91d6500"}, {"bike_id": "63554d383a9795e616a6800936c217f4", "lat": 38.874354833333335, "is_disabled": 0, "lon": -77.00410716666667, "fusion_lon": 0.0, "is_reserved": 0, "fusion_lat": 0.0, "rental_uris": {"android": "https://dc.lft.to/lastmile_qr_scan", "ios": "https://dc.lft.to/lastmile_qr_scan"}, "type": "electric_scooter", "name": "63554d383a9795e616a6800936c217f4"}, {"bike_id": "d7e67d26ebb95631060c6f8ab5c0e1e5", "lat": 38.918297, "is_disabled": 0, "lon": -77.031691, "fusion_lon": 0.0, "is_reserved": 0, "fusion_lat": 0.0, "rental_uris": {"android": "https://dc.lft.to/lastmile_qr_scan", "ios": "https://dc.lft.to/lastmile_qr_scan"}, "type": "electric_scooter", "name": "d7e67d26ebb95631060c6f8ab5c0e1e5"}, {"bike_id": "a57bae256b4e8d60371f3219f333fa9c", "lat": 38.90469616666667, "is_disabled": 0, "lon": -77.00601533333334, "fusion_lon": 0.0, "is_reserved": 0, "fusion_lat": 0.0, "rental_uris": {"android": "https://dc.lft.to/lastmile_qr_scan", "ios": "https://dc.lft.to/lastmile_qr_scan"}, "type": "electric_scooter", "name": "a57bae256b4e8d60371f3219f333fa9c"}, {"bike_id": "605fbaa660007198a86d549d28f545cf", "lat": 38.92314666666667, "is_disabled": 0, "lon": -77.0303845, "fusion_lon": 0.0, "is_reserved": 0, "fusion_lat": 0.0, "rental_uris": {"android": "https://dc.lft.to/lastmile_qr_scan", "ios": "https://dc.lft.to/lastmile_qr_scan"}, "type": "electric_scooter", "name": "605fbaa660007198a86d549d28f545cf"}, {"bike_id": "952b1aa2fe1e8b7aa456a6c3daa0b15c", "lat": 38.90026666666667, "is_disabled": 0, "lon": -76.99769583333334, "fusion_lon": 0.0, "is_reserved": 0, "fusion_lat": 0.0, "rental_uris": {"android": "https://dc.lft.to/lastmile_qr_scan", "ios": "https://dc.lft.to/lastmile_qr_scan"}, "type": "electric_scooter", "name": "952b1aa2fe1e8b7aa456a6c3daa0b15c"}, {"bike_id": "b0258c4e4d969ad9972265486e8f3fa3", "lat": 38.89727233333333, "is_disabled": 0, "lon": -77.01916316666667, "fusion_lon": 0.0, "is_reserved": 0, "fusion_lat": 0.0, "rental_uris": {"android": "https://dc.lft.to/lastmile_qr_scan", "ios": "https://dc.lft.to/lastmile_qr_scan"}, "type": "electric_scooter", "name": "b0258c4e4d969ad9972265486e8f3fa3"}, {"bike_id": "6e2a5802227ebdcd88bc1fc1521aca89", "lat": 38.93278733333333, "is_disabled": 0, "lon": -77.03261133333334, "fusion_lon": 0.0, "is_reserved": 0, "fusion_lat": 0.0, "rental_uris": {"android": "https://dc.lft.to/lastmile_qr_scan", "ios": "https://dc.lft.to/lastmile_qr_scan"}, "type": "electric_scooter", "name": "6e2a5802227ebdcd88bc1fc1521aca89"}, {"bike_id": "c74a6fd932a804bcc7bf8c1cfc54e176", "lat": 38.89956083333333, "is_disabled": 0, "lon": -76.986756, "fusion_lon": 0.0, "is_reserved": 0, "fusion_lat": 0.0, "rental_uris": {"android": "https://dc.lft.to/lastmile_qr_scan", "ios": "https://dc.lft.to/lastmile_qr_scan"}, "type": "electric_bike", "name": "c74a6fd932a804bcc7bf8c1cfc54e176"}, {"bike_id": "ec4678d55a5ffa9eee845bb730d59afe", "lat": 38.875692666666666, "is_disabled": 0, "lon": -77.0059835, "fusion_lon": 0.0, "is_reserved": 0, "fusion_lat": 0.0, "rental_uris": {"android": "https://dc.lft.to/lastmile_qr_scan", "ios": "https://dc.lft.to/lastmile_qr_scan"}, "type": "electric_scooter", "name": "ec4678d55a5ffa9eee845bb730d59afe"}, {"bike_id": "3259a205c83da2023bc5f4dd865aafa9", "lat": 38.90119983333334, "is_disabled": 0, "lon": -77.04354833333333, "fusion_lon": 0.0, "is_reserved": 0, "fusion_lat": 0.0, "rental_uris": {"android": "https://dc.lft.to/lastmile_qr_scan", "ios": "https://dc.lft.to/lastmile_qr_scan"}, "type": "electric_scooter", "name": "3259a205c83da2023bc5f4dd865aafa9"}, {"bike_id": "bbbebca24b8bf24ab00b7fe8ad8e48f9", "lat": 38.90051833333333, "is_disabled": 0, "lon": -77.02620983333334, "fusion_lon": 0.0, "is_reserved": 0, "fusion_lat": 0.0, "rental_uris": {"android": "https://dc.lft.to/lastmile_qr_scan", "ios": "https://dc.lft.to/lastmile_qr_scan"}, "type": "electric_scooter", "name": "bbbebca24b8bf24ab00b7fe8ad8e48f9"}, {"bike_id": "5ed48f328cebd6f46bc9dc65ac9af6a3", "lat": 38.9384455, "is_disabled": 0, "lon": -77.02837883333333, "fusion_lon": 0.0, "is_reserved": 0, "fusion_lat": 0.0, "rental_uris": {"android": "https://dc.lft.to/lastmile_qr_scan", "ios": "https://dc.lft.to/lastmile_qr_scan"}, "type": "electric_scooter", "name": "5ed48f328cebd6f46bc9dc65ac9af6a3"}, {"bike_id": "f0a745b37932cb9ceb1f4c0745a0ae32", "lat": 38.90811633333333, "is_disabled": 0, "lon": -76.99711383333333, "fusion_lon": 0.0, "is_reserved": 0, "fusion_lat": 0.0, "rental_uris": {"android": "https://dc.lft.to/lastmile_qr_scan", "ios": "https://dc.lft.to/lastmile_qr_scan"}, "type": "electric_scooter", "name": "f0a745b37932cb9ceb1f4c0745a0ae32"}, {"bike_id": "da714288537deeb4f637728c63d01848", "lat": 38.8922935, "is_disabled": 0, "lon": -77.02821083333333, "fusion_lon": 0.0, "is_reserved": 0, "fusion_lat": 0.0, "rental_uris": {"android": "https://dc.lft.to/lastmile_qr_scan", "ios": "https://dc.lft.to/lastmile_qr_scan"}, "type": "electric_scooter", "name": "da714288537deeb4f637728c63d01848"}, {"bike_id": "386ea583e379a379c06ef75ecdb9e96d", "lat": 38.93554833333334, "is_disabled": 0, "lon": -77.074611, "fusion_lon": 0.0, "is_reserved": 0, "fusion_lat": 0.0, "rental_uris": {"android": "https://dc.lft.to/lastmile_qr_scan", "ios": "https://dc.lft.to/lastmile_qr_scan"}, "type": "electric_scooter", "name": "386ea583e379a379c06ef75ecdb9e96d"}, {"bike_id": "1acc0886591b3bd7fe00c9d6ea2d36f0", "lat": 38.892245, "is_disabled": 0, "lon": -77.04184083333334, "fusion_lon": 0.0, "is_reserved": 0, "fusion_lat": 0.0, "rental_uris": {"android": "https://dc.lft.to/lastmile_qr_scan", "ios": "https://dc.lft.to/lastmile_qr_scan"}, "type": "electric_scooter", "name": "1acc0886591b3bd7fe00c9d6ea2d36f0"}, {"bike_id": "0cf233992d074d3e08e3ba637531972d", "lat": 38.911032166666665, "is_disabled": 0, "lon": -77.04458233333334, "fusion_lon": 0.0, "is_reserved": 0, "fusion_lat": 0.0, "rental_uris": {"android": "https://dc.lft.to/lastmile_qr_scan", "ios": "https://dc.lft.to/lastmile_qr_scan"}, "type": "electric_scooter", "name": "0cf233992d074d3e08e3ba637531972d"}, {"bike_id": "04ed158f0db472df8fd3dda4e110f142", "lat": 38.907294, "is_disabled": 0, "lon": -77.041483, "fusion_lon": 0.0, "is_reserved": 0, "fusion_lat": 0.0, "rental_uris": {"android": "https://dc.lft.to/lastmile_qr_scan", "ios": "https://dc.lft.to/lastmile_qr_scan"}, "type": "electric_scooter", "name": "04ed158f0db472df8fd3dda4e110f142"}, {"bike_id": "0fdb098c495e6af306be1034cc230fe0", "lat": 38.892227, "is_disabled": 0, "lon": -77.04510983333333, "fusion_lon": 0.0, "is_reserved": 0, "fusion_lat": 0.0, "rental_uris": {"android": "https://dc.lft.to/lastmile_qr_scan", "ios": "https://dc.lft.to/lastmile_qr_scan"}, "type": "electric_scooter", "name": "0fdb098c495e6af306be1034cc230fe0"}, {"bike_id": "6a69e5937e8db07dc39252e7e262a623", "lat": 38.929777333333334, "is_disabled": 0, "lon": -77.0376835, "fusion_lon": 0.0, "is_reserved": 0, "fusion_lat": 0.0, "rental_uris": {"android": "https://dc.lft.to/lastmile_qr_scan", "ios": "https://dc.lft.to/lastmile_qr_scan"}, "type": "electric_scooter", "name": "6a69e5937e8db07dc39252e7e262a623"}, {"bike_id": "b277b972a020a83cb7d150c672a1629a", "lat": 38.90611633333333, "is_disabled": 0, "lon": -77.041519, "fusion_lon": 0.0, "is_reserved": 0, "fusion_lat": 0.0, "rental_uris": {"android": "https://dc.lft.to/lastmile_qr_scan", "ios": "https://dc.lft.to/lastmile_qr_scan"}, "type": "electric_scooter", "name": "b277b972a020a83cb7d150c672a1629a"}, {"bike_id": "6f7b39a037d5989b2175f3a67419cf95", "lat": 38.892263666666665, "is_disabled": 0, "lon": -77.02617666666667, "fusion_lon": 0.0, "is_reserved": 0, "fusion_lat": 0.0, "rental_uris": {"android": "https://dc.lft.to/lastmile_qr_scan", "ios": "https://dc.lft.to/lastmile_qr_scan"}, "type": "electric_scooter", "name": "6f7b39a037d5989b2175f3a67419cf95"}, {"bike_id": "ad5ec316c119d08c8faf6b5b1578ff5c", "lat": 38.87377983333333, "is_disabled": 0, "lon": -77.001328, "fusion_lon": 0.0, "is_reserved": 0, "fusion_lat": 0.0, "rental_uris": {"android": "https://dc.lft.to/lastmile_qr_scan", "ios": "https://dc.lft.to/lastmile_qr_scan"}, "type": "electric_scooter", "name": "ad5ec316c119d08c8faf6b5b1578ff5c"}, {"bike_id": "ca218aeb2eb98ff0e3b861eca354c21d", "lat": 38.93395016666667, "is_disabled": 0, "lon": -77.05741166666667, "fusion_lon": 0.0, "is_reserved": 0, "fusion_lat": 0.0, "rental_uris": {"android": "https://dc.lft.to/lastmile_qr_scan", "ios": "https://dc.lft.to/lastmile_qr_scan"}, "type": "electric_scooter", "name": "ca218aeb2eb98ff0e3b861eca354c21d"}, {"bike_id": "00c092d8f6bc6d54349b46295c4183c0", "lat": 38.89803533333333, "is_disabled": 0, "lon": -76.979523, "fusion_lon": 0.0, "is_reserved": 0, "fusion_lat": 0.0, "rental_uris": {"android": "https://dc.lft.to/lastmile_qr_scan", "ios": "https://dc.lft.to/lastmile_qr_scan"}, "type": "electric_scooter", "name": "00c092d8f6bc6d54349b46295c4183c0"}, {"bike_id": "3e3a98620734089823a0727d99f3c50c", "lat": 38.8738625, "is_disabled": 0, "lon": -77.0012965, "fusion_lon": 0.0, "is_reserved": 0, "fusion_lat": 0.0, "rental_uris": {"android": "https://dc.lft.to/lastmile_qr_scan", "ios": "https://dc.lft.to/lastmile_qr_scan"}, "type": "electric_scooter", "name": "3e3a98620734089823a0727d99f3c50c"}, {"bike_id": "58261624defe113732118d5a3528c895", "lat": 38.909535, "is_disabled": 0, "lon": -77.00740966666666, "fusion_lon": 0.0, "is_reserved": 0, "fusion_lat": 0.0, "rental_uris": {"android": "https://dc.lft.to/lastmile_qr_scan", "ios": "https://dc.lft.to/lastmile_qr_scan"}, "type": "electric_scooter", "name": "58261624defe113732118d5a3528c895"}, {"bike_id": "6f19cfbf8a1a503b2cac4ea18be5863f", "lat": 38.8765865, "is_disabled": 0, "lon": -77.0094, "fusion_lon": 0.0, "is_reserved": 0, "fusion_lat": 0.0, "rental_uris": {"android": "https://dc.lft.to/lastmile_qr_scan", "ios": "https://dc.lft.to/lastmile_qr_scan"}, "type": "electric_scooter", "name": "6f19cfbf8a1a503b2cac4ea18be5863f"}, {"bike_id": "0df8f736b526633b516548afe1e36b22", "lat": 38.9172435, "is_disabled": 0, "lon": -77.04166216666667, "fusion_lon": 0.0, "is_reserved": 0, "fusion_lat": 0.0, "rental_uris": {"android": "https://dc.lft.to/lastmile_qr_scan", "ios": "https://dc.lft.to/lastmile_qr_scan"}, "type": "electric_scooter", "name": "0df8f736b526633b516548afe1e36b22"}, {"bike_id": "4cacf4c5922897143f39c5b6acf33893", "lat": 38.905345833333335, "is_disabled": 0, "lon": -77.00617433333333, "fusion_lon": 0.0, "is_reserved": 0, "fusion_lat": 0.0, "rental_uris": {"android": "https://dc.lft.to/lastmile_qr_scan", "ios": "https://dc.lft.to/lastmile_qr_scan"}, "type": "electric_scooter", "name": "4cacf4c5922897143f39c5b6acf33893"}, {"bike_id": "87878e4396120d04b6504d235d2a713c", "lat": 38.90400866666667, "is_disabled": 0, "lon": -77.02951233333333, "fusion_lon": 0.0, "is_reserved": 0, "fusion_lat": 0.0, "rental_uris": {"android": "https://dc.lft.to/lastmile_qr_scan", "ios": "https://dc.lft.to/lastmile_qr_scan"}, "type": "electric_scooter", "name": "87878e4396120d04b6504d235d2a713c"}, {"bike_id": "2e3729432ad886297ff5fd8678027c3c", "lat": 38.90495033333333, "is_disabled": 0, "lon": -77.04337716666667, "fusion_lon": 0.0, "is_reserved": 0, "fusion_lat": 0.0, "rental_uris": {"android": "https://dc.lft.to/lastmile_qr_scan", "ios": "https://dc.lft.to/lastmile_qr_scan"}, "type": "electric_scooter", "name": "2e3729432ad886297ff5fd8678027c3c"}, {"bike_id": "aef72121bcec4c1bd73820f4a4c07455", "lat": 38.89940683333333, "is_disabled": 0, "lon": -76.99732966666667, "fusion_lon": 0.0, "is_reserved": 0, "fusion_lat": 0.0, "rental_uris": {"android": "https://dc.lft.to/lastmile_qr_scan", "ios": "https://dc.lft.to/lastmile_qr_scan"}, "type": "electric_scooter", "name": "aef72121bcec4c1bd73820f4a4c07455"}, {"bike_id": "548c34dfda1ba8d43b0415666c41e241", "lat": 38.96782616666667, "is_disabled": 0, "lon": -76.96268216666667, "fusion_lon": 0.0, "is_reserved": 0, "fusion_lat": 0.0, "rental_uris": {"android": "https://dc.lft.to/lastmile_qr_scan", "ios": "https://dc.lft.to/lastmile_qr_scan"}, "type": "electric_bike", "name": "548c34dfda1ba8d43b0415666c41e241"}, {"bike_id": "9811af298422d69077ea5df8c5ad1e8e", "lat": 38.8959275, "is_disabled": 0, "lon": -77.02971283333333, "fusion_lon": 0.0, "is_reserved": 0, "fusion_lat": 0.0, "rental_uris": {"android": "https://dc.lft.to/lastmile_qr_scan", "ios": "https://dc.lft.to/lastmile_qr_scan"}, "type": "electric_scooter", "name": "9811af298422d69077ea5df8c5ad1e8e"}, {"bike_id": "12e7c1857daf6e2214a9c926d53f0d1f", "lat": 38.890996, "is_disabled": 0, "lon": -76.934802, "fusion_lon": 0.0, "is_reserved": 0, "fusion_lat": 0.0, "rental_uris": {"android": "https://dc.lft.to/lastmile_qr_scan", "ios": "https://dc.lft.to/lastmile_qr_scan"}, "type": "electric_bike", "name": "12e7c1857daf6e2214a9c926d53f0d1f"}, {"bike_id": "e5e3909c025cd11186d9de45f1d0cf3d", "lat": 38.92294366666667, "is_disabled": 0, "lon": -76.9937275, "fusion_lon": 0.0, "is_reserved": 0, "fusion_lat": 0.0, "rental_uris": {"android": "https://dc.lft.to/lastmile_qr_scan", "ios": "https://dc.lft.to/lastmile_qr_scan"}, "type": "electric_bike", "name": "e5e3909c025cd11186d9de45f1d0cf3d"}, {"bike_id": "45f31113fc181ff0d037e9b89ecbc222", "lat": 38.89966066666667, "is_disabled": 0, "lon": -77.04658583333334, "fusion_lon": 0.0, "is_reserved": 0, "fusion_lat": 0.0, "rental_uris": {"android": "https://dc.lft.to/lastmile_qr_scan", "ios": "https://dc.lft.to/lastmile_qr_scan"}, "type": "electric_scooter", "name": "45f31113fc181ff0d037e9b89ecbc222"}, {"bike_id": "d69aaff8b7bafac83595b2a901283f57", "lat": 38.860263, "is_disabled": 0, "lon": -76.97004583333333, "fusion_lon": 0.0, "is_reserved": 0, "fusion_lat": 0.0, "rental_uris": {"android": "https://dc.lft.to/lastmile_qr_scan", "ios": "https://dc.lft.to/lastmile_qr_scan"}, "type": "electric_scooter", "name": "d69aaff8b7bafac83595b2a901283f57"}, {"bike_id": "a1b5d417b1c6a0fcebd7c907eadf8d9f", "lat": 38.902541666666664, "is_disabled": 0, "lon": -77.038974, "fusion_lon": 0.0, "is_reserved": 0, "fusion_lat": 0.0, "rental_uris": {"android": "https://dc.lft.to/lastmile_qr_scan", "ios": "https://dc.lft.to/lastmile_qr_scan"}, "type": "electric_scooter", "name": "a1b5d417b1c6a0fcebd7c907eadf8d9f"}, {"bike_id": "da7796bf65024b9bd06dcbb70c381120", "lat": 38.9446595, "is_disabled": 0, "lon": -76.98687366666667, "fusion_lon": 0.0, "is_reserved": 0, "fusion_lat": 0.0, "rental_uris": {"android": "https://dc.lft.to/lastmile_qr_scan", "ios": "https://dc.lft.to/lastmile_qr_scan"}, "type": "electric_bike", "name": "da7796bf65024b9bd06dcbb70c381120"}, {"bike_id": "2b1d4a5646822ef617d6023ee684ad49", "lat": 38.916188, "is_disabled": 0, "lon": -77.02184783333334, "fusion_lon": 0.0, "is_reserved": 0, "fusion_lat": 0.0, "rental_uris": {"android": "https://dc.lft.to/lastmile_qr_scan", "ios": "https://dc.lft.to/lastmile_qr_scan"}, "type": "electric_scooter", "name": "2b1d4a5646822ef617d6023ee684ad49"}, {"bike_id": "fa3cecb061c7a23246beaff324ba8182", "lat": 38.90805116666667, "is_disabled": 0, "lon": -77.0384985, "fusion_lon": 0.0, "is_reserved": 0, "fusion_lat": 0.0, "rental_uris": {"android": "https://dc.lft.to/lastmile_qr_scan", "ios": "https://dc.lft.to/lastmile_qr_scan"}, "type": "electric_scooter", "name": "fa3cecb061c7a23246beaff324ba8182"}, {"bike_id": "a3101a13838c2ffeed27cb5f2cfb3978", "lat": 38.899556833333335, "is_disabled": 0, "lon": -77.047764, "fusion_lon": 0.0, "is_reserved": 0, "fusion_lat": 0.0, "rental_uris": {"android": "https://dc.lft.to/lastmile_qr_scan", "ios": "https://dc.lft.to/lastmile_qr_scan"}, "type": "electric_scooter", "name": "a3101a13838c2ffeed27cb5f2cfb3978"}, {"bike_id": "6d944656bd47eff43ee837def3d771f5", "lat": 38.87659033333333, "is_disabled": 0, "lon": -77.00429783333334, "fusion_lon": 0.0, "is_reserved": 0, "fusion_lat": 0.0, "rental_uris": {"android": "https://dc.lft.to/lastmile_qr_scan", "ios": "https://dc.lft.to/lastmile_qr_scan"}, "type": "electric_scooter", "name": "6d944656bd47eff43ee837def3d771f5"}, {"bike_id": "48b1ab215ee866a17636abae8a70a0d4", "lat": 38.90502466666667, "is_disabled": 0, "lon": -76.979602, "fusion_lon": 0.0, "is_reserved": 0, "fusion_lat": 0.0, "rental_uris": {"android": "https://dc.lft.to/lastmile_qr_scan", "ios": "https://dc.lft.to/lastmile_qr_scan"}, "type": "electric_scooter", "name": "48b1ab215ee866a17636abae8a70a0d4"}, {"bike_id": "30b334c0554d48fbabb9bdb61e24d83f", "lat": 38.8849005, "is_disabled": 0, "lon": -77.00711066666666, "fusion_lon": 0.0, "is_reserved": 0, "fusion_lat": 0.0, "rental_uris": {"android": "https://dc.lft.to/lastmile_qr_scan", "ios": "https://dc.lft.to/lastmile_qr_scan"}, "type": "electric_scooter", "name": "30b334c0554d48fbabb9bdb61e24d83f"}, {"bike_id": "a325532018673e97748ad88ca95d9b35", "lat": 38.91374966666667, "is_disabled": 0, "lon": -77.02046216666666, "fusion_lon": 0.0, "is_reserved": 0, "fusion_lat": 0.0, "rental_uris": {"android": "https://dc.lft.to/lastmile_qr_scan", "ios": "https://dc.lft.to/lastmile_qr_scan"}, "type": "electric_scooter", "name": "a325532018673e97748ad88ca95d9b35"}, {"bike_id": "f0bb6d7d877d7b431238c6aaee0654db", "lat": 38.922361, "is_disabled": 0, "lon": -77.02248216666666, "fusion_lon": 0.0, "is_reserved": 0, "fusion_lat": 0.0, "rental_uris": {"android": "https://dc.lft.to/lastmile_qr_scan", "ios": "https://dc.lft.to/lastmile_qr_scan"}, "type": "electric_scooter", "name": "f0bb6d7d877d7b431238c6aaee0654db"}, {"bike_id": "a58ddcfb4c0feb1f2b8d444ac9e338ee", "lat": 38.91126633333333, "is_disabled": 0, "lon": -77.03836483333333, "fusion_lon": 0.0, "is_reserved": 0, "fusion_lat": 0.0, "rental_uris": {"android": "https://dc.lft.to/lastmile_qr_scan", "ios": "https://dc.lft.to/lastmile_qr_scan"}, "type": "electric_scooter", "name": "a58ddcfb4c0feb1f2b8d444ac9e338ee"}, {"bike_id": "6af9419009802e87b08d6e518b8688e9", "lat": 38.91912166666667, "is_disabled": 0, "lon": -77.01903266666666, "fusion_lon": 0.0, "is_reserved": 0, "fusion_lat": 0.0, "rental_uris": {"android": "https://dc.lft.to/lastmile_qr_scan", "ios": "https://dc.lft.to/lastmile_qr_scan"}, "type": "electric_scooter", "name": "6af9419009802e87b08d6e518b8688e9"}, {"bike_id": "c8991a079db642e4f084ba1a65560c33", "lat": 38.9078095, "is_disabled": 0, "lon": -77.07237066666667, "fusion_lon": 0.0, "is_reserved": 0, "fusion_lat": 0.0, "rental_uris": {"android": "https://dc.lft.to/lastmile_qr_scan", "ios": "https://dc.lft.to/lastmile_qr_scan"}, "type": "electric_scooter", "name": "c8991a079db642e4f084ba1a65560c33"}, {"bike_id": "0bab927dbedabca1fa590da520e0fa15", "lat": 38.889571833333335, "is_disabled": 0, "lon": -76.98081883333333, "fusion_lon": 0.0, "is_reserved": 0, "fusion_lat": 0.0, "rental_uris": {"android": "https://dc.lft.to/lastmile_qr_scan", "ios": "https://dc.lft.to/lastmile_qr_scan"}, "type": "electric_scooter", "name": "0bab927dbedabca1fa590da520e0fa15"}, {"bike_id": "12395e2102f4379980d96ad953729fb2", "lat": 38.908309, "is_disabled": 0, "lon": -77.00057916666667, "fusion_lon": 0.0, "is_reserved": 0, "fusion_lat": 0.0, "rental_uris": {"android": "https://dc.lft.to/lastmile_qr_scan", "ios": "https://dc.lft.to/lastmile_qr_scan"}, "type": "electric_scooter", "name": "12395e2102f4379980d96ad953729fb2"}, {"bike_id": "080c60e457fa51e390854e62f7d33468", "lat": 38.91240966666667, "is_disabled": 0, "lon": -77.062806, "fusion_lon": 0.0, "is_reserved": 0, "fusion_lat": 0.0, "rental_uris": {"android": "https://dc.lft.to/lastmile_qr_scan", "ios": "https://dc.lft.to/lastmile_qr_scan"}, "type": "electric_scooter", "name": "080c60e457fa51e390854e62f7d33468"}, {"bike_id": "bfd9484af68c2fa216be0d883c6c1828", "lat": 38.907211, "is_disabled": 0, "lon": -77.04340816666667, "fusion_lon": 0.0, "is_reserved": 0, "fusion_lat": 0.0, "rental_uris": {"android": "https://dc.lft.to/lastmile_qr_scan", "ios": "https://dc.lft.to/lastmile_qr_scan"}, "type": "electric_scooter", "name": "bfd9484af68c2fa216be0d883c6c1828"}, {"bike_id": "8aef519856344a4c9760d431ad44c7fd", "lat": 38.887327166666665, "is_disabled": 0, "lon": -77.01536216666666, "fusion_lon": 0.0, "is_reserved": 0, "fusion_lat": 0.0, "rental_uris": {"android": "https://dc.lft.to/lastmile_qr_scan", "ios": "https://dc.lft.to/lastmile_qr_scan"}, "type": "electric_scooter", "name": "8aef519856344a4c9760d431ad44c7fd"}, {"bike_id": "356e35abb6cd93b125e58eb584881a1b", "lat": 38.930524166666665, "is_disabled": 0, "lon": -77.0403405, "fusion_lon": 0.0, "is_reserved": 0, "fusion_lat": 0.0, "rental_uris": {"android": "https://dc.lft.to/lastmile_qr_scan", "ios": "https://dc.lft.to/lastmile_qr_scan"}, "type": "electric_scooter", "name": "356e35abb6cd93b125e58eb584881a1b"}, {"bike_id": "1385c908ed9d6b969d9e29f1047a7e1b", "lat": 38.862454, "is_disabled": 0, "lon": -76.9947565, "fusion_lon": 0.0, "is_reserved": 0, "fusion_lat": 0.0, "rental_uris": {"android": "https://dc.lft.to/lastmile_qr_scan", "ios": "https://dc.lft.to/lastmile_qr_scan"}, "type": "electric_scooter", "name": "1385c908ed9d6b969d9e29f1047a7e1b"}, {"bike_id": "67ae529a8464b66105f68c34ac132b68", "lat": 38.93529183333333, "is_disabled": 0, "lon": -77.028588, "fusion_lon": 0.0, "is_reserved": 0, "fusion_lat": 0.0, "rental_uris": {"android": "https://dc.lft.to/lastmile_qr_scan", "ios": "https://dc.lft.to/lastmile_qr_scan"}, "type": "electric_scooter", "name": "67ae529a8464b66105f68c34ac132b68"}, {"bike_id": "289a403769240b05b0729d8e201e92b4", "lat": 38.9208905, "is_disabled": 0, "lon": -77.02558966666666, "fusion_lon": 0.0, "is_reserved": 0, "fusion_lat": 0.0, "rental_uris": {"android": "https://dc.lft.to/lastmile_qr_scan", "ios": "https://dc.lft.to/lastmile_qr_scan"}, "type": "electric_scooter", "name": "289a403769240b05b0729d8e201e92b4"}, {"bike_id": "b228a3e761fee225a3386fc3261b954a", "lat": 38.87655433333333, "is_disabled": 0, "lon": -77.004625, "fusion_lon": 0.0, "is_reserved": 0, "fusion_lat": 0.0, "rental_uris": {"android": "https://dc.lft.to/lastmile_qr_scan", "ios": "https://dc.lft.to/lastmile_qr_scan"}, "type": "electric_scooter", "name": "b228a3e761fee225a3386fc3261b954a"}, {"bike_id": "490764dc4af3c2a39b64dbb8152a850a", "lat": 38.90040116666667, "is_disabled": 0, "lon": -77.00551366666667, "fusion_lon": 0.0, "is_reserved": 0, "fusion_lat": 0.0, "rental_uris": {"android": "https://dc.lft.to/lastmile_qr_scan", "ios": "https://dc.lft.to/lastmile_qr_scan"}, "type": "electric_scooter", "name": "490764dc4af3c2a39b64dbb8152a850a"}, {"bike_id": "6360151fb38023af58d3dc5936e3293b", "lat": 38.92579, "is_disabled": 0, "lon": -77.0260385, "fusion_lon": 0.0, "is_reserved": 0, "fusion_lat": 0.0, "rental_uris": {"android": "https://dc.lft.to/lastmile_qr_scan", "ios": "https://dc.lft.to/lastmile_qr_scan"}, "type": "electric_scooter", "name": "6360151fb38023af58d3dc5936e3293b"}, {"bike_id": "32721937ec006e3ee19171216a6d1a6a", "lat": 38.89371416666667, "is_disabled": 0, "lon": -76.99752216666667, "fusion_lon": 0.0, "is_reserved": 0, "fusion_lat": 0.0, "rental_uris": {"android": "https://dc.lft.to/lastmile_qr_scan", "ios": "https://dc.lft.to/lastmile_qr_scan"}, "type": "electric_scooter", "name": "32721937ec006e3ee19171216a6d1a6a"}, {"bike_id": "04c73ed14b52a601523cba9da364f7f2", "lat": 38.907915333333335, "is_disabled": 0, "lon": -77.00042483333333, "fusion_lon": 0.0, "is_reserved": 0, "fusion_lat": 0.0, "rental_uris": {"android": "https://dc.lft.to/lastmile_qr_scan", "ios": "https://dc.lft.to/lastmile_qr_scan"}, "type": "electric_scooter", "name": "04c73ed14b52a601523cba9da364f7f2"}, {"bike_id": "2da42d3c9690530e5941ad2ccf506c40", "lat": 38.919176, "is_disabled": 0, "lon": -77.0241705, "fusion_lon": 0.0, "is_reserved": 0, "fusion_lat": 0.0, "rental_uris": {"android": "https://dc.lft.to/lastmile_qr_scan", "ios": "https://dc.lft.to/lastmile_qr_scan"}, "type": "electric_scooter", "name": "2da42d3c9690530e5941ad2ccf506c40"}, {"bike_id": "306f3a5c258f8e04d478e759bfa83e74", "lat": 38.929356166666665, "is_disabled": 0, "lon": -77.03278866666666, "fusion_lon": 0.0, "is_reserved": 0, "fusion_lat": 0.0, "rental_uris": {"android": "https://dc.lft.to/lastmile_qr_scan", "ios": "https://dc.lft.to/lastmile_qr_scan"}, "type": "electric_scooter", "name": "306f3a5c258f8e04d478e759bfa83e74"}, {"bike_id": "20e01a282dd6c62a283e492e0e9e2858", "lat": 38.90892616666667, "is_disabled": 0, "lon": -77.02598833333333, "fusion_lon": 0.0, "is_reserved": 0, "fusion_lat": 0.0, "rental_uris": {"android": "https://dc.lft.to/lastmile_qr_scan", "ios": "https://dc.lft.to/lastmile_qr_scan"}, "type": "electric_scooter", "name": "20e01a282dd6c62a283e492e0e9e2858"}, {"bike_id": "b675118117377ab594f9b181d6cadc54", "lat": 38.89398716666667, "is_disabled": 0, "lon": -77.02122633333333, "fusion_lon": 0.0, "is_reserved": 0, "fusion_lat": 0.0, "rental_uris": {"android": "https://dc.lft.to/lastmile_qr_scan", "ios": "https://dc.lft.to/lastmile_qr_scan"}, "type": "electric_scooter", "name": "b675118117377ab594f9b181d6cadc54"}, {"bike_id": "ab9270866b3d940e0530c22c4be280c1", "lat": 38.880228333333335, "is_disabled": 0, "lon": -77.10940066666667, "fusion_lon": 0.0, "is_reserved": 0, "fusion_lat": 0.0, "rental_uris": {"android": "https://dc.lft.to/lastmile_qr_scan", "ios": "https://dc.lft.to/lastmile_qr_scan"}, "type": "electric_bike", "name": "ab9270866b3d940e0530c22c4be280c1"}, {"bike_id": "41b4e2f8402106bdda89146c00ed07e8", "lat": 38.904898, "is_disabled": 0, "lon": -77.02602033333334, "fusion_lon": 0.0, "is_reserved": 0, "fusion_lat": 0.0, "rental_uris": {"android": "https://dc.lft.to/lastmile_qr_scan", "ios": "https://dc.lft.to/lastmile_qr_scan"}, "type": "electric_scooter", "name": "41b4e2f8402106bdda89146c00ed07e8"}, {"bike_id": "bb5d2459cc450192c102ccd6ae822891", "lat": 38.9024435, "is_disabled": 0, "lon": -77.03442666666666, "fusion_lon": 0.0, "is_reserved": 0, "fusion_lat": 0.0, "rental_uris": {"android": "https://dc.lft.to/lastmile_qr_scan", "ios": "https://dc.lft.to/lastmile_qr_scan"}, "type": "electric_scooter", "name": "bb5d2459cc450192c102ccd6ae822891"}, {"bike_id": "afdafc97a6da6987a30b8be6f51df514", "lat": 38.924801333333335, "is_disabled": 0, "lon": -77.02552883333334, "fusion_lon": 0.0, "is_reserved": 0, "fusion_lat": 0.0, "rental_uris": {"android": "https://dc.lft.to/lastmile_qr_scan", "ios": "https://dc.lft.to/lastmile_qr_scan"}, "type": "electric_scooter", "name": "afdafc97a6da6987a30b8be6f51df514"}, {"bike_id": "04cfd254b87380bc569d16f86e45b546", "lat": 38.91815833333333, "is_disabled": 0, "lon": -77.02982283333333, "fusion_lon": 0.0, "is_reserved": 0, "fusion_lat": 0.0, "rental_uris": {"android": "https://dc.lft.to/lastmile_qr_scan", "ios": "https://dc.lft.to/lastmile_qr_scan"}, "type": "electric_scooter", "name": "04cfd254b87380bc569d16f86e45b546"}, {"bike_id": "54d224b7c3a6c64264c795156c8c7f60", "lat": 38.91971566666667, "is_disabled": 0, "lon": -77.02520483333333, "fusion_lon": 0.0, "is_reserved": 0, "fusion_lat": 0.0, "rental_uris": {"android": "https://dc.lft.to/lastmile_qr_scan", "ios": "https://dc.lft.to/lastmile_qr_scan"}, "type": "electric_scooter", "name": "54d224b7c3a6c64264c795156c8c7f60"}, {"bike_id": "b8a637d3bb67ab0966af628dcde141e2", "lat": 38.904422333333336, "is_disabled": 0, "lon": -77.04264383333333, "fusion_lon": 0.0, "is_reserved": 0, "fusion_lat": 0.0, "rental_uris": {"android": "https://dc.lft.to/lastmile_qr_scan", "ios": "https://dc.lft.to/lastmile_qr_scan"}, "type": "electric_scooter", "name": "b8a637d3bb67ab0966af628dcde141e2"}, {"bike_id": "59a81ef654b21179839f3fefbf7f3097", "lat": 38.92360166666667, "is_disabled": 0, "lon": -77.00345666666666, "fusion_lon": 0.0, "is_reserved": 0, "fusion_lat": 0.0, "rental_uris": {"android": "https://dc.lft.to/lastmile_qr_scan", "ios": "https://dc.lft.to/lastmile_qr_scan"}, "type": "electric_scooter", "name": "59a81ef654b21179839f3fefbf7f3097"}, {"bike_id": "dc66a54cce0dc791602c289f5073d16b", "lat": 38.919083, "is_disabled": 0, "lon": -77.03628666666667, "fusion_lon": 0.0, "is_reserved": 0, "fusion_lat": 0.0, "rental_uris": {"android": "https://dc.lft.to/lastmile_qr_scan", "ios": "https://dc.lft.to/lastmile_qr_scan"}, "type": "electric_scooter", "name": "dc66a54cce0dc791602c289f5073d16b"}, {"bike_id": "d8f64760fb8a1e0cdc1fd0caa3ce46bd", "lat": 38.905048, "is_disabled": 0, "lon": -76.95196283333334, "fusion_lon": 0.0, "is_reserved": 0, "fusion_lat": 0.0, "rental_uris": {"android": "https://dc.lft.to/lastmile_qr_scan", "ios": "https://dc.lft.to/lastmile_qr_scan"}, "type": "electric_scooter", "name": "d8f64760fb8a1e0cdc1fd0caa3ce46bd"}, {"bike_id": "8700486b6727cd327fb7027f107a41ac", "lat": 38.900035833333334, "is_disabled": 0, "lon": -77.05246116666666, "fusion_lon": 0.0, "is_reserved": 0, "fusion_lat": 0.0, "rental_uris": {"android": "https://dc.lft.to/lastmile_qr_scan", "ios": "https://dc.lft.to/lastmile_qr_scan"}, "type": "electric_scooter", "name": "8700486b6727cd327fb7027f107a41ac"}, {"bike_id": "8bea5295216e3fc6e6d3c3190fb4b812", "lat": 38.953592666666665, "is_disabled": 0, "lon": -76.99841116666667, "fusion_lon": 0.0, "is_reserved": 0, "fusion_lat": 0.0, "rental_uris": {"android": "https://dc.lft.to/lastmile_qr_scan", "ios": "https://dc.lft.to/lastmile_qr_scan"}, "type": "electric_scooter", "name": "8bea5295216e3fc6e6d3c3190fb4b812"}, {"bike_id": "f064795f9793b92388b31d241c685a58", "lat": 38.904380833333335, "is_disabled": 0, "lon": -77.03285466666667, "fusion_lon": 0.0, "is_reserved": 0, "fusion_lat": 0.0, "rental_uris": {"android": "https://dc.lft.to/lastmile_qr_scan", "ios": "https://dc.lft.to/lastmile_qr_scan"}, "type": "electric_scooter", "name": "f064795f9793b92388b31d241c685a58"}, {"bike_id": "c96b4e68c9669e3a6c586aa6bad0cdac", "lat": 38.8712855, "is_disabled": 0, "lon": -76.93729166666667, "fusion_lon": 0.0, "is_reserved": 0, "fusion_lat": 0.0, "rental_uris": {"android": "https://dc.lft.to/lastmile_qr_scan", "ios": "https://dc.lft.to/lastmile_qr_scan"}, "type": "electric_bike", "name": "c96b4e68c9669e3a6c586aa6bad0cdac"}, {"bike_id": "4a6eaed171c9d3d43f03ceb4a6f643e5", "lat": 38.91889716666667, "is_disabled": 0, "lon": -77.03824016666667, "fusion_lon": 0.0, "is_reserved": 0, "fusion_lat": 0.0, "rental_uris": {"android": "https://dc.lft.to/lastmile_qr_scan", "ios": "https://dc.lft.to/lastmile_qr_scan"}, "type": "electric_scooter", "name": "4a6eaed171c9d3d43f03ceb4a6f643e5"}, {"bike_id": "61146156b77fe8a0fccbf5a709f1d5e2", "lat": 38.90002716666667, "is_disabled": 0, "lon": -77.00672433333334, "fusion_lon": 0.0, "is_reserved": 0, "fusion_lat": 0.0, "rental_uris": {"android": "https://dc.lft.to/lastmile_qr_scan", "ios": "https://dc.lft.to/lastmile_qr_scan"}, "type": "electric_scooter", "name": "61146156b77fe8a0fccbf5a709f1d5e2"}, {"bike_id": "236636819f7db82b68c438ba7ea5264b", "lat": 38.8926685, "is_disabled": 0, "lon": -77.0420705, "fusion_lon": 0.0, "is_reserved": 0, "fusion_lat": 0.0, "rental_uris": {"android": "https://dc.lft.to/lastmile_qr_scan", "ios": "https://dc.lft.to/lastmile_qr_scan"}, "type": "electric_scooter", "name": "236636819f7db82b68c438ba7ea5264b"}, {"bike_id": "84057a5b44bb7e4a60f9a80c64b4de59", "lat": 38.891884166666664, "is_disabled": 0, "lon": -77.00294466666666, "fusion_lon": 0.0, "is_reserved": 0, "fusion_lat": 0.0, "rental_uris": {"android": "https://dc.lft.to/lastmile_qr_scan", "ios": "https://dc.lft.to/lastmile_qr_scan"}, "type": "electric_scooter", "name": "84057a5b44bb7e4a60f9a80c64b4de59"}, {"bike_id": "53576164718278f205f1b7d513743905", "lat": 38.8973065, "is_disabled": 0, "lon": -77.0078305, "fusion_lon": 0.0, "is_reserved": 0, "fusion_lat": 0.0, "rental_uris": {"android": "https://dc.lft.to/lastmile_qr_scan", "ios": "https://dc.lft.to/lastmile_qr_scan"}, "type": "electric_scooter", "name": "53576164718278f205f1b7d513743905"}, {"bike_id": "821aa69a2f7ddb3f01422016c65991bf", "lat": 38.91562283333333, "is_disabled": 0, "lon": -77.0200265, "fusion_lon": 0.0, "is_reserved": 0, "fusion_lat": 0.0, "rental_uris": {"android": "https://dc.lft.to/lastmile_qr_scan", "ios": "https://dc.lft.to/lastmile_qr_scan"}, "type": "electric_scooter", "name": "821aa69a2f7ddb3f01422016c65991bf"}, {"bike_id": "ae06c15bfda2f3c480a14c2cd1b04188", "lat": 39.015640166666664, "is_disabled": 0, "lon": -77.04424466666667, "fusion_lon": 0.0, "is_reserved": 0, "fusion_lat": 0.0, "rental_uris": {"android": "https://dc.lft.to/lastmile_qr_scan", "ios": "https://dc.lft.to/lastmile_qr_scan"}, "type": "electric_bike", "name": "ae06c15bfda2f3c480a14c2cd1b04188"}, {"bike_id": "b0b7de770ce004930eecc23d5ca56736", "lat": 38.93299016666667, "is_disabled": 0, "lon": -77.03586433333334, "fusion_lon": 0.0, "is_reserved": 0, "fusion_lat": 0.0, "rental_uris": {"android": "https://dc.lft.to/lastmile_qr_scan", "ios": "https://dc.lft.to/lastmile_qr_scan"}, "type": "electric_scooter", "name": "b0b7de770ce004930eecc23d5ca56736"}, {"bike_id": "7881aec05449c1cebbe826a4d501e225", "lat": 38.8921955, "is_disabled": 0, "lon": -77.043634, "fusion_lon": 0.0, "is_reserved": 0, "fusion_lat": 0.0, "rental_uris": {"android": "https://dc.lft.to/lastmile_qr_scan", "ios": "https://dc.lft.to/lastmile_qr_scan"}, "type": "electric_scooter", "name": "7881aec05449c1cebbe826a4d501e225"}, {"bike_id": "e009be241830943dc3f40f44a4577cda", "lat": 38.916140666666664, "is_disabled": 0, "lon": -77.04600966666666, "fusion_lon": 0.0, "is_reserved": 0, "fusion_lat": 0.0, "rental_uris": {"android": "https://dc.lft.to/lastmile_qr_scan", "ios": "https://dc.lft.to/lastmile_qr_scan"}, "type": "electric_scooter", "name": "e009be241830943dc3f40f44a4577cda"}, {"bike_id": "946429f2e87747dadfbf25ae2f06f6d9", "lat": 38.92802366666667, "is_disabled": 0, "lon": -77.03151033333333, "fusion_lon": 0.0, "is_reserved": 0, "fusion_lat": 0.0, "rental_uris": {"android": "https://dc.lft.to/lastmile_qr_scan", "ios": "https://dc.lft.to/lastmile_qr_scan"}, "type": "electric_scooter", "name": "946429f2e87747dadfbf25ae2f06f6d9"}, {"bike_id": "43125ae7b903cd6d826445d2439961ef", "lat": 38.958330333333336, "is_disabled": 0, "lon": -77.08475783333333, "fusion_lon": 0.0, "is_reserved": 0, "fusion_lat": 0.0, "rental_uris": {"android": "https://dc.lft.to/lastmile_qr_scan", "ios": "https://dc.lft.to/lastmile_qr_scan"}, "type": "electric_scooter", "name": "43125ae7b903cd6d826445d2439961ef"}, {"bike_id": "e0be3ded6b1682f8881f9d0d10333f87", "lat": 38.854541, "is_disabled": 0, "lon": -76.97222916666666, "fusion_lon": 0.0, "is_reserved": 0, "fusion_lat": 0.0, "rental_uris": {"android": "https://dc.lft.to/lastmile_qr_scan", "ios": "https://dc.lft.to/lastmile_qr_scan"}, "type": "electric_scooter", "name": "e0be3ded6b1682f8881f9d0d10333f87"}, {"bike_id": "131d805d4dcac9de0ba9c948c2b37282", "lat": 38.81907483333333, "is_disabled": 0, "lon": -77.12651766666667, "fusion_lon": 0.0, "is_reserved": 0, "fusion_lat": 0.0, "rental_uris": {"android": "https://dc.lft.to/lastmile_qr_scan", "ios": "https://dc.lft.to/lastmile_qr_scan"}, "type": "electric_bike", "name": "131d805d4dcac9de0ba9c948c2b37282"}, {"bike_id": "7136f027628c10c688fc67476d6d615e", "lat": 38.900813, "is_disabled": 0, "lon": -77.02470033333333, "fusion_lon": 0.0, "is_reserved": 0, "fusion_lat": 0.0, "rental_uris": {"android": "https://dc.lft.to/lastmile_qr_scan", "ios": "https://dc.lft.to/lastmile_qr_scan"}, "type": "electric_scooter", "name": "7136f027628c10c688fc67476d6d615e"}, {"bike_id": "9b5b301d512a701f3b05213a98b433a1", "lat": 38.923990833333335, "is_disabled": 0, "lon": -77.05200116666667, "fusion_lon": 0.0, "is_reserved": 0, "fusion_lat": 0.0, "rental_uris": {"android": "https://dc.lft.to/lastmile_qr_scan", "ios": "https://dc.lft.to/lastmile_qr_scan"}, "type": "electric_scooter", "name": "9b5b301d512a701f3b05213a98b433a1"}, {"bike_id": "75ef6d9a4a1b0d4735e164f43ecd6c7c", "lat": 38.87799166666667, "is_disabled": 0, "lon": -77.007418, "fusion_lon": 0.0, "is_reserved": 0, "fusion_lat": 0.0, "rental_uris": {"android": "https://dc.lft.to/lastmile_qr_scan", "ios": "https://dc.lft.to/lastmile_qr_scan"}, "type": "electric_scooter", "name": "75ef6d9a4a1b0d4735e164f43ecd6c7c"}, {"bike_id": "741f280ae753e76d105e4b6c12ef04b3", "lat": 38.86627633333333, "is_disabled": 0, "lon": -76.983069, "fusion_lon": 0.0, "is_reserved": 0, "fusion_lat": 0.0, "rental_uris": {"android": "https://dc.lft.to/lastmile_qr_scan", "ios": "https://dc.lft.to/lastmile_qr_scan"}, "type": "electric_scooter", "name": "741f280ae753e76d105e4b6c12ef04b3"}, {"bike_id": "4debcc8f446fb012af5023e4f4a374bf", "lat": 38.917074, "is_disabled": 0, "lon": -77.025674, "fusion_lon": 0.0, "is_reserved": 0, "fusion_lat": 0.0, "rental_uris": {"android": "https://dc.lft.to/lastmile_qr_scan", "ios": "https://dc.lft.to/lastmile_qr_scan"}, "type": "electric_scooter", "name": "4debcc8f446fb012af5023e4f4a374bf"}, {"bike_id": "4a099e76612ac738980a652c921df98a", "lat": 38.88444783333333, "is_disabled": 0, "lon": -76.94229566666667, "fusion_lon": 0.0, "is_reserved": 0, "fusion_lat": 0.0, "rental_uris": {"android": "https://dc.lft.to/lastmile_qr_scan", "ios": "https://dc.lft.to/lastmile_qr_scan"}, "type": "electric_scooter", "name": "4a099e76612ac738980a652c921df98a"}, {"bike_id": "0f49ad68155cfd836dd5e07d99554a63", "lat": 38.93544983333334, "is_disabled": 0, "lon": -77.0823755, "fusion_lon": 0.0, "is_reserved": 0, "fusion_lat": 0.0, "rental_uris": {"android": "https://dc.lft.to/lastmile_qr_scan", "ios": "https://dc.lft.to/lastmile_qr_scan"}, "type": "electric_bike", "name": "0f49ad68155cfd836dd5e07d99554a63"}, {"bike_id": "4c88b9d8fccee159973fe7c92bfd75ff", "lat": 38.92189616666667, "is_disabled": 0, "lon": -77.046999, "fusion_lon": 0.0, "is_reserved": 0, "fusion_lat": 0.0, "rental_uris": {"android": "https://dc.lft.to/lastmile_qr_scan", "ios": "https://dc.lft.to/lastmile_qr_scan"}, "type": "electric_scooter", "name": "4c88b9d8fccee159973fe7c92bfd75ff"}, {"bike_id": "02adc440472d4610e793c914a2c5259d", "lat": 38.921017166666665, "is_disabled": 0, "lon": -77.02553533333334, "fusion_lon": 0.0, "is_reserved": 0, "fusion_lat": 0.0, "rental_uris": {"android": "https://dc.lft.to/lastmile_qr_scan", "ios": "https://dc.lft.to/lastmile_qr_scan"}, "type": "electric_scooter", "name": "02adc440472d4610e793c914a2c5259d"}, {"bike_id": "fb008a39241c8cf06739cc7ac9e4a922", "lat": 38.90550233333333, "is_disabled": 0, "lon": -77.04659083333334, "fusion_lon": 0.0, "is_reserved": 0, "fusion_lat": 0.0, "rental_uris": {"android": "https://dc.lft.to/lastmile_qr_scan", "ios": "https://dc.lft.to/lastmile_qr_scan"}, "type": "electric_scooter", "name": "fb008a39241c8cf06739cc7ac9e4a922"}, {"bike_id": "a841bdb58dc894c092edd82d64333d62", "lat": 38.903751, "is_disabled": 0, "lon": -76.995107, "fusion_lon": 0.0, "is_reserved": 0, "fusion_lat": 0.0, "rental_uris": {"android": "https://dc.lft.to/lastmile_qr_scan", "ios": "https://dc.lft.to/lastmile_qr_scan"}, "type": "electric_scooter", "name": "a841bdb58dc894c092edd82d64333d62"}, {"bike_id": "24b793ac3d000ddb3933da4294e0326a", "lat": 38.920616, "is_disabled": 0, "lon": -77.03810716666666, "fusion_lon": 0.0, "is_reserved": 0, "fusion_lat": 0.0, "rental_uris": {"android": "https://dc.lft.to/lastmile_qr_scan", "ios": "https://dc.lft.to/lastmile_qr_scan"}, "type": "electric_scooter", "name": "24b793ac3d000ddb3933da4294e0326a"}, {"bike_id": "3116feee518bff05d63f2ba4242a5626", "lat": 38.90222466666667, "is_disabled": 0, "lon": -77.034768, "fusion_lon": 0.0, "is_reserved": 0, "fusion_lat": 0.0, "rental_uris": {"android": "https://dc.lft.to/lastmile_qr_scan", "ios": "https://dc.lft.to/lastmile_qr_scan"}, "type": "electric_scooter", "name": "3116feee518bff05d63f2ba4242a5626"}, {"bike_id": "02fc7b83de1b788cc4841fa66a41227d", "lat": 38.91415116666667, "is_disabled": 0, "lon": -77.04154916666667, "fusion_lon": 0.0, "is_reserved": 0, "fusion_lat": 0.0, "rental_uris": {"android": "https://dc.lft.to/lastmile_qr_scan", "ios": "https://dc.lft.to/lastmile_qr_scan"}, "type": "electric_scooter", "name": "02fc7b83de1b788cc4841fa66a41227d"}, {"bike_id": "6d98d58927d67b85c5d4a981ecbb16cc", "lat": 38.887365, "is_disabled": 0, "lon": -77.01527116666666, "fusion_lon": 0.0, "is_reserved": 0, "fusion_lat": 0.0, "rental_uris": {"android": "https://dc.lft.to/lastmile_qr_scan", "ios": "https://dc.lft.to/lastmile_qr_scan"}, "type": "electric_scooter", "name": "6d98d58927d67b85c5d4a981ecbb16cc"}, {"bike_id": "9aafea5a736cf24852a8a0f2bfb5fc16", "lat": 38.89911583333333, "is_disabled": 0, "lon": -76.93384166666667, "fusion_lon": 0.0, "is_reserved": 0, "fusion_lat": 0.0, "rental_uris": {"android": "https://dc.lft.to/lastmile_qr_scan", "ios": "https://dc.lft.to/lastmile_qr_scan"}, "type": "electric_scooter", "name": "9aafea5a736cf24852a8a0f2bfb5fc16"}, {"bike_id": "d0c1823a4204d63966eb54d8ee078300", "lat": 38.86223533333333, "is_disabled": 0, "lon": -76.99497616666666, "fusion_lon": 0.0, "is_reserved": 0, "fusion_lat": 0.0, "rental_uris": {"android": "https://dc.lft.to/lastmile_qr_scan", "ios": "https://dc.lft.to/lastmile_qr_scan"}, "type": "electric_scooter", "name": "d0c1823a4204d63966eb54d8ee078300"}, {"bike_id": "8bb7f60ed7fad16492fefd488fc18bf2", "lat": 38.90852783333333, "is_disabled": 0, "lon": -77.04831516666667, "fusion_lon": 0.0, "is_reserved": 0, "fusion_lat": 0.0, "rental_uris": {"android": "https://dc.lft.to/lastmile_qr_scan", "ios": "https://dc.lft.to/lastmile_qr_scan"}, "type": "electric_scooter", "name": "8bb7f60ed7fad16492fefd488fc18bf2"}, {"bike_id": "28b33465b069e60678ed770998fb48f4", "lat": 38.94333783333333, "is_disabled": 0, "lon": -77.01480116666667, "fusion_lon": 0.0, "is_reserved": 0, "fusion_lat": 0.0, "rental_uris": {"android": "https://dc.lft.to/lastmile_qr_scan", "ios": "https://dc.lft.to/lastmile_qr_scan"}, "type": "electric_scooter", "name": "28b33465b069e60678ed770998fb48f4"}, {"bike_id": "9135d2d28ca650f5d3d0b87f3bcf42c4", "lat": 38.92263833333333, "is_disabled": 0, "lon": -77.01966383333334, "fusion_lon": 0.0, "is_reserved": 0, "fusion_lat": 0.0, "rental_uris": {"android": "https://dc.lft.to/lastmile_qr_scan", "ios": "https://dc.lft.to/lastmile_qr_scan"}, "type": "electric_scooter", "name": "9135d2d28ca650f5d3d0b87f3bcf42c4"}, {"bike_id": "de44e0826a7dfe64b89eddfacdb2dcd7", "lat": 38.878697333333335, "is_disabled": 0, "lon": -77.02323533333333, "fusion_lon": 0.0, "is_reserved": 0, "fusion_lat": 0.0, "rental_uris": {"android": "https://dc.lft.to/lastmile_qr_scan", "ios": "https://dc.lft.to/lastmile_qr_scan"}, "type": "electric_scooter", "name": "de44e0826a7dfe64b89eddfacdb2dcd7"}, {"bike_id": "404e5c3929b1219482ff309c81e74227", "lat": 38.919746333333336, "is_disabled": 0, "lon": -77.02181916666666, "fusion_lon": 0.0, "is_reserved": 0, "fusion_lat": 0.0, "rental_uris": {"android": "https://dc.lft.to/lastmile_qr_scan", "ios": "https://dc.lft.to/lastmile_qr_scan"}, "type": "electric_scooter", "name": "404e5c3929b1219482ff309c81e74227"}, {"bike_id": "ae9da076217dea043c3c6efd4a46153b", "lat": 38.86268316666666, "is_disabled": 0, "lon": -76.99571133333333, "fusion_lon": 0.0, "is_reserved": 0, "fusion_lat": 0.0, "rental_uris": {"android": "https://dc.lft.to/lastmile_qr_scan", "ios": "https://dc.lft.to/lastmile_qr_scan"}, "type": "electric_scooter", "name": "ae9da076217dea043c3c6efd4a46153b"}, {"bike_id": "8a92488a92fb3040fea25c55c0d0e8db", "lat": 38.924622166666666, "is_disabled": 0, "lon": -77.03063266666666, "fusion_lon": 0.0, "is_reserved": 0, "fusion_lat": 0.0, "rental_uris": {"android": "https://dc.lft.to/lastmile_qr_scan", "ios": "https://dc.lft.to/lastmile_qr_scan"}, "type": "electric_scooter", "name": "8a92488a92fb3040fea25c55c0d0e8db"}, {"bike_id": "80a1c4a350bb958b62360a8ffdc4962e", "lat": 38.89980666666666, "is_disabled": 0, "lon": -76.9950935, "fusion_lon": 0.0, "is_reserved": 0, "fusion_lat": 0.0, "rental_uris": {"android": "https://dc.lft.to/lastmile_qr_scan", "ios": "https://dc.lft.to/lastmile_qr_scan"}, "type": "electric_scooter", "name": "80a1c4a350bb958b62360a8ffdc4962e"}, {"bike_id": "30833c945045f562ff9563327ed5d540", "lat": 38.9038955, "is_disabled": 0, "lon": -77.06673866666667, "fusion_lon": 0.0, "is_reserved": 0, "fusion_lat": 0.0, "rental_uris": {"android": "https://dc.lft.to/lastmile_qr_scan", "ios": "https://dc.lft.to/lastmile_qr_scan"}, "type": "electric_scooter", "name": "30833c945045f562ff9563327ed5d540"}, {"bike_id": "99c43d84d7c3cf3ba4a02bf9d241e80c", "lat": 38.895486, "is_disabled": 0, "lon": -77.02822316666666, "fusion_lon": 0.0, "is_reserved": 0, "fusion_lat": 0.0, "rental_uris": {"android": "https://dc.lft.to/lastmile_qr_scan", "ios": "https://dc.lft.to/lastmile_qr_scan"}, "type": "electric_scooter", "name": "99c43d84d7c3cf3ba4a02bf9d241e80c"}, {"bike_id": "0575f7347c051f34d1c12ed8d9a26d94", "lat": 38.89740783333333, "is_disabled": 0, "lon": -77.0462745, "fusion_lon": 0.0, "is_reserved": 0, "fusion_lat": 0.0, "rental_uris": {"android": "https://dc.lft.to/lastmile_qr_scan", "ios": "https://dc.lft.to/lastmile_qr_scan"}, "type": "electric_scooter", "name": "0575f7347c051f34d1c12ed8d9a26d94"}, {"bike_id": "80c2406efe6d3858eeedd5886dad5d05", "lat": 38.876419166666665, "is_disabled": 0, "lon": -77.00354333333334, "fusion_lon": 0.0, "is_reserved": 0, "fusion_lat": 0.0, "rental_uris": {"android": "https://dc.lft.to/lastmile_qr_scan", "ios": "https://dc.lft.to/lastmile_qr_scan"}, "type": "electric_scooter", "name": "80c2406efe6d3858eeedd5886dad5d05"}, {"bike_id": "90e0f5a73d1d0841d9bacd61eb589e00", "lat": 38.89219383333333, "is_disabled": 0, "lon": -77.02368333333334, "fusion_lon": 0.0, "is_reserved": 0, "fusion_lat": 0.0, "rental_uris": {"android": "https://dc.lft.to/lastmile_qr_scan", "ios": "https://dc.lft.to/lastmile_qr_scan"}, "type": "electric_scooter", "name": "90e0f5a73d1d0841d9bacd61eb589e00"}, {"bike_id": "b3410f10676118ee3253f050e6cdd74d", "lat": 38.900445166666664, "is_disabled": 0, "lon": -76.99837516666666, "fusion_lon": 0.0, "is_reserved": 0, "fusion_lat": 0.0, "rental_uris": {"android": "https://dc.lft.to/lastmile_qr_scan", "ios": "https://dc.lft.to/lastmile_qr_scan"}, "type": "electric_scooter", "name": "b3410f10676118ee3253f050e6cdd74d"}, {"bike_id": "0ae4e333b6a4f24ff52882dd115fb8c4", "lat": 38.90361933333333, "is_disabled": 0, "lon": -77.03204183333334, "fusion_lon": 0.0, "is_reserved": 0, "fusion_lat": 0.0, "rental_uris": {"android": "https://dc.lft.to/lastmile_qr_scan", "ios": "https://dc.lft.to/lastmile_qr_scan"}, "type": "electric_scooter", "name": "0ae4e333b6a4f24ff52882dd115fb8c4"}, {"bike_id": "1a2f20bb94a27a08315cf15725f438eb", "lat": 38.8924255, "is_disabled": 0, "lon": -77.03955466666666, "fusion_lon": 0.0, "is_reserved": 0, "fusion_lat": 0.0, "rental_uris": {"android": "https://dc.lft.to/lastmile_qr_scan", "ios": "https://dc.lft.to/lastmile_qr_scan"}, "type": "electric_scooter", "name": "1a2f20bb94a27a08315cf15725f438eb"}, {"bike_id": "1501f6548b4f9e897087a1023336ac69", "lat": 38.890135666666666, "is_disabled": 0, "lon": -77.03328016666667, "fusion_lon": 0.0, "is_reserved": 0, "fusion_lat": 0.0, "rental_uris": {"android": "https://dc.lft.to/lastmile_qr_scan", "ios": "https://dc.lft.to/lastmile_qr_scan"}, "type": "electric_scooter", "name": "1501f6548b4f9e897087a1023336ac69"}, {"bike_id": "13f2a6dc8511e4ba0cd277d670b78d8a", "lat": 38.924526166666666, "is_disabled": 0, "lon": -77.040483, "fusion_lon": 0.0, "is_reserved": 0, "fusion_lat": 0.0, "rental_uris": {"android": "https://dc.lft.to/lastmile_qr_scan", "ios": "https://dc.lft.to/lastmile_qr_scan"}, "type": "electric_scooter", "name": "13f2a6dc8511e4ba0cd277d670b78d8a"}, {"bike_id": "af8ab05f743c70508128ececc001d0ed", "lat": 38.87919266666667, "is_disabled": 0, "lon": -76.9433295, "fusion_lon": 0.0, "is_reserved": 0, "fusion_lat": 0.0, "rental_uris": {"android": "https://dc.lft.to/lastmile_qr_scan", "ios": "https://dc.lft.to/lastmile_qr_scan"}, "type": "electric_scooter", "name": "af8ab05f743c70508128ececc001d0ed"}, {"bike_id": "93891610348b5cb47b32bc99993f0e21", "lat": 38.80640666666667, "is_disabled": 0, "lon": -77.062509, "fusion_lon": 0.0, "is_reserved": 0, "fusion_lat": 0.0, "rental_uris": {"android": "https://dc.lft.to/lastmile_qr_scan", "ios": "https://dc.lft.to/lastmile_qr_scan"}, "type": "electric_bike", "name": "93891610348b5cb47b32bc99993f0e21"}, {"bike_id": "9f394185dca2671c2f8c94431c46c2b9", "lat": 38.900276833333336, "is_disabled": 0, "lon": -77.011702, "fusion_lon": 0.0, "is_reserved": 0, "fusion_lat": 0.0, "rental_uris": {"android": "https://dc.lft.to/lastmile_qr_scan", "ios": "https://dc.lft.to/lastmile_qr_scan"}, "type": "electric_scooter", "name": "9f394185dca2671c2f8c94431c46c2b9"}, {"bike_id": "0b9cc49b9995e7051c8a98663e525baa", "lat": 38.929664833333334, "is_disabled": 0, "lon": -77.02527666666667, "fusion_lon": 0.0, "is_reserved": 0, "fusion_lat": 0.0, "rental_uris": {"android": "https://dc.lft.to/lastmile_qr_scan", "ios": "https://dc.lft.to/lastmile_qr_scan"}, "type": "electric_scooter", "name": "0b9cc49b9995e7051c8a98663e525baa"}, {"bike_id": "7b6ea5f94484398a2c2557f1ddb14645", "lat": 38.9169165, "is_disabled": 0, "lon": -77.02596033333333, "fusion_lon": 0.0, "is_reserved": 0, "fusion_lat": 0.0, "rental_uris": {"android": "https://dc.lft.to/lastmile_qr_scan", "ios": "https://dc.lft.to/lastmile_qr_scan"}, "type": "electric_scooter", "name": "7b6ea5f94484398a2c2557f1ddb14645"}, {"bike_id": "081957ec6a92ae91fdef45cc3c04d9a0", "lat": 38.918515166666666, "is_disabled": 0, "lon": -77.04003383333334, "fusion_lon": 0.0, "is_reserved": 0, "fusion_lat": 0.0, "rental_uris": {"android": "https://dc.lft.to/lastmile_qr_scan", "ios": "https://dc.lft.to/lastmile_qr_scan"}, "type": "electric_scooter", "name": "081957ec6a92ae91fdef45cc3c04d9a0"}, {"bike_id": "c4292308a602b692519df1fd3d426773", "lat": 38.894901, "is_disabled": 0, "lon": -77.00210016666666, "fusion_lon": 0.0, "is_reserved": 0, "fusion_lat": 0.0, "rental_uris": {"android": "https://dc.lft.to/lastmile_qr_scan", "ios": "https://dc.lft.to/lastmile_qr_scan"}, "type": "electric_scooter", "name": "c4292308a602b692519df1fd3d426773"}, {"bike_id": "e52eb02261e582745b1e9e6c01b44420", "lat": 38.91926333333333, "is_disabled": 0, "lon": -77.0707635, "fusion_lon": 0.0, "is_reserved": 0, "fusion_lat": 0.0, "rental_uris": {"android": "https://dc.lft.to/lastmile_qr_scan", "ios": "https://dc.lft.to/lastmile_qr_scan"}, "type": "electric_scooter", "name": "e52eb02261e582745b1e9e6c01b44420"}, {"bike_id": "189f1a9dd012e7da100145091df84419", "lat": 38.921079, "is_disabled": 0, "lon": -77.01749983333333, "fusion_lon": 0.0, "is_reserved": 0, "fusion_lat": 0.0, "rental_uris": {"android": "https://dc.lft.to/lastmile_qr_scan", "ios": "https://dc.lft.to/lastmile_qr_scan"}, "type": "electric_scooter", "name": "189f1a9dd012e7da100145091df84419"}, {"bike_id": "c22e419d2009df85fbb2ecd1323fc3ac", "lat": 38.92090983333333, "is_disabled": 0, "lon": -77.031756, "fusion_lon": 0.0, "is_reserved": 0, "fusion_lat": 0.0, "rental_uris": {"android": "https://dc.lft.to/lastmile_qr_scan", "ios": "https://dc.lft.to/lastmile_qr_scan"}, "type": "electric_scooter", "name": "c22e419d2009df85fbb2ecd1323fc3ac"}, {"bike_id": "b658e213c1d685acacf6ff1a0ca1caa6", "lat": 38.89844433333333, "is_disabled": 0, "lon": -77.0391605, "fusion_lon": 0.0, "is_reserved": 0, "fusion_lat": 0.0, "rental_uris": {"android": "https://dc.lft.to/lastmile_qr_scan", "ios": "https://dc.lft.to/lastmile_qr_scan"}, "type": "electric_scooter", "name": "b658e213c1d685acacf6ff1a0ca1caa6"}, {"bike_id": "a07ee7dec36dab3f52092dc5e0b3a30e", "lat": 38.89653283333333, "is_disabled": 0, "lon": -77.03371533333333, "fusion_lon": 0.0, "is_reserved": 0, "fusion_lat": 0.0, "rental_uris": {"android": "https://dc.lft.to/lastmile_qr_scan", "ios": "https://dc.lft.to/lastmile_qr_scan"}, "type": "electric_scooter", "name": "a07ee7dec36dab3f52092dc5e0b3a30e"}, {"bike_id": "7ba94dbf0289b007384e12508fa057a2", "lat": 38.90173083333333, "is_disabled": 0, "lon": -77.02193716666666, "fusion_lon": 0.0, "is_reserved": 0, "fusion_lat": 0.0, "rental_uris": {"android": "https://dc.lft.to/lastmile_qr_scan", "ios": "https://dc.lft.to/lastmile_qr_scan"}, "type": "electric_scooter", "name": "7ba94dbf0289b007384e12508fa057a2"}, {"bike_id": "0f8117b6f89705b4e5d8c7ee550eacf0", "lat": 38.898872, "is_disabled": 0, "lon": -77.03271166666667, "fusion_lon": 0.0, "is_reserved": 0, "fusion_lat": 0.0, "rental_uris": {"android": "https://dc.lft.to/lastmile_qr_scan", "ios": "https://dc.lft.to/lastmile_qr_scan"}, "type": "electric_scooter", "name": "0f8117b6f89705b4e5d8c7ee550eacf0"}, {"bike_id": "9e24e4faaed1a60645328456f55623ac", "lat": 38.887151, "is_disabled": 0, "lon": -77.01974216666666, "fusion_lon": 0.0, "is_reserved": 0, "fusion_lat": 0.0, "rental_uris": {"android": "https://dc.lft.to/lastmile_qr_scan", "ios": "https://dc.lft.to/lastmile_qr_scan"}, "type": "electric_scooter", "name": "9e24e4faaed1a60645328456f55623ac"}, {"bike_id": "4b7b25daff641b6ce77abfd17612d065", "lat": 38.91593183333333, "is_disabled": 0, "lon": -77.012196, "fusion_lon": 0.0, "is_reserved": 0, "fusion_lat": 0.0, "rental_uris": {"android": "https://dc.lft.to/lastmile_qr_scan", "ios": "https://dc.lft.to/lastmile_qr_scan"}, "type": "electric_scooter", "name": "4b7b25daff641b6ce77abfd17612d065"}, {"bike_id": "67f88558911e2c2ba3df5fed15b42eae", "lat": 38.89629266666667, "is_disabled": 0, "lon": -77.032112, "fusion_lon": 0.0, "is_reserved": 0, "fusion_lat": 0.0, "rental_uris": {"android": "https://dc.lft.to/lastmile_qr_scan", "ios": "https://dc.lft.to/lastmile_qr_scan"}, "type": "electric_scooter", "name": "67f88558911e2c2ba3df5fed15b42eae"}, {"bike_id": "3e0acdd9529213a3465fb855de33ef9f", "lat": 38.90701816666667, "is_disabled": 0, "lon": -77.047724, "fusion_lon": 0.0, "is_reserved": 0, "fusion_lat": 0.0, "rental_uris": {"android": "https://dc.lft.to/lastmile_qr_scan", "ios": "https://dc.lft.to/lastmile_qr_scan"}, "type": "electric_scooter", "name": "3e0acdd9529213a3465fb855de33ef9f"}, {"bike_id": "14caf3319a6541a0404f2934c2b1546c", "lat": 38.9359715, "is_disabled": 0, "lon": -77.05712566666666, "fusion_lon": 0.0, "is_reserved": 0, "fusion_lat": 0.0, "rental_uris": {"android": "https://dc.lft.to/lastmile_qr_scan", "ios": "https://dc.lft.to/lastmile_qr_scan"}, "type": "electric_scooter", "name": "14caf3319a6541a0404f2934c2b1546c"}, {"bike_id": "bd3cbd0e7a91ef0f1d11df59543398b8", "lat": 38.90648266666667, "is_disabled": 0, "lon": -77.0246525, "fusion_lon": 0.0, "is_reserved": 0, "fusion_lat": 0.0, "rental_uris": {"android": "https://dc.lft.to/lastmile_qr_scan", "ios": "https://dc.lft.to/lastmile_qr_scan"}, "type": "electric_scooter", "name": "bd3cbd0e7a91ef0f1d11df59543398b8"}, {"bike_id": "77be32cfbd09b3d3ccba121ecd34aa2e", "lat": 38.89937, "is_disabled": 0, "lon": -77.0139815, "fusion_lon": 0.0, "is_reserved": 0, "fusion_lat": 0.0, "rental_uris": {"android": "https://dc.lft.to/lastmile_qr_scan", "ios": "https://dc.lft.to/lastmile_qr_scan"}, "type": "electric_scooter", "name": "77be32cfbd09b3d3ccba121ecd34aa2e"}, {"bike_id": "3bd2e7a7d274a2ddf8b0f17cfa209cb8", "lat": 38.918074833333336, "is_disabled": 0, "lon": -77.034457, "fusion_lon": 0.0, "is_reserved": 0, "fusion_lat": 0.0, "rental_uris": {"android": "https://dc.lft.to/lastmile_qr_scan", "ios": "https://dc.lft.to/lastmile_qr_scan"}, "type": "electric_scooter", "name": "3bd2e7a7d274a2ddf8b0f17cfa209cb8"}, {"bike_id": "20fe879a47b3d31f4a636f96a24971d6", "lat": 38.920583666666666, "is_disabled": 0, "lon": -77.01690633333334, "fusion_lon": 0.0, "is_reserved": 0, "fusion_lat": 0.0, "rental_uris": {"android": "https://dc.lft.to/lastmile_qr_scan", "ios": "https://dc.lft.to/lastmile_qr_scan"}, "type": "electric_scooter", "name": "20fe879a47b3d31f4a636f96a24971d6"}, {"bike_id": "76afc1acf3671d6055b87d9c2e18af29", "lat": 38.900967333333334, "is_disabled": 0, "lon": -77.05786733333333, "fusion_lon": 0.0, "is_reserved": 0, "fusion_lat": 0.0, "rental_uris": {"android": "https://dc.lft.to/lastmile_qr_scan", "ios": "https://dc.lft.to/lastmile_qr_scan"}, "type": "electric_scooter", "name": "76afc1acf3671d6055b87d9c2e18af29"}, {"bike_id": "ad9126d189eb64714c11045712b93645", "lat": 38.91564433333333, "is_disabled": 0, "lon": -77.02005483333333, "fusion_lon": 0.0, "is_reserved": 0, "fusion_lat": 0.0, "rental_uris": {"android": "https://dc.lft.to/lastmile_qr_scan", "ios": "https://dc.lft.to/lastmile_qr_scan"}, "type": "electric_scooter", "name": "ad9126d189eb64714c11045712b93645"}, {"bike_id": "87ffe77eceaf5bf9a0ac8e31b6e4c41e", "lat": 38.921570333333335, "is_disabled": 0, "lon": -77.03386883333333, "fusion_lon": 0.0, "is_reserved": 0, "fusion_lat": 0.0, "rental_uris": {"android": "https://dc.lft.to/lastmile_qr_scan", "ios": "https://dc.lft.to/lastmile_qr_scan"}, "type": "electric_scooter", "name": "87ffe77eceaf5bf9a0ac8e31b6e4c41e"}, {"bike_id": "50940e0fc95fc3799144f5f5605fd27e", "lat": 38.9105915, "is_disabled": 0, "lon": -77.00912966666667, "fusion_lon": 0.0, "is_reserved": 0, "fusion_lat": 0.0, "rental_uris": {"android": "https://dc.lft.to/lastmile_qr_scan", "ios": "https://dc.lft.to/lastmile_qr_scan"}, "type": "electric_scooter", "name": "50940e0fc95fc3799144f5f5605fd27e"}, {"bike_id": "96cc9bf33425430ee650f5cd20c3e887", "lat": 38.892233166666664, "is_disabled": 0, "lon": -77.04338233333333, "fusion_lon": 0.0, "is_reserved": 0, "fusion_lat": 0.0, "rental_uris": {"android": "https://dc.lft.to/lastmile_qr_scan", "ios": "https://dc.lft.to/lastmile_qr_scan"}, "type": "electric_scooter", "name": "96cc9bf33425430ee650f5cd20c3e887"}, {"bike_id": "d3b68fcb3df844896fcfbe06e4d80f40", "lat": 38.920571, "is_disabled": 0, "lon": -77.03249766666667, "fusion_lon": 0.0, "is_reserved": 0, "fusion_lat": 0.0, "rental_uris": {"android": "https://dc.lft.to/lastmile_qr_scan", "ios": "https://dc.lft.to/lastmile_qr_scan"}, "type": "electric_scooter", "name": "d3b68fcb3df844896fcfbe06e4d80f40"}, {"bike_id": "fb7a70da712a8ac68dd9ddb417dd5bad", "lat": 38.89616383333333, "is_disabled": 0, "lon": -76.9073945, "fusion_lon": 0.0, "is_reserved": 0, "fusion_lat": 0.0, "rental_uris": {"android": "https://dc.lft.to/lastmile_qr_scan", "ios": "https://dc.lft.to/lastmile_qr_scan"}, "type": "electric_bike", "name": "fb7a70da712a8ac68dd9ddb417dd5bad"}, {"bike_id": "c7c0ce88d98296c4d5662335fd30854c", "lat": 38.92508566666667, "is_disabled": 0, "lon": -77.03886433333334, "fusion_lon": 0.0, "is_reserved": 0, "fusion_lat": 0.0, "rental_uris": {"android": "https://dc.lft.to/lastmile_qr_scan", "ios": "https://dc.lft.to/lastmile_qr_scan"}, "type": "electric_scooter", "name": "c7c0ce88d98296c4d5662335fd30854c"}, {"bike_id": "69910521d0c118e6c5f187710da4ca05", "lat": 38.9194155, "is_disabled": 0, "lon": -77.02506233333334, "fusion_lon": 0.0, "is_reserved": 0, "fusion_lat": 0.0, "rental_uris": {"android": "https://dc.lft.to/lastmile_qr_scan", "ios": "https://dc.lft.to/lastmile_qr_scan"}, "type": "electric_scooter", "name": "69910521d0c118e6c5f187710da4ca05"}, {"bike_id": "a3acf12c87dad576dbbbbf7dc4166d3b", "lat": 38.9165785, "is_disabled": 0, "lon": -77.02279166666666, "fusion_lon": 0.0, "is_reserved": 0, "fusion_lat": 0.0, "rental_uris": {"android": "https://dc.lft.to/lastmile_qr_scan", "ios": "https://dc.lft.to/lastmile_qr_scan"}, "type": "electric_scooter", "name": "a3acf12c87dad576dbbbbf7dc4166d3b"}, {"bike_id": "f68c0b0f4a7e42b9f6bda8820f5bfa48", "lat": 38.920804833333335, "is_disabled": 0, "lon": -77.02398716666667, "fusion_lon": 0.0, "is_reserved": 0, "fusion_lat": 0.0, "rental_uris": {"android": "https://dc.lft.to/lastmile_qr_scan", "ios": "https://dc.lft.to/lastmile_qr_scan"}, "type": "electric_scooter", "name": "f68c0b0f4a7e42b9f6bda8820f5bfa48"}, {"bike_id": "8f14a22486aace33f4cda93fff6beefa", "lat": 38.922904, "is_disabled": 0, "lon": -77.04152566666667, "fusion_lon": 0.0, "is_reserved": 0, "fusion_lat": 0.0, "rental_uris": {"android": "https://dc.lft.to/lastmile_qr_scan", "ios": "https://dc.lft.to/lastmile_qr_scan"}, "type": "electric_scooter", "name": "8f14a22486aace33f4cda93fff6beefa"}, {"bike_id": "50200e063d59c138dc66e858d7b6ff5d", "lat": 38.92062516666667, "is_disabled": 0, "lon": -77.02364583333333, "fusion_lon": 0.0, "is_reserved": 0, "fusion_lat": 0.0, "rental_uris": {"android": "https://dc.lft.to/lastmile_qr_scan", "ios": "https://dc.lft.to/lastmile_qr_scan"}, "type": "electric_scooter", "name": "50200e063d59c138dc66e858d7b6ff5d"}, {"bike_id": "a216c49c15ab63fd7055e03e15a97c83", "lat": 38.890573333333336, "is_disabled": 0, "lon": -77.02300283333334, "fusion_lon": 0.0, "is_reserved": 0, "fusion_lat": 0.0, "rental_uris": {"android": "https://dc.lft.to/lastmile_qr_scan", "ios": "https://dc.lft.to/lastmile_qr_scan"}, "type": "electric_scooter", "name": "a216c49c15ab63fd7055e03e15a97c83"}, {"bike_id": "f774cbf6974aea60647d62a6868a22d8", "lat": 38.901059000000004, "is_disabled": 0, "lon": -77.01577883333333, "fusion_lon": 0.0, "is_reserved": 0, "fusion_lat": 0.0, "rental_uris": {"android": "https://dc.lft.to/lastmile_qr_scan", "ios": "https://dc.lft.to/lastmile_qr_scan"}, "type": "electric_bike", "name": "f774cbf6974aea60647d62a6868a22d8"}, {"bike_id": "898aee77c24ae3dea79cd6fe2130f09b", "lat": 38.84095083333333, "is_disabled": 0, "lon": -77.0893335, "fusion_lon": 0.0, "is_reserved": 0, "fusion_lat": 0.0, "rental_uris": {"android": "https://dc.lft.to/lastmile_qr_scan", "ios": "https://dc.lft.to/lastmile_qr_scan"}, "type": "electric_bike", "name": "898aee77c24ae3dea79cd6fe2130f09b"}, {"bike_id": "5bd805b5fb9a928414a56294d45ee50d", "lat": 38.913231833333334, "is_disabled": 0, "lon": -77.04964883333334, "fusion_lon": 0.0, "is_reserved": 0, "fusion_lat": 0.0, "rental_uris": {"android": "https://dc.lft.to/lastmile_qr_scan", "ios": "https://dc.lft.to/lastmile_qr_scan"}, "type": "electric_scooter", "name": "5bd805b5fb9a928414a56294d45ee50d"}, {"bike_id": "21276c7b2416b263cb53275e71b01054", "lat": 38.9168185, "is_disabled": 0, "lon": -76.98036166666667, "fusion_lon": 0.0, "is_reserved": 0, "fusion_lat": 0.0, "rental_uris": {"android": "https://dc.lft.to/lastmile_qr_scan", "ios": "https://dc.lft.to/lastmile_qr_scan"}, "type": "electric_scooter", "name": "21276c7b2416b263cb53275e71b01054"}, {"bike_id": "0094ae4f13a4757721e06e0bc0f48c13", "lat": 38.9021615, "is_disabled": 0, "lon": -77.02826216666666, "fusion_lon": 0.0, "is_reserved": 0, "fusion_lat": 0.0, "rental_uris": {"android": "https://dc.lft.to/lastmile_qr_scan", "ios": "https://dc.lft.to/lastmile_qr_scan"}, "type": "electric_scooter", "name": "0094ae4f13a4757721e06e0bc0f48c13"}, {"bike_id": "fd4d5fa1f1c05d08d9cb7c19662590ad", "lat": 38.91942483333333, "is_disabled": 0, "lon": -77.01818016666667, "fusion_lon": 0.0, "is_reserved": 0, "fusion_lat": 0.0, "rental_uris": {"android": "https://dc.lft.to/lastmile_qr_scan", "ios": "https://dc.lft.to/lastmile_qr_scan"}, "type": "electric_scooter", "name": "fd4d5fa1f1c05d08d9cb7c19662590ad"}, {"bike_id": "a68b31371620220761e503cb2ef8fd00", "lat": 38.91333483333333, "is_disabled": 0, "lon": -77.04872833333333, "fusion_lon": 0.0, "is_reserved": 0, "fusion_lat": 0.0, "rental_uris": {"android": "https://dc.lft.to/lastmile_qr_scan", "ios": "https://dc.lft.to/lastmile_qr_scan"}, "type": "electric_scooter", "name": "a68b31371620220761e503cb2ef8fd00"}, {"bike_id": "d4ced8f26ac529336ef163eaea96f8e5", "lat": 38.863263, "is_disabled": 0, "lon": -76.987137, "fusion_lon": 0.0, "is_reserved": 0, "fusion_lat": 0.0, "rental_uris": {"android": "https://dc.lft.to/lastmile_qr_scan", "ios": "https://dc.lft.to/lastmile_qr_scan"}, "type": "electric_bike", "name": "d4ced8f26ac529336ef163eaea96f8e5"}, {"bike_id": "a10abcb3332b908f83e85e3821d6e188", "lat": 38.91949416666667, "is_disabled": 0, "lon": -77.01827466666667, "fusion_lon": 0.0, "is_reserved": 0, "fusion_lat": 0.0, "rental_uris": {"android": "https://dc.lft.to/lastmile_qr_scan", "ios": "https://dc.lft.to/lastmile_qr_scan"}, "type": "electric_scooter", "name": "a10abcb3332b908f83e85e3821d6e188"}, {"bike_id": "3a6844d0bc0e2ad6369df5656be32f7e", "lat": 38.9072765, "is_disabled": 0, "lon": -77.032952, "fusion_lon": 0.0, "is_reserved": 0, "fusion_lat": 0.0, "rental_uris": {"android": "https://dc.lft.to/lastmile_qr_scan", "ios": "https://dc.lft.to/lastmile_qr_scan"}, "type": "electric_bike", "name": "3a6844d0bc0e2ad6369df5656be32f7e"}, {"bike_id": "a2295aa71dc439bdd628ab8e94e85862", "lat": 38.93464733333333, "is_disabled": 0, "lon": -77.0410475, "fusion_lon": 0.0, "is_reserved": 0, "fusion_lat": 0.0, "rental_uris": {"android": "https://dc.lft.to/lastmile_qr_scan", "ios": "https://dc.lft.to/lastmile_qr_scan"}, "type": "electric_scooter", "name": "a2295aa71dc439bdd628ab8e94e85862"}, {"bike_id": "ea5616de2d0f830e6716729279ed8c4c", "lat": 38.887371, "is_disabled": 0, "lon": -77.02208666666667, "fusion_lon": 0.0, "is_reserved": 0, "fusion_lat": 0.0, "rental_uris": {"android": "https://dc.lft.to/lastmile_qr_scan", "ios": "https://dc.lft.to/lastmile_qr_scan"}, "type": "electric_scooter", "name": "ea5616de2d0f830e6716729279ed8c4c"}, {"bike_id": "465cac2b7d6311bcc11c6206f2a9b2b8", "lat": 38.9048815, "is_disabled": 0, "lon": -77.043511, "fusion_lon": 0.0, "is_reserved": 0, "fusion_lat": 0.0, "rental_uris": {"android": "https://dc.lft.to/lastmile_qr_scan", "ios": "https://dc.lft.to/lastmile_qr_scan"}, "type": "electric_scooter", "name": "465cac2b7d6311bcc11c6206f2a9b2b8"}, {"bike_id": "bbdb17e52deaad7d283c5dd83d42493f", "lat": 38.90982, "is_disabled": 0, "lon": -76.99500783333333, "fusion_lon": 0.0, "is_reserved": 0, "fusion_lat": 0.0, "rental_uris": {"android": "https://dc.lft.to/lastmile_qr_scan", "ios": "https://dc.lft.to/lastmile_qr_scan"}, "type": "electric_scooter", "name": "bbdb17e52deaad7d283c5dd83d42493f"}, {"bike_id": "00be1530f5295d95619a6920e6183454", "lat": 38.91173166666667, "is_disabled": 0, "lon": -77.04152933333333, "fusion_lon": 0.0, "is_reserved": 0, "fusion_lat": 0.0, "rental_uris": {"android": "https://dc.lft.to/lastmile_qr_scan", "ios": "https://dc.lft.to/lastmile_qr_scan"}, "type": "electric_scooter", "name": "00be1530f5295d95619a6920e6183454"}, {"bike_id": "3b9e702f8dd7b9dbf4d94555c1446e73", "lat": 38.919184333333334, "is_disabled": 0, "lon": -77.025047, "fusion_lon": 0.0, "is_reserved": 0, "fusion_lat": 0.0, "rental_uris": {"android": "https://dc.lft.to/lastmile_qr_scan", "ios": "https://dc.lft.to/lastmile_qr_scan"}, "type": "electric_scooter", "name": "3b9e702f8dd7b9dbf4d94555c1446e73"}, {"bike_id": "abf18cbae6cef9e5144e64c087316e42", "lat": 38.92121366666667, "is_disabled": 0, "lon": -77.017931, "fusion_lon": 0.0, "is_reserved": 0, "fusion_lat": 0.0, "rental_uris": {"android": "https://dc.lft.to/lastmile_qr_scan", "ios": "https://dc.lft.to/lastmile_qr_scan"}, "type": "electric_scooter", "name": "abf18cbae6cef9e5144e64c087316e42"}, {"bike_id": "cd9f3ba275a3c7fdee30b3f069ba76cf", "lat": 38.87953666666667, "is_disabled": 0, "lon": -77.0059325, "fusion_lon": 0.0, "is_reserved": 0, "fusion_lat": 0.0, "rental_uris": {"android": "https://dc.lft.to/lastmile_qr_scan", "ios": "https://dc.lft.to/lastmile_qr_scan"}, "type": "electric_scooter", "name": "cd9f3ba275a3c7fdee30b3f069ba76cf"}, {"bike_id": "c58242d017556c9ec6ff4e89455a9356", "lat": 38.9241715, "is_disabled": 0, "lon": -77.01946166666667, "fusion_lon": 0.0, "is_reserved": 0, "fusion_lat": 0.0, "rental_uris": {"android": "https://dc.lft.to/lastmile_qr_scan", "ios": "https://dc.lft.to/lastmile_qr_scan"}, "type": "electric_scooter", "name": "c58242d017556c9ec6ff4e89455a9356"}, {"bike_id": "490652f86a271b0e49f22a7420650374", "lat": 38.8851045, "is_disabled": 0, "lon": -76.95285583333333, "fusion_lon": 0.0, "is_reserved": 0, "fusion_lat": 0.0, "rental_uris": {"android": "https://dc.lft.to/lastmile_qr_scan", "ios": "https://dc.lft.to/lastmile_qr_scan"}, "type": "electric_scooter", "name": "490652f86a271b0e49f22a7420650374"}, {"bike_id": "5731a79a5334b5afb86619b7c4b7d8fe", "lat": 38.912683333333334, "is_disabled": 0, "lon": -77.04202283333333, "fusion_lon": 0.0, "is_reserved": 0, "fusion_lat": 0.0, "rental_uris": {"android": "https://dc.lft.to/lastmile_qr_scan", "ios": "https://dc.lft.to/lastmile_qr_scan"}, "type": "electric_scooter", "name": "5731a79a5334b5afb86619b7c4b7d8fe"}, {"bike_id": "734cfa0a3a8a2de41648a32c32677e8a", "lat": 38.8756525, "is_disabled": 0, "lon": -77.00590783333334, "fusion_lon": 0.0, "is_reserved": 0, "fusion_lat": 0.0, "rental_uris": {"android": "https://dc.lft.to/lastmile_qr_scan", "ios": "https://dc.lft.to/lastmile_qr_scan"}, "type": "electric_scooter", "name": "734cfa0a3a8a2de41648a32c32677e8a"}, {"bike_id": "b88fd27d5f3c98f0a133b7f74f9dfd6a", "lat": 38.950547666666665, "is_disabled": 0, "lon": -77.0665555, "fusion_lon": 0.0, "is_reserved": 0, "fusion_lat": 0.0, "rental_uris": {"android": "https://dc.lft.to/lastmile_qr_scan", "ios": "https://dc.lft.to/lastmile_qr_scan"}, "type": "electric_bike", "name": "b88fd27d5f3c98f0a133b7f74f9dfd6a"}, {"bike_id": "bb2d8b466162520e30feee3090a83c5d", "lat": 38.905655, "is_disabled": 0, "lon": -77.04041966666666, "fusion_lon": 0.0, "is_reserved": 0, "fusion_lat": 0.0, "rental_uris": {"android": "https://dc.lft.to/lastmile_qr_scan", "ios": "https://dc.lft.to/lastmile_qr_scan"}, "type": "electric_scooter", "name": "bb2d8b466162520e30feee3090a83c5d"}, {"bike_id": "63580208e5d39f678ee80127f96ffa72", "lat": 38.89496466666667, "is_disabled": 0, "lon": -77.02178583333334, "fusion_lon": 0.0, "is_reserved": 0, "fusion_lat": 0.0, "rental_uris": {"android": "https://dc.lft.to/lastmile_qr_scan", "ios": "https://dc.lft.to/lastmile_qr_scan"}, "type": "electric_scooter", "name": "63580208e5d39f678ee80127f96ffa72"}, {"bike_id": "d00f0aef220ab1828600d75ee2fa9eca", "lat": 38.91436066666667, "is_disabled": 0, "lon": -77.04173316666666, "fusion_lon": 0.0, "is_reserved": 0, "fusion_lat": 0.0, "rental_uris": {"android": "https://dc.lft.to/lastmile_qr_scan", "ios": "https://dc.lft.to/lastmile_qr_scan"}, "type": "electric_scooter", "name": "d00f0aef220ab1828600d75ee2fa9eca"}, {"bike_id": "02463d1d5e65fa257708f539ebbe7fb5", "lat": 38.927031166666666, "is_disabled": 0, "lon": -77.02337883333334, "fusion_lon": 0.0, "is_reserved": 0, "fusion_lat": 0.0, "rental_uris": {"android": "https://dc.lft.to/lastmile_qr_scan", "ios": "https://dc.lft.to/lastmile_qr_scan"}, "type": "electric_scooter", "name": "02463d1d5e65fa257708f539ebbe7fb5"}, {"bike_id": "d23cb65c69a1d6e1327b65890f6a9a96", "lat": 38.913831, "is_disabled": 0, "lon": -77.03210066666666, "fusion_lon": 0.0, "is_reserved": 0, "fusion_lat": 0.0, "rental_uris": {"android": "https://dc.lft.to/lastmile_qr_scan", "ios": "https://dc.lft.to/lastmile_qr_scan"}, "type": "electric_scooter", "name": "d23cb65c69a1d6e1327b65890f6a9a96"}, {"bike_id": "69cc21bb66441d21f15e7c150a41d34e", "lat": 38.89878933333333, "is_disabled": 0, "lon": -77.03302466666666, "fusion_lon": 0.0, "is_reserved": 0, "fusion_lat": 0.0, "rental_uris": {"android": "https://dc.lft.to/lastmile_qr_scan", "ios": "https://dc.lft.to/lastmile_qr_scan"}, "type": "electric_scooter", "name": "69cc21bb66441d21f15e7c150a41d34e"}, {"bike_id": "bc96c87582bb9f4aa1284fad4d163b1a", "lat": 38.9233355, "is_disabled": 0, "lon": -77.03658883333334, "fusion_lon": 0.0, "is_reserved": 0, "fusion_lat": 0.0, "rental_uris": {"android": "https://dc.lft.to/lastmile_qr_scan", "ios": "https://dc.lft.to/lastmile_qr_scan"}, "type": "electric_scooter", "name": "bc96c87582bb9f4aa1284fad4d163b1a"}, {"bike_id": "6b98a25df30177ca84ce0de6c5d54d4a", "lat": 38.921602666666665, "is_disabled": 0, "lon": -77.0383805, "fusion_lon": 0.0, "is_reserved": 0, "fusion_lat": 0.0, "rental_uris": {"android": "https://dc.lft.to/lastmile_qr_scan", "ios": "https://dc.lft.to/lastmile_qr_scan"}, "type": "electric_scooter", "name": "6b98a25df30177ca84ce0de6c5d54d4a"}, {"bike_id": "cc8ee324d6fd672019257e457b1508ee", "lat": 38.95437066666667, "is_disabled": 0, "lon": -77.01856433333333, "fusion_lon": 0.0, "is_reserved": 0, "fusion_lat": 0.0, "rental_uris": {"android": "https://dc.lft.to/lastmile_qr_scan", "ios": "https://dc.lft.to/lastmile_qr_scan"}, "type": "electric_scooter", "name": "cc8ee324d6fd672019257e457b1508ee"}, {"bike_id": "d95b28e65026a6868103340d90e11f3b", "lat": 38.917674833333336, "is_disabled": 0, "lon": -77.023426, "fusion_lon": 0.0, "is_reserved": 0, "fusion_lat": 0.0, "rental_uris": {"android": "https://dc.lft.to/lastmile_qr_scan", "ios": "https://dc.lft.to/lastmile_qr_scan"}, "type": "electric_scooter", "name": "d95b28e65026a6868103340d90e11f3b"}, {"bike_id": "9ec933775b0e082157dddebc3da544b6", "lat": 38.907227166666665, "is_disabled": 0, "lon": -77.05327983333333, "fusion_lon": 0.0, "is_reserved": 0, "fusion_lat": 0.0, "rental_uris": {"android": "https://dc.lft.to/lastmile_qr_scan", "ios": "https://dc.lft.to/lastmile_qr_scan"}, "type": "electric_scooter", "name": "9ec933775b0e082157dddebc3da544b6"}, {"bike_id": "f6951dfb149b5c84e4ad5046469db234", "lat": 38.9082, "is_disabled": 0, "lon": -77.039015, "fusion_lon": 0.0, "is_reserved": 0, "fusion_lat": 0.0, "rental_uris": {"android": "https://dc.lft.to/lastmile_qr_scan", "ios": "https://dc.lft.to/lastmile_qr_scan"}, "type": "electric_scooter", "name": "f6951dfb149b5c84e4ad5046469db234"},