{"data": {"bikes": [{"is_disabled": 0, "fusion_lon": 0.0, "fusion_lat": 0.0, "lat": 38.9230825, "type": "electric_scooter", "lon": -77.03106466666667, "bike_id": "5dcc26ab465f886c30770176b799fb50", "rental_uris": {"android": "https://dc.lft.to/lastmile_qr_scan", "ios": "https://dc.lft.to/lastmile_qr_scan"}, "name": "5dcc26ab465f886c30770176b799fb50", "is_reserved": 0}, {"is_disabled": 0, "fusion_lon": 0.0, "fusion_lat": 0.0, "lat": 38.923790833333335, "type": "electric_scooter", "lon": -77.03054816666666, "bike_id": "cad0565435074e212473e5bd0ee6da5f", "rental_uris": {"android": "https://dc.lft.to/lastmile_qr_scan", "ios": "https://dc.lft.to/lastmile_qr_scan"}, "name": "cad0565435074e212473e5bd0ee6da5f", "is_reserved": 0}, {"is_disabled": 0, "fusion_lon": 0.0, "fusion_lat": 0.0, "lat": 38.9226515, "type": "electric_scooter", "lon": -77.0296495, "bike_id": "7ba1fe9f9704b8da1f39f892fb9eb35e", "rental_uris": {"android": "https://dc.lft.to/lastmile_qr_scan", "ios": "https://dc.lft.to/lastmile_qr_scan"}, "name": "7ba1fe9f9704b8da1f39f892fb9eb35e", "is_reserved": 0}, {"is_disabled": 0, "fusion_lon": 0.0, "fusion_lat": 0.0, "lat": 38.901815666666664, "type": "electric_scooter", "lon": -77.059248, "bike_id": "091002d6c5d40b3b7e013ca3c54ac024", "rental_uris": {"android": "https://dc.lft.to/lastmile_qr_scan", "ios": "https://dc.lft.to/lastmile_qr_scan"}, "name": "091002d6c5d40b3b7e013ca3c54ac024", "is_reserved": 0}, {"is_disabled": 0, "fusion_lon": 0.0, "fusion_lat": 0.0, "lat": 38.94448116666667, "type": "electric_scooter", "lon": -77.0616905, "bike_id": "82df523a2c42172805ceb1fd218e8ba5", "rental_uris": {"android": "https://dc.lft.to/lastmile_qr_scan", "ios": "https://dc.lft.to/lastmile_qr_scan"}, "name": "82df523a2c42172805ceb1fd218e8ba5", "is_reserved": 0}, {"is_disabled": 0, "fusion_lon": 0.0, "fusion_lat": 0.0, "lat": 38.90675816666667, "type": "electric_scooter", "lon": -77.036534, "bike_id": "3930d6db931a55478c7b149eb5dbcf44", "rental_uris": {"android": "https://dc.lft.to/lastmile_qr_scan", "ios": "https://dc.lft.to/lastmile_qr_scan"}, "name": "3930d6db931a55478c7b149eb5dbcf44", "is_reserved": 0}, {"is_disabled": 0, "fusion_lon": 0.0, "fusion_lat": 0.0, "lat": 38.9034515, "type": "electric_scooter", "lon": -77.02894883333333, "bike_id": "c961ecf7497ded8cb01c962aa660b6c6", "rental_uris": {"android": "https://dc.lft.to/lastmile_qr_scan", "ios": "https://dc.lft.to/lastmile_qr_scan"}, "name": "c961ecf7497ded8cb01c962aa660b6c6", "is_reserved": 0}, {"is_disabled": 0, "fusion_lon": 0.0, "fusion_lat": 0.0, "lat": 38.96561883333333, "type": "electric_bike", "lon": -77.02296866666667, "bike_id": "f87e22b941bd804519afed8dd95e3060", "rental_uris": {"android": "https://dc.lft.to/lastmile_qr_scan", "ios": "https://dc.lft.to/lastmile_qr_scan"}, "name": "f87e22b941bd804519afed8dd95e3060", "is_reserved": 0}, {"is_disabled": 0, "fusion_lon": 0.0, "fusion_lat": 0.0, "lat": 38.89405566666667, "type": "electric_scooter", "lon": -77.021535, "bike_id": "b209300367ee219161ca00334c124ba9", "rental_uris": {"android": "https://dc.lft.to/lastmile_qr_scan", "ios": "https://dc.lft.to/lastmile_qr_scan"}, "name": "b209300367ee219161ca00334c124ba9", "is_reserved": 0}, {"is_disabled": 0, "fusion_lon": 0.0, "fusion_lat": 0.0, "lat": 38.92368333333334, "type": "electric_scooter", "lon": -77.050313, "bike_id": "6c3460bbe4316e1a837155d35615e080", "rental_uris": {"android": "https://dc.lft.to/lastmile_qr_scan", "ios": "https://dc.lft.to/lastmile_qr_scan"}, "name": "6c3460bbe4316e1a837155d35615e080", "is_reserved": 0}, {"is_disabled": 0, "fusion_lon": 0.0, "fusion_lat": 0.0, "lat": 38.903917, "type": "electric_bike", "lon": -77.0536235, "bike_id": "67f7e5040bb0f4512752ae89d8aa93d0", "rental_uris": {"android": "https://dc.lft.to/lastmile_qr_scan", "ios": "https://dc.lft.to/lastmile_qr_scan"}, "name": "67f7e5040bb0f4512752ae89d8aa93d0", "is_reserved": 0}, {"is_disabled": 0, "fusion_lon": 0.0, "fusion_lat": 0.0, "lat": 38.907260666666666, "type": "electric_scooter", "lon": -77.00217266666667, "bike_id": "73d1b6c35f43ad6f53ae6a440df00e12", "rental_uris": {"android": "https://dc.lft.to/lastmile_qr_scan", "ios": "https://dc.lft.to/lastmile_qr_scan"}, "name": "73d1b6c35f43ad6f53ae6a440df00e12", "is_reserved": 0}, {"is_disabled": 0, "fusion_lon": 0.0, "fusion_lat": 0.0, "lat": 38.93101883333333, "type": "electric_scooter", "lon": -77.03262716666667, "bike_id": "aeeded5ebe8c2e33c4925140424964ef", "rental_uris": {"android": "https://dc.lft.to/lastmile_qr_scan", "ios": "https://dc.lft.to/lastmile_qr_scan"}, "name": "aeeded5ebe8c2e33c4925140424964ef", "is_reserved": 0}, {"is_disabled": 0, "fusion_lon": 0.0, "fusion_lat": 0.0, "lat": 38.910000333333336, "type": "electric_scooter", "lon": -77.03719883333333, "bike_id": "61cb07eefade463f02ff5c4938107185", "rental_uris": {"android": "https://dc.lft.to/lastmile_qr_scan", "ios": "https://dc.lft.to/lastmile_qr_scan"}, "name": "61cb07eefade463f02ff5c4938107185", "is_reserved": 0}, {"is_disabled": 0, "fusion_lon": 0.0, "fusion_lat": 0.0, "lat": 38.904086, "type": "electric_scooter", "lon": -77.043369, "bike_id": "184fd7ffd109e8227deb7ba8ec00b321", "rental_uris": {"android": "https://dc.lft.to/lastmile_qr_scan", "ios": "https://dc.lft.to/lastmile_qr_scan"}, "name": "184fd7ffd109e8227deb7ba8ec00b321", "is_reserved": 0}, {"is_disabled": 0, "fusion_lon": 0.0, "fusion_lat": 0.0, "lat": 38.89560483333333, "type": "electric_scooter", "lon": -77.02576933333333, "bike_id": "75601ac6bdaa68321badd2dc8e9a0479", "rental_uris": {"android": "https://dc.lft.to/lastmile_qr_scan", "ios": "https://dc.lft.to/lastmile_qr_scan"}, "name": "75601ac6bdaa68321badd2dc8e9a0479", "is_reserved": 0}, {"is_disabled": 0, "fusion_lon": 0.0, "fusion_lat": 0.0, "lat": 38.9198185, "type": "electric_scooter", "lon": -77.0416475, "bike_id": "f85583f24ba731581f8b40d2b3348b05", "rental_uris": {"android": "https://dc.lft.to/lastmile_qr_scan", "ios": "https://dc.lft.to/lastmile_qr_scan"}, "name": "f85583f24ba731581f8b40d2b3348b05", "is_reserved": 0}, {"is_disabled": 0, "fusion_lon": 0.0, "fusion_lat": 0.0, "lat": 38.9432165, "type": "electric_scooter", "lon": -77.08579683333333, "bike_id": "d737279cff3b7cc2dda2c95df88dafce", "rental_uris": {"android": "https://dc.lft.to/lastmile_qr_scan", "ios": "https://dc.lft.to/lastmile_qr_scan"}, "name": "d737279cff3b7cc2dda2c95df88dafce", "is_reserved": 0}, {"is_disabled": 0, "fusion_lon": 0.0, "fusion_lat": 0.0, "lat": 38.892847833333335, "type": "electric_scooter", "lon": -76.93725783333333, "bike_id": "b642755b9e3a1dbf08a469160fbeb47e", "rental_uris": {"android": "https://dc.lft.to/lastmile_qr_scan", "ios": "https://dc.lft.to/lastmile_qr_scan"}, "name": "b642755b9e3a1dbf08a469160fbeb47e", "is_reserved": 0}, {"is_disabled": 0, "fusion_lon": 0.0, "fusion_lat": 0.0, "lat": 38.872926, "type": "electric_scooter", "lon": -77.00984783333334, "bike_id": "7e50334b664f56e76602d54203954941", "rental_uris": {"android": "https://dc.lft.to/lastmile_qr_scan", "ios": "https://dc.lft.to/lastmile_qr_scan"}, "name": "7e50334b664f56e76602d54203954941", "is_reserved": 0}, {"is_disabled": 0, "fusion_lon": 0.0, "fusion_lat": 0.0, "lat": 38.940422166666664, "type": "electric_scooter", "lon": -77.0290505, "bike_id": "76fc2cfc101b2fec634e82912ef4a5e0", "rental_uris": {"android": "https://dc.lft.to/lastmile_qr_scan", "ios": "https://dc.lft.to/lastmile_qr_scan"}, "name": "76fc2cfc101b2fec634e82912ef4a5e0", "is_reserved": 0}, {"is_disabled": 0, "fusion_lon": 0.0, "fusion_lat": 0.0, "lat": 38.94083533333333, "type": "electric_bike", "lon": -77.04653283333333, "bike_id": "ed5d5fc465076acaee2ec5bdd3ad41d9", "rental_uris": {"android": "https://dc.lft.to/lastmile_qr_scan", "ios": "https://dc.lft.to/lastmile_qr_scan"}, "name": "ed5d5fc465076acaee2ec5bdd3ad41d9", "is_reserved": 0}, {"is_disabled": 0, "fusion_lon": 0.0, "fusion_lat": 0.0, "lat": 38.8879645, "type": "electric_bike", "lon": -76.92996116666667, "bike_id": "3e51bab02d63f741c4b4af4c0e29e535", "rental_uris": {"android": "https://dc.lft.to/lastmile_qr_scan", "ios": "https://dc.lft.to/lastmile_qr_scan"}, "name": "3e51bab02d63f741c4b4af4c0e29e535", "is_reserved": 0}, {"is_disabled": 0, "fusion_lon": 0.0, "fusion_lat": 0.0, "lat": 39.00875766666667, "type": "electric_bike", "lon": -77.07906016666666, "bike_id": "d258237d3f999c1df4e68f4757417b7e", "rental_uris": {"android": "https://dc.lft.to/lastmile_qr_scan", "ios": "https://dc.lft.to/lastmile_qr_scan"}, "name": "d258237d3f999c1df4e68f4757417b7e", "is_reserved": 0}, {"is_disabled": 0, "fusion_lon": 0.0, "fusion_lat": 0.0, "lat": 38.827465, "type": "electric_bike", "lon": -77.0084685, "bike_id": "d9309e723ab6991c0fa9cc6d1c18b9b3", "rental_uris": {"android": "https://dc.lft.to/lastmile_qr_scan", "ios": "https://dc.lft.to/lastmile_qr_scan"}, "name": "d9309e723ab6991c0fa9cc6d1c18b9b3", "is_reserved": 0}, {"is_disabled": 0, "fusion_lon": 0.0, "fusion_lat": 0.0, "lat": 38.9103205, "type": "electric_scooter", "lon": -77.04798366666667, "bike_id": "fce408906e9fd10913362723949907bc", "rental_uris": {"android": "https://dc.lft.to/lastmile_qr_scan", "ios": "https://dc.lft.to/lastmile_qr_scan"}, "name": "fce408906e9fd10913362723949907bc", "is_reserved": 0}, {"is_disabled": 0, "fusion_lon": 0.0, "fusion_lat": 0.0, "lat": 38.92797366666667, "type": "electric_scooter", "lon": -77.02292483333333, "bike_id": "587f2c921dfbcaab22d0f3f708e604b3", "rental_uris": {"android": "https://dc.lft.to/lastmile_qr_scan", "ios": "https://dc.lft.to/lastmile_qr_scan"}, "name": "587f2c921dfbcaab22d0f3f708e604b3", "is_reserved": 0}, {"is_disabled": 0, "fusion_lon": 0.0, "fusion_lat": 0.0, "lat": 38.898293833333334, "type": "electric_scooter", "lon": -76.98049166666667, "bike_id": "aeb34980039f102542eb42dee5f98ba8", "rental_uris": {"android": "https://dc.lft.to/lastmile_qr_scan", "ios": "https://dc.lft.to/lastmile_qr_scan"}, "name": "aeb34980039f102542eb42dee5f98ba8", "is_reserved": 0}, {"is_disabled": 0, "fusion_lon": 0.0, "fusion_lat": 0.0, "lat": 38.89373533333333, "type": "electric_scooter", "lon": -76.94997366666666, "bike_id": "a1583f0c8bfc0897dbee80c43174ffa1", "rental_uris": {"android": "https://dc.lft.to/lastmile_qr_scan", "ios": "https://dc.lft.to/lastmile_qr_scan"}, "name": "a1583f0c8bfc0897dbee80c43174ffa1", "is_reserved": 0}, {"is_disabled": 0, "fusion_lon": 0.0, "fusion_lat": 0.0, "lat": 38.91120566666667, "type": "electric_scooter", "lon": -77.04497933333333, "bike_id": "9ac30798011ce54911d8aeb8151ba2e5", "rental_uris": {"android": "https://dc.lft.to/lastmile_qr_scan", "ios": "https://dc.lft.to/lastmile_qr_scan"}, "name": "9ac30798011ce54911d8aeb8151ba2e5", "is_reserved": 0}, {"is_disabled": 0, "fusion_lon": 0.0, "fusion_lat": 0.0, "lat": 38.90557616666667, "type": "electric_scooter", "lon": -77.00544933333333, "bike_id": "ce94c76998bfa4c8035837c7ea86cdef", "rental_uris": {"android": "https://dc.lft.to/lastmile_qr_scan", "ios": "https://dc.lft.to/lastmile_qr_scan"}, "name": "ce94c76998bfa4c8035837c7ea86cdef", "is_reserved": 0}, {"is_disabled": 0, "fusion_lon": 0.0, "fusion_lat": 0.0, "lat": 38.90365033333333, "type": "electric_scooter", "lon": -77.02375016666667, "bike_id": "21e73137207320fdeb8d9a8501519483", "rental_uris": {"android": "https://dc.lft.to/lastmile_qr_scan", "ios": "https://dc.lft.to/lastmile_qr_scan"}, "name": "21e73137207320fdeb8d9a8501519483", "is_reserved": 0}, {"is_disabled": 0, "fusion_lon": 0.0, "fusion_lat": 0.0, "lat": 38.874703833333335, "type": "electric_scooter", "lon": -77.00518483333333, "bike_id": "c1fec1ce4a998fcdf80e39e3f368cea4", "rental_uris": {"android": "https://dc.lft.to/lastmile_qr_scan", "ios": "https://dc.lft.to/lastmile_qr_scan"}, "name": "c1fec1ce4a998fcdf80e39e3f368cea4", "is_reserved": 0}, {"is_disabled": 0, "fusion_lon": 0.0, "fusion_lat": 0.0, "lat": 38.896275333333335, "type": "electric_scooter", "lon": -77.02588433333334, "bike_id": "8e3f061e5358a66e0231b20c6b7712d8", "rental_uris": {"android": "https://dc.lft.to/lastmile_qr_scan", "ios": "https://dc.lft.to/lastmile_qr_scan"}, "name": "8e3f061e5358a66e0231b20c6b7712d8", "is_reserved": 0}, {"is_disabled": 0, "fusion_lon": 0.0, "fusion_lat": 0.0, "lat": 38.9408895, "type": "electric_scooter", "lon": -77.0381545, "bike_id": "be4af1ab4d0790fbeb4da839d4a536f3", "rental_uris": {"android": "https://dc.lft.to/lastmile_qr_scan", "ios": "https://dc.lft.to/lastmile_qr_scan"}, "name": "be4af1ab4d0790fbeb4da839d4a536f3", "is_reserved": 0}, {"is_disabled": 0, "fusion_lon": 0.0, "fusion_lat": 0.0, "lat": 38.954203166666666, "type": "electric_scooter", "lon": -77.02173516666667, "bike_id": "b1c39180ebf60a2c88337d6453a3f052", "rental_uris": {"android": "https://dc.lft.to/lastmile_qr_scan", "ios": "https://dc.lft.to/lastmile_qr_scan"}, "name": "b1c39180ebf60a2c88337d6453a3f052", "is_reserved": 0}, {"is_disabled": 0, "fusion_lon": 0.0, "fusion_lat": 0.0, "lat": 38.8803335, "type": "electric_scooter", "lon": -76.99509966666666, "bike_id": "e509c739b42104a89f39d37fb7bc3c1e", "rental_uris": {"android": "https://dc.lft.to/lastmile_qr_scan", "ios": "https://dc.lft.to/lastmile_qr_scan"}, "name": "e509c739b42104a89f39d37fb7bc3c1e", "is_reserved": 0}, {"is_disabled": 0, "fusion_lon": 0.0, "fusion_lat": 0.0, "lat": 38.97167816666666, "type": "electric_bike", "lon": -76.9802005, "bike_id": "16cfbbefe4945b1ebc4502d7543b9840", "rental_uris": {"android": "https://dc.lft.to/lastmile_qr_scan", "ios": "https://dc.lft.to/lastmile_qr_scan"}, "name": "16cfbbefe4945b1ebc4502d7543b9840", "is_reserved": 0}, {"is_disabled": 0, "fusion_lon": 0.0, "fusion_lat": 0.0, "lat": 38.93876616666667, "type": "electric_scooter", "lon": -77.02846133333334, "bike_id": "727ea5c437f9399049dd93e445411edf", "rental_uris": {"android": "https://dc.lft.to/lastmile_qr_scan", "ios": "https://dc.lft.to/lastmile_qr_scan"}, "name": "727ea5c437f9399049dd93e445411edf", "is_reserved": 0}, {"is_disabled": 0, "fusion_lon": 0.0, "fusion_lat": 0.0, "lat": 38.96805, "type": "electric_scooter", "lon": -77.0212085, "bike_id": "7f026fdc5d4cc740ac231dee893311b9", "rental_uris": {"android": "https://dc.lft.to/lastmile_qr_scan", "ios": "https://dc.lft.to/lastmile_qr_scan"}, "name": "7f026fdc5d4cc740ac231dee893311b9", "is_reserved": 0}, {"is_disabled": 0, "fusion_lon": 0.0, "fusion_lat": 0.0, "lat": 38.91635516666667, "type": "electric_scooter", "lon": -77.0269375, "bike_id": "d88b03ea411859f5fb333e710009ed05", "rental_uris": {"android": "https://dc.lft.to/lastmile_qr_scan", "ios": "https://dc.lft.to/lastmile_qr_scan"}, "name": "d88b03ea411859f5fb333e710009ed05", "is_reserved": 0}, {"is_disabled": 0, "fusion_lon": 0.0, "fusion_lat": 0.0, "lat": 38.91776733333333, "type": "electric_scooter", "lon": -77.02312733333333, "bike_id": "87a1333197bd7b0ba560a33ad4f996e7", "rental_uris": {"android": "https://dc.lft.to/lastmile_qr_scan", "ios": "https://dc.lft.to/lastmile_qr_scan"}, "name": "87a1333197bd7b0ba560a33ad4f996e7", "is_reserved": 0}, {"is_disabled": 0, "fusion_lon": 0.0, "fusion_lat": 0.0, "lat": 38.88015266666667, "type": "electric_scooter", "lon": -76.982382, "bike_id": "a9ffa8218dc61dd3cb7a0fda34e00ed3", "rental_uris": {"android": "https://dc.lft.to/lastmile_qr_scan", "ios": "https://dc.lft.to/lastmile_qr_scan"}, "name": "a9ffa8218dc61dd3cb7a0fda34e00ed3", "is_reserved": 0}, {"is_disabled": 0, "fusion_lon": 0.0, "fusion_lat": 0.0, "lat": 38.9072165, "type": "electric_scooter", "lon": -77.02536633333334, "bike_id": "d5a72ea60091bc475cf86b985aade6ad", "rental_uris": {"android": "https://dc.lft.to/lastmile_qr_scan", "ios": "https://dc.lft.to/lastmile_qr_scan"}, "name": "d5a72ea60091bc475cf86b985aade6ad", "is_reserved": 0}, {"is_disabled": 0, "fusion_lon": 0.0, "fusion_lat": 0.0, "lat": 38.912773333333334, "type": "electric_scooter", "lon": -77.047351, "bike_id": "de5d0d208784e48999c54731d299f01a", "rental_uris": {"android": "https://dc.lft.to/lastmile_qr_scan", "ios": "https://dc.lft.to/lastmile_qr_scan"}, "name": "de5d0d208784e48999c54731d299f01a", "is_reserved": 0}, {"is_disabled": 0, "fusion_lon": 0.0, "fusion_lat": 0.0, "lat": 38.836047666666666, "type": "electric_scooter", "lon": -77.00361233333334, "bike_id": "06aab818f223d47401a3d4600b7ecea0", "rental_uris": {"android": "https://dc.lft.to/lastmile_qr_scan", "ios": "https://dc.lft.to/lastmile_qr_scan"}, "name": "06aab818f223d47401a3d4600b7ecea0", "is_reserved": 0}, {"is_disabled": 0, "fusion_lon": 0.0, "fusion_lat": 0.0, "lat": 38.96762433333333, "type": "electric_bike", "lon": -77.091542, "bike_id": "409e639c20ee01af9ad06d07f8389bab", "rental_uris": {"android": "https://dc.lft.to/lastmile_qr_scan", "ios": "https://dc.lft.to/lastmile_qr_scan"}, "name": "409e639c20ee01af9ad06d07f8389bab", "is_reserved": 0}, {"is_disabled": 0, "fusion_lon": 0.0, "fusion_lat": 0.0, "lat": 38.914820166666665, "type": "electric_scooter", "lon": -76.98357933333334, "bike_id": "e1d8c5f13782549868fea0c7bc5c4683", "rental_uris": {"android": "https://dc.lft.to/lastmile_qr_scan", "ios": "https://dc.lft.to/lastmile_qr_scan"}, "name": "e1d8c5f13782549868fea0c7bc5c4683", "is_reserved": 0}, {"is_disabled": 0, "fusion_lon": 0.0, "fusion_lat": 0.0, "lat": 38.90472966666667, "type": "electric_scooter", "lon": -77.04170516666667, "bike_id": "fb2f5a8639166f72e936122a64a18f5c", "rental_uris": {"android": "https://dc.lft.to/lastmile_qr_scan", "ios": "https://dc.lft.to/lastmile_qr_scan"}, "name": "fb2f5a8639166f72e936122a64a18f5c", "is_reserved": 0}, {"is_disabled": 0, "fusion_lon": 0.0, "fusion_lat": 0.0, "lat": 38.85807833333333, "type": "electric_scooter", "lon": -76.98653, "bike_id": "b4ecb1ccc02a4ece5ee7cb3fb0ef4aeb", "rental_uris": {"android": "https://dc.lft.to/lastmile_qr_scan", "ios": "https://dc.lft.to/lastmile_qr_scan"}, "name": "b4ecb1ccc02a4ece5ee7cb3fb0ef4aeb", "is_reserved": 0}, {"is_disabled": 0, "fusion_lon": 0.0, "fusion_lat": 0.0, "lat": 38.916973166666665, "type": "electric_scooter", "lon": -77.0243395, "bike_id": "c1760f56491a459f9e2bbd596e30d7db", "rental_uris": {"android": "https://dc.lft.to/lastmile_qr_scan", "ios": "https://dc.lft.to/lastmile_qr_scan"}, "name": "c1760f56491a459f9e2bbd596e30d7db", "is_reserved": 0}, {"is_disabled": 0, "fusion_lon": 0.0, "fusion_lat": 0.0, "lat": 38.863224333333335, "type": "electric_scooter", "lon": -76.99032316666667, "bike_id": "41bda1896d308f67abe018d63cd8d727", "rental_uris": {"android": "https://dc.lft.to/lastmile_qr_scan", "ios": "https://dc.lft.to/lastmile_qr_scan"}, "name": "41bda1896d308f67abe018d63cd8d727", "is_reserved": 0}, {"is_disabled": 0, "fusion_lon": 0.0, "fusion_lat": 0.0, "lat": 38.847316166666666, "type": "electric_bike", "lon": -77.09529633333334, "bike_id": "09d04f2850d668778c6e605c48b36800", "rental_uris": {"android": "https://dc.lft.to/lastmile_qr_scan", "ios": "https://dc.lft.to/lastmile_qr_scan"}, "name": "09d04f2850d668778c6e605c48b36800", "is_reserved": 0}, {"is_disabled": 0, "fusion_lon": 0.0, "fusion_lat": 0.0, "lat": 38.911212666666664, "type": "electric_scooter", "lon": -77.044981, "bike_id": "11e9c7f05fc72866b10b6f290d0a98c3", "rental_uris": {"android": "https://dc.lft.to/lastmile_qr_scan", "ios": "https://dc.lft.to/lastmile_qr_scan"}, "name": "11e9c7f05fc72866b10b6f290d0a98c3", "is_reserved": 0}, {"is_disabled": 0, "fusion_lon": 0.0, "fusion_lat": 0.0, "lat": 38.928560833333336, "type": "electric_scooter", "lon": -77.01403933333333, "bike_id": "42754ce4f3a31b8aade1b15e06caac5f", "rental_uris": {"android": "https://dc.lft.to/lastmile_qr_scan", "ios": "https://dc.lft.to/lastmile_qr_scan"}, "name": "42754ce4f3a31b8aade1b15e06caac5f", "is_reserved": 0}, {"is_disabled": 0, "fusion_lon": 0.0, "fusion_lat": 0.0, "lat": 38.90547016666667, "type": "electric_scooter", "lon": -77.05700233333333, "bike_id": "f6291e9c20b4707d4fbf83c0927e1ed8", "rental_uris": {"android": "https://dc.lft.to/lastmile_qr_scan", "ios": "https://dc.lft.to/lastmile_qr_scan"}, "name": "f6291e9c20b4707d4fbf83c0927e1ed8", "is_reserved": 0}, {"is_disabled": 0, "fusion_lon": 0.0, "fusion_lat": 0.0, "lat": 38.99904166666666, "type": "electric_bike", "lon": -77.02857683333333, "bike_id": "708e1c71c2df0332bd1910b46ac9e5e0", "rental_uris": {"android": "https://dc.lft.to/lastmile_qr_scan", "ios": "https://dc.lft.to/lastmile_qr_scan"}, "name": "708e1c71c2df0332bd1910b46ac9e5e0", "is_reserved": 0}, {"is_disabled": 0, "fusion_lon": 0.0, "fusion_lat": 0.0, "lat": 38.90835766666667, "type": "electric_scooter", "lon": -76.9969495, "bike_id": "e8ca17cf3e66023df5cce970c7b81211", "rental_uris": {"android": "https://dc.lft.to/lastmile_qr_scan", "ios": "https://dc.lft.to/lastmile_qr_scan"}, "name": "e8ca17cf3e66023df5cce970c7b81211", "is_reserved": 0}, {"is_disabled": 0, "fusion_lon": 0.0, "fusion_lat": 0.0, "lat": 38.9256385, "type": "electric_scooter", "lon": -77.02280133333333, "bike_id": "1092def31103b970d37d4f9405021f0e", "rental_uris": {"android": "https://dc.lft.to/lastmile_qr_scan", "ios": "https://dc.lft.to/lastmile_qr_scan"}, "name": "1092def31103b970d37d4f9405021f0e", "is_reserved": 0}, {"is_disabled": 0, "fusion_lon": 0.0, "fusion_lat": 0.0, "lat": 38.8801265, "type": "electric_bike", "lon": -76.91593183333333, "bike_id": "6d9731d0401e60a21eb6c142f6fb4ef5", "rental_uris": {"android": "https://dc.lft.to/lastmile_qr_scan", "ios": "https://dc.lft.to/lastmile_qr_scan"}, "name": "6d9731d0401e60a21eb6c142f6fb4ef5", "is_reserved": 0}, {"is_disabled": 0, "fusion_lon": 0.0, "fusion_lat": 0.0, "lat": 38.862464333333335, "type": "electric_scooter", "lon": -76.994989, "bike_id": "437b59d959df5598784190a3466bfbee", "rental_uris": {"android": "https://dc.lft.to/lastmile_qr_scan", "ios": "https://dc.lft.to/lastmile_qr_scan"}, "name": "437b59d959df5598784190a3466bfbee", "is_reserved": 0}, {"is_disabled": 0, "fusion_lon": 0.0, "fusion_lat": 0.0, "lat": 38.885997, "type": "electric_scooter", "lon": -76.99718616666667, "bike_id": "db2858913a404cc6b224414ae53b014e", "rental_uris": {"android": "https://dc.lft.to/lastmile_qr_scan", "ios": "https://dc.lft.to/lastmile_qr_scan"}, "name": "db2858913a404cc6b224414ae53b014e", "is_reserved": 0}, {"is_disabled": 0, "fusion_lon": 0.0, "fusion_lat": 0.0, "lat": 38.900712166666665, "type": "electric_scooter", "lon": -77.04894933333334, "bike_id": "ff5e6ae5a5bf8b2babe1b2deb9bb3299", "rental_uris": {"android": "https://dc.lft.to/lastmile_qr_scan", "ios": "https://dc.lft.to/lastmile_qr_scan"}, "name": "ff5e6ae5a5bf8b2babe1b2deb9bb3299", "is_reserved": 0}, {"is_disabled": 0, "fusion_lon": 0.0, "fusion_lat": 0.0, "lat": 38.9945345, "type": "electric_bike", "lon": -76.90813966666667, "bike_id": "7c97cbc69dca5fd3da7c107a8c3b7005", "rental_uris": {"android": "https://dc.lft.to/lastmile_qr_scan", "ios": "https://dc.lft.to/lastmile_qr_scan"}, "name": "7c97cbc69dca5fd3da7c107a8c3b7005", "is_reserved": 0}, {"is_disabled": 0, "fusion_lon": 0.0, "fusion_lat": 0.0, "lat": 38.859883333333336, "type": "electric_bike", "lon": -76.9704945, "bike_id": "2e5535125a643d7b1abffbf3fdef1e1d", "rental_uris": {"android": "https://dc.lft.to/lastmile_qr_scan", "ios": "https://dc.lft.to/lastmile_qr_scan"}, "name": "2e5535125a643d7b1abffbf3fdef1e1d", "is_reserved": 0}, {"is_disabled": 0, "fusion_lon": 0.0, "fusion_lat": 0.0, "lat": 38.932556, "type": "electric_scooter", "lon": -77.04012983333334, "bike_id": "21c4727a5d5d47b6d8f09dad9031ea96", "rental_uris": {"android": "https://dc.lft.to/lastmile_qr_scan", "ios": "https://dc.lft.to/lastmile_qr_scan"}, "name": "21c4727a5d5d47b6d8f09dad9031ea96", "is_reserved": 0}, {"is_disabled": 0, "fusion_lon": 0.0, "fusion_lat": 0.0, "lat": 38.919096833333334, "type": "electric_scooter", "lon": -77.0296975, "bike_id": "7e585feafd6a53b98517230eabf95373", "rental_uris": {"android": "https://dc.lft.to/lastmile_qr_scan", "ios": "https://dc.lft.to/lastmile_qr_scan"}, "name": "7e585feafd6a53b98517230eabf95373", "is_reserved": 0}, {"is_disabled": 0, "fusion_lon": 0.0, "fusion_lat": 0.0, "lat": 38.916894666666664, "type": "electric_scooter", "lon": -77.03758116666667, "bike_id": "1a7cb6c7416da8ccc8327e19ebd68aa7", "rental_uris": {"android": "https://dc.lft.to/lastmile_qr_scan", "ios": "https://dc.lft.to/lastmile_qr_scan"}, "name": "1a7cb6c7416da8ccc8327e19ebd68aa7", "is_reserved": 0}, {"is_disabled": 0, "fusion_lon": 0.0, "fusion_lat": 0.0, "lat": 38.9289585, "type": "electric_scooter", "lon": -76.98451616666667, "bike_id": "de07d09efd53ba5c16d2cc3278e69bcb", "rental_uris": {"android": "https://dc.lft.to/lastmile_qr_scan", "ios": "https://dc.lft.to/lastmile_qr_scan"}, "name": "de07d09efd53ba5c16d2cc3278e69bcb", "is_reserved": 0}, {"is_disabled": 0, "fusion_lon": 0.0, "fusion_lat": 0.0, "lat": 39.10566033333333, "type": "electric_bike", "lon": -77.152635, "bike_id": "759d8fe393097b9a77da47db7dafcbb5", "rental_uris": {"android": "https://dc.lft.to/lastmile_qr_scan", "ios": "https://dc.lft.to/lastmile_qr_scan"}, "name": "759d8fe393097b9a77da47db7dafcbb5", "is_reserved": 0}, {"is_disabled": 0, "fusion_lon": 0.0, "fusion_lat": 0.0, "lat": 38.91333483333333, "type": "electric_scooter", "lon": -77.04865783333334, "bike_id": "38c982144f491ad59e5af9e70ff75693", "rental_uris": {"android": "https://dc.lft.to/lastmile_qr_scan", "ios": "https://dc.lft.to/lastmile_qr_scan"}, "name": "38c982144f491ad59e5af9e70ff75693", "is_reserved": 0}, {"is_disabled": 0, "fusion_lon": 0.0, "fusion_lat": 0.0, "lat": 38.9244475, "type": "electric_bike", "lon": -76.96834583333333, "bike_id": "e07831d5115d70b1ac1870755e48347d", "rental_uris": {"android": "https://dc.lft.to/lastmile_qr_scan", "ios": "https://dc.lft.to/lastmile_qr_scan"}, "name": "e07831d5115d70b1ac1870755e48347d", "is_reserved": 0}, {"is_disabled": 0, "fusion_lon": 0.0, "fusion_lat": 0.0, "lat": 38.921553833333334, "type": "electric_scooter", "lon": -77.03441716666667, "bike_id": "42c829b75cb07af92a3b4309e2ad2afe", "rental_uris": {"android": "https://dc.lft.to/lastmile_qr_scan", "ios": "https://dc.lft.to/lastmile_qr_scan"}, "name": "42c829b75cb07af92a3b4309e2ad2afe", "is_reserved": 0}, {"is_disabled": 0, "fusion_lon": 0.0, "fusion_lat": 0.0, "lat": 38.905961166666664, "type": "electric_scooter", "lon": -77.06298483333333, "bike_id": "279c8e8e87fc0533976af2468eb6a147", "rental_uris": {"android": "https://dc.lft.to/lastmile_qr_scan", "ios": "https://dc.lft.to/lastmile_qr_scan"}, "name": "279c8e8e87fc0533976af2468eb6a147", "is_reserved": 0}, {"is_disabled": 0, "fusion_lon": 0.0, "fusion_lat": 0.0, "lat": 38.8874525, "type": "electric_scooter", "lon": -77.02626083333334, "bike_id": "0f14fd2803cdedae99c30a857528a669", "rental_uris": {"android": "https://dc.lft.to/lastmile_qr_scan", "ios": "https://dc.lft.to/lastmile_qr_scan"}, "name": "0f14fd2803cdedae99c30a857528a669", "is_reserved": 0}, {"is_disabled": 0, "fusion_lon": 0.0, "fusion_lat": 0.0, "lat": 38.92197933333333, "type": "electric_scooter", "lon": -76.99758433333334, "bike_id": "e8ac365a74f1fbd6b3a196158d33d8ca", "rental_uris": {"android": "https://dc.lft.to/lastmile_qr_scan", "ios": "https://dc.lft.to/lastmile_qr_scan"}, "name": "e8ac365a74f1fbd6b3a196158d33d8ca", "is_reserved": 0}, {"is_disabled": 0, "fusion_lon": 0.0, "fusion_lat": 0.0, "lat": 38.893738, "type": "electric_scooter", "lon": -76.94995616666667, "bike_id": "4a90993e9518921e5ed5b54cdf42a6e9", "rental_uris": {"android": "https://dc.lft.to/lastmile_qr_scan", "ios": "https://dc.lft.to/lastmile_qr_scan"}, "name": "4a90993e9518921e5ed5b54cdf42a6e9", "is_reserved": 0}, {"is_disabled": 0, "fusion_lon": 0.0, "fusion_lat": 0.0, "lat": 38.89879583333333, "type": "electric_scooter", "lon": -76.93156666666667, "bike_id": "5e7178cde8e1a4a3004ad58b83d1236f", "rental_uris": {"android": "https://dc.lft.to/lastmile_qr_scan", "ios": "https://dc.lft.to/lastmile_qr_scan"}, "name": "5e7178cde8e1a4a3004ad58b83d1236f", "is_reserved": 0}, {"is_disabled": 0, "fusion_lon": 0.0, "fusion_lat": 0.0, "lat": 38.91198683333333, "type": "electric_scooter", "lon": -77.04539816666667, "bike_id": "2866e8e07cb598ea75177cd9828d9768", "rental_uris": {"android": "https://dc.lft.to/lastmile_qr_scan", "ios": "https://dc.lft.to/lastmile_qr_scan"}, "name": "2866e8e07cb598ea75177cd9828d9768", "is_reserved": 0}, {"is_disabled": 0, "fusion_lon": 0.0, "fusion_lat": 0.0, "lat": 38.89373766666667, "type": "electric_scooter", "lon": -76.94996033333334, "bike_id": "b4fe1612d30b38c9257a844bf2d9accc", "rental_uris": {"android": "https://dc.lft.to/lastmile_qr_scan", "ios": "https://dc.lft.to/lastmile_qr_scan"}, "name": "b4fe1612d30b38c9257a844bf2d9accc", "is_reserved": 0}, {"is_disabled": 0, "fusion_lon": 0.0, "fusion_lat": 0.0, "lat": 38.892420666666666, "type": "electric_scooter", "lon": -77.0281365, "bike_id": "63b225e20e128476285186cb2e7da507", "rental_uris": {"android": "https://dc.lft.to/lastmile_qr_scan", "ios": "https://dc.lft.to/lastmile_qr_scan"}, "name": "63b225e20e128476285186cb2e7da507", "is_reserved": 0}, {"is_disabled": 0, "fusion_lon": 0.0, "fusion_lat": 0.0, "lat": 38.88732616666667, "type": "electric_scooter", "lon": -77.00324216666667, "bike_id": "52fedd4f5247456a88ce68bfffc17c5f", "rental_uris": {"android": "https://dc.lft.to/lastmile_qr_scan", "ios": "https://dc.lft.to/lastmile_qr_scan"}, "name": "52fedd4f5247456a88ce68bfffc17c5f", "is_reserved": 0}, {"is_disabled": 0, "fusion_lon": 0.0, "fusion_lat": 0.0, "lat": 38.90239533333333, "type": "electric_scooter", "lon": -77.04558683333333, "bike_id": "c48d3717e89be9679a2075fa20e92dae", "rental_uris": {"android": "https://dc.lft.to/lastmile_qr_scan", "ios": "https://dc.lft.to/lastmile_qr_scan"}, "name": "c48d3717e89be9679a2075fa20e92dae", "is_reserved": 0}, {"is_disabled": 0, "fusion_lon": 0.0, "fusion_lat": 0.0, "lat": 38.93537083333333, "type": "electric_scooter", "lon": -77.02801066666666, "bike_id": "9eb2a3987900711b5e9fd6fd87a63e7c", "rental_uris": {"android": "https://dc.lft.to/lastmile_qr_scan", "ios": "https://dc.lft.to/lastmile_qr_scan"}, "name": "9eb2a3987900711b5e9fd6fd87a63e7c", "is_reserved": 0}, {"is_disabled": 0, "fusion_lon": 0.0, "fusion_lat": 0.0, "lat": 38.934568, "type": "electric_scooter", "lon": -77.07236233333333, "bike_id": "9926480427a305004af6063cd9178c0f", "rental_uris": {"android": "https://dc.lft.to/lastmile_qr_scan", "ios": "https://dc.lft.to/lastmile_qr_scan"}, "name": "9926480427a305004af6063cd9178c0f", "is_reserved": 0}, {"is_disabled": 0, "fusion_lon": 0.0, "fusion_lat": 0.0, "lat": 38.92822533333333, "type": "electric_scooter", "lon": -77.01407983333333, "bike_id": "77c6bff90f075e2b8bb0ce83fa107c4a", "rental_uris": {"android": "https://dc.lft.to/lastmile_qr_scan", "ios": "https://dc.lft.to/lastmile_qr_scan"}, "name": "77c6bff90f075e2b8bb0ce83fa107c4a", "is_reserved": 0}, {"is_disabled": 0, "fusion_lon": 0.0, "fusion_lat": 0.0, "lat": 38.90893966666667, "type": "electric_scooter", "lon": -77.0319785, "bike_id": "df73a9119cd52785a450ea16729d58e4", "rental_uris": {"android": "https://dc.lft.to/lastmile_qr_scan", "ios": "https://dc.lft.to/lastmile_qr_scan"}, "name": "df73a9119cd52785a450ea16729d58e4", "is_reserved": 0}, {"is_disabled": 0, "fusion_lon": 0.0, "fusion_lat": 0.0, "lat": 38.919858166666664, "type": "electric_scooter", "lon": -77.0326335, "bike_id": "dc79eb86edc058905e73e57317efbad7", "rental_uris": {"android": "https://dc.lft.to/lastmile_qr_scan", "ios": "https://dc.lft.to/lastmile_qr_scan"}, "name": "dc79eb86edc058905e73e57317efbad7", "is_reserved": 0}, {"is_disabled": 0, "fusion_lon": 0.0, "fusion_lat": 0.0, "lat": 38.900477, "type": "electric_scooter", "lon": -76.92267583333333, "bike_id": "1d62df910fffc88e4ce43a354d36fc6a", "rental_uris": {"android": "https://dc.lft.to/lastmile_qr_scan", "ios": "https://dc.lft.to/lastmile_qr_scan"}, "name": "1d62df910fffc88e4ce43a354d36fc6a", "is_reserved": 0}, {"is_disabled": 0, "fusion_lon": 0.0, "fusion_lat": 0.0, "lat": 38.935242, "type": "electric_scooter", "lon": -77.02383833333333, "bike_id": "5ba8af341062ebac40d4da2c225d00f7", "rental_uris": {"android": "https://dc.lft.to/lastmile_qr_scan", "ios": "https://dc.lft.to/lastmile_qr_scan"}, "name": "5ba8af341062ebac40d4da2c225d00f7", "is_reserved": 0}, {"is_disabled": 0, "fusion_lon": 0.0, "fusion_lat": 0.0, "lat": 38.90986266666667, "type": "electric_scooter", "lon": -77.02182266666667, "bike_id": "79a6cd05c99247519481b4a8d4994ef0", "rental_uris": {"android": "https://dc.lft.to/lastmile_qr_scan", "ios": "https://dc.lft.to/lastmile_qr_scan"}, "name": "79a6cd05c99247519481b4a8d4994ef0", "is_reserved": 0}, {"is_disabled": 0, "fusion_lon": 0.0, "fusion_lat": 0.0, "lat": 38.895656833333334, "type": "electric_scooter", "lon": -77.04672833333333, "bike_id": "017560f87ba1bc97cb0bb75a3f0e5cbf", "rental_uris": {"android": "https://dc.lft.to/lastmile_qr_scan", "ios": "https://dc.lft.to/lastmile_qr_scan"}, "name": "017560f87ba1bc97cb0bb75a3f0e5cbf", "is_reserved": 0}, {"is_disabled": 0, "fusion_lon": 0.0, "fusion_lat": 0.0, "lat": 38.862463166666664, "type": "electric_scooter", "lon": -76.99501866666667, "bike_id": "7d5a1824d6f4f6f73efd2633fd48ff3f", "rental_uris": {"android": "https://dc.lft.to/lastmile_qr_scan", "ios": "https://dc.lft.to/lastmile_qr_scan"}, "name": "7d5a1824d6f4f6f73efd2633fd48ff3f", "is_reserved": 0}, {"is_disabled": 0, "fusion_lon": 0.0, "fusion_lat": 0.0, "lat": 38.9011825, "type": "electric_scooter", "lon": -77.02604733333334, "bike_id": "8fcb546f81bb5def1ba27d008fb17250", "rental_uris": {"android": "https://dc.lft.to/lastmile_qr_scan", "ios": "https://dc.lft.to/lastmile_qr_scan"}, "name": "8fcb546f81bb5def1ba27d008fb17250", "is_reserved": 0}, {"is_disabled": 0, "fusion_lon": 0.0, "fusion_lat": 0.0, "lat": 38.949591833333336, "type": "electric_scooter", "lon": -77.06695583333334, "bike_id": "778862e3088d73af6ec89b7129c94af4", "rental_uris": {"android": "https://dc.lft.to/lastmile_qr_scan", "ios": "https://dc.lft.to/lastmile_qr_scan"}, "name": "778862e3088d73af6ec89b7129c94af4", "is_reserved": 0}, {"is_disabled": 0, "fusion_lon": 0.0, "fusion_lat": 0.0, "lat": 38.92795916666667, "type": "electric_bike", "lon": -77.032406, "bike_id": "02e3b89f83359e5979a178ada106b17b", "rental_uris": {"android": "https://dc.lft.to/lastmile_qr_scan", "ios": "https://dc.lft.to/lastmile_qr_scan"}, "name": "02e3b89f83359e5979a178ada106b17b", "is_reserved": 0}, {"is_disabled": 0, "fusion_lon": 0.0, "fusion_lat": 0.0, "lat": 38.886613, "type": "electric_bike", "lon": -77.16230016666667, "bike_id": "44bf4561d5dcfc3feb678f88cb4e3353", "rental_uris": {"android": "https://dc.lft.to/lastmile_qr_scan", "ios": "https://dc.lft.to/lastmile_qr_scan"}, "name": "44bf4561d5dcfc3feb678f88cb4e3353", "is_reserved": 0}, {"is_disabled": 0, "fusion_lon": 0.0, "fusion_lat": 0.0, "lat": 38.92253516666667, "type": "electric_scooter", "lon": -77.0413465, "bike_id": "09cc66dbeb83ecf2041154fc26caf69c", "rental_uris": {"android": "https://dc.lft.to/lastmile_qr_scan", "ios": "https://dc.lft.to/lastmile_qr_scan"}, "name": "09cc66dbeb83ecf2041154fc26caf69c", "is_reserved": 0}, {"is_disabled": 0, "fusion_lon": 0.0, "fusion_lat": 0.0, "lat": 38.961113, "type": "electric_scooter", "lon": -77.085257, "bike_id": "6537bfdbf674e23b5d7c62ac3880e6f0", "rental_uris": {"android": "https://dc.lft.to/lastmile_qr_scan", "ios": "https://dc.lft.to/lastmile_qr_scan"}, "name": "6537bfdbf674e23b5d7c62ac3880e6f0", "is_reserved": 0}, {"is_disabled": 0, "fusion_lon": 0.0, "fusion_lat": 0.0, "lat": 38.926074166666666, "type": "electric_scooter", "lon": -77.02311866666666, "bike_id": "3325712aa814c1576b266c8beb729c6c", "rental_uris": {"android": "https://dc.lft.to/lastmile_qr_scan", "ios": "https://dc.lft.to/lastmile_qr_scan"}, "name": "3325712aa814c1576b266c8beb729c6c", "is_reserved": 0}, {"is_disabled": 0, "fusion_lon": 0.0, "fusion_lat": 0.0, "lat": 38.937837, "type": "electric_scooter", "lon": -77.01883016666666, "bike_id": "55fab6a2c14bd606b02b0bd769b4547e", "rental_uris": {"android": "https://dc.lft.to/lastmile_qr_scan", "ios": "https://dc.lft.to/lastmile_qr_scan"}, "name": "55fab6a2c14bd606b02b0bd769b4547e", "is_reserved": 0}, {"is_disabled": 0, "fusion_lon": 0.0, "fusion_lat": 0.0, "lat": 38.963085666666665, "type": "electric_bike", "lon": -77.0110275, "bike_id": "457ff2f72e2762b7c477522359c9c5b3", "rental_uris": {"android": "https://dc.lft.to/lastmile_qr_scan", "ios": "https://dc.lft.to/lastmile_qr_scan"}, "name": "457ff2f72e2762b7c477522359c9c5b3", "is_reserved": 0}, {"is_disabled": 0, "fusion_lon": 0.0, "fusion_lat": 0.0, "lat": 38.887455333333335, "type": "electric_scooter", "lon": -77.01532866666666, "bike_id": "3ad14d236f5629f9c78fc65f878350b5", "rental_uris": {"android": "https://dc.lft.to/lastmile_qr_scan", "ios": "https://dc.lft.to/lastmile_qr_scan"}, "name": "3ad14d236f5629f9c78fc65f878350b5", "is_reserved": 0}, {"is_disabled": 0, "fusion_lon": 0.0, "fusion_lat": 0.0, "lat": 38.88747033333333, "type": "electric_scooter", "lon": -77.01609716666667, "bike_id": "f9e281b3cefe3b20aed1d4b1cf1d0f11", "rental_uris": {"android": "https://dc.lft.to/lastmile_qr_scan", "ios": "https://dc.lft.to/lastmile_qr_scan"}, "name": "f9e281b3cefe3b20aed1d4b1cf1d0f11", "is_reserved": 0}, {"is_disabled": 0, "fusion_lon": 0.0, "fusion_lat": 0.0, "lat": 38.90836933333333, "type": "electric_scooter", "lon": -76.99694516666666, "bike_id": "a6c2f2a47f95ba4932c33defefed1e1d", "rental_uris": {"android": "https://dc.lft.to/lastmile_qr_scan", "ios": "https://dc.lft.to/lastmile_qr_scan"}, "name": "a6c2f2a47f95ba4932c33defefed1e1d", "is_reserved": 0}, {"is_disabled": 0, "fusion_lon": 0.0, "fusion_lat": 0.0, "lat": 38.984823666666664, "type": "electric_scooter", "lon": -77.02649116666667, "bike_id": "18e4db7cf0695ad60d644afe409f5540", "rental_uris": {"android": "https://dc.lft.to/lastmile_qr_scan", "ios": "https://dc.lft.to/lastmile_qr_scan"}, "name": "18e4db7cf0695ad60d644afe409f5540", "is_reserved": 0}, {"is_disabled": 0, "fusion_lon": 0.0, "fusion_lat": 0.0, "lat": 38.88460966666667, "type": "electric_scooter", "lon": -76.95403816666666, "bike_id": "5188dfa0bd3c256246b9c342a5a4fa60", "rental_uris": {"android": "https://dc.lft.to/lastmile_qr_scan", "ios": "https://dc.lft.to/lastmile_qr_scan"}, "name": "5188dfa0bd3c256246b9c342a5a4fa60", "is_reserved": 0}, {"is_disabled": 0, "fusion_lon": 0.0, "fusion_lat": 0.0, "lat": 38.93289816666667, "type": "electric_scooter", "lon": -77.0244775, "bike_id": "f90f372a38d89fc86fccc28bfa7e9ebb", "rental_uris": {"android": "https://dc.lft.to/lastmile_qr_scan", "ios": "https://dc.lft.to/lastmile_qr_scan"}, "name": "f90f372a38d89fc86fccc28bfa7e9ebb", "is_reserved": 0}, {"is_disabled": 0, "fusion_lon": 0.0, "fusion_lat": 0.0, "lat": 38.8966345, "type": "electric_scooter", "lon": -77.023102, "bike_id": "e69013b25fa2b630151e57bdf69a4532", "rental_uris": {"android": "https://dc.lft.to/lastmile_qr_scan", "ios": "https://dc.lft.to/lastmile_qr_scan"}, "name": "e69013b25fa2b630151e57bdf69a4532", "is_reserved": 0}, {"is_disabled": 0, "fusion_lon": 0.0, "fusion_lat": 0.0, "lat": 38.91337933333333, "type": "electric_scooter", "lon": -77.05218233333333, "bike_id": "ac70b1c8892ed8a86879b12d78776720", "rental_uris": {"android": "https://dc.lft.to/lastmile_qr_scan", "ios": "https://dc.lft.to/lastmile_qr_scan"}, "name": "ac70b1c8892ed8a86879b12d78776720", "is_reserved": 0}, {"is_disabled": 0, "fusion_lon": 0.0, "fusion_lat": 0.0, "lat": 38.95746483333333, "type": "electric_scooter", "lon": -77.02430783333334, "bike_id": "df0938284319124847b4c5e362113c54", "rental_uris": {"android": "https://dc.lft.to/lastmile_qr_scan", "ios": "https://dc.lft.to/lastmile_qr_scan"}, "name": "df0938284319124847b4c5e362113c54", "is_reserved": 0}, {"is_disabled": 0, "fusion_lon": 0.0, "fusion_lat": 0.0, "lat": 38.90516433333333, "type": "electric_scooter", "lon": -77.067963, "bike_id": "1dfa3df3e354c30bc1d461ef0ecdb89d", "rental_uris": {"android": "https://dc.lft.to/lastmile_qr_scan", "ios": "https://dc.lft.to/lastmile_qr_scan"}, "name": "1dfa3df3e354c30bc1d461ef0ecdb89d", "is_reserved": 0}, {"is_disabled": 0, "fusion_lon": 0.0, "fusion_lat": 0.0, "lat": 38.93338933333333, "type": "electric_scooter", "lon": -77.04131616666666, "bike_id": "5097a19243d44c867690e3ffefd9f8ab", "rental_uris": {"android": "https://dc.lft.to/lastmile_qr_scan", "ios": "https://dc.lft.to/lastmile_qr_scan"}, "name": "5097a19243d44c867690e3ffefd9f8ab", "is_reserved": 0}, {"is_disabled": 0, "fusion_lon": 0.0, "fusion_lat": 0.0, "lat": 38.929391, "type": "electric_scooter", "lon": -77.01638733333333, "bike_id": "2b7deb4c638cd11e4c181fafb826b50d", "rental_uris": {"android": "https://dc.lft.to/lastmile_qr_scan", "ios": "https://dc.lft.to/lastmile_qr_scan"}, "name": "2b7deb4c638cd11e4c181fafb826b50d", "is_reserved": 0}, {"is_disabled": 0, "fusion_lon": 0.0, "fusion_lat": 0.0, "lat": 38.867211166666664, "type": "electric_scooter", "lon": -76.97913366666667, "bike_id": "4a7773d812bc7a6958d14f2ef68ef55d", "rental_uris": {"android": "https://dc.lft.to/lastmile_qr_scan", "ios": "https://dc.lft.to/lastmile_qr_scan"}, "name": "4a7773d812bc7a6958d14f2ef68ef55d", "is_reserved": 0}, {"is_disabled": 0, "fusion_lon": 0.0, "fusion_lat": 0.0, "lat": 38.935347666666665, "type": "electric_scooter", "lon": -77.02372866666667, "bike_id": "41b3aa455288042565c3c6d82a9f2ae4", "rental_uris": {"android": "https://dc.lft.to/lastmile_qr_scan", "ios": "https://dc.lft.to/lastmile_qr_scan"}, "name": "41b3aa455288042565c3c6d82a9f2ae4", "is_reserved": 0}, {"is_disabled": 0, "fusion_lon": 0.0, "fusion_lat": 0.0, "lat": 38.926127, "type": "electric_scooter", "lon": -77.02414083333333, "bike_id": "347b02ba75a382723abbd25cda57e410", "rental_uris": {"android": "https://dc.lft.to/lastmile_qr_scan", "ios": "https://dc.lft.to/lastmile_qr_scan"}, "name": "347b02ba75a382723abbd25cda57e410", "is_reserved": 0}, {"is_disabled": 0, "fusion_lon": 0.0, "fusion_lat": 0.0, "lat": 38.931504333333336, "type": "electric_scooter", "lon": -77.02913916666667, "bike_id": "640bc259e3836bda324f2ee605780860", "rental_uris": {"android": "https://dc.lft.to/lastmile_qr_scan", "ios": "https://dc.lft.to/lastmile_qr_scan"}, "name": "640bc259e3836bda324f2ee605780860", "is_reserved": 0}, {"is_disabled": 0, "fusion_lon": 0.0, "fusion_lat": 0.0, "lat": 38.901251, "type": "electric_scooter", "lon": -77.04753283333334, "bike_id": "8709e15752d4da5eeef93c0f665dd51f", "rental_uris": {"android": "https://dc.lft.to/lastmile_qr_scan", "ios": "https://dc.lft.to/lastmile_qr_scan"}, "name": "8709e15752d4da5eeef93c0f665dd51f", "is_reserved": 0}, {"is_disabled": 0, "fusion_lon": 0.0, "fusion_lat": 0.0, "lat": 38.90098483333333, "type": "electric_scooter", "lon": -76.98843183333334, "bike_id": "bf212b5d915b3952e8098094a608263a", "rental_uris": {"android": "https://dc.lft.to/lastmile_qr_scan", "ios": "https://dc.lft.to/lastmile_qr_scan"}, "name": "bf212b5d915b3952e8098094a608263a", "is_reserved": 0}, {"is_disabled": 0, "fusion_lon": 0.0, "fusion_lat": 0.0, "lat": 38.91902916666667, "type": "electric_scooter", "lon": -77.01784866666667, "bike_id": "e0278dd31ff1df5f16e9860a830f3040", "rental_uris": {"android": "https://dc.lft.to/lastmile_qr_scan", "ios": "https://dc.lft.to/lastmile_qr_scan"}, "name": "e0278dd31ff1df5f16e9860a830f3040", "is_reserved": 0}, {"is_disabled": 0, "fusion_lon": 0.0, "fusion_lat": 0.0, "lat": 38.920536166666665, "type": "electric_scooter", "lon": -77.03392733333334, "bike_id": "8fe6f229aafe3498793df90f64c81d54", "rental_uris": {"android": "https://dc.lft.to/lastmile_qr_scan", "ios": "https://dc.lft.to/lastmile_qr_scan"}, "name": "8fe6f229aafe3498793df90f64c81d54", "is_reserved": 0}, {"is_disabled": 0, "fusion_lon": 0.0, "fusion_lat": 0.0, "lat": 38.92476833333333, "type": "electric_scooter", "lon": -77.03959883333333, "bike_id": "17b7d0579d648eafc526f6becd9470cd", "rental_uris": {"android": "https://dc.lft.to/lastmile_qr_scan", "ios": "https://dc.lft.to/lastmile_qr_scan"}, "name": "17b7d0579d648eafc526f6becd9470cd", "is_reserved": 0}, {"is_disabled": 0, "fusion_lon": 0.0, "fusion_lat": 0.0, "lat": 38.929694166666664, "type": "electric_scooter", "lon": -77.0325495, "bike_id": "83323638bc7e029a065afd3e52d15b28", "rental_uris": {"android": "https://dc.lft.to/lastmile_qr_scan", "ios": "https://dc.lft.to/lastmile_qr_scan"}, "name": "83323638bc7e029a065afd3e52d15b28", "is_reserved": 0}, {"is_disabled": 0, "fusion_lon": 0.0, "fusion_lat": 0.0, "lat": 38.902544166666665, "type": "electric_scooter", "lon": -77.027493, "bike_id": "d81cbb50ff073d7aa9e19cc05edb5ec9", "rental_uris": {"android": "https://dc.lft.to/lastmile_qr_scan", "ios": "https://dc.lft.to/lastmile_qr_scan"}, "name": "d81cbb50ff073d7aa9e19cc05edb5ec9", "is_reserved": 0}, {"is_disabled": 0, "fusion_lon": 0.0, "fusion_lat": 0.0, "lat": 38.833758333333336, "type": "electric_scooter", "lon": -76.99299583333334, "bike_id": "811d625a4631d459c183148cf381284a", "rental_uris": {"android": "https://dc.lft.to/lastmile_qr_scan", "ios": "https://dc.lft.to/lastmile_qr_scan"}, "name": "811d625a4631d459c183148cf381284a", "is_reserved": 0}, {"is_disabled": 0, "fusion_lon": 0.0, "fusion_lat": 0.0, "lat": 38.88754433333333, "type": "electric_scooter", "lon": -77.01610066666667, "bike_id": "215dddacdff81fe0eadc796230f92e69", "rental_uris": {"android": "https://dc.lft.to/lastmile_qr_scan", "ios": "https://dc.lft.to/lastmile_qr_scan"}, "name": "215dddacdff81fe0eadc796230f92e69", "is_reserved": 0}, {"is_disabled": 0, "fusion_lon": 0.0, "fusion_lat": 0.0, "lat": 38.906925333333334, "type": "electric_scooter", "lon": -77.038172, "bike_id": "97ccda83657952a1bfab344969ebfc30", "rental_uris": {"android": "https://dc.lft.to/lastmile_qr_scan", "ios": "https://dc.lft.to/lastmile_qr_scan"}, "name": "97ccda83657952a1bfab344969ebfc30", "is_reserved": 0}, {"is_disabled": 0, "fusion_lon": 0.0, "fusion_lat": 0.0, "lat": 38.8509255, "type": "electric_bike", "lon": -76.95694733333333, "bike_id": "3f254a19354bb9ddf69e6b8008d11a2f", "rental_uris": {"android": "https://dc.lft.to/lastmile_qr_scan", "ios": "https://dc.lft.to/lastmile_qr_scan"}, "name": "3f254a19354bb9ddf69e6b8008d11a2f", "is_reserved": 0}, {"is_disabled": 0, "fusion_lon": 0.0, "fusion_lat": 0.0, "lat": 38.9405025, "type": "electric_scooter", "lon": -77.02501033333333, "bike_id": "62035d346553789184c44d23a30b97ed", "rental_uris": {"android": "https://dc.lft.to/lastmile_qr_scan", "ios": "https://dc.lft.to/lastmile_qr_scan"}, "name": "62035d346553789184c44d23a30b97ed", "is_reserved": 0}, {"is_disabled": 0, "fusion_lon": 0.0, "fusion_lat": 0.0, "lat": 38.8991075, "type": "electric_scooter", "lon": -76.93392166666666, "bike_id": "a8adb91f34dd5215bd700da0b833e981", "rental_uris": {"android": "https://dc.lft.to/lastmile_qr_scan", "ios": "https://dc.lft.to/lastmile_qr_scan"}, "name": "a8adb91f34dd5215bd700da0b833e981", "is_reserved": 0}, {"is_disabled": 0, "fusion_lon": 0.0, "fusion_lat": 0.0, "lat": 38.9001575, "type": "electric_scooter", "lon": -77.00472, "bike_id": "2fe9f4c487d5c950d9630dff97a8640e", "rental_uris": {"android": "https://dc.lft.to/lastmile_qr_scan", "ios": "https://dc.lft.to/lastmile_qr_scan"}, "name": "2fe9f4c487d5c950d9630dff97a8640e", "is_reserved": 0}, {"is_disabled": 0, "fusion_lon": 0.0, "fusion_lat": 0.0, "lat": 38.95207516666667, "type": "electric_scooter", "lon": -77.0272895, "bike_id": "76ca3d55be1e733c5c05594c106aadf2", "rental_uris": {"android": "https://dc.lft.to/lastmile_qr_scan", "ios": "https://dc.lft.to/lastmile_qr_scan"}, "name": "76ca3d55be1e733c5c05594c106aadf2", "is_reserved": 0}, {"is_disabled": 0, "fusion_lon": 0.0, "fusion_lat": 0.0, "lat": 38.94274033333333, "type": "electric_scooter", "lon": -77.032574, "bike_id": "c640d7c359df7430a1083d4a4eab5355", "rental_uris": {"android": "https://dc.lft.to/lastmile_qr_scan", "ios": "https://dc.lft.to/lastmile_qr_scan"}, "name": "c640d7c359df7430a1083d4a4eab5355", "is_reserved": 0}, {"is_disabled": 0, "fusion_lon": 0.0, "fusion_lat": 0.0, "lat": 39.030008333333335, "type": "electric_bike", "lon": -77.10650266666667, "bike_id": "fcb4c29eb8378baaa32d35e7f8693684", "rental_uris": {"android": "https://dc.lft.to/lastmile_qr_scan", "ios": "https://dc.lft.to/lastmile_qr_scan"}, "name": "fcb4c29eb8378baaa32d35e7f8693684", "is_reserved": 0}, {"is_disabled": 0, "fusion_lon": 0.0, "fusion_lat": 0.0, "lat": 38.84294383333334, "type": "electric_scooter", "lon": -76.99947833333333, "bike_id": "c2493ae810eae115836e89b366785bb6", "rental_uris": {"android": "https://dc.lft.to/lastmile_qr_scan", "ios": "https://dc.lft.to/lastmile_qr_scan"}, "name": "c2493ae810eae115836e89b366785bb6", "is_reserved": 0}, {"is_disabled": 0, "fusion_lon": 0.0, "fusion_lat": 0.0, "lat": 38.964489, "type": "electric_bike", "lon": -76.97723366666666, "bike_id": "4d53f75e2df4d6a3511bc8c4faa6709d", "rental_uris": {"android": "https://dc.lft.to/lastmile_qr_scan", "ios": "https://dc.lft.to/lastmile_qr_scan"}, "name": "4d53f75e2df4d6a3511bc8c4faa6709d", "is_reserved": 0}, {"is_disabled": 0, "fusion_lon": 0.0, "fusion_lat": 0.0, "lat": 38.9201885, "type": "electric_scooter", "lon": -77.031191, "bike_id": "d590c02fd6cb1d6037f644c6ec3cc72a", "rental_uris": {"android": "https://dc.lft.to/lastmile_qr_scan", "ios": "https://dc.lft.to/lastmile_qr_scan"}, "name": "d590c02fd6cb1d6037f644c6ec3cc72a", "is_reserved": 0}, {"is_disabled": 0, "fusion_lon": 0.0, "fusion_lat": 0.0, "lat": 38.9224895, "type": "electric_scooter", "lon": -77.02971483333333, "bike_id": "dd9e89fa964083b8b13d61537c996bc8", "rental_uris": {"android": "https://dc.lft.to/lastmile_qr_scan", "ios": "https://dc.lft.to/lastmile_qr_scan"}, "name": "dd9e89fa964083b8b13d61537c996bc8", "is_reserved": 0}, {"is_disabled": 0, "fusion_lon": 0.0, "fusion_lat": 0.0, "lat": 38.90855216666667, "type": "electric_scooter", "lon": -77.071575, "bike_id": "063fd8ddbfe2b2eceab7bf6bb02162c0", "rental_uris": {"android": "https://dc.lft.to/lastmile_qr_scan", "ios": "https://dc.lft.to/lastmile_qr_scan"}, "name": "063fd8ddbfe2b2eceab7bf6bb02162c0", "is_reserved": 0}, {"is_disabled": 0, "fusion_lon": 0.0, "fusion_lat": 0.0, "lat": 38.89236966666667, "type": "electric_bike", "lon": -76.95218833333334, "bike_id": "7d560063d836b3be392ba4dcd45861e6", "rental_uris": {"android": "https://dc.lft.to/lastmile_qr_scan", "ios": "https://dc.lft.to/lastmile_qr_scan"}, "name": "7d560063d836b3be392ba4dcd45861e6", "is_reserved": 0}, {"is_disabled": 0, "fusion_lon": 0.0, "fusion_lat": 0.0, "lat": 38.920504, "type": "electric_scooter", "lon": -77.04260783333334, "bike_id": "9d808834555d6869b6efa178a19cc3c3", "rental_uris": {"android": "https://dc.lft.to/lastmile_qr_scan", "ios": "https://dc.lft.to/lastmile_qr_scan"}, "name": "9d808834555d6869b6efa178a19cc3c3", "is_reserved": 0}, {"is_disabled": 0, "fusion_lon": 0.0, "fusion_lat": 0.0, "lat": 38.88745766666667, "type": "electric_scooter", "lon": -77.01535016666666, "bike_id": "0117673830ee0a5533750cea780705d7", "rental_uris": {"android": "https://dc.lft.to/lastmile_qr_scan", "ios": "https://dc.lft.to/lastmile_qr_scan"}, "name": "0117673830ee0a5533750cea780705d7", "is_reserved": 0}, {"is_disabled": 0, "fusion_lon": 0.0, "fusion_lat": 0.0, "lat": 38.9141515, "type": "electric_scooter", "lon": -77.030952, "bike_id": "4a53213ca1bb15cdb75e4e2780329dbb", "rental_uris": {"android": "https://dc.lft.to/lastmile_qr_scan", "ios": "https://dc.lft.to/lastmile_qr_scan"}, "name": "4a53213ca1bb15cdb75e4e2780329dbb", "is_reserved": 0}, {"is_disabled": 0, "fusion_lon": 0.0, "fusion_lat": 0.0, "lat": 38.87288016666667, "type": "electric_scooter", "lon": -76.97726066666667, "bike_id": "ed9503fee5da0c10b0e8334e0561e15f", "rental_uris": {"android": "https://dc.lft.to/lastmile_qr_scan", "ios": "https://dc.lft.to/lastmile_qr_scan"}, "name": "ed9503fee5da0c10b0e8334e0561e15f", "is_reserved": 0}, {"is_disabled": 0, "fusion_lon": 0.0, "fusion_lat": 0.0, "lat": 38.92596366666667, "type": "electric_bike", "lon": -76.88903683333334, "bike_id": "b1bd6fba2d97e5347c75674b001d7597", "rental_uris": {"android": "https://dc.lft.to/lastmile_qr_scan", "ios": "https://dc.lft.to/lastmile_qr_scan"}, "name": "b1bd6fba2d97e5347c75674b001d7597", "is_reserved": 0}, {"is_disabled": 0, "fusion_lon": 0.0, "fusion_lat": 0.0, "lat": 38.824693333333336, "type": "electric_bike", "lon": -77.07078966666667, "bike_id": "3e6028c96ab88cd0e95b98b4ebcd8a4b", "rental_uris": {"android": "https://dc.lft.to/lastmile_qr_scan", "ios": "https://dc.lft.to/lastmile_qr_scan"}, "name": "3e6028c96ab88cd0e95b98b4ebcd8a4b", "is_reserved": 0}, {"is_disabled": 0, "fusion_lon": 0.0, "fusion_lat": 0.0, "lat": 38.93860816666667, "type": "electric_scooter", "lon": -77.0264925, "bike_id": "641deb10c7efeb009bf90e2dab297bca", "rental_uris": {"android": "https://dc.lft.to/lastmile_qr_scan", "ios": "https://dc.lft.to/lastmile_qr_scan"}, "name": "641deb10c7efeb009bf90e2dab297bca", "is_reserved": 0}, {"is_disabled": 0, "fusion_lon": 0.0, "fusion_lat": 0.0, "lat": 38.8946655, "type": "electric_scooter", "lon": -77.0211515, "bike_id": "c41ffeca5f01ee2ba274688546baab4c", "rental_uris": {"android": "https://dc.lft.to/lastmile_qr_scan", "ios": "https://dc.lft.to/lastmile_qr_scan"}, "name": "c41ffeca5f01ee2ba274688546baab4c", "is_reserved": 0}, {"is_disabled": 0, "fusion_lon": 0.0, "fusion_lat": 0.0, "lat": 38.91676983333333, "type": "electric_scooter", "lon": -77.03465683333333, "bike_id": "647f597abfd0fac08668cf825db9d131", "rental_uris": {"android": "https://dc.lft.to/lastmile_qr_scan", "ios": "https://dc.lft.to/lastmile_qr_scan"}, "name": "647f597abfd0fac08668cf825db9d131", "is_reserved": 0}, {"is_disabled": 0, "fusion_lon": 0.0, "fusion_lat": 0.0, "lat": 38.902682, "type": "electric_scooter", "lon": -77.03873716666666, "bike_id": "8a115792a07a148ff64561ed514b3daf", "rental_uris": {"android": "https://dc.lft.to/lastmile_qr_scan", "ios": "https://dc.lft.to/lastmile_qr_scan"}, "name": "8a115792a07a148ff64561ed514b3daf", "is_reserved": 0}, {"is_disabled": 0, "fusion_lon": 0.0, "fusion_lat": 0.0, "lat": 38.89445766666667, "type": "electric_scooter", "lon": -77.02124983333333, "bike_id": "7d6ea8247eabc24cadd8c5bdff4f4446", "rental_uris": {"android": "https://dc.lft.to/lastmile_qr_scan", "ios": "https://dc.lft.to/lastmile_qr_scan"}, "name": "7d6ea8247eabc24cadd8c5bdff4f4446", "is_reserved": 0}, {"is_disabled": 0, "fusion_lon": 0.0, "fusion_lat": 0.0, "lat": 38.92612183333333, "type": "electric_scooter", "lon": -77.02162383333334, "bike_id": "ca15bdea77a1a3de5b34c65f8c993867", "rental_uris": {"android": "https://dc.lft.to/lastmile_qr_scan", "ios": "https://dc.lft.to/lastmile_qr_scan"}, "name": "ca15bdea77a1a3de5b34c65f8c993867", "is_reserved": 0}, {"is_disabled": 0, "fusion_lon": 0.0, "fusion_lat": 0.0, "lat": 38.9198525, "type": "electric_scooter", "lon": -76.9731405, "bike_id": "9e66fc3e666f25541bcc5816647b3d15", "rental_uris": {"android": "https://dc.lft.to/lastmile_qr_scan", "ios": "https://dc.lft.to/lastmile_qr_scan"}, "name": "9e66fc3e666f25541bcc5816647b3d15", "is_reserved": 0}, {"is_disabled": 0, "fusion_lon": 0.0, "fusion_lat": 0.0, "lat": 38.92027433333333, "type": "electric_scooter", "lon": -77.03123233333334, "bike_id": "6bd371732b9a5cf5e2ce719ceab4daa9", "rental_uris": {"android": "https://dc.lft.to/lastmile_qr_scan", "ios": "https://dc.lft.to/lastmile_qr_scan"}, "name": "6bd371732b9a5cf5e2ce719ceab4daa9", "is_reserved": 0}, {"is_disabled": 0, "fusion_lon": 0.0, "fusion_lat": 0.0, "lat": 38.89371466666667, "type": "electric_scooter", "lon": -76.978165, "bike_id": "991aa6bdb3d742dc521e0345c272d2d2", "rental_uris": {"android": "https://dc.lft.to/lastmile_qr_scan", "ios": "https://dc.lft.to/lastmile_qr_scan"}, "name": "991aa6bdb3d742dc521e0345c272d2d2", "is_reserved": 0}, {"is_disabled": 0, "fusion_lon": 0.0, "fusion_lat": 0.0, "lat": 38.89836116666667, "type": "electric_scooter", "lon": -77.02802133333333, "bike_id": "66760e1a2829873eef14823d536a7063", "rental_uris": {"android": "https://dc.lft.to/lastmile_qr_scan", "ios": "https://dc.lft.to/lastmile_qr_scan"}, "name": "66760e1a2829873eef14823d536a7063", "is_reserved": 0}, {"is_disabled": 0, "fusion_lon": 0.0, "fusion_lat": 0.0, "lat": 38.89527116666667, "type": "electric_scooter", "lon": -77.0020855, "bike_id": "ce80519d01d45cc495031014f48ddf04", "rental_uris": {"android": "https://dc.lft.to/lastmile_qr_scan", "ios": "https://dc.lft.to/lastmile_qr_scan"}, "name": "ce80519d01d45cc495031014f48ddf04", "is_reserved": 0}, {"is_disabled": 0, "fusion_lon": 0.0, "fusion_lat": 0.0, "lat": 38.960288, "type": "electric_bike", "lon": -76.92728983333333, "bike_id": "58362ebf3792e6ffdb870533f432b688", "rental_uris": {"android": "https://dc.lft.to/lastmile_qr_scan", "ios": "https://dc.lft.to/lastmile_qr_scan"}, "name": "58362ebf3792e6ffdb870533f432b688", "is_reserved": 0}, {"is_disabled": 0, "fusion_lon": 0.0, "fusion_lat": 0.0, "lat": 38.9085195, "type": "electric_scooter", "lon": -77.06342816666667, "bike_id": "147c4958fba924570904a6b0090be376", "rental_uris": {"android": "https://dc.lft.to/lastmile_qr_scan", "ios": "https://dc.lft.to/lastmile_qr_scan"}, "name": "147c4958fba924570904a6b0090be376", "is_reserved": 0}, {"is_disabled": 0, "fusion_lon": 0.0, "fusion_lat": 0.0, "lat": 38.972498, "type": "electric_bike", "lon": -76.9927145, "bike_id": "ee826c88ef9278b8ac8b4c6fa2079afd", "rental_uris": {"android": "https://dc.lft.to/lastmile_qr_scan", "ios": "https://dc.lft.to/lastmile_qr_scan"}, "name": "ee826c88ef9278b8ac8b4c6fa2079afd", "is_reserved": 0}, {"is_disabled": 0, "fusion_lon": 0.0, "fusion_lat": 0.0, "lat": 38.924387333333335, "type": "electric_scooter", "lon": -77.0520685, "bike_id": "ef542291ca73edd99ecf6bd2477fe6f9", "rental_uris": {"android": "https://dc.lft.to/lastmile_qr_scan", "ios": "https://dc.lft.to/lastmile_qr_scan"}, "name": "ef542291ca73edd99ecf6bd2477fe6f9", "is_reserved": 0}, {"is_disabled": 0, "fusion_lon": 0.0, "fusion_lat": 0.0, "lat": 38.858699666666666, "type": "electric_scooter", "lon": -76.99023516666666, "bike_id": "4c5334996ec895afbfb4b55a116992af", "rental_uris": {"android": "https://dc.lft.to/lastmile_qr_scan", "ios": "https://dc.lft.to/lastmile_qr_scan"}, "name": "4c5334996ec895afbfb4b55a116992af", "is_reserved": 0}, {"is_disabled": 0, "fusion_lon": 0.0, "fusion_lat": 0.0, "lat": 38.924403, "type": "electric_bike", "lon": -76.907563, "bike_id": "68ec2f5422eccc8a728cda9b67974467", "rental_uris": {"android": "https://dc.lft.to/lastmile_qr_scan", "ios": "https://dc.lft.to/lastmile_qr_scan"}, "name": "68ec2f5422eccc8a728cda9b67974467", "is_reserved": 0}, {"is_disabled": 0, "fusion_lon": 0.0, "fusion_lat": 0.0, "lat": 38.90933666666667, "type": "electric_scooter", "lon": -77.028108, "bike_id": "29cb33f9966b4e5df530b2f375d79d8d", "rental_uris": {"android": "https://dc.lft.to/lastmile_qr_scan", "ios": "https://dc.lft.to/lastmile_qr_scan"}, "name": "29cb33f9966b4e5df530b2f375d79d8d", "is_reserved": 0}, {"is_disabled": 0, "fusion_lon": 0.0, "fusion_lat": 0.0, "lat": 38.88919933333333, "type": "electric_scooter", "lon": -76.98008433333334, "bike_id": "6598253da7b946d11fa460c9bd7a762c", "rental_uris": {"android": "https://dc.lft.to/lastmile_qr_scan", "ios": "https://dc.lft.to/lastmile_qr_scan"}, "name": "6598253da7b946d11fa460c9bd7a762c", "is_reserved": 0}, {"is_disabled": 0, "fusion_lon": 0.0, "fusion_lat": 0.0, "lat": 38.91702383333333, "type": "electric_scooter", "lon": -77.024869, "bike_id": "a4136001aa084f70aff5782018c156c5", "rental_uris": {"android": "https://dc.lft.to/lastmile_qr_scan", "ios": "https://dc.lft.to/lastmile_qr_scan"}, "name": "a4136001aa084f70aff5782018c156c5", "is_reserved": 0}, {"is_disabled": 0, "fusion_lon": 0.0, "fusion_lat": 0.0, "lat": 38.904208833333335, "type": "electric_scooter", "lon": -77.06889816666667, "bike_id": "2a3f3dffe6dca6cdab53812d88ab87ef", "rental_uris": {"android": "https://dc.lft.to/lastmile_qr_scan", "ios": "https://dc.lft.to/lastmile_qr_scan"}, "name": "2a3f3dffe6dca6cdab53812d88ab87ef", "is_reserved": 0}, {"is_disabled": 0, "fusion_lon": 0.0, "fusion_lat": 0.0, "lat": 38.905889333333334, "type": "electric_scooter", "lon": -77.06909783333333, "bike_id": "4e7c876da7f6e6b9ee0e702b91824683", "rental_uris": {"android": "https://dc.lft.to/lastmile_qr_scan", "ios": "https://dc.lft.to/lastmile_qr_scan"}, "name": "4e7c876da7f6e6b9ee0e702b91824683", "is_reserved": 0}, {"is_disabled": 0, "fusion_lon": 0.0, "fusion_lat": 0.0, "lat": 38.9157, "type": "electric_scooter", "lon": -77.00207466666667, "bike_id": "714b8962ed724573bf8364b931c8e41c", "rental_uris": {"android": "https://dc.lft.to/lastmile_qr_scan", "ios": "https://dc.lft.to/lastmile_qr_scan"}, "name": "714b8962ed724573bf8364b931c8e41c", "is_reserved": 0}, {"is_disabled": 0, "fusion_lon": 0.0, "fusion_lat": 0.0, "lat": 38.90796733333333, "type": "electric_scooter", "lon": -77.00149083333334, "bike_id": "f5abbbc8179cc52896bfa99ba762b3d6", "rental_uris": {"android": "https://dc.lft.to/lastmile_qr_scan", "ios": "https://dc.lft.to/lastmile_qr_scan"}, "name": "f5abbbc8179cc52896bfa99ba762b3d6", "is_reserved": 0}, {"is_disabled": 0, "fusion_lon": 0.0, "fusion_lat": 0.0, "lat": 38.961935, "type": "electric_scooter", "lon": -77.0277805, "bike_id": "2c5d9d451e37cef2aad762dfd2dc9d9d", "rental_uris": {"android": "https://dc.lft.to/lastmile_qr_scan", "ios": "https://dc.lft.to/lastmile_qr_scan"}, "name": "2c5d9d451e37cef2aad762dfd2dc9d9d", "is_reserved": 0}, {"is_disabled": 0, "fusion_lon": 0.0, "fusion_lat": 0.0, "lat": 38.871953, "type": "electric_scooter", "lon": -76.978259, "bike_id": "ef142dbc87f3a53992a38038acee9551", "rental_uris": {"android": "https://dc.lft.to/lastmile_qr_scan", "ios": "https://dc.lft.to/lastmile_qr_scan"}, "name": "ef142dbc87f3a53992a38038acee9551", "is_reserved": 0}, {"is_disabled": 0, "fusion_lon": 0.0, "fusion_lat": 0.0, "lat": 38.895666166666665, "type": "electric_scooter", "lon": -77.02571416666666, "bike_id": "bf405e0dc2419dad3aa6e41674dfff1e", "rental_uris": {"android": "https://dc.lft.to/lastmile_qr_scan", "ios": "https://dc.lft.to/lastmile_qr_scan"}, "name": "bf405e0dc2419dad3aa6e41674dfff1e", "is_reserved": 0}, {"is_disabled": 0, "fusion_lon": 0.0, "fusion_lat": 0.0, "lat": 38.918263, "type": "electric_scooter", "lon": -77.04512533333333, "bike_id": "a75f9015db731e1fbd41c084d216482f", "rental_uris": {"android": "https://dc.lft.to/lastmile_qr_scan", "ios": "https://dc.lft.to/lastmile_qr_scan"}, "name": "a75f9015db731e1fbd41c084d216482f", "is_reserved": 0}, {"is_disabled": 0, "fusion_lon": 0.0, "fusion_lat": 0.0, "lat": 38.915747833333334, "type": "electric_scooter", "lon": -77.03180133333333, "bike_id": "0f1bff069bf95a8207b692672064d063", "rental_uris": {"android": "https://dc.lft.to/lastmile_qr_scan", "ios": "https://dc.lft.to/lastmile_qr_scan"}, "name": "0f1bff069bf95a8207b692672064d063", "is_reserved": 0}, {"is_disabled": 0, "fusion_lon": 0.0, "fusion_lat": 0.0, "lat": 39.0001895, "type": "electric_bike", "lon": -76.87283566666666, "bike_id": "144e9dceaede76b01bf4b71fbb6eed4c", "rental_uris": {"android": "https://dc.lft.to/lastmile_qr_scan", "ios": "https://dc.lft.to/lastmile_qr_scan"}, "name": "144e9dceaede76b01bf4b71fbb6eed4c", "is_reserved": 0}, {"is_disabled": 0, "fusion_lon": 0.0, "fusion_lat": 0.0, "lat": 38.898019166666664, "type": "electric_scooter", "lon": -77.02932933333334, "bike_id": "bc117a289e9008b28cd2afa2b15ac3bc", "rental_uris": {"android": "https://dc.lft.to/lastmile_qr_scan", "ios": "https://dc.lft.to/lastmile_qr_scan"}, "name": "bc117a289e9008b28cd2afa2b15ac3bc", "is_reserved": 0}, {"is_disabled": 0, "fusion_lon": 0.0, "fusion_lat": 0.0, "lat": 38.828734833333336, "type": "electric_bike", "lon": -77.11221216666667, "bike_id": "d97d0c4954a2809345850baa8f47ca88", "rental_uris": {"android": "https://dc.lft.to/lastmile_qr_scan", "ios": "https://dc.lft.to/lastmile_qr_scan"}, "name": "d97d0c4954a2809345850baa8f47ca88", "is_reserved": 0}, {"is_disabled": 0, "fusion_lon": 0.0, "fusion_lat": 0.0, "lat": 38.90973066666667, "type": "electric_scooter", "lon": -77.01104, "bike_id": "a5e8099239a0edc52e1c13b46b1aff0e", "rental_uris": {"android": "https://dc.lft.to/lastmile_qr_scan", "ios": "https://dc.lft.to/lastmile_qr_scan"}, "name": "a5e8099239a0edc52e1c13b46b1aff0e", "is_reserved": 0}, {"is_disabled": 0, "fusion_lon": 0.0, "fusion_lat": 0.0, "lat": 38.8997825, "type": "electric_scooter", "lon": -77.0193855, "bike_id": "265aa229a5d4b696ebc4a940fe9e8b3b", "rental_uris": {"android": "https://dc.lft.to/lastmile_qr_scan", "ios": "https://dc.lft.to/lastmile_qr_scan"}, "name": "265aa229a5d4b696ebc4a940fe9e8b3b", "is_reserved": 0}, {"is_disabled": 0, "fusion_lon": 0.0, "fusion_lat": 0.0, "lat": 38.912517, "type": "electric_scooter", "lon": -77.02232966666666, "bike_id": "18e1dfda9aa54715836d9f6dafdb616a", "rental_uris": {"android": "https://dc.lft.to/lastmile_qr_scan", "ios": "https://dc.lft.to/lastmile_qr_scan"}, "name": "18e1dfda9aa54715836d9f6dafdb616a", "is_reserved": 0}, {"is_disabled": 0, "fusion_lon": 0.0, "fusion_lat": 0.0, "lat": 38.910360833333336, "type": "electric_scooter", "lon": -77.04262866666667, "bike_id": "8bd0ace416f647c94ab6c3474c762bbc", "rental_uris": {"android": "https://dc.lft.to/lastmile_qr_scan", "ios": "https://dc.lft.to/lastmile_qr_scan"}, "name": "8bd0ace416f647c94ab6c3474c762bbc", "is_reserved": 0}, {"is_disabled": 0, "fusion_lon": 0.0, "fusion_lat": 0.0, "lat": 38.90012483333334, "type": "electric_scooter", "lon": -76.99968233333334, "bike_id": "7dd9e81b4681e9bf66ffb484e5529820", "rental_uris": {"android": "https://dc.lft.to/lastmile_qr_scan", "ios": "https://dc.lft.to/lastmile_qr_scan"}, "name": "7dd9e81b4681e9bf66ffb484e5529820", "is_reserved": 0}, {"is_disabled": 0, "fusion_lon": 0.0, "fusion_lat": 0.0, "lat": 38.839363166666665, "type": "electric_bike", "lon": -77.07899516666667, "bike_id": "d8fec8a55f35d952367bd3b5c23589df", "rental_uris": {"android": "https://dc.lft.to/lastmile_qr_scan", "ios": "https://dc.lft.to/lastmile_qr_scan"}, "name": "d8fec8a55f35d952367bd3b5c23589df", "is_reserved": 0}, {"is_disabled": 0, "fusion_lon": 0.0, "fusion_lat": 0.0, "lat": 38.913459333333336, "type": "electric_scooter", "lon": -77.04156866666666, "bike_id": "ffc64e6c92910a47d592b332ea69f2aa", "rental_uris": {"android": "https://dc.lft.to/lastmile_qr_scan", "ios": "https://dc.lft.to/lastmile_qr_scan"}, "name": "ffc64e6c92910a47d592b332ea69f2aa", "is_reserved": 0}, {"is_disabled": 0, "fusion_lon": 0.0, "fusion_lat": 0.0, "lat": 38.893443166666664, "type": "electric_scooter", "lon": -77.01202266666667, "bike_id": "80c08c2377d8cc325b6c411c9c7d1f58", "rental_uris": {"android": "https://dc.lft.to/lastmile_qr_scan", "ios": "https://dc.lft.to/lastmile_qr_scan"}, "name": "80c08c2377d8cc325b6c411c9c7d1f58", "is_reserved": 0}, {"is_disabled": 0, "fusion_lon": 0.0, "fusion_lat": 0.0, "lat": 38.899663, "type": "electric_scooter", "lon": -77.01608033333333, "bike_id": "c316f53d69de1123aa8f8be27c486965", "rental_uris": {"android": "https://dc.lft.to/lastmile_qr_scan", "ios": "https://dc.lft.to/lastmile_qr_scan"}, "name": "c316f53d69de1123aa8f8be27c486965", "is_reserved": 0}, {"is_disabled": 0, "fusion_lon": 0.0, "fusion_lat": 0.0, "lat": 38.813305, "type": "electric_bike", "lon": -77.05080066666666, "bike_id": "c436be68dc11f0f5c313ba3656dad471", "rental_uris": {"android": "https://dc.lft.to/lastmile_qr_scan", "ios": "https://dc.lft.to/lastmile_qr_scan"}, "name": "c436be68dc11f0f5c313ba3656dad471", "is_reserved": 0}, {"is_disabled": 0, "fusion_lon": 0.0, "fusion_lat": 0.0, "lat": 38.972628, "type": "electric_bike", "lon": -76.9916955, "bike_id": "063f12fdac927caaf192d14c14a865ad", "rental_uris": {"android": "https://dc.lft.to/lastmile_qr_scan", "ios": "https://dc.lft.to/lastmile_qr_scan"}, "name": "063f12fdac927caaf192d14c14a865ad", "is_reserved": 0}, {"is_disabled": 0, "fusion_lon": 0.0, "fusion_lat": 0.0, "lat": 38.89625183333333, "type": "electric_scooter", "lon": -77.009173, "bike_id": "825d91728f4e4793a5abbba66a344c69", "rental_uris": {"android": "https://dc.lft.to/lastmile_qr_scan", "ios": "https://dc.lft.to/lastmile_qr_scan"}, "name": "825d91728f4e4793a5abbba66a344c69", "is_reserved": 0}, {"is_disabled": 0, "fusion_lon": 0.0, "fusion_lat": 0.0, "lat": 38.91916066666667, "type": "electric_scooter", "lon": -77.03587966666667, "bike_id": "896ad70e2749f36f6ed4a1492e2940bc", "rental_uris": {"android": "https://dc.lft.to/lastmile_qr_scan", "ios": "https://dc.lft.to/lastmile_qr_scan"}, "name": "896ad70e2749f36f6ed4a1492e2940bc", "is_reserved": 0}, {"is_disabled": 0, "fusion_lon": 0.0, "fusion_lat": 0.0, "lat": 38.89434283333333, "type": "electric_scooter", "lon": -77.010934, "bike_id": "4d54ed64e14a49c4add6cade82d88f5d", "rental_uris": {"android": "https://dc.lft.to/lastmile_qr_scan", "ios": "https://dc.lft.to/lastmile_qr_scan"}, "name": "4d54ed64e14a49c4add6cade82d88f5d", "is_reserved": 0}, {"is_disabled": 0, "fusion_lon": 0.0, "fusion_lat": 0.0, "lat": 38.92034116666667, "type": "electric_scooter", "lon": -77.01286333333333, "bike_id": "a7093b26c701a7ecdba8eb192ae8a488", "rental_uris": {"android": "https://dc.lft.to/lastmile_qr_scan", "ios": "https://dc.lft.to/lastmile_qr_scan"}, "name": "a7093b26c701a7ecdba8eb192ae8a488", "is_reserved": 0}, {"is_disabled": 0, "fusion_lon": 0.0, "fusion_lat": 0.0, "lat": 38.9612885, "type": "electric_scooter", "lon": -77.02822283333333, "bike_id": "50b0fd09744956a03cef042f0c49dcf9", "rental_uris": {"android": "https://dc.lft.to/lastmile_qr_scan", "ios": "https://dc.lft.to/lastmile_qr_scan"}, "name": "50b0fd09744956a03cef042f0c49dcf9", "is_reserved": 0}, {"is_disabled": 0, "fusion_lon": 0.0, "fusion_lat": 0.0, "lat": 38.92050066666667, "type": "electric_scooter", "lon": -77.0245365, "bike_id": "afbc3e3e1bb2129f40226a7ed19e5eb2", "rental_uris": {"android": "https://dc.lft.to/lastmile_qr_scan", "ios": "https://dc.lft.to/lastmile_qr_scan"}, "name": "afbc3e3e1bb2129f40226a7ed19e5eb2", "is_reserved": 0}, {"is_disabled": 0, "fusion_lon": 0.0, "fusion_lat": 0.0, "lat": 38.934099, "type": "electric_scooter", "lon": -77.03265683333333, "bike_id": "2f0771668fd7a1cbf04a821c572e7521", "rental_uris": {"android": "https://dc.lft.to/lastmile_qr_scan", "ios": "https://dc.lft.to/lastmile_qr_scan"}, "name": "2f0771668fd7a1cbf04a821c572e7521", "is_reserved": 0}, {"is_disabled": 0, "fusion_lon": 0.0, "fusion_lat": 0.0, "lat": 38.85839433333334, "type": "electric_scooter", "lon": -76.99060883333334, "bike_id": "26d38db4c2059a87b5f811ba19c449bd", "rental_uris": {"android": "https://dc.lft.to/lastmile_qr_scan", "ios": "https://dc.lft.to/lastmile_qr_scan"}, "name": "26d38db4c2059a87b5f811ba19c449bd", "is_reserved": 0}, {"is_disabled": 0, "fusion_lon": 0.0, "fusion_lat": 0.0, "lat": 38.94982016666667, "type": "electric_scooter", "lon": -77.027018, "bike_id": "3cd81d401799ec42c41681cba5850707", "rental_uris": {"android": "https://dc.lft.to/lastmile_qr_scan", "ios": "https://dc.lft.to/lastmile_qr_scan"}, "name": "3cd81d401799ec42c41681cba5850707", "is_reserved": 0}, {"is_disabled": 0, "fusion_lon": 0.0, "fusion_lat": 0.0, "lat": 38.962188166666664, "type": "electric_scooter", "lon": -77.027984, "bike_id": "c28d8181ecebfa8b71299432685db8ca", "rental_uris": {"android": "https://dc.lft.to/lastmile_qr_scan", "ios": "https://dc.lft.to/lastmile_qr_scan"}, "name": "c28d8181ecebfa8b71299432685db8ca", "is_reserved": 0}, {"is_disabled": 0, "fusion_lon": 0.0, "fusion_lat": 0.0, "lat": 38.908982, "type": "electric_scooter", "lon": -77.0259815, "bike_id": "4df2c7eb7793fca9b3624016005851a5", "rental_uris": {"android": "https://dc.lft.to/lastmile_qr_scan", "ios": "https://dc.lft.to/lastmile_qr_scan"}, "name": "4df2c7eb7793fca9b3624016005851a5", "is_reserved": 0}, {"is_disabled": 0, "fusion_lon": 0.0, "fusion_lat": 0.0, "lat": 38.89500533333333, "type": "electric_scooter", "lon": -77.02278916666667, "bike_id": "863d335032f23ccb1c99a1b37b41ecf9", "rental_uris": {"android": "https://dc.lft.to/lastmile_qr_scan", "ios": "https://dc.lft.to/lastmile_qr_scan"}, "name": "863d335032f23ccb1c99a1b37b41ecf9", "is_reserved": 0}, {"is_disabled": 0, "fusion_lon": 0.0, "fusion_lat": 0.0, "lat": 38.86520266666667, "type": "electric_scooter", "lon": -76.97332816666666, "bike_id": "e4b049f2f5f3737b0632b31f8fa3a075", "rental_uris": {"android": "https://dc.lft.to/lastmile_qr_scan", "ios": "https://dc.lft.to/lastmile_qr_scan"}, "name": "e4b049f2f5f3737b0632b31f8fa3a075", "is_reserved": 0}, {"is_disabled": 0, "fusion_lon": 0.0, "fusion_lat": 0.0, "lat": 38.8604365, "type": "electric_scooter", "lon": -76.9837305, "bike_id": "56b5f46d3f7fbc35d4cbe5784cf25b2a", "rental_uris": {"android": "https://dc.lft.to/lastmile_qr_scan", "ios": "https://dc.lft.to/lastmile_qr_scan"}, "name": "56b5f46d3f7fbc35d4cbe5784cf25b2a", "is_reserved": 0}, {"is_disabled": 0, "fusion_lon": 0.0, "fusion_lat": 0.0, "lat": 38.91877266666667, "type": "electric_scooter", "lon": -77.02486383333333, "bike_id": "727b3f47f13957a6437e1ab2f57db74e", "rental_uris": {"android": "https://dc.lft.to/lastmile_qr_scan", "ios": "https://dc.lft.to/lastmile_qr_scan"}, "name": "727b3f47f13957a6437e1ab2f57db74e", "is_reserved": 0}, {"is_disabled": 0, "fusion_lon": 0.0, "fusion_lat": 0.0, "lat": 38.935108666666665, "type": "electric_scooter", "lon": -77.08223333333333, "bike_id": "09dbc85868a7efd6cf787ed9de38e0b4", "rental_uris": {"android": "https://dc.lft.to/lastmile_qr_scan", "ios": "https://dc.lft.to/lastmile_qr_scan"}, "name": "09dbc85868a7efd6cf787ed9de38e0b4", "is_reserved": 0}, {"is_disabled": 0, "fusion_lon": 0.0, "fusion_lat": 0.0, "lat": 38.844345, "type": "electric_scooter", "lon": -76.99785166666666, "bike_id": "bbb21807cc530a4816252522ba07ce84", "rental_uris": {"android": "https://dc.lft.to/lastmile_qr_scan", "ios": "https://dc.lft.to/lastmile_qr_scan"}, "name": "bbb21807cc530a4816252522ba07ce84", "is_reserved": 0}, {"is_disabled": 0, "fusion_lon": 0.0, "fusion_lat": 0.0, "lat": 38.92791733333333, "type": "electric_scooter", "lon": -77.0254845, "bike_id": "a6185aede7966f17a72b35f6e41ef7b6", "rental_uris": {"android": "https://dc.lft.to/lastmile_qr_scan", "ios": "https://dc.lft.to/lastmile_qr_scan"}, "name": "a6185aede7966f17a72b35f6e41ef7b6", "is_reserved": 0}, {"is_disabled": 0, "fusion_lon": 0.0, "fusion_lat": 0.0, "lat": 38.8810955, "type": "electric_scooter", "lon": -77.02646616666667, "bike_id": "20ec074c7211251a971c8343f529d46e", "rental_uris": {"android": "https://dc.lft.to/lastmile_qr_scan", "ios": "https://dc.lft.to/lastmile_qr_scan"}, "name": "20ec074c7211251a971c8343f529d46e", "is_reserved": 0}, {"is_disabled": 0, "fusion_lon": 0.0, "fusion_lat": 0.0, "lat": 38.928577833333335, "type": "electric_scooter", "lon": -77.01416366666666, "bike_id": "dec0908165b7fb10aa4453b214e5d910", "rental_uris": {"android": "https://dc.lft.to/lastmile_qr_scan", "ios": "https://dc.lft.to/lastmile_qr_scan"}, "name": "dec0908165b7fb10aa4453b214e5d910", "is_reserved": 0}, {"is_disabled": 0, "fusion_lon": 0.0, "fusion_lat": 0.0, "lat": 38.92307366666667, "type": "electric_scooter", "lon": -77.047397, "bike_id": "49714a1bca2f83b4f240d5486e26a85a", "rental_uris": {"android": "https://dc.lft.to/lastmile_qr_scan", "ios": "https://dc.lft.to/lastmile_qr_scan"}, "name": "49714a1bca2f83b4f240d5486e26a85a", "is_reserved": 0}, {"is_disabled": 0, "fusion_lon": 0.0, "fusion_lat": 0.0, "lat": 38.88136566666667, "type": "electric_scooter", "lon": -77.027141, "bike_id": "981396b75c3baa71a5a8fe5877af4d12", "rental_uris": {"android": "https://dc.lft.to/lastmile_qr_scan", "ios": "https://dc.lft.to/lastmile_qr_scan"}, "name": "981396b75c3baa71a5a8fe5877af4d12", "is_reserved": 0}, {"is_disabled": 0, "fusion_lon": 0.0, "fusion_lat": 0.0, "lat": 38.88691083333333, "type": "electric_scooter", "lon": -77.01367083333334, "bike_id": "760c85fd7f0475d7f04bb84f0dd55d17", "rental_uris": {"android": "https://dc.lft.to/lastmile_qr_scan", "ios": "https://dc.lft.to/lastmile_qr_scan"}, "name": "760c85fd7f0475d7f04bb84f0dd55d17", "is_reserved": 0}, {"is_disabled": 0, "fusion_lon": 0.0, "fusion_lat": 0.0, "lat": 38.911162166666664, "type": "electric_scooter", "lon": -76.9977145, "bike_id": "e35eabd3a7994c92959d34253ad15ee6", "rental_uris": {"android": "https://dc.lft.to/lastmile_qr_scan", "ios": "https://dc.lft.to/lastmile_qr_scan"}, "name": "e35eabd3a7994c92959d34253ad15ee6", "is_reserved": 0}, {"is_disabled": 0, "fusion_lon": 0.0, "fusion_lat": 0.0, "lat": 38.96646166666667, "type": "electric_bike", "lon": -76.93019166666667, "bike_id": "d4bc97cb314f60d99eb4080bf5571b2c", "rental_uris": {"android": "https://dc.lft.to/lastmile_qr_scan", "ios": "https://dc.lft.to/lastmile_qr_scan"}, "name": "d4bc97cb314f60d99eb4080bf5571b2c", "is_reserved": 0}, {"is_disabled": 0, "fusion_lon": 0.0, "fusion_lat": 0.0, "lat": 38.91415666666666, "type": "electric_scooter", "lon": -77.02212233333333, "bike_id": "199051f952b19eb09021a352808c0100", "rental_uris": {"android": "https://dc.lft.to/lastmile_qr_scan", "ios": "https://dc.lft.to/lastmile_qr_scan"}, "name": "199051f952b19eb09021a352808c0100", "is_reserved": 0}, {"is_disabled": 0, "fusion_lon": 0.0, "fusion_lat": 0.0, "lat": 38.88816683333334, "type": "electric_scooter", "lon": -77.0149455, "bike_id": "3b703d2a0e161c6f18e96d95e3426af0", "rental_uris": {"android": "https://dc.lft.to/lastmile_qr_scan", "ios": "https://dc.lft.to/lastmile_qr_scan"}, "name": "3b703d2a0e161c6f18e96d95e3426af0", "is_reserved": 0}, {"is_disabled": 0, "fusion_lon": 0.0, "fusion_lat": 0.0, "lat": 38.921022666666666, "type": "electric_scooter", "lon": -77.043696, "bike_id": "010ec7c55e9a4ca82f8aad579330ea31", "rental_uris": {"android": "https://dc.lft.to/lastmile_qr_scan", "ios": "https://dc.lft.to/lastmile_qr_scan"}, "name": "010ec7c55e9a4ca82f8aad579330ea31", "is_reserved": 0}, {"is_disabled": 0, "fusion_lon": 0.0, "fusion_lat": 0.0, "lat": 38.902684666666666, "type": "electric_scooter", "lon": -77.03434933333334, "bike_id": "6b19cc4298c4a9536a66949d135334e7", "rental_uris": {"android": "https://dc.lft.to/lastmile_qr_scan", "ios": "https://dc.lft.to/lastmile_qr_scan"}, "name": "6b19cc4298c4a9536a66949d135334e7", "is_reserved": 0}, {"is_disabled": 0, "fusion_lon": 0.0, "fusion_lat": 0.0, "lat": 38.984760333333334, "type": "electric_scooter", "lon": -77.02647033333334, "bike_id": "00cbc2c19b2a2c2851a169c2acd7835a", "rental_uris": {"android": "https://dc.lft.to/lastmile_qr_scan", "ios": "https://dc.lft.to/lastmile_qr_scan"}, "name": "00cbc2c19b2a2c2851a169c2acd7835a", "is_reserved": 0}, {"is_disabled": 0, "fusion_lon": 0.0, "fusion_lat": 0.0, "lat": 38.90635733333333, "type": "electric_scooter", "lon": -77.0513695, "bike_id": "c869b7416706280092790e49787a7953", "rental_uris": {"android": "https://dc.lft.to/lastmile_qr_scan", "ios": "https://dc.lft.to/lastmile_qr_scan"}, "name": "c869b7416706280092790e49787a7953", "is_reserved": 0}, {"is_disabled": 0, "fusion_lon": 0.0, "fusion_lat": 0.0, "lat": 38.930071833333336, "type": "electric_scooter", "lon": -77.03271, "bike_id": "00e7fc39cecf52cc3d63a686c871900f", "rental_uris": {"android": "https://dc.lft.to/lastmile_qr_scan", "ios": "https://dc.lft.to/lastmile_qr_scan"}, "name": "00e7fc39cecf52cc3d63a686c871900f", "is_reserved": 0}, {"is_disabled": 0, "fusion_lon": 0.0, "fusion_lat": 0.0, "lat": 38.943755, "type": "electric_scooter", "lon": -77.0774475, "bike_id": "4709b85afc0753dcf8bd85f2cf0468b5", "rental_uris": {"android": "https://dc.lft.to/lastmile_qr_scan", "ios": "https://dc.lft.to/lastmile_qr_scan"}, "name": "4709b85afc0753dcf8bd85f2cf0468b5", "is_reserved": 0}, {"is_disabled": 0, "fusion_lon": 0.0, "fusion_lat": 0.0, "lat": 38.911551333333335, "type": "electric_scooter", "lon": -77.08790383333333, "bike_id": "fbea1da644ce4e15f37715a76b2be04f", "rental_uris": {"android": "https://dc.lft.to/lastmile_qr_scan", "ios": "https://dc.lft.to/lastmile_qr_scan"}, "name": "fbea1da644ce4e15f37715a76b2be04f", "is_reserved": 0}, {"is_disabled": 0, "fusion_lon": 0.0, "fusion_lat": 0.0, "lat": 38.92109166666667, "type": "electric_scooter", "lon": -77.03120133333333, "bike_id": "cd9faded2ee90e6e2741f0d0014e501b", "rental_uris": {"android": "https://dc.lft.to/lastmile_qr_scan", "ios": "https://dc.lft.to/lastmile_qr_scan"}, "name": "cd9faded2ee90e6e2741f0d0014e501b", "is_reserved": 0}, {"is_disabled": 0, "fusion_lon": 0.0, "fusion_lat": 0.0, "lat": 38.938203, "type": "electric_scooter", "lon": -76.99048566666667, "bike_id": "7821d06914cc32288bc3f8e297d66d3a", "rental_uris": {"android": "https://dc.lft.to/lastmile_qr_scan", "ios": "https://dc.lft.to/lastmile_qr_scan"}, "name": "7821d06914cc32288bc3f8e297d66d3a", "is_reserved": 0}, {"is_disabled": 0, "fusion_lon": 0.0, "fusion_lat": 0.0, "lat": 38.9038075, "type": "electric_scooter", "lon": -77.0434525, "bike_id": "f1bd0f530258a33a4653240aa0d1a628", "rental_uris": {"android": "https://dc.lft.to/lastmile_qr_scan", "ios": "https://dc.lft.to/lastmile_qr_scan"}, "name": "f1bd0f530258a33a4653240aa0d1a628", "is_reserved": 0}, {"is_disabled": 0, "fusion_lon": 0.0, "fusion_lat": 0.0, "lat": 38.93254833333334, "type": "electric_scooter", "lon": -77.03262966666667, "bike_id": "05d0a20abe5dc126923d26761327a1b9", "rental_uris": {"android": "https://dc.lft.to/lastmile_qr_scan", "ios": "https://dc.lft.to/lastmile_qr_scan"}, "name": "05d0a20abe5dc126923d26761327a1b9", "is_reserved": 0}, {"is_disabled": 0, "fusion_lon": 0.0, "fusion_lat": 0.0, "lat": 38.90560833333333, "type": "electric_scooter", "lon": -77.00556433333334, "bike_id": "a36d0af7bfd87c6cc2ad55259e4a860b", "rental_uris": {"android": "https://dc.lft.to/lastmile_qr_scan", "ios": "https://dc.lft.to/lastmile_qr_scan"}, "name": "a36d0af7bfd87c6cc2ad55259e4a860b", "is_reserved": 0}, {"is_disabled": 0, "fusion_lon": 0.0, "fusion_lat": 0.0, "lat": 38.879844166666665, "type": "electric_bike", "lon": -76.91597266666666, "bike_id": "1caf89741592d2dbba4f7dd708d7e6d0", "rental_uris": {"android": "https://dc.lft.to/lastmile_qr_scan", "ios": "https://dc.lft.to/lastmile_qr_scan"}, "name": "1caf89741592d2dbba4f7dd708d7e6d0", "is_reserved": 0}, {"is_disabled": 0, "fusion_lon": 0.0, "fusion_lat": 0.0, "lat": 38.92509883333334, "type": "electric_scooter", "lon": -77.03880133333334, "bike_id": "98b5ffabc06c96e89ff1f10c9dad6a18", "rental_uris": {"android": "https://dc.lft.to/lastmile_qr_scan", "ios": "https://dc.lft.to/lastmile_qr_scan"}, "name": "98b5ffabc06c96e89ff1f10c9dad6a18", "is_reserved": 0}, {"is_disabled": 0, "fusion_lon": 0.0, "fusion_lat": 0.0, "lat": 38.898376999999996, "type": "electric_scooter", "lon": -77.0280875, "bike_id": "2ecdd27d3f8c77172d5b7baf243f7ec1", "rental_uris": {"android": "https://dc.lft.to/lastmile_qr_scan", "ios": "https://dc.lft.to/lastmile_qr_scan"}, "name": "2ecdd27d3f8c77172d5b7baf243f7ec1", "is_reserved": 0}, {"is_disabled": 0, "fusion_lon": 0.0, "fusion_lat": 0.0, "lat": 38.9118235, "type": "electric_scooter", "lon": -77.03215316666666, "bike_id": "7780bf1f2918d228a70b7c37bf60f09f", "rental_uris": {"android": "https://dc.lft.to/lastmile_qr_scan", "ios": "https://dc.lft.to/lastmile_qr_scan"}, "name": "7780bf1f2918d228a70b7c37bf60f09f", "is_reserved": 0}, {"is_disabled": 0, "fusion_lon": 0.0, "fusion_lat": 0.0, "lat": 38.908370833333336, "type": "electric_scooter", "lon": -76.99692666666667, "bike_id": "33fc3a64e9a40ac9e73a20fda1cba3a7", "rental_uris": {"android": "https://dc.lft.to/lastmile_qr_scan", "ios": "https://dc.lft.to/lastmile_qr_scan"}, "name": "33fc3a64e9a40ac9e73a20fda1cba3a7", "is_reserved": 0}, {"is_disabled": 0, "fusion_lon": 0.0, "fusion_lat": 0.0, "lat": 38.8580225, "type": "electric_bike", "lon": -76.987477, "bike_id": "310e31d83f91754ea53f62011a15ce98", "rental_uris": {"android": "https://dc.lft.to/lastmile_qr_scan", "ios": "https://dc.lft.to/lastmile_qr_scan"}, "name": "310e31d83f91754ea53f62011a15ce98", "is_reserved": 0}, {"is_disabled": 0, "fusion_lon": 0.0, "fusion_lat": 0.0, "lat": 38.942488833333336, "type": "electric_scooter", "lon": -77.02161733333334, "bike_id": "41c3babf63199afd1a423513b7f00d7e", "rental_uris": {"android": "https://dc.lft.to/lastmile_qr_scan", "ios": "https://dc.lft.to/lastmile_qr_scan"}, "name": "41c3babf63199afd1a423513b7f00d7e", "is_reserved": 0}, {"is_disabled": 0, "fusion_lon": 0.0, "fusion_lat": 0.0, "lat": 38.898335, "type": "electric_scooter", "lon": -77.0219285, "bike_id": "0970eaec290cca855fbe5822e179e0e8", "rental_uris": {"android": "https://dc.lft.to/lastmile_qr_scan", "ios": "https://dc.lft.to/lastmile_qr_scan"}, "name": "0970eaec290cca855fbe5822e179e0e8", "is_reserved": 0}, {"is_disabled": 0, "fusion_lon": 0.0, "fusion_lat": 0.0, "lat": 38.89797883333333, "type": "electric_scooter", "lon": -76.93049833333333, "bike_id": "0d1715abd4cd14545e087f0f627cc1b1", "rental_uris": {"android": "https://dc.lft.to/lastmile_qr_scan", "ios": "https://dc.lft.to/lastmile_qr_scan"}, "name": "0d1715abd4cd14545e087f0f627cc1b1", "is_reserved": 0}, {"is_disabled": 0, "fusion_lon": 0.0, "fusion_lat": 0.0, "lat": 38.90561616666667, "type": "electric_scooter", "lon": -77.027933, "bike_id": "72a9235a87232817bd347a7fde7787b6", "rental_uris": {"android": "https://dc.lft.to/lastmile_qr_scan", "ios": "https://dc.lft.to/lastmile_qr_scan"}, "name": "72a9235a87232817bd347a7fde7787b6", "is_reserved": 0}, {"is_disabled": 0, "fusion_lon": 0.0, "fusion_lat": 0.0, "lat": 38.935383, "type": "electric_scooter", "lon": -77.05768566666667, "bike_id": "ce99b037bf84ec56167f83580f90b6ac", "rental_uris": {"android": "https://dc.lft.to/lastmile_qr_scan", "ios": "https://dc.lft.to/lastmile_qr_scan"}, "name": "ce99b037bf84ec56167f83580f90b6ac", "is_reserved": 0}, {"is_disabled": 0, "fusion_lon": 0.0, "fusion_lat": 0.0, "lat": 38.867279333333336, "type": "electric_scooter", "lon": -76.98847466666666, "bike_id": "cfeb7bd8fc2f05fdcd20c8c13000b79a", "rental_uris": {"android": "https://dc.lft.to/lastmile_qr_scan", "ios": "https://dc.lft.to/lastmile_qr_scan"}, "name": "cfeb7bd8fc2f05fdcd20c8c13000b79a", "is_reserved": 0}, {"is_disabled": 0, "fusion_lon": 0.0, "fusion_lat": 0.0, "lat": 38.83153333333333, "type": "electric_bike", "lon": -76.996893, "bike_id": "a0290155a9747f57bc8024d844b3417f", "rental_uris": {"android": "https://dc.lft.to/lastmile_qr_scan", "ios": "https://dc.lft.to/lastmile_qr_scan"}, "name": "a0290155a9747f57bc8024d844b3417f", "is_reserved": 0}, {"is_disabled": 0, "fusion_lon": 0.0, "fusion_lat": 0.0, "lat": 38.8700355, "type": "electric_scooter", "lon": -77.01375616666667, "bike_id": "81b77fc82a1a253ff4c4c43a86a0acc2", "rental_uris": {"android": "https://dc.lft.to/lastmile_qr_scan", "ios": "https://dc.lft.to/lastmile_qr_scan"}, "name": "81b77fc82a1a253ff4c4c43a86a0acc2", "is_reserved": 0}, {"is_disabled": 0, "fusion_lon": 0.0, "fusion_lat": 0.0, "lat": 38.94984266666667, "type": "electric_scooter", "lon": -77.02700966666667, "bike_id": "52f233ba331b7c7cb6f763ef4909bb9f", "rental_uris": {"android": "https://dc.lft.to/lastmile_qr_scan", "ios": "https://dc.lft.to/lastmile_qr_scan"}, "name": "52f233ba331b7c7cb6f763ef4909bb9f", "is_reserved": 0}, {"is_disabled": 0, "fusion_lon": 0.0, "fusion_lat": 0.0, "lat": 38.909551666666665, "type": "electric_scooter", "lon": -77.02888216666666, "bike_id": "44f1775ce0b5373dc58b7f111e2e04b7", "rental_uris": {"android": "https://dc.lft.to/lastmile_qr_scan", "ios": "https://dc.lft.to/lastmile_qr_scan"}, "name": "44f1775ce0b5373dc58b7f111e2e04b7", "is_reserved": 0}, {"is_disabled": 0, "fusion_lon": 0.0, "fusion_lat": 0.0, "lat": 38.89863033333334, "type": "electric_scooter", "lon": -77.02278616666666, "bike_id": "98d64b4ccde586b65122811487a435f5", "rental_uris": {"android": "https://dc.lft.to/lastmile_qr_scan", "ios": "https://dc.lft.to/lastmile_qr_scan"}, "name": "98d64b4ccde586b65122811487a435f5", "is_reserved": 0}, {"is_disabled": 0, "fusion_lon": 0.0, "fusion_lat": 0.0, "lat": 38.88739616666667, "type": "electric_scooter", "lon": -77.00330516666666, "bike_id": "8094981994ec8a568a10c32d255980c9", "rental_uris": {"android": "https://dc.lft.to/lastmile_qr_scan", "ios": "https://dc.lft.to/lastmile_qr_scan"}, "name": "8094981994ec8a568a10c32d255980c9", "is_reserved": 0}, {"is_disabled": 0, "fusion_lon": 0.0, "fusion_lat": 0.0, "lat": 38.904757833333335, "type": "electric_scooter", "lon": -77.03783816666666, "bike_id": "efcced165f35dab9f716a70cfaffb75e", "rental_uris": {"android": "https://dc.lft.to/lastmile_qr_scan", "ios": "https://dc.lft.to/lastmile_qr_scan"}, "name": "efcced165f35dab9f716a70cfaffb75e", "is_reserved": 0}, {"is_disabled": 0, "fusion_lon": 0.0, "fusion_lat": 0.0, "lat": 38.918544, "type": "electric_bike", "lon": -76.96089883333333, "bike_id": "7fb6212555ab60b7755de81f6c100761", "rental_uris": {"android": "https://dc.lft.to/lastmile_qr_scan", "ios": "https://dc.lft.to/lastmile_qr_scan"}, "name": "7fb6212555ab60b7755de81f6c100761", "is_reserved": 0}, {"is_disabled": 0, "fusion_lon": 0.0, "fusion_lat": 0.0, "lat": 38.870641666666664, "type": "electric_bike", "lon": -77.007424, "bike_id": "fdca2a5113ed936ea7cd657f63704ac6", "rental_uris": {"android": "https://dc.lft.to/lastmile_qr_scan", "ios": "https://dc.lft.to/lastmile_qr_scan"}, "name": "fdca2a5113ed936ea7cd657f63704ac6", "is_reserved": 0}, {"is_disabled": 0, "fusion_lon": 0.0, "fusion_lat": 0.0, "lat": 38.913627166666664, "type": "electric_scooter", "lon": -77.01878616666667, "bike_id": "192fa3b9b3a2af2f8d22fc8fac0deaef", "rental_uris": {"android": "https://dc.lft.to/lastmile_qr_scan", "ios": "https://dc.lft.to/lastmile_qr_scan"}, "name": "192fa3b9b3a2af2f8d22fc8fac0deaef", "is_reserved": 0}, {"is_disabled": 0, "fusion_lon": 0.0, "fusion_lat": 0.0, "lat": 38.91170783333333, "type": "electric_scooter", "lon": -77.0046265, "bike_id": "5792f8c47c95068896947ac4203fbf9c", "rental_uris": {"android": "https://dc.lft.to/lastmile_qr_scan", "ios": "https://dc.lft.to/lastmile_qr_scan"}, "name": "5792f8c47c95068896947ac4203fbf9c", "is_reserved": 0}, {"is_disabled": 0, "fusion_lon": 0.0, "fusion_lat": 0.0, "lat": 38.86848466666667, "type": "electric_bike", "lon": -77.09730433333333, "bike_id": "97df507fa4a10b1353cade8392372e1e", "rental_uris": {"android": "https://dc.lft.to/lastmile_qr_scan", "ios": "https://dc.lft.to/lastmile_qr_scan"}, "name": "97df507fa4a10b1353cade8392372e1e", "is_reserved": 0}, {"is_disabled": 0, "fusion_lon": 0.0, "fusion_lat": 0.0, "lat": 38.91274216666667, "type": "electric_scooter", "lon": -77.03701516666666, "bike_id": "884ece15077afa9d48fb88cd1dbf4475", "rental_uris": {"android": "https://dc.lft.to/lastmile_qr_scan", "ios": "https://dc.lft.to/lastmile_qr_scan"}, "name": "884ece15077afa9d48fb88cd1dbf4475", "is_reserved": 0}, {"is_disabled": 0, "fusion_lon": 0.0, "fusion_lat": 0.0, "lat": 38.9125425, "type": "electric_scooter", "lon": -77.04350466666666, "bike_id": "942f47756f9aa8e23dbf54897c5e3ed2", "rental_uris": {"android": "https://dc.lft.to/lastmile_qr_scan", "ios": "https://dc.lft.to/lastmile_qr_scan"}, "name": "942f47756f9aa8e23dbf54897c5e3ed2", "is_reserved": 0}, {"is_disabled": 0, "fusion_lon": 0.0, "fusion_lat": 0.0, "lat": 38.911135333333334, "type": "electric_scooter", "lon": -77.03833083333333, "bike_id": "fcad45a22f0ef23cdbf8d7e3c1ad5e37", "rental_uris": {"android": "https://dc.lft.to/lastmile_qr_scan", "ios": "https://dc.lft.to/lastmile_qr_scan"}, "name": "fcad45a22f0ef23cdbf8d7e3c1ad5e37", "is_reserved": 0}, {"is_disabled": 0, "fusion_lon": 0.0, "fusion_lat": 0.0, "lat": 38.91636966666667, "type": "electric_scooter", "lon": -77.038396, "bike_id": "ef93a56fa6927380efc453e25bd9f262", "rental_uris": {"android": "https://dc.lft.to/lastmile_qr_scan", "ios": "https://dc.lft.to/lastmile_qr_scan"}, "name": "ef93a56fa6927380efc453e25bd9f262", "is_reserved": 0}, {"is_disabled": 0, "fusion_lon": 0.0, "fusion_lat": 0.0, "lat": 38.897398, "type": "electric_scooter", "lon": -77.02663183333334, "bike_id": "576106111590f68d884c42d5b07badea", "rental_uris": {"android": "https://dc.lft.to/lastmile_qr_scan", "ios": "https://dc.lft.to/lastmile_qr_scan"}, "name": "576106111590f68d884c42d5b07badea", "is_reserved": 0}, {"is_disabled": 0, "fusion_lon": 0.0, "fusion_lat": 0.0, "lat": 38.883777, "type": "electric_scooter", "lon": -76.92375416666667, "bike_id": "be85892d3e847022dc6924da951e9374", "rental_uris": {"android": "https://dc.lft.to/lastmile_qr_scan", "ios": "https://dc.lft.to/lastmile_qr_scan"}, "name": "be85892d3e847022dc6924da951e9374", "is_reserved": 0}, {"is_disabled": 0, "fusion_lon": 0.0, "fusion_lat": 0.0, "lat": 38.93087, "type": "electric_scooter", "lon": -77.03429216666666, "bike_id": "f26115ec46949f4bcb147602df4390f2", "rental_uris": {"android": "https://dc.lft.to/lastmile_qr_scan", "ios": "https://dc.lft.to/lastmile_qr_scan"}, "name": "f26115ec46949f4bcb147602df4390f2", "is_reserved": 0}, {"is_disabled": 0, "fusion_lon": 0.0, "fusion_lat": 0.0, "lat": 38.910394333333336, "type": "electric_scooter", "lon": -77.046556, "bike_id": "e10d42cf8e088a4acf31511fc4f014f2", "rental_uris": {"android": "https://dc.lft.to/lastmile_qr_scan", "ios": "https://dc.lft.to/lastmile_qr_scan"}, "name": "e10d42cf8e088a4acf31511fc4f014f2", "is_reserved": 0}, {"is_disabled": 0, "fusion_lon": 0.0, "fusion_lat": 0.0, "lat": 38.93974816666667, "type": "electric_scooter", "lon": -77.03013616666667, "bike_id": "2769c25277bc81ed6aa69016c2de5e8b", "rental_uris": {"android": "https://dc.lft.to/lastmile_qr_scan", "ios": "https://dc.lft.to/lastmile_qr_scan"}, "name": "2769c25277bc81ed6aa69016c2de5e8b", "is_reserved": 0}, {"is_disabled": 0, "fusion_lon": 0.0, "fusion_lat": 0.0, "lat": 38.90859666666667, "type": "electric_scooter", "lon": -77.0640045, "bike_id": "d9f66c923fb560b5eb608814398b367d", "rental_uris": {"android": "https://dc.lft.to/lastmile_qr_scan", "ios": "https://dc.lft.to/lastmile_qr_scan"}, "name": "d9f66c923fb560b5eb608814398b367d", "is_reserved": 0}, {"is_disabled": 0, "fusion_lon": 0.0, "fusion_lat": 0.0, "lat": 38.92052833333333, "type": "electric_scooter", "lon": -77.03460866666667, "bike_id": "f5a2d5b0c2dfcac66d472641be9f6404", "rental_uris": {"android": "https://dc.lft.to/lastmile_qr_scan", "ios": "https://dc.lft.to/lastmile_qr_scan"}, "name": "f5a2d5b0c2dfcac66d472641be9f6404", "is_reserved": 0}, {"is_disabled": 0, "fusion_lon": 0.0, "fusion_lat": 0.0, "lat": 38.90241983333333, "type": "electric_scooter", "lon": -77.0527085, "bike_id": "b82a229070c247374310266720cfee78", "rental_uris": {"android": "https://dc.lft.to/lastmile_qr_scan", "ios": "https://dc.lft.to/lastmile_qr_scan"}, "name": "b82a229070c247374310266720cfee78", "is_reserved": 0}, {"is_disabled": 0, "fusion_lon": 0.0, "fusion_lat": 0.0, "lat": 38.887660333333336, "type": "electric_scooter", "lon": -76.98910033333334, "bike_id": "d9575a0fa609d30935d0cb251a31074c", "rental_uris": {"android": "https://dc.lft.to/lastmile_qr_scan", "ios": "https://dc.lft.to/lastmile_qr_scan"}, "name": "d9575a0fa609d30935d0cb251a31074c", "is_reserved": 0}, {"is_disabled": 0, "fusion_lon": 0.0, "fusion_lat": 0.0, "lat": 38.97051666666667, "type": "electric_bike", "lon": -76.96062683333334, "bike_id": "0ee15e55965e7f9a2ec7acd57058967f", "rental_uris": {"android": "https://dc.lft.to/lastmile_qr_scan", "ios": "https://dc.lft.to/lastmile_qr_scan"}, "name": "0ee15e55965e7f9a2ec7acd57058967f", "is_reserved": 0}, {"is_disabled": 0, "fusion_lon": 0.0, "fusion_lat": 0.0, "lat": 38.947796333333336, "type": "electric_bike", "lon": -76.97216216666666, "bike_id": "0e83efb8931b393f1c7ac6cc817f311c", "rental_uris": {"android": "https://dc.lft.to/lastmile_qr_scan", "ios": "https://dc.lft.to/lastmile_qr_scan"}, "name": "0e83efb8931b393f1c7ac6cc817f311c", "is_reserved": 0}, {"is_disabled": 0, "fusion_lon": 0.0, "fusion_lat": 0.0, "lat": 38.9012595, "type": "electric_scooter", "lon": -77.039818, "bike_id": "1d62eb6c3b49dae96707cbbd48ecba73", "rental_uris": {"android": "https://dc.lft.to/lastmile_qr_scan", "ios": "https://dc.lft.to/lastmile_qr_scan"}, "name": "1d62eb6c3b49dae96707cbbd48ecba73", "is_reserved": 0}, {"is_disabled": 0, "fusion_lon": 0.0, "fusion_lat": 0.0, "lat": 38.87459966666667, "type": "electric_scooter", "lon": -77.00478716666667, "bike_id": "aee19ec0c39fd680ad7d7aa514a05db0", "rental_uris": {"android": "https://dc.lft.to/lastmile_qr_scan", "ios": "https://dc.lft.to/lastmile_qr_scan"}, "name": "aee19ec0c39fd680ad7d7aa514a05db0", "is_reserved": 0}, {"is_disabled": 0, "fusion_lon": 0.0, "fusion_lat": 0.0, "lat": 38.887570333333336, "type": "electric_scooter", "lon": -77.00223966666667, "bike_id": "27d1a983f3be7efc02d899e1d05b2543", "rental_uris": {"android": "https://dc.lft.to/lastmile_qr_scan", "ios": "https://dc.lft.to/lastmile_qr_scan"}, "name": "27d1a983f3be7efc02d899e1d05b2543", "is_reserved": 0}, {"is_disabled": 0, "fusion_lon": 0.0, "fusion_lat": 0.0, "lat": 38.917328833333336, "type": "electric_scooter", "lon": -76.9918025, "bike_id": "53aba1971265ff773664fa9df6198b84", "rental_uris": {"android": "https://dc.lft.to/lastmile_qr_scan", "ios": "https://dc.lft.to/lastmile_qr_scan"}, "name": "53aba1971265ff773664fa9df6198b84", "is_reserved": 0}, {"is_disabled": 0, "fusion_lon": 0.0, "fusion_lat": 0.0, "lat": 38.9261415, "type": "electric_scooter", "lon": -76.98200916666667, "bike_id": "2903368d948baea4578bcd40555200f2", "rental_uris": {"android": "https://dc.lft.to/lastmile_qr_scan", "ios": "https://dc.lft.to/lastmile_qr_scan"}, "name": "2903368d948baea4578bcd40555200f2", "is_reserved": 0}, {"is_disabled": 0, "fusion_lon": 0.0, "fusion_lat": 0.0, "lat": 38.9245565, "type": "electric_scooter", "lon": -77.03173416666667, "bike_id": "49289bdd1f72395af63d3ff9fdcb74b5", "rental_uris": {"android": "https://dc.lft.to/lastmile_qr_scan", "ios": "https://dc.lft.to/lastmile_qr_scan"}, "name": "49289bdd1f72395af63d3ff9fdcb74b5", "is_reserved": 0}, {"is_disabled": 0, "fusion_lon": 0.0, "fusion_lat": 0.0, "lat": 38.899238, "type": "electric_scooter", "lon": -76.9915925, "bike_id": "deaaaba110701a9f779aba975f5ed4f1", "rental_uris": {"android": "https://dc.lft.to/lastmile_qr_scan", "ios": "https://dc.lft.to/lastmile_qr_scan"}, "name": "deaaaba110701a9f779aba975f5ed4f1", "is_reserved": 0}, {"is_disabled": 0, "fusion_lon": 0.0, "fusion_lat": 0.0, "lat": 38.9366885, "type": "electric_scooter", "lon": -77.03266583333334, "bike_id": "7ace0704b695d7d07fe8d09cfc9890d1", "rental_uris": {"android": "https://dc.lft.to/lastmile_qr_scan", "ios": "https://dc.lft.to/lastmile_qr_scan"}, "name": "7ace0704b695d7d07fe8d09cfc9890d1", "is_reserved": 0}, {"is_disabled": 0, "fusion_lon": 0.0, "fusion_lat": 0.0, "lat": 38.906433, "type": "electric_bike", "lon": -77.06290916666667, "bike_id": "fe92de4330904fc58ab863db9ee69e7a", "rental_uris": {"android": "https://dc.lft.to/lastmile_qr_scan", "ios": "https://dc.lft.to/lastmile_qr_scan"}, "name": "fe92de4330904fc58ab863db9ee69e7a", "is_reserved": 0}, {"is_disabled": 0, "fusion_lon": 0.0, "fusion_lat": 0.0, "lat": 38.916024166666666, "type": "electric_scooter", "lon": -77.02337083333333, "bike_id": "e25362007e0bd573277e85117f8a52a4", "rental_uris": {"android": "https://dc.lft.to/lastmile_qr_scan", "ios": "https://dc.lft.to/lastmile_qr_scan"}, "name": "e25362007e0bd573277e85117f8a52a4", "is_reserved": 0}, {"is_disabled": 0, "fusion_lon": 0.0, "fusion_lat": 0.0, "lat": 38.85869483333333, "type": "electric_scooter", "lon": -76.990205, "bike_id": "eb93b4e83b610a9e32dcafb235de282d", "rental_uris": {"android": "https://dc.lft.to/lastmile_qr_scan", "ios": "https://dc.lft.to/lastmile_qr_scan"}, "name": "eb93b4e83b610a9e32dcafb235de282d", "is_reserved": 0}, {"is_disabled": 0, "fusion_lon": 0.0, "fusion_lat": 0.0, "lat": 38.93182266666667, "type": "electric_scooter", "lon": -77.07253733333333, "bike_id": "63156541ca39722fb5d5850d56246092", "rental_uris": {"android": "https://dc.lft.to/lastmile_qr_scan", "ios": "https://dc.lft.to/lastmile_qr_scan"}, "name": "63156541ca39722fb5d5850d56246092", "is_reserved": 0}, {"is_disabled": 0, "fusion_lon": 0.0, "fusion_lat": 0.0, "lat": 38.918775333333336, "type": "electric_scooter", "lon": -77.02489333333334, "bike_id": "d13d17b4065ca1780b422f7fefa21ee7", "rental_uris": {"android": "https://dc.lft.to/lastmile_qr_scan", "ios": "https://dc.lft.to/lastmile_qr_scan"}, "name": "d13d17b4065ca1780b422f7fefa21ee7", "is_reserved": 0}, {"is_disabled": 0, "fusion_lon": 0.0, "fusion_lat": 0.0, "lat": 38.903123666666666, "type": "electric_scooter", "lon": -76.98244616666666, "bike_id": "6bed61375910ed3a1005926072a3ffec", "rental_uris": {"android": "https://dc.lft.to/lastmile_qr_scan", "ios": "https://dc.lft.to/lastmile_qr_scan"}, "name": "6bed61375910ed3a1005926072a3ffec", "is_reserved": 0},