{"data": {"bikes": [{"fusion_lat": 0.0, "name": "e11b7c20220449db30b2ec502327a97f", "lon": -77.01584916666667, "rental_uris": {"android": "https://dc.lft.to/lastmile_qr_scan", "ios": "https://dc.lft.to/lastmile_qr_scan"}, "fusion_lon": 0.0, "bike_id": "e11b7c20220449db30b2ec502327a97f", "is_disabled": 0, "lat": 38.8851965, "is_reserved": 0, "type": "electric_scooter"}, {"fusion_lat": 0.0, "name": "13674e6f6f256812449275dc69675d1e", "lon": -76.98520183333333, "rental_uris": {"android": "https://dc.lft.to/lastmile_qr_scan", "ios": "https://dc.lft.to/lastmile_qr_scan"}, "fusion_lon": 0.0, "bike_id": "13674e6f6f256812449275dc69675d1e", "is_disabled": 0, "lat": 38.880758666666665, "is_reserved": 0, "type": "electric_scooter"}, {"fusion_lat": 0.0, "name": "dc9e0d403ac0b83d8fcfe79548d67c7a", "lon": -77.031831, "rental_uris": {"android": "https://dc.lft.to/lastmile_qr_scan", "ios": "https://dc.lft.to/lastmile_qr_scan"}, "fusion_lon": 0.0, "bike_id": "dc9e0d403ac0b83d8fcfe79548d67c7a", "is_disabled": 0, "lat": 38.912518666666664, "is_reserved": 0, "type": "electric_scooter"}, {"fusion_lat": 0.0, "name": "89b615aa65451cf4c6212daf280faee2", "lon": -77.04173466666667, "rental_uris": {"android": "https://dc.lft.to/lastmile_qr_scan", "ios": "https://dc.lft.to/lastmile_qr_scan"}, "fusion_lon": 0.0, "bike_id": "89b615aa65451cf4c6212daf280faee2", "is_disabled": 0, "lat": 38.9198175, "is_reserved": 0, "type": "electric_scooter"}, {"fusion_lat": 0.0, "name": "c81aca027d79b6ac542ba09d66e2cfbb", "lon": -77.04539166666666, "rental_uris": {"android": "https://dc.lft.to/lastmile_qr_scan", "ios": "https://dc.lft.to/lastmile_qr_scan"}, "fusion_lon": 0.0, "bike_id": "c81aca027d79b6ac542ba09d66e2cfbb", "is_disabled": 0, "lat": 38.91817416666667, "is_reserved": 0, "type": "electric_scooter"}, {"fusion_lat": 0.0, "name": "7ccc2c5db0b52b26c8893953581b213e", "lon": -77.01923716666667, "rental_uris": {"android": "https://dc.lft.to/lastmile_qr_scan", "ios": "https://dc.lft.to/lastmile_qr_scan"}, "fusion_lon": 0.0, "bike_id": "7ccc2c5db0b52b26c8893953581b213e", "is_disabled": 0, "lat": 38.89835683333333, "is_reserved": 0, "type": "electric_scooter"}, {"fusion_lat": 0.0, "name": "81e8004167812264bd2ecc689bef4fe7", "lon": -77.0733335, "rental_uris": {"android": "https://dc.lft.to/lastmile_qr_scan", "ios": "https://dc.lft.to/lastmile_qr_scan"}, "fusion_lon": 0.0, "bike_id": "81e8004167812264bd2ecc689bef4fe7", "is_disabled": 0, "lat": 38.923953, "is_reserved": 0, "type": "electric_scooter"}, {"fusion_lat": 0.0, "name": "e2c20acd31239633109a040784756e84", "lon": -77.04338616666666, "rental_uris": {"android": "https://dc.lft.to/lastmile_qr_scan", "ios": "https://dc.lft.to/lastmile_qr_scan"}, "fusion_lon": 0.0, "bike_id": "e2c20acd31239633109a040784756e84", "is_disabled": 0, "lat": 38.895234333333335, "is_reserved": 0, "type": "electric_scooter"}, {"fusion_lat": 0.0, "name": "6b2ab7f94acb9159a0053e9b10ab200b", "lon": -77.041838, "rental_uris": {"android": "https://dc.lft.to/lastmile_qr_scan", "ios": "https://dc.lft.to/lastmile_qr_scan"}, "fusion_lon": 0.0, "bike_id": "6b2ab7f94acb9159a0053e9b10ab200b", "is_disabled": 0, "lat": 38.918558166666664, "is_reserved": 0, "type": "electric_scooter"}, {"fusion_lat": 0.0, "name": "726d590a88f5a2122f3b48fe65f64d7b", "lon": -77.02570216666666, "rental_uris": {"android": "https://dc.lft.to/lastmile_qr_scan", "ios": "https://dc.lft.to/lastmile_qr_scan"}, "fusion_lon": 0.0, "bike_id": "726d590a88f5a2122f3b48fe65f64d7b", "is_disabled": 0, "lat": 38.93859716666667, "is_reserved": 0, "type": "electric_scooter"}, {"fusion_lat": 0.0, "name": "2843188b1bf6b13b87d9d47d692b55cb", "lon": -77.03981583333334, "rental_uris": {"android": "https://dc.lft.to/lastmile_qr_scan", "ios": "https://dc.lft.to/lastmile_qr_scan"}, "fusion_lon": 0.0, "bike_id": "2843188b1bf6b13b87d9d47d692b55cb", "is_disabled": 0, "lat": 38.90482466666667, "is_reserved": 0, "type": "electric_scooter"}, {"fusion_lat": 0.0, "name": "df1a00f0a8e375d17c6a22aec673d5c6", "lon": -77.05114, "rental_uris": {"android": "https://dc.lft.to/lastmile_qr_scan", "ios": "https://dc.lft.to/lastmile_qr_scan"}, "fusion_lon": 0.0, "bike_id": "df1a00f0a8e375d17c6a22aec673d5c6", "is_disabled": 0, "lat": 38.92362, "is_reserved": 0, "type": "electric_scooter"}, {"fusion_lat": 0.0, "name": "fd247664a8ecb9d3e7ca4f073498232c", "lon": -77.1310555, "rental_uris": {"android": "https://dc.lft.to/lastmile_qr_scan", "ios": "https://dc.lft.to/lastmile_qr_scan"}, "fusion_lon": 0.0, "bike_id": "fd247664a8ecb9d3e7ca4f073498232c", "is_disabled": 0, "lat": 39.024335666666666, "is_reserved": 0, "type": "electric_bike"}, {"fusion_lat": 0.0, "name": "07e1b7a07587fcad6f0dbe5efb6932fc", "lon": -77.02479383333333, "rental_uris": {"android": "https://dc.lft.to/lastmile_qr_scan", "ios": "https://dc.lft.to/lastmile_qr_scan"}, "fusion_lon": 0.0, "bike_id": "07e1b7a07587fcad6f0dbe5efb6932fc", "is_disabled": 0, "lat": 38.939038833333335, "is_reserved": 0, "type": "electric_scooter"}, {"fusion_lat": 0.0, "name": "a1475b8e907c7727d6ae96a6b77c92f9", "lon": -76.98617816666666, "rental_uris": {"android": "https://dc.lft.to/lastmile_qr_scan", "ios": "https://dc.lft.to/lastmile_qr_scan"}, "fusion_lon": 0.0, "bike_id": "a1475b8e907c7727d6ae96a6b77c92f9", "is_disabled": 0, "lat": 38.93969933333333, "is_reserved": 0, "type": "electric_bike"}, {"fusion_lat": 0.0, "name": "97261bb6975dd50ae04e99ae76745e01", "lon": -77.04564616666667, "rental_uris": {"android": "https://dc.lft.to/lastmile_qr_scan", "ios": "https://dc.lft.to/lastmile_qr_scan"}, "fusion_lon": 0.0, "bike_id": "97261bb6975dd50ae04e99ae76745e01", "is_disabled": 0, "lat": 38.902485666666664, "is_reserved": 0, "type": "electric_scooter"}, {"fusion_lat": 0.0, "name": "0d79c1323f161793c99a7a3e5906bc19", "lon": -76.992849, "rental_uris": {"android": "https://dc.lft.to/lastmile_qr_scan", "ios": "https://dc.lft.to/lastmile_qr_scan"}, "fusion_lon": 0.0, "bike_id": "0d79c1323f161793c99a7a3e5906bc19", "is_disabled": 0, "lat": 38.8576605, "is_reserved": 0, "type": "electric_scooter"}, {"fusion_lat": 0.0, "name": "ddb3859e63644fcbc573cbcd218498ca", "lon": -76.99146216666666, "rental_uris": {"android": "https://dc.lft.to/lastmile_qr_scan", "ios": "https://dc.lft.to/lastmile_qr_scan"}, "fusion_lon": 0.0, "bike_id": "ddb3859e63644fcbc573cbcd218498ca", "is_disabled": 0, "lat": 38.8859755, "is_reserved": 0, "type": "electric_scooter"}, {"fusion_lat": 0.0, "name": "9c51a832240b9314fd3cc7d2e1292cff", "lon": -77.02960283333333, "rental_uris": {"android": "https://dc.lft.to/lastmile_qr_scan", "ios": "https://dc.lft.to/lastmile_qr_scan"}, "fusion_lon": 0.0, "bike_id": "9c51a832240b9314fd3cc7d2e1292cff", "is_disabled": 0, "lat": 38.916725666666665, "is_reserved": 0, "type": "electric_scooter"}, {"fusion_lat": 0.0, "name": "01f471315b8ea904476f5ab4177a2c4a", "lon": -77.0293635, "rental_uris": {"android": "https://dc.lft.to/lastmile_qr_scan", "ios": "https://dc.lft.to/lastmile_qr_scan"}, "fusion_lon": 0.0, "bike_id": "01f471315b8ea904476f5ab4177a2c4a", "is_disabled": 0, "lat": 38.939799666666666, "is_reserved": 0, "type": "electric_scooter"}, {"fusion_lat": 0.0, "name": "12d8add58ff8fa5242d438ffa4c57125", "lon": -77.245569, "rental_uris": {"android": "https://dc.lft.to/lastmile_qr_scan", "ios": "https://dc.lft.to/lastmile_qr_scan"}, "fusion_lon": 0.0, "bike_id": "12d8add58ff8fa5242d438ffa4c57125", "is_disabled": 0, "lat": 38.8823695, "is_reserved": 0, "type": "electric_bike"}, {"fusion_lat": 0.0, "name": "aca4b2542e0ccb2e57c0295a8b22b6f2", "lon": -77.04130483333333, "rental_uris": {"android": "https://dc.lft.to/lastmile_qr_scan", "ios": "https://dc.lft.to/lastmile_qr_scan"}, "fusion_lon": 0.0, "bike_id": "aca4b2542e0ccb2e57c0295a8b22b6f2", "is_disabled": 0, "lat": 38.9213475, "is_reserved": 0, "type": "electric_scooter"}, {"fusion_lat": 0.0, "name": "7aea082fc978347d484516690d2c7e06", "lon": -77.02217683333333, "rental_uris": {"android": "https://dc.lft.to/lastmile_qr_scan", "ios": "https://dc.lft.to/lastmile_qr_scan"}, "fusion_lon": 0.0, "bike_id": "7aea082fc978347d484516690d2c7e06", "is_disabled": 0, "lat": 38.92473833333333, "is_reserved": 0, "type": "electric_scooter"}, {"fusion_lat": 0.0, "name": "2cab2feb4a4835943c52df8c5234f7d2", "lon": -77.03255233333333, "rental_uris": {"android": "https://dc.lft.to/lastmile_qr_scan", "ios": "https://dc.lft.to/lastmile_qr_scan"}, "fusion_lon": 0.0, "bike_id": "2cab2feb4a4835943c52df8c5234f7d2", "is_disabled": 0, "lat": 38.92106533333333, "is_reserved": 0, "type": "electric_scooter"}, {"fusion_lat": 0.0, "name": "25a27fef74d53e9307e0deea5af02967", "lon": -77.04423333333334, "rental_uris": {"android": "https://dc.lft.to/lastmile_qr_scan", "ios": "https://dc.lft.to/lastmile_qr_scan"}, "fusion_lon": 0.0, "bike_id": "25a27fef74d53e9307e0deea5af02967", "is_disabled": 0, "lat": 38.90942233333333, "is_reserved": 0, "type": "electric_scooter"}, {"fusion_lat": 0.0, "name": "e6cd0abbd1e33f6900e6cf752fc72c26", "lon": -77.03080233333333, "rental_uris": {"android": "https://dc.lft.to/lastmile_qr_scan", "ios": "https://dc.lft.to/lastmile_qr_scan"}, "fusion_lon": 0.0, "bike_id": "e6cd0abbd1e33f6900e6cf752fc72c26", "is_disabled": 0, "lat": 38.8803815, "is_reserved": 0, "type": "electric_scooter"}, {"fusion_lat": 0.0, "name": "d1f10c659233bed85e21fbb6f4ad1bc1", "lon": -77.0959445, "rental_uris": {"android": "https://dc.lft.to/lastmile_qr_scan", "ios": "https://dc.lft.to/lastmile_qr_scan"}, "fusion_lon": 0.0, "bike_id": "d1f10c659233bed85e21fbb6f4ad1bc1", "is_disabled": 0, "lat": 38.9808, "is_reserved": 0, "type": "electric_bike"}, {"fusion_lat": 0.0, "name": "8bd3c0a6785724b56f560fece3cdaea8", "lon": -77.05734416666667, "rental_uris": {"android": "https://dc.lft.to/lastmile_qr_scan", "ios": "https://dc.lft.to/lastmile_qr_scan"}, "fusion_lon": 0.0, "bike_id": "8bd3c0a6785724b56f560fece3cdaea8", "is_disabled": 0, "lat": 38.93364583333333, "is_reserved": 0, "type": "electric_scooter"}, {"fusion_lat": 0.0, "name": "a3298537c2a91a6ad981a65a93c78c23", "lon": -77.02268083333334, "rental_uris": {"android": "https://dc.lft.to/lastmile_qr_scan", "ios": "https://dc.lft.to/lastmile_qr_scan"}, "fusion_lon": 0.0, "bike_id": "a3298537c2a91a6ad981a65a93c78c23", "is_disabled": 0, "lat": 38.926741, "is_reserved": 0, "type": "electric_scooter"}, {"fusion_lat": 0.0, "name": "5cf16ec5305d5345d45764143e2d9cac", "lon": -76.99976866666667, "rental_uris": {"android": "https://dc.lft.to/lastmile_qr_scan", "ios": "https://dc.lft.to/lastmile_qr_scan"}, "fusion_lon": 0.0, "bike_id": "5cf16ec5305d5345d45764143e2d9cac", "is_disabled": 0, "lat": 38.9533215, "is_reserved": 0, "type": "electric_scooter"}, {"fusion_lat": 0.0, "name": "6772d147e07ab457479d2d0e0d7b240f", "lon": -77.08174766666667, "rental_uris": {"android": "https://dc.lft.to/lastmile_qr_scan", "ios": "https://dc.lft.to/lastmile_qr_scan"}, "fusion_lon": 0.0, "bike_id": "6772d147e07ab457479d2d0e0d7b240f", "is_disabled": 0, "lat": 38.888708333333334, "is_reserved": 0, "type": "electric_bike"}, {"fusion_lat": 0.0, "name": "5112d1141d7881cd60588b3e1a69ff77", "lon": -77.0118105, "rental_uris": {"android": "https://dc.lft.to/lastmile_qr_scan", "ios": "https://dc.lft.to/lastmile_qr_scan"}, "fusion_lon": 0.0, "bike_id": "5112d1141d7881cd60588b3e1a69ff77", "is_disabled": 0, "lat": 38.90027533333333, "is_reserved": 0, "type": "electric_scooter"}, {"fusion_lat": 0.0, "name": "e32220c9991bc2cd09a0d5c1cae2f0b1", "lon": -77.03079383333333, "rental_uris": {"android": "https://dc.lft.to/lastmile_qr_scan", "ios": "https://dc.lft.to/lastmile_qr_scan"}, "fusion_lon": 0.0, "bike_id": "e32220c9991bc2cd09a0d5c1cae2f0b1", "is_disabled": 0, "lat": 38.92239166666667, "is_reserved": 0, "type": "electric_scooter"}, {"fusion_lat": 0.0, "name": "7f93d84b9fb43b94d07dc3fc66b56e77", "lon": -77.00224016666667, "rental_uris": {"android": "https://dc.lft.to/lastmile_qr_scan", "ios": "https://dc.lft.to/lastmile_qr_scan"}, "fusion_lon": 0.0, "bike_id": "7f93d84b9fb43b94d07dc3fc66b56e77", "is_disabled": 0, "lat": 38.892169, "is_reserved": 0, "type": "electric_scooter"}, {"fusion_lat": 0.0, "name": "c8719a3e019bc4c885a0d58b351dff47", "lon": -77.05529383333334, "rental_uris": {"android": "https://dc.lft.to/lastmile_qr_scan", "ios": "https://dc.lft.to/lastmile_qr_scan"}, "fusion_lon": 0.0, "bike_id": "c8719a3e019bc4c885a0d58b351dff47", "is_disabled": 0, "lat": 38.92659783333333, "is_reserved": 0, "type": "electric_scooter"}, {"fusion_lat": 0.0, "name": "acfcab13575e40a5d66012f5ec09bd32", "lon": -77.0501615, "rental_uris": {"android": "https://dc.lft.to/lastmile_qr_scan", "ios": "https://dc.lft.to/lastmile_qr_scan"}, "fusion_lon": 0.0, "bike_id": "acfcab13575e40a5d66012f5ec09bd32", "is_disabled": 0, "lat": 38.905401, "is_reserved": 0, "type": "electric_scooter"}, {"fusion_lat": 0.0, "name": "4a39574f7a220d8b5aa46e5d34e8b36a", "lon": -76.982377, "rental_uris": {"android": "https://dc.lft.to/lastmile_qr_scan", "ios": "https://dc.lft.to/lastmile_qr_scan"}, "fusion_lon": 0.0, "bike_id": "4a39574f7a220d8b5aa46e5d34e8b36a", "is_disabled": 0, "lat": 38.888654833333334, "is_reserved": 0, "type": "electric_scooter"}, {"fusion_lat": 0.0, "name": "f08b932a885bb310d0c4387e24b22826", "lon": -77.00035566666666, "rental_uris": {"android": "https://dc.lft.to/lastmile_qr_scan", "ios": "https://dc.lft.to/lastmile_qr_scan"}, "fusion_lon": 0.0, "bike_id": "f08b932a885bb310d0c4387e24b22826", "is_disabled": 0, "lat": 38.86476483333333, "is_reserved": 0, "type": "electric_bike"}, {"fusion_lat": 0.0, "name": "db11b793378cdb7968e7feb76b3bc6d8", "lon": -77.02005416666667, "rental_uris": {"android": "https://dc.lft.to/lastmile_qr_scan", "ios": "https://dc.lft.to/lastmile_qr_scan"}, "fusion_lon": 0.0, "bike_id": "db11b793378cdb7968e7feb76b3bc6d8", "is_disabled": 0, "lat": 38.92846183333333, "is_reserved": 0, "type": "electric_scooter"}, {"fusion_lat": 0.0, "name": "b4d91bab6a9d4ec951ae24403768a586", "lon": -77.0218315, "rental_uris": {"android": "https://dc.lft.to/lastmile_qr_scan", "ios": "https://dc.lft.to/lastmile_qr_scan"}, "fusion_lon": 0.0, "bike_id": "b4d91bab6a9d4ec951ae24403768a586", "is_disabled": 0, "lat": 38.89978983333334, "is_reserved": 0, "type": "electric_scooter"}, {"fusion_lat": 0.0, "name": "bbe4497e98ca7f444ac4fd024ae5956a", "lon": -77.029832, "rental_uris": {"android": "https://dc.lft.to/lastmile_qr_scan", "ios": "https://dc.lft.to/lastmile_qr_scan"}, "fusion_lon": 0.0, "bike_id": "bbe4497e98ca7f444ac4fd024ae5956a", "is_disabled": 0, "lat": 38.92194633333333, "is_reserved": 0, "type": "electric_scooter"}, {"fusion_lat": 0.0, "name": "57d1e5ab7ec3f5f4e52bb0ef2d65b945", "lon": -77.02061233333333, "rental_uris": {"android": "https://dc.lft.to/lastmile_qr_scan", "ios": "https://dc.lft.to/lastmile_qr_scan"}, "fusion_lon": 0.0, "bike_id": "57d1e5ab7ec3f5f4e52bb0ef2d65b945", "is_disabled": 0, "lat": 38.9235395, "is_reserved": 0, "type": "electric_scooter"}, {"fusion_lat": 0.0, "name": "598323941f71e584ea70c6e60260d3d8", "lon": -77.05050316666667, "rental_uris": {"android": "https://dc.lft.to/lastmile_qr_scan", "ios": "https://dc.lft.to/lastmile_qr_scan"}, "fusion_lon": 0.0, "bike_id": "598323941f71e584ea70c6e60260d3d8", "is_disabled": 0, "lat": 38.923750166666665, "is_reserved": 0, "type": "electric_scooter"}, {"fusion_lat": 0.0, "name": "20507391d07371dffe9f6743dd3b6e65", "lon": -77.044552, "rental_uris": {"android": "https://dc.lft.to/lastmile_qr_scan", "ios": "https://dc.lft.to/lastmile_qr_scan"}, "fusion_lon": 0.0, "bike_id": "20507391d07371dffe9f6743dd3b6e65", "is_disabled": 0, "lat": 38.91185433333333, "is_reserved": 0, "type": "electric_scooter"}, {"fusion_lat": 0.0, "name": "89591454b9bb7b1242753d6950e1e7f8", "lon": -77.042575, "rental_uris": {"android": "https://dc.lft.to/lastmile_qr_scan", "ios": "https://dc.lft.to/lastmile_qr_scan"}, "fusion_lon": 0.0, "bike_id": "89591454b9bb7b1242753d6950e1e7f8", "is_disabled": 0, "lat": 38.921982166666666, "is_reserved": 0, "type": "electric_scooter"}, {"fusion_lat": 0.0, "name": "f3f751f48986804a02b4e1860af44c17", "lon": -77.00034733333334, "rental_uris": {"android": "https://dc.lft.to/lastmile_qr_scan", "ios": "https://dc.lft.to/lastmile_qr_scan"}, "fusion_lon": 0.0, "bike_id": "f3f751f48986804a02b4e1860af44c17", "is_disabled": 0, "lat": 38.8739555, "is_reserved": 0, "type": "electric_scooter"}, {"fusion_lat": 0.0, "name": "f0f93a02c1c6ae3dfbf56c178531a770", "lon": -76.9950265, "rental_uris": {"android": "https://dc.lft.to/lastmile_qr_scan", "ios": "https://dc.lft.to/lastmile_qr_scan"}, "fusion_lon": 0.0, "bike_id": "f0f93a02c1c6ae3dfbf56c178531a770", "is_disabled": 0, "lat": 38.8624375, "is_reserved": 0, "type": "electric_scooter"}, {"fusion_lat": 0.0, "name": "f849ea7c2cbe8ea41e55aa07c0fc5689", "lon": -77.03301916666666, "rental_uris": {"android": "https://dc.lft.to/lastmile_qr_scan", "ios": "https://dc.lft.to/lastmile_qr_scan"}, "fusion_lon": 0.0, "bike_id": "f849ea7c2cbe8ea41e55aa07c0fc5689", "is_disabled": 0, "lat": 38.89748483333333, "is_reserved": 0, "type": "electric_scooter"}, {"fusion_lat": 0.0, "name": "dd184da2cdbdbad09e2c33ba74f3214b", "lon": -77.0279715, "rental_uris": {"android": "https://dc.lft.to/lastmile_qr_scan", "ios": "https://dc.lft.to/lastmile_qr_scan"}, "fusion_lon": 0.0, "bike_id": "dd184da2cdbdbad09e2c33ba74f3214b", "is_disabled": 0, "lat": 38.89233183333333, "is_reserved": 0, "type": "electric_scooter"}, {"fusion_lat": 0.0, "name": "c9eb86f300a85e1ac49ffb6af2df11c6", "lon": -77.027953, "rental_uris": {"android": "https://dc.lft.to/lastmile_qr_scan", "ios": "https://dc.lft.to/lastmile_qr_scan"}, "fusion_lon": 0.0, "bike_id": "c9eb86f300a85e1ac49ffb6af2df11c6", "is_disabled": 0, "lat": 38.942894333333335, "is_reserved": 0, "type": "electric_scooter"}, {"fusion_lat": 0.0, "name": "b5581de2ddc5b83a51b0a774c9239934", "lon": -77.05048183333334, "rental_uris": {"android": "https://dc.lft.to/lastmile_qr_scan", "ios": "https://dc.lft.to/lastmile_qr_scan"}, "fusion_lon": 0.0, "bike_id": "b5581de2ddc5b83a51b0a774c9239934", "is_disabled": 0, "lat": 38.9251325, "is_reserved": 0, "type": "electric_scooter"}, {"fusion_lat": 0.0, "name": "11bdf9a17aaea35ba0853e37de45e86d", "lon": -77.01616416666667, "rental_uris": {"android": "https://dc.lft.to/lastmile_qr_scan", "ios": "https://dc.lft.to/lastmile_qr_scan"}, "fusion_lon": 0.0, "bike_id": "11bdf9a17aaea35ba0853e37de45e86d", "is_disabled": 0, "lat": 38.906823333333335, "is_reserved": 0, "type": "electric_scooter"}, {"fusion_lat": 0.0, "name": "564b70488e96eec1c9080ac2ee267a1b", "lon": -77.04162733333334, "rental_uris": {"android": "https://dc.lft.to/lastmile_qr_scan", "ios": "https://dc.lft.to/lastmile_qr_scan"}, "fusion_lon": 0.0, "bike_id": "564b70488e96eec1c9080ac2ee267a1b", "is_disabled": 0, "lat": 38.89239083333333, "is_reserved": 0, "type": "electric_scooter"}, {"fusion_lat": 0.0, "name": "e80bece964bb72c826ca1828c5ad6bdc", "lon": -77.0548015, "rental_uris": {"android": "https://dc.lft.to/lastmile_qr_scan", "ios": "https://dc.lft.to/lastmile_qr_scan"}, "fusion_lon": 0.0, "bike_id": "e80bece964bb72c826ca1828c5ad6bdc", "is_disabled": 0, "lat": 38.80018283333333, "is_reserved": 0, "type": "electric_bike"}, {"fusion_lat": 0.0, "name": "4618243f9a3b22625375c1c2e62bbada", "lon": -77.00609933333334, "rental_uris": {"android": "https://dc.lft.to/lastmile_qr_scan", "ios": "https://dc.lft.to/lastmile_qr_scan"}, "fusion_lon": 0.0, "bike_id": "4618243f9a3b22625375c1c2e62bbada", "is_disabled": 0, "lat": 38.872944333333336, "is_reserved": 0, "type": "electric_scooter"}, {"fusion_lat": 0.0, "name": "a19a4231c316bcaf335eab74175d3c88", "lon": -77.02203566666667, "rental_uris": {"android": "https://dc.lft.to/lastmile_qr_scan", "ios": "https://dc.lft.to/lastmile_qr_scan"}, "fusion_lon": 0.0, "bike_id": "a19a4231c316bcaf335eab74175d3c88", "is_disabled": 0, "lat": 38.9215465, "is_reserved": 0, "type": "electric_scooter"}, {"fusion_lat": 0.0, "name": "9dfd7641278563204804941d51484ad8", "lon": -77.0059935, "rental_uris": {"android": "https://dc.lft.to/lastmile_qr_scan", "ios": "https://dc.lft.to/lastmile_qr_scan"}, "fusion_lon": 0.0, "bike_id": "9dfd7641278563204804941d51484ad8", "is_disabled": 0, "lat": 38.87183383333333, "is_reserved": 0, "type": "electric_scooter"}, {"fusion_lat": 0.0, "name": "c1ab403bbf101246b0e5c59f44f07ed5", "lon": -77.04675233333333, "rental_uris": {"android": "https://dc.lft.to/lastmile_qr_scan", "ios": "https://dc.lft.to/lastmile_qr_scan"}, "fusion_lon": 0.0, "bike_id": "c1ab403bbf101246b0e5c59f44f07ed5", "is_disabled": 0, "lat": 38.895549333333335, "is_reserved": 0, "type": "electric_scooter"}, {"fusion_lat": 0.0, "name": "f912dbceb6d5120d436c9379606e2dc7", "lon": -77.009241, "rental_uris": {"android": "https://dc.lft.to/lastmile_qr_scan", "ios": "https://dc.lft.to/lastmile_qr_scan"}, "fusion_lon": 0.0, "bike_id": "f912dbceb6d5120d436c9379606e2dc7", "is_disabled": 0, "lat": 38.922442833333335, "is_reserved": 0, "type": "electric_scooter"}, {"fusion_lat": 0.0, "name": "1a02817c2ae294cb517af98c5d90d1f4", "lon": -77.06924233333334, "rental_uris": {"android": "https://dc.lft.to/lastmile_qr_scan", "ios": "https://dc.lft.to/lastmile_qr_scan"}, "fusion_lon": 0.0, "bike_id": "1a02817c2ae294cb517af98c5d90d1f4", "is_disabled": 0, "lat": 38.9136005, "is_reserved": 0, "type": "electric_scooter"}, {"fusion_lat": 0.0, "name": "6eedd2b3e16c4e7bd09555f932abd788", "lon": -77.01619016666666, "rental_uris": {"android": "https://dc.lft.to/lastmile_qr_scan", "ios": "https://dc.lft.to/lastmile_qr_scan"}, "fusion_lon": 0.0, "bike_id": "6eedd2b3e16c4e7bd09555f932abd788", "is_disabled": 0, "lat": 38.905990833333334, "is_reserved": 0, "type": "electric_scooter"}, {"fusion_lat": 0.0, "name": "1ef7a91ead2b59a182bd974a5fe3cdf2", "lon": -77.0260955, "rental_uris": {"android": "https://dc.lft.to/lastmile_qr_scan", "ios": "https://dc.lft.to/lastmile_qr_scan"}, "fusion_lon": 0.0, "bike_id": "1ef7a91ead2b59a182bd974a5fe3cdf2", "is_disabled": 0, "lat": 38.9097115, "is_reserved": 0, "type": "electric_scooter"}, {"fusion_lat": 0.0, "name": "067018c592bfcad3c63e8270b83c7fb6", "lon": -77.0456405, "rental_uris": {"android": "https://dc.lft.to/lastmile_qr_scan", "ios": "https://dc.lft.to/lastmile_qr_scan"}, "fusion_lon": 0.0, "bike_id": "067018c592bfcad3c63e8270b83c7fb6", "is_disabled": 0, "lat": 38.91930683333333, "is_reserved": 0, "type": "electric_scooter"}, {"fusion_lat": 0.0, "name": "de8296ebffb2d4559036d3a126f29145", "lon": -77.04827983333334, "rental_uris": {"android": "https://dc.lft.to/lastmile_qr_scan", "ios": "https://dc.lft.to/lastmile_qr_scan"}, "fusion_lon": 0.0, "bike_id": "de8296ebffb2d4559036d3a126f29145", "is_disabled": 0, "lat": 38.9188035, "is_reserved": 0, "type": "electric_scooter"}, {"fusion_lat": 0.0, "name": "7c8afbc4cc0e82f9bdc01faa9d7fc36e", "lon": -77.03258166666667, "rental_uris": {"android": "https://dc.lft.to/lastmile_qr_scan", "ios": "https://dc.lft.to/lastmile_qr_scan"}, "fusion_lon": 0.0, "bike_id": "7c8afbc4cc0e82f9bdc01faa9d7fc36e", "is_disabled": 0, "lat": 38.89844183333334, "is_reserved": 0, "type": "electric_scooter"}, {"fusion_lat": 0.0, "name": "fae83508bc070a4671c6483ff4baba21", "lon": -76.93323866666667, "rental_uris": {"android": "https://dc.lft.to/lastmile_qr_scan", "ios": "https://dc.lft.to/lastmile_qr_scan"}, "fusion_lon": 0.0, "bike_id": "fae83508bc070a4671c6483ff4baba21", "is_disabled": 0, "lat": 38.900507833333336, "is_reserved": 0, "type": "electric_scooter"}, {"fusion_lat": 0.0, "name": "13beece7d319acb903cf9eb8a34b6680", "lon": -77.0161805, "rental_uris": {"android": "https://dc.lft.to/lastmile_qr_scan", "ios": "https://dc.lft.to/lastmile_qr_scan"}, "fusion_lon": 0.0, "bike_id": "13beece7d319acb903cf9eb8a34b6680", "is_disabled": 0, "lat": 38.87692066666666, "is_reserved": 0, "type": "electric_scooter"}, {"fusion_lat": 0.0, "name": "6abf4ee1b8e4e27451f4b66e40d58fb4", "lon": -77.050946, "rental_uris": {"android": "https://dc.lft.to/lastmile_qr_scan", "ios": "https://dc.lft.to/lastmile_qr_scan"}, "fusion_lon": 0.0, "bike_id": "6abf4ee1b8e4e27451f4b66e40d58fb4", "is_disabled": 0, "lat": 38.90522, "is_reserved": 0, "type": "electric_scooter"}, {"fusion_lat": 0.0, "name": "aba59dc154164eb6c694c7aa493c7648", "lon": -77.045431, "rental_uris": {"android": "https://dc.lft.to/lastmile_qr_scan", "ios": "https://dc.lft.to/lastmile_qr_scan"}, "fusion_lon": 0.0, "bike_id": "aba59dc154164eb6c694c7aa493c7648", "is_disabled": 0, "lat": 38.93187133333333, "is_reserved": 0, "type": "electric_scooter"}, {"fusion_lat": 0.0, "name": "1f6d409d9cc92fa1deb3da572d495d49", "lon": -77.02826616666667, "rental_uris": {"android": "https://dc.lft.to/lastmile_qr_scan", "ios": "https://dc.lft.to/lastmile_qr_scan"}, "fusion_lon": 0.0, "bike_id": "1f6d409d9cc92fa1deb3da572d495d49", "is_disabled": 0, "lat": 38.89744183333333, "is_reserved": 0, "type": "electric_scooter"}, {"fusion_lat": 0.0, "name": "4f698b2d0eb2759027d7fdf9f55c0d04", "lon": -77.07905966666667, "rental_uris": {"android": "https://dc.lft.to/lastmile_qr_scan", "ios": "https://dc.lft.to/lastmile_qr_scan"}, "fusion_lon": 0.0, "bike_id": "4f698b2d0eb2759027d7fdf9f55c0d04", "is_disabled": 0, "lat": 38.839333333333336, "is_reserved": 0, "type": "electric_bike"}, {"fusion_lat": 0.0, "name": "a3ce9e425eaea708eadb9181b58f9255", "lon": -77.0191005, "rental_uris": {"android": "https://dc.lft.to/lastmile_qr_scan", "ios": "https://dc.lft.to/lastmile_qr_scan"}, "fusion_lon": 0.0, "bike_id": "a3ce9e425eaea708eadb9181b58f9255", "is_disabled": 0, "lat": 38.92344466666667, "is_reserved": 0, "type": "electric_scooter"}, {"fusion_lat": 0.0, "name": "1ee9767f1627b7a49d4fb45194d982fc", "lon": -77.02369783333333, "rental_uris": {"android": "https://dc.lft.to/lastmile_qr_scan", "ios": "https://dc.lft.to/lastmile_qr_scan"}, "fusion_lon": 0.0, "bike_id": "1ee9767f1627b7a49d4fb45194d982fc", "is_disabled": 0, "lat": 38.879232333333334, "is_reserved": 0, "type": "electric_scooter"}, {"fusion_lat": 0.0, "name": "d81f8a5f4ccf639b9297b317879bf55a", "lon": -77.03330016666666, "rental_uris": {"android": "https://dc.lft.to/lastmile_qr_scan", "ios": "https://dc.lft.to/lastmile_qr_scan"}, "fusion_lon": 0.0, "bike_id": "d81f8a5f4ccf639b9297b317879bf55a", "is_disabled": 0, "lat": 38.903647166666666, "is_reserved": 0, "type": "electric_scooter"}, {"fusion_lat": 0.0, "name": "1a82e3f8269d3cb6d5150a8d25ba6b48", "lon": -77.00603916666667, "rental_uris": {"android": "https://dc.lft.to/lastmile_qr_scan", "ios": "https://dc.lft.to/lastmile_qr_scan"}, "fusion_lon": 0.0, "bike_id": "1a82e3f8269d3cb6d5150a8d25ba6b48", "is_disabled": 0, "lat": 38.8718155, "is_reserved": 0, "type": "electric_scooter"}, {"fusion_lat": 0.0, "name": "f671b8f92b5b10df99024555d747cf6b", "lon": -76.9937305, "rental_uris": {"android": "https://dc.lft.to/lastmile_qr_scan", "ios": "https://dc.lft.to/lastmile_qr_scan"}, "fusion_lon": 0.0, "bike_id": "f671b8f92b5b10df99024555d747cf6b", "is_disabled": 0, "lat": 38.92355933333333, "is_reserved": 0, "type": "electric_scooter"}, {"fusion_lat": 0.0, "name": "49fb2c9483f8524d0e134869644c0f79", "lon": -77.02606166666666, "rental_uris": {"android": "https://dc.lft.to/lastmile_qr_scan", "ios": "https://dc.lft.to/lastmile_qr_scan"}, "fusion_lon": 0.0, "bike_id": "49fb2c9483f8524d0e134869644c0f79", "is_disabled": 0, "lat": 38.915507833333336, "is_reserved": 0, "type": "electric_scooter"}, {"fusion_lat": 0.0, "name": "851fea65d04e8e3a964129be0f7899cd", "lon": -77.06263916666667, "rental_uris": {"android": "https://dc.lft.to/lastmile_qr_scan", "ios": "https://dc.lft.to/lastmile_qr_scan"}, "fusion_lon": 0.0, "bike_id": "851fea65d04e8e3a964129be0f7899cd", "is_disabled": 0, "lat": 38.905250833333334, "is_reserved": 0, "type": "electric_scooter"}, {"fusion_lat": 0.0, "name": "ca71b1c635d89fb200028c0468e3df5b", "lon": -77.00891466666667, "rental_uris": {"android": "https://dc.lft.to/lastmile_qr_scan", "ios": "https://dc.lft.to/lastmile_qr_scan"}, "fusion_lon": 0.0, "bike_id": "ca71b1c635d89fb200028c0468e3df5b", "is_disabled": 0, "lat": 38.9612145, "is_reserved": 0, "type": "electric_scooter"}, {"fusion_lat": 0.0, "name": "a89f52d82160a59c680a09a4dd77760e", "lon": -76.97018616666666, "rental_uris": {"android": "https://dc.lft.to/lastmile_qr_scan", "ios": "https://dc.lft.to/lastmile_qr_scan"}, "fusion_lon": 0.0, "bike_id": "a89f52d82160a59c680a09a4dd77760e", "is_disabled": 0, "lat": 38.873646, "is_reserved": 0, "type": "electric_scooter"}, {"fusion_lat": 0.0, "name": "97524dce5b88e66b9d922171409b4582", "lon": -77.00570783333333, "rental_uris": {"android": "https://dc.lft.to/lastmile_qr_scan", "ios": "https://dc.lft.to/lastmile_qr_scan"}, "fusion_lon": 0.0, "bike_id": "97524dce5b88e66b9d922171409b4582", "is_disabled": 0, "lat": 38.880099333333334, "is_reserved": 0, "type": "electric_scooter"}, {"fusion_lat": 0.0, "name": "030c8ba172f65d96c303a0230f1523ba", "lon": -77.04378366666667, "rental_uris": {"android": "https://dc.lft.to/lastmile_qr_scan", "ios": "https://dc.lft.to/lastmile_qr_scan"}, "fusion_lon": 0.0, "bike_id": "030c8ba172f65d96c303a0230f1523ba", "is_disabled": 0, "lat": 38.892201, "is_reserved": 0, "type": "electric_scooter"}, {"fusion_lat": 0.0, "name": "080a32095e5b311b335702edb63fefd7", "lon": -77.04509116666667, "rental_uris": {"android": "https://dc.lft.to/lastmile_qr_scan", "ios": "https://dc.lft.to/lastmile_qr_scan"}, "fusion_lon": 0.0, "bike_id": "080a32095e5b311b335702edb63fefd7", "is_disabled": 0, "lat": 38.8922405, "is_reserved": 0, "type": "electric_scooter"}, {"fusion_lat": 0.0, "name": "0e1677cd733b209c9391e2e51f7b616c", "lon": -77.03257683333334, "rental_uris": {"android": "https://dc.lft.to/lastmile_qr_scan", "ios": "https://dc.lft.to/lastmile_qr_scan"}, "fusion_lon": 0.0, "bike_id": "0e1677cd733b209c9391e2e51f7b616c", "is_disabled": 0, "lat": 38.921623833333335, "is_reserved": 0, "type": "electric_scooter"}, {"fusion_lat": 0.0, "name": "141dd9942f10df92ea7ef29be978be67", "lon": -77.03264733333333, "rental_uris": {"android": "https://dc.lft.to/lastmile_qr_scan", "ios": "https://dc.lft.to/lastmile_qr_scan"}, "fusion_lon": 0.0, "bike_id": "141dd9942f10df92ea7ef29be978be67", "is_disabled": 0, "lat": 38.91405183333333, "is_reserved": 0, "type": "electric_scooter"}, {"fusion_lat": 0.0, "name": "72e5c89ec2735e910f16ac6c83dbc191", "lon": -77.03867833333334, "rental_uris": {"android": "https://dc.lft.to/lastmile_qr_scan", "ios": "https://dc.lft.to/lastmile_qr_scan"}, "fusion_lon": 0.0, "bike_id": "72e5c89ec2735e910f16ac6c83dbc191", "is_disabled": 0, "lat": 38.92144433333333, "is_reserved": 0, "type": "electric_scooter"}, {"fusion_lat": 0.0, "name": "a6cabd395a58f8b2806445c5e99fc845", "lon": -77.04044433333334, "rental_uris": {"android": "https://dc.lft.to/lastmile_qr_scan", "ios": "https://dc.lft.to/lastmile_qr_scan"}, "fusion_lon": 0.0, "bike_id": "a6cabd395a58f8b2806445c5e99fc845", "is_disabled": 0, "lat": 38.918624, "is_reserved": 0, "type": "electric_scooter"}, {"fusion_lat": 0.0, "name": "dafff13a2f557e658c850efa86317926", "lon": -76.9836575, "rental_uris": {"android": "https://dc.lft.to/lastmile_qr_scan", "ios": "https://dc.lft.to/lastmile_qr_scan"}, "fusion_lon": 0.0, "bike_id": "dafff13a2f557e658c850efa86317926", "is_disabled": 0, "lat": 38.915349166666665, "is_reserved": 0, "type": "electric_scooter"}, {"fusion_lat": 0.0, "name": "915d185aa105719c57bfbe5e8310389a", "lon": -77.00374266666667, "rental_uris": {"android": "https://dc.lft.to/lastmile_qr_scan", "ios": "https://dc.lft.to/lastmile_qr_scan"}, "fusion_lon": 0.0, "bike_id": "915d185aa105719c57bfbe5e8310389a", "is_disabled": 0, "lat": 38.875282, "is_reserved": 0, "type": "electric_scooter"}, {"fusion_lat": 0.0, "name": "90afd9ceb13ed4b3f2db6ab44c0d80cd", "lon": -77.03140733333333, "rental_uris": {"android": "https://dc.lft.to/lastmile_qr_scan", "ios": "https://dc.lft.to/lastmile_qr_scan"}, "fusion_lon": 0.0, "bike_id": "90afd9ceb13ed4b3f2db6ab44c0d80cd", "is_disabled": 0, "lat": 38.9308055, "is_reserved": 0, "type": "electric_scooter"}, {"fusion_lat": 0.0, "name": "77d72aeeb02173ae1af1671ba42909e2", "lon": -77.0284885, "rental_uris": {"android": "https://dc.lft.to/lastmile_qr_scan", "ios": "https://dc.lft.to/lastmile_qr_scan"}, "fusion_lon": 0.0, "bike_id": "77d72aeeb02173ae1af1671ba42909e2", "is_disabled": 0, "lat": 38.942661666666666, "is_reserved": 0, "type": "electric_scooter"}, {"fusion_lat": 0.0, "name": "adb490705f1f08653ad509d8899745c1", "lon": -76.94592116666666, "rental_uris": {"android": "https://dc.lft.to/lastmile_qr_scan", "ios": "https://dc.lft.to/lastmile_qr_scan"}, "fusion_lon": 0.0, "bike_id": "adb490705f1f08653ad509d8899745c1", "is_disabled": 0, "lat": 38.95286866666667, "is_reserved": 0, "type": "electric_bike"}, {"fusion_lat": 0.0, "name": "928e3dc49f44f6515a5876f68a595350", "lon": -77.03419116666667, "rental_uris": {"android": "https://dc.lft.to/lastmile_qr_scan", "ios": "https://dc.lft.to/lastmile_qr_scan"}, "fusion_lon": 0.0, "bike_id": "928e3dc49f44f6515a5876f68a595350", "is_disabled": 0, "lat": 38.91708166666667, "is_reserved": 0, "type": "electric_scooter"}, {"fusion_lat": 0.0, "name": "3e63b7ad06c182c91908e2d2b6d40d35", "lon": -76.97802433333334, "rental_uris": {"android": "https://dc.lft.to/lastmile_qr_scan", "ios": "https://dc.lft.to/lastmile_qr_scan"}, "fusion_lon": 0.0, "bike_id": "3e63b7ad06c182c91908e2d2b6d40d35", "is_disabled": 0, "lat": 38.906529, "is_reserved": 0, "type": "electric_scooter"}, {"fusion_lat": 0.0, "name": "b62003722c231d1562c4a9a99a24f264", "lon": -77.0218905, "rental_uris": {"android": "https://dc.lft.to/lastmile_qr_scan", "ios": "https://dc.lft.to/lastmile_qr_scan"}, "fusion_lon": 0.0, "bike_id": "b62003722c231d1562c4a9a99a24f264", "is_disabled": 0, "lat": 38.906967333333334, "is_reserved": 0, "type": "electric_bike"}, {"fusion_lat": 0.0, "name": "94c4853145a2f2acaa484d06d65cd930", "lon": -77.10967983333333, "rental_uris": {"android": "https://dc.lft.to/lastmile_qr_scan", "ios": "https://dc.lft.to/lastmile_qr_scan"}, "fusion_lon": 0.0, "bike_id": "94c4853145a2f2acaa484d06d65cd930", "is_disabled": 0, "lat": 38.813075166666664, "is_reserved": 0, "type": "electric_bike"}, {"fusion_lat": 0.0, "name": "943f9c1898e569c4883d6934192d5b0f", "lon": -76.89542366666667, "rental_uris": {"android": "https://dc.lft.to/lastmile_qr_scan", "ios": "https://dc.lft.to/lastmile_qr_scan"}, "fusion_lon": 0.0, "bike_id": "943f9c1898e569c4883d6934192d5b0f", "is_disabled": 0, "lat": 38.945504, "is_reserved": 0, "type": "electric_bike"}, {"fusion_lat": 0.0, "name": "80c0a07089de0ed82fcdd4848765f5e0", "lon": -77.02520066666666, "rental_uris": {"android": "https://dc.lft.to/lastmile_qr_scan", "ios": "https://dc.lft.to/lastmile_qr_scan"}, "fusion_lon": 0.0, "bike_id": "80c0a07089de0ed82fcdd4848765f5e0", "is_disabled": 0, "lat": 38.90853, "is_reserved": 0, "type": "electric_scooter"}, {"fusion_lat": 0.0, "name": "ca50934812f0c8b9dcbc2f45fb09a502", "lon": -77.0256795, "rental_uris": {"android": "https://dc.lft.to/lastmile_qr_scan", "ios": "https://dc.lft.to/lastmile_qr_scan"}, "fusion_lon": 0.0, "bike_id": "ca50934812f0c8b9dcbc2f45fb09a502", "is_disabled": 0, "lat": 38.91486783333333, "is_reserved": 0, "type": "electric_scooter"}, {"fusion_lat": 0.0, "name": "f8671d51bfdf5429d899e5da57ffd91c", "lon": -77.03665383333333, "rental_uris": {"android": "https://dc.lft.to/lastmile_qr_scan", "ios": "https://dc.lft.to/lastmile_qr_scan"}, "fusion_lon": 0.0, "bike_id": "f8671d51bfdf5429d899e5da57ffd91c", "is_disabled": 0, "lat": 38.9144965, "is_reserved": 0, "type": "electric_scooter"}, {"fusion_lat": 0.0, "name": "41e83051275c8d39432b1c5120807b3a", "lon": -76.98678633333333, "rental_uris": {"android": "https://dc.lft.to/lastmile_qr_scan", "ios": "https://dc.lft.to/lastmile_qr_scan"}, "fusion_lon": 0.0, "bike_id": "41e83051275c8d39432b1c5120807b3a", "is_disabled": 0, "lat": 38.89964416666667, "is_reserved": 0, "type": "electric_bike"}, {"fusion_lat": 0.0, "name": "c256afdcdf16610c04d8c0d19d9cc518", "lon": -77.073141, "rental_uris": {"android": "https://dc.lft.to/lastmile_qr_scan", "ios": "https://dc.lft.to/lastmile_qr_scan"}, "fusion_lon": 0.0, "bike_id": "c256afdcdf16610c04d8c0d19d9cc518", "is_disabled": 0, "lat": 38.933493666666664, "is_reserved": 0, "type": "electric_scooter"}, {"fusion_lat": 0.0, "name": "4ad6bfbec1ece58bb5dee1bd09bb994a", "lon": -77.00189983333334, "rental_uris": {"android": "https://dc.lft.to/lastmile_qr_scan", "ios": "https://dc.lft.to/lastmile_qr_scan"}, "fusion_lon": 0.0, "bike_id": "4ad6bfbec1ece58bb5dee1bd09bb994a", "is_disabled": 0, "lat": 38.90006966666667, "is_reserved": 0, "type": "electric_scooter"}, {"fusion_lat": 0.0, "name": "e82f377d370237202f82505d13b4a24e", "lon": -77.02086183333333, "rental_uris": {"android": "https://dc.lft.to/lastmile_qr_scan", "ios": "https://dc.lft.to/lastmile_qr_scan"}, "fusion_lon": 0.0, "bike_id": "e82f377d370237202f82505d13b4a24e", "is_disabled": 0, "lat": 38.921443, "is_reserved": 0, "type": "electric_scooter"}, {"fusion_lat": 0.0, "name": "1cfe636e4a8fe501dd527e899674e46f", "lon": -77.0468555, "rental_uris": {"android": "https://dc.lft.to/lastmile_qr_scan", "ios": "https://dc.lft.to/lastmile_qr_scan"}, "fusion_lon": 0.0, "bike_id": "1cfe636e4a8fe501dd527e899674e46f", "is_disabled": 0, "lat": 38.893745333333335, "is_reserved": 0, "type": "electric_scooter"}, {"fusion_lat": 0.0, "name": "86ced4818ee85bf8ce77cc2c62fafabd", "lon": -77.0394185, "rental_uris": {"android": "https://dc.lft.to/lastmile_qr_scan", "ios": "https://dc.lft.to/lastmile_qr_scan"}, "fusion_lon": 0.0, "bike_id": "86ced4818ee85bf8ce77cc2c62fafabd", "is_disabled": 0, "lat": 38.903928, "is_reserved": 0, "type": "electric_scooter"}, {"fusion_lat": 0.0, "name": "b3db2222d9719a1c44cc079cb43c54f9", "lon": -77.02683166666667, "rental_uris": {"android": "https://dc.lft.to/lastmile_qr_scan", "ios": "https://dc.lft.to/lastmile_qr_scan"}, "fusion_lon": 0.0, "bike_id": "b3db2222d9719a1c44cc079cb43c54f9", "is_disabled": 0, "lat": 38.91049116666667, "is_reserved": 0, "type": "electric_scooter"}, {"fusion_lat": 0.0, "name": "7d2f18d33cec856c701c1619daf1f9bc", "lon": -77.02212666666667, "rental_uris": {"android": "https://dc.lft.to/lastmile_qr_scan", "ios": "https://dc.lft.to/lastmile_qr_scan"}, "fusion_lon": 0.0, "bike_id": "7d2f18d33cec856c701c1619daf1f9bc", "is_disabled": 0, "lat": 38.90541366666667, "is_reserved": 0, "type": "electric_scooter"}, {"fusion_lat": 0.0, "name": "ffba76e7c5c115dd4194adb1340cf786", "lon": -77.05512083333333, "rental_uris": {"android": "https://dc.lft.to/lastmile_qr_scan", "ios": "https://dc.lft.to/lastmile_qr_scan"}, "fusion_lon": 0.0, "bike_id": "ffba76e7c5c115dd4194adb1340cf786", "is_disabled": 0, "lat": 38.92967133333333, "is_reserved": 0, "type": "electric_scooter"}, {"fusion_lat": 0.0, "name": "6d9d0bef507dc031ec1e67016aea5446", "lon": -77.03782766666667, "rental_uris": {"android": "https://dc.lft.to/lastmile_qr_scan", "ios": "https://dc.lft.to/lastmile_qr_scan"}, "fusion_lon": 0.0, "bike_id": "6d9d0bef507dc031ec1e67016aea5446", "is_disabled": 0, "lat": 38.9292695, "is_reserved": 0, "type": "electric_scooter"}, {"fusion_lat": 0.0, "name": "a50df70b9849326097ce54da694cb3d1", "lon": -77.09606, "rental_uris": {"android": "https://dc.lft.to/lastmile_qr_scan", "ios": "https://dc.lft.to/lastmile_qr_scan"}, "fusion_lon": 0.0, "bike_id": "a50df70b9849326097ce54da694cb3d1", "is_disabled": 0, "lat": 38.9874825, "is_reserved": 0, "type": "electric_bike"}, {"fusion_lat": 0.0, "name": "8060964cb6f4083edd44917e835717d7", "lon": -77.039958, "rental_uris": {"android": "https://dc.lft.to/lastmile_qr_scan", "ios": "https://dc.lft.to/lastmile_qr_scan"}, "fusion_lon": 0.0, "bike_id": "8060964cb6f4083edd44917e835717d7", "is_disabled": 0, "lat": 38.897617333333336, "is_reserved": 0, "type": "electric_scooter"}, {"fusion_lat": 0.0, "name": "50c0dd00e73fc35a0c188c557d442395", "lon": -76.99390433333333, "rental_uris": {"android": "https://dc.lft.to/lastmile_qr_scan", "ios": "https://dc.lft.to/lastmile_qr_scan"}, "fusion_lon": 0.0, "bike_id": "50c0dd00e73fc35a0c188c557d442395", "is_disabled": 0, "lat": 38.88452866666667, "is_reserved": 0, "type": "electric_scooter"}, {"fusion_lat": 0.0, "name": "e72b97c277584ff7dbab149ea1079768", "lon": -77.021906, "rental_uris": {"android": "https://dc.lft.to/lastmile_qr_scan", "ios": "https://dc.lft.to/lastmile_qr_scan"}, "fusion_lon": 0.0, "bike_id": "e72b97c277584ff7dbab149ea1079768", "is_disabled": 0, "lat": 38.89612566666667, "is_reserved": 0, "type": "electric_scooter"}, {"fusion_lat": 0.0, "name": "f3d6551ab05b2bb804c76149bfac2f3f", "lon": -77.0377045, "rental_uris": {"android": "https://dc.lft.to/lastmile_qr_scan", "ios": "https://dc.lft.to/lastmile_qr_scan"}, "fusion_lon": 0.0, "bike_id": "f3d6551ab05b2bb804c76149bfac2f3f", "is_disabled": 0, "lat": 38.9168005, "is_reserved": 0, "type": "electric_scooter"}, {"fusion_lat": 0.0, "name": "b07c876e290a91a8a549084200a482a0", "lon": -77.233182, "rental_uris": {"android": "https://dc.lft.to/lastmile_qr_scan", "ios": "https://dc.lft.to/lastmile_qr_scan"}, "fusion_lon": 0.0, "bike_id": "b07c876e290a91a8a549084200a482a0", "is_disabled": 0, "lat": 38.872763166666665, "is_reserved": 0, "type": "electric_bike"}, {"fusion_lat": 0.0, "name": "7d7448fe1f2bdfba4be7d10b15594431", "lon": -77.01362733333333, "rental_uris": {"android": "https://dc.lft.to/lastmile_qr_scan", "ios": "https://dc.lft.to/lastmile_qr_scan"}, "fusion_lon": 0.0, "bike_id": "7d7448fe1f2bdfba4be7d10b15594431", "is_disabled": 0, "lat": 38.89747166666667, "is_reserved": 0, "type": "electric_scooter"}, {"fusion_lat": 0.0, "name": "40250a54b0f8a23a2d7cc99f74343539", "lon": -76.96622966666666, "rental_uris": {"android": "https://dc.lft.to/lastmile_qr_scan", "ios": "https://dc.lft.to/lastmile_qr_scan"}, "fusion_lon": 0.0, "bike_id": "40250a54b0f8a23a2d7cc99f74343539", "is_disabled": 0, "lat": 38.942258833333334, "is_reserved": 0, "type": "electric_bike"}, {"fusion_lat": 0.0, "name": "11119888758b434c79f55c973468dfc2", "lon": -76.98705666666666, "rental_uris": {"android": "https://dc.lft.to/lastmile_qr_scan", "ios": "https://dc.lft.to/lastmile_qr_scan"}, "fusion_lon": 0.0, "bike_id": "11119888758b434c79f55c973468dfc2", "is_disabled": 0, "lat": 38.865426166666666, "is_reserved": 0, "type": "electric_scooter"}, {"fusion_lat": 0.0, "name": "98bcbb8e9270caa7dddc682685850c41", "lon": -77.03565133333333, "rental_uris": {"android": "https://dc.lft.to/lastmile_qr_scan", "ios": "https://dc.lft.to/lastmile_qr_scan"}, "fusion_lon": 0.0, "bike_id": "98bcbb8e9270caa7dddc682685850c41", "is_disabled": 0, "lat": 38.927453666666665, "is_reserved": 0, "type": "electric_scooter"}, {"fusion_lat": 0.0, "name": "1e4e43a931240042e85595b5db594c1d", "lon": -77.02839433333334, "rental_uris": {"android": "https://dc.lft.to/lastmile_qr_scan", "ios": "https://dc.lft.to/lastmile_qr_scan"}, "fusion_lon": 0.0, "bike_id": "1e4e43a931240042e85595b5db594c1d", "is_disabled": 0, "lat": 38.887246, "is_reserved": 0, "type": "electric_scooter"}, {"fusion_lat": 0.0, "name": "4dea57a295536b5fb1f6ce32d71f9e4d", "lon": -77.04229, "rental_uris": {"android": "https://dc.lft.to/lastmile_qr_scan", "ios": "https://dc.lft.to/lastmile_qr_scan"}, "fusion_lon": 0.0, "bike_id": "4dea57a295536b5fb1f6ce32d71f9e4d", "is_disabled": 0, "lat": 38.92142366666667, "is_reserved": 0, "type": "electric_scooter"}, {"fusion_lat": 0.0, "name": "afcdaf557b85cba78ac54222acd20db1", "lon": -77.22805583333333, "rental_uris": {"android": "https://dc.lft.to/lastmile_qr_scan", "ios": "https://dc.lft.to/lastmile_qr_scan"}, "fusion_lon": 0.0, "bike_id": "afcdaf557b85cba78ac54222acd20db1", "is_disabled": 0, "lat": 38.91010966666666, "is_reserved": 0, "type": "electric_bike"}, {"fusion_lat": 0.0, "name": "d29f2d77268f34e02db8027f4918adf7", "lon": -77.02351166666666, "rental_uris": {"android": "https://dc.lft.to/lastmile_qr_scan", "ios": "https://dc.lft.to/lastmile_qr_scan"}, "fusion_lon": 0.0, "bike_id": "d29f2d77268f34e02db8027f4918adf7", "is_disabled": 0, "lat": 38.920669333333336, "is_reserved": 0, "type": "electric_scooter"}, {"fusion_lat": 0.0, "name": "6e40ae155996a61df53a2ef35c4c760c", "lon": -77.04472166666666, "rental_uris": {"android": "https://dc.lft.to/lastmile_qr_scan", "ios": "https://dc.lft.to/lastmile_qr_scan"}, "fusion_lon": 0.0, "bike_id": "6e40ae155996a61df53a2ef35c4c760c", "is_disabled": 0, "lat": 38.89227183333333, "is_reserved": 0, "type": "electric_scooter"}, {"fusion_lat": 0.0, "name": "940cbe409e6d3b21f20d64db818ecb0f", "lon": -77.022073, "rental_uris": {"android": "https://dc.lft.to/lastmile_qr_scan", "ios": "https://dc.lft.to/lastmile_qr_scan"}, "fusion_lon": 0.0, "bike_id": "940cbe409e6d3b21f20d64db818ecb0f", "is_disabled": 0, "lat": 38.9247165, "is_reserved": 0, "type": "electric_scooter"}, {"fusion_lat": 0.0, "name": "aa7942b5a74902bc3af02731a9f753e4", "lon": -77.02713416666667, "rental_uris": {"android": "https://dc.lft.to/lastmile_qr_scan", "ios": "https://dc.lft.to/lastmile_qr_scan"}, "fusion_lon": 0.0, "bike_id": "aa7942b5a74902bc3af02731a9f753e4", "is_disabled": 0, "lat": 38.89733316666667, "is_reserved": 0, "type": "electric_scooter"}, {"fusion_lat": 0.0, "name": "c52a247064a83be5d05da4f5112560ea", "lon": -76.98595283333333, "rental_uris": {"android": "https://dc.lft.to/lastmile_qr_scan", "ios": "https://dc.lft.to/lastmile_qr_scan"}, "fusion_lon": 0.0, "bike_id": "c52a247064a83be5d05da4f5112560ea", "is_disabled": 0, "lat": 38.866971666666664, "is_reserved": 0, "type": "electric_scooter"}, {"fusion_lat": 0.0, "name": "23a3b63687ed05808c84ab11b71910c8", "lon": -77.03468266666667, "rental_uris": {"android": "https://dc.lft.to/lastmile_qr_scan", "ios": "https://dc.lft.to/lastmile_qr_scan"}, "fusion_lon": 0.0, "bike_id": "23a3b63687ed05808c84ab11b71910c8", "is_disabled": 0, "lat": 38.904172333333335, "is_reserved": 0, "type": "electric_scooter"}, {"fusion_lat": 0.0, "name": "50249cc3665b3b18e7144c5224abdadb", "lon": -77.02233783333334, "rental_uris": {"android": "https://dc.lft.to/lastmile_qr_scan", "ios": "https://dc.lft.to/lastmile_qr_scan"}, "fusion_lon": 0.0, "bike_id": "50249cc3665b3b18e7144c5224abdadb", "is_disabled": 0, "lat": 38.892172, "is_reserved": 0, "type": "electric_scooter"}, {"fusion_lat": 0.0, "name": "bdbdd9470e67bd5988a098dab107ffd2", "lon": -77.046332, "rental_uris": {"android": "https://dc.lft.to/lastmile_qr_scan", "ios": "https://dc.lft.to/lastmile_qr_scan"}, "fusion_lon": 0.0, "bike_id": "bdbdd9470e67bd5988a098dab107ffd2", "is_disabled": 0, "lat": 38.900883, "is_reserved": 0, "type": "electric_scooter"}, {"fusion_lat": 0.0, "name": "24f95035d90cf2033f8a6bb4b5a1e268", "lon": -77.01767633333333, "rental_uris": {"android": "https://dc.lft.to/lastmile_qr_scan", "ios": "https://dc.lft.to/lastmile_qr_scan"}, "fusion_lon": 0.0, "bike_id": "24f95035d90cf2033f8a6bb4b5a1e268", "is_disabled": 0, "lat": 38.8752065, "is_reserved": 0, "type": "electric_scooter"}, {"fusion_lat": 0.0, "name": "cccbe5f2f674a9180f20ee0dd619ac33", "lon": -77.050045, "rental_uris": {"android": "https://dc.lft.to/lastmile_qr_scan", "ios": "https://dc.lft.to/lastmile_qr_scan"}, "fusion_lon": 0.0, "bike_id": "cccbe5f2f674a9180f20ee0dd619ac33", "is_disabled": 0, "lat": 38.892280666666665, "is_reserved": 0, "type": "electric_scooter"}, {"fusion_lat": 0.0, "name": "28097f2eb34622ee7b1fb0aa558b7e37", "lon": -77.00298433333333, "rental_uris": {"android": "https://dc.lft.to/lastmile_qr_scan", "ios": "https://dc.lft.to/lastmile_qr_scan"}, "fusion_lon": 0.0, "bike_id": "28097f2eb34622ee7b1fb0aa558b7e37", "is_disabled": 0, "lat": 38.952972833333334, "is_reserved": 0, "type": "electric_scooter"}, {"fusion_lat": 0.0, "name": "c1be0cad0aa159e7b33d6103a6bb02bb", "lon": -77.03942733333334, "rental_uris": {"android": "https://dc.lft.to/lastmile_qr_scan", "ios": "https://dc.lft.to/lastmile_qr_scan"}, "fusion_lon": 0.0, "bike_id": "c1be0cad0aa159e7b33d6103a6bb02bb", "is_disabled": 0, "lat": 38.898904, "is_reserved": 0, "type": "electric_scooter"}, {"fusion_lat": 0.0, "name": "eff555eaa98cd726f93d20688e94f77c", "lon": -77.1856395, "rental_uris": {"android": "https://dc.lft.to/lastmile_qr_scan", "ios": "https://dc.lft.to/lastmile_qr_scan"}, "fusion_lon": 0.0, "bike_id": "eff555eaa98cd726f93d20688e94f77c", "is_disabled": 0, "lat": 38.9296485, "is_reserved": 0, "type": "electric_bike"}, {"fusion_lat": 0.0, "name": "7cbf35a9f443a8d6bafa29fefd88003b", "lon": -76.98247633333334, "rental_uris": {"android": "https://dc.lft.to/lastmile_qr_scan", "ios": "https://dc.lft.to/lastmile_qr_scan"}, "fusion_lon": 0.0, "bike_id": "7cbf35a9f443a8d6bafa29fefd88003b", "is_disabled": 0, "lat": 38.95327533333333, "is_reserved": 0, "type": "electric_bike"}, {"fusion_lat": 0.0, "name": "89e57b980f2bc1cfb3a9d33a94d741a8", "lon": -76.9891555, "rental_uris": {"android": "https://dc.lft.to/lastmile_qr_scan", "ios": "https://dc.lft.to/lastmile_qr_scan"}, "fusion_lon": 0.0, "bike_id": "89e57b980f2bc1cfb3a9d33a94d741a8", "is_disabled": 0, "lat": 38.954365833333334, "is_reserved": 0, "type": "electric_bike"}, {"fusion_lat": 0.0, "name": "d7e1d825d2103196f183a8188f2689fc", "lon": -76.88405033333333, "rental_uris": {"android": "https://dc.lft.to/lastmile_qr_scan", "ios": "https://dc.lft.to/lastmile_qr_scan"}, "fusion_lon": 0.0, "bike_id": "d7e1d825d2103196f183a8188f2689fc", "is_disabled": 0, "lat": 38.93166633333333, "is_reserved": 0, "type": "electric_bike"}, {"fusion_lat": 0.0, "name": "e49896320673d0d8f3d5bd165ec333ce", "lon": -77.04653833333333, "rental_uris": {"android": "https://dc.lft.to/lastmile_qr_scan", "ios": "https://dc.lft.to/lastmile_qr_scan"}, "fusion_lon": 0.0, "bike_id": "e49896320673d0d8f3d5bd165ec333ce", "is_disabled": 0, "lat": 39.05496333333333, "is_reserved": 0, "type": "electric_bike"}, {"fusion_lat": 0.0, "name": "5b846b05b57cb6cd19ede017cbd45583", "lon": -77.029563, "rental_uris": {"android": "https://dc.lft.to/lastmile_qr_scan", "ios": "https://dc.lft.to/lastmile_qr_scan"}, "fusion_lon": 0.0, "bike_id": "5b846b05b57cb6cd19ede017cbd45583", "is_disabled": 0, "lat": 38.89679866666667, "is_reserved": 0, "type": "electric_scooter"}, {"fusion_lat": 0.0, "name": "236051cbe2dde65e8bf5f5586c6dabed", "lon": -77.06009266666666, "rental_uris": {"android": "https://dc.lft.to/lastmile_qr_scan", "ios": "https://dc.lft.to/lastmile_qr_scan"}, "fusion_lon": 0.0, "bike_id": "236051cbe2dde65e8bf5f5586c6dabed", "is_disabled": 0, "lat": 38.90462566666667, "is_reserved": 0, "type": "electric_scooter"}, {"fusion_lat": 0.0, "name": "cc47e5c936a4ff250cfd08b84c56010d", "lon": -77.016884, "rental_uris": {"android": "https://dc.lft.to/lastmile_qr_scan", "ios": "https://dc.lft.to/lastmile_qr_scan"}, "fusion_lon": 0.0, "bike_id": "cc47e5c936a4ff250cfd08b84c56010d", "is_disabled": 0, "lat": 38.974919, "is_reserved": 0, "type": "electric_scooter"}, {"fusion_lat": 0.0, "name": "32034795c5dd76d54b0e94a72742d908", "lon": -77.03219116666666, "rental_uris": {"android": "https://dc.lft.to/lastmile_qr_scan", "ios": "https://dc.lft.to/lastmile_qr_scan"}, "fusion_lon": 0.0, "bike_id": "32034795c5dd76d54b0e94a72742d908", "is_disabled": 0, "lat": 38.89215316666667, "is_reserved": 0, "type": "electric_scooter"}, {"fusion_lat": 0.0, "name": "203c66fc826b1b54d38dccee6022abb0", "lon": -76.9734055, "rental_uris": {"android": "https://dc.lft.to/lastmile_qr_scan", "ios": "https://dc.lft.to/lastmile_qr_scan"}, "fusion_lon": 0.0, "bike_id": "203c66fc826b1b54d38dccee6022abb0", "is_disabled": 0, "lat": 38.865155333333334, "is_reserved": 0, "type": "electric_bike"}, {"fusion_lat": 0.0, "name": "c332f99ef3057f75abeac60041ebb225", "lon": -77.0327535, "rental_uris": {"android": "https://dc.lft.to/lastmile_qr_scan", "ios": "https://dc.lft.to/lastmile_qr_scan"}, "fusion_lon": 0.0, "bike_id": "c332f99ef3057f75abeac60041ebb225", "is_disabled": 0, "lat": 38.92888583333333, "is_reserved": 0, "type": "electric_scooter"}, {"fusion_lat": 0.0, "name": "5a44bbd2efba76a528a111e1dd9be25d", "lon": -76.9851295, "rental_uris": {"android": "https://dc.lft.to/lastmile_qr_scan", "ios": "https://dc.lft.to/lastmile_qr_scan"}, "fusion_lon": 0.0, "bike_id": "5a44bbd2efba76a528a111e1dd9be25d", "is_disabled": 0, "lat": 38.866605666666665, "is_reserved": 0, "type": "electric_scooter"}, {"fusion_lat": 0.0, "name": "672b0b8b0ba3f153e17a022de76820ce", "lon": -77.03068283333333, "rental_uris": {"android": "https://dc.lft.to/lastmile_qr_scan", "ios": "https://dc.lft.to/lastmile_qr_scan"}, "fusion_lon": 0.0, "bike_id": "672b0b8b0ba3f153e17a022de76820ce", "is_disabled": 0, "lat": 38.9169525, "is_reserved": 0, "type": "electric_scooter"}, {"fusion_lat": 0.0, "name": "db5a95c1eaa5753d883f2a9706689cd0", "lon": -77.0316335, "rental_uris": {"android": "https://dc.lft.to/lastmile_qr_scan", "ios": "https://dc.lft.to/lastmile_qr_scan"}, "fusion_lon": 0.0, "bike_id": "db5a95c1eaa5753d883f2a9706689cd0", "is_disabled": 0, "lat": 38.892058666666664, "is_reserved": 0, "type": "electric_scooter"}, {"fusion_lat": 0.0, "name": "664f14a38384fdee4eb9ec160d191ddb", "lon": -76.98983116666666, "rental_uris": {"android": "https://dc.lft.to/lastmile_qr_scan", "ios": "https://dc.lft.to/lastmile_qr_scan"}, "fusion_lon": 0.0, "bike_id": "664f14a38384fdee4eb9ec160d191ddb", "is_disabled": 0, "lat": 38.897426833333334, "is_reserved": 0, "type": "electric_scooter"}, {"fusion_lat": 0.0, "name": "97d233483b5148f71f8eb56f656e960a", "lon": -77.02706116666667, "rental_uris": {"android": "https://dc.lft.to/lastmile_qr_scan", "ios": "https://dc.lft.to/lastmile_qr_scan"}, "fusion_lon": 0.0, "bike_id": "97d233483b5148f71f8eb56f656e960a", "is_disabled": 0, "lat": 38.949871, "is_reserved": 0, "type": "electric_scooter"}, {"fusion_lat": 0.0, "name": "23390f0c5273913e385973cb9e614da8", "lon": -76.9916155, "rental_uris": {"android": "https://dc.lft.to/lastmile_qr_scan", "ios": "https://dc.lft.to/lastmile_qr_scan"}, "fusion_lon": 0.0, "bike_id": "23390f0c5273913e385973cb9e614da8", "is_disabled": 0, "lat": 38.89800816666666, "is_reserved": 0, "type": "electric_scooter"}, {"fusion_lat": 0.0, "name": "0bd6204429ea49bd93340a78799c0805", "lon": -77.0102135, "rental_uris": {"android": "https://dc.lft.to/lastmile_qr_scan", "ios": "https://dc.lft.to/lastmile_qr_scan"}, "fusion_lon": 0.0, "bike_id": "0bd6204429ea49bd93340a78799c0805", "is_disabled": 0, "lat": 38.906467, "is_reserved": 0, "type": "electric_scooter"}, {"fusion_lat": 0.0, "name": "786ef7d6cdb46145f7440919745963eb", "lon": -77.09523, "rental_uris": {"android": "https://dc.lft.to/lastmile_qr_scan", "ios": "https://dc.lft.to/lastmile_qr_scan"}, "fusion_lon": 0.0, "bike_id": "786ef7d6cdb46145f7440919745963eb", "is_disabled": 0, "lat": 38.8380835, "is_reserved": 0, "type": "electric_bike"}, {"fusion_lat": 0.0, "name": "805d26decfdf8008882a3e9641faaf3e", "lon": -77.0734755, "rental_uris": {"android": "https://dc.lft.to/lastmile_qr_scan", "ios": "https://dc.lft.to/lastmile_qr_scan"}, "fusion_lon": 0.0, "bike_id": "805d26decfdf8008882a3e9641faaf3e", "is_disabled": 0, "lat": 38.93480133333333, "is_reserved": 0, "type": "electric_scooter"}, {"fusion_lat": 0.0, "name": "b852e868ed6408e3216700fadeb73a18", "lon": -77.04126766666667, "rental_uris": {"android": "https://dc.lft.to/lastmile_qr_scan", "ios": "https://dc.lft.to/lastmile_qr_scan"}, "fusion_lon": 0.0, "bike_id": "b852e868ed6408e3216700fadeb73a18", "is_disabled": 0, "lat": 38.917056333333335, "is_reserved": 0, "type": "electric_scooter"}, {"fusion_lat": 0.0, "name": "cbf8ef0c6e8465e7292484899d3cf6a0", "lon": -77.02210916666667, "rental_uris": {"android": "https://dc.lft.to/lastmile_qr_scan", "ios": "https://dc.lft.to/lastmile_qr_scan"}, "fusion_lon": 0.0, "bike_id": "cbf8ef0c6e8465e7292484899d3cf6a0", "is_disabled": 0, "lat": 38.88738433333333, "is_reserved": 0, "type": "electric_scooter"}, {"fusion_lat": 0.0, "name": "3fd67f6bfc99dfb8b660ca147982bdfb", "lon": -76.93881833333333, "rental_uris": {"android": "https://dc.lft.to/lastmile_qr_scan", "ios": "https://dc.lft.to/lastmile_qr_scan"}, "fusion_lon": 0.0, "bike_id": "3fd67f6bfc99dfb8b660ca147982bdfb", "is_disabled": 0, "lat": 38.90081933333333, "is_reserved": 0, "type": "electric_scooter"}, {"fusion_lat": 0.0, "name": "8369aa33261aaa2275b6cf670796b46b", "lon": -77.03372916666666, "rental_uris": {"android": "https://dc.lft.to/lastmile_qr_scan", "ios": "https://dc.lft.to/lastmile_qr_scan"}, "fusion_lon": 0.0, "bike_id": "8369aa33261aaa2275b6cf670796b46b", "is_disabled": 0, "lat": 38.9279445, "is_reserved": 0, "type": "electric_scooter"}, {"fusion_lat": 0.0, "name": "6b17cee1753f4f88cafa4f804d09494a", "lon": -77.03458633333334, "rental_uris": {"android": "https://dc.lft.to/lastmile_qr_scan", "ios": "https://dc.lft.to/lastmile_qr_scan"}, "fusion_lon": 0.0, "bike_id": "6b17cee1753f4f88cafa4f804d09494a", "is_disabled": 0, "lat": 38.91018733333333, "is_reserved": 0, "type": "electric_scooter"}, {"fusion_lat": 0.0, "name": "f6e12465b9bacdd72b7616243ae47e89", "lon": -76.98876633333333, "rental_uris": {"android": "https://dc.lft.to/lastmile_qr_scan", "ios": "https://dc.lft.to/lastmile_qr_scan"}, "fusion_lon": 0.0, "bike_id": "f6e12465b9bacdd72b7616243ae47e89", "is_disabled": 0, "lat": 38.92190816666667, "is_reserved": 0, "type": "electric_scooter"}, {"fusion_lat": 0.0, "name": "e5bca5f397a8ec5e1f77f8b91f7ef40b", "lon": -77.04507633333333, "rental_uris": {"android": "https://dc.lft.to/lastmile_qr_scan", "ios": "https://dc.lft.to/lastmile_qr_scan"}, "fusion_lon": 0.0, "bike_id": "e5bca5f397a8ec5e1f77f8b91f7ef40b", "is_disabled": 0, "lat": 38.911107666666666, "is_reserved": 0, "type": "electric_scooter"}, {"fusion_lat": 0.0, "name": "40f9c5cf81b935c5aefb476b88392651", "lon": -77.03110516666666, "rental_uris": {"android": "https://dc.lft.to/lastmile_qr_scan", "ios": "https://dc.lft.to/lastmile_qr_scan"}, "fusion_lon": 0.0, "bike_id": "40f9c5cf81b935c5aefb476b88392651", "is_disabled": 0, "lat": 38.9324185, "is_reserved": 0, "type": "electric_scooter"}, {"fusion_lat": 0.0, "name": "c307244d354477e70d83bf9cd3614023", "lon": -77.043566, "rental_uris": {"android": "https://dc.lft.to/lastmile_qr_scan", "ios": "https://dc.lft.to/lastmile_qr_scan"}, "fusion_lon": 0.0, "bike_id": "c307244d354477e70d83bf9cd3614023", "is_disabled": 0, "lat": 38.904526833333335, "is_reserved": 0, "type": "electric_scooter"}, {"fusion_lat": 0.0, "name": "e0314a054f4524c0b7ed213280e035c1", "lon": -77.04336916666666, "rental_uris": {"android": "https://dc.lft.to/lastmile_qr_scan", "ios": "https://dc.lft.to/lastmile_qr_scan"}, "fusion_lon": 0.0, "bike_id": "e0314a054f4524c0b7ed213280e035c1", "is_disabled": 0, "lat": 38.922216, "is_reserved": 0, "type": "electric_scooter"}, {"fusion_lat": 0.0, "name": "b5b29bdf9a249def39c898def083a407", "lon": -77.070167, "rental_uris": {"android": "https://dc.lft.to/lastmile_qr_scan", "ios": "https://dc.lft.to/lastmile_qr_scan"}, "fusion_lon": 0.0, "bike_id": "b5b29bdf9a249def39c898def083a407", "is_disabled": 0, "lat": 38.906728333333334, "is_reserved": 0, "type": "electric_scooter"}, {"fusion_lat": 0.0, "name": "2d9b816fc70bd6e2e9e8f70a9c3d2f8d", "lon": -77.0304875, "rental_uris": {"android": "https://dc.lft.to/lastmile_qr_scan", "ios": "https://dc.lft.to/lastmile_qr_scan"}, "fusion_lon": 0.0, "bike_id": "2d9b816fc70bd6e2e9e8f70a9c3d2f8d", "is_disabled": 0, "lat": 38.8975515, "is_reserved": 0, "type": "electric_scooter"}, {"fusion_lat": 0.0, "name": "d5d64af6f610e6e4a1983a7f72a80b90", "lon": -76.931413, "rental_uris": {"android": "https://dc.lft.to/lastmile_qr_scan", "ios": "https://dc.lft.to/lastmile_qr_scan"}, "fusion_lon": 0.0, "bike_id": "d5d64af6f610e6e4a1983a7f72a80b90", "is_disabled": 0, "lat": 38.87846916666667, "is_reserved": 0, "type": "electric_scooter"}, {"fusion_lat": 0.0, "name": "157c964113e496005745723f4336ad28", "lon": -76.993111, "rental_uris": {"android": "https://dc.lft.to/lastmile_qr_scan", "ios": "https://dc.lft.to/lastmile_qr_scan"}, "fusion_lon": 0.0, "bike_id": "157c964113e496005745723f4336ad28", "is_disabled": 0, "lat": 38.900027, "is_reserved": 0, "type": "electric_scooter"}, {"fusion_lat": 0.0, "name": "f56d13b35c5412f64a7a802753d5239b", "lon": -76.9859585, "rental_uris": {"android": "https://dc.lft.to/lastmile_qr_scan", "ios": "https://dc.lft.to/lastmile_qr_scan"}, "fusion_lon": 0.0, "bike_id": "f56d13b35c5412f64a7a802753d5239b", "is_disabled": 0, "lat": 38.86685683333333, "is_reserved": 0, "type": "electric_scooter"}, {"fusion_lat": 0.0, "name": "540e174254266def5f91cf5666d570d7", "lon": -77.04400316666667, "rental_uris": {"android": "https://dc.lft.to/lastmile_qr_scan", "ios": "https://dc.lft.to/lastmile_qr_scan"}, "fusion_lon": 0.0, "bike_id": "540e174254266def5f91cf5666d570d7", "is_disabled": 0, "lat": 38.91047616666667, "is_reserved": 0, "type": "electric_scooter"}, {"fusion_lat": 0.0, "name": "2b58cc03bfc9ca5617a252306e7ad702", "lon": -76.99371766666667, "rental_uris": {"android": "https://dc.lft.to/lastmile_qr_scan", "ios": "https://dc.lft.to/lastmile_qr_scan"}, "fusion_lon": 0.0, "bike_id": "2b58cc03bfc9ca5617a252306e7ad702", "is_disabled": 0, "lat": 38.888275666666665, "is_reserved": 0, "type": "electric_scooter"}, {"fusion_lat": 0.0, "name": "e98f9740ed84feab6b52e81f42f360b3", "lon": -76.99483216666667, "rental_uris": {"android": "https://dc.lft.to/lastmile_qr_scan", "ios": "https://dc.lft.to/lastmile_qr_scan"}, "fusion_lon": 0.0, "bike_id": "e98f9740ed84feab6b52e81f42f360b3", "is_disabled": 0, "lat": 38.88605733333333, "is_reserved": 0, "type": "electric_scooter"}, {"fusion_lat": 0.0, "name": "d73f1f4be0da6d76be2f32e746280341", "lon": -77.01316183333333, "rental_uris": {"android": "https://dc.lft.to/lastmile_qr_scan", "ios": "https://dc.lft.to/lastmile_qr_scan"}, "fusion_lon": 0.0, "bike_id": "d73f1f4be0da6d76be2f32e746280341", "is_disabled": 0, "lat": 38.89740883333333, "is_reserved": 0, "type": "electric_scooter"}, {"fusion_lat": 0.0, "name": "c0e520ad71dc85e869f877b60650f61b", "lon": -77.02969033333333, "rental_uris": {"android": "https://dc.lft.to/lastmile_qr_scan", "ios": "https://dc.lft.to/lastmile_qr_scan"}, "fusion_lon": 0.0, "bike_id": "c0e520ad71dc85e869f877b60650f61b", "is_disabled": 0, "lat": 38.916747666666666, "is_reserved": 0, "type": "electric_scooter"}, {"fusion_lat": 0.0, "name": "3e9de50ae2956aaf0cb71a218a4e958a", "lon": -77.009239, "rental_uris": {"android": "https://dc.lft.to/lastmile_qr_scan", "ios": "https://dc.lft.to/lastmile_qr_scan"}, "fusion_lon": 0.0, "bike_id": "3e9de50ae2956aaf0cb71a218a4e958a", "is_disabled": 0, "lat": 38.91615616666667, "is_reserved": 0, "type": "electric_scooter"}, {"fusion_lat": 0.0, "name": "c9bb3b2966921d842318616df5fcc4e0", "lon": -77.025361, "rental_uris": {"android": "https://dc.lft.to/lastmile_qr_scan", "ios": "https://dc.lft.to/lastmile_qr_scan"}, "fusion_lon": 0.0, "bike_id": "c9bb3b2966921d842318616df5fcc4e0", "is_disabled": 0, "lat": 38.92746366666667, "is_reserved": 0, "type": "electric_scooter"}, {"fusion_lat": 0.0, "name": "12d26dce528a6f3d09cb61288cea892f", "lon": -77.05858216666667, "rental_uris": {"android": "https://dc.lft.to/lastmile_qr_scan", "ios": "https://dc.lft.to/lastmile_qr_scan"}, "fusion_lon": 0.0, "bike_id": "12d26dce528a6f3d09cb61288cea892f", "is_disabled": 0, "lat": 38.930456666666664, "is_reserved": 0, "type": "electric_scooter"}, {"fusion_lat": 0.0, "name": "bd014e2c887b0ea20fa2939c90f482ba", "lon": -77.02633066666667, "rental_uris": {"android": "https://dc.lft.to/lastmile_qr_scan", "ios": "https://dc.lft.to/lastmile_qr_scan"}, "fusion_lon": 0.0, "bike_id": "bd014e2c887b0ea20fa2939c90f482ba", "is_disabled": 0, "lat": 38.962225333333336, "is_reserved": 0, "type": "electric_bike"}, {"fusion_lat": 0.0, "name": "19bd14a09518f4423bd7d2e5d8d58696", "lon": -77.04164266666666, "rental_uris": {"android": "https://dc.lft.to/lastmile_qr_scan", "ios": "https://dc.lft.to/lastmile_qr_scan"}, "fusion_lon": 0.0, "bike_id": "19bd14a09518f4423bd7d2e5d8d58696", "is_disabled": 0, "lat": 38.907492500000004, "is_reserved": 0, "type": "electric_scooter"}, {"fusion_lat": 0.0, "name": "fd4971482df1fed85c3d10296b2ced5a", "lon": -77.04376433333333, "rental_uris": {"android": "https://dc.lft.to/lastmile_qr_scan", "ios": "https://dc.lft.to/lastmile_qr_scan"}, "fusion_lon": 0.0, "bike_id": "fd4971482df1fed85c3d10296b2ced5a", "is_disabled": 0, "lat": 38.892182, "is_reserved": 0, "type": "electric_scooter"}, {"fusion_lat": 0.0, "name": "370ab00d61853d86ab9ea40bca80e252", "lon": -76.99013533333333, "rental_uris": {"android": "https://dc.lft.to/lastmile_qr_scan", "ios": "https://dc.lft.to/lastmile_qr_scan"}, "fusion_lon": 0.0, "bike_id": "370ab00d61853d86ab9ea40bca80e252", "is_disabled": 0, "lat": 38.882607, "is_reserved": 0, "type": "electric_scooter"}, {"fusion_lat": 0.0, "name": "53e3b7b8c37d6cda4043ba0ab7c9625d", "lon": -76.99128216666666, "rental_uris": {"android": "https://dc.lft.to/lastmile_qr_scan", "ios": "https://dc.lft.to/lastmile_qr_scan"}, "fusion_lon": 0.0, "bike_id": "53e3b7b8c37d6cda4043ba0ab7c9625d", "is_disabled": 0, "lat": 38.90870366666667, "is_reserved": 0, "type": "electric_scooter"}, {"fusion_lat": 0.0, "name": "5e888efa675b488f5cd4e1f07e64fac8", "lon": -77.02201866666667, "rental_uris": {"android": "https://dc.lft.to/lastmile_qr_scan", "ios": "https://dc.lft.to/lastmile_qr_scan"}, "fusion_lon": 0.0, "bike_id": "5e888efa675b488f5cd4e1f07e64fac8", "is_disabled": 0, "lat": 38.915279, "is_reserved": 0, "type": "electric_scooter"}, {"fusion_lat": 0.0, "name": "d96832b75dda86dbda26636095945743", "lon": -77.03655883333333, "rental_uris": {"android": "https://dc.lft.to/lastmile_qr_scan", "ios": "https://dc.lft.to/lastmile_qr_scan"}, "fusion_lon": 0.0, "bike_id": "d96832b75dda86dbda26636095945743", "is_disabled": 0, "lat": 38.918618, "is_reserved": 0, "type": "electric_scooter"}, {"fusion_lat": 0.0, "name": "a913ba58036e3af4fea8408beb92a145", "lon": -77.031769, "rental_uris": {"android": "https://dc.lft.to/lastmile_qr_scan", "ios": "https://dc.lft.to/lastmile_qr_scan"}, "fusion_lon": 0.0, "bike_id": "a913ba58036e3af4fea8408beb92a145", "is_disabled": 0, "lat": 38.918072, "is_reserved": 0, "type": "electric_scooter"}, {"fusion_lat": 0.0, "name": "4819300b4dad7d15e4dfca7a017123c7", "lon": -77.05819383333333, "rental_uris": {"android": "https://dc.lft.to/lastmile_qr_scan", "ios": "https://dc.lft.to/lastmile_qr_scan"}, "fusion_lon": 0.0, "bike_id": "4819300b4dad7d15e4dfca7a017123c7", "is_disabled": 0, "lat": 38.905508833333336, "is_reserved": 0, "type": "electric_scooter"}, {"fusion_lat": 0.0, "name": "984e2ba613d12a85e2d42aeb580da286", "lon": -77.041556, "rental_uris": {"android": "https://dc.lft.to/lastmile_qr_scan", "ios": "https://dc.lft.to/lastmile_qr_scan"}, "fusion_lon": 0.0, "bike_id": "984e2ba613d12a85e2d42aeb580da286", "is_disabled": 0, "lat": 38.91717466666667, "is_reserved": 0, "type": "electric_scooter"}, {"fusion_lat": 0.0, "name": "d76d0faa93558cd6f7050b4c2cbb7f5d", "lon": -77.07453133333334, "rental_uris": {"android": "https://dc.lft.to/lastmile_qr_scan", "ios": "https://dc.lft.to/lastmile_qr_scan"}, "fusion_lon": 0.0, "bike_id": "d76d0faa93558cd6f7050b4c2cbb7f5d", "is_disabled": 0, "lat": 38.94509716666666, "is_reserved": 0, "type": "electric_scooter"}, {"fusion_lat": 0.0, "name": "8ca77f866b109af0f3ffb2f6945b2697", "lon": -77.0463905, "rental_uris": {"android": "https://dc.lft.to/lastmile_qr_scan", "ios": "https://dc.lft.to/lastmile_qr_scan"}, "fusion_lon": 0.0, "bike_id": "8ca77f866b109af0f3ffb2f6945b2697", "is_disabled": 0, "lat": 38.892277666666665, "is_reserved": 0, "type": "electric_scooter"}, {"fusion_lat": 0.0, "name": "40055734326a912199f7ae6f59e50578", "lon": -76.93475883333333, "rental_uris": {"android": "https://dc.lft.to/lastmile_qr_scan", "ios": "https://dc.lft.to/lastmile_qr_scan"}, "fusion_lon": 0.0, "bike_id": "40055734326a912199f7ae6f59e50578", "is_disabled": 0, "lat": 38.89498966666667, "is_reserved": 0, "type": "electric_scooter"}, {"fusion_lat": 0.0, "name": "e218e5b85859622b48d89a80a8230676", "lon": -77.12527483333334, "rental_uris": {"android": "https://dc.lft.to/lastmile_qr_scan", "ios": "https://dc.lft.to/lastmile_qr_scan"}, "fusion_lon": 0.0, "bike_id": "e218e5b85859622b48d89a80a8230676", "is_disabled": 0, "lat": 39.05633, "is_reserved": 0, "type": "electric_bike"}, {"fusion_lat": 0.0, "name": "acfd337a5f72c5bb7bd8303b4d7bc176", "lon": -77.02857666666667, "rental_uris": {"android": "https://dc.lft.to/lastmile_qr_scan", "ios": "https://dc.lft.to/lastmile_qr_scan"}, "fusion_lon": 0.0, "bike_id": "acfd337a5f72c5bb7bd8303b4d7bc176", "is_disabled": 0, "lat": 38.934074333333335, "is_reserved": 0, "type": "electric_scooter"}, {"fusion_lat": 0.0, "name": "02a3fc87fd69bbdecb298ed78802f280", "lon": -77.0333405, "rental_uris": {"android": "https://dc.lft.to/lastmile_qr_scan", "ios": "https://dc.lft.to/lastmile_qr_scan"}, "fusion_lon": 0.0, "bike_id": "02a3fc87fd69bbdecb298ed78802f280", "is_disabled": 0, "lat": 38.903106333333334, "is_reserved": 0, "type": "electric_scooter"}, {"fusion_lat": 0.0, "name": "6cef7151eabe24baeb067b2f5d8b5d9e", "lon": -77.04163133333333, "rental_uris": {"android": "https://dc.lft.to/lastmile_qr_scan", "ios": "https://dc.lft.to/lastmile_qr_scan"}, "fusion_lon": 0.0, "bike_id": "6cef7151eabe24baeb067b2f5d8b5d9e", "is_disabled": 0, "lat": 38.91175783333333, "is_reserved": 0, "type": "electric_scooter"}, {"fusion_lat": 0.0, "name": "1554a9d817db0efd57ceba160210c4e2", "lon": -76.99933916666667, "rental_uris": {"android": "https://dc.lft.to/lastmile_qr_scan", "ios": "https://dc.lft.to/lastmile_qr_scan"}, "fusion_lon": 0.0, "bike_id": "1554a9d817db0efd57ceba160210c4e2", "is_disabled": 0, "lat": 38.843149, "is_reserved": 0, "type": "electric_scooter"}, {"fusion_lat": 0.0, "name": "a370efff95d21d18bc5e5417c588ae3d", "lon": -77.01752116666667, "rental_uris": {"android": "https://dc.lft.to/lastmile_qr_scan", "ios": "https://dc.lft.to/lastmile_qr_scan"}, "fusion_lon": 0.0, "bike_id": "a370efff95d21d18bc5e5417c588ae3d", "is_disabled": 0, "lat": 38.901141333333335, "is_reserved": 0, "type": "electric_scooter"}, {"fusion_lat": 0.0, "name": "6545babb2e05e90e9e62697733b92931", "lon": -77.034371, "rental_uris": {"android": "https://dc.lft.to/lastmile_qr_scan", "ios": "https://dc.lft.to/lastmile_qr_scan"}, "fusion_lon": 0.0, "bike_id": "6545babb2e05e90e9e62697733b92931", "is_disabled": 0, "lat": 38.91033083333333, "is_reserved": 0, "type": "electric_scooter"}, {"fusion_lat": 0.0, "name": "c366f139618e0b3c4430bd27469bbf7e", "lon": -77.027344, "rental_uris": {"android": "https://dc.lft.to/lastmile_qr_scan", "ios": "https://dc.lft.to/lastmile_qr_scan"}, "fusion_lon": 0.0, "bike_id": "c366f139618e0b3c4430bd27469bbf7e", "is_disabled": 0, "lat": 38.887456666666665, "is_reserved": 0, "type": "electric_scooter"}, {"fusion_lat": 0.0, "name": "84b4efb2c45730ab7020effd34bad2a7", "lon": -77.00720966666667, "rental_uris": {"android": "https://dc.lft.to/lastmile_qr_scan", "ios": "https://dc.lft.to/lastmile_qr_scan"}, "fusion_lon": 0.0, "bike_id": "84b4efb2c45730ab7020effd34bad2a7", "is_disabled": 0, "lat": 38.904791833333334, "is_reserved": 0, "type": "electric_scooter"}, {"fusion_lat": 0.0, "name": "75b2a2a162a925b2e4c95f1aef437dcb", "lon": -76.9935825, "rental_uris": {"android": "https://dc.lft.to/lastmile_qr_scan", "ios": "https://dc.lft.to/lastmile_qr_scan"}, "fusion_lon": 0.0, "bike_id": "75b2a2a162a925b2e4c95f1aef437dcb", "is_disabled": 0, "lat": 38.87783966666667, "is_reserved": 0, "type": "electric_scooter"}, {"fusion_lat": 0.0, "name": "bf0bfffb110218d7b46fb533726ace3c", "lon": -77.01990766666667, "rental_uris": {"android": "https://dc.lft.to/lastmile_qr_scan", "ios": "https://dc.lft.to/lastmile_qr_scan"}, "fusion_lon": 0.0, "bike_id": "bf0bfffb110218d7b46fb533726ace3c", "is_disabled": 0, "lat": 38.89979233333333, "is_reserved": 0, "type": "electric_scooter"}, {"fusion_lat": 0.0, "name": "dfa2cac7a6273561cab033e22ef34723", "lon": -77.015806, "rental_uris": {"android": "https://dc.lft.to/lastmile_qr_scan", "ios": "https://dc.lft.to/lastmile_qr_scan"}, "fusion_lon": 0.0, "bike_id": "dfa2cac7a6273561cab033e22ef34723", "is_disabled": 0, "lat": 38.88504833333333, "is_reserved": 0, "type": "electric_scooter"}, {"fusion_lat": 0.0, "name": "9425b3c0b93142b1f14461b86acc006c", "lon": -77.0645375, "rental_uris": {"android": "https://dc.lft.to/lastmile_qr_scan", "ios": "https://dc.lft.to/lastmile_qr_scan"}, "fusion_lon": 0.0, "bike_id": "9425b3c0b93142b1f14461b86acc006c", "is_disabled": 0, "lat": 38.90518216666667, "is_reserved": 0, "type": "electric_scooter"}, {"fusion_lat": 0.0, "name": "7e4c4bf324931be50bd1da69343e937a", "lon": -77.03296466666667, "rental_uris": {"android": "https://dc.lft.to/lastmile_qr_scan", "ios": "https://dc.lft.to/lastmile_qr_scan"}, "fusion_lon": 0.0, "bike_id": "7e4c4bf324931be50bd1da69343e937a", "is_disabled": 0, "lat": 38.89826733333334, "is_reserved": 0, "type": "electric_scooter"}, {"fusion_lat": 0.0, "name": "aa1529659d401173a8919e1e2b157d02", "lon": -77.03208083333334, "rental_uris": {"android": "https://dc.lft.to/lastmile_qr_scan", "ios": "https://dc.lft.to/lastmile_qr_scan"}, "fusion_lon": 0.0, "bike_id": "aa1529659d401173a8919e1e2b157d02", "is_disabled": 0, "lat": 38.918219, "is_reserved": 0, "type": "electric_scooter"}, {"fusion_lat": 0.0, "name": "a6eade3f2939a78d4bc21b28cc7d4950", "lon": -77.02348366666666, "rental_uris": {"android": "https://dc.lft.to/lastmile_qr_scan", "ios": "https://dc.lft.to/lastmile_qr_scan"}, "fusion_lon": 0.0, "bike_id": "a6eade3f2939a78d4bc21b28cc7d4950", "is_disabled": 0, "lat": 38.892265333333334, "is_reserved": 0, "type": "electric_scooter"}, {"fusion_lat": 0.0, "name": "30096325a2c3d024779407f555f688ff", "lon": -77.0376565, "rental_uris": {"android": "https://dc.lft.to/lastmile_qr_scan", "ios": "https://dc.lft.to/lastmile_qr_scan"}, "fusion_lon": 0.0, "bike_id": "30096325a2c3d024779407f555f688ff", "is_disabled": 0, "lat": 38.9188585, "is_reserved": 0, "type": "electric_scooter"}, {"fusion_lat": 0.0, "name": "a94f2bb799372f6fe9a7a00cd21b97f3", "lon": -76.98936683333334, "rental_uris": {"android": "https://dc.lft.to/lastmile_qr_scan", "ios": "https://dc.lft.to/lastmile_qr_scan"}, "fusion_lon": 0.0, "bike_id": "a94f2bb799372f6fe9a7a00cd21b97f3", "is_disabled": 0, "lat": 38.85721516666667, "is_reserved": 0, "type": "electric_scooter"}, {"fusion_lat": 0.0, "name": "bb2187502eb242fa9381ab484315d47e", "lon": -77.0415575, "rental_uris": {"android": "https://dc.lft.to/lastmile_qr_scan", "ios": "https://dc.lft.to/lastmile_qr_scan"}, "fusion_lon": 0.0, "bike_id": "bb2187502eb242fa9381ab484315d47e", "is_disabled": 0, "lat": 38.91718733333333, "is_reserved": 0, "type": "electric_scooter"}, {"fusion_lat": 0.0, "name": "d2d8013f173fd955621253f9566ce1e7", "lon": -76.99306366666667, "rental_uris": {"android": "https://dc.lft.to/lastmile_qr_scan", "ios": "https://dc.lft.to/lastmile_qr_scan"}, "fusion_lon": 0.0, "bike_id": "d2d8013f173fd955621253f9566ce1e7", "is_disabled": 0, "lat": 38.907646166666666, "is_reserved": 0, "type": "electric_scooter"}, {"fusion_lat": 0.0, "name": "c9f665cab59b885fccadea8c742f08d1", "lon": -77.0037885, "rental_uris": {"android": "https://dc.lft.to/lastmile_qr_scan", "ios": "https://dc.lft.to/lastmile_qr_scan"}, "fusion_lon": 0.0, "bike_id": "c9f665cab59b885fccadea8c742f08d1", "is_disabled": 0, "lat": 38.8763685, "is_reserved": 0, "type": "electric_scooter"}, {"fusion_lat": 0.0, "name": "01566a77fef40203c604a3d512f5bcd4", "lon": -77.01773733333333, "rental_uris": {"android": "https://dc.lft.to/lastmile_qr_scan", "ios": "https://dc.lft.to/lastmile_qr_scan"}, "fusion_lon": 0.0, "bike_id": "01566a77fef40203c604a3d512f5bcd4", "is_disabled": 0, "lat": 38.8871135, "is_reserved": 0, "type": "electric_scooter"}, {"fusion_lat": 0.0, "name": "41255ba504cc4c4acf44f62d42cb7e84", "lon": -77.00600283333333, "rental_uris": {"android": "https://dc.lft.to/lastmile_qr_scan", "ios": "https://dc.lft.to/lastmile_qr_scan"}, "fusion_lon": 0.0, "bike_id": "41255ba504cc4c4acf44f62d42cb7e84", "is_disabled": 0, "lat": 38.876392333333335, "is_reserved": 0, "type": "electric_scooter"}, {"fusion_lat": 0.0, "name": "ca6d21169d5f52e842e0c10846670ba0", "lon": -77.03533516666667, "rental_uris": {"android": "https://dc.lft.to/lastmile_qr_scan", "ios": "https://dc.lft.to/lastmile_qr_scan"}, "fusion_lon": 0.0, "bike_id": "ca6d21169d5f52e842e0c10846670ba0", "is_disabled": 0, "lat": 38.918684, "is_reserved": 0, "type": "electric_scooter"}, {"fusion_lat": 0.0, "name": "8c92618b98db62e7b80b06aa09bd2337", "lon": -77.02352933333333, "rental_uris": {"android": "https://dc.lft.to/lastmile_qr_scan", "ios": "https://dc.lft.to/lastmile_qr_scan"}, "fusion_lon": 0.0, "bike_id": "8c92618b98db62e7b80b06aa09bd2337", "is_disabled": 0, "lat": 38.93529183333333, "is_reserved": 0, "type": "electric_scooter"}, {"fusion_lat": 0.0, "name": "60b5b92ebfc57e8eba3a8bd36f3d6ac9", "lon": -77.01059266666667, "rental_uris": {"android": "https://dc.lft.to/lastmile_qr_scan", "ios": "https://dc.lft.to/lastmile_qr_scan"}, "fusion_lon": 0.0, "bike_id": "60b5b92ebfc57e8eba3a8bd36f3d6ac9", "is_disabled": 0, "lat": 38.9127245, "is_reserved": 0, "type": "electric_scooter"}, {"fusion_lat": 0.0, "name": "0899580ce30221ed1a196a42a08c2e99", "lon": -77.02841883333333, "rental_uris": {"android": "https://dc.lft.to/lastmile_qr_scan", "ios": "https://dc.lft.to/lastmile_qr_scan"}, "fusion_lon": 0.0, "bike_id": "0899580ce30221ed1a196a42a08c2e99", "is_disabled": 0, "lat": 38.8958195, "is_reserved": 0, "type": "electric_scooter"}, {"fusion_lat": 0.0, "name": "165f385befbd8f05901887043774d14e", "lon": -77.098299, "rental_uris": {"android": "https://dc.lft.to/lastmile_qr_scan", "ios": "https://dc.lft.to/lastmile_qr_scan"}, "fusion_lon": 0.0, "bike_id": "165f385befbd8f05901887043774d14e", "is_disabled": 0, "lat": 38.8501205, "is_reserved": 0, "type": "electric_bike"}, {"fusion_lat": 0.0, "name": "2c891b42dc3b31008f07b43e54ac97a2", "lon": -77.0360755, "rental_uris": {"android": "https://dc.lft.to/lastmile_qr_scan", "ios": "https://dc.lft.to/lastmile_qr_scan"}, "fusion_lon": 0.0, "bike_id": "2c891b42dc3b31008f07b43e54ac97a2", "is_disabled": 0, "lat": 38.92809333333334, "is_reserved": 0, "type": "electric_scooter"}, {"fusion_lat": 0.0, "name": "e2fd5b9437b783fc6dfb11984670a7a5", "lon": -77.00923066666667, "rental_uris": {"android": "https://dc.lft.to/lastmile_qr_scan", "ios": "https://dc.lft.to/lastmile_qr_scan"}, "fusion_lon": 0.0, "bike_id": "e2fd5b9437b783fc6dfb11984670a7a5", "is_disabled": 0, "lat": 38.8990575, "is_reserved": 0, "type": "electric_scooter"}, {"fusion_lat": 0.0, "name": "d3be1190f500724ff8e365902b9826c6", "lon": -77.0032535, "rental_uris": {"android": "https://dc.lft.to/lastmile_qr_scan", "ios": "https://dc.lft.to/lastmile_qr_scan"}, "fusion_lon": 0.0, "bike_id": "d3be1190f500724ff8e365902b9826c6", "is_disabled": 0, "lat": 38.88732366666667, "is_reserved": 0, "type": "electric_scooter"}, {"fusion_lat": 0.0, "name": "c793a6797592d2a440ca308a81a1bf62", "lon": -77.04298916666667, "rental_uris": {"android": "https://dc.lft.to/lastmile_qr_scan", "ios": "https://dc.lft.to/lastmile_qr_scan"}, "fusion_lon": 0.0, "bike_id": "c793a6797592d2a440ca308a81a1bf62", "is_disabled": 0, "lat": 38.89737366666667, "is_reserved": 0, "type": "electric_scooter"}, {"fusion_lat": 0.0, "name": "06035a8bd0497faea83c4c90887e0d25", "lon": -77.02937733333333, "rental_uris": {"android": "https://dc.lft.to/lastmile_qr_scan", "ios": "https://dc.lft.to/lastmile_qr_scan"}, "fusion_lon": 0.0, "bike_id": "06035a8bd0497faea83c4c90887e0d25", "is_disabled": 0, "lat": 38.9397985, "is_reserved": 0, "type": "electric_scooter"}, {"fusion_lat": 0.0, "name": "12ef1cdd7bedb669450f86dc79e9ba32", "lon": -77.0241335, "rental_uris": {"android": "https://dc.lft.to/lastmile_qr_scan", "ios": "https://dc.lft.to/lastmile_qr_scan"}, "fusion_lon": 0.0, "bike_id": "12ef1cdd7bedb669450f86dc79e9ba32", "is_disabled": 0, "lat": 38.9208095, "is_reserved": 0, "type": "electric_scooter"}, {"fusion_lat": 0.0, "name": "18cb4e5156e6d77258749ea8f82a3fc0", "lon": -77.04466466666666, "rental_uris": {"android": "https://dc.lft.to/lastmile_qr_scan", "ios": "https://dc.lft.to/lastmile_qr_scan"}, "fusion_lon": 0.0, "bike_id": "18cb4e5156e6d77258749ea8f82a3fc0", "is_disabled": 0, "lat": 38.89612133333333, "is_reserved": 0, "type": "electric_scooter"}, {"fusion_lat": 0.0, "name": "77c19d119c46b76042a21f55f842be0c", "lon": -77.03545016666666, "rental_uris": {"android": "https://dc.lft.to/lastmile_qr_scan", "ios": "https://dc.lft.to/lastmile_qr_scan"}, "fusion_lon": 0.0, "bike_id": "77c19d119c46b76042a21f55f842be0c", "is_disabled": 0, "lat": 38.90480816666667, "is_reserved": 0, "type": "electric_scooter"}, {"fusion_lat": 0.0, "name": "bf349a230dff2e2846b80a41882f5e7a", "lon": -77.02020133333333, "rental_uris": {"android": "https://dc.lft.to/lastmile_qr_scan", "ios": "https://dc.lft.to/lastmile_qr_scan"}, "fusion_lon": 0.0, "bike_id": "bf349a230dff2e2846b80a41882f5e7a", "is_disabled": 0, "lat": 38.91403616666667, "is_reserved": 0, "type": "electric_scooter"}, {"fusion_lat": 0.0, "name": "0bf75ff1f73d9fa906bd852e45d901ce", "lon": -76.93373183333334, "rental_uris": {"android": "https://dc.lft.to/lastmile_qr_scan", "ios": "https://dc.lft.to/lastmile_qr_scan"}, "fusion_lon": 0.0, "bike_id": "0bf75ff1f73d9fa906bd852e45d901ce", "is_disabled": 0, "lat": 38.8991035, "is_reserved": 0, "type": "electric_scooter"}, {"fusion_lat": 0.0, "name": "73aa92b9afb2c4c123e34e91cf220c83", "lon": -77.10329033333333, "rental_uris": {"android": "https://dc.lft.to/lastmile_qr_scan", "ios": "https://dc.lft.to/lastmile_qr_scan"}, "fusion_lon": 0.0, "bike_id": "73aa92b9afb2c4c123e34e91cf220c83", "is_disabled": 0, "lat": 38.88556616666666, "is_reserved": 0, "type": "electric_bike"}, {"fusion_lat": 0.0, "name": "69be374f68fed0e0c9d39cf545b56f13", "lon": -77.00606116666667, "rental_uris": {"android": "https://dc.lft.to/lastmile_qr_scan", "ios": "https://dc.lft.to/lastmile_qr_scan"}, "fusion_lon": 0.0, "bike_id": "69be374f68fed0e0c9d39cf545b56f13", "is_disabled": 0, "lat": 38.8718155, "is_reserved": 0, "type": "electric_scooter"}, {"fusion_lat": 0.0, "name": "c51ebd5061ec88ffec943d2772914bad", "lon": -77.04355083333333, "rental_uris": {"android": "https://dc.lft.to/lastmile_qr_scan", "ios": "https://dc.lft.to/lastmile_qr_scan"}, "fusion_lon": 0.0, "bike_id": "c51ebd5061ec88ffec943d2772914bad", "is_disabled": 0, "lat": 38.91347783333333, "is_reserved": 0, "type": "electric_scooter"}, {"fusion_lat": 0.0, "name": "d98932d801633bddb483e9b0abd56604", "lon": -77.02837633333333, "rental_uris": {"android": "https://dc.lft.to/lastmile_qr_scan", "ios": "https://dc.lft.to/lastmile_qr_scan"}, "fusion_lon": 0.0, "bike_id": "d98932d801633bddb483e9b0abd56604", "is_disabled": 0, "lat": 38.901446, "is_reserved": 0, "type": "electric_scooter"}, {"fusion_lat": 0.0, "name": "6624ebc634162a7d9106ee4de0d07c46", "lon": -77.02848116666667, "rental_uris": {"android": "https://dc.lft.to/lastmile_qr_scan", "ios": "https://dc.lft.to/lastmile_qr_scan"}, "fusion_lon": 0.0, "bike_id": "6624ebc634162a7d9106ee4de0d07c46", "is_disabled": 0, "lat": 38.898531, "is_reserved": 0, "type": "electric_scooter"}, {"fusion_lat": 0.0, "name": "de951d14ea2e05b418f60d75ddbb525b", "lon": -77.035018, "rental_uris": {"android": "https://dc.lft.to/lastmile_qr_scan", "ios": "https://dc.lft.to/lastmile_qr_scan"}, "fusion_lon": 0.0, "bike_id": "de951d14ea2e05b418f60d75ddbb525b", "is_disabled": 0, "lat": 38.923410833333335, "is_reserved": 0, "type": "electric_scooter"}, {"fusion_lat": 0.0, "name": "b487de37306cce3e91ca3bdf97515682", "lon": -76.98714616666666, "rental_uris": {"android": "https://dc.lft.to/lastmile_qr_scan", "ios": "https://dc.lft.to/lastmile_qr_scan"}, "fusion_lon": 0.0, "bike_id": "b487de37306cce3e91ca3bdf97515682", "is_disabled": 0, "lat": 38.8670085, "is_reserved": 0, "type": "electric_scooter"}, {"fusion_lat": 0.0, "name": "981b75227ed3e85785b09bd3194369db", "lon": -77.07272866666666, "rental_uris": {"android": "https://dc.lft.to/lastmile_qr_scan", "ios": "https://dc.lft.to/lastmile_qr_scan"}, "fusion_lon": 0.0, "bike_id": "981b75227ed3e85785b09bd3194369db", "is_disabled": 0, "lat": 38.9091415, "is_reserved": 0, "type": "electric_scooter"}, {"fusion_lat": 0.0, "name": "871a7c4358dc804fdb26b630266cfb74", "lon": -77.03145866666667, "rental_uris": {"android": "https://dc.lft.to/lastmile_qr_scan", "ios": "https://dc.lft.to/lastmile_qr_scan"}, "fusion_lon": 0.0, "bike_id": "871a7c4358dc804fdb26b630266cfb74", "is_disabled": 0, "lat": 38.91804033333333, "is_reserved": 0, "type": "electric_scooter"}, {"fusion_lat": 0.0, "name": "adddb2c7f6da54c1e9ed07c1847dde51", "lon": -77.01684166666666, "rental_uris": {"android": "https://dc.lft.to/lastmile_qr_scan", "ios": "https://dc.lft.to/lastmile_qr_scan"}, "fusion_lon": 0.0, "bike_id": "adddb2c7f6da54c1e9ed07c1847dde51", "is_disabled": 0, "lat": 38.97496483333333, "is_reserved": 0, "type": "electric_scooter"}, {"fusion_lat": 0.0, "name": "7ba0509fc7b499fd83a4397a50ef6e69", "lon": -76.99904433333333, "rental_uris": {"android": "https://dc.lft.to/lastmile_qr_scan", "ios": "https://dc.lft.to/lastmile_qr_scan"}, "fusion_lon": 0.0, "bike_id": "7ba0509fc7b499fd83a4397a50ef6e69", "is_disabled": 0, "lat": 38.8191415, "is_reserved": 0, "type": "electric_bike"}, {"fusion_lat": 0.0, "name": "c8d7aa7993a1652736e955f5932ba8d5", "lon": -77.04358933333333, "rental_uris": {"android": "https://dc.lft.to/lastmile_qr_scan", "ios": "https://dc.lft.to/lastmile_qr_scan"}, "fusion_lon": 0.0, "bike_id": "c8d7aa7993a1652736e955f5932ba8d5", "is_disabled": 0, "lat": 38.8972435, "is_reserved": 0, "type": "electric_scooter"}, {"fusion_lat": 0.0, "name": "f36f2a5809f987457c4b27aa95a2aa0f", "lon": -77.03506866666666, "rental_uris": {"android": "https://dc.lft.to/lastmile_qr_scan", "ios": "https://dc.lft.to/lastmile_qr_scan"}, "fusion_lon": 0.0, "bike_id": "f36f2a5809f987457c4b27aa95a2aa0f", "is_disabled": 0, "lat": 38.9214475, "is_reserved": 0, "type": "electric_scooter"}, {"fusion_lat": 0.0, "name": "2534f3b8c9806bb3b98aeebaff3b22b8", "lon": -77.0415995, "rental_uris": {"android": "https://dc.lft.to/lastmile_qr_scan", "ios": "https://dc.lft.to/lastmile_qr_scan"}, "fusion_lon": 0.0, "bike_id": "2534f3b8c9806bb3b98aeebaff3b22b8", "is_disabled": 0, "lat": 38.907377333333336, "is_reserved": 0, "type": "electric_scooter"}, {"fusion_lat": 0.0, "name": "6c7853b7b563a39ef690f0726392e8c7", "lon": -77.039695, "rental_uris": {"android": "https://dc.lft.to/lastmile_qr_scan", "ios": "https://dc.lft.to/lastmile_qr_scan"}, "fusion_lon": 0.0, "bike_id": "6c7853b7b563a39ef690f0726392e8c7", "is_disabled": 0, "lat": 38.9326985, "is_reserved": 0, "type": "electric_scooter"}, {"fusion_lat": 0.0, "name": "9713758cbde68c5876af24051ccc92b9", "lon": -77.043384, "rental_uris": {"android": "https://dc.lft.to/lastmile_qr_scan", "ios": "https://dc.lft.to/lastmile_qr_scan"}, "fusion_lon": 0.0, "bike_id": "9713758cbde68c5876af24051ccc92b9", "is_disabled": 0, "lat": 38.92605616666667, "is_reserved": 0, "type": "electric_scooter"}, {"fusion_lat": 0.0, "name": "6594b3de9bcd041f30f3835102550a74", "lon": -77.06529183333333, "rental_uris": {"android": "https://dc.lft.to/lastmile_qr_scan", "ios": "https://dc.lft.to/lastmile_qr_scan"}, "fusion_lon": 0.0, "bike_id": "6594b3de9bcd041f30f3835102550a74", "is_disabled": 0, "lat": 38.90647533333333, "is_reserved": 0, "type": "electric_scooter"}, {"fusion_lat": 0.0, "name": "eaf22fa45c1f56e346ae79cae4576dae", "lon": -77.04898283333333, "rental_uris": {"android": "https://dc.lft.to/lastmile_qr_scan", "ios": "https://dc.lft.to/lastmile_qr_scan"}, "fusion_lon": 0.0, "bike_id": "eaf22fa45c1f56e346ae79cae4576dae", "is_disabled": 0, "lat": 38.900423833333335, "is_reserved": 0, "type": "electric_scooter"}, {"fusion_lat": 0.0, "name": "3e68081b7dca5fa5e9a2766290c2ab0b", "lon": -77.04483216666667, "rental_uris": {"android": "https://dc.lft.to/lastmile_qr_scan", "ios": "https://dc.lft.to/lastmile_qr_scan"}, "fusion_lon": 0.0, "bike_id": "3e68081b7dca5fa5e9a2766290c2ab0b", "is_disabled": 0, "lat": 38.909291333333336, "is_reserved": 0, "type": "electric_scooter"}, {"fusion_lat": 0.0, "name": "4a90a8f423872a85495ddea4e9b3d471", "lon": -77.02715233333333, "rental_uris": {"android": "https://dc.lft.to/lastmile_qr_scan", "ios": "https://dc.lft.to/lastmile_qr_scan"}, "fusion_lon": 0.0, "bike_id": "4a90a8f423872a85495ddea4e9b3d471", "is_disabled": 0, "lat": 38.897381333333335, "is_reserved": 0, "type": "electric_scooter"}, {"fusion_lat": 0.0, "name": "cb74c640629f95d500a14ca7e0f32965", "lon": -76.982817, "rental_uris": {"android": "https://dc.lft.to/lastmile_qr_scan", "ios": "https://dc.lft.to/lastmile_qr_scan"}, "fusion_lon": 0.0, "bike_id": "cb74c640629f95d500a14ca7e0f32965", "is_disabled": 0, "lat": 38.903381, "is_reserved": 0, "type": "electric_scooter"}, {"fusion_lat": 0.0, "name": "790ffc614ab454fba48043b66fa3b050", "lon": -76.9994495, "rental_uris": {"android": "https://dc.lft.to/lastmile_qr_scan", "ios": "https://dc.lft.to/lastmile_qr_scan"}, "fusion_lon": 0.0, "bike_id": "790ffc614ab454fba48043b66fa3b050", "is_disabled": 0, "lat": 38.896429499999996, "is_reserved": 0, "type": "electric_scooter"}, {"fusion_lat": 0.0, "name": "a4af0feb81d978f9609b4ddd1336705e", "lon": -76.9890625, "rental_uris": {"android": "https://dc.lft.to/lastmile_qr_scan", "ios": "https://dc.lft.to/lastmile_qr_scan"}, "fusion_lon": 0.0, "bike_id": "a4af0feb81d978f9609b4ddd1336705e", "is_disabled": 0, "lat": 38.9046655, "is_reserved": 0, "type": "electric_scooter"}, {"fusion_lat": 0.0, "name": "4a1fb61b67caa76efd63e09dd16b1b95", "lon": -77.03777566666666, "rental_uris": {"android": "https://dc.lft.to/lastmile_qr_scan", "ios": "https://dc.lft.to/lastmile_qr_scan"}, "fusion_lon": 0.0, "bike_id": "4a1fb61b67caa76efd63e09dd16b1b95", "is_disabled": 0, "lat": 38.91675016666667, "is_reserved": 0, "type": "electric_scooter"}, {"fusion_lat": 0.0, "name": "a6befc7764a555850cbf6574411d9089", "lon": -77.0460375, "rental_uris": {"android": "https://dc.lft.to/lastmile_qr_scan", "ios": "https://dc.lft.to/lastmile_qr_scan"}, "fusion_lon": 0.0, "bike_id": "a6befc7764a555850cbf6574411d9089", "is_disabled": 0, "lat": 38.917115, "is_reserved": 0, "type": "electric_scooter"}, {"fusion_lat": 0.0, "name": "a14f0cc36d9a1b13f060b7dda89207d0", "lon": -77.02431716666666, "rental_uris": {"android": "https://dc.lft.to/lastmile_qr_scan", "ios": "https://dc.lft.to/lastmile_qr_scan"}, "fusion_lon": 0.0, "bike_id": "a14f0cc36d9a1b13f060b7dda89207d0", "is_disabled": 0, "lat": 38.91554516666667, "is_reserved": 0, "type": "electric_scooter"}, {"fusion_lat": 0.0, "name": "bd422178b230d674d93c1b8542435d5f", "lon": -77.02181933333334, "rental_uris": {"android": "https://dc.lft.to/lastmile_qr_scan", "ios": "https://dc.lft.to/lastmile_qr_scan"}, "fusion_lon": 0.0, "bike_id": "bd422178b230d674d93c1b8542435d5f", "is_disabled": 0, "lat": 38.8985985, "is_reserved": 0, "type": "electric_scooter"}, {"fusion_lat": 0.0, "name": "89c6b8f7c09ad5f8bb881600d829eb9e", "lon": -77.03294766666667, "rental_uris": {"android": "https://dc.lft.to/lastmile_qr_scan", "ios": "https://dc.lft.to/lastmile_qr_scan"}, "fusion_lon": 0.0, "bike_id": "89c6b8f7c09ad5f8bb881600d829eb9e", "is_disabled": 0, "lat": 38.956271666666666, "is_reserved": 0, "type": "electric_scooter"}, {"fusion_lat": 0.0, "name": "cbe3654ba22cf2f4df50fcc117b44a15", "lon": -77.03445916666666, "rental_uris": {"android": "https://dc.lft.to/lastmile_qr_scan", "ios": "https://dc.lft.to/lastmile_qr_scan"}, "fusion_lon": 0.0, "bike_id": "cbe3654ba22cf2f4df50fcc117b44a15", "is_disabled": 0, "lat": 38.919073166666664, "is_reserved": 0, "type": "electric_scooter"}, {"fusion_lat": 0.0, "name": "0c1e4cfb65b8f0eff8750b5bea93f645", "lon": -77.02538583333333, "rental_uris": {"android": "https://dc.lft.to/lastmile_qr_scan", "ios": "https://dc.lft.to/lastmile_qr_scan"}, "fusion_lon": 0.0, "bike_id": "0c1e4cfb65b8f0eff8750b5bea93f645", "is_disabled": 0, "lat": 38.91814216666667, "is_reserved": 0, "type": "electric_scooter"}, {"fusion_lat": 0.0, "name": "95373ba8602d4017f3ca4be5ae1b9f8a", "lon": -77.02154316666666, "rental_uris": {"android": "https://dc.lft.to/lastmile_qr_scan", "ios": "https://dc.lft.to/lastmile_qr_scan"}, "fusion_lon": 0.0, "bike_id": "95373ba8602d4017f3ca4be5ae1b9f8a", "is_disabled": 0, "lat": 38.92598733333333, "is_reserved": 0, "type": "electric_scooter"}, {"fusion_lat": 0.0, "name": "37e9195410e6e25ac3710c99fc45df53", "lon": -77.012346, "rental_uris": {"android": "https://dc.lft.to/lastmile_qr_scan", "ios": "https://dc.lft.to/lastmile_qr_scan"}, "fusion_lon": 0.0, "bike_id": "37e9195410e6e25ac3710c99fc45df53", "is_disabled": 0, "lat": 38.89291266666667, "is_reserved": 0, "type": "electric_scooter"}, {"fusion_lat": 0.0, "name": "4deedf69aa3b5bd2bb0d13ff5db23f8f", "lon": -77.02236816666667, "rental_uris": {"android": "https://dc.lft.to/lastmile_qr_scan", "ios": "https://dc.lft.to/lastmile_qr_scan"}, "fusion_lon": 0.0, "bike_id": "4deedf69aa3b5bd2bb0d13ff5db23f8f", "is_disabled": 0, "lat": 38.92478966666667, "is_reserved": 0, "type": "electric_scooter"}, {"fusion_lat": 0.0, "name": "63fb018d42c3c80361fbe70231f4a560", "lon": -76.99066066666667, "rental_uris": {"android": "https://dc.lft.to/lastmile_qr_scan", "ios": "https://dc.lft.to/lastmile_qr_scan"}, "fusion_lon": 0.0, "bike_id": "63fb018d42c3c80361fbe70231f4a560", "is_disabled": 0, "lat": 38.86380616666667, "is_reserved": 0, "type": "electric_scooter"}, {"fusion_lat": 0.0, "name": "c8ee2607e6cea53180da7a9cfeb64187", "lon": -77.0326455, "rental_uris": {"android": "https://dc.lft.to/lastmile_qr_scan", "ios": "https://dc.lft.to/lastmile_qr_scan"}, "fusion_lon": 0.0, "bike_id": "c8ee2607e6cea53180da7a9cfeb64187", "is_disabled": 0, "lat": 38.93983866666667, "is_reserved": 0, "type": "electric_scooter"}, {"fusion_lat": 0.0, "name": "42a558e625ce8190e0ae37802121501f", "lon": -77.04559266666666, "rental_uris": {"android": "https://dc.lft.to/lastmile_qr_scan", "ios": "https://dc.lft.to/lastmile_qr_scan"}, "fusion_lon": 0.0, "bike_id": "42a558e625ce8190e0ae37802121501f", "is_disabled": 0, "lat": 38.89609133333333, "is_reserved": 0, "type": "electric_scooter"}, {"fusion_lat": 0.0, "name": "18ffea55f70d9583924811109ab739e5", "lon": -77.01366416666667, "rental_uris": {"android": "https://dc.lft.to/lastmile_qr_scan", "ios": "https://dc.lft.to/lastmile_qr_scan"}, "fusion_lon": 0.0, "bike_id": "18ffea55f70d9583924811109ab739e5", "is_disabled": 0, "lat": 38.887053333333334, "is_reserved": 0, "type": "electric_scooter"}, {"fusion_lat": 0.0, "name": "73f0628e52f06d3564ce96a41f219f9d", "lon": -77.0054575, "rental_uris": {"android": "https://dc.lft.to/lastmile_qr_scan", "ios": "https://dc.lft.to/lastmile_qr_scan"}, "fusion_lon": 0.0, "bike_id": "73f0628e52f06d3564ce96a41f219f9d", "is_disabled": 0, "lat": 38.8745635, "is_reserved": 0, "type": "electric_scooter"}, {"fusion_lat": 0.0, "name": "f70358e9dc1a66c7aa9f3279db8a486f", "lon": -76.9851275, "rental_uris": {"android": "https://dc.lft.to/lastmile_qr_scan", "ios": "https://dc.lft.to/lastmile_qr_scan"}, "fusion_lon": 0.0, "bike_id": "f70358e9dc1a66c7aa9f3279db8a486f", "is_disabled": 0, "lat": 38.866509, "is_reserved": 0, "type": "electric_scooter"}, {"fusion_lat": 0.0, "name": "9dd0c13ed4696abb03015ad0c86983d5", "lon": -77.0436635, "rental_uris": {"android": "https://dc.lft.to/lastmile_qr_scan", "ios": "https://dc.lft.to/lastmile_qr_scan"}, "fusion_lon": 0.0, "bike_id": "9dd0c13ed4696abb03015ad0c86983d5", "is_disabled": 0, "lat": 38.897298166666666, "is_reserved": 0, "type": "electric_scooter"}, {"fusion_lat": 0.0, "name": "66c50300121eed4bf0ffaf463bbdded9", "lon": -76.9429405, "rental_uris": {"android": "https://dc.lft.to/lastmile_qr_scan", "ios": "https://dc.lft.to/lastmile_qr_scan"}, "fusion_lon": 0.0, "bike_id": "66c50300121eed4bf0ffaf463bbdded9", "is_disabled": 0, "lat": 38.93867316666667, "is_reserved": 0, "type": "electric_bike"}, {"fusion_lat": 0.0, "name": "23c9203d65e897ef58c3c5bb86b2b343", "lon": -76.92622716666666, "rental_uris": {"android": "https://dc.lft.to/lastmile_qr_scan", "ios": "https://dc.lft.to/lastmile_qr_scan"}, "fusion_lon": 0.0, "bike_id": "23c9203d65e897ef58c3c5bb86b2b343", "is_disabled": 0, "lat": 38.88457666666667, "is_reserved": 0, "type": "electric_scooter"}, {"fusion_lat": 0.0, "name": "5ea2eedf99e2bff1e1f5bb19e50bc133", "lon": -76.98923483333333, "rental_uris": {"android": "https://dc.lft.to/lastmile_qr_scan", "ios": "https://dc.lft.to/lastmile_qr_scan"}, "fusion_lon": 0.0, "bike_id": "5ea2eedf99e2bff1e1f5bb19e50bc133", "is_disabled": 0, "lat": 38.8656965, "is_reserved": 0, "type": "electric_scooter"}, {"fusion_lat": 0.0, "name": "197aa7893568a7c42617e3631d5a0fd0", "lon": -77.0326745, "rental_uris": {"android": "https://dc.lft.to/lastmile_qr_scan", "ios": "https://dc.lft.to/lastmile_qr_scan"}, "fusion_lon": 0.0, "bike_id": "197aa7893568a7c42617e3631d5a0fd0", "is_disabled": 0, "lat": 38.927434, "is_reserved": 0, "type": "electric_scooter"}, {"fusion_lat": 0.0, "name": "f092a08f5f3ae3ccbcc48231cf57662b", "lon": -77.0287775, "rental_uris": {"android": "https://dc.lft.to/lastmile_qr_scan", "ios": "https://dc.lft.to/lastmile_qr_scan"}, "fusion_lon": 0.0, "bike_id": "f092a08f5f3ae3ccbcc48231cf57662b", "is_disabled": 0, "lat": 38.9213615, "is_reserved": 0, "type": "electric_scooter"}, {"fusion_lat": 0.0, "name": "4e268d2cc2f872a04eeecf3d8499b716", "lon": -76.99550183333334, "rental_uris": {"android": "https://dc.lft.to/lastmile_qr_scan", "ios": "https://dc.lft.to/lastmile_qr_scan"}, "fusion_lon": 0.0, "bike_id": "4e268d2cc2f872a04eeecf3d8499b716", "is_disabled": 0, "lat": 38.83154433333333, "is_reserved": 0, "type": "electric_bike"}, {"fusion_lat": 0.0, "name": "e8fa1fc017f72ed2782d19f8173da111", "lon": -77.05048983333333, "rental_uris": {"android": "https://dc.lft.to/lastmile_qr_scan", "ios": "https://dc.lft.to/lastmile_qr_scan"}, "fusion_lon": 0.0, "bike_id": "e8fa1fc017f72ed2782d19f8173da111", "is_disabled": 0, "lat": 38.923542833333336, "is_reserved": 0, "type": "electric_scooter"}, {"fusion_lat": 0.0, "name": "f96e451ecd772f3e647ea0626d07aeec", "lon": -77.0212385, "rental_uris": {"android": "https://dc.lft.to/lastmile_qr_scan", "ios": "https://dc.lft.to/lastmile_qr_scan"}, "fusion_lon": 0.0, "bike_id": "f96e451ecd772f3e647ea0626d07aeec", "is_disabled": 0, "lat": 38.92336483333333, "is_reserved": 0, "type": "electric_scooter"}, {"fusion_lat": 0.0, "name": "4aa29501e4c72192d565a5851354ddf1", "lon": -77.108379, "rental_uris": {"android": "https://dc.lft.to/lastmile_qr_scan", "ios": "https://dc.lft.to/lastmile_qr_scan"}, "fusion_lon": 0.0, "bike_id": "4aa29501e4c72192d565a5851354ddf1", "is_disabled": 0, "lat": 38.8119825, "is_reserved": 0, "type": "electric_bike"}, {"fusion_lat": 0.0, "name": "e7b22f6b6fa1ba139031c36640405c78", "lon": -76.99029533333334, "rental_uris": {"android": "https://dc.lft.to/lastmile_qr_scan", "ios": "https://dc.lft.to/lastmile_qr_scan"}, "fusion_lon": 0.0, "bike_id": "e7b22f6b6fa1ba139031c36640405c78", "is_disabled": 0, "lat": 38.891717666666665, "is_reserved": 0, "type": "electric_scooter"}, {"fusion_lat": 0.0, "name": "c79f5d0a5a51d807b2b73241a956a5ce", "lon": -77.02454933333334, "rental_uris": {"android": "https://dc.lft.to/lastmile_qr_scan", "ios": "https://dc.lft.to/lastmile_qr_scan"}, "fusion_lon": 0.0, "bike_id": "c79f5d0a5a51d807b2b73241a956a5ce", "is_disabled": 0, "lat": 38.938567666666664, "is_reserved": 0, "type": "electric_scooter"}, {"fusion_lat": 0.0, "name": "1549445cf804a37c5fad373dab1b6bc9", "lon": -77.04270816666667, "rental_uris": {"android": "https://dc.lft.to/lastmile_qr_scan", "ios": "https://dc.lft.to/lastmile_qr_scan"}, "fusion_lon": 0.0, "bike_id": "1549445cf804a37c5fad373dab1b6bc9", "is_disabled": 0, "lat": 38.92299033333333, "is_reserved": 0, "type": "electric_scooter"}, {"fusion_lat": 0.0, "name": "78ced87e1466b7c143e598db4b7a7270", "lon": -77.02185566666667, "rental_uris": {"android": "https://dc.lft.to/lastmile_qr_scan", "ios": "https://dc.lft.to/lastmile_qr_scan"}, "fusion_lon": 0.0, "bike_id": "78ced87e1466b7c143e598db4b7a7270", "is_disabled": 0, "lat": 38.88730916666667, "is_reserved": 0, "type": "electric_scooter"}, {"fusion_lat": 0.0, "name": "a20f4fd536dc474369d8894399651591", "lon": -77.03968416666666, "rental_uris": {"android": "https://dc.lft.to/lastmile_qr_scan", "ios": "https://dc.lft.to/lastmile_qr_scan"},