{"data": {"bikes": [{"rental_uris": {"ios": "https://dc.lft.to/lastmile_qr_scan", "android": "https://dc.lft.to/lastmile_qr_scan"}, "fusion_lon": 0.0, "lon": -77.02441716666667, "lat": 38.91750966666667, "is_reserved": 0, "name": "10a2fbc3d59302c61853d49763ace7a9", "is_disabled": 0, "type": "electric_bike", "fusion_lat": 0.0, "bike_id": "10a2fbc3d59302c61853d49763ace7a9"}, {"rental_uris": {"ios": "https://dc.lft.to/lastmile_qr_scan", "android": "https://dc.lft.to/lastmile_qr_scan"}, "fusion_lon": 0.0, "lon": -77.05935533333333, "lat": 38.905269833333335, "is_reserved": 0, "name": "025e33c8158c622f8036aaf4f9135b4b", "is_disabled": 0, "type": "electric_scooter", "fusion_lat": 0.0, "bike_id": "025e33c8158c622f8036aaf4f9135b4b"}, {"rental_uris": {"ios": "https://dc.lft.to/lastmile_qr_scan", "android": "https://dc.lft.to/lastmile_qr_scan"}, "fusion_lon": 0.0, "lon": -77.0465505, "lat": 38.892500166666665, "is_reserved": 0, "name": "3b6b608dc59fec1ed1bd8267b61ed8a9", "is_disabled": 0, "type": "electric_scooter", "fusion_lat": 0.0, "bike_id": "3b6b608dc59fec1ed1bd8267b61ed8a9"}, {"rental_uris": {"ios": "https://dc.lft.to/lastmile_qr_scan", "android": "https://dc.lft.to/lastmile_qr_scan"}, "fusion_lon": 0.0, "lon": -76.97221566666667, "lat": 38.91444166666667, "is_reserved": 0, "name": "9cc02c896ccc2ceeb2bdae35d98676ca", "is_disabled": 0, "type": "electric_bike", "fusion_lat": 0.0, "bike_id": "9cc02c896ccc2ceeb2bdae35d98676ca"}, {"rental_uris": {"ios": "https://dc.lft.to/lastmile_qr_scan", "android": "https://dc.lft.to/lastmile_qr_scan"}, "fusion_lon": 0.0, "lon": -77.0321065, "lat": 38.89234483333333, "is_reserved": 0, "name": "50c411080872431494edf33dcc114c57", "is_disabled": 0, "type": "electric_scooter", "fusion_lat": 0.0, "bike_id": "50c411080872431494edf33dcc114c57"}, {"rental_uris": {"ios": "https://dc.lft.to/lastmile_qr_scan", "android": "https://dc.lft.to/lastmile_qr_scan"}, "fusion_lon": 0.0, "lon": -77.02147183333334, "lat": 38.924496, "is_reserved": 0, "name": "21334c6eb1aae4cc7eaa2f3f0a13d492", "is_disabled": 0, "type": "electric_scooter", "fusion_lat": 0.0, "bike_id": "21334c6eb1aae4cc7eaa2f3f0a13d492"}, {"rental_uris": {"ios": "https://dc.lft.to/lastmile_qr_scan", "android": "https://dc.lft.to/lastmile_qr_scan"}, "fusion_lon": 0.0, "lon": -77.02419866666666, "lat": 38.892269166666665, "is_reserved": 0, "name": "eabeaa7d2cca6f241adbbb6c0dfbfe22", "is_disabled": 0, "type": "electric_scooter", "fusion_lat": 0.0, "bike_id": "eabeaa7d2cca6f241adbbb6c0dfbfe22"}, {"rental_uris": {"ios": "https://dc.lft.to/lastmile_qr_scan", "android": "https://dc.lft.to/lastmile_qr_scan"}, "fusion_lon": 0.0, "lon": -77.04101966666667, "lat": 38.905422, "is_reserved": 0, "name": "6f2c763caceeb3aa7d0218920681c4c9", "is_disabled": 0, "type": "electric_scooter", "fusion_lat": 0.0, "bike_id": "6f2c763caceeb3aa7d0218920681c4c9"}, {"rental_uris": {"ios": "https://dc.lft.to/lastmile_qr_scan", "android": "https://dc.lft.to/lastmile_qr_scan"}, "fusion_lon": 0.0, "lon": -77.03498283333333, "lat": 38.928650833333336, "is_reserved": 0, "name": "d82e01827c42b787717a63f33f6cf4f6", "is_disabled": 0, "type": "electric_scooter", "fusion_lat": 0.0, "bike_id": "d82e01827c42b787717a63f33f6cf4f6"}, {"rental_uris": {"ios": "https://dc.lft.to/lastmile_qr_scan", "android": "https://dc.lft.to/lastmile_qr_scan"}, "fusion_lon": 0.0, "lon": -77.0441525, "lat": 38.89615033333333, "is_reserved": 0, "name": "a1dfbb55b56a9b9be50c3183f6a50c37", "is_disabled": 0, "type": "electric_scooter", "fusion_lat": 0.0, "bike_id": "a1dfbb55b56a9b9be50c3183f6a50c37"}, {"rental_uris": {"ios": "https://dc.lft.to/lastmile_qr_scan", "android": "https://dc.lft.to/lastmile_qr_scan"}, "fusion_lon": 0.0, "lon": -77.03665133333334, "lat": 38.918342, "is_reserved": 0, "name": "86500fb8010df19098e49891e999ea41", "is_disabled": 0, "type": "electric_scooter", "fusion_lat": 0.0, "bike_id": "86500fb8010df19098e49891e999ea41"}, {"rental_uris": {"ios": "https://dc.lft.to/lastmile_qr_scan", "android": "https://dc.lft.to/lastmile_qr_scan"}, "fusion_lon": 0.0, "lon": -76.9914885, "lat": 38.90049833333333, "is_reserved": 0, "name": "4cba766ec41dd414c5afe88a444c0de6", "is_disabled": 0, "type": "electric_scooter", "fusion_lat": 0.0, "bike_id": "4cba766ec41dd414c5afe88a444c0de6"}, {"rental_uris": {"ios": "https://dc.lft.to/lastmile_qr_scan", "android": "https://dc.lft.to/lastmile_qr_scan"}, "fusion_lon": 0.0, "lon": -77.03704966666666, "lat": 38.926345166666664, "is_reserved": 0, "name": "d50fa0fa717065bf88cfbe53cfe4ea0d", "is_disabled": 0, "type": "electric_scooter", "fusion_lat": 0.0, "bike_id": "d50fa0fa717065bf88cfbe53cfe4ea0d"}, {"rental_uris": {"ios": "https://dc.lft.to/lastmile_qr_scan", "android": "https://dc.lft.to/lastmile_qr_scan"}, "fusion_lon": 0.0, "lon": -77.02608583333334, "lat": 38.8964015, "is_reserved": 0, "name": "c18e68565bef09dad8d20412c11df910", "is_disabled": 0, "type": "electric_scooter", "fusion_lat": 0.0, "bike_id": "c18e68565bef09dad8d20412c11df910"}, {"rental_uris": {"ios": "https://dc.lft.to/lastmile_qr_scan", "android": "https://dc.lft.to/lastmile_qr_scan"}, "fusion_lon": 0.0, "lon": -76.9792155, "lat": 38.9062705, "is_reserved": 0, "name": "e62b01e29e0e406c3acba0865b817d8c", "is_disabled": 0, "type": "electric_scooter", "fusion_lat": 0.0, "bike_id": "e62b01e29e0e406c3acba0865b817d8c"}, {"rental_uris": {"ios": "https://dc.lft.to/lastmile_qr_scan", "android": "https://dc.lft.to/lastmile_qr_scan"}, "fusion_lon": 0.0, "lon": -77.03930666666666, "lat": 38.8991945, "is_reserved": 0, "name": "b58b744e08a174ef95c94c7774b20a17", "is_disabled": 0, "type": "electric_scooter", "fusion_lat": 0.0, "bike_id": "b58b744e08a174ef95c94c7774b20a17"}, {"rental_uris": {"ios": "https://dc.lft.to/lastmile_qr_scan", "android": "https://dc.lft.to/lastmile_qr_scan"}, "fusion_lon": 0.0, "lon": -77.00661133333334, "lat": 38.911944, "is_reserved": 0, "name": "e9b2f4991a48e1ec786ae853c84de992", "is_disabled": 0, "type": "electric_scooter", "fusion_lat": 0.0, "bike_id": "e9b2f4991a48e1ec786ae853c84de992"}, {"rental_uris": {"ios": "https://dc.lft.to/lastmile_qr_scan", "android": "https://dc.lft.to/lastmile_qr_scan"}, "fusion_lon": 0.0, "lon": -76.99479333333333, "lat": 38.86216433333333, "is_reserved": 0, "name": "a541495fb95ddb40c67a72a5d0e8fb67", "is_disabled": 0, "type": "electric_scooter", "fusion_lat": 0.0, "bike_id": "a541495fb95ddb40c67a72a5d0e8fb67"}, {"rental_uris": {"ios": "https://dc.lft.to/lastmile_qr_scan", "android": "https://dc.lft.to/lastmile_qr_scan"}, "fusion_lon": 0.0, "lon": -77.011952, "lat": 38.900256166666665, "is_reserved": 0, "name": "960e2fa07dedbda879afe95537993bae", "is_disabled": 0, "type": "electric_scooter", "fusion_lat": 0.0, "bike_id": "960e2fa07dedbda879afe95537993bae"}, {"rental_uris": {"ios": "https://dc.lft.to/lastmile_qr_scan", "android": "https://dc.lft.to/lastmile_qr_scan"}, "fusion_lon": 0.0, "lon": -77.04349616666667, "lat": 38.90883066666667, "is_reserved": 0, "name": "0c0fe52045adb5f2bebc0ada1e46424f", "is_disabled": 0, "type": "electric_scooter", "fusion_lat": 0.0, "bike_id": "0c0fe52045adb5f2bebc0ada1e46424f"}, {"rental_uris": {"ios": "https://dc.lft.to/lastmile_qr_scan", "android": "https://dc.lft.to/lastmile_qr_scan"}, "fusion_lon": 0.0, "lon": -77.04137216666666, "lat": 38.9340275, "is_reserved": 0, "name": "ce9dd831b383ae936b85de5dfa391222", "is_disabled": 0, "type": "electric_scooter", "fusion_lat": 0.0, "bike_id": "ce9dd831b383ae936b85de5dfa391222"}, {"rental_uris": {"ios": "https://dc.lft.to/lastmile_qr_scan", "android": "https://dc.lft.to/lastmile_qr_scan"}, "fusion_lon": 0.0, "lon": -77.020784, "lat": 38.876448333333336, "is_reserved": 0, "name": "375cca2a5d5aa28cdc58decee071b3ee", "is_disabled": 0, "type": "electric_scooter", "fusion_lat": 0.0, "bike_id": "375cca2a5d5aa28cdc58decee071b3ee"}, {"rental_uris": {"ios": "https://dc.lft.to/lastmile_qr_scan", "android": "https://dc.lft.to/lastmile_qr_scan"}, "fusion_lon": 0.0, "lon": -77.0295025, "lat": 38.9169145, "is_reserved": 0, "name": "5145f3403030a08604c409ac883a8bec", "is_disabled": 0, "type": "electric_scooter", "fusion_lat": 0.0, "bike_id": "5145f3403030a08604c409ac883a8bec"}, {"rental_uris": {"ios": "https://dc.lft.to/lastmile_qr_scan", "android": "https://dc.lft.to/lastmile_qr_scan"}, "fusion_lon": 0.0, "lon": -76.99864033333333, "lat": 38.900284, "is_reserved": 0, "name": "aa9386f67ee265722229419532ec5282", "is_disabled": 0, "type": "electric_scooter", "fusion_lat": 0.0, "bike_id": "aa9386f67ee265722229419532ec5282"}, {"rental_uris": {"ios": "https://dc.lft.to/lastmile_qr_scan", "android": "https://dc.lft.to/lastmile_qr_scan"}, "fusion_lon": 0.0, "lon": -77.053162, "lat": 38.91832733333333, "is_reserved": 0, "name": "6b918785c4171f5c258efce22b6bc0e2", "is_disabled": 0, "type": "electric_scooter", "fusion_lat": 0.0, "bike_id": "6b918785c4171f5c258efce22b6bc0e2"}, {"rental_uris": {"ios": "https://dc.lft.to/lastmile_qr_scan", "android": "https://dc.lft.to/lastmile_qr_scan"}, "fusion_lon": 0.0, "lon": -77.02207166666666, "lat": 38.902021500000004, "is_reserved": 0, "name": "a51c897c843424d0eedbd40e6669c52d", "is_disabled": 0, "type": "electric_scooter", "fusion_lat": 0.0, "bike_id": "a51c897c843424d0eedbd40e6669c52d"}, {"rental_uris": {"ios": "https://dc.lft.to/lastmile_qr_scan", "android": "https://dc.lft.to/lastmile_qr_scan"}, "fusion_lon": 0.0, "lon": -76.98839183333334, "lat": 38.84282233333333, "is_reserved": 0, "name": "8f42897f5986cece46542af922cabb3a", "is_disabled": 0, "type": "electric_bike", "fusion_lat": 0.0, "bike_id": "8f42897f5986cece46542af922cabb3a"}, {"rental_uris": {"ios": "https://dc.lft.to/lastmile_qr_scan", "android": "https://dc.lft.to/lastmile_qr_scan"}, "fusion_lon": 0.0, "lon": -77.0190185, "lat": 38.9213585, "is_reserved": 0, "name": "08a6f75aec139f1573c2b903afae28ff", "is_disabled": 0, "type": "electric_scooter", "fusion_lat": 0.0, "bike_id": "08a6f75aec139f1573c2b903afae28ff"}, {"rental_uris": {"ios": "https://dc.lft.to/lastmile_qr_scan", "android": "https://dc.lft.to/lastmile_qr_scan"}, "fusion_lon": 0.0, "lon": -77.00207583333334, "lat": 38.8777945, "is_reserved": 0, "name": "7c516f88566b990a764480e3141aeba4", "is_disabled": 0, "type": "electric_scooter", "fusion_lat": 0.0, "bike_id": "7c516f88566b990a764480e3141aeba4"}, {"rental_uris": {"ios": "https://dc.lft.to/lastmile_qr_scan", "android": "https://dc.lft.to/lastmile_qr_scan"}, "fusion_lon": 0.0, "lon": -76.9535945, "lat": 38.8880305, "is_reserved": 0, "name": "4896527562312293d3bcce22b671a4ba", "is_disabled": 0, "type": "electric_bike", "fusion_lat": 0.0, "bike_id": "4896527562312293d3bcce22b671a4ba"}, {"rental_uris": {"ios": "https://dc.lft.to/lastmile_qr_scan", "android": "https://dc.lft.to/lastmile_qr_scan"}, "fusion_lon": 0.0, "lon": -77.03181066666667, "lat": 38.89599066666667, "is_reserved": 0, "name": "b403f29dc3c10da13557551089a87b07", "is_disabled": 0, "type": "electric_scooter", "fusion_lat": 0.0, "bike_id": "b403f29dc3c10da13557551089a87b07"}, {"rental_uris": {"ios": "https://dc.lft.to/lastmile_qr_scan", "android": "https://dc.lft.to/lastmile_qr_scan"}, "fusion_lon": 0.0, "lon": -77.036286, "lat": 38.95668533333333, "is_reserved": 0, "name": "70cd9c01592a082928c848525a59b4ee", "is_disabled": 0, "type": "electric_scooter", "fusion_lat": 0.0, "bike_id": "70cd9c01592a082928c848525a59b4ee"}, {"rental_uris": {"ios": "https://dc.lft.to/lastmile_qr_scan", "android": "https://dc.lft.to/lastmile_qr_scan"}, "fusion_lon": 0.0, "lon": -77.04361616666667, "lat": 38.911181666666664, "is_reserved": 0, "name": "701b6abfbb2a503373a2b87287ee6b36", "is_disabled": 0, "type": "electric_scooter", "fusion_lat": 0.0, "bike_id": "701b6abfbb2a503373a2b87287ee6b36"}, {"rental_uris": {"ios": "https://dc.lft.to/lastmile_qr_scan", "android": "https://dc.lft.to/lastmile_qr_scan"}, "fusion_lon": 0.0, "lon": -77.02226233333333, "lat": 38.88750066666667, "is_reserved": 0, "name": "4db5d4df8fdc60f5c92bef087c69aa37", "is_disabled": 0, "type": "electric_scooter", "fusion_lat": 0.0, "bike_id": "4db5d4df8fdc60f5c92bef087c69aa37"}, {"rental_uris": {"ios": "https://dc.lft.to/lastmile_qr_scan", "android": "https://dc.lft.to/lastmile_qr_scan"}, "fusion_lon": 0.0, "lon": -76.98107733333333, "lat": 38.89837133333333, "is_reserved": 0, "name": "8300a960e92abea0c99e21c7bde850fb", "is_disabled": 0, "type": "electric_scooter", "fusion_lat": 0.0, "bike_id": "8300a960e92abea0c99e21c7bde850fb"}, {"rental_uris": {"ios": "https://dc.lft.to/lastmile_qr_scan", "android": "https://dc.lft.to/lastmile_qr_scan"}, "fusion_lon": 0.0, "lon": -77.03184883333333, "lat": 38.899702, "is_reserved": 0, "name": "d5d51dbbdcd6b864c4d5ccc5fd4aca15", "is_disabled": 0, "type": "electric_scooter", "fusion_lat": 0.0, "bike_id": "d5d51dbbdcd6b864c4d5ccc5fd4aca15"}, {"rental_uris": {"ios": "https://dc.lft.to/lastmile_qr_scan", "android": "https://dc.lft.to/lastmile_qr_scan"}, "fusion_lon": 0.0, "lon": -76.99407016666666, "lat": 38.87784166666667, "is_reserved": 0, "name": "324f66c0f2f57b8ee301868794435be3", "is_disabled": 0, "type": "electric_scooter", "fusion_lat": 0.0, "bike_id": "324f66c0f2f57b8ee301868794435be3"}, {"rental_uris": {"ios": "https://dc.lft.to/lastmile_qr_scan", "android": "https://dc.lft.to/lastmile_qr_scan"}, "fusion_lon": 0.0, "lon": -77.02335483333333, "lat": 38.919306166666665, "is_reserved": 0, "name": "6ebce40451ac0b69a97e34f073e83ee0", "is_disabled": 0, "type": "electric_scooter", "fusion_lat": 0.0, "bike_id": "6ebce40451ac0b69a97e34f073e83ee0"}, {"rental_uris": {"ios": "https://dc.lft.to/lastmile_qr_scan", "android": "https://dc.lft.to/lastmile_qr_scan"}, "fusion_lon": 0.0, "lon": -76.93754166666666, "lat": 38.89934383333333, "is_reserved": 0, "name": "a63386f0b26c7ecc1ab4a76db4cbc9a0", "is_disabled": 0, "type": "electric_scooter", "fusion_lat": 0.0, "bike_id": "a63386f0b26c7ecc1ab4a76db4cbc9a0"}, {"rental_uris": {"ios": "https://dc.lft.to/lastmile_qr_scan", "android": "https://dc.lft.to/lastmile_qr_scan"}, "fusion_lon": 0.0, "lon": -77.01688316666667, "lat": 38.920414, "is_reserved": 0, "name": "35bf3599263c06df19a63e94e98fdf56", "is_disabled": 0, "type": "electric_scooter", "fusion_lat": 0.0, "bike_id": "35bf3599263c06df19a63e94e98fdf56"}, {"rental_uris": {"ios": "https://dc.lft.to/lastmile_qr_scan", "android": "https://dc.lft.to/lastmile_qr_scan"}, "fusion_lon": 0.0, "lon": -77.02936966666667, "lat": 38.897521, "is_reserved": 0, "name": "2d4a94f85f5b99e1d3c7d7e42845988f", "is_disabled": 0, "type": "electric_scooter", "fusion_lat": 0.0, "bike_id": "2d4a94f85f5b99e1d3c7d7e42845988f"}, {"rental_uris": {"ios": "https://dc.lft.to/lastmile_qr_scan", "android": "https://dc.lft.to/lastmile_qr_scan"}, "fusion_lon": 0.0, "lon": -77.03344366666667, "lat": 38.897420833333335, "is_reserved": 0, "name": "d4a5278f022137cfcb46d784e7d94533", "is_disabled": 0, "type": "electric_scooter", "fusion_lat": 0.0, "bike_id": "d4a5278f022137cfcb46d784e7d94533"}, {"rental_uris": {"ios": "https://dc.lft.to/lastmile_qr_scan", "android": "https://dc.lft.to/lastmile_qr_scan"}, "fusion_lon": 0.0, "lon": -77.016793, "lat": 38.88138683333333, "is_reserved": 0, "name": "01dfdff6de0b8a0f193c6da86c66fa45", "is_disabled": 0, "type": "electric_bike", "fusion_lat": 0.0, "bike_id": "01dfdff6de0b8a0f193c6da86c66fa45"}, {"rental_uris": {"ios": "https://dc.lft.to/lastmile_qr_scan", "android": "https://dc.lft.to/lastmile_qr_scan"}, "fusion_lon": 0.0, "lon": -76.9374415, "lat": 38.9129485, "is_reserved": 0, "name": "0bb6b9e8519f4a07f5da405c3fc6eacf", "is_disabled": 0, "type": "electric_scooter", "fusion_lat": 0.0, "bike_id": "0bb6b9e8519f4a07f5da405c3fc6eacf"}, {"rental_uris": {"ios": "https://dc.lft.to/lastmile_qr_scan", "android": "https://dc.lft.to/lastmile_qr_scan"}, "fusion_lon": 0.0, "lon": -77.01337316666667, "lat": 38.896057, "is_reserved": 0, "name": "9bc367e366d1257dc1355754f4b39444", "is_disabled": 0, "type": "electric_scooter", "fusion_lat": 0.0, "bike_id": "9bc367e366d1257dc1355754f4b39444"}, {"rental_uris": {"ios": "https://dc.lft.to/lastmile_qr_scan", "android": "https://dc.lft.to/lastmile_qr_scan"}, "fusion_lon": 0.0, "lon": -77.02774866666667, "lat": 38.903827666666665, "is_reserved": 0, "name": "aa78e809448384a0d267e6775922267c", "is_disabled": 0, "type": "electric_scooter", "fusion_lat": 0.0, "bike_id": "aa78e809448384a0d267e6775922267c"}, {"rental_uris": {"ios": "https://dc.lft.to/lastmile_qr_scan", "android": "https://dc.lft.to/lastmile_qr_scan"}, "fusion_lon": 0.0, "lon": -77.043413, "lat": 38.896384833333336, "is_reserved": 0, "name": "0e6b003d0e0fc272c3d1e6e10d836105", "is_disabled": 0, "type": "electric_scooter", "fusion_lat": 0.0, "bike_id": "0e6b003d0e0fc272c3d1e6e10d836105"}, {"rental_uris": {"ios": "https://dc.lft.to/lastmile_qr_scan", "android": "https://dc.lft.to/lastmile_qr_scan"}, "fusion_lon": 0.0, "lon": -77.04241483333334, "lat": 38.922218666666666, "is_reserved": 0, "name": "1d8686bdb708f194579642008cda9184", "is_disabled": 0, "type": "electric_scooter", "fusion_lat": 0.0, "bike_id": "1d8686bdb708f194579642008cda9184"}, {"rental_uris": {"ios": "https://dc.lft.to/lastmile_qr_scan", "android": "https://dc.lft.to/lastmile_qr_scan"}, "fusion_lon": 0.0, "lon": -77.029473, "lat": 38.899784, "is_reserved": 0, "name": "228007444b91368ff4e3cd04c08c4ca0", "is_disabled": 0, "type": "electric_scooter", "fusion_lat": 0.0, "bike_id": "228007444b91368ff4e3cd04c08c4ca0"}, {"rental_uris": {"ios": "https://dc.lft.to/lastmile_qr_scan", "android": "https://dc.lft.to/lastmile_qr_scan"}, "fusion_lon": 0.0, "lon": -77.03750716666667, "lat": 38.916974, "is_reserved": 0, "name": "c584a104946424dcc546c756e264263b", "is_disabled": 0, "type": "electric_scooter", "fusion_lat": 0.0, "bike_id": "c584a104946424dcc546c756e264263b"}, {"rental_uris": {"ios": "https://dc.lft.to/lastmile_qr_scan", "android": "https://dc.lft.to/lastmile_qr_scan"}, "fusion_lon": 0.0, "lon": -76.9876905, "lat": 38.912025, "is_reserved": 0, "name": "e0f902f732491aab0783079f55c092ec", "is_disabled": 0, "type": "electric_scooter", "fusion_lat": 0.0, "bike_id": "e0f902f732491aab0783079f55c092ec"}, {"rental_uris": {"ios": "https://dc.lft.to/lastmile_qr_scan", "android": "https://dc.lft.to/lastmile_qr_scan"}, "fusion_lon": 0.0, "lon": -77.04134116666667, "lat": 38.9148595, "is_reserved": 0, "name": "9b0b08ff47e8529b6501f379ea3b6a1d", "is_disabled": 0, "type": "electric_scooter", "fusion_lat": 0.0, "bike_id": "9b0b08ff47e8529b6501f379ea3b6a1d"}, {"rental_uris": {"ios": "https://dc.lft.to/lastmile_qr_scan", "android": "https://dc.lft.to/lastmile_qr_scan"}, "fusion_lon": 0.0, "lon": -77.01773166666666, "lat": 38.92104233333333, "is_reserved": 0, "name": "77e8b30f924c79511d7c16a554a9c07a", "is_disabled": 0, "type": "electric_scooter", "fusion_lat": 0.0, "bike_id": "77e8b30f924c79511d7c16a554a9c07a"}, {"rental_uris": {"ios": "https://dc.lft.to/lastmile_qr_scan", "android": "https://dc.lft.to/lastmile_qr_scan"}, "fusion_lon": 0.0, "lon": -77.01967216666667, "lat": 38.88596183333333, "is_reserved": 0, "name": "b8984dc7efe96ae01bb72ef8b4818725", "is_disabled": 0, "type": "electric_scooter", "fusion_lat": 0.0, "bike_id": "b8984dc7efe96ae01bb72ef8b4818725"}, {"rental_uris": {"ios": "https://dc.lft.to/lastmile_qr_scan", "android": "https://dc.lft.to/lastmile_qr_scan"}, "fusion_lon": 0.0, "lon": -77.06602333333333, "lat": 38.905250833333334, "is_reserved": 0, "name": "22b90d121fc6a3371ceb80426b4a879b", "is_disabled": 0, "type": "electric_scooter", "fusion_lat": 0.0, "bike_id": "22b90d121fc6a3371ceb80426b4a879b"}, {"rental_uris": {"ios": "https://dc.lft.to/lastmile_qr_scan", "android": "https://dc.lft.to/lastmile_qr_scan"}, "fusion_lon": 0.0, "lon": -77.02268333333333, "lat": 38.88139433333333, "is_reserved": 0, "name": "42ef903f6c52658750abd9bf33e29379", "is_disabled": 0, "type": "electric_scooter", "fusion_lat": 0.0, "bike_id": "42ef903f6c52658750abd9bf33e29379"}, {"rental_uris": {"ios": "https://dc.lft.to/lastmile_qr_scan", "android": "https://dc.lft.to/lastmile_qr_scan"}, "fusion_lon": 0.0, "lon": -77.07752583333334, "lat": 38.84195, "is_reserved": 0, "name": "c3515b82e0eb3861b3b92f3f9eb78e90", "is_disabled": 0, "type": "electric_bike", "fusion_lat": 0.0, "bike_id": "c3515b82e0eb3861b3b92f3f9eb78e90"}, {"rental_uris": {"ios": "https://dc.lft.to/lastmile_qr_scan", "android": "https://dc.lft.to/lastmile_qr_scan"}, "fusion_lon": 0.0, "lon": -77.03866166666667, "lat": 38.92155533333333, "is_reserved": 0, "name": "78f6dd8f207285915f3adac04182ad5e", "is_disabled": 0, "type": "electric_scooter", "fusion_lat": 0.0, "bike_id": "78f6dd8f207285915f3adac04182ad5e"}, {"rental_uris": {"ios": "https://dc.lft.to/lastmile_qr_scan", "android": "https://dc.lft.to/lastmile_qr_scan"}, "fusion_lon": 0.0, "lon": -77.0321875, "lat": 38.89238733333333, "is_reserved": 0, "name": "89a1bbfc71a5eb6350ced9556c39b638", "is_disabled": 0, "type": "electric_scooter", "fusion_lat": 0.0, "bike_id": "89a1bbfc71a5eb6350ced9556c39b638"}, {"rental_uris": {"ios": "https://dc.lft.to/lastmile_qr_scan", "android": "https://dc.lft.to/lastmile_qr_scan"}, "fusion_lon": 0.0, "lon": -77.09955733333334, "lat": 38.857907, "is_reserved": 0, "name": "3b7426d6fad2d807c3e631f4bf1c7f80", "is_disabled": 0, "type": "electric_bike", "fusion_lat": 0.0, "bike_id": "3b7426d6fad2d807c3e631f4bf1c7f80"}, {"rental_uris": {"ios": "https://dc.lft.to/lastmile_qr_scan", "android": "https://dc.lft.to/lastmile_qr_scan"}, "fusion_lon": 0.0, "lon": -76.96627516666666, "lat": 38.951413, "is_reserved": 0, "name": "2f4639e6d7e5fdbe8bb51fe12bea41c9", "is_disabled": 0, "type": "electric_bike", "fusion_lat": 0.0, "bike_id": "2f4639e6d7e5fdbe8bb51fe12bea41c9"}, {"rental_uris": {"ios": "https://dc.lft.to/lastmile_qr_scan", "android": "https://dc.lft.to/lastmile_qr_scan"}, "fusion_lon": 0.0, "lon": -77.0280165, "lat": 38.955907, "is_reserved": 0, "name": "ddda1d72c8eab2c3a47948d2dbfaa12f", "is_disabled": 0, "type": "electric_scooter", "fusion_lat": 0.0, "bike_id": "ddda1d72c8eab2c3a47948d2dbfaa12f"}, {"rental_uris": {"ios": "https://dc.lft.to/lastmile_qr_scan", "android": "https://dc.lft.to/lastmile_qr_scan"}, "fusion_lon": 0.0, "lon": -77.02725016666666, "lat": 38.9072985, "is_reserved": 0, "name": "7fdd88a8a26ce19448377de96236d903", "is_disabled": 0, "type": "electric_scooter", "fusion_lat": 0.0, "bike_id": "7fdd88a8a26ce19448377de96236d903"}, {"rental_uris": {"ios": "https://dc.lft.to/lastmile_qr_scan", "android": "https://dc.lft.to/lastmile_qr_scan"}, "fusion_lon": 0.0, "lon": -77.033314, "lat": 38.967681666666664, "is_reserved": 0, "name": "0a74893aae516c7ce58ff72d15cd38d5", "is_disabled": 0, "type": "electric_scooter", "fusion_lat": 0.0, "bike_id": "0a74893aae516c7ce58ff72d15cd38d5"}, {"rental_uris": {"ios": "https://dc.lft.to/lastmile_qr_scan", "android": "https://dc.lft.to/lastmile_qr_scan"}, "fusion_lon": 0.0, "lon": -77.04391216666667, "lat": 38.89202916666667, "is_reserved": 0, "name": "5a29c24f763ee3b87d84e1183dd741f0", "is_disabled": 0, "type": "electric_scooter", "fusion_lat": 0.0, "bike_id": "5a29c24f763ee3b87d84e1183dd741f0"}, {"rental_uris": {"ios": "https://dc.lft.to/lastmile_qr_scan", "android": "https://dc.lft.to/lastmile_qr_scan"}, "fusion_lon": 0.0, "lon": -77.02709566666667, "lat": 38.90678, "is_reserved": 0, "name": "bdbda5317ceb891b55fd61acdf828c4a", "is_disabled": 0, "type": "electric_scooter", "fusion_lat": 0.0, "bike_id": "bdbda5317ceb891b55fd61acdf828c4a"}, {"rental_uris": {"ios": "https://dc.lft.to/lastmile_qr_scan", "android": "https://dc.lft.to/lastmile_qr_scan"}, "fusion_lon": 0.0, "lon": -77.0449675, "lat": 38.907849166666665, "is_reserved": 0, "name": "f4689bf8ee690393f523bde59128f4ef", "is_disabled": 0, "type": "electric_scooter", "fusion_lat": 0.0, "bike_id": "f4689bf8ee690393f523bde59128f4ef"}, {"rental_uris": {"ios": "https://dc.lft.to/lastmile_qr_scan", "android": "https://dc.lft.to/lastmile_qr_scan"}, "fusion_lon": 0.0, "lon": -77.03221616666667, "lat": 38.928725166666666, "is_reserved": 0, "name": "eb735c0ead445ac8035c1b78473e8778", "is_disabled": 0, "type": "electric_scooter", "fusion_lat": 0.0, "bike_id": "eb735c0ead445ac8035c1b78473e8778"}, {"rental_uris": {"ios": "https://dc.lft.to/lastmile_qr_scan", "android": "https://dc.lft.to/lastmile_qr_scan"}, "fusion_lon": 0.0, "lon": -77.0212865, "lat": 38.9250785, "is_reserved": 0, "name": "cab98c1e641f8ed40dacd37a0cb16b05", "is_disabled": 0, "type": "electric_scooter", "fusion_lat": 0.0, "bike_id": "cab98c1e641f8ed40dacd37a0cb16b05"}, {"rental_uris": {"ios": "https://dc.lft.to/lastmile_qr_scan", "android": "https://dc.lft.to/lastmile_qr_scan"}, "fusion_lon": 0.0, "lon": -77.05260966666667, "lat": 38.9278705, "is_reserved": 0, "name": "7c9695f3a2dab91cc1645a904ad36c64", "is_disabled": 0, "type": "electric_scooter", "fusion_lat": 0.0, "bike_id": "7c9695f3a2dab91cc1645a904ad36c64"}, {"rental_uris": {"ios": "https://dc.lft.to/lastmile_qr_scan", "android": "https://dc.lft.to/lastmile_qr_scan"}, "fusion_lon": 0.0, "lon": -77.077025, "lat": 38.942924, "is_reserved": 0, "name": "6234433a2f0ca7089a761191739426f2", "is_disabled": 0, "type": "electric_scooter", "fusion_lat": 0.0, "bike_id": "6234433a2f0ca7089a761191739426f2"}, {"rental_uris": {"ios": "https://dc.lft.to/lastmile_qr_scan", "android": "https://dc.lft.to/lastmile_qr_scan"}, "fusion_lon": 0.0, "lon": -76.98310366666666, "lat": 38.9255205, "is_reserved": 0, "name": "839d8c234e3d7d72c6797ec7c023aacf", "is_disabled": 0, "type": "electric_scooter", "fusion_lat": 0.0, "bike_id": "839d8c234e3d7d72c6797ec7c023aacf"}, {"rental_uris": {"ios": "https://dc.lft.to/lastmile_qr_scan", "android": "https://dc.lft.to/lastmile_qr_scan"}, "fusion_lon": 0.0, "lon": -77.03779733333333, "lat": 38.902266833333336, "is_reserved": 0, "name": "7419f4facece01f2b009bbdb6a674681", "is_disabled": 0, "type": "electric_scooter", "fusion_lat": 0.0, "bike_id": "7419f4facece01f2b009bbdb6a674681"}, {"rental_uris": {"ios": "https://dc.lft.to/lastmile_qr_scan", "android": "https://dc.lft.to/lastmile_qr_scan"}, "fusion_lon": 0.0, "lon": -76.973181, "lat": 38.865208, "is_reserved": 0, "name": "78f7a0db9c65e7a2d935803a8c126a25", "is_disabled": 0, "type": "electric_scooter", "fusion_lat": 0.0, "bike_id": "78f7a0db9c65e7a2d935803a8c126a25"}, {"rental_uris": {"ios": "https://dc.lft.to/lastmile_qr_scan", "android": "https://dc.lft.to/lastmile_qr_scan"}, "fusion_lon": 0.0, "lon": -77.04414316666667, "lat": 38.896069833333335, "is_reserved": 0, "name": "65b02931e640d4d330548fff4cf24d59", "is_disabled": 0, "type": "electric_scooter", "fusion_lat": 0.0, "bike_id": "65b02931e640d4d330548fff4cf24d59"}, {"rental_uris": {"ios": "https://dc.lft.to/lastmile_qr_scan", "android": "https://dc.lft.to/lastmile_qr_scan"}, "fusion_lon": 0.0, "lon": -77.03264016666667, "lat": 38.93695816666666, "is_reserved": 0, "name": "49579cc3340978898c069926f5ccdd73", "is_disabled": 0, "type": "electric_scooter", "fusion_lat": 0.0, "bike_id": "49579cc3340978898c069926f5ccdd73"}, {"rental_uris": {"ios": "https://dc.lft.to/lastmile_qr_scan", "android": "https://dc.lft.to/lastmile_qr_scan"}, "fusion_lon": 0.0, "lon": -77.05064533333334, "lat": 38.9162345, "is_reserved": 0, "name": "088d954721560d5e6d5a9fe0282d81ff", "is_disabled": 0, "type": "electric_scooter", "fusion_lat": 0.0, "bike_id": "088d954721560d5e6d5a9fe0282d81ff"}, {"rental_uris": {"ios": "https://dc.lft.to/lastmile_qr_scan", "android": "https://dc.lft.to/lastmile_qr_scan"}, "fusion_lon": 0.0, "lon": -77.012437, "lat": 38.901366333333335, "is_reserved": 0, "name": "308c816b578f92da266e96e868dd0813", "is_disabled": 0, "type": "electric_scooter", "fusion_lat": 0.0, "bike_id": "308c816b578f92da266e96e868dd0813"}, {"rental_uris": {"ios": "https://dc.lft.to/lastmile_qr_scan", "android": "https://dc.lft.to/lastmile_qr_scan"}, "fusion_lon": 0.0, "lon": -77.04867783333333, "lat": 38.91267633333333, "is_reserved": 0, "name": "e1fd1917fce747c2e20d36766aa6ec62", "is_disabled": 0, "type": "electric_scooter", "fusion_lat": 0.0, "bike_id": "e1fd1917fce747c2e20d36766aa6ec62"}, {"rental_uris": {"ios": "https://dc.lft.to/lastmile_qr_scan", "android": "https://dc.lft.to/lastmile_qr_scan"}, "fusion_lon": 0.0, "lon": -77.02582433333333, "lat": 38.92038016666667, "is_reserved": 0, "name": "ea522d5f7d3aae22ddc5914272949ec6", "is_disabled": 0, "type": "electric_scooter", "fusion_lat": 0.0, "bike_id": "ea522d5f7d3aae22ddc5914272949ec6"}, {"rental_uris": {"ios": "https://dc.lft.to/lastmile_qr_scan", "android": "https://dc.lft.to/lastmile_qr_scan"}, "fusion_lon": 0.0, "lon": -77.01972133333334, "lat": 38.897065166666664, "is_reserved": 0, "name": "8a0cfd4d3452e52c1b91a96306398dfe", "is_disabled": 0, "type": "electric_scooter", "fusion_lat": 0.0, "bike_id": "8a0cfd4d3452e52c1b91a96306398dfe"}, {"rental_uris": {"ios": "https://dc.lft.to/lastmile_qr_scan", "android": "https://dc.lft.to/lastmile_qr_scan"}, "fusion_lon": 0.0, "lon": -77.051994, "lat": 38.902452, "is_reserved": 0, "name": "58bb19c76c583ffc4a4b2896e890c028", "is_disabled": 0, "type": "electric_scooter", "fusion_lat": 0.0, "bike_id": "58bb19c76c583ffc4a4b2896e890c028"}, {"rental_uris": {"ios": "https://dc.lft.to/lastmile_qr_scan", "android": "https://dc.lft.to/lastmile_qr_scan"}, "fusion_lon": 0.0, "lon": -77.033493, "lat": 38.892438, "is_reserved": 0, "name": "c6864b6f81fd257a6cb05abd3a1d740f", "is_disabled": 0, "type": "electric_scooter", "fusion_lat": 0.0, "bike_id": "c6864b6f81fd257a6cb05abd3a1d740f"}, {"rental_uris": {"ios": "https://dc.lft.to/lastmile_qr_scan", "android": "https://dc.lft.to/lastmile_qr_scan"}, "fusion_lon": 0.0, "lon": -77.04496883333333, "lat": 38.892281, "is_reserved": 0, "name": "4799ee7e8f5e2cc4f741d82fee39d786", "is_disabled": 0, "type": "electric_scooter", "fusion_lat": 0.0, "bike_id": "4799ee7e8f5e2cc4f741d82fee39d786"}, {"rental_uris": {"ios": "https://dc.lft.to/lastmile_qr_scan", "android": "https://dc.lft.to/lastmile_qr_scan"}, "fusion_lon": 0.0, "lon": -77.04363233333333, "lat": 38.892342166666666, "is_reserved": 0, "name": "3f98e5a5ee7989bbe72d130ca69adc08", "is_disabled": 0, "type": "electric_scooter", "fusion_lat": 0.0, "bike_id": "3f98e5a5ee7989bbe72d130ca69adc08"}, {"rental_uris": {"ios": "https://dc.lft.to/lastmile_qr_scan", "android": "https://dc.lft.to/lastmile_qr_scan"}, "fusion_lon": 0.0, "lon": -77.04640433333333, "lat": 38.89222483333333, "is_reserved": 0, "name": "ce79aa6f6bd8185ea35560d9e23d5d26", "is_disabled": 0, "type": "electric_scooter", "fusion_lat": 0.0, "bike_id": "ce79aa6f6bd8185ea35560d9e23d5d26"}, {"rental_uris": {"ios": "https://dc.lft.to/lastmile_qr_scan", "android": "https://dc.lft.to/lastmile_qr_scan"}, "fusion_lon": 0.0, "lon": -77.01856916666667, "lat": 38.9491955, "is_reserved": 0, "name": "e59e4372974e7f7cd7ee4958e47cbd4c", "is_disabled": 0, "type": "electric_scooter", "fusion_lat": 0.0, "bike_id": "e59e4372974e7f7cd7ee4958e47cbd4c"}, {"rental_uris": {"ios": "https://dc.lft.to/lastmile_qr_scan", "android": "https://dc.lft.to/lastmile_qr_scan"}, "fusion_lon": 0.0, "lon": -77.0319195, "lat": 38.90720266666667, "is_reserved": 0, "name": "162c77d1206bf7d361f14afadb2b8471", "is_disabled": 0, "type": "electric_scooter", "fusion_lat": 0.0, "bike_id": "162c77d1206bf7d361f14afadb2b8471"}, {"rental_uris": {"ios": "https://dc.lft.to/lastmile_qr_scan", "android": "https://dc.lft.to/lastmile_qr_scan"}, "fusion_lon": 0.0, "lon": -77.00924466666666, "lat": 38.89982633333333, "is_reserved": 0, "name": "211a5101ea9d89c75dca4f0b2dfa2e19", "is_disabled": 0, "type": "electric_scooter", "fusion_lat": 0.0, "bike_id": "211a5101ea9d89c75dca4f0b2dfa2e19"}, {"rental_uris": {"ios": "https://dc.lft.to/lastmile_qr_scan", "android": "https://dc.lft.to/lastmile_qr_scan"}, "fusion_lon": 0.0, "lon": -77.00700333333333, "lat": 38.905607833333335, "is_reserved": 0, "name": "7a989d04c741ab7c096da432ad4eaeed", "is_disabled": 0, "type": "electric_scooter", "fusion_lat": 0.0, "bike_id": "7a989d04c741ab7c096da432ad4eaeed"}, {"rental_uris": {"ios": "https://dc.lft.to/lastmile_qr_scan", "android": "https://dc.lft.to/lastmile_qr_scan"}, "fusion_lon": 0.0, "lon": -77.02803433333334, "lat": 38.8922975, "is_reserved": 0, "name": "2ba3908cfd4942155b3080827b161263", "is_disabled": 0, "type": "electric_scooter", "fusion_lat": 0.0, "bike_id": "2ba3908cfd4942155b3080827b161263"}, {"rental_uris": {"ios": "https://dc.lft.to/lastmile_qr_scan", "android": "https://dc.lft.to/lastmile_qr_scan"}, "fusion_lon": 0.0, "lon": -77.04807483333333, "lat": 38.89593683333333, "is_reserved": 0, "name": "4566dd77c3d056f198ed91fc659aaba1", "is_disabled": 0, "type": "electric_scooter", "fusion_lat": 0.0, "bike_id": "4566dd77c3d056f198ed91fc659aaba1"}, {"rental_uris": {"ios": "https://dc.lft.to/lastmile_qr_scan", "android": "https://dc.lft.to/lastmile_qr_scan"}, "fusion_lon": 0.0, "lon": -77.02225516666667, "lat": 38.8874905, "is_reserved": 0, "name": "6076a82da470286721da2f4a300ba0f4", "is_disabled": 0, "type": "electric_scooter", "fusion_lat": 0.0, "bike_id": "6076a82da470286721da2f4a300ba0f4"}, {"rental_uris": {"ios": "https://dc.lft.to/lastmile_qr_scan", "android": "https://dc.lft.to/lastmile_qr_scan"}, "fusion_lon": 0.0, "lon": -76.99604333333333, "lat": 38.88531366666667, "is_reserved": 0, "name": "29a4a475903c4fdf583d1d19acf648db", "is_disabled": 0, "type": "electric_scooter", "fusion_lat": 0.0, "bike_id": "29a4a475903c4fdf583d1d19acf648db"}, {"rental_uris": {"ios": "https://dc.lft.to/lastmile_qr_scan", "android": "https://dc.lft.to/lastmile_qr_scan"}, "fusion_lon": 0.0, "lon": -77.01864366666666, "lat": 38.973717666666666, "is_reserved": 0, "name": "8c89a3b76c422d3f02d6102f287abca2", "is_disabled": 0, "type": "electric_scooter", "fusion_lat": 0.0, "bike_id": "8c89a3b76c422d3f02d6102f287abca2"}, {"rental_uris": {"ios": "https://dc.lft.to/lastmile_qr_scan", "android": "https://dc.lft.to/lastmile_qr_scan"}, "fusion_lon": 0.0, "lon": -77.02815066666666, "lat": 38.965634333333334, "is_reserved": 0, "name": "7996218c7731958fcfdb803e6f79045a", "is_disabled": 0, "type": "electric_bike", "fusion_lat": 0.0, "bike_id": "7996218c7731958fcfdb803e6f79045a"}, {"rental_uris": {"ios": "https://dc.lft.to/lastmile_qr_scan", "android": "https://dc.lft.to/lastmile_qr_scan"}, "fusion_lon": 0.0, "lon": -77.0486415, "lat": 38.905375666666664, "is_reserved": 0, "name": "6d4648cb2e4a5114eeae76ce62596ce2", "is_disabled": 0, "type": "electric_scooter", "fusion_lat": 0.0, "bike_id": "6d4648cb2e4a5114eeae76ce62596ce2"}, {"rental_uris": {"ios": "https://dc.lft.to/lastmile_qr_scan", "android": "https://dc.lft.to/lastmile_qr_scan"}, "fusion_lon": 0.0, "lon": -77.104015, "lat": 39.00534283333333, "is_reserved": 0, "name": "2039fe91c31bb46df70fcf4cad93beb7", "is_disabled": 0, "type": "electric_bike", "fusion_lat": 0.0, "bike_id": "2039fe91c31bb46df70fcf4cad93beb7"}, {"rental_uris": {"ios": "https://dc.lft.to/lastmile_qr_scan", "android": "https://dc.lft.to/lastmile_qr_scan"}, "fusion_lon": 0.0, "lon": -77.0261935, "lat": 38.892210166666665, "is_reserved": 0, "name": "18b2109073597ed445b57c1db7329c9a", "is_disabled": 0, "type": "electric_scooter", "fusion_lat": 0.0, "bike_id": "18b2109073597ed445b57c1db7329c9a"}, {"rental_uris": {"ios": "https://dc.lft.to/lastmile_qr_scan", "android": "https://dc.lft.to/lastmile_qr_scan"}, "fusion_lon": 0.0, "lon": -77.04871733333333, "lat": 38.90088166666666, "is_reserved": 0, "name": "b6d4fd8426113303f4c06b77eec8b661", "is_disabled": 0, "type": "electric_scooter", "fusion_lat": 0.0, "bike_id": "b6d4fd8426113303f4c06b77eec8b661"}, {"rental_uris": {"ios": "https://dc.lft.to/lastmile_qr_scan", "android": "https://dc.lft.to/lastmile_qr_scan"}, "fusion_lon": 0.0, "lon": -77.08301583333333, "lat": 38.93037016666667, "is_reserved": 0, "name": "1980fa9bc7273c9b41ae333b57c06d1a", "is_disabled": 0, "type": "electric_bike", "fusion_lat": 0.0, "bike_id": "1980fa9bc7273c9b41ae333b57c06d1a"}, {"rental_uris": {"ios": "https://dc.lft.to/lastmile_qr_scan", "android": "https://dc.lft.to/lastmile_qr_scan"}, "fusion_lon": 0.0, "lon": -77.02118283333333, "lat": 38.922428333333336, "is_reserved": 0, "name": "47948679f618d3d825ab08acc4797729", "is_disabled": 0, "type": "electric_scooter", "fusion_lat": 0.0, "bike_id": "47948679f618d3d825ab08acc4797729"}, {"rental_uris": {"ios": "https://dc.lft.to/lastmile_qr_scan", "android": "https://dc.lft.to/lastmile_qr_scan"}, "fusion_lon": 0.0, "lon": -77.019459, "lat": 38.912557, "is_reserved": 0, "name": "3867a9f94475468a0071a04b8eed55c2", "is_disabled": 0, "type": "electric_scooter", "fusion_lat": 0.0, "bike_id": "3867a9f94475468a0071a04b8eed55c2"}, {"rental_uris": {"ios": "https://dc.lft.to/lastmile_qr_scan", "android": "https://dc.lft.to/lastmile_qr_scan"}, "fusion_lon": 0.0, "lon": -77.02262616666667, "lat": 38.92551, "is_reserved": 0, "name": "98f286998f79dc5982a6a675fd3b8623", "is_disabled": 0, "type": "electric_scooter", "fusion_lat": 0.0, "bike_id": "98f286998f79dc5982a6a675fd3b8623"}, {"rental_uris": {"ios": "https://dc.lft.to/lastmile_qr_scan", "android": "https://dc.lft.to/lastmile_qr_scan"}, "fusion_lon": 0.0, "lon": -77.02706283333333, "lat": 38.89462783333333, "is_reserved": 0, "name": "d2fb01a9420b71b9b958fabbdab22ceb", "is_disabled": 0, "type": "electric_scooter", "fusion_lat": 0.0, "bike_id": "d2fb01a9420b71b9b958fabbdab22ceb"}, {"rental_uris": {"ios": "https://dc.lft.to/lastmile_qr_scan", "android": "https://dc.lft.to/lastmile_qr_scan"}, "fusion_lon": 0.0, "lon": -77.03172266666667, "lat": 38.9141875, "is_reserved": 0, "name": "f74ce748ca47907deac2ad770a6866b5", "is_disabled": 0, "type": "electric_scooter", "fusion_lat": 0.0, "bike_id": "f74ce748ca47907deac2ad770a6866b5"}, {"rental_uris": {"ios": "https://dc.lft.to/lastmile_qr_scan", "android": "https://dc.lft.to/lastmile_qr_scan"}, "fusion_lon": 0.0, "lon": -77.0309265, "lat": 38.9238695, "is_reserved": 0, "name": "30156ff8c6256494d2a573eace84bb1d", "is_disabled": 0, "type": "electric_scooter", "fusion_lat": 0.0, "bike_id": "30156ff8c6256494d2a573eace84bb1d"}, {"rental_uris": {"ios": "https://dc.lft.to/lastmile_qr_scan", "android": "https://dc.lft.to/lastmile_qr_scan"}, "fusion_lon": 0.0, "lon": -77.02427916666667, "lat": 38.9679585, "is_reserved": 0, "name": "96118e464c26a5ba2a47cb599ae13f39", "is_disabled": 0, "type": "electric_scooter", "fusion_lat": 0.0, "bike_id": "96118e464c26a5ba2a47cb599ae13f39"}, {"rental_uris": {"ios": "https://dc.lft.to/lastmile_qr_scan", "android": "https://dc.lft.to/lastmile_qr_scan"}, "fusion_lon": 0.0, "lon": -76.93446466666667, "lat": 38.9084655, "is_reserved": 0, "name": "6364a02514040d5ddd608451f2b5ea57", "is_disabled": 0, "type": "electric_scooter", "fusion_lat": 0.0, "bike_id": "6364a02514040d5ddd608451f2b5ea57"}, {"rental_uris": {"ios": "https://dc.lft.to/lastmile_qr_scan", "android": "https://dc.lft.to/lastmile_qr_scan"}, "fusion_lon": 0.0, "lon": -77.0202665, "lat": 38.921744, "is_reserved": 0, "name": "bd38be4c54c2e4a9f0788929e9593649", "is_disabled": 0, "type": "electric_scooter", "fusion_lat": 0.0, "bike_id": "bd38be4c54c2e4a9f0788929e9593649"}, {"rental_uris": {"ios": "https://dc.lft.to/lastmile_qr_scan", "android": "https://dc.lft.to/lastmile_qr_scan"}, "fusion_lon": 0.0, "lon": -77.02288883333334, "lat": 38.91572016666667, "is_reserved": 0, "name": "204ba13a345e725533d2d59bebc0a029", "is_disabled": 0, "type": "electric_scooter", "fusion_lat": 0.0, "bike_id": "204ba13a345e725533d2d59bebc0a029"}, {"rental_uris": {"ios": "https://dc.lft.to/lastmile_qr_scan", "android": "https://dc.lft.to/lastmile_qr_scan"}, "fusion_lon": 0.0, "lon": -77.06329316666667, "lat": 38.855632166666666, "is_reserved": 0, "name": "747921df84ef8f619b732c6cb79ee0f7", "is_disabled": 0, "type": "electric_bike", "fusion_lat": 0.0, "bike_id": "747921df84ef8f619b732c6cb79ee0f7"}, {"rental_uris": {"ios": "https://dc.lft.to/lastmile_qr_scan", "android": "https://dc.lft.to/lastmile_qr_scan"}, "fusion_lon": 0.0, "lon": -77.05671283333334, "lat": 38.923347, "is_reserved": 0, "name": "c1175c97ffb38ee924eb9fb3a50f7d11", "is_disabled": 0, "type": "electric_scooter", "fusion_lat": 0.0, "bike_id": "c1175c97ffb38ee924eb9fb3a50f7d11"}, {"rental_uris": {"ios": "https://dc.lft.to/lastmile_qr_scan", "android": "https://dc.lft.to/lastmile_qr_scan"}, "fusion_lon": 0.0, "lon": -77.02267266666667, "lat": 38.89977616666667, "is_reserved": 0, "name": "5ec5e9982dac47c1b412d66cdd6d4b81", "is_disabled": 0, "type": "electric_scooter", "fusion_lat": 0.0, "bike_id": "5ec5e9982dac47c1b412d66cdd6d4b81"}, {"rental_uris": {"ios": "https://dc.lft.to/lastmile_qr_scan", "android": "https://dc.lft.to/lastmile_qr_scan"}, "fusion_lon": 0.0, "lon": -77.05930416666666, "lat": 38.942955166666664, "is_reserved": 0, "name": "2680f0dc1169fdae83997d41e08031a1", "is_disabled": 0, "type": "electric_scooter", "fusion_lat": 0.0, "bike_id": "2680f0dc1169fdae83997d41e08031a1"}, {"rental_uris": {"ios": "https://dc.lft.to/lastmile_qr_scan", "android": "https://dc.lft.to/lastmile_qr_scan"}, "fusion_lon": 0.0, "lon": -77.03438183333333, "lat": 38.9180875, "is_reserved": 0, "name": "694ec598dc02e7b3e4476deb116877a7", "is_disabled": 0, "type": "electric_scooter", "fusion_lat": 0.0, "bike_id": "694ec598dc02e7b3e4476deb116877a7"}, {"rental_uris": {"ios": "https://dc.lft.to/lastmile_qr_scan", "android": "https://dc.lft.to/lastmile_qr_scan"}, "fusion_lon": 0.0, "lon": -77.05004416666667, "lat": 38.89228966666667, "is_reserved": 0, "name": "46eb6896aa351b1c13719528060fab67", "is_disabled": 0, "type": "electric_scooter", "fusion_lat": 0.0, "bike_id": "46eb6896aa351b1c13719528060fab67"}, {"rental_uris": {"ios": "https://dc.lft.to/lastmile_qr_scan", "android": "https://dc.lft.to/lastmile_qr_scan"}, "fusion_lon": 0.0, "lon": -76.995269, "lat": 38.8440595, "is_reserved": 0, "name": "ec2e065aee663e9465ce1952d02734a1", "is_disabled": 0, "type": "electric_scooter", "fusion_lat": 0.0, "bike_id": "ec2e065aee663e9465ce1952d02734a1"}, {"rental_uris": {"ios": "https://dc.lft.to/lastmile_qr_scan", "android": "https://dc.lft.to/lastmile_qr_scan"}, "fusion_lon": 0.0, "lon": -76.98847516666666, "lat": 38.98368683333333, "is_reserved": 0, "name": "80ad5125061a5b08c9fbe4b452c6d253", "is_disabled": 0, "type": "electric_bike", "fusion_lat": 0.0, "bike_id": "80ad5125061a5b08c9fbe4b452c6d253"}, {"rental_uris": {"ios": "https://dc.lft.to/lastmile_qr_scan", "android": "https://dc.lft.to/lastmile_qr_scan"}, "fusion_lon": 0.0, "lon": -77.04746183333333, "lat": 38.905452333333336, "is_reserved": 0, "name": "bff14ce7b87adb073b58eec2a5d96489", "is_disabled": 0, "type": "electric_scooter", "fusion_lat": 0.0, "bike_id": "bff14ce7b87adb073b58eec2a5d96489"}, {"rental_uris": {"ios": "https://dc.lft.to/lastmile_qr_scan", "android": "https://dc.lft.to/lastmile_qr_scan"}, "fusion_lon": 0.0, "lon": -77.027011, "lat": 38.89674733333333, "is_reserved": 0, "name": "028df4f1881b2c44e29f05c0efbb10f2", "is_disabled": 0, "type": "electric_scooter", "fusion_lat": 0.0, "bike_id": "028df4f1881b2c44e29f05c0efbb10f2"}, {"rental_uris": {"ios": "https://dc.lft.to/lastmile_qr_scan", "android": "https://dc.lft.to/lastmile_qr_scan"}, "fusion_lon": 0.0, "lon": -77.02722433333334, "lat": 38.91105683333333, "is_reserved": 0, "name": "01fbf942533313dcce4f77d4d81aaaf4", "is_disabled": 0, "type": "electric_scooter", "fusion_lat": 0.0, "bike_id": "01fbf942533313dcce4f77d4d81aaaf4"}, {"rental_uris": {"ios": "https://dc.lft.to/lastmile_qr_scan", "android": "https://dc.lft.to/lastmile_qr_scan"}, "fusion_lon": 0.0, "lon": -77.04861716666667, "lat": 38.916176166666666, "is_reserved": 0, "name": "c3f85998c6640670323043d0c7445ee5", "is_disabled": 0, "type": "electric_scooter", "fusion_lat": 0.0, "bike_id": "c3f85998c6640670323043d0c7445ee5"}, {"rental_uris": {"ios": "https://dc.lft.to/lastmile_qr_scan", "android": "https://dc.lft.to/lastmile_qr_scan"}, "fusion_lon": 0.0, "lon": -77.04186, "lat": 38.894828, "is_reserved": 0, "name": "293528e87ef663a3bf0b216054e8db17", "is_disabled": 0, "type": "electric_scooter", "fusion_lat": 0.0, "bike_id": "293528e87ef663a3bf0b216054e8db17"}, {"rental_uris": {"ios": "https://dc.lft.to/lastmile_qr_scan", "android": "https://dc.lft.to/lastmile_qr_scan"}, "fusion_lon": 0.0, "lon": -77.036304, "lat": 38.927486, "is_reserved": 0, "name": "3b3aeed21c9125f443a19c0704d7e88d", "is_disabled": 0, "type": "electric_scooter", "fusion_lat": 0.0, "bike_id": "3b3aeed21c9125f443a19c0704d7e88d"}, {"rental_uris": {"ios": "https://dc.lft.to/lastmile_qr_scan", "android": "https://dc.lft.to/lastmile_qr_scan"}, "fusion_lon": 0.0, "lon": -77.03215733333333, "lat": 38.8992345, "is_reserved": 0, "name": "467200213016effe9563e086471774b2", "is_disabled": 0, "type": "electric_scooter", "fusion_lat": 0.0, "bike_id": "467200213016effe9563e086471774b2"}, {"rental_uris": {"ios": "https://dc.lft.to/lastmile_qr_scan", "android": "https://dc.lft.to/lastmile_qr_scan"}, "fusion_lon": 0.0, "lon": -77.03675, "lat": 38.9156565, "is_reserved": 0, "name": "61bea3660c9198b943bba6f58c800b39", "is_disabled": 0, "type": "electric_scooter", "fusion_lat": 0.0, "bike_id": "61bea3660c9198b943bba6f58c800b39"}, {"rental_uris": {"ios": "https://dc.lft.to/lastmile_qr_scan", "android": "https://dc.lft.to/lastmile_qr_scan"}, "fusion_lon": 0.0, "lon": -76.9870335, "lat": 38.90056716666667, "is_reserved": 0, "name": "5ed9e7a80250c09924c0a0046cd1d1cb", "is_disabled": 0, "type": "electric_scooter", "fusion_lat": 0.0, "bike_id": "5ed9e7a80250c09924c0a0046cd1d1cb"}, {"rental_uris": {"ios": "https://dc.lft.to/lastmile_qr_scan", "android": "https://dc.lft.to/lastmile_qr_scan"}, "fusion_lon": 0.0, "lon": -77.01434366666666, "lat": 38.91315516666667, "is_reserved": 0, "name": "b0302b643fadc7455f45dd4caeb8836b", "is_disabled": 0, "type": "electric_scooter", "fusion_lat": 0.0, "bike_id": "b0302b643fadc7455f45dd4caeb8836b"}, {"rental_uris": {"ios": "https://dc.lft.to/lastmile_qr_scan", "android": "https://dc.lft.to/lastmile_qr_scan"}, "fusion_lon": 0.0, "lon": -77.04487016666667, "lat": 38.903484166666665, "is_reserved": 0, "name": "7fe3514aff50ba8c40c236dda53b09cf", "is_disabled": 0, "type": "electric_scooter", "fusion_lat": 0.0, "bike_id": "7fe3514aff50ba8c40c236dda53b09cf"}, {"rental_uris": {"ios": "https://dc.lft.to/lastmile_qr_scan", "android": "https://dc.lft.to/lastmile_qr_scan"}, "fusion_lon": 0.0, "lon": -77.04227366666667, "lat": 38.922006333333336, "is_reserved": 0, "name": "802ed193d899fda35586c7c4b0b9c303", "is_disabled": 0, "type": "electric_scooter", "fusion_lat": 0.0, "bike_id": "802ed193d899fda35586c7c4b0b9c303"}, {"rental_uris": {"ios": "https://dc.lft.to/lastmile_qr_scan", "android": "https://dc.lft.to/lastmile_qr_scan"}, "fusion_lon": 0.0, "lon": -77.08925266666667, "lat": 38.862668166666666, "is_reserved": 0, "name": "95c1c493f59077abd7bb3784e21aaf96", "is_disabled": 0, "type": "electric_bike", "fusion_lat": 0.0, "bike_id": "95c1c493f59077abd7bb3784e21aaf96"}, {"rental_uris": {"ios": "https://dc.lft.to/lastmile_qr_scan", "android": "https://dc.lft.to/lastmile_qr_scan"}, "fusion_lon": 0.0, "lon": -76.99519866666667, "lat": 38.883715333333335, "is_reserved": 0, "name": "600a7922344de8661fb62c284e1aff04", "is_disabled": 0, "type": "electric_scooter", "fusion_lat": 0.0, "bike_id": "600a7922344de8661fb62c284e1aff04"}, {"rental_uris": {"ios": "https://dc.lft.to/lastmile_qr_scan", "android": "https://dc.lft.to/lastmile_qr_scan"}, "fusion_lon": 0.0, "lon": -77.11323466666667, "lat": 38.80407666666667, "is_reserved": 0, "name": "ed51e1d038c5a46094fcec5d7fec3bd6", "is_disabled": 0, "type": "electric_bike", "fusion_lat": 0.0, "bike_id": "ed51e1d038c5a46094fcec5d7fec3bd6"}, {"rental_uris": {"ios": "https://dc.lft.to/lastmile_qr_scan", "android": "https://dc.lft.to/lastmile_qr_scan"}, "fusion_lon": 0.0, "lon": -77.02650616666666, "lat": 38.898007166666666, "is_reserved": 0, "name": "ab010ef8fb0901ec42dcf2f9c9b77a15", "is_disabled": 0, "type": "electric_scooter", "fusion_lat": 0.0, "bike_id": "ab010ef8fb0901ec42dcf2f9c9b77a15"}, {"rental_uris": {"ios": "https://dc.lft.to/lastmile_qr_scan", "android": "https://dc.lft.to/lastmile_qr_scan"}, "fusion_lon": 0.0, "lon": -77.04202416666666, "lat": 38.9091085, "is_reserved": 0, "name": "22a4d864f0743ceaa14eff2e6f7e4919", "is_disabled": 0, "type": "electric_scooter", "fusion_lat": 0.0, "bike_id": "22a4d864f0743ceaa14eff2e6f7e4919"}, {"rental_uris": {"ios": "https://dc.lft.to/lastmile_qr_scan", "android": "https://dc.lft.to/lastmile_qr_scan"}, "fusion_lon": 0.0, "lon": -77.00445383333333, "lat": 38.87654216666667, "is_reserved": 0, "name": "af9dbf9fe543f71189ea85f2a9cb90ff", "is_disabled": 0, "type": "electric_scooter", "fusion_lat": 0.0, "bike_id": "af9dbf9fe543f71189ea85f2a9cb90ff"}, {"rental_uris": {"ios": "https://dc.lft.to/lastmile_qr_scan", "android": "https://dc.lft.to/lastmile_qr_scan"}, "fusion_lon": 0.0, "lon": -76.94959033333333, "lat": 38.90493566666667, "is_reserved": 0, "name": "3d760aca36da6b4f06e109cf60f24cfb", "is_disabled": 0, "type": "electric_scooter", "fusion_lat": 0.0, "bike_id": "3d760aca36da6b4f06e109cf60f24cfb"}, {"rental_uris": {"ios": "https://dc.lft.to/lastmile_qr_scan", "android": "https://dc.lft.to/lastmile_qr_scan"}, "fusion_lon": 0.0, "lon": -76.98217983333333, "lat": 38.85631016666667, "is_reserved": 0, "name": "89c4d02e28967843c6a620564ec9b24c", "is_disabled": 0, "type": "electric_scooter", "fusion_lat": 0.0, "bike_id": "89c4d02e28967843c6a620564ec9b24c"}, {"rental_uris": {"ios": "https://dc.lft.to/lastmile_qr_scan", "android": "https://dc.lft.to/lastmile_qr_scan"}, "fusion_lon": 0.0, "lon": -77.023704, "lat": 38.892210666666664, "is_reserved": 0, "name": "ef901887e2eed10ac883f18c9a9a4a31", "is_disabled": 0, "type": "electric_scooter", "fusion_lat": 0.0, "bike_id": "ef901887e2eed10ac883f18c9a9a4a31"}, {"rental_uris": {"ios": "https://dc.lft.to/lastmile_qr_scan", "android": "https://dc.lft.to/lastmile_qr_scan"}, "fusion_lon": 0.0, "lon": -77.0265015, "lat": 38.88477833333334, "is_reserved": 0, "name": "7803de88204d5690af3b5d188ea18d50", "is_disabled": 0, "type": "electric_scooter", "fusion_lat": 0.0, "bike_id": "7803de88204d5690af3b5d188ea18d50"}, {"rental_uris": {"ios": "https://dc.lft.to/lastmile_qr_scan", "android": "https://dc.lft.to/lastmile_qr_scan"}, "fusion_lon": 0.0, "lon": -77.04260383333333, "lat": 38.907569333333335, "is_reserved": 0, "name": "d102c855afa3f225cc89313a146f4f78", "is_disabled": 0, "type": "electric_scooter", "fusion_lat": 0.0, "bike_id": "d102c855afa3f225cc89313a146f4f78"}, {"rental_uris": {"ios": "https://dc.lft.to/lastmile_qr_scan", "android": "https://dc.lft.to/lastmile_qr_scan"}, "fusion_lon": 0.0, "lon": -77.040081, "lat": 38.901429666666665, "is_reserved": 0, "name": "c598d7a112db1dfb782aa73b3aa213eb", "is_disabled": 0, "type": "electric_scooter", "fusion_lat": 0.0, "bike_id": "c598d7a112db1dfb782aa73b3aa213eb"}, {"rental_uris": {"ios": "https://dc.lft.to/lastmile_qr_scan", "android": "https://dc.lft.to/lastmile_qr_scan"}, "fusion_lon": 0.0, "lon": -77.04496433333334, "lat": 38.907900833333336, "is_reserved": 0, "name": "d0f370e3917e6bfd6d188a185fd08492", "is_disabled": 0, "type": "electric_scooter", "fusion_lat": 0.0, "bike_id": "d0f370e3917e6bfd6d188a185fd08492"}, {"rental_uris": {"ios": "https://dc.lft.to/lastmile_qr_scan", "android": "https://dc.lft.to/lastmile_qr_scan"}, "fusion_lon": 0.0, "lon": -77.0070475, "lat": 38.90559983333333, "is_reserved": 0, "name": "14421a939f014d5a04c98037e1a2131f", "is_disabled": 0, "type": "electric_scooter", "fusion_lat": 0.0, "bike_id": "14421a939f014d5a04c98037e1a2131f"}, {"rental_uris": {"ios": "https://dc.lft.to/lastmile_qr_scan", "android": "https://dc.lft.to/lastmile_qr_scan"}, "fusion_lon": 0.0, "lon": -77.04496733333333, "lat": 38.907877, "is_reserved": 0, "name": "153e7f90dc301cb2df73ed483ebd4ed6", "is_disabled": 0, "type": "electric_scooter", "fusion_lat": 0.0, "bike_id": "153e7f90dc301cb2df73ed483ebd4ed6"}, {"rental_uris": {"ios": "https://dc.lft.to/lastmile_qr_scan", "android": "https://dc.lft.to/lastmile_qr_scan"}, "fusion_lon": 0.0, "lon": -77.02084833333333, "lat": 38.92255183333333, "is_reserved": 0, "name": "adc6ff28597b6bd95a0f94cde9f04b5b", "is_disabled": 0, "type": "electric_scooter", "fusion_lat": 0.0, "bike_id": "adc6ff28597b6bd95a0f94cde9f04b5b"}, {"rental_uris": {"ios": "https://dc.lft.to/lastmile_qr_scan", "android": "https://dc.lft.to/lastmile_qr_scan"}, "fusion_lon": 0.0, "lon": -77.02313983333333, "lat": 38.949211166666664, "is_reserved": 0, "name": "49f1a610af62ebf9e2ce54724046f03e", "is_disabled": 0, "type": "electric_scooter", "fusion_lat": 0.0, "bike_id": "49f1a610af62ebf9e2ce54724046f03e"}, {"rental_uris": {"ios": "https://dc.lft.to/lastmile_qr_scan", "android": "https://dc.lft.to/lastmile_qr_scan"}, "fusion_lon": 0.0, "lon": -77.03181116666667, "lat": 38.91550866666667, "is_reserved": 0, "name": "2cc7292b2acfcb6ebd2760b94fca37f8", "is_disabled": 0, "type": "electric_scooter", "fusion_lat": 0.0, "bike_id": "2cc7292b2acfcb6ebd2760b94fca37f8"}, {"rental_uris": {"ios": "https://dc.lft.to/lastmile_qr_scan", "android": "https://dc.lft.to/lastmile_qr_scan"}, "fusion_lon": 0.0, "lon": -77.037139, "lat": 38.91335016666667, "is_reserved": 0, "name": "76c0e5516b10a98d251c16466d386504", "is_disabled": 0, "type": "electric_scooter", "fusion_lat": 0.0, "bike_id": "76c0e5516b10a98d251c16466d386504"}, {"rental_uris": {"ios": "https://dc.lft.to/lastmile_qr_scan", "android": "https://dc.lft.to/lastmile_qr_scan"}, "fusion_lon": 0.0, "lon": -76.94852083333333, "lat": 38.86683983333333, "is_reserved": 0, "name": "f8cd664e08f778ad571f8f69af0eb128", "is_disabled": 0, "type": "electric_scooter", "fusion_lat": 0.0, "bike_id": "f8cd664e08f778ad571f8f69af0eb128"}, {"rental_uris": {"ios": "https://dc.lft.to/lastmile_qr_scan", "android": "https://dc.lft.to/lastmile_qr_scan"}, "fusion_lon": 0.0, "lon": -77.01902133333333, "lat": 38.921353833333335, "is_reserved": 0, "name": "512994d7e21c54c0ee29bdb0bb5df7f7", "is_disabled": 0, "type": "electric_scooter", "fusion_lat": 0.0, "bike_id": "512994d7e21c54c0ee29bdb0bb5df7f7"}, {"rental_uris": {"ios": "https://dc.lft.to/lastmile_qr_scan", "android": "https://dc.lft.to/lastmile_qr_scan"}, "fusion_lon": 0.0, "lon": -77.05737633333334, "lat": 38.8077065, "is_reserved": 0, "name": "162355cb3e30022c1ebb28965bd02953", "is_disabled": 0, "type": "electric_bike", "fusion_lat": 0.0, "bike_id": "162355cb3e30022c1ebb28965bd02953"}, {"rental_uris": {"ios": "https://dc.lft.to/lastmile_qr_scan", "android": "https://dc.lft.to/lastmile_qr_scan"}, "fusion_lon": 0.0, "lon": -76.92552683333334, "lat": 38.892539166666666, "is_reserved": 0, "name": "35e7ec81bbc4472f786335f6016c0749", "is_disabled": 0, "type": "electric_scooter", "fusion_lat": 0.0, "bike_id": "35e7ec81bbc4472f786335f6016c0749"}, {"rental_uris": {"ios": "https://dc.lft.to/lastmile_qr_scan", "android": "https://dc.lft.to/lastmile_qr_scan"}, "fusion_lon": 0.0, "lon": -76.96090033333333, "lat": 38.9186015, "is_reserved": 0, "name": "0a3ca4a699c069b7ec563ea3ea9bfa89", "is_disabled": 0, "type": "electric_scooter", "fusion_lat": 0.0, "bike_id": "0a3ca4a699c069b7ec563ea3ea9bfa89"}, {"rental_uris": {"ios": "https://dc.lft.to/lastmile_qr_scan", "android": "https://dc.lft.to/lastmile_qr_scan"}, "fusion_lon": 0.0, "lon": -77.0135615, "lat": 38.91929866666667, "is_reserved": 0, "name": "f1c5bb6ae3a07b2ac5f45cd1d598a9c9", "is_disabled": 0, "type": "electric_scooter", "fusion_lat": 0.0, "bike_id": "f1c5bb6ae3a07b2ac5f45cd1d598a9c9"}, {"rental_uris": {"ios": "https://dc.lft.to/lastmile_qr_scan", "android": "https://dc.lft.to/lastmile_qr_scan"}, "fusion_lon": 0.0, "lon": -77.0176535, "lat": 38.87701366666667, "is_reserved": 0, "name": "08806fa1f5c43980f95640625421d1d5", "is_disabled": 0, "type": "electric_scooter", "fusion_lat": 0.0, "bike_id": "08806fa1f5c43980f95640625421d1d5"}, {"rental_uris": {"ios": "https://dc.lft.to/lastmile_qr_scan", "android": "https://dc.lft.to/lastmile_qr_scan"}, "fusion_lon": 0.0, "lon": -77.00197483333334, "lat": 38.902423166666665, "is_reserved": 0, "name": "ed10324e08f69f19ed1966f0f4ce1e1b", "is_disabled": 0, "type": "electric_scooter", "fusion_lat": 0.0, "bike_id": "ed10324e08f69f19ed1966f0f4ce1e1b"}, {"rental_uris": {"ios": "https://dc.lft.to/lastmile_qr_scan", "android": "https://dc.lft.to/lastmile_qr_scan"}, "fusion_lon": 0.0, "lon": -77.03664783333333, "lat": 38.91838633333333, "is_reserved": 0, "name": "5acf9ccbb4fbcec5246ca8a350234d2b", "is_disabled": 0, "type": "electric_scooter", "fusion_lat": 0.0, "bike_id": "5acf9ccbb4fbcec5246ca8a350234d2b"}, {"rental_uris": {"ios": "https://dc.lft.to/lastmile_qr_scan", "android": "https://dc.lft.to/lastmile_qr_scan"}, "fusion_lon": 0.0, "lon": -77.0054065, "lat": 38.879254333333336, "is_reserved": 0, "name": "cba961996c81bb664d01f11bb01a7b40", "is_disabled": 0, "type": "electric_scooter", "fusion_lat": 0.0, "bike_id": "cba961996c81bb664d01f11bb01a7b40"}, {"rental_uris": {"ios": "https://dc.lft.to/lastmile_qr_scan", "android": "https://dc.lft.to/lastmile_qr_scan"}, "fusion_lon": 0.0, "lon": -77.02224033333333, "lat": 38.9247465, "is_reserved": 0, "name": "e2c671cbdf42174b6c1198ec95226856", "is_disabled": 0, "type": "electric_scooter", "fusion_lat": 0.0, "bike_id": "e2c671cbdf42174b6c1198ec95226856"}, {"rental_uris": {"ios": "https://dc.lft.to/lastmile_qr_scan", "android": "https://dc.lft.to/lastmile_qr_scan"}, "fusion_lon": 0.0, "lon": -77.03857083333334, "lat": 38.90353366666667, "is_reserved": 0, "name": "e11bca3a817e7d563a24be9079cada8c", "is_disabled": 0, "type": "electric_scooter", "fusion_lat": 0.0, "bike_id": "e11bca3a817e7d563a24be9079cada8c"}, {"rental_uris": {"ios": "https://dc.lft.to/lastmile_qr_scan", "android": "https://dc.lft.to/lastmile_qr_scan"}, "fusion_lon": 0.0, "lon": -77.01677383333333, "lat": 38.9204145, "is_reserved": 0, "name": "b99e24d7c0a91b5812e34936c029fbd6", "is_disabled": 0, "type": "electric_scooter", "fusion_lat": 0.0, "bike_id": "b99e24d7c0a91b5812e34936c029fbd6"}, {"rental_uris": {"ios": "https://dc.lft.to/lastmile_qr_scan", "android": "https://dc.lft.to/lastmile_qr_scan"}, "fusion_lon": 0.0, "lon": -77.03938216666667, "lat": 38.93057533333333, "is_reserved": 0, "name": "82a4826564874fbed7fa4049a2c34c87", "is_disabled": 0, "type": "electric_scooter", "fusion_lat": 0.0, "bike_id": "82a4826564874fbed7fa4049a2c34c87"}, {"rental_uris": {"ios": "https://dc.lft.to/lastmile_qr_scan", "android": "https://dc.lft.to/lastmile_qr_scan"}, "fusion_lon": 0.0, "lon": -76.99152666666667, "lat": 38.90048866666667, "is_reserved": 0, "name": "17f21d9674db12e7e88796f2f7875a70", "is_disabled": 0, "type": "electric_scooter", "fusion_lat": 0.0, "bike_id": "17f21d9674db12e7e88796f2f7875a70"}, {"rental_uris": {"ios": "https://dc.lft.to/lastmile_qr_scan", "android": "https://dc.lft.to/lastmile_qr_scan"}, "fusion_lon": 0.0, "lon": -76.98537233333333, "lat": 38.8994795, "is_reserved": 0, "name": "cf3acb9099a83fdd4b2db90ad24d9d97", "is_disabled": 0, "type": "electric_scooter", "fusion_lat": 0.0, "bike_id": "cf3acb9099a83fdd4b2db90ad24d9d97"}, {"rental_uris": {"ios": "https://dc.lft.to/lastmile_qr_scan", "android": "https://dc.lft.to/lastmile_qr_scan"}, "fusion_lon": 0.0, "lon": -76.99516433333334, "lat": 38.88369266666667, "is_reserved": 0, "name": "0cd342eae0619e72d23fac3806370e72", "is_disabled": 0, "type": "electric_scooter", "fusion_lat": 0.0, "bike_id": "0cd342eae0619e72d23fac3806370e72"}, {"rental_uris": {"ios": "https://dc.lft.to/lastmile_qr_scan", "android": "https://dc.lft.to/lastmile_qr_scan"}, "fusion_lon": 0.0, "lon": -77.0385225, "lat": 38.90391183333333, "is_reserved": 0, "name": "5c8970d2353b3a1e181c5e58aa2f4220", "is_disabled": 0, "type": "electric_scooter", "fusion_lat": 0.0, "bike_id": "5c8970d2353b3a1e181c5e58aa2f4220"}, {"rental_uris": {"ios": "https://dc.lft.to/lastmile_qr_scan", "android": "https://dc.lft.to/lastmile_qr_scan"}, "fusion_lon": 0.0, "lon": -76.98243533333333, "lat": 38.9524125, "is_reserved": 0, "name": "27ce86dc510ee505e282f6d17f306a5a", "is_disabled": 0, "type": "electric_bike", "fusion_lat": 0.0, "bike_id": "27ce86dc510ee505e282f6d17f306a5a"}, {"rental_uris": {"ios": "https://dc.lft.to/lastmile_qr_scan", "android": "https://dc.lft.to/lastmile_qr_scan"}, "fusion_lon": 0.0, "lon": -77.0200605, "lat": 38.91584183333333, "is_reserved": 0, "name": "84577bb163a13e7b68bd1f2897b1ca97", "is_disabled": 0, "type": "electric_scooter", "fusion_lat": 0.0, "bike_id": "84577bb163a13e7b68bd1f2897b1ca97"}, {"rental_uris": {"ios": "https://dc.lft.to/lastmile_qr_scan", "android": "https://dc.lft.to/lastmile_qr_scan"}, "fusion_lon": 0.0, "lon": -77.03189616666667, "lat": 38.90726933333333, "is_reserved": 0, "name": "790f9093f50ca685b272fa779ed3094d", "is_disabled": 0, "type": "electric_scooter", "fusion_lat": 0.0, "bike_id": "790f9093f50ca685b272fa779ed3094d"}, {"rental_uris": {"ios": "https://dc.lft.to/lastmile_qr_scan", "android": "https://dc.lft.to/lastmile_qr_scan"}, "fusion_lon": 0.0, "lon": -76.9498145, "lat": 38.9006565, "is_reserved": 0, "name": "8cd4fb2866cf54cabf247231ddb14dfa", "is_disabled": 0, "type": "electric_scooter", "fusion_lat": 0.0, "bike_id": "8cd4fb2866cf54cabf247231ddb14dfa"}, {"rental_uris": {"ios": "https://dc.lft.to/lastmile_qr_scan", "android": "https://dc.lft.to/lastmile_qr_scan"}, "fusion_lon": 0.0, "lon": -77.01807466666666, "lat": 38.896175166666666, "is_reserved": 0, "name": "b1e4d6c03495e7bb913cb5495509c946", "is_disabled": 0, "type": "electric_scooter", "fusion_lat": 0.0, "bike_id": "b1e4d6c03495e7bb913cb5495509c946"}, {"rental_uris": {"ios": "https://dc.lft.to/lastmile_qr_scan", "android": "https://dc.lft.to/lastmile_qr_scan"}, "fusion_lon": 0.0, "lon": -77.0293365, "lat": 38.89787, "is_reserved": 0, "name": "7af8e77aaa59c8b8ee5f1d999b2f9ad2", "is_disabled": 0, "type": "electric_scooter", "fusion_lat": 0.0, "bike_id": "7af8e77aaa59c8b8ee5f1d999b2f9ad2"}, {"rental_uris": {"ios": "https://dc.lft.to/lastmile_qr_scan", "android": "https://dc.lft.to/lastmile_qr_scan"}, "fusion_lon": 0.0, "lon": -77.03595716666666, "lat": 38.9395875, "is_reserved": 0, "name": "d207917e04a1f9be0ffbebdeb9c587b7", "is_disabled": 0, "type": "electric_scooter", "fusion_lat": 0.0, "bike_id": "d207917e04a1f9be0ffbebdeb9c587b7"}, {"rental_uris": {"ios": "https://dc.lft.to/lastmile_qr_scan", "android": "https://dc.lft.to/lastmile_qr_scan"}, "fusion_lon": 0.0, "lon": -77.06609766666666, "lat": 38.936591, "is_reserved": 0, "name": "a28d1ec2506c22d711ef0c1aea97e8c3", "is_disabled": 0, "type": "electric_scooter", "fusion_lat": 0.0, "bike_id": "a28d1ec2506c22d711ef0c1aea97e8c3"}, {"rental_uris": {"ios": "https://dc.lft.to/lastmile_qr_scan", "android": "https://dc.lft.to/lastmile_qr_scan"}, "fusion_lon": 0.0, "lon": -77.03173733333334, "lat": 38.894060833333334, "is_reserved": 0, "name": "93ea5e07fda36b4248fb370c520d0528", "is_disabled": 0, "type": "electric_scooter", "fusion_lat": 0.0, "bike_id": "93ea5e07fda36b4248fb370c520d0528"}, {"rental_uris": {"ios": "https://dc.lft.to/lastmile_qr_scan", "android": "https://dc.lft.to/lastmile_qr_scan"}, "fusion_lon": 0.0, "lon": -76.997206, "lat": 38.907919666666665, "is_reserved": 0, "name": "520c94ba87a0593c86e64104d12cde4d", "is_disabled": 0, "type": "electric_scooter", "fusion_lat": 0.0, "bike_id": "520c94ba87a0593c86e64104d12cde4d"}, {"rental_uris": {"ios": "https://dc.lft.to/lastmile_qr_scan", "android": "https://dc.lft.to/lastmile_qr_scan"}, "fusion_lon": 0.0, "lon": -77.02936766666667, "lat": 38.89533083333333, "is_reserved": 0, "name": "e235a5be921741a12dbdcaac3ef2b1fd", "is_disabled": 0, "type": "electric_scooter", "fusion_lat": 0.0, "bike_id": "e235a5be921741a12dbdcaac3ef2b1fd"}, {"rental_uris": {"ios": "https://dc.lft.to/lastmile_qr_scan", "android": "https://dc.lft.to/lastmile_qr_scan"}, "fusion_lon": 0.0, "lon": -77.02207316666667, "lat": 38.90200633333333, "is_reserved": 0, "name": "327f15b18689f6b8d2158c743d05f5a4", "is_disabled": 0, "type": "electric_scooter", "fusion_lat": 0.0, "bike_id": "327f15b18689f6b8d2158c743d05f5a4"}, {"rental_uris": {"ios": "https://dc.lft.to/lastmile_qr_scan", "android": "https://dc.lft.to/lastmile_qr_scan"}, "fusion_lon": 0.0, "lon": -77.037831, "lat": 38.91686166666667, "is_reserved": 0, "name": "3dc82826581fdf6aead460cba734feab", "is_disabled": 0, "type": "electric_scooter", "fusion_lat": 0.0, "bike_id": "3dc82826581fdf6aead460cba734feab"}, {"rental_uris": {"ios": "https://dc.lft.to/lastmile_qr_scan", "android": "https://dc.lft.to/lastmile_qr_scan"}, "fusion_lon": 0.0, "lon": -76.9949015, "lat": 38.925806666666666, "is_reserved": 0, "name": "5a65527547d767e378e1081028916cfd", "is_disabled": 0, "type": "electric_scooter", "fusion_lat": 0.0, "bike_id": "5a65527547d767e378e1081028916cfd"}, {"rental_uris": {"ios": "https://dc.lft.to/lastmile_qr_scan", "android": "https://dc.lft.to/lastmile_qr_scan"}, "fusion_lon": 0.0, "lon": -77.02337266666666, "lat": 38.92971, "is_reserved": 0, "name": "1524f05a3fa03ec4b0f48b55771ea447", "is_disabled": 0, "type": "electric_scooter", "fusion_lat": 0.0, "bike_id": "1524f05a3fa03ec4b0f48b55771ea447"}, {"rental_uris": {"ios": "https://dc.lft.to/lastmile_qr_scan", "android": "https://dc.lft.to/lastmile_qr_scan"}, "fusion_lon": 0.0, "lon": -77.0377055, "lat": 38.9168975, "is_reserved": 0, "name": "88a797b292f1aebd58fdc54ce64c913c", "is_disabled": 0, "type": "electric_scooter", "fusion_lat": 0.0, "bike_id": "88a797b292f1aebd58fdc54ce64c913c"}, {"rental_uris": {"ios": "https://dc.lft.to/lastmile_qr_scan", "android": "https://dc.lft.to/lastmile_qr_scan"}, "fusion_lon": 0.0, "lon": -77.05393466666666, "lat": 38.909447, "is_reserved": 0, "name": "cefc8b168e1d546259634de29719dc2a", "is_disabled": 0, "type": "electric_scooter", "fusion_lat": 0.0, "bike_id": "cefc8b168e1d546259634de29719dc2a"}, {"rental_uris": {"ios": "https://dc.lft.to/lastmile_qr_scan", "android": "https://dc.lft.to/lastmile_qr_scan"}, "fusion_lon": 0.0, "lon": -77.07742683333333, "lat": 38.9404315, "is_reserved": 0, "name": "59918ce378159ed2bcf968590ab5d3ba", "is_disabled": 0, "type": "electric_bike", "fusion_lat": 0.0, "bike_id": "59918ce378159ed2bcf968590ab5d3ba"}, {"rental_uris": {"ios": "https://dc.lft.to/lastmile_qr_scan", "android": "https://dc.lft.to/lastmile_qr_scan"}, "fusion_lon": 0.0, "lon": -77.024125, "lat": 38.9097345, "is_reserved": 0, "name": "4ac014124ee03db559f1a7e549b7fbce", "is_disabled": 0, "type": "electric_scooter", "fusion_lat": 0.0, "bike_id": "4ac014124ee03db559f1a7e549b7fbce"}, {"rental_uris": {"ios": "https://dc.lft.to/lastmile_qr_scan", "android": "https://dc.lft.to/lastmile_qr_scan"}, "fusion_lon": 0.0, "lon": -77.0141055, "lat": 38.928457, "is_reserved": 0, "name": "c895dfd3b8dcb6457ebdc7bd3018ae09", "is_disabled": 0, "type": "electric_scooter", "fusion_lat": 0.0, "bike_id": "c895dfd3b8dcb6457ebdc7bd3018ae09"}, {"rental_uris": {"ios": "https://dc.lft.to/lastmile_qr_scan", "android": "https://dc.lft.to/lastmile_qr_scan"}, "fusion_lon": 0.0, "lon": -77.022418, "lat": 38.924621333333334, "is_reserved": 0, "name": "014d336c45648d0e1c7a097e638ea498", "is_disabled": 0, "type": "electric_scooter", "fusion_lat": 0.0, "bike_id": "014d336c45648d0e1c7a097e638ea498"}, {"rental_uris": {"ios": "https://dc.lft.to/lastmile_qr_scan", "android": "https://dc.lft.to/lastmile_qr_scan"}, "fusion_lon": 0.0, "lon": -77.042262, "lat": 38.921685333333336, "is_reserved": 0, "name": "59e7ed42738c18ada03648685788df29", "is_disabled": 0, "type": "electric_scooter", "fusion_lat": 0.0, "bike_id": "59e7ed42738c18ada03648685788df29"}, {"rental_uris": {"ios": "https://dc.lft.to/lastmile_qr_scan", "android": "https://dc.lft.to/lastmile_qr_scan"}, "fusion_lon": 0.0, "lon": -77.0188275, "lat": 38.914824833333334, "is_reserved": 0, "name": "4845885cd3814a54bf64297ce9990bbe", "is_disabled": 0, "type": "electric_scooter", "fusion_lat": 0.0, "bike_id": "4845885cd3814a54bf64297ce9990bbe"}, {"rental_uris": {"ios": "https://dc.lft.to/lastmile_qr_scan", "android": "https://dc.lft.to/lastmile_qr_scan"}, "fusion_lon": 0.0, "lon": -77.04497933333333, "lat": 38.903830666666664, "is_reserved": 0, "name": "c591ac5462a4bf0c200d69ae39a3158f", "is_disabled": 0, "type": "electric_scooter", "fusion_lat": 0.0, "bike_id": "c591ac5462a4bf0c200d69ae39a3158f"}, {"rental_uris": {"ios": "https://dc.lft.to/lastmile_qr_scan", "android": "https://dc.lft.to/lastmile_qr_scan"}, "fusion_lon": 0.0, "lon": -77.04350866666667, "lat": 38.906778333333335, "is_reserved": 0, "name": "81f3f9a6e9f3996b25883fe1ffdd7a1f", "is_disabled": 0, "type": "electric_scooter", "fusion_lat": 0.0, "bike_id": "81f3f9a6e9f3996b25883fe1ffdd7a1f"}, {"rental_uris": {"ios": "https://dc.lft.to/lastmile_qr_scan", "android": "https://dc.lft.to/lastmile_qr_scan"}, "fusion_lon": 0.0, "lon": -77.004573, "lat": 38.9090495, "is_reserved": 0, "name": "2251a75ab86b6a5e5868bf49faf307a6", "is_disabled": 0, "type": "electric_scooter", "fusion_lat": 0.0, "bike_id": "2251a75ab86b6a5e5868bf49faf307a6"}, {"rental_uris": {"ios": "https://dc.lft.to/lastmile_qr_scan", "android": "https://dc.lft.to/lastmile_qr_scan"}, "fusion_lon": 0.0, "lon": -77.00600133333333, "lat": 38.907096333333335, "is_reserved": 0, "name": "c0588ae9d3bd70bdcb1e874fd97c9449", "is_disabled": 0, "type": "electric_scooter", "fusion_lat": 0.0, "bike_id": "c0588ae9d3bd70bdcb1e874fd97c9449"}, {"rental_uris": {"ios": "https://dc.lft.to/lastmile_qr_scan", "android": "https://dc.lft.to/lastmile_qr_scan"}, "fusion_lon": 0.0, "lon": -76.93236883333333, "lat": 38.89886666666666, "is_reserved": 0, "name": "4e1d5637a888ac273e4ef2319ccf103a", "is_disabled": 0, "type": "electric_scooter", "fusion_lat": 0.0, "bike_id": "4e1d5637a888ac273e4ef2319ccf103a"}, {"rental_uris": {"ios": "https://dc.lft.to/lastmile_qr_scan", "android": "https://dc.lft.to/lastmile_qr_scan"}, "fusion_lon": 0.0, "lon": -77.0401325, "lat": 38.92245333333334, "is_reserved": 0, "name": "a77ffbcddbb0746e9579fbdb6e454e52", "is_disabled": 0, "type": "electric_scooter", "fusion_lat": 0.0, "bike_id": "a77ffbcddbb0746e9579fbdb6e454e52"}, {"rental_uris": {"ios": "https://dc.lft.to/lastmile_qr_scan", "android": "https://dc.lft.to/lastmile_qr_scan"}, "fusion_lon": 0.0, "lon": -77.035082, "lat": 38.921541833333336, "is_reserved": 0, "name": "f7561202e9fe6068d4839d7fb9b04e82", "is_disabled": 0, "type": "electric_scooter", "fusion_lat": 0.0, "bike_id": "f7561202e9fe6068d4839d7fb9b04e82"}, {"rental_uris": {"ios": "https://dc.lft.to/lastmile_qr_scan", "android": "https://dc.lft.to/lastmile_qr_scan"}, "fusion_lon": 0.0, "lon": -77.0087295, "lat": 38.88374783333333, "is_reserved": 0, "name": "18388326ffab4ef4b9aca75f6da88f7b", "is_disabled": 0, "type": "electric_scooter", "fusion_lat": 0.0, "bike_id": "18388326ffab4ef4b9aca75f6da88f7b"}, {"rental_uris": {"ios": "https://dc.lft.to/lastmile_qr_scan", "android": "https://dc.lft.to/lastmile_qr_scan"}, "fusion_lon": 0.0, "lon": -77.04354333333333, "lat": 38.90126466666667, "is_reserved": 0, "name": "5fa1ffcff6874e6b29c9731dfeb6f18d", "is_disabled": 0, "type": "electric_scooter", "fusion_lat": 0.0, "bike_id": "5fa1ffcff6874e6b29c9731dfeb6f18d"}, {"rental_uris": {"ios": "https://dc.lft.to/lastmile_qr_scan", "android": "https://dc.lft.to/lastmile_qr_scan"}, "fusion_lon": 0.0, "lon": -77.05100533333334, "lat": 38.896764, "is_reserved": 0, "name": "4541d4deeb059c2c335f93af86f820b1", "is_disabled": 0, "type": "electric_scooter", "fusion_lat": 0.0, "bike_id": "4541d4deeb059c2c335f93af86f820b1"}, {"rental_uris": {"ios": "https://dc.lft.to/lastmile_qr_scan", "android": "https://dc.lft.to/lastmile_qr_scan"}, "fusion_lon": 0.0, "lon": -76.9995705, "lat": 38.893020666666665, "is_reserved": 0, "name": "e8b1666fa01aa0119abeeb8f786fa916", "is_disabled": 0, "type": "electric_scooter", "fusion_lat": 0.0, "bike_id": "e8b1666fa01aa0119abeeb8f786fa916"}, {"rental_uris": {"ios": "https://dc.lft.to/lastmile_qr_scan", "android": "https://dc.lft.to/lastmile_qr_scan"}, "fusion_lon": 0.0, "lon": -77.03750666666667, "lat": 38.91695383333333, "is_reserved": 0, "name": "dea65b0399a7f067afba1a7e079783f1", "is_disabled": 0, "type": "electric_scooter", "fusion_lat": 0.0, "bike_id": "dea65b0399a7f067afba1a7e079783f1"}, {"rental_uris": {"ios": "https://dc.lft.to/lastmile_qr_scan", "android": "https://dc.lft.to/lastmile_qr_scan"}, "fusion_lon": 0.0, "lon": -77.03042233333333, "lat": 38.93876316666667, "is_reserved": 0, "name": "743175089ec5d74acb95d3ff6cc27574", "is_disabled": 0, "type": "electric_scooter", "fusion_lat": 0.0, "bike_id": "743175089ec5d74acb95d3ff6cc27574"}, {"rental_uris": {"ios": "https://dc.lft.to/lastmile_qr_scan", "android": "https://dc.lft.to/lastmile_qr_scan"}, "fusion_lon": 0.0, "lon": -76.92603016666666, "lat": 38.898232666666665, "is_reserved": 0, "name": "1b9afc442f351fddaa50071d63122f37", "is_disabled": 0, "type": "electric_scooter", "fusion_lat": 0.0, "bike_id": "1b9afc442f351fddaa50071d63122f37"}, {"rental_uris": {"ios": "https://dc.lft.to/lastmile_qr_scan", "android": "https://dc.lft.to/lastmile_qr_scan"}, "fusion_lon": 0.0, "lon": -77.03201416666667, "lat": 38.900567, "is_reserved": 0, "name": "4c24bb1aca9825d58a050590f6d42192", "is_disabled": 0, "type": "electric_scooter", "fusion_lat": 0.0, "bike_id": "4c24bb1aca9825d58a050590f6d42192"}, {"rental_uris": {"ios": "https://dc.lft.to/lastmile_qr_scan", "android": "https://dc.lft.to/lastmile_qr_scan"}, "fusion_lon": 0.0, "lon": -77.02153016666666, "lat": 38.926023666666666, "is_reserved": 0, "name": "7b177fd7e500608c9d3c761ea70c368a", "is_disabled": 0, "type": "electric_scooter", "fusion_lat": 0.0, "bike_id": "7b177fd7e500608c9d3c761ea70c368a"}, {"rental_uris": {"ios": "https://dc.lft.to/lastmile_qr_scan", "android": "https://dc.lft.to/lastmile_qr_scan"}, "fusion_lon": 0.0, "lon": -77.07290516666667, "lat": 38.935506833333335, "is_reserved": 0, "name": "30ba5b3938b4b116353df60e7d912660", "is_disabled": 0, "type": "electric_scooter", "fusion_lat": 0.0, "bike_id": "30ba5b3938b4b116353df60e7d912660"}, {"rental_uris": {"ios": "https://dc.lft.to/lastmile_qr_scan", "android": "https://dc.lft.to/lastmile_qr_scan"}, "fusion_lon": 0.0, "lon": -77.03118133333334, "lat": 38.9237625, "is_reserved": 0, "name": "d218577f93555769c55aa020b5b5e244", "is_disabled": 0, "type": "electric_scooter", "fusion_lat": 0.0, "bike_id": "d218577f93555769c55aa020b5b5e244"}, {"rental_uris": {"ios": "https://dc.lft.to/lastmile_qr_scan", "android": "https://dc.lft.to/lastmile_qr_scan"}, "fusion_lon": 0.0, "lon": -77.01868366666666, "lat": 38.917791666666666, "is_reserved": 0, "name": "9c574d226df3d3743b47b36f34130b67", "is_disabled": 0, "type": "electric_scooter", "fusion_lat": 0.0, "bike_id": "9c574d226df3d3743b47b36f34130b67"}, {"rental_uris": {"ios": "https://dc.lft.to/lastmile_qr_scan", "android": "https://dc.lft.to/lastmile_qr_scan"}, "fusion_lon": 0.0, "lon": -76.94517766666667, "lat": 38.86284533333333, "is_reserved": 0, "name": "ad2eaa2f32e5e4ea5daf778657189053", "is_disabled": 0, "type": "electric_bike", "fusion_lat": 0.0, "bike_id": "ad2eaa2f32e5e4ea5daf778657189053"}, {"rental_uris": {"ios": "https://dc.lft.to/lastmile_qr_scan", "android": "https://dc.lft.to/lastmile_qr_scan"}, "fusion_lon": 0.0, "lon": -77.026509, "lat": 38.97549866666667, "is_reserved": 0, "name": "c53dbd4b892ceec6344ca2d029041a58", "is_disabled": 0, "type": "electric_scooter", "fusion_lat": 0.0, "bike_id": "c53dbd4b892ceec6344ca2d029041a58"}, {"rental_uris": {"ios": "https://dc.lft.to/lastmile_qr_scan", "android": "https://dc.lft.to/lastmile_qr_scan"}, "fusion_lon": 0.0, "lon": -77.01972283333333, "lat": 38.89372816666667, "is_reserved": 0, "name": "df3fc85f28639ddd9ceef2eda21b503b", "is_disabled": 0, "type": "electric_scooter", "fusion_lat": 0.0, "bike_id": "df3fc85f28639ddd9ceef2eda21b503b"}, {"rental_uris": {"ios": "https://dc.lft.to/lastmile_qr_scan", "android": "https://dc.lft.to/lastmile_qr_scan"}, "fusion_lon": 0.0, "lon": -77.04177483333333, "lat": 38.90003633333333, "is_reserved": 0, "name": "e45f74a39cbf964da3d83d92dbb81a23", "is_disabled": 0, "type": "electric_scooter", "fusion_lat": 0.0, "bike_id": "e45f74a39cbf964da3d83d92dbb81a23"}, {"rental_uris": {"ios": "https://dc.lft.to/lastmile_qr_scan", "android": "https://dc.lft.to/lastmile_qr_scan"}, "fusion_lon": 0.0, "lon": -77.0328405, "lat": 38.928372, "is_reserved": 0, "name": "036f79608b18b3f8686d4f091e971be1", "is_disabled": 0, "type": "electric_scooter", "fusion_lat": 0.0, "bike_id": "036f79608b18b3f8686d4f091e971be1"}, {"rental_uris": {"ios": "https://dc.lft.to/lastmile_qr_scan", "android": "https://dc.lft.to/lastmile_qr_scan"}, "fusion_lon": 0.0, "lon": -77.046653, "lat": 38.90969416666667, "is_reserved": 0, "name": "fc22cb824226f5b0ff92e5a18c18ddc6", "is_disabled": 0, "type": "electric_scooter", "fusion_lat": 0.0, "bike_id": "fc22cb824226f5b0ff92e5a18c18ddc6"}, {"rental_uris": {"ios": "https://dc.lft.to/lastmile_qr_scan", "android": "https://dc.lft.to/lastmile_qr_scan"}, "fusion_lon": 0.0, "lon": -76.97941533333334, "lat": 38.9065185, "is_reserved": 0, "name": "c79b4cce5cf7a983cc1db82fa3e914d5", "is_disabled": 0, "type": "electric_scooter", "fusion_lat": 0.0, "bike_id": "c79b4cce5cf7a983cc1db82fa3e914d5"}, {"rental_uris": {"ios": "https://dc.lft.to/lastmile_qr_scan", "android": "https://dc.lft.to/lastmile_qr_scan"}, "fusion_lon": 0.0, "lon": -77.0419465, "lat": 38.92338983333333, "is_reserved": 0, "name": "643cb76865850114d55d2bf96ada091a", "is_disabled": 0, "type": "electric_scooter", "fusion_lat": 0.0, "bike_id": "643cb76865850114d55d2bf96ada091a"}, {"rental_uris": {"ios": "https://dc.lft.to/lastmile_qr_scan", "android": "https://dc.lft.to/lastmile_qr_scan"}, "fusion_lon": 0.0, "lon": -77.0449, "lat": 38.906100333333335, "is_reserved": 0, "name": "209ccd786229d951711caa433f02f664", "is_disabled": 0, "type": "electric_bike", "fusion_lat": 0.0, "bike_id": "209ccd786229d951711caa433f02f664"}, {"rental_uris": {"ios": "https://dc.lft.to/lastmile_qr_scan", "android": "https://dc.lft.to/lastmile_qr_scan"}, "fusion_lon": 0.0, "lon": -76.93548666666666, "lat": 38.876467166666664, "is_reserved": 0, "name": "25fb59089a5a90cc7954cc3eb5f1f3bf", "is_disabled": 0, "type": "electric_bike", "fusion_lat": 0.0, "bike_id": "25fb59089a5a90cc7954cc3eb5f1f3bf"}, {"rental_uris": {"ios": "https://dc.lft.to/lastmile_qr_scan", "android": "https://dc.lft.to/lastmile_qr_scan"}, "fusion_lon": 0.0, "lon": -77.02477633333334, "lat": 38.930989333333336, "is_reserved": 0, "name": "2dadeecbb8833653ac74601561a3ec41", "is_disabled": 0, "type": "electric_scooter", "fusion_lat": 0.0, "bike_id": "2dadeecbb8833653ac74601561a3ec41"}, {"rental_uris": {"ios": "https://dc.lft.to/lastmile_qr_scan", "android": "https://dc.lft.to/lastmile_qr_scan"}, "fusion_lon": 0.0, "lon": -77.05025366666666, "lat": 38.892578, "is_reserved": 0, "name": "8f56e0df22b7b9a603d24cd5fd492d90", "is_disabled": 0, "type": "electric_scooter", "fusion_lat": 0.0, "bike_id": "8f56e0df22b7b9a603d24cd5fd492d90"}, {"rental_uris": {"ios": "https://dc.lft.to/lastmile_qr_scan", "android": "https://dc.lft.to/lastmile_qr_scan"}, "fusion_lon": 0.0, "lon": -76.92304833333333, "lat": 38.89386566666667, "is_reserved": 0, "name": "85ec57fe104dca5ec10af5c2787b170e", "is_disabled": 0, "type": "electric_scooter", "fusion_lat": 0.0, "bike_id": "85ec57fe104dca5ec10af5c2787b170e"}, {"rental_uris": {"ios": "https://dc.lft.to/lastmile_qr_scan", "android": "https://dc.lft.to/lastmile_qr_scan"}, "fusion_lon": 0.0, "lon": -77.0335035, "lat": 38.88482316666666, "is_reserved": 0, "name": "7784d7b7d79163fad66d6cbea38c06e0", "is_disabled": 0, "type": "electric_scooter", "fusion_lat": 0.0, "bike_id": "7784d7b7d79163fad66d6cbea38c06e0"}, {"rental_uris": {"ios": "https://dc.lft.to/lastmile_qr_scan", "android": "https://dc.lft.to/lastmile_qr_scan"}, "fusion_lon": 0.0, "lon": -77.04339616666667, "lat": 38.9110575, "is_reserved": 0, "name": "0f9e637393b5f15ceb7e3a808a4a6076", "is_disabled": 0, "type": "electric_scooter", "fusion_lat": 0.0, "bike_id": "0f9e637393b5f15ceb7e3a808a4a6076"}, {"rental_uris": {"ios": "https://dc.lft.to/lastmile_qr_scan", "android": "https://dc.lft.to/lastmile_qr_scan"}, "fusion_lon": 0.0, "lon": -77.02101216666667, "lat": 38.91209466666667, "is_reserved": 0, "name": "e645b36bb0b3992b6ba7bc9f353256db", "is_disabled": 0, "type": "electric_scooter", "fusion_lat": 0.0, "bike_id": "e645b36bb0b3992b6ba7bc9f353256db"}, {"rental_uris": {"ios": "https://dc.lft.to/lastmile_qr_scan", "android": "https://dc.lft.to/lastmile_qr_scan"}, "fusion_lon": 0.0, "lon": -77.036519, "lat": 38.9228795, "is_reserved": 0, "name": "1a1eddfc2a0d23ea407c1443a80a2c08", "is_disabled": 0, "type": "electric_scooter", "fusion_lat": 0.0, "bike_id": "1a1eddfc2a0d23ea407c1443a80a2c08"}, {"rental_uris": {"ios": "https://dc.lft.to/lastmile_qr_scan", "android": "https://dc.lft.to/lastmile_qr_scan"}, "fusion_lon": 0.0, "lon": -77.053066, "lat": 38.90716183333333, "is_reserved": 0, "name": "ee6f7238307d796b96d7b9bd89460e26", "is_disabled": 0, "type": "electric_scooter", "fusion_lat": 0.0, "bike_id": "ee6f7238307d796b96d7b9bd89460e26"}, {"rental_uris": {"ios": "https://dc.lft.to/lastmile_qr_scan", "android": "https://dc.lft.to/lastmile_qr_scan"}, "fusion_lon": 0.0, "lon": -76.992135, "lat": 38.893534, "is_reserved": 0, "name": "a008c4feb261b7f60065277b15e8848d", "is_disabled": 0, "type": "electric_scooter", "fusion_lat": 0.0, "bike_id": "a008c4feb261b7f60065277b15e8848d"}, {"rental_uris": {"ios": "https://dc.lft.to/lastmile_qr_scan", "android": "https://dc.lft.to/lastmile_qr_scan"}, "fusion_lon": 0.0, "lon": -77.01369533333333, "lat": 38.9285045, "is_reserved": 0, "name": "69c64793e29671e1033fcdfb2b2b6871", "is_disabled": 0, "type": "electric_scooter", "fusion_lat": 0.0, "bike_id": "69c64793e29671e1033fcdfb2b2b6871"}, {"rental_uris": {"ios": "https://dc.lft.to/lastmile_qr_scan", "android": "https://dc.lft.to/lastmile_qr_scan"}, "fusion_lon": 0.0, "lon": -77.02565583333333, "lat": 38.9006445, "is_reserved": 0, "name": "1850e93767e89c50e07fc15e4451f6fd", "is_disabled": 0, "type": "electric_scooter", "fusion_lat": 0.0, "bike_id": "1850e93767e89c50e07fc15e4451f6fd"}, {"rental_uris": {"ios": "https://dc.lft.to/lastmile_qr_scan", "android": "https://dc.lft.to/lastmile_qr_scan"}, "fusion_lon": 0.0, "lon": -77.03183333333334, "lat": 38.933122833333336, "is_reserved": 0, "name": "030c56db45efc3a5606f680f450826e3", "is_disabled": 0, "type": "electric_scooter", "fusion_lat": 0.0, "bike_id": "030c56db45efc3a5606f680f450826e3"}, {"rental_uris": {"ios": "https://dc.lft.to/lastmile_qr_scan", "android": "https://dc.lft.to/lastmile_qr_scan"}, "fusion_lon": 0.0, "lon": -77.04035483333334, "lat": 38.90361683333333, "is_reserved": 0, "name": "f12247098a94f06fae6885f11c6bb95c", "is_disabled": 0, "type": "electric_scooter", "fusion_lat": 0.0, "bike_id": "f12247098a94f06fae6885f11c6bb95c"}, {"rental_uris": {"ios": "https://dc.lft.to/lastmile_qr_scan", "android": "https://dc.lft.to/lastmile_qr_scan"}, "fusion_lon": 0.0, "lon": -77.03204233333334, "lat": 38.894556666666666, "is_reserved": 0, "name": "ea2fb49786782a59184b6fb100fc3af3", "is_disabled": 0, "type": "electric_scooter", "fusion_lat": 0.0, "bike_id": "ea2fb49786782a59184b6fb100fc3af3"}, {"rental_uris": {"ios": "https://dc.lft.to/lastmile_qr_scan", "android": "https://dc.lft.to/lastmile_qr_scan"}, "fusion_lon": 0.0, "lon": -77.01757666666667, "lat": 38.8766935, "is_reserved": 0, "name": "3e4dd84528f4471608c18f4336d8199e", "is_disabled": 0, "type": "electric_scooter", "fusion_lat": 0.0, "bike_id": "3e4dd84528f4471608c18f4336d8199e"}, {"rental_uris": {"ios": "https://dc.lft.to/lastmile_qr_scan", "android": "https://dc.lft.to/lastmile_qr_scan"}, "fusion_lon": 0.0, "lon": -77.0347715, "lat": 38.923443666666664, "is_reserved": 0, "name": "2caa242b14c660ce08e9736f366a351c", "is_disabled": 0, "type": "electric_scooter", "fusion_lat": 0.0, "bike_id": "2caa242b14c660ce08e9736f366a351c"}, {"rental_uris": {"ios": "https://dc.lft.to/lastmile_qr_scan", "android": "https://dc.lft.to/lastmile_qr_scan"}, "fusion_lon": 0.0, "lon": -77.024732, "lat": 38.93097866666667, "is_reserved": 0, "name": "91bae7a858d091b89c81a7e11b567b75", "is_disabled": 0, "type": "electric_scooter", "fusion_lat": 0.0, "bike_id": "91bae7a858d091b89c81a7e11b567b75"}, {"rental_uris": {"ios": "https://dc.lft.to/lastmile_qr_scan", "android": "https://dc.lft.to/lastmile_qr_scan"}, "fusion_lon": 0.0, "lon": -76.95055783333333, "lat": 38.904736166666666, "is_reserved": 0, "name": "1ff400e6d82846788de3afbef3e418e3", "is_disabled": 0, "type": "electric_scooter", "fusion_lat": 0.0, "bike_id": "1ff400e6d82846788de3afbef3e418e3"}, {"rental_uris": {"ios": "https://dc.lft.to/lastmile_qr_scan", "android": "https://dc.lft.to/lastmile_qr_scan"}, "fusion_lon": 0.0, "lon": -77.04993966666666, "lat": 38.901694166666665, "is_reserved": 0, "name": "9954aee0271b2fdbb742baf153d5c68a", "is_disabled": 0, "type": "electric_scooter", "fusion_lat": 0.0, "bike_id": "9954aee0271b2fdbb742baf153d5c68a"}, {"rental_uris": {"ios": "https://dc.lft.to/lastmile_qr_scan", "android": "https://dc.lft.to/lastmile_qr_scan"}, "fusion_lon": 0.0, "lon": -77.02100916666667, "lat": 38.911313666666665, "is_reserved": 0, "name": "ebca1b58bc04cbfdc207768dbf58f1c4", "is_disabled": 0, "type": "electric_scooter", "fusion_lat": 0.0, "bike_id": "ebca1b58bc04cbfdc207768dbf58f1c4"}, {"rental_uris": {"ios": "https://dc.lft.to/lastmile_qr_scan", "android": "https://dc.lft.to/lastmile_qr_scan"}, "fusion_lon": 0.0, "lon": -77.03476333333333, "lat": 38.88488366666667, "is_reserved": 0, "name": "f66f00e2035c1e9428e0ba772c4afb48", "is_disabled": 0, "type": "electric_scooter", "fusion_lat": 0.0, "bike_id": "f66f00e2035c1e9428e0ba772c4afb48"}, {"rental_uris": {"ios": "https://dc.lft.to/lastmile_qr_scan", "android": "https://dc.lft.to/lastmile_qr_scan"}, "fusion_lon": 0.0, "lon": -77.08747816666667, "lat": 38.98566783333333, "is_reserved": 0, "name": "f3461863f23669a08af2aeab079e88d6", "is_disabled": 0, "type": "electric_bike", "fusion_lat": 0.0, "bike_id": "f3461863f23669a08af2aeab079e88d6"}, {"rental_uris": {"ios": "https://dc.lft.to/lastmile_qr_scan", "android": "https://dc.lft.to/lastmile_qr_scan"}, "fusion_lon": 0.0, "lon": -77.00736266666667, "lat": 38.904616833333336, "is_reserved": 0, "name": "3a82328d3b21f2e39b6ef52a24c89821", "is_disabled": 0, "type": "electric_scooter", "fusion_lat": 0.0, "bike_id": "3a82328d3b21f2e39b6ef52a24c89821"}, {"rental_uris": {"ios": "https://dc.lft.to/lastmile_qr_scan", "android": "https://dc.lft.to/lastmile_qr_scan"}, "fusion_lon": 0.0, "lon": -77.02784216666667, "lat": 38.892217, "is_reserved": 0, "name": "cd3fb41462e31994d595dc033ffc521e", "is_disabled": 0, "type": "electric_scooter", "fusion_lat": 0.0, "bike_id": "cd3fb41462e31994d595dc033ffc521e"}, {"rental_uris": {"ios": "https://dc.lft.to/lastmile_qr_scan", "android": "https://dc.lft.to/lastmile_qr_scan"}, "fusion_lon": 0.0, "lon": -76.99183216666667, "lat": 38.8552965, "is_reserved": 0, "name": "f0ed0780d0d944955b7b92d886a3330f", "is_disabled": 0, "type": "electric_scooter", "fusion_lat": 0.0, "bike_id": "f0ed0780d0d944955b7b92d886a3330f"}, {"rental_uris": {"ios": "https://dc.lft.to/lastmile_qr_scan", "android": "https://dc.lft.to/lastmile_qr_scan"}, "fusion_lon": 0.0, "lon": -77.02395716666666, "lat": 38.917627833333334, "is_reserved": 0, "name": "5cd4e335f2159c33bf06953974b9e33c", "is_disabled": 0, "type": "electric_scooter", "fusion_lat": 0.0, "bike_id": "5cd4e335f2159c33bf06953974b9e33c"}, {"rental_uris": {"ios": "https://dc.lft.to/lastmile_qr_scan", "android": "https://dc.lft.to/lastmile_qr_scan"}, "fusion_lon": 0.0, "lon": -77.04186783333333, "lat": 38.919903166666664, "is_reserved": 0, "name": "1aac3009e0b89c4a609e2e88d8b6ffc6", "is_disabled": 0, "type": "electric_scooter", "fusion_lat": 0.0, "bike_id": "1aac3009e0b89c4a609e2e88d8b6ffc6"}, {"rental_uris": {"ios": "https://dc.lft.to/lastmile_qr_scan", "android": "https://dc.lft.to/lastmile_qr_scan"}, "fusion_lon": 0.0, "lon": -77.11757416666667, "lat": 38.87516216666667, "is_reserved": 0, "name": "bad1763e004256443026dbf39b83cb03", "is_disabled": 0, "type": "electric_bike", "fusion_lat": 0.0, "bike_id": "bad1763e004256443026dbf39b83cb03"}, {"rental_uris": {"ios": "https://dc.lft.to/lastmile_qr_scan", "android": "https://dc.lft.to/lastmile_qr_scan"}, "fusion_lon": 0.0, "lon": -76.926293, "lat": 38.886247, "is_reserved": 0, "name": "c47d9c9fae8e173067337f6c5fd1d7c0", "is_disabled": 0, "type": "electric_scooter", "fusion_lat": 0.0, "bike_id": "c47d9c9fae8e173067337f6c5fd1d7c0"}, {"rental_uris": {"ios": "https://dc.lft.to/lastmile_qr_scan", "android": "https://dc.lft.to/lastmile_qr_scan"}, "fusion_lon": 0.0, "lon": -77.04335416666666, "lat": 38.892263, "is_reserved": 0, "name": "60268a7fcf3143817f13bf0a15e5b17d", "is_disabled": 0, "type": "electric_scooter", "fusion_lat": 0.0, "bike_id": "60268a7fcf3143817f13bf0a15e5b17d"}, {"rental_uris": {"ios": "https://dc.lft.to/lastmile_qr_scan", "android": "https://dc.lft.to/lastmile_qr_scan"}, "fusion_lon": 0.0, "lon": -77.026912, "lat": 38.94331966666667, "is_reserved": 0, "name": "e3b425600c76d8c4bb0a6fdbdae81d70", "is_disabled": 0, "type": "electric_scooter", "fusion_lat": 0.0, "bike_id": "e3b425600c76d8c4bb0a6fdbdae81d70"}, {"rental_uris": {"ios": "https://dc.lft.to/lastmile_qr_scan", "android": "https://dc.lft.to/lastmile_qr_scan"}, "fusion_lon": 0.0, "lon": -77.02697083333334, "lat": 38.90011366666667, "is_reserved": 0, "name": "9aff6105ca29be44cff6c19380a144cd", "is_disabled": 0, "type": "electric_scooter", "fusion_lat": 0.0, "bike_id": "9aff6105ca29be44cff6c19380a144cd"}, {"rental_uris": {"ios": "https://dc.lft.to/lastmile_qr_scan", "android": "https://dc.lft.to/lastmile_qr_scan"}, "fusion_lon": 0.0, "lon": -77.036847, "lat": 39.0264755, "is_reserved": 0, "name": "601e636b0f95efbf6c485e133e7341cb", "is_disabled": 0, "type": "electric_bike", "fusion_lat": 0.0, "bike_id": "601e636b0f95efbf6c485e133e7341cb"}, {"rental_uris": {"ios": "https://dc.lft.to/lastmile_qr_scan", "android": "https://dc.lft.to/lastmile_qr_scan"}, "fusion_lon": 0.0, "lon": -77.02133916666666, "lat": 38.923648666666665, "is_reserved": 0, "name": "45ddd3f7c2a153eb431c8cfe978b1d1d", "is_disabled": 0, "type": "electric_scooter", "fusion_lat": 0.0, "bike_id": "45ddd3f7c2a153eb431c8cfe978b1d1d"}, {"rental_uris": {"ios": "https://dc.lft.to/lastmile_qr_scan", "android": "https://dc.lft.to/lastmile_qr_scan"}, "fusion_lon": 0.0, "lon": -77.040537, "lat": 38.93063183333334, "is_reserved": 0, "name": "a2e9d891d274421ede29de66419baa40", "is_disabled": 0, "type": "electric_scooter", "fusion_lat": 0.0, "bike_id": "a2e9d891d274421ede29de66419baa40"}, {"rental_uris": {"ios": "https://dc.lft.to/lastmile_qr_scan", "android": "https://dc.lft.to/lastmile_qr_scan"}, "fusion_lon": 0.0, "lon": -77.029753, "lat": 38.890381833333336, "is_reserved": 0, "name": "7782c6f6a4d85a997ac185c6a903c6c4", "is_disabled": 0, "type": "electric_scooter", "fusion_lat": 0.0, "bike_id": "7782c6f6a4d85a997ac185c6a903c6c4"}, {"rental_uris": {"ios": "https://dc.lft.to/lastmile_qr_scan", "android": "https://dc.lft.to/lastmile_qr_scan"}, "fusion_lon": 0.0, "lon": -77.00921, "lat": 38.91475416666667, "is_reserved": 0, "name": "56e700076782a78043bd016d55053c76", "is_disabled": 0, "type": "electric_scooter", "fusion_lat": 0.0, "bike_id": "56e700076782a78043bd016d55053c76"}, {"rental_uris": {"ios": "https://dc.lft.to/lastmile_qr_scan", "android": "https://dc.lft.to/lastmile_qr_scan"}, "fusion_lon": 0.0, "lon": -76.9955795, "lat": 38.92515316666667, "is_reserved": 0, "name": "081f33295edfe88a182b2ee1e4991b83", "is_disabled": 0, "type": "electric_scooter", "fusion_lat": 0.0, "bike_id": "081f33295edfe88a182b2ee1e4991b83"}, {"rental_uris": {"ios": "https://dc.lft.to/lastmile_qr_scan", "android": "https://dc.lft.to/lastmile_qr_scan"}, "fusion_lon": 0.0, "lon": -77.036309, "lat": 38.9002685, "is_reserved": 0, "name": "87dd1443e7a4715101442fb647294ad4", "is_disabled": 0, "type": "electric_scooter", "fusion_lat": 0.0, "bike_id": "87dd1443e7a4715101442fb647294ad4"}, {"rental_uris": {"ios": "https://dc.lft.to/lastmile_qr_scan", "android": "https://dc.lft.to/lastmile_qr_scan"}, "fusion_lon": 0.0, "lon": -76.95202816666666, "lat": 38.90511133333333, "is_reserved": 0, "name": "9e2ce85a58d1cf12276b04a3bf51da29", "is_disabled": 0, "type": "electric_scooter", "fusion_lat": 0.0, "bike_id": "9e2ce85a58d1cf12276b04a3bf51da29"}, {"rental_uris": {"ios": "https://dc.lft.to/lastmile_qr_scan", "android": "https://dc.lft.to/lastmile_qr_scan"}, "fusion_lon": 0.0, "lon": -77.05211366666667, "lat": 38.914124666666666, "is_reserved": 0, "name": "882e608cc1f71705eee710444c39b35f", "is_disabled": 0, "type": "electric_scooter", "fusion_lat": 0.0, "bike_id": "882e608cc1f71705eee710444c39b35f"}, {"rental_uris": {"ios": "https://dc.lft.to/lastmile_qr_scan", "android": "https://dc.lft.to/lastmile_qr_scan"}, "fusion_lon": 0.0, "lon": -77.03058283333333, "lat": 38.9225065, "is_reserved": 0, "name": "bfd92b7c68de2b8fa7432dbc574af102", "is_disabled": 0, "type": "electric_scooter", "fusion_lat": 0.0, "bike_id": "bfd92b7c68de2b8fa7432dbc574af102"}, {"rental_uris": {"ios": "https://dc.lft.to/lastmile_qr_scan", "android": "https://dc.lft.to/lastmile_qr_scan"}, "fusion_lon": 0.0, "lon": -76.91063566666666, "lat": 39.010766333333336, "is_reserved": 0, "name": "1dacbb62b2dd0c535237830233ec3312", "is_disabled": 0, "type": "electric_bike", "fusion_lat": 0.0, "bike_id": "1dacbb62b2dd0c535237830233ec3312"}, {"rental_uris": {"ios": "https://dc.lft.to/lastmile_qr_scan", "android": "https://dc.lft.to/lastmile_qr_scan"}, "fusion_lon": 0.0, "lon": -77.03210183333333, "lat": 38.91634366666667, "is_reserved": 0, "name": "5dbb59ee12e58fc2961941e3900acead", "is_disabled": 0, "type": "electric_scooter", "fusion_lat": 0.0, "bike_id": "5dbb59ee12e58fc2961941e3900acead"}, {"rental_uris": {"ios": "https://dc.lft.to/lastmile_qr_scan", "android": "https://dc.lft.to/lastmile_qr_scan"}, "fusion_lon": 0.0, "lon": -76.99826216666666, "lat": 38.907219, "is_reserved": 0, "name": "9d681a8acb45fdb209695a10c543f05e", "is_disabled": 0, "type": "electric_scooter", "fusion_lat": 0.0, "bike_id": "9d681a8acb45fdb209695a10c543f05e"}, {"rental_uris": {"ios": "https://dc.lft.to/lastmile_qr_scan", "android": "https://dc.lft.to/lastmile_qr_scan"}, "fusion_lon": 0.0, "lon": -77.01711116666667, "lat": 38.914331833333335, "is_reserved": 0, "name": "33d36cbcba9106713e43d3c2f4c8143a", "is_disabled": 0, "type": "electric_bike", "fusion_lat": 0.0, "bike_id": "33d36cbcba9106713e43d3c2f4c8143a"}, {"rental_uris": {"ios": "https://dc.lft.to/lastmile_qr_scan", "android": "https://dc.lft.to/lastmile_qr_scan"}, "fusion_lon": 0.0, "lon": -77.229072, "lat": 38.87035233333334, "is_reserved": 0, "name": "890ecee088236ac73534f31fccfa0187", "is_disabled": 0, "type": "electric_bike", "fusion_lat": 0.0, "bike_id": "890ecee088236ac73534f31fccfa0187"}, {"rental_uris": {"ios": "https://dc.lft.to/lastmile_qr_scan", "android": "https://dc.lft.to/lastmile_qr_scan"}, "fusion_lon": 0.0, "lon": -76.994904, "lat": 38.8940755, "is_reserved": 0, "name": "2b81c1dba1f6657a8c7bd5d166a97ed0", "is_disabled": 0, "type": "electric_scooter", "fusion_lat": 0.0, "bike_id": "2b81c1dba1f6657a8c7bd5d166a97ed0"}, {"rental_uris": {"ios": "https://dc.lft.to/lastmile_qr_scan", "android": "https://dc.lft.to/lastmile_qr_scan"}, "fusion_lon": 0.0, "lon": -77.021594, "lat": 38.926137833333335, "is_reserved": 0, "name": "73c3db9c0d615d3b667c8ba511041bda", "is_disabled": 0, "type": "electric_scooter", "fusion_lat": 0.0, "bike_id": "73c3db9c0d615d3b667c8ba511041bda"}, {"rental_uris": {"ios": "https://dc.lft.to/lastmile_qr_scan", "android": "https://dc.lft.to/lastmile_qr_scan"}, "fusion_lon": 0.0, "lon": -77.02788316666667, "lat": 38.901361333333334, "is_reserved": 0, "name": "d2fe3903cd91d7badb35e881ff66f30b", "is_disabled": 0, "type": "electric_scooter", "fusion_lat": 0.0, "bike_id": "d2fe3903cd91d7badb35e881ff66f30b"}, {"rental_uris": {"ios": "https://dc.lft.to/lastmile_qr_scan", "android": "https://dc.lft.to/lastmile_qr_scan"}, "fusion_lon": 0.0, "lon": -77.05284733333333, "lat": 38.9105865, "is_reserved": 0, "name": "d6e0546909233dc3e2f443fefa969e81", "is_disabled": 0, "type": "electric_scooter", "fusion_lat": 0.0, "bike_id": "d6e0546909233dc3e2f443fefa969e81"}, {"rental_uris": {"ios": "https://dc.lft.to/lastmile_qr_scan", "android": "https://dc.lft.to/lastmile_qr_scan"}, "fusion_lon": 0.0, "lon": -77.0221225, "lat": 38.89609933333333, "is_reserved": 0, "name": "f4a13cfe266ec6a29745a917f278fcd7", "is_disabled": 0, "type": "electric_scooter", "fusion_lat": 0.0, "bike_id": "f4a13cfe266ec6a29745a917f278fcd7"}, {"rental_uris": {"ios": "https://dc.lft.to/lastmile_qr_scan", "android": "https://dc.lft.to/lastmile_qr_scan"}, "fusion_lon": 0.0, "lon": -77.02864533333333, "lat": 38.89845416666667, "is_reserved": 0, "name": "5daf76b2f8362eb73a7283f8402a398c", "is_disabled": 0, "type": "electric_scooter", "fusion_lat": 0.0, "bike_id": "5daf76b2f8362eb73a7283f8402a398c"}, {"rental_uris": {"ios": "https://dc.lft.to/lastmile_qr_scan", "android": "https://dc.lft.to/lastmile_qr_scan"}, "fusion_lon": 0.0, "lon": -77.02400866666666, "lat": 38.899201166666664, "is_reserved": 0, "name": "6c4ca124eb4ef54211d5cf6171f757c5", "is_disabled": 0, "type": "electric_scooter", "fusion_lat": 0.0, "bike_id": "6c4ca124eb4ef54211d5cf6171f757c5"}, {"rental_uris": {"ios": "https://dc.lft.to/lastmile_qr_scan", "android": "https://dc.lft.to/lastmile_qr_scan"}, "fusion_lon": 0.0, "lon": -77.0199955, "lat": 38.915913333333336, "is_reserved": 0, "name": "41b86c74683100be109ebc7aea619a8c", "is_disabled": 0, "type": "electric_scooter", "fusion_lat": 0.0, "bike_id": "41b86c74683100be109ebc7aea619a8c"}, {"rental_uris": {"ios": "https://dc.lft.to/lastmile_qr_scan", "android": "https://dc.lft.to/lastmile_qr_scan"}, "fusion_lon": 0.0, "lon": -77.02947766666666, "lat": 38.919122333333334, "is_reserved": 0, "name": "42a49ceb6fb8bb25483be86553146b69", "is_disabled": 0, "type": "electric_scooter", "fusion_lat": 0.0, "bike_id": "42a49ceb6fb8bb25483be86553146b69"}, {"rental_uris": {"ios": "https://dc.lft.to/lastmile_qr_scan", "android": "https://dc.lft.to/lastmile_qr_scan"}, "fusion_lon": 0.0, "lon": -76.9925855, "lat": 38.89470133333333, "is_reserved": 0, "name": "cad93866e0c2e578abc0f4f9e23872fa", "is_disabled": 0, "type": "electric_scooter", "fusion_lat": 0.0, "bike_id": "cad93866e0c2e578abc0f4f9e23872fa"}, {"rental_uris": {"ios": "https://dc.lft.to/lastmile_qr_scan", "android": "https://dc.lft.to/lastmile_qr_scan"}, "fusion_lon": 0.0, "lon": -77.02971916666667, "lat": 38.92567316666667, "is_reserved": 0, "name": "21865c1c8035de92b085ec5365fed00f", "is_disabled": 0, "type": "electric_scooter", "fusion_lat": 0.0, "bike_id": "21865c1c8035de92b085ec5365fed00f"}, {"rental_uris": {"ios": "https://dc.lft.to/lastmile_qr_scan", "android": "https://dc.lft.to/lastmile_qr_scan"}, "fusion_lon": 0.0, "lon": -77.01905566666667, "lat": 38.923398, "is_reserved": 0, "name": "b7ae04f795034d4bb77922a834ca91b7", "is_disabled": 0, "type": "electric_scooter", "fusion_lat": 0.0, "bike_id": "b7ae04f795034d4bb77922a834ca91b7"}, {"rental_uris": {"ios": "https://dc.lft.to/lastmile_qr_scan", "android": "https://dc.lft.to/lastmile_qr_scan"}, "fusion_lon": 0.0, "lon": -77.03219266666666, "lat": 38.89240916666667, "is_reserved": 0, "name": "fec1267735d48e9ec1c37a74fc0c642d", "is_disabled": 0, "type": "electric_scooter", "fusion_lat": 0.0, "bike_id": "fec1267735d48e9ec1c37a74fc0c642d"}, {"rental_uris": {"ios": "https://dc.lft.to/lastmile_qr_scan", "android": "https://dc.lft.to/lastmile_qr_scan"}, "fusion_lon": 0.0, "lon": -76.988584, "lat": 38.84032583333333, "is_reserved": 0, "name": "89ff106b76a6bbfa573cfaee6bcb133f", "is_disabled": 0, "type": "electric_bike", "fusion_lat": 0.0, "bike_id": "89ff106b76a6bbfa573cfaee6bcb133f"}, {"rental_uris": {"ios": "https://dc.lft.to/lastmile_qr_scan", "android": "https://dc.lft.to/lastmile_qr_scan"}, "fusion_lon": 0.0, "lon": -77.0029845, "lat": 38.8919825, "is_reserved": 0, "name": "f53ea9dbccee2712892f7259e55544e0", "is_disabled": 0, "type": "electric_scooter", "fusion_lat": 0.0, "bike_id": "f53ea9dbccee2712892f7259e55544e0"}, {"rental_uris": {"ios": "https://dc.lft.to/lastmile_qr_scan", "android": "https://dc.lft.to/lastmile_qr_scan"},