{"data": {"bikes": [{"lon": -77.0303765, "bike_id": "26bc603598f5008bdffde1fd33a9cdd4", "lat": 38.93718916666667, "fusion_lon": 0.0, "fusion_lat": 0.0, "type": "electric_scooter", "name": "26bc603598f5008bdffde1fd33a9cdd4", "is_disabled": 0, "rental_uris": {"ios": "https://dc.lft.to/lastmile_qr_scan", "android": "https://dc.lft.to/lastmile_qr_scan"}, "is_reserved": 0}, {"lon": -77.07413016666666, "bike_id": "1c2565aeddbb6a140562aeab8021fc45", "lat": 38.92892616666666, "fusion_lon": 0.0, "fusion_lat": 0.0, "type": "electric_scooter", "name": "1c2565aeddbb6a140562aeab8021fc45", "is_disabled": 0, "rental_uris": {"ios": "https://dc.lft.to/lastmile_qr_scan", "android": "https://dc.lft.to/lastmile_qr_scan"}, "is_reserved": 0}, {"lon": -77.08490516666667, "bike_id": "46e66de08207d782d93cd5b4b6160e3d", "lat": 38.848484166666665, "fusion_lon": 0.0, "fusion_lat": 0.0, "type": "electric_bike", "name": "46e66de08207d782d93cd5b4b6160e3d", "is_disabled": 0, "rental_uris": {"ios": "https://dc.lft.to/lastmile_qr_scan", "android": "https://dc.lft.to/lastmile_qr_scan"}, "is_reserved": 0}, {"lon": -77.02385916666667, "bike_id": "ebb7f14256de0da7f410082cf807bee3", "lat": 38.93321, "fusion_lon": 0.0, "fusion_lat": 0.0, "type": "electric_scooter", "name": "ebb7f14256de0da7f410082cf807bee3", "is_disabled": 0, "rental_uris": {"ios": "https://dc.lft.to/lastmile_qr_scan", "android": "https://dc.lft.to/lastmile_qr_scan"}, "is_reserved": 0}, {"lon": -77.022647, "bike_id": "1ff71a6347237fd2e1a4fa0358a80414", "lat": 38.92742716666667, "fusion_lon": 0.0, "fusion_lat": 0.0, "type": "electric_scooter", "name": "1ff71a6347237fd2e1a4fa0358a80414", "is_disabled": 0, "rental_uris": {"ios": "https://dc.lft.to/lastmile_qr_scan", "android": "https://dc.lft.to/lastmile_qr_scan"}, "is_reserved": 0}, {"lon": -77.01020466666667, "bike_id": "d458a41d143b450c1de9d907bb462ad1", "lat": 38.90857333333334, "fusion_lon": 0.0, "fusion_lat": 0.0, "type": "electric_scooter", "name": "d458a41d143b450c1de9d907bb462ad1", "is_disabled": 0, "rental_uris": {"ios": "https://dc.lft.to/lastmile_qr_scan", "android": "https://dc.lft.to/lastmile_qr_scan"}, "is_reserved": 0}, {"lon": -76.98058833333333, "bike_id": "eafd1ccff6cbe14c538f623d49ffc80c", "lat": 38.88493366666667, "fusion_lon": 0.0, "fusion_lat": 0.0, "type": "electric_scooter", "name": "eafd1ccff6cbe14c538f623d49ffc80c", "is_disabled": 0, "rental_uris": {"ios": "https://dc.lft.to/lastmile_qr_scan", "android": "https://dc.lft.to/lastmile_qr_scan"}, "is_reserved": 0}, {"lon": -76.9950485, "bike_id": "3f86a8e3c09be870a641ac843de48d01", "lat": 38.882531, "fusion_lon": 0.0, "fusion_lat": 0.0, "type": "electric_scooter", "name": "3f86a8e3c09be870a641ac843de48d01", "is_disabled": 0, "rental_uris": {"ios": "https://dc.lft.to/lastmile_qr_scan", "android": "https://dc.lft.to/lastmile_qr_scan"}, "is_reserved": 0}, {"lon": -77.03230083333334, "bike_id": "8c13fe940f33c6b1691caa33f4736f0e", "lat": 38.92748, "fusion_lon": 0.0, "fusion_lat": 0.0, "type": "electric_scooter", "name": "8c13fe940f33c6b1691caa33f4736f0e", "is_disabled": 0, "rental_uris": {"ios": "https://dc.lft.to/lastmile_qr_scan", "android": "https://dc.lft.to/lastmile_qr_scan"}, "is_reserved": 0}, {"lon": -77.08809683333334, "bike_id": "c901f98d99d8f285f5f40a787a0c8bb8", "lat": 38.911801833333335, "fusion_lon": 0.0, "fusion_lat": 0.0, "type": "electric_scooter", "name": "c901f98d99d8f285f5f40a787a0c8bb8", "is_disabled": 0, "rental_uris": {"ios": "https://dc.lft.to/lastmile_qr_scan", "android": "https://dc.lft.to/lastmile_qr_scan"}, "is_reserved": 0}, {"lon": -77.03933566666667, "bike_id": "962d74797675498724c2e2a77815b118", "lat": 38.91567083333333, "fusion_lon": 0.0, "fusion_lat": 0.0, "type": "electric_scooter", "name": "962d74797675498724c2e2a77815b118", "is_disabled": 0, "rental_uris": {"ios": "https://dc.lft.to/lastmile_qr_scan", "android": "https://dc.lft.to/lastmile_qr_scan"}, "is_reserved": 0}, {"lon": -76.94591733333333, "bike_id": "f69e30607702fa71c82753fe9ef1927f", "lat": 38.90149683333333, "fusion_lon": 0.0, "fusion_lat": 0.0, "type": "electric_scooter", "name": "f69e30607702fa71c82753fe9ef1927f", "is_disabled": 0, "rental_uris": {"ios": "https://dc.lft.to/lastmile_qr_scan", "android": "https://dc.lft.to/lastmile_qr_scan"}, "is_reserved": 0}, {"lon": -76.9892095, "bike_id": "196cb37222950d5078cb40af7666e111", "lat": 38.8649585, "fusion_lon": 0.0, "fusion_lat": 0.0, "type": "electric_scooter", "name": "196cb37222950d5078cb40af7666e111", "is_disabled": 0, "rental_uris": {"ios": "https://dc.lft.to/lastmile_qr_scan", "android": "https://dc.lft.to/lastmile_qr_scan"}, "is_reserved": 0}, {"lon": -77.00295233333334, "bike_id": "0f0d10dceb28f5ff06fae4183430f737", "lat": 38.909005666666665, "fusion_lon": 0.0, "fusion_lat": 0.0, "type": "electric_scooter", "name": "0f0d10dceb28f5ff06fae4183430f737", "is_disabled": 0, "rental_uris": {"ios": "https://dc.lft.to/lastmile_qr_scan", "android": "https://dc.lft.to/lastmile_qr_scan"}, "is_reserved": 0}, {"lon": -76.97395816666666, "bike_id": "7e51c6cde1e2f8bda15c61ffb62d24d9", "lat": 38.90299683333333, "fusion_lon": 0.0, "fusion_lat": 0.0, "type": "electric_scooter", "name": "7e51c6cde1e2f8bda15c61ffb62d24d9", "is_disabled": 0, "rental_uris": {"ios": "https://dc.lft.to/lastmile_qr_scan", "android": "https://dc.lft.to/lastmile_qr_scan"}, "is_reserved": 0}, {"lon": -77.03039283333334, "bike_id": "1fa29152ead533720f0f7c65d6b04c68", "lat": 38.884040166666665, "fusion_lon": 0.0, "fusion_lat": 0.0, "type": "electric_scooter", "name": "1fa29152ead533720f0f7c65d6b04c68", "is_disabled": 0, "rental_uris": {"ios": "https://dc.lft.to/lastmile_qr_scan", "android": "https://dc.lft.to/lastmile_qr_scan"}, "is_reserved": 0}, {"lon": -77.04001616666666, "bike_id": "3924a3021163af01265ca23545991eac", "lat": 38.9343285, "fusion_lon": 0.0, "fusion_lat": 0.0, "type": "electric_scooter", "name": "3924a3021163af01265ca23545991eac", "is_disabled": 0, "rental_uris": {"ios": "https://dc.lft.to/lastmile_qr_scan", "android": "https://dc.lft.to/lastmile_qr_scan"}, "is_reserved": 0}, {"lon": -77.021569, "bike_id": "beb74ba96f6219065aa824a128f64abd", "lat": 38.892152833333334, "fusion_lon": 0.0, "fusion_lat": 0.0, "type": "electric_scooter", "name": "beb74ba96f6219065aa824a128f64abd", "is_disabled": 0, "rental_uris": {"ios": "https://dc.lft.to/lastmile_qr_scan", "android": "https://dc.lft.to/lastmile_qr_scan"}, "is_reserved": 0}, {"lon": -77.014546, "bike_id": "c735b6b20dfb586e423be350743ace7d", "lat": 38.899407, "fusion_lon": 0.0, "fusion_lat": 0.0, "type": "electric_scooter", "name": "c735b6b20dfb586e423be350743ace7d", "is_disabled": 0, "rental_uris": {"ios": "https://dc.lft.to/lastmile_qr_scan", "android": "https://dc.lft.to/lastmile_qr_scan"}, "is_reserved": 0}, {"lon": -77.044758, "bike_id": "30fbfa01771c16c1987382f91f6a6bed", "lat": 38.921410333333334, "fusion_lon": 0.0, "fusion_lat": 0.0, "type": "electric_scooter", "name": "30fbfa01771c16c1987382f91f6a6bed", "is_disabled": 0, "rental_uris": {"ios": "https://dc.lft.to/lastmile_qr_scan", "android": "https://dc.lft.to/lastmile_qr_scan"}, "is_reserved": 0}, {"lon": -76.94155666666667, "bike_id": "e93412491360085ce601d7e456acd854", "lat": 38.879112666666664, "fusion_lon": 0.0, "fusion_lat": 0.0, "type": "electric_scooter", "name": "e93412491360085ce601d7e456acd854", "is_disabled": 0, "rental_uris": {"ios": "https://dc.lft.to/lastmile_qr_scan", "android": "https://dc.lft.to/lastmile_qr_scan"}, "is_reserved": 0}, {"lon": -77.054801, "bike_id": "f778ade1f77a956a3008bcfd8231fc35", "lat": 38.9105415, "fusion_lon": 0.0, "fusion_lat": 0.0, "type": "electric_scooter", "name": "f778ade1f77a956a3008bcfd8231fc35", "is_disabled": 0, "rental_uris": {"ios": "https://dc.lft.to/lastmile_qr_scan", "android": "https://dc.lft.to/lastmile_qr_scan"}, "is_reserved": 0}, {"lon": -77.04610716666667, "bike_id": "24f188f5cd24c8001c0bed204cece8b3", "lat": 38.921806333333336, "fusion_lon": 0.0, "fusion_lat": 0.0, "type": "electric_scooter", "name": "24f188f5cd24c8001c0bed204cece8b3", "is_disabled": 0, "rental_uris": {"ios": "https://dc.lft.to/lastmile_qr_scan", "android": "https://dc.lft.to/lastmile_qr_scan"}, "is_reserved": 0}, {"lon": -77.007118, "bike_id": "e9023e11213295fac19476ae58660862", "lat": 38.884908833333334, "fusion_lon": 0.0, "fusion_lat": 0.0, "type": "electric_scooter", "name": "e9023e11213295fac19476ae58660862", "is_disabled": 0, "rental_uris": {"ios": "https://dc.lft.to/lastmile_qr_scan", "android": "https://dc.lft.to/lastmile_qr_scan"}, "is_reserved": 0}, {"lon": -76.98332233333333, "bike_id": "6efc7a477dc7f1947f94e6a57a494314", "lat": 38.900909, "fusion_lon": 0.0, "fusion_lat": 0.0, "type": "electric_scooter", "name": "6efc7a477dc7f1947f94e6a57a494314", "is_disabled": 0, "rental_uris": {"ios": "https://dc.lft.to/lastmile_qr_scan", "android": "https://dc.lft.to/lastmile_qr_scan"}, "is_reserved": 0}, {"lon": -77.02367416666667, "bike_id": "c1007a29b2a867899b82270b57a26a76", "lat": 38.9195595, "fusion_lon": 0.0, "fusion_lat": 0.0, "type": "electric_scooter", "name": "c1007a29b2a867899b82270b57a26a76", "is_disabled": 0, "rental_uris": {"ios": "https://dc.lft.to/lastmile_qr_scan", "android": "https://dc.lft.to/lastmile_qr_scan"}, "is_reserved": 0}, {"lon": -77.03289216666667, "bike_id": "a7be05ca7987533f2e2138a162bee8ad", "lat": 38.92896116666667, "fusion_lon": 0.0, "fusion_lat": 0.0, "type": "electric_scooter", "name": "a7be05ca7987533f2e2138a162bee8ad", "is_disabled": 0, "rental_uris": {"ios": "https://dc.lft.to/lastmile_qr_scan", "android": "https://dc.lft.to/lastmile_qr_scan"}, "is_reserved": 0}, {"lon": -77.02302566666667, "bike_id": "4152321af9ac65fbd29970922d86812c", "lat": 38.9159555, "fusion_lon": 0.0, "fusion_lat": 0.0, "type": "electric_scooter", "name": "4152321af9ac65fbd29970922d86812c", "is_disabled": 0, "rental_uris": {"ios": "https://dc.lft.to/lastmile_qr_scan", "android": "https://dc.lft.to/lastmile_qr_scan"}, "is_reserved": 0}, {"lon": -77.00180383333333, "bike_id": "bc877493c13dedaf9ce15bc47eb14f87", "lat": 38.91199866666667, "fusion_lon": 0.0, "fusion_lat": 0.0, "type": "electric_scooter", "name": "bc877493c13dedaf9ce15bc47eb14f87", "is_disabled": 0, "rental_uris": {"ios": "https://dc.lft.to/lastmile_qr_scan", "android": "https://dc.lft.to/lastmile_qr_scan"}, "is_reserved": 0}, {"lon": -76.99270816666666, "bike_id": "bde4cc4a51cc887652cf29183fea1ebc", "lat": 38.897720666666665, "fusion_lon": 0.0, "fusion_lat": 0.0, "type": "electric_scooter", "name": "bde4cc4a51cc887652cf29183fea1ebc", "is_disabled": 0, "rental_uris": {"ios": "https://dc.lft.to/lastmile_qr_scan", "android": "https://dc.lft.to/lastmile_qr_scan"}, "is_reserved": 0}, {"lon": -77.038492, "bike_id": "f2a44e268b959d341413beb0e88559d8", "lat": 38.9313495, "fusion_lon": 0.0, "fusion_lat": 0.0, "type": "electric_scooter", "name": "f2a44e268b959d341413beb0e88559d8", "is_disabled": 0, "rental_uris": {"ios": "https://dc.lft.to/lastmile_qr_scan", "android": "https://dc.lft.to/lastmile_qr_scan"}, "is_reserved": 0}, {"lon": -77.033767, "bike_id": "c488c3a22cd2da8952e9fc0fddf5bb53", "lat": 38.9098135, "fusion_lon": 0.0, "fusion_lat": 0.0, "type": "electric_scooter", "name": "c488c3a22cd2da8952e9fc0fddf5bb53", "is_disabled": 0, "rental_uris": {"ios": "https://dc.lft.to/lastmile_qr_scan", "android": "https://dc.lft.to/lastmile_qr_scan"}, "is_reserved": 0}, {"lon": -76.93176866666667, "bike_id": "bf51c42bc4a344b201a450b82febc659", "lat": 38.898823, "fusion_lon": 0.0, "fusion_lat": 0.0, "type": "electric_scooter", "name": "bf51c42bc4a344b201a450b82febc659", "is_disabled": 0, "rental_uris": {"ios": "https://dc.lft.to/lastmile_qr_scan", "android": "https://dc.lft.to/lastmile_qr_scan"}, "is_reserved": 0}, {"lon": -76.94958983333333, "bike_id": "e7adfc4045c1d85c685fba3140117dc4", "lat": 38.894415333333335, "fusion_lon": 0.0, "fusion_lat": 0.0, "type": "electric_scooter", "name": "e7adfc4045c1d85c685fba3140117dc4", "is_disabled": 0, "rental_uris": {"ios": "https://dc.lft.to/lastmile_qr_scan", "android": "https://dc.lft.to/lastmile_qr_scan"}, "is_reserved": 0}, {"lon": -76.99474483333333, "bike_id": "d5ecdd9d1b3a6ca27d7c156588f65684", "lat": 38.86216316666667, "fusion_lon": 0.0, "fusion_lat": 0.0, "type": "electric_scooter", "name": "d5ecdd9d1b3a6ca27d7c156588f65684", "is_disabled": 0, "rental_uris": {"ios": "https://dc.lft.to/lastmile_qr_scan", "android": "https://dc.lft.to/lastmile_qr_scan"}, "is_reserved": 0}, {"lon": -77.04455766666666, "bike_id": "b3470550863724bd010db384910aa706", "lat": 38.919444666666664, "fusion_lon": 0.0, "fusion_lat": 0.0, "type": "electric_scooter", "name": "b3470550863724bd010db384910aa706", "is_disabled": 0, "rental_uris": {"ios": "https://dc.lft.to/lastmile_qr_scan", "android": "https://dc.lft.to/lastmile_qr_scan"}, "is_reserved": 0}, {"lon": -76.9961385, "bike_id": "e03ce2485ada4bea675a47ee781cc117", "lat": 38.883193, "fusion_lon": 0.0, "fusion_lat": 0.0, "type": "electric_scooter", "name": "e03ce2485ada4bea675a47ee781cc117", "is_disabled": 0, "rental_uris": {"ios": "https://dc.lft.to/lastmile_qr_scan", "android": "https://dc.lft.to/lastmile_qr_scan"}, "is_reserved": 0}, {"lon": -76.9336795, "bike_id": "846f761c70ae9e43fd40a45de1ccdba7", "lat": 38.899144166666666, "fusion_lon": 0.0, "fusion_lat": 0.0, "type": "electric_scooter", "name": "846f761c70ae9e43fd40a45de1ccdba7", "is_disabled": 0, "rental_uris": {"ios": "https://dc.lft.to/lastmile_qr_scan", "android": "https://dc.lft.to/lastmile_qr_scan"}, "is_reserved": 0}, {"lon": -76.99876583333334, "bike_id": "08e063bb76dc218dbeb8cea7cb25281d", "lat": 38.90753766666667, "fusion_lon": 0.0, "fusion_lat": 0.0, "type": "electric_scooter", "name": "08e063bb76dc218dbeb8cea7cb25281d", "is_disabled": 0, "rental_uris": {"ios": "https://dc.lft.to/lastmile_qr_scan", "android": "https://dc.lft.to/lastmile_qr_scan"}, "is_reserved": 0}, {"lon": -77.01140716666667, "bike_id": "d2ee871b98ac472a7e269c9bb7a3f92a", "lat": 38.91257816666667, "fusion_lon": 0.0, "fusion_lat": 0.0, "type": "electric_scooter", "name": "d2ee871b98ac472a7e269c9bb7a3f92a", "is_disabled": 0, "rental_uris": {"ios": "https://dc.lft.to/lastmile_qr_scan", "android": "https://dc.lft.to/lastmile_qr_scan"}, "is_reserved": 0}, {"lon": -77.0297385, "bike_id": "608e03028fd750d6299c3f11d243c5ea", "lat": 38.9124475, "fusion_lon": 0.0, "fusion_lat": 0.0, "type": "electric_scooter", "name": "608e03028fd750d6299c3f11d243c5ea", "is_disabled": 0, "rental_uris": {"ios": "https://dc.lft.to/lastmile_qr_scan", "android": "https://dc.lft.to/lastmile_qr_scan"}, "is_reserved": 0}, {"lon": -76.99567483333334, "bike_id": "ea154a0c61f00bc14081832397cdf5d8", "lat": 38.8518365, "fusion_lon": 0.0, "fusion_lat": 0.0, "type": "electric_bike", "name": "ea154a0c61f00bc14081832397cdf5d8", "is_disabled": 0, "rental_uris": {"ios": "https://dc.lft.to/lastmile_qr_scan", "android": "https://dc.lft.to/lastmile_qr_scan"}, "is_reserved": 0}, {"lon": -77.03852183333333, "bike_id": "e041b5fe41099d1ea5bd1d3f9dd418b2", "lat": 38.907732333333335, "fusion_lon": 0.0, "fusion_lat": 0.0, "type": "electric_scooter", "name": "e041b5fe41099d1ea5bd1d3f9dd418b2", "is_disabled": 0, "rental_uris": {"ios": "https://dc.lft.to/lastmile_qr_scan", "android": "https://dc.lft.to/lastmile_qr_scan"}, "is_reserved": 0}, {"lon": -77.020061, "bike_id": "3594ec87b7a7a8ed3f4bb3aeb7b6893c", "lat": 38.90390416666666, "fusion_lon": 0.0, "fusion_lat": 0.0, "type": "electric_scooter", "name": "3594ec87b7a7a8ed3f4bb3aeb7b6893c", "is_disabled": 0, "rental_uris": {"ios": "https://dc.lft.to/lastmile_qr_scan", "android": "https://dc.lft.to/lastmile_qr_scan"}, "is_reserved": 0}, {"lon": -77.04363066666667, "bike_id": "a9e2465c1871757c85e36fc692325edd", "lat": 38.921605166666666, "fusion_lon": 0.0, "fusion_lat": 0.0, "type": "electric_scooter", "name": "a9e2465c1871757c85e36fc692325edd", "is_disabled": 0, "rental_uris": {"ios": "https://dc.lft.to/lastmile_qr_scan", "android": "https://dc.lft.to/lastmile_qr_scan"}, "is_reserved": 0}, {"lon": -76.95196783333333, "bike_id": "669c0bd95c617f59c3d24d61e8fde9b9", "lat": 38.8999965, "fusion_lon": 0.0, "fusion_lat": 0.0, "type": "electric_scooter", "name": "669c0bd95c617f59c3d24d61e8fde9b9", "is_disabled": 0, "rental_uris": {"ios": "https://dc.lft.to/lastmile_qr_scan", "android": "https://dc.lft.to/lastmile_qr_scan"}, "is_reserved": 0}, {"lon": -77.03276116666666, "bike_id": "480f32077f1162024756d4c4647ef2d2", "lat": 38.90559416666667, "fusion_lon": 0.0, "fusion_lat": 0.0, "type": "electric_scooter", "name": "480f32077f1162024756d4c4647ef2d2", "is_disabled": 0, "rental_uris": {"ios": "https://dc.lft.to/lastmile_qr_scan", "android": "https://dc.lft.to/lastmile_qr_scan"}, "is_reserved": 0}, {"lon": -77.02199983333334, "bike_id": "21f62f536bc73470e210aa17b61b6f44", "lat": 38.91141733333333, "fusion_lon": 0.0, "fusion_lat": 0.0, "type": "electric_scooter", "name": "21f62f536bc73470e210aa17b61b6f44", "is_disabled": 0, "rental_uris": {"ios": "https://dc.lft.to/lastmile_qr_scan", "android": "https://dc.lft.to/lastmile_qr_scan"}, "is_reserved": 0}, {"lon": -77.03971416666667, "bike_id": "eb33a268d88989590dbf38d3d5310515", "lat": 38.902652333333336, "fusion_lon": 0.0, "fusion_lat": 0.0, "type": "electric_scooter", "name": "eb33a268d88989590dbf38d3d5310515", "is_disabled": 0, "rental_uris": {"ios": "https://dc.lft.to/lastmile_qr_scan", "android": "https://dc.lft.to/lastmile_qr_scan"}, "is_reserved": 0}, {"lon": -77.0347845, "bike_id": "2f78a07d084aacb54a8258b7f1717f91", "lat": 38.92871816666667, "fusion_lon": 0.0, "fusion_lat": 0.0, "type": "electric_scooter", "name": "2f78a07d084aacb54a8258b7f1717f91", "is_disabled": 0, "rental_uris": {"ios": "https://dc.lft.to/lastmile_qr_scan", "android": "https://dc.lft.to/lastmile_qr_scan"}, "is_reserved": 0}, {"lon": -77.036506, "bike_id": "6cef398fdc09bbdd998fbfef30657ea4", "lat": 38.902921666666664, "fusion_lon": 0.0, "fusion_lat": 0.0, "type": "electric_scooter", "name": "6cef398fdc09bbdd998fbfef30657ea4", "is_disabled": 0, "rental_uris": {"ios": "https://dc.lft.to/lastmile_qr_scan", "android": "https://dc.lft.to/lastmile_qr_scan"}, "is_reserved": 0}, {"lon": -77.08576, "bike_id": "8a8b4521be9c4d50dd76541ca82e46fe", "lat": 38.933546, "fusion_lon": 0.0, "fusion_lat": 0.0, "type": "electric_scooter", "name": "8a8b4521be9c4d50dd76541ca82e46fe", "is_disabled": 0, "rental_uris": {"ios": "https://dc.lft.to/lastmile_qr_scan", "android": "https://dc.lft.to/lastmile_qr_scan"}, "is_reserved": 0}, {"lon": -77.05939233333334, "bike_id": "8447a391cc23ac55928d5dd0dbf42225", "lat": 38.9124435, "fusion_lon": 0.0, "fusion_lat": 0.0, "type": "electric_scooter", "name": "8447a391cc23ac55928d5dd0dbf42225", "is_disabled": 0, "rental_uris": {"ios": "https://dc.lft.to/lastmile_qr_scan", "android": "https://dc.lft.to/lastmile_qr_scan"}, "is_reserved": 0}, {"lon": -77.02117616666666, "bike_id": "5415af351d5ba278bdad13fddf29877f", "lat": 38.917398666666664, "fusion_lon": 0.0, "fusion_lat": 0.0, "type": "electric_scooter", "name": "5415af351d5ba278bdad13fddf29877f", "is_disabled": 0, "rental_uris": {"ios": "https://dc.lft.to/lastmile_qr_scan", "android": "https://dc.lft.to/lastmile_qr_scan"}, "is_reserved": 0}, {"lon": -76.93000833333333, "bike_id": "4f3ab10659fc3aa35c723b5c71275c31", "lat": 38.901857, "fusion_lon": 0.0, "fusion_lat": 0.0, "type": "electric_scooter", "name": "4f3ab10659fc3aa35c723b5c71275c31", "is_disabled": 0, "rental_uris": {"ios": "https://dc.lft.to/lastmile_qr_scan", "android": "https://dc.lft.to/lastmile_qr_scan"}, "is_reserved": 0}, {"lon": -77.014255, "bike_id": "91d6414d10608b59eebd02b393348818", "lat": 38.97220083333333, "fusion_lon": 0.0, "fusion_lat": 0.0, "type": "electric_bike", "name": "91d6414d10608b59eebd02b393348818", "is_disabled": 0, "rental_uris": {"ios": "https://dc.lft.to/lastmile_qr_scan", "android": "https://dc.lft.to/lastmile_qr_scan"}, "is_reserved": 0}, {"lon": -77.03887783333333, "bike_id": "f264682779c7f8a2d169cbab6cd47c14", "lat": 38.92011933333333, "fusion_lon": 0.0, "fusion_lat": 0.0, "type": "electric_scooter", "name": "f264682779c7f8a2d169cbab6cd47c14", "is_disabled": 0, "rental_uris": {"ios": "https://dc.lft.to/lastmile_qr_scan", "android": "https://dc.lft.to/lastmile_qr_scan"}, "is_reserved": 0}, {"lon": -77.06728583333333, "bike_id": "08ef61e17674a566e178a71728f280a3", "lat": 38.909726666666664, "fusion_lon": 0.0, "fusion_lat": 0.0, "type": "electric_scooter", "name": "08ef61e17674a566e178a71728f280a3", "is_disabled": 0, "rental_uris": {"ios": "https://dc.lft.to/lastmile_qr_scan", "android": "https://dc.lft.to/lastmile_qr_scan"}, "is_reserved": 0}, {"lon": -77.03476266666667, "bike_id": "e502595a879c8809ade43e278dc862d7", "lat": 38.90870266666667, "fusion_lon": 0.0, "fusion_lat": 0.0, "type": "electric_scooter", "name": "e502595a879c8809ade43e278dc862d7", "is_disabled": 0, "rental_uris": {"ios": "https://dc.lft.to/lastmile_qr_scan", "android": "https://dc.lft.to/lastmile_qr_scan"}, "is_reserved": 0}, {"lon": -76.9971245, "bike_id": "d573b196b9c015fde5d28af6c6cf59bd", "lat": 38.911045333333334, "fusion_lon": 0.0, "fusion_lat": 0.0, "type": "electric_scooter", "name": "d573b196b9c015fde5d28af6c6cf59bd", "is_disabled": 0, "rental_uris": {"ios": "https://dc.lft.to/lastmile_qr_scan", "android": "https://dc.lft.to/lastmile_qr_scan"}, "is_reserved": 0}, {"lon": -77.03828083333333, "bike_id": "a4641adcc79be47808d8e8489ca56d3b", "lat": 38.911192666666665, "fusion_lon": 0.0, "fusion_lat": 0.0, "type": "electric_scooter", "name": "a4641adcc79be47808d8e8489ca56d3b", "is_disabled": 0, "rental_uris": {"ios": "https://dc.lft.to/lastmile_qr_scan", "android": "https://dc.lft.to/lastmile_qr_scan"}, "is_reserved": 0}, {"lon": -77.04196466666667, "bike_id": "64a3677fd7a4ad07f2b264f9c0be0e39", "lat": 38.91261766666667, "fusion_lon": 0.0, "fusion_lat": 0.0, "type": "electric_scooter", "name": "64a3677fd7a4ad07f2b264f9c0be0e39", "is_disabled": 0, "rental_uris": {"ios": "https://dc.lft.to/lastmile_qr_scan", "android": "https://dc.lft.to/lastmile_qr_scan"}, "is_reserved": 0}, {"lon": -77.10923133333333, "bike_id": "ede697a746c1cc5cb63f6c841dd7d6fd", "lat": 39.051973333333336, "fusion_lon": 0.0, "fusion_lat": 0.0, "type": "electric_bike", "name": "ede697a746c1cc5cb63f6c841dd7d6fd", "is_disabled": 0, "rental_uris": {"ios": "https://dc.lft.to/lastmile_qr_scan", "android": "https://dc.lft.to/lastmile_qr_scan"}, "is_reserved": 0}, {"lon": -77.028103, "bike_id": "5ac41eb7335aae6e21b9079e73cd8bb4", "lat": 38.88177533333333, "fusion_lon": 0.0, "fusion_lat": 0.0, "type": "electric_scooter", "name": "5ac41eb7335aae6e21b9079e73cd8bb4", "is_disabled": 0, "rental_uris": {"ios": "https://dc.lft.to/lastmile_qr_scan", "android": "https://dc.lft.to/lastmile_qr_scan"}, "is_reserved": 0}, {"lon": -77.01399733333334, "bike_id": "2957aa072156fb8a62b40626dfbed5b7", "lat": 38.9286715, "fusion_lon": 0.0, "fusion_lat": 0.0, "type": "electric_scooter", "name": "2957aa072156fb8a62b40626dfbed5b7", "is_disabled": 0, "rental_uris": {"ios": "https://dc.lft.to/lastmile_qr_scan", "android": "https://dc.lft.to/lastmile_qr_scan"}, "is_reserved": 0}, {"lon": -77.0121695, "bike_id": "e9ce9f3b0f7885b993a73c070e0b94e9", "lat": 38.900647166666666, "fusion_lon": 0.0, "fusion_lat": 0.0, "type": "electric_scooter", "name": "e9ce9f3b0f7885b993a73c070e0b94e9", "is_disabled": 0, "rental_uris": {"ios": "https://dc.lft.to/lastmile_qr_scan", "android": "https://dc.lft.to/lastmile_qr_scan"}, "is_reserved": 0}, {"lon": -77.00100166666667, "bike_id": "dfcb240a49bcdfae04e2d3c00298f0b1", "lat": 38.91634166666667, "fusion_lon": 0.0, "fusion_lat": 0.0, "type": "electric_scooter", "name": "dfcb240a49bcdfae04e2d3c00298f0b1", "is_disabled": 0, "rental_uris": {"ios": "https://dc.lft.to/lastmile_qr_scan", "android": "https://dc.lft.to/lastmile_qr_scan"}, "is_reserved": 0}, {"lon": -77.11707216666667, "bike_id": "13298e06219287d069b9e6dee6d5c36f", "lat": 38.8674595, "fusion_lon": 0.0, "fusion_lat": 0.0, "type": "electric_bike", "name": "13298e06219287d069b9e6dee6d5c36f", "is_disabled": 0, "rental_uris": {"ios": "https://dc.lft.to/lastmile_qr_scan", "android": "https://dc.lft.to/lastmile_qr_scan"}, "is_reserved": 0}, {"lon": -77.0482075, "bike_id": "9ced332c27d23924db187e1d1d2e4fef", "lat": 38.907270833333335, "fusion_lon": 0.0, "fusion_lat": 0.0, "type": "electric_scooter", "name": "9ced332c27d23924db187e1d1d2e4fef", "is_disabled": 0, "rental_uris": {"ios": "https://dc.lft.to/lastmile_qr_scan", "android": "https://dc.lft.to/lastmile_qr_scan"}, "is_reserved": 0}, {"lon": -77.04332966666666, "bike_id": "98986692167d7c40ce418abb1e4cffba", "lat": 38.9158855, "fusion_lon": 0.0, "fusion_lat": 0.0, "type": "electric_scooter", "name": "98986692167d7c40ce418abb1e4cffba", "is_disabled": 0, "rental_uris": {"ios": "https://dc.lft.to/lastmile_qr_scan", "android": "https://dc.lft.to/lastmile_qr_scan"}, "is_reserved": 0}, {"lon": -77.03450483333333, "bike_id": "3d18bd099c181526b4c6d837c488f43b", "lat": 38.927375833333336, "fusion_lon": 0.0, "fusion_lat": 0.0, "type": "electric_scooter", "name": "3d18bd099c181526b4c6d837c488f43b", "is_disabled": 0, "rental_uris": {"ios": "https://dc.lft.to/lastmile_qr_scan", "android": "https://dc.lft.to/lastmile_qr_scan"}, "is_reserved": 0}, {"lon": -77.02081416666667, "bike_id": "82598e5aaa1442ff482c14342bac7bb7", "lat": 38.92707716666666, "fusion_lon": 0.0, "fusion_lat": 0.0, "type": "electric_scooter", "name": "82598e5aaa1442ff482c14342bac7bb7", "is_disabled": 0, "rental_uris": {"ios": "https://dc.lft.to/lastmile_qr_scan", "android": "https://dc.lft.to/lastmile_qr_scan"}, "is_reserved": 0}, {"lon": -77.03275883333333, "bike_id": "dd551dee43ee032b044f0c3e33321970", "lat": 38.9285515, "fusion_lon": 0.0, "fusion_lat": 0.0, "type": "electric_scooter", "name": "dd551dee43ee032b044f0c3e33321970", "is_disabled": 0, "rental_uris": {"ios": "https://dc.lft.to/lastmile_qr_scan", "android": "https://dc.lft.to/lastmile_qr_scan"}, "is_reserved": 0}, {"lon": -77.03202316666666, "bike_id": "736f2d84fd7ebfe059f336958c8381cd", "lat": 38.91651183333333, "fusion_lon": 0.0, "fusion_lat": 0.0, "type": "electric_scooter", "name": "736f2d84fd7ebfe059f336958c8381cd", "is_disabled": 0, "rental_uris": {"ios": "https://dc.lft.to/lastmile_qr_scan", "android": "https://dc.lft.to/lastmile_qr_scan"}, "is_reserved": 0}, {"lon": -77.013442, "bike_id": "b66dd43ecbe3cb8e7010a2c6abd5b772", "lat": 38.878150833333336, "fusion_lon": 0.0, "fusion_lat": 0.0, "type": "electric_scooter", "name": "b66dd43ecbe3cb8e7010a2c6abd5b772", "is_disabled": 0, "rental_uris": {"ios": "https://dc.lft.to/lastmile_qr_scan", "android": "https://dc.lft.to/lastmile_qr_scan"}, "is_reserved": 0}, {"lon": -77.03840333333333, "bike_id": "74461c15177c61c557468e174d34af72", "lat": 38.90685966666667, "fusion_lon": 0.0, "fusion_lat": 0.0, "type": "electric_scooter", "name": "74461c15177c61c557468e174d34af72", "is_disabled": 0, "rental_uris": {"ios": "https://dc.lft.to/lastmile_qr_scan", "android": "https://dc.lft.to/lastmile_qr_scan"}, "is_reserved": 0}, {"lon": -76.98530166666667, "bike_id": "99cb0948d95964404add8d14ae28e3ca", "lat": 38.9046675, "fusion_lon": 0.0, "fusion_lat": 0.0, "type": "electric_scooter", "name": "99cb0948d95964404add8d14ae28e3ca", "is_disabled": 0, "rental_uris": {"ios": "https://dc.lft.to/lastmile_qr_scan", "android": "https://dc.lft.to/lastmile_qr_scan"}, "is_reserved": 0}, {"lon": -76.99812433333334, "bike_id": "133cd6eb72097756a5df2e921a1663fd", "lat": 38.8291175, "fusion_lon": 0.0, "fusion_lat": 0.0, "type": "electric_bike", "name": "133cd6eb72097756a5df2e921a1663fd", "is_disabled": 0, "rental_uris": {"ios": "https://dc.lft.to/lastmile_qr_scan", "android": "https://dc.lft.to/lastmile_qr_scan"}, "is_reserved": 0}, {"lon": -77.04189466666666, "bike_id": "3f9d66abe1fc195f4b0f7bea2e4dca2f", "lat": 38.920714333333336, "fusion_lon": 0.0, "fusion_lat": 0.0, "type": "electric_scooter", "name": "3f9d66abe1fc195f4b0f7bea2e4dca2f", "is_disabled": 0, "rental_uris": {"ios": "https://dc.lft.to/lastmile_qr_scan", "android": "https://dc.lft.to/lastmile_qr_scan"}, "is_reserved": 0}, {"lon": -77.00730683333333, "bike_id": "31cb7aa69dcbcec2a9e450c4aacaccc3", "lat": 38.9596105, "fusion_lon": 0.0, "fusion_lat": 0.0, "type": "electric_scooter", "name": "31cb7aa69dcbcec2a9e450c4aacaccc3", "is_disabled": 0, "rental_uris": {"ios": "https://dc.lft.to/lastmile_qr_scan", "android": "https://dc.lft.to/lastmile_qr_scan"}, "is_reserved": 0}, {"lon": -77.04630566666667, "bike_id": "22514a19b99231e4b5318cf984de3529", "lat": 38.9190535, "fusion_lon": 0.0, "fusion_lat": 0.0, "type": "electric_scooter", "name": "22514a19b99231e4b5318cf984de3529", "is_disabled": 0, "rental_uris": {"ios": "https://dc.lft.to/lastmile_qr_scan", "android": "https://dc.lft.to/lastmile_qr_scan"}, "is_reserved": 0}, {"lon": -77.01623633333334, "bike_id": "dbc87a674e62b5cd3eb43fab739a9bd4", "lat": 38.90709283333333, "fusion_lon": 0.0, "fusion_lat": 0.0, "type": "electric_scooter", "name": "dbc87a674e62b5cd3eb43fab739a9bd4", "is_disabled": 0, "rental_uris": {"ios": "https://dc.lft.to/lastmile_qr_scan", "android": "https://dc.lft.to/lastmile_qr_scan"}, "is_reserved": 0}, {"lon": -77.02488933333333, "bike_id": "b803dffeab76311d22f828bdb8e42fbf", "lat": 38.9386305, "fusion_lon": 0.0, "fusion_lat": 0.0, "type": "electric_scooter", "name": "b803dffeab76311d22f828bdb8e42fbf", "is_disabled": 0, "rental_uris": {"ios": "https://dc.lft.to/lastmile_qr_scan", "android": "https://dc.lft.to/lastmile_qr_scan"}, "is_reserved": 0}, {"lon": -77.041758, "bike_id": "e6a0fff0a361791fe16adfe5702552f7", "lat": 38.90361933333333, "fusion_lon": 0.0, "fusion_lat": 0.0, "type": "electric_scooter", "name": "e6a0fff0a361791fe16adfe5702552f7", "is_disabled": 0, "rental_uris": {"ios": "https://dc.lft.to/lastmile_qr_scan", "android": "https://dc.lft.to/lastmile_qr_scan"}, "is_reserved": 0}, {"lon": -76.99017066666667, "bike_id": "ced1e2e146e34e6d7745858403255da6", "lat": 38.894177666666664, "fusion_lon": 0.0, "fusion_lat": 0.0, "type": "electric_scooter", "name": "ced1e2e146e34e6d7745858403255da6", "is_disabled": 0, "rental_uris": {"ios": "https://dc.lft.to/lastmile_qr_scan", "android": "https://dc.lft.to/lastmile_qr_scan"}, "is_reserved": 0}, {"lon": -77.026164, "bike_id": "3a329b4d4eec3bdf003b0efc0b07941e", "lat": 38.905635, "fusion_lon": 0.0, "fusion_lat": 0.0, "type": "electric_scooter", "name": "3a329b4d4eec3bdf003b0efc0b07941e", "is_disabled": 0, "rental_uris": {"ios": "https://dc.lft.to/lastmile_qr_scan", "android": "https://dc.lft.to/lastmile_qr_scan"}, "is_reserved": 0}, {"lon": -76.97424733333334, "bike_id": "b60417bc06927f97dbd176bf3826b374", "lat": 38.932384666666664, "fusion_lon": 0.0, "fusion_lat": 0.0, "type": "electric_bike", "name": "b60417bc06927f97dbd176bf3826b374", "is_disabled": 0, "rental_uris": {"ios": "https://dc.lft.to/lastmile_qr_scan", "android": "https://dc.lft.to/lastmile_qr_scan"}, "is_reserved": 0}, {"lon": -77.04501966666666, "bike_id": "cb02ba170ab9f5091034412598f86cde", "lat": 38.911118333333334, "fusion_lon": 0.0, "fusion_lat": 0.0, "type": "electric_scooter", "name": "cb02ba170ab9f5091034412598f86cde", "is_disabled": 0, "rental_uris": {"ios": "https://dc.lft.to/lastmile_qr_scan", "android": "https://dc.lft.to/lastmile_qr_scan"}, "is_reserved": 0}, {"lon": -77.02208583333334, "bike_id": "8b47a5e4f4779326ffef7044adad0105", "lat": 38.900008, "fusion_lon": 0.0, "fusion_lat": 0.0, "type": "electric_scooter", "name": "8b47a5e4f4779326ffef7044adad0105", "is_disabled": 0, "rental_uris": {"ios": "https://dc.lft.to/lastmile_qr_scan", "android": "https://dc.lft.to/lastmile_qr_scan"}, "is_reserved": 0}, {"lon": -77.03188966666667, "bike_id": "d1c66cef18f4a4eb22a85885a1049005", "lat": 38.916832166666666, "fusion_lon": 0.0, "fusion_lat": 0.0, "type": "electric_scooter", "name": "d1c66cef18f4a4eb22a85885a1049005", "is_disabled": 0, "rental_uris": {"ios": "https://dc.lft.to/lastmile_qr_scan", "android": "https://dc.lft.to/lastmile_qr_scan"}, "is_reserved": 0}, {"lon": -77.05909466666667, "bike_id": "54acc9af3910f412716b9c074ec7714a", "lat": 38.90541983333333, "fusion_lon": 0.0, "fusion_lat": 0.0, "type": "electric_scooter", "name": "54acc9af3910f412716b9c074ec7714a", "is_disabled": 0, "rental_uris": {"ios": "https://dc.lft.to/lastmile_qr_scan", "android": "https://dc.lft.to/lastmile_qr_scan"}, "is_reserved": 0}, {"lon": -77.03453633333334, "bike_id": "d614d9996e0778b3753876f9003cb6b7", "lat": 38.93444366666667, "fusion_lon": 0.0, "fusion_lat": 0.0, "type": "electric_scooter", "name": "d614d9996e0778b3753876f9003cb6b7", "is_disabled": 0, "rental_uris": {"ios": "https://dc.lft.to/lastmile_qr_scan", "android": "https://dc.lft.to/lastmile_qr_scan"}, "is_reserved": 0}, {"lon": -77.03441466666666, "bike_id": "e63870c687bd2636fa309ac2ec6c567e", "lat": 38.90951783333333, "fusion_lon": 0.0, "fusion_lat": 0.0, "type": "electric_scooter", "name": "e63870c687bd2636fa309ac2ec6c567e", "is_disabled": 0, "rental_uris": {"ios": "https://dc.lft.to/lastmile_qr_scan", "android": "https://dc.lft.to/lastmile_qr_scan"}, "is_reserved": 0}, {"lon": -77.02116083333334, "bike_id": "2f86e49edec6f897fee64a9dd5eae028", "lat": 38.89734516666667, "fusion_lon": 0.0, "fusion_lat": 0.0, "type": "electric_scooter", "name": "2f86e49edec6f897fee64a9dd5eae028", "is_disabled": 0, "rental_uris": {"ios": "https://dc.lft.to/lastmile_qr_scan", "android": "https://dc.lft.to/lastmile_qr_scan"}, "is_reserved": 0}, {"lon": -77.03449766666667, "bike_id": "646beed4cc0a6d2684f72883ea60e580", "lat": 38.908369, "fusion_lon": 0.0, "fusion_lat": 0.0, "type": "electric_scooter", "name": "646beed4cc0a6d2684f72883ea60e580", "is_disabled": 0, "rental_uris": {"ios": "https://dc.lft.to/lastmile_qr_scan", "android": "https://dc.lft.to/lastmile_qr_scan"}, "is_reserved": 0}, {"lon": -76.9822685, "bike_id": "ccb41099e92ddc0323d7f75caa6c8244", "lat": 38.9165415, "fusion_lon": 0.0, "fusion_lat": 0.0, "type": "electric_scooter", "name": "ccb41099e92ddc0323d7f75caa6c8244", "is_disabled": 0, "rental_uris": {"ios": "https://dc.lft.to/lastmile_qr_scan", "android": "https://dc.lft.to/lastmile_qr_scan"}, "is_reserved": 0}, {"lon": -77.04832183333333, "bike_id": "7eae0fa2665364e0a27961f70d79f2a7", "lat": 38.897487, "fusion_lon": 0.0, "fusion_lat": 0.0, "type": "electric_scooter", "name": "7eae0fa2665364e0a27961f70d79f2a7", "is_disabled": 0, "rental_uris": {"ios": "https://dc.lft.to/lastmile_qr_scan", "android": "https://dc.lft.to/lastmile_qr_scan"}, "is_reserved": 0}, {"lon": -77.03190083333334, "bike_id": "926c5794a097621acb549fdd194223aa", "lat": 38.916782833333336, "fusion_lon": 0.0, "fusion_lat": 0.0, "type": "electric_scooter", "name": "926c5794a097621acb549fdd194223aa", "is_disabled": 0, "rental_uris": {"ios": "https://dc.lft.to/lastmile_qr_scan", "android": "https://dc.lft.to/lastmile_qr_scan"}, "is_reserved": 0}, {"lon": -77.0624565, "bike_id": "a982beb452570cbc99325cafb36b9bf9", "lat": 38.905261, "fusion_lon": 0.0, "fusion_lat": 0.0, "type": "electric_scooter", "name": "a982beb452570cbc99325cafb36b9bf9", "is_disabled": 0, "rental_uris": {"ios": "https://dc.lft.to/lastmile_qr_scan", "android": "https://dc.lft.to/lastmile_qr_scan"}, "is_reserved": 0}, {"lon": -77.00081566666667, "bike_id": "336523a70607c57ab291b86a577eeb00", "lat": 38.894736, "fusion_lon": 0.0, "fusion_lat": 0.0, "type": "electric_scooter", "name": "336523a70607c57ab291b86a577eeb00", "is_disabled": 0, "rental_uris": {"ios": "https://dc.lft.to/lastmile_qr_scan", "android": "https://dc.lft.to/lastmile_qr_scan"}, "is_reserved": 0}, {"lon": -77.016245, "bike_id": "e08290182841033d8eb60c8a89946797", "lat": 38.906137666666666, "fusion_lon": 0.0, "fusion_lat": 0.0, "type": "electric_scooter", "name": "e08290182841033d8eb60c8a89946797", "is_disabled": 0, "rental_uris": {"ios": "https://dc.lft.to/lastmile_qr_scan", "android": "https://dc.lft.to/lastmile_qr_scan"}, "is_reserved": 0}, {"lon": -77.0326875, "bike_id": "7dd8580f88abf056f58f6d8b184f69aa", "lat": 38.934462833333335, "fusion_lon": 0.0, "fusion_lat": 0.0, "type": "electric_scooter", "name": "7dd8580f88abf056f58f6d8b184f69aa", "is_disabled": 0, "rental_uris": {"ios": "https://dc.lft.to/lastmile_qr_scan", "android": "https://dc.lft.to/lastmile_qr_scan"}, "is_reserved": 0}, {"lon": -76.98341633333334, "bike_id": "e3f3ff8756960a368e75b275d0b42a46", "lat": 38.866407833333334, "fusion_lon": 0.0, "fusion_lat": 0.0, "type": "electric_scooter", "name": "e3f3ff8756960a368e75b275d0b42a46", "is_disabled": 0, "rental_uris": {"ios": "https://dc.lft.to/lastmile_qr_scan", "android": "https://dc.lft.to/lastmile_qr_scan"}, "is_reserved": 0}, {"lon": -77.01626316666666, "bike_id": "d5a3a29d20e79f21ee5177ee0118de4f", "lat": 38.903569, "fusion_lon": 0.0, "fusion_lat": 0.0, "type": "electric_scooter", "name": "d5a3a29d20e79f21ee5177ee0118de4f", "is_disabled": 0, "rental_uris": {"ios": "https://dc.lft.to/lastmile_qr_scan", "android": "https://dc.lft.to/lastmile_qr_scan"}, "is_reserved": 0}, {"lon": -77.05264816666667, "bike_id": "8a50272774c465ac06763b5a2f0c9253", "lat": 38.92778416666667, "fusion_lon": 0.0, "fusion_lat": 0.0, "type": "electric_scooter", "name": "8a50272774c465ac06763b5a2f0c9253", "is_disabled": 0, "rental_uris": {"ios": "https://dc.lft.to/lastmile_qr_scan", "android": "https://dc.lft.to/lastmile_qr_scan"}, "is_reserved": 0}, {"lon": -76.996099, "bike_id": "26cd24e71663b63ba8acd192ba5aca8e", "lat": 38.903873, "fusion_lon": 0.0, "fusion_lat": 0.0, "type": "electric_scooter", "name": "26cd24e71663b63ba8acd192ba5aca8e", "is_disabled": 0, "rental_uris": {"ios": "https://dc.lft.to/lastmile_qr_scan", "android": "https://dc.lft.to/lastmile_qr_scan"}, "is_reserved": 0}, {"lon": -77.063946, "bike_id": "147944b17d5ee1880ae27f000a8201c9", "lat": 38.94325966666667, "fusion_lon": 0.0, "fusion_lat": 0.0, "type": "electric_scooter", "name": "147944b17d5ee1880ae27f000a8201c9", "is_disabled": 0, "rental_uris": {"ios": "https://dc.lft.to/lastmile_qr_scan", "android": "https://dc.lft.to/lastmile_qr_scan"}, "is_reserved": 0}, {"lon": -76.9903085, "bike_id": "8526dd87a500362450e978b23066154e", "lat": 38.902859, "fusion_lon": 0.0, "fusion_lat": 0.0, "type": "electric_scooter", "name": "8526dd87a500362450e978b23066154e", "is_disabled": 0, "rental_uris": {"ios": "https://dc.lft.to/lastmile_qr_scan", "android": "https://dc.lft.to/lastmile_qr_scan"}, "is_reserved": 0}, {"lon": -77.04348633333333, "bike_id": "b4b3d57d134c3650c70082bb22a79c44", "lat": 38.90651116666667, "fusion_lon": 0.0, "fusion_lat": 0.0, "type": "electric_scooter", "name": "b4b3d57d134c3650c70082bb22a79c44", "is_disabled": 0, "rental_uris": {"ios": "https://dc.lft.to/lastmile_qr_scan", "android": "https://dc.lft.to/lastmile_qr_scan"}, "is_reserved": 0}, {"lon": -77.04172616666666, "bike_id": "dc0202f1dce5e18bfb17cf347ddf063a", "lat": 38.908212166666665, "fusion_lon": 0.0, "fusion_lat": 0.0, "type": "electric_scooter", "name": "dc0202f1dce5e18bfb17cf347ddf063a", "is_disabled": 0, "rental_uris": {"ios": "https://dc.lft.to/lastmile_qr_scan", "android": "https://dc.lft.to/lastmile_qr_scan"}, "is_reserved": 0}, {"lon": -77.02108483333333, "bike_id": "d0c4dcae2f5a3a71adadba8ff025e774", "lat": 38.92188316666667, "fusion_lon": 0.0, "fusion_lat": 0.0, "type": "electric_scooter", "name": "d0c4dcae2f5a3a71adadba8ff025e774", "is_disabled": 0, "rental_uris": {"ios": "https://dc.lft.to/lastmile_qr_scan", "android": "https://dc.lft.to/lastmile_qr_scan"}, "is_reserved": 0}, {"lon": -77.02231233333333, "bike_id": "f3e3c02c4f17c0c9a641c55ef9ac911f", "lat": 38.962072166666665, "fusion_lon": 0.0, "fusion_lat": 0.0, "type": "electric_scooter", "name": "f3e3c02c4f17c0c9a641c55ef9ac911f", "is_disabled": 0, "rental_uris": {"ios": "https://dc.lft.to/lastmile_qr_scan", "android": "https://dc.lft.to/lastmile_qr_scan"}, "is_reserved": 0}, {"lon": -77.02170133333334, "bike_id": "95c551b8c2505895df3af52addedac5b", "lat": 38.90412583333333, "fusion_lon": 0.0, "fusion_lat": 0.0, "type": "electric_scooter", "name": "95c551b8c2505895df3af52addedac5b", "is_disabled": 0, "rental_uris": {"ios": "https://dc.lft.to/lastmile_qr_scan", "android": "https://dc.lft.to/lastmile_qr_scan"}, "is_reserved": 0}, {"lon": -77.036371, "bike_id": "08a24e9134c34ff07008784000b77dd9", "lat": 38.923349333333334, "fusion_lon": 0.0, "fusion_lat": 0.0, "type": "electric_scooter", "name": "08a24e9134c34ff07008784000b77dd9", "is_disabled": 0, "rental_uris": {"ios": "https://dc.lft.to/lastmile_qr_scan", "android": "https://dc.lft.to/lastmile_qr_scan"}, "is_reserved": 0}, {"lon": -76.98238666666667, "bike_id": "cdc81b617ef71f2d1b0af861830c61f2", "lat": 38.91655566666667, "fusion_lon": 0.0, "fusion_lat": 0.0, "type": "electric_scooter", "name": "cdc81b617ef71f2d1b0af861830c61f2", "is_disabled": 0, "rental_uris": {"ios": "https://dc.lft.to/lastmile_qr_scan", "android": "https://dc.lft.to/lastmile_qr_scan"}, "is_reserved": 0}, {"lon": -77.0386855, "bike_id": "a86d7d4766970d9e08d07b34e9d4a024", "lat": 38.90660883333334, "fusion_lon": 0.0, "fusion_lat": 0.0, "type": "electric_scooter", "name": "a86d7d4766970d9e08d07b34e9d4a024", "is_disabled": 0, "rental_uris": {"ios": "https://dc.lft.to/lastmile_qr_scan", "android": "https://dc.lft.to/lastmile_qr_scan"}, "is_reserved": 0}, {"lon": -77.04891866666667, "bike_id": "a02d83c792aa8340ff93c604dd57f96f", "lat": 38.903731666666665, "fusion_lon": 0.0, "fusion_lat": 0.0, "type": "electric_scooter", "name": "a02d83c792aa8340ff93c604dd57f96f", "is_disabled": 0, "rental_uris": {"ios": "https://dc.lft.to/lastmile_qr_scan", "android": "https://dc.lft.to/lastmile_qr_scan"}, "is_reserved": 0}, {"lon": -77.03637, "bike_id": "e93e58ac59fd59cc430dcd3aa168ace5", "lat": 38.93178983333333, "fusion_lon": 0.0, "fusion_lat": 0.0, "type": "electric_scooter", "name": "e93e58ac59fd59cc430dcd3aa168ace5", "is_disabled": 0, "rental_uris": {"ios": "https://dc.lft.to/lastmile_qr_scan", "android": "https://dc.lft.to/lastmile_qr_scan"}, "is_reserved": 0}, {"lon": -77.01616783333333, "bike_id": "2c371eab7df27ea47edd4133edefa749", "lat": 38.919473833333335, "fusion_lon": 0.0, "fusion_lat": 0.0, "type": "electric_scooter", "name": "2c371eab7df27ea47edd4133edefa749", "is_disabled": 0, "rental_uris": {"ios": "https://dc.lft.to/lastmile_qr_scan", "android": "https://dc.lft.to/lastmile_qr_scan"}, "is_reserved": 0}, {"lon": -77.05074583333334, "bike_id": "2b8f1513ed6ef16db8ab1fbed489af4b", "lat": 38.896809166666664, "fusion_lon": 0.0, "fusion_lat": 0.0, "type": "electric_scooter", "name": "2b8f1513ed6ef16db8ab1fbed489af4b", "is_disabled": 0, "rental_uris": {"ios": "https://dc.lft.to/lastmile_qr_scan", "android": "https://dc.lft.to/lastmile_qr_scan"}, "is_reserved": 0}, {"lon": -77.0471985, "bike_id": "fad8653e79d3c05be360dd8870f67f94", "lat": 38.9112295, "fusion_lon": 0.0, "fusion_lat": 0.0, "type": "electric_scooter", "name": "fad8653e79d3c05be360dd8870f67f94", "is_disabled": 0, "rental_uris": {"ios": "https://dc.lft.to/lastmile_qr_scan", "android": "https://dc.lft.to/lastmile_qr_scan"}, "is_reserved": 0}, {"lon": -76.93357933333333, "bike_id": "bb605f14826e675985bcbd0e8657bb1c", "lat": 38.8880045, "fusion_lon": 0.0, "fusion_lat": 0.0, "type": "electric_scooter", "name": "bb605f14826e675985bcbd0e8657bb1c", "is_disabled": 0, "rental_uris": {"ios": "https://dc.lft.to/lastmile_qr_scan", "android": "https://dc.lft.to/lastmile_qr_scan"}, "is_reserved": 0}, {"lon": -76.94876483333333, "bike_id": "f3d4043e70787f3575009dbf733d82ec", "lat": 38.895509833333335, "fusion_lon": 0.0, "fusion_lat": 0.0, "type": "electric_scooter", "name": "f3d4043e70787f3575009dbf733d82ec", "is_disabled": 0, "rental_uris": {"ios": "https://dc.lft.to/lastmile_qr_scan", "android": "https://dc.lft.to/lastmile_qr_scan"}, "is_reserved": 0}, {"lon": -77.03350116666667, "bike_id": "b3a5c0f4825009d3fea2936a3ad0cf53", "lat": 38.90289516666667, "fusion_lon": 0.0, "fusion_lat": 0.0, "type": "electric_scooter", "name": "b3a5c0f4825009d3fea2936a3ad0cf53", "is_disabled": 0, "rental_uris": {"ios": "https://dc.lft.to/lastmile_qr_scan", "android": "https://dc.lft.to/lastmile_qr_scan"}, "is_reserved": 0}, {"lon": -76.987032, "bike_id": "b70b88458cf92bfed300bdef962cd257", "lat": 38.909282, "fusion_lon": 0.0, "fusion_lat": 0.0, "type": "electric_scooter", "name": "b70b88458cf92bfed300bdef962cd257", "is_disabled": 0, "rental_uris": {"ios": "https://dc.lft.to/lastmile_qr_scan", "android": "https://dc.lft.to/lastmile_qr_scan"}, "is_reserved": 0}, {"lon": -77.0282895, "bike_id": "a72cfcd20d6bc4a77280067aaac56969", "lat": 38.917060666666664, "fusion_lon": 0.0, "fusion_lat": 0.0, "type": "electric_scooter", "name": "a72cfcd20d6bc4a77280067aaac56969", "is_disabled": 0, "rental_uris": {"ios": "https://dc.lft.to/lastmile_qr_scan", "android": "https://dc.lft.to/lastmile_qr_scan"}, "is_reserved": 0}, {"lon": -77.00978016666667, "bike_id": "29f44af2b462866d775adb41f1cde882", "lat": 38.89730983333333, "fusion_lon": 0.0, "fusion_lat": 0.0, "type": "electric_scooter", "name": "29f44af2b462866d775adb41f1cde882", "is_disabled": 0, "rental_uris": {"ios": "https://dc.lft.to/lastmile_qr_scan", "android": "https://dc.lft.to/lastmile_qr_scan"}, "is_reserved": 0}, {"lon": -77.04438633333334, "bike_id": "5fa2c65acc0f0e8f4d6040a73c7001fb", "lat": 38.921739333333335, "fusion_lon": 0.0, "fusion_lat": 0.0, "type": "electric_scooter", "name": "5fa2c65acc0f0e8f4d6040a73c7001fb", "is_disabled": 0, "rental_uris": {"ios": "https://dc.lft.to/lastmile_qr_scan", "android": "https://dc.lft.to/lastmile_qr_scan"}, "is_reserved": 0}, {"lon": -77.01397533333333, "bike_id": "21cb25386f3f062deafef5f3029771b3", "lat": 38.92873783333334, "fusion_lon": 0.0, "fusion_lat": 0.0, "type": "electric_scooter", "name": "21cb25386f3f062deafef5f3029771b3", "is_disabled": 0, "rental_uris": {"ios": "https://dc.lft.to/lastmile_qr_scan", "android": "https://dc.lft.to/lastmile_qr_scan"}, "is_reserved": 0}, {"lon": -76.97731333333333, "bike_id": "fddb638afc001ef7dc278c5de9d83a48", "lat": 38.87291166666667, "fusion_lon": 0.0, "fusion_lat": 0.0, "type": "electric_scooter", "name": "fddb638afc001ef7dc278c5de9d83a48", "is_disabled": 0, "rental_uris": {"ios": "https://dc.lft.to/lastmile_qr_scan", "android": "https://dc.lft.to/lastmile_qr_scan"}, "is_reserved": 0}, {"lon": -77.03852683333334, "bike_id": "7b45650ea4d46c9fe73941e09797a296", "lat": 38.9320495, "fusion_lon": 0.0, "fusion_lat": 0.0, "type": "electric_scooter", "name": "7b45650ea4d46c9fe73941e09797a296", "is_disabled": 0, "rental_uris": {"ios": "https://dc.lft.to/lastmile_qr_scan", "android": "https://dc.lft.to/lastmile_qr_scan"}, "is_reserved": 0}, {"lon": -77.0401135, "bike_id": "15df40b6795be193e7502f39de0fff29", "lat": 38.910005, "fusion_lon": 0.0, "fusion_lat": 0.0, "type": "electric_scooter", "name": "15df40b6795be193e7502f39de0fff29", "is_disabled": 0, "rental_uris": {"ios": "https://dc.lft.to/lastmile_qr_scan", "android": "https://dc.lft.to/lastmile_qr_scan"}, "is_reserved": 0}, {"lon": -77.03192333333334, "bike_id": "651ae6a51ca6452f4c8dd3024286f9b1", "lat": 38.910671, "fusion_lon": 0.0, "fusion_lat": 0.0, "type": "electric_scooter", "name": "651ae6a51ca6452f4c8dd3024286f9b1", "is_disabled": 0, "rental_uris": {"ios": "https://dc.lft.to/lastmile_qr_scan", "android": "https://dc.lft.to/lastmile_qr_scan"}, "is_reserved": 0}, {"lon": -77.03205133333333, "bike_id": "70880c4a75ae631af322e01160c6ea19", "lat": 38.9397235, "fusion_lon": 0.0, "fusion_lat": 0.0, "type": "electric_scooter", "name": "70880c4a75ae631af322e01160c6ea19", "is_disabled": 0, "rental_uris": {"ios": "https://dc.lft.to/lastmile_qr_scan", "android": "https://dc.lft.to/lastmile_qr_scan"}, "is_reserved": 0}, {"lon": -77.02797333333334, "bike_id": "a2145050f7cd3900391919acedbba965", "lat": 38.935362833333336, "fusion_lon": 0.0, "fusion_lat": 0.0, "type": "electric_scooter", "name": "a2145050f7cd3900391919acedbba965", "is_disabled": 0, "rental_uris": {"ios": "https://dc.lft.to/lastmile_qr_scan", "android": "https://dc.lft.to/lastmile_qr_scan"}, "is_reserved": 0}, {"lon": -77.020511, "bike_id": "437cd477361fdc904fcc21976ff8d135", "lat": 38.901432666666665, "fusion_lon": 0.0, "fusion_lat": 0.0, "type": "electric_scooter", "name": "437cd477361fdc904fcc21976ff8d135", "is_disabled": 0, "rental_uris": {"ios": "https://dc.lft.to/lastmile_qr_scan", "android": "https://dc.lft.to/lastmile_qr_scan"}, "is_reserved": 0}, {"lon": -77.044283, "bike_id": "c48f2108d42da99acf11e34a1ab1ad68", "lat": 38.92124333333334, "fusion_lon": 0.0, "fusion_lat": 0.0, "type": "electric_scooter", "name": "c48f2108d42da99acf11e34a1ab1ad68", "is_disabled": 0, "rental_uris": {"ios": "https://dc.lft.to/lastmile_qr_scan", "android": "https://dc.lft.to/lastmile_qr_scan"}, "is_reserved": 0}, {"lon": -77.022817, "bike_id": "5062c8f4f29e00dd98a84c94410af8e0", "lat": 38.91653016666667, "fusion_lon": 0.0, "fusion_lat": 0.0, "type": "electric_scooter", "name": "5062c8f4f29e00dd98a84c94410af8e0", "is_disabled": 0, "rental_uris": {"ios": "https://dc.lft.to/lastmile_qr_scan", "android": "https://dc.lft.to/lastmile_qr_scan"}, "is_reserved": 0}, {"lon": -77.057278, "bike_id": "5685c39b3e41bc600d868f8f069437fa", "lat": 38.93370216666667, "fusion_lon": 0.0, "fusion_lat": 0.0, "type": "electric_scooter", "name": "5685c39b3e41bc600d868f8f069437fa", "is_disabled": 0, "rental_uris": {"ios": "https://dc.lft.to/lastmile_qr_scan", "android": "https://dc.lft.to/lastmile_qr_scan"}, "is_reserved": 0}, {"lon": -77.05095033333333, "bike_id": "69e6511561cd49e743351b164cfce175", "lat": 38.9096975, "fusion_lon": 0.0, "fusion_lat": 0.0, "type": "electric_scooter", "name": "69e6511561cd49e743351b164cfce175", "is_disabled": 0, "rental_uris": {"ios": "https://dc.lft.to/lastmile_qr_scan", "android": "https://dc.lft.to/lastmile_qr_scan"}, "is_reserved": 0}, {"lon": -77.02797933333333, "bike_id": "46c3a481b4c162872d79d81007afabaf", "lat": 38.93424433333333, "fusion_lon": 0.0, "fusion_lat": 0.0, "type": "electric_scooter", "name": "46c3a481b4c162872d79d81007afabaf", "is_disabled": 0, "rental_uris": {"ios": "https://dc.lft.to/lastmile_qr_scan", "android": "https://dc.lft.to/lastmile_qr_scan"}, "is_reserved": 0}, {"lon": -77.03449, "bike_id": "59bdbd576c159b208ff5deeb671a1123", "lat": 38.905548833333334, "fusion_lon": 0.0, "fusion_lat": 0.0, "type": "electric_scooter", "name": "59bdbd576c159b208ff5deeb671a1123", "is_disabled": 0, "rental_uris": {"ios": "https://dc.lft.to/lastmile_qr_scan", "android": "https://dc.lft.to/lastmile_qr_scan"}, "is_reserved": 0}, {"lon": -76.98226283333334, "bike_id": "f52b3a0e6255dac59380fc2643ad85b1", "lat": 38.916550666666666, "fusion_lon": 0.0, "fusion_lat": 0.0, "type": "electric_scooter", "name": "f52b3a0e6255dac59380fc2643ad85b1", "is_disabled": 0, "rental_uris": {"ios": "https://dc.lft.to/lastmile_qr_scan", "android": "https://dc.lft.to/lastmile_qr_scan"}, "is_reserved": 0}, {"lon": -76.99962816666667, "bike_id": "91f6bd0e23b883384109fd3d7ac70ae5", "lat": 38.908552, "fusion_lon": 0.0, "fusion_lat": 0.0, "type": "electric_scooter", "name": "91f6bd0e23b883384109fd3d7ac70ae5", "is_disabled": 0, "rental_uris": {"ios": "https://dc.lft.to/lastmile_qr_scan", "android": "https://dc.lft.to/lastmile_qr_scan"}, "is_reserved": 0}, {"lon": -77.11153566666667, "bike_id": "f85d323f4dd065e867bc8dcf09320ca3", "lat": 38.85509066666667, "fusion_lon": 0.0, "fusion_lat": 0.0, "type": "electric_bike", "name": "f85d323f4dd065e867bc8dcf09320ca3", "is_disabled": 0, "rental_uris": {"ios": "https://dc.lft.to/lastmile_qr_scan", "android": "https://dc.lft.to/lastmile_qr_scan"}, "is_reserved": 0}, {"lon": -77.03697616666666, "bike_id": "fba0b2e7bca3e3f2da84850d5e298cc0", "lat": 38.932828, "fusion_lon": 0.0, "fusion_lat": 0.0, "type": "electric_scooter", "name": "fba0b2e7bca3e3f2da84850d5e298cc0", "is_disabled": 0, "rental_uris": {"ios": "https://dc.lft.to/lastmile_qr_scan", "android": "https://dc.lft.to/lastmile_qr_scan"}, "is_reserved": 0}, {"lon": -77.02799883333333, "bike_id": "30e335220097f9da3dbd1a0ede98350f", "lat": 38.8925095, "fusion_lon": 0.0, "fusion_lat": 0.0, "type": "electric_scooter", "name": "30e335220097f9da3dbd1a0ede98350f", "is_disabled": 0, "rental_uris": {"ios": "https://dc.lft.to/lastmile_qr_scan", "android": "https://dc.lft.to/lastmile_qr_scan"}, "is_reserved": 0}, {"lon": -77.00524833333333, "bike_id": "50dabb9f5dde405f66ce390a78068e3e", "lat": 38.879194166666665, "fusion_lon": 0.0, "fusion_lat": 0.0, "type": "electric_scooter", "name": "50dabb9f5dde405f66ce390a78068e3e", "is_disabled": 0, "rental_uris": {"ios": "https://dc.lft.to/lastmile_qr_scan", "android": "https://dc.lft.to/lastmile_qr_scan"}, "is_reserved": 0}, {"lon": -77.10492216666667, "bike_id": "e9b77b4d6118bddbf76f82e2e1c0e423", "lat": 38.85607383333333, "fusion_lon": 0.0, "fusion_lat": 0.0, "type": "electric_bike", "name": "e9b77b4d6118bddbf76f82e2e1c0e423", "is_disabled": 0, "rental_uris": {"ios": "https://dc.lft.to/lastmile_qr_scan", "android": "https://dc.lft.to/lastmile_qr_scan"}, "is_reserved": 0}, {"lon": -77.166264, "bike_id": "8979d8efcd24fb45c293cb22f655e943", "lat": 38.888335833333336, "fusion_lon": 0.0, "fusion_lat": 0.0, "type": "electric_bike", "name": "8979d8efcd24fb45c293cb22f655e943", "is_disabled": 0, "rental_uris": {"ios": "https://dc.lft.to/lastmile_qr_scan", "android": "https://dc.lft.to/lastmile_qr_scan"}, "is_reserved": 0}, {"lon": -77.072959, "bike_id": "660a1489a79337e0d74606472fa9109a", "lat": 38.92467416666667, "fusion_lon": 0.0, "fusion_lat": 0.0, "type": "electric_scooter", "name": "660a1489a79337e0d74606472fa9109a", "is_disabled": 0, "rental_uris": {"ios": "https://dc.lft.to/lastmile_qr_scan", "android": "https://dc.lft.to/lastmile_qr_scan"}, "is_reserved": 0}, {"lon": -77.03349216666666, "bike_id": "acf63d9e529204a72756cd26c0d39ef9", "lat": 38.90287766666667, "fusion_lon": 0.0, "fusion_lat": 0.0, "type": "electric_scooter", "name": "acf63d9e529204a72756cd26c0d39ef9", "is_disabled": 0, "rental_uris": {"ios": "https://dc.lft.to/lastmile_qr_scan", "android": "https://dc.lft.to/lastmile_qr_scan"}, "is_reserved": 0}, {"lon": -76.97289766666667, "bike_id": "8f78f5493ecf5003aad6ec10714391b8", "lat": 38.86556866666667, "fusion_lon": 0.0, "fusion_lat": 0.0, "type": "electric_scooter", "name": "8f78f5493ecf5003aad6ec10714391b8", "is_disabled": 0, "rental_uris": {"ios": "https://dc.lft.to/lastmile_qr_scan", "android": "https://dc.lft.to/lastmile_qr_scan"}, "is_reserved": 0}, {"lon": -76.982304, "bike_id": "3bb479e7fd820174d636442be03632d0", "lat": 38.88646983333334, "fusion_lon": 0.0, "fusion_lat": 0.0, "type": "electric_scooter", "name": "3bb479e7fd820174d636442be03632d0", "is_disabled": 0, "rental_uris": {"ios": "https://dc.lft.to/lastmile_qr_scan", "android": "https://dc.lft.to/lastmile_qr_scan"}, "is_reserved": 0}, {"lon": -77.03207733333333, "bike_id": "127076ce40571e3462772b196158dea2", "lat": 38.91346033333333, "fusion_lon": 0.0, "fusion_lat": 0.0, "type": "electric_scooter", "name": "127076ce40571e3462772b196158dea2", "is_disabled": 0, "rental_uris": {"ios": "https://dc.lft.to/lastmile_qr_scan", "android": "https://dc.lft.to/lastmile_qr_scan"}, "is_reserved": 0}, {"lon": -77.02956216666666, "bike_id": "d8514ef652c9553c90f5a26a4a929223", "lat": 38.910757333333336, "fusion_lon": 0.0, "fusion_lat": 0.0, "type": "electric_scooter", "name": "d8514ef652c9553c90f5a26a4a929223", "is_disabled": 0, "rental_uris": {"ios": "https://dc.lft.to/lastmile_qr_scan", "android": "https://dc.lft.to/lastmile_qr_scan"}, "is_reserved": 0}, {"lon": -77.0436015, "bike_id": "85de25a4a48194e234855c2a0c9dac41", "lat": 38.902518, "fusion_lon": 0.0, "fusion_lat": 0.0, "type": "electric_scooter", "name": "85de25a4a48194e234855c2a0c9dac41", "is_disabled": 0, "rental_uris": {"ios": "https://dc.lft.to/lastmile_qr_scan", "android": "https://dc.lft.to/lastmile_qr_scan"}, "is_reserved": 0}, {"lon": -77.0458775, "bike_id": "56846a9889b306131fecaee89342ba19", "lat": 38.92126283333333, "fusion_lon": 0.0, "fusion_lat": 0.0, "type": "electric_scooter", "name": "56846a9889b306131fecaee89342ba19", "is_disabled": 0, "rental_uris": {"ios": "https://dc.lft.to/lastmile_qr_scan", "android": "https://dc.lft.to/lastmile_qr_scan"}, "is_reserved": 0}, {"lon": -77.03477466666666, "bike_id": "1bdc2190a5f78c4dc30e7796f07557b3", "lat": 38.908859666666665, "fusion_lon": 0.0, "fusion_lat": 0.0, "type": "electric_scooter", "name": "1bdc2190a5f78c4dc30e7796f07557b3", "is_disabled": 0, "rental_uris": {"ios": "https://dc.lft.to/lastmile_qr_scan", "android": "https://dc.lft.to/lastmile_qr_scan"}, "is_reserved": 0}, {"lon": -77.02452383333333, "bike_id": "866455bdfffd98abcaf01f324bf93ca0", "lat": 38.937977, "fusion_lon": 0.0, "fusion_lat": 0.0, "type": "electric_scooter", "name": "866455bdfffd98abcaf01f324bf93ca0", "is_disabled": 0, "rental_uris": {"ios": "https://dc.lft.to/lastmile_qr_scan", "android": "https://dc.lft.to/lastmile_qr_scan"}, "is_reserved": 0}, {"lon": -77.0386785, "bike_id": "1af2a3e2542696facd022b3e78b00155", "lat": 38.90659516666667, "fusion_lon": 0.0, "fusion_lat": 0.0, "type": "electric_scooter", "name": "1af2a3e2542696facd022b3e78b00155", "is_disabled": 0, "rental_uris": {"ios": "https://dc.lft.to/lastmile_qr_scan", "android": "https://dc.lft.to/lastmile_qr_scan"}, "is_reserved": 0}, {"lon": -77.03313233333333, "bike_id": "929e11ba867f28717bff041d10dfe65e", "lat": 38.928703, "fusion_lon": 0.0, "fusion_lat": 0.0, "type": "electric_scooter", "name": "929e11ba867f28717bff041d10dfe65e", "is_disabled": 0, "rental_uris": {"ios": "https://dc.lft.to/lastmile_qr_scan", "android": "https://dc.lft.to/lastmile_qr_scan"}, "is_reserved": 0}, {"lon": -77.03276233333334, "bike_id": "acc293e1464350e254e4403475f69853", "lat": 38.93453083333333, "fusion_lon": 0.0, "fusion_lat": 0.0, "type": "electric_scooter", "name": "acc293e1464350e254e4403475f69853", "is_disabled": 0, "rental_uris": {"ios": "https://dc.lft.to/lastmile_qr_scan", "android": "https://dc.lft.to/lastmile_qr_scan"}, "is_reserved": 0}, {"lon": -76.95014266666666, "bike_id": "86925c40a5de6f6cfc1402806d7f9208", "lat": 38.89398583333333, "fusion_lon": 0.0, "fusion_lat": 0.0, "type": "electric_scooter", "name": "86925c40a5de6f6cfc1402806d7f9208", "is_disabled": 0, "rental_uris": {"ios": "https://dc.lft.to/lastmile_qr_scan", "android": "https://dc.lft.to/lastmile_qr_scan"}, "is_reserved": 0}, {"lon": -77.03202083333333, "bike_id": "d283c35dc3ed4d6864816c0488c39c30", "lat": 38.884298333333334, "fusion_lon": 0.0, "fusion_lat": 0.0, "type": "electric_scooter", "name": "d283c35dc3ed4d6864816c0488c39c30", "is_disabled": 0, "rental_uris": {"ios": "https://dc.lft.to/lastmile_qr_scan", "android": "https://dc.lft.to/lastmile_qr_scan"}, "is_reserved": 0}, {"lon": -77.044783, "bike_id": "2f5c8fae6c519b1744314347e863ee64", "lat": 38.90063516666667, "fusion_lon": 0.0, "fusion_lat": 0.0, "type": "electric_scooter", "name": "2f5c8fae6c519b1744314347e863ee64", "is_disabled": 0, "rental_uris": {"ios": "https://dc.lft.to/lastmile_qr_scan", "android": "https://dc.lft.to/lastmile_qr_scan"}, "is_reserved": 0}, {"lon": -77.01398533333334, "bike_id": "e84bec0c3522c5ec4fca742df3c7ad66", "lat": 38.9287195, "fusion_lon": 0.0, "fusion_lat": 0.0, "type": "electric_scooter", "name": "e84bec0c3522c5ec4fca742df3c7ad66", "is_disabled": 0, "rental_uris": {"ios": "https://dc.lft.to/lastmile_qr_scan", "android": "https://dc.lft.to/lastmile_qr_scan"}, "is_reserved": 0}, {"lon": -77.04310516666666, "bike_id": "1fa6a0dcf565b59d1e0b43d4f093c5bd", "lat": 38.90901566666667, "fusion_lon": 0.0, "fusion_lat": 0.0, "type": "electric_scooter", "name": "1fa6a0dcf565b59d1e0b43d4f093c5bd", "is_disabled": 0, "rental_uris": {"ios": "https://dc.lft.to/lastmile_qr_scan", "android": "https://dc.lft.to/lastmile_qr_scan"}, "is_reserved": 0}, {"lon": -77.02172433333334, "bike_id": "bb18924337890acb88764eba22889e7c", "lat": 38.942951666666666, "fusion_lon": 0.0, "fusion_lat": 0.0, "type": "electric_scooter", "name": "bb18924337890acb88764eba22889e7c", "is_disabled": 0, "rental_uris": {"ios": "https://dc.lft.to/lastmile_qr_scan", "android": "https://dc.lft.to/lastmile_qr_scan"}, "is_reserved": 0}, {"lon": -77.015424, "bike_id": "929bf42a56cd94d5d246db2bab223ae9", "lat": 38.8832385, "fusion_lon": 0.0, "fusion_lat": 0.0, "type": "electric_scooter", "name": "929bf42a56cd94d5d246db2bab223ae9", "is_disabled": 0, "rental_uris": {"ios": "https://dc.lft.to/lastmile_qr_scan", "android": "https://dc.lft.to/lastmile_qr_scan"}, "is_reserved": 0}, {"lon": -77.0268995, "bike_id": "43d2d6a6fb2a125e491e344217962239", "lat": 38.948859666666664, "fusion_lon": 0.0, "fusion_lat": 0.0, "type": "electric_scooter", "name": "43d2d6a6fb2a125e491e344217962239", "is_disabled": 0, "rental_uris": {"ios": "https://dc.lft.to/lastmile_qr_scan", "android": "https://dc.lft.to/lastmile_qr_scan"}, "is_reserved": 0}, {"lon": -76.9853645, "bike_id": "40a32a8a6b9a492456c6929bf61dfdac", "lat": 38.91023583333333, "fusion_lon": 0.0, "fusion_lat": 0.0, "type": "electric_scooter", "name": "40a32a8a6b9a492456c6929bf61dfdac", "is_disabled": 0, "rental_uris": {"ios": "https://dc.lft.to/lastmile_qr_scan", "android": "https://dc.lft.to/lastmile_qr_scan"}, "is_reserved": 0}, {"lon": -77.02683283333333, "bike_id": "193100fa665915a3c378baa1a8bae0a7", "lat": 38.984874833333336, "fusion_lon": 0.0, "fusion_lat": 0.0, "type": "electric_scooter", "name": "193100fa665915a3c378baa1a8bae0a7", "is_disabled": 0, "rental_uris": {"ios": "https://dc.lft.to/lastmile_qr_scan", "android": "https://dc.lft.to/lastmile_qr_scan"}, "is_reserved": 0}, {"lon": -77.01525683333334, "bike_id": "866d49505b2ddf69ab7f59820967e1ee", "lat": 38.92736516666667, "fusion_lon": 0.0, "fusion_lat": 0.0, "type": "electric_scooter", "name": "866d49505b2ddf69ab7f59820967e1ee", "is_disabled": 0, "rental_uris": {"ios": "https://dc.lft.to/lastmile_qr_scan", "android": "https://dc.lft.to/lastmile_qr_scan"}, "is_reserved": 0}, {"lon": -76.9875475, "bike_id": "efdc11c0afc0fe6464866a14f29a8a37", "lat": 38.9038095, "fusion_lon": 0.0, "fusion_lat": 0.0, "type": "electric_scooter", "name": "efdc11c0afc0fe6464866a14f29a8a37", "is_disabled": 0, "rental_uris": {"ios": "https://dc.lft.to/lastmile_qr_scan", "android": "https://dc.lft.to/lastmile_qr_scan"}, "is_reserved": 0}, {"lon": -77.06881, "bike_id": "1a045ac5ff682b9d56185c662310eff1", "lat": 38.952762666666665, "fusion_lon": 0.0, "fusion_lat": 0.0, "type": "electric_scooter", "name": "1a045ac5ff682b9d56185c662310eff1", "is_disabled": 0, "rental_uris": {"ios": "https://dc.lft.to/lastmile_qr_scan", "android": "https://dc.lft.to/lastmile_qr_scan"}, "is_reserved": 0}, {"lon": -77.02153983333334, "bike_id": "f4e421df06a98fd54994ca6773d16a92", "lat": 38.926006666666666, "fusion_lon": 0.0, "fusion_lat": 0.0, "type": "electric_scooter", "name": "f4e421df06a98fd54994ca6773d16a92", "is_disabled": 0, "rental_uris": {"ios": "https://dc.lft.to/lastmile_qr_scan", "android": "https://dc.lft.to/lastmile_qr_scan"}, "is_reserved": 0}, {"lon": -77.00140116666667, "bike_id": "e6f768339120cc1017dcb9ccddb32a3c", "lat": 38.842820833333334, "fusion_lon": 0.0, "fusion_lat": 0.0, "type": "electric_scooter", "name": "e6f768339120cc1017dcb9ccddb32a3c", "is_disabled": 0, "rental_uris": {"ios": "https://dc.lft.to/lastmile_qr_scan", "android": "https://dc.lft.to/lastmile_qr_scan"}, "is_reserved": 0}, {"lon": -77.0322295, "bike_id": "bce220c158470120cfd89d09693d57d3", "lat": 38.914106, "fusion_lon": 0.0, "fusion_lat": 0.0, "type": "electric_scooter", "name": "bce220c158470120cfd89d09693d57d3", "is_disabled": 0, "rental_uris": {"ios": "https://dc.lft.to/lastmile_qr_scan", "android": "https://dc.lft.to/lastmile_qr_scan"}, "is_reserved": 0}, {"lon": -77.0432395, "bike_id": "93ac19ea51f66ffc79e2b225418bca5d", "lat": 38.918849333333334, "fusion_lon": 0.0, "fusion_lat": 0.0, "type": "electric_scooter", "name": "93ac19ea51f66ffc79e2b225418bca5d", "is_disabled": 0, "rental_uris": {"ios": "https://dc.lft.to/lastmile_qr_scan", "android": "https://dc.lft.to/lastmile_qr_scan"}, "is_reserved": 0}, {"lon": -76.93176033333333, "bike_id": "1160f2e3ea0d8827653f9e0ed3dc04d8", "lat": 38.89884466666667, "fusion_lon": 0.0, "fusion_lat": 0.0, "type": "electric_scooter", "name": "1160f2e3ea0d8827653f9e0ed3dc04d8", "is_disabled": 0, "rental_uris": {"ios": "https://dc.lft.to/lastmile_qr_scan", "android": "https://dc.lft.to/lastmile_qr_scan"}, "is_reserved": 0}, {"lon": -76.99369983333334, "bike_id": "35620a82fc083f77ea5ee243e9d138dc", "lat": 38.94026216666666, "fusion_lon": 0.0, "fusion_lat": 0.0, "type": "electric_scooter", "name": "35620a82fc083f77ea5ee243e9d138dc", "is_disabled": 0, "rental_uris": {"ios": "https://dc.lft.to/lastmile_qr_scan", "android": "https://dc.lft.to/lastmile_qr_scan"}, "is_reserved": 0}, {"lon": -77.032917, "bike_id": "6ded08b7d34aa8cafc2ef5c8e6af7993", "lat": 38.956488666666665, "fusion_lon": 0.0, "fusion_lat": 0.0, "type": "electric_scooter", "name": "6ded08b7d34aa8cafc2ef5c8e6af7993", "is_disabled": 0, "rental_uris": {"ios": "https://dc.lft.to/lastmile_qr_scan", "android": "https://dc.lft.to/lastmile_qr_scan"}, "is_reserved": 0}, {"lon": -77.02966683333334, "bike_id": "30f91a4e9f857f287e3d01c0e0c338fe", "lat": 38.906592333333336, "fusion_lon": 0.0, "fusion_lat": 0.0, "type": "electric_scooter", "name": "30f91a4e9f857f287e3d01c0e0c338fe", "is_disabled": 0, "rental_uris": {"ios": "https://dc.lft.to/lastmile_qr_scan", "android": "https://dc.lft.to/lastmile_qr_scan"}, "is_reserved": 0}, {"lon": -76.93774683333334, "bike_id": "62a1937320857bad145bede22f5a6446", "lat": 38.899697, "fusion_lon": 0.0, "fusion_lat": 0.0, "type": "electric_scooter", "name": "62a1937320857bad145bede22f5a6446", "is_disabled": 0, "rental_uris": {"ios": "https://dc.lft.to/lastmile_qr_scan", "android": "https://dc.lft.to/lastmile_qr_scan"}, "is_reserved": 0}, {"lon": -76.99851066666666, "bike_id": "ff4db6dfe3de32bf8ed94c27ddedbcbd", "lat": 38.9010055, "fusion_lon": 0.0, "fusion_lat": 0.0, "type": "electric_scooter", "name": "ff4db6dfe3de32bf8ed94c27ddedbcbd", "is_disabled": 0, "rental_uris": {"ios": "https://dc.lft.to/lastmile_qr_scan", "android": "https://dc.lft.to/lastmile_qr_scan"}, "is_reserved": 0}, {"lon": -76.945083, "bike_id": "09d686f131036942091bd720b9302f5d", "lat": 38.86484866666667, "fusion_lon": 0.0, "fusion_lat": 0.0, "type": "electric_bike", "name": "09d686f131036942091bd720b9302f5d", "is_disabled": 0, "rental_uris": {"ios": "https://dc.lft.to/lastmile_qr_scan", "android": "https://dc.lft.to/lastmile_qr_scan"}, "is_reserved": 0}, {"lon": -76.99860133333334, "bike_id": "ed061b73c7beeacc9ad30bb15e50991a", "lat": 38.894156333333335, "fusion_lon": 0.0, "fusion_lat": 0.0, "type": "electric_scooter", "name": "ed061b73c7beeacc9ad30bb15e50991a", "is_disabled": 0, "rental_uris": {"ios": "https://dc.lft.to/lastmile_qr_scan", "android": "https://dc.lft.to/lastmile_qr_scan"}, "is_reserved": 0}, {"lon": -77.05151866666667, "bike_id": "cf1f3a80c3da0070844551dbd593292e", "lat": 38.8986125, "fusion_lon": 0.0, "fusion_lat": 0.0, "type": "electric_scooter", "name": "cf1f3a80c3da0070844551dbd593292e", "is_disabled": 0, "rental_uris": {"ios": "https://dc.lft.to/lastmile_qr_scan", "android": "https://dc.lft.to/lastmile_qr_scan"}, "is_reserved": 0}, {"lon": -76.99011783333333, "bike_id": "04177e6dc993a34225494a236cdc4e0a", "lat": 38.946016, "fusion_lon": 0.0, "fusion_lat": 0.0, "type": "electric_scooter", "name": "04177e6dc993a34225494a236cdc4e0a", "is_disabled": 0, "rental_uris": {"ios": "https://dc.lft.to/lastmile_qr_scan", "android": "https://dc.lft.to/lastmile_qr_scan"}, "is_reserved": 0}, {"lon": -77.0386445, "bike_id": "f3dc9a27364a060da73236de8df815f2", "lat": 38.920176, "fusion_lon": 0.0, "fusion_lat": 0.0, "type": "electric_scooter", "name": "f3dc9a27364a060da73236de8df815f2", "is_disabled": 0, "rental_uris": {"ios": "https://dc.lft.to/lastmile_qr_scan", "android": "https://dc.lft.to/lastmile_qr_scan"}, "is_reserved": 0}, {"lon": -77.0321025, "bike_id": "0315a4a33ec8d7bc4ea2aed045a05aa6", "lat": 38.921713, "fusion_lon": 0.0, "fusion_lat": 0.0, "type": "electric_scooter", "name": "0315a4a33ec8d7bc4ea2aed045a05aa6", "is_disabled": 0, "rental_uris": {"ios": "https://dc.lft.to/lastmile_qr_scan", "android": "https://dc.lft.to/lastmile_qr_scan"}, "is_reserved": 0}, {"lon": -77.04980116666667, "bike_id": "e43e54f9aba2c8dbfb3a68ae4f905e23", "lat": 39.06299333333333, "fusion_lon": 0.0, "fusion_lat": 0.0, "type": "electric_bike", "name": "e43e54f9aba2c8dbfb3a68ae4f905e23", "is_disabled": 0, "rental_uris": {"ios": "https://dc.lft.to/lastmile_qr_scan", "android": "https://dc.lft.to/lastmile_qr_scan"}, "is_reserved": 0}, {"lon": -76.99097483333334, "bike_id": "9a987725a1839bbb97e97098cb5072a6", "lat": 38.857369, "fusion_lon": 0.0, "fusion_lat": 0.0, "type": "electric_scooter", "name": "9a987725a1839bbb97e97098cb5072a6", "is_disabled": 0, "rental_uris": {"ios": "https://dc.lft.to/lastmile_qr_scan", "android": "https://dc.lft.to/lastmile_qr_scan"}, "is_reserved": 0}, {"lon": -77.000272, "bike_id": "e3eb7b3c776eb32f609fba0415a21e65", "lat": 38.87391016666667, "fusion_lon": 0.0, "fusion_lat": 0.0, "type": "electric_scooter", "name": "e3eb7b3c776eb32f609fba0415a21e65", "is_disabled": 0, "rental_uris": {"ios": "https://dc.lft.to/lastmile_qr_scan", "android": "https://dc.lft.to/lastmile_qr_scan"}, "is_reserved": 0}, {"lon": -77.04866616666666, "bike_id": "8255b0dfbb7ebf70b2623643b78def07", "lat": 38.892268666666666, "fusion_lon": 0.0, "fusion_lat": 0.0, "type": "electric_scooter", "name": "8255b0dfbb7ebf70b2623643b78def07", "is_disabled": 0, "rental_uris": {"ios": "https://dc.lft.to/lastmile_qr_scan", "android": "https://dc.lft.to/lastmile_qr_scan"}, "is_reserved": 0}, {"lon": -77.030723, "bike_id": "686361aad7d96f252d0bfe5f243a8625", "lat": 38.88584, "fusion_lon": 0.0, "fusion_lat": 0.0, "type": "electric_scooter", "name": "686361aad7d96f252d0bfe5f243a8625", "is_disabled": 0, "rental_uris": {"ios": "https://dc.lft.to/lastmile_qr_scan", "android": "https://dc.lft.to/lastmile_qr_scan"}, "is_reserved": 0}, {"lon": -76.99767016666667, "bike_id": "90063be363a8b6ba00a4f7dbab0d118b", "lat": 38.9245095, "fusion_lon": 0.0, "fusion_lat": 0.0, "type": "electric_scooter", "name": "90063be363a8b6ba00a4f7dbab0d118b", "is_disabled": 0, "rental_uris": {"ios": "https://dc.lft.to/lastmile_qr_scan", "android": "https://dc.lft.to/lastmile_qr_scan"}, "is_reserved": 0}, {"lon": -77.00343833333334, "bike_id": "8748ebbe605a6b233c78bb3a8baaa608", "lat": 38.895216833333336, "fusion_lon": 0.0, "fusion_lat": 0.0, "type": "electric_scooter", "name": "8748ebbe605a6b233c78bb3a8baaa608", "is_disabled": 0, "rental_uris": {"ios": "https://dc.lft.to/lastmile_qr_scan", "android": "https://dc.lft.to/lastmile_qr_scan"}, "is_reserved": 0}, {"lon": -77.02990633333333, "bike_id": "57498adee1d9fe4b347d2450b34f9ceb", "lat": 38.97441716666667, "fusion_lon": 0.0, "fusion_lat": 0.0, "type": "electric_bike", "name": "57498adee1d9fe4b347d2450b34f9ceb", "is_disabled": 0, "rental_uris": {"ios": "https://dc.lft.to/lastmile_qr_scan", "android": "https://dc.lft.to/lastmile_qr_scan"}, "is_reserved": 0}, {"lon": -76.9784495, "bike_id": "9ec4284adffabcc48b99f87df5182c3b", "lat": 38.865807833333335, "fusion_lon": 0.0, "fusion_lat": 0.0, "type": "electric_bike", "name": "9ec4284adffabcc48b99f87df5182c3b", "is_disabled": 0, "rental_uris": {"ios": "https://dc.lft.to/lastmile_qr_scan", "android": "https://dc.lft.to/lastmile_qr_scan"}, "is_reserved": 0}, {"lon": -77.02314716666666, "bike_id": "c2445c3db4134130a6ced42818e49567", "lat": 38.90967116666667, "fusion_lon": 0.0, "fusion_lat": 0.0, "type": "electric_scooter", "name": "c2445c3db4134130a6ced42818e49567", "is_disabled": 0, "rental_uris": {"ios": "https://dc.lft.to/lastmile_qr_scan", "android": "https://dc.lft.to/lastmile_qr_scan"}, "is_reserved": 0}, {"lon": -77.032035, "bike_id": "d2269e8380e0ee712b921a1ac6b3ef5e", "lat": 38.91696266666667, "fusion_lon": 0.0, "fusion_lat": 0.0, "type": "electric_scooter", "name": "d2269e8380e0ee712b921a1ac6b3ef5e", "is_disabled": 0, "rental_uris": {"ios": "https://dc.lft.to/lastmile_qr_scan", "android": "https://dc.lft.to/lastmile_qr_scan"}, "is_reserved": 0}, {"lon": -77.0586215, "bike_id": "4fc673d54d7502974ae781c6ce0aaa6e", "lat": 38.93613666666667, "fusion_lon": 0.0, "fusion_lat": 0.0, "type": "electric_scooter", "name": "4fc673d54d7502974ae781c6ce0aaa6e", "is_disabled": 0, "rental_uris": {"ios": "https://dc.lft.to/lastmile_qr_scan", "android": "https://dc.lft.to/lastmile_qr_scan"}, "is_reserved": 0}, {"lon": -77.05012383333333, "bike_id": "78c7d4d3c11b53bdcf6456c63d3fb478", "lat": 38.89791183333333, "fusion_lon": 0.0, "fusion_lat": 0.0, "type": "electric_scooter", "name": "78c7d4d3c11b53bdcf6456c63d3fb478", "is_disabled": 0, "rental_uris": {"ios": "https://dc.lft.to/lastmile_qr_scan", "android": "https://dc.lft.to/lastmile_qr_scan"}, "is_reserved": 0}, {"lon": -77.05131933333334, "bike_id": "c6aa35e781a73136d9226cc3444a0a12", "lat": 38.923616333333335, "fusion_lon": 0.0, "fusion_lat": 0.0, "type": "electric_scooter", "name": "c6aa35e781a73136d9226cc3444a0a12", "is_disabled": 0, "rental_uris": {"ios": "https://dc.lft.to/lastmile_qr_scan", "android": "https://dc.lft.to/lastmile_qr_scan"}, "is_reserved": 0}, {"lon": -77.0211305, "bike_id": "296e885119e701aacf95c105fe67eb20", "lat": 38.917703833333334, "fusion_lon": 0.0, "fusion_lat": 0.0, "type": "electric_scooter", "name": "296e885119e701aacf95c105fe67eb20", "is_disabled": 0, "rental_uris": {"ios": "https://dc.lft.to/lastmile_qr_scan", "android": "https://dc.lft.to/lastmile_qr_scan"}, "is_reserved": 0}, {"lon": -77.01135016666667, "bike_id": "42f21ea50c21dfc674f0a7fe4c90e388", "lat": 38.894834333333336, "fusion_lon": 0.0, "fusion_lat": 0.0, "type": "electric_scooter", "name": "42f21ea50c21dfc674f0a7fe4c90e388", "is_disabled": 0, "rental_uris": {"ios": "https://dc.lft.to/lastmile_qr_scan", "android": "https://dc.lft.to/lastmile_qr_scan"}, "is_reserved": 0}, {"lon": -77.011538, "bike_id": "101f55bef8ee60f6e7b9e3db84487a5e", "lat": 38.89599833333333, "fusion_lon": 0.0, "fusion_lat": 0.0, "type": "electric_scooter", "name": "101f55bef8ee60f6e7b9e3db84487a5e", "is_disabled": 0, "rental_uris": {"ios": "https://dc.lft.to/lastmile_qr_scan", "android": "https://dc.lft.to/lastmile_qr_scan"}, "is_reserved": 0}, {"lon": -76.98844116666666, "bike_id": "c3515fa150d534fd04205713acc27459", "lat": 38.901309166666664, "fusion_lon": 0.0, "fusion_lat": 0.0, "type": "electric_scooter", "name": "c3515fa150d534fd04205713acc27459", "is_disabled": 0, "rental_uris": {"ios": "https://dc.lft.to/lastmile_qr_scan", "android": "https://dc.lft.to/lastmile_qr_scan"}, "is_reserved": 0}, {"lon": -76.9775325, "bike_id": "812f54cbaf4fa9e3c66e1e81da30d109", "lat": 38.865029666666665, "fusion_lon": 0.0, "fusion_lat": 0.0, "type": "electric_scooter", "name": "812f54cbaf4fa9e3c66e1e81da30d109", "is_disabled": 0, "rental_uris": {"ios": "https://dc.lft.to/lastmile_qr_scan", "android": "https://dc.lft.to/lastmile_qr_scan"}, "is_reserved": 0}, {"lon": -77.0414155, "bike_id": "49677b29bfe043d572cb1f0ea24b6167", "lat": 38.902577666666666, "fusion_lon": 0.0, "fusion_lat": 0.0, "type": "electric_scooter", "name": "49677b29bfe043d572cb1f0ea24b6167", "is_disabled": 0, "rental_uris": {"ios": "https://dc.lft.to/lastmile_qr_scan", "android": "https://dc.lft.to/lastmile_qr_scan"}, "is_reserved": 0}, {"lon": -77.0297215, "bike_id": "7dd0b986fa88d741541ad6ad2ad05ddc", "lat": 38.93005616666667, "fusion_lon": 0.0, "fusion_lat": 0.0, "type": "electric_scooter", "name": "7dd0b986fa88d741541ad6ad2ad05ddc", "is_disabled": 0, "rental_uris": {"ios": "https://dc.lft.to/lastmile_qr_scan", "android": "https://dc.lft.to/lastmile_qr_scan"}, "is_reserved": 0}, {"lon": -77.12225216666667, "bike_id": "a4e7a9c41d87560107e6e54debd839a1", "lat": 38.853012166666666, "fusion_lon": 0.0, "fusion_lat": 0.0, "type": "electric_bike", "name": "a4e7a9c41d87560107e6e54debd839a1", "is_disabled": 0, "rental_uris": {"ios": "https://dc.lft.to/lastmile_qr_scan", "android": "https://dc.lft.to/lastmile_qr_scan"}, "is_reserved": 0}, {"lon": -77.0447175, "bike_id": "cf1e7d20a839dd6ad4cc216aec7b189d", "lat": 38.903295166666666, "fusion_lon": 0.0, "fusion_lat": 0.0, "type": "electric_scooter", "name": "cf1e7d20a839dd6ad4cc216aec7b189d", "is_disabled": 0, "rental_uris": {"ios": "https://dc.lft.to/lastmile_qr_scan", "android": "https://dc.lft.to/lastmile_qr_scan"}, "is_reserved": 0}, {"lon": -77.04473033333333, "bike_id": "b3cebb65ce6e1b4a4ca726566e063112", "lat": 38.91117033333333, "fusion_lon": 0.0, "fusion_lat": 0.0, "type": "electric_scooter", "name": "b3cebb65ce6e1b4a4ca726566e063112", "is_disabled": 0, "rental_uris": {"ios": "https://dc.lft.to/lastmile_qr_scan", "android": "https://dc.lft.to/lastmile_qr_scan"}, "is_reserved": 0}, {"lon": -76.998434, "bike_id": "613292cceb3ec0cdf984c937d98a09ba", "lat": 38.902139, "fusion_lon": 0.0, "fusion_lat": 0.0, "type": "electric_scooter", "name": "613292cceb3ec0cdf984c937d98a09ba", "is_disabled": 0, "rental_uris": {"ios": "https://dc.lft.to/lastmile_qr_scan", "android": "https://dc.lft.to/lastmile_qr_scan"}, "is_reserved": 0}, {"lon": -77.03480216666667, "bike_id": "82380e22da4602a613ded8062eadf56b", "lat": 38.9287435, "fusion_lon": 0.0, "fusion_lat": 0.0, "type": "electric_scooter", "name": "82380e22da4602a613ded8062eadf56b", "is_disabled": 0, "rental_uris": {"ios": "https://dc.lft.to/lastmile_qr_scan", "android": "https://dc.lft.to/lastmile_qr_scan"}, "is_reserved": 0}, {"lon": -77.038912, "bike_id": "197749dd53de31c82c57c92b2815e92a", "lat": 38.9102335, "fusion_lon": 0.0, "fusion_lat": 0.0, "type": "electric_scooter", "name": "197749dd53de31c82c57c92b2815e92a", "is_disabled": 0, "rental_uris": {"ios": "https://dc.lft.to/lastmile_qr_scan", "android": "https://dc.lft.to/lastmile_qr_scan"}, "is_reserved": 0}, {"lon": -76.998663, "bike_id": "ede73871d30748ba4e943d45d257e7af", "lat": 38.900300333333334, "fusion_lon": 0.0, "fusion_lat": 0.0, "type": "electric_scooter", "name": "ede73871d30748ba4e943d45d257e7af", "is_disabled": 0, "rental_uris": {"ios": "https://dc.lft.to/lastmile_qr_scan", "android": "https://dc.lft.to/lastmile_qr_scan"}, "is_reserved": 0}, {"lon": -76.953713, "bike_id": "3bd3b4515a2c1b6f50af86a2e394dfc9", "lat": 38.89202866666667, "fusion_lon": 0.0, "fusion_lat": 0.0, "type": "electric_scooter", "name": "3bd3b4515a2c1b6f50af86a2e394dfc9", "is_disabled": 0, "rental_uris": {"ios": "https://dc.lft.to/lastmile_qr_scan", "android": "https://dc.lft.to/lastmile_qr_scan"}, "is_reserved": 0}, {"lon": -76.96153916666667, "bike_id": "f6fd42b595a986f92b58f5f97ffe80e7", "lat": 38.883607166666664, "fusion_lon": 0.0, "fusion_lat": 0.0, "type": "electric_scooter", "name": "f6fd42b595a986f92b58f5f97ffe80e7", "is_disabled": 0, "rental_uris": {"ios": "https://dc.lft.to/lastmile_qr_scan", "android": "https://dc.lft.to/lastmile_qr_scan"}, "is_reserved": 0}, {"lon": -77.04206416666666, "bike_id": "0785726aa342716a4dd65df9d9f83181", "lat": 38.91263083333333, "fusion_lon": 0.0, "fusion_lat": 0.0, "type": "electric_scooter", "name": "0785726aa342716a4dd65df9d9f83181", "is_disabled": 0, "rental_uris": {"ios": "https://dc.lft.to/lastmile_qr_scan", "android": "https://dc.lft.to/lastmile_qr_scan"}, "is_reserved": 0}, {"lon": -77.0458445, "bike_id": "a92fa5ad5bf3a8a7e3ff6e92c328b50c", "lat": 38.903844666666664, "fusion_lon": 0.0, "fusion_lat": 0.0, "type": "electric_scooter", "name": "a92fa5ad5bf3a8a7e3ff6e92c328b50c", "is_disabled": 0, "rental_uris": {"ios": "https://dc.lft.to/lastmile_qr_scan", "android": "https://dc.lft.to/lastmile_qr_scan"}, "is_reserved": 0}, {"lon": -77.03865033333334, "bike_id": "a9bdbf356ad8d1e6ee2bd619eb55a7bf", "lat": 38.9450425, "fusion_lon": 0.0, "fusion_lat": 0.0, "type": "electric_scooter", "name": "a9bdbf356ad8d1e6ee2bd619eb55a7bf", "is_disabled": 0, "rental_uris": {"ios": "https://dc.lft.to/lastmile_qr_scan", "android": "https://dc.lft.to/lastmile_qr_scan"}, "is_reserved": 0}, {"lon": -77.00581033333333, "bike_id": "0bd03eebffa8fcd88e2ea09bf2a8ddc9", "lat": 38.884426, "fusion_lon": 0.0, "fusion_lat": 0.0, "type": "electric_scooter", "name": "0bd03eebffa8fcd88e2ea09bf2a8ddc9", "is_disabled": 0, "rental_uris": {"ios": "https://dc.lft.to/lastmile_qr_scan", "android": "https://dc.lft.to/lastmile_qr_scan"}, "is_reserved": 0}, {"lon": -76.980998, "bike_id": "b5e925f9347aca609ec82c1d3c79fe9f", "lat": 38.8955355, "fusion_lon": 0.0, "fusion_lat": 0.0, "type": "electric_scooter", "name": "b5e925f9347aca609ec82c1d3c79fe9f", "is_disabled": 0, "rental_uris": {"ios": "https://dc.lft.to/lastmile_qr_scan", "android": "https://dc.lft.to/lastmile_qr_scan"}, "is_reserved": 0}, {"lon": -77.030953, "bike_id": "09e6822ad40ee00221da22d472996469", "lat": 38.9339855, "fusion_lon": 0.0, "fusion_lat": 0.0, "type": "electric_scooter", "name": "09e6822ad40ee00221da22d472996469", "is_disabled": 0, "rental_uris": {"ios": "https://dc.lft.to/lastmile_qr_scan", "android": "https://dc.lft.to/lastmile_qr_scan"}, "is_reserved": 0}, {"lon": -77.01750133333333, "bike_id": "179658d2cd3002104d346d4e2b0d3f1f", "lat": 38.885959666666665, "fusion_lon": 0.0, "fusion_lat": 0.0, "type": "electric_scooter", "name": "179658d2cd3002104d346d4e2b0d3f1f", "is_disabled": 0, "rental_uris": {"ios": "https://dc.lft.to/lastmile_qr_scan", "android": "https://dc.lft.to/lastmile_qr_scan"}, "is_reserved": 0}, {"lon": -77.0342815, "bike_id": "642ad468084c5e33894a12340ba6f945", "lat": 38.927465833333336, "fusion_lon": 0.0, "fusion_lat": 0.0, "type": "electric_scooter", "name": "642ad468084c5e33894a12340ba6f945", "is_disabled": 0, "rental_uris": {"ios": "https://dc.lft.to/lastmile_qr_scan", "android": "https://dc.lft.to/lastmile_qr_scan"}, "is_reserved": 0}, {"lon": -77.02653883333333, "bike_id": "b49c1f1960293ed3d4e58c88b59f2bd0", "lat": 38.8984065, "fusion_lon": 0.0, "fusion_lat": 0.0, "type": "electric_scooter", "name": "b49c1f1960293ed3d4e58c88b59f2bd0", "is_disabled": 0, "rental_uris": {"ios": "https://dc.lft.to/lastmile_qr_scan", "android": "https://dc.lft.to/lastmile_qr_scan"}, "is_reserved": 0}, {"lon": -77.036313, "bike_id": "59fe751a398845a1551191b595965de7", "lat": 38.92329683333333, "fusion_lon": 0.0, "fusion_lat": 0.0, "type": "electric_scooter", "name": "59fe751a398845a1551191b595965de7", "is_disabled": 0, "rental_uris": {"ios": "https://dc.lft.to/lastmile_qr_scan", "android": "https://dc.lft.to/lastmile_qr_scan"}, "is_reserved": 0}, {"lon": -77.033532, "bike_id": "ea15fe224015126127b946f27c1413a9", "lat": 38.962576166666665, "fusion_lon": 0.0, "fusion_lat": 0.0, "type": "electric_scooter", "name": "ea15fe224015126127b946f27c1413a9", "is_disabled": 0, "rental_uris": {"ios": "https://dc.lft.to/lastmile_qr_scan", "android": "https://dc.lft.to/lastmile_qr_scan"}, "is_reserved": 0}, {"lon": -77.06714983333333, "bike_id": "054f50bd62de834b7a4fa09a75af3df8", "lat": 38.90380116666667, "fusion_lon": 0.0, "fusion_lat": 0.0, "type": "electric_scooter", "name": "054f50bd62de834b7a4fa09a75af3df8", "is_disabled": 0, "rental_uris": {"ios": "https://dc.lft.to/lastmile_qr_scan", "android": "https://dc.lft.to/lastmile_qr_scan"}, "is_reserved": 0}, {"lon": -77.027529, "bike_id": "f40f15fe81cb026b2e9f826910580acc", "lat": 38.89221283333333, "fusion_lon": 0.0, "fusion_lat": 0.0, "type": "electric_scooter", "name": "f40f15fe81cb026b2e9f826910580acc", "is_disabled": 0, "rental_uris": {"ios": "https://dc.lft.to/lastmile_qr_scan", "android": "https://dc.lft.to/lastmile_qr_scan"}, "is_reserved": 0}, {"lon": -77.04382316666667, "bike_id": "2bd2b64e4f9e16dacd78a5b17c1b8ebb", "lat": 38.9211285, "fusion_lon": 0.0, "fusion_lat": 0.0, "type": "electric_scooter", "name": "2bd2b64e4f9e16dacd78a5b17c1b8ebb", "is_disabled": 0, "rental_uris": {"ios": "https://dc.lft.to/lastmile_qr_scan", "android": "https://dc.lft.to/lastmile_qr_scan"}, "is_reserved": 0}, {"lon": -77.0440345, "bike_id": "db5cae0ed2b27b6e379fcc973ffa4894", "lat": 38.9101865, "fusion_lon": 0.0, "fusion_lat": 0.0, "type": "electric_scooter", "name": "db5cae0ed2b27b6e379fcc973ffa4894", "is_disabled": 0, "rental_uris": {"ios": "https://dc.lft.to/lastmile_qr_scan", "android": "https://dc.lft.to/lastmile_qr_scan"}, "is_reserved": 0}, {"lon": -77.018888, "bike_id": "0db7f48605185acc12fbb15cf93cb0e7", "lat": 38.874683166666664, "fusion_lon": 0.0, "fusion_lat": 0.0, "type": "electric_scooter", "name": "0db7f48605185acc12fbb15cf93cb0e7", "is_disabled": 0, "rental_uris": {"ios": "https://dc.lft.to/lastmile_qr_scan", "android": "https://dc.lft.to/lastmile_qr_scan"}, "is_reserved": 0}, {"lon": -77.02030583333334, "bike_id": "8b9189470e0df1e474cf30ef5bb02259", "lat": 38.916522, "fusion_lon": 0.0, "fusion_lat": 0.0, "type": "electric_scooter", "name": "8b9189470e0df1e474cf30ef5bb02259", "is_disabled": 0, "rental_uris": {"ios": "https://dc.lft.to/lastmile_qr_scan", "android": "https://dc.lft.to/lastmile_qr_scan"}, "is_reserved": 0}, {"lon": -77.11917066666666, "bike_id": "72eade04237b3fedb808246b25bb0be3", "lat": 38.87639216666667, "fusion_lon": 0.0, "fusion_lat": 0.0, "type": "electric_bike", "name": "72eade04237b3fedb808246b25bb0be3", "is_disabled": 0, "rental_uris": {"ios": "https://dc.lft.to/lastmile_qr_scan", "android": "https://dc.lft.to/lastmile_qr_scan"}, "is_reserved": 0}, {"lon": -77.0104965, "bike_id": "168f5b1c532e81c4d5970c3747c685ab", "lat": 38.96357233333333, "fusion_lon": 0.0, "fusion_lat": 0.0, "type": "electric_scooter", "name": "168f5b1c532e81c4d5970c3747c685ab", "is_disabled": 0, "rental_uris": {"ios": "https://dc.lft.to/lastmile_qr_scan", "android": "https://dc.lft.to/lastmile_qr_scan"}, "is_reserved": 0}, {"lon": -77.02566966666667, "bike_id": "a8d7ac72909915b84606ec698dafad6e", "lat": 38.9257855, "fusion_lon": 0.0, "fusion_lat": 0.0, "type": "electric_scooter", "name": "a8d7ac72909915b84606ec698dafad6e", "is_disabled": 0, "rental_uris": {"ios": "https://dc.lft.to/lastmile_qr_scan", "android": "https://dc.lft.to/lastmile_qr_scan"}, "is_reserved": 0}, {"lon": -77.04898183333333, "bike_id": "277a8b8d00d0d3c5aeddd1377b237d67", "lat": 38.890057, "fusion_lon": 0.0, "fusion_lat": 0.0, "type": "electric_scooter", "name": "277a8b8d00d0d3c5aeddd1377b237d67", "is_disabled": 0, "rental_uris": {"ios": "https://dc.lft.to/lastmile_qr_scan", "android": "https://dc.lft.to/lastmile_qr_scan"}, "is_reserved": 0}, {"lon": -77.00673916666666, "bike_id": "c8f1abd008ff0738e6d208a9659d58c8", "lat": 38.900135666666664, "fusion_lon": 0.0, "fusion_lat": 0.0, "type": "electric_scooter", "name": "c8f1abd008ff0738e6d208a9659d58c8", "is_disabled": 0, "rental_uris": {"ios": "https://dc.lft.to/lastmile_qr_scan", "android": "https://dc.lft.to/lastmile_qr_scan"}, "is_reserved": 0}, {"lon": -77.006363, "bike_id": "5cfac57ac93874b31ed1314275a63e7c", "lat": 38.87932433333334, "fusion_lon": 0.0, "fusion_lat": 0.0, "type": "electric_scooter", "name": "5cfac57ac93874b31ed1314275a63e7c", "is_disabled": 0, "rental_uris": {"ios": "https://dc.lft.to/lastmile_qr_scan", "android": "https://dc.lft.to/lastmile_qr_scan"}, "is_reserved": 0}, {"lon": -77.04996566666667, "bike_id": "2af50d432ff99fb6ad99882299346ad7", "lat": 38.892322666666665, "fusion_lon": 0.0, "fusion_lat": 0.0, "type": "electric_scooter", "name": "2af50d432ff99fb6ad99882299346ad7", "is_disabled": 0, "rental_uris": {"ios": "https://dc.lft.to/lastmile_qr_scan", "android": "https://dc.lft.to/lastmile_qr_scan"}, "is_reserved": 0}, {"lon": -76.99274433333333, "bike_id": "1d110a691643a8bef928a06003233113", "lat": 38.899483333333336, "fusion_lon": 0.0, "fusion_lat": 0.0, "type": "electric_scooter", "name": "1d110a691643a8bef928a06003233113", "is_disabled": 0, "rental_uris": {"ios": "https://dc.lft.to/lastmile_qr_scan", "android": "https://dc.lft.to/lastmile_qr_scan"}, "is_reserved": 0}, {"lon": -77.04398233333333, "bike_id": "cefba89294fcf43212f74173c9c77647", "lat": 38.924466833333334, "fusion_lon": 0.0, "fusion_lat": 0.0, "type": "electric_scooter", "name": "cefba89294fcf43212f74173c9c77647", "is_disabled": 0, "rental_uris": {"ios": "https://dc.lft.to/lastmile_qr_scan", "android": "https://dc.lft.to/lastmile_qr_scan"}, "is_reserved": 0}, {"lon": -77.022221, "bike_id": "6fd3887a29ad2c14cd1c60e2e81cabfc", "lat": 38.92620816666667, "fusion_lon": 0.0, "fusion_lat": 0.0, "type": "electric_scooter", "name": "6fd3887a29ad2c14cd1c60e2e81cabfc", "is_disabled": 0, "rental_uris": {"ios": "https://dc.lft.to/lastmile_qr_scan", "android": "https://dc.lft.to/lastmile_qr_scan"}, "is_reserved": 0}, {"lon": -77.02185633333333, "bike_id": "78b0ec8167550836ae82e2ecb5bcb39a", "lat": 38.939521166666665, "fusion_lon": 0.0, "fusion_lat": 0.0, "type": "electric_scooter", "name": "78b0ec8167550836ae82e2ecb5bcb39a", "is_disabled": 0, "rental_uris": {"ios": "https://dc.lft.to/lastmile_qr_scan", "android": "https://dc.lft.to/lastmile_qr_scan"}, "is_reserved": 0}, {"lon": -77.04212016666666, "bike_id": "1838990f7a773f930585532943bd966e", "lat": 38.9213475, "fusion_lon": 0.0, "fusion_lat": 0.0, "type": "electric_scooter", "name": "1838990f7a773f930585532943bd966e", "is_disabled": 0, "rental_uris": {"ios": "https://dc.lft.to/lastmile_qr_scan", "android": "https://dc.lft.to/lastmile_qr_scan"}, "is_reserved": 0}, {"lon": -77.02111316666667, "bike_id": "b0b37880f59807b1616f26bc195ec415", "lat": 38.90600716666667, "fusion_lon": 0.0, "fusion_lat": 0.0, "type": "electric_scooter", "name": "b0b37880f59807b1616f26bc195ec415", "is_disabled": 0, "rental_uris": {"ios": "https://dc.lft.to/lastmile_qr_scan", "android": "https://dc.lft.to/lastmile_qr_scan"}, "is_reserved": 0}, {"lon": -76.98923016666667, "bike_id": "a446bb1e96849730e5b450e4848fea5b", "lat": 38.85807716666667, "fusion_lon": 0.0, "fusion_lat": 0.0, "type": "electric_scooter", "name": "a446bb1e96849730e5b450e4848fea5b", "is_disabled": 0, "rental_uris": {"ios": "https://dc.lft.to/lastmile_qr_scan", "android": "https://dc.lft.to/lastmile_qr_scan"}, "is_reserved": 0}, {"lon": -77.06261166666667, "bike_id": "53d376fa30fa28308a88aff1020bc490", "lat": 38.905282, "fusion_lon": 0.0, "fusion_lat": 0.0, "type": "electric_scooter", "name": "53d376fa30fa28308a88aff1020bc490", "is_disabled": 0, "rental_uris": {"ios": "https://dc.lft.to/lastmile_qr_scan", "android": "https://dc.lft.to/lastmile_qr_scan"}, "is_reserved": 0}, {"lon": -77.03195283333334, "bike_id": "39773f5d2f05c0ece6af736c141584a2", "lat": 38.91680616666667, "fusion_lon": 0.0, "fusion_lat": 0.0, "type": "electric_scooter", "name": "39773f5d2f05c0ece6af736c141584a2", "is_disabled": 0, "rental_uris": {"ios": "https://dc.lft.to/lastmile_qr_scan", "android": "https://dc.lft.to/lastmile_qr_scan"}, "is_reserved": 0}, {"lon": -77.00203183333333, "bike_id": "ab672b76ff34e7063e5a4e6a669c097a", "lat": 38.9024005, "fusion_lon": 0.0, "fusion_lat": 0.0, "type": "electric_scooter", "name": "ab672b76ff34e7063e5a4e6a669c097a", "is_disabled": 0, "rental_uris": {"ios": "https://dc.lft.to/lastmile_qr_scan", "android": "https://dc.lft.to/lastmile_qr_scan"}, "is_reserved": 0}, {"lon": -77.04391283333334, "bike_id": "13e6028dd70cc7e6301e8ec79758055a", "lat": 39.0472065, "fusion_lon": 0.0, "fusion_lat": 0.0, "type": "electric_bike", "name": "13e6028dd70cc7e6301e8ec79758055a", "is_disabled": 0, "rental_uris": {"ios": "https://dc.lft.to/lastmile_qr_scan", "android": "https://dc.lft.to/lastmile_qr_scan"}, "is_reserved": 0}, {"lon": -77.03970583333333, "bike_id": "a12a98ddc3c574d2d3ce06b2a202bf8f", "lat": 38.90267083333333, "fusion_lon": 0.0, "fusion_lat": 0.0, "type": "electric_scooter", "name": "a12a98ddc3c574d2d3ce06b2a202bf8f", "is_disabled": 0, "rental_uris": {"ios": "https://dc.lft.to/lastmile_qr_scan", "android": "https://dc.lft.to/lastmile_qr_scan"}, "is_reserved": 0}, {"lon": -77.03249933333333, "bike_id": "b8b15ce3ed54390cfa2b5c047ba4b701", "lat": 38.91561633333333, "fusion_lon": 0.0, "fusion_lat": 0.0, "type": "electric_scooter", "name": "b8b15ce3ed54390cfa2b5c047ba4b701", "is_disabled": 0, "rental_uris": {"ios": "https://dc.lft.to/lastmile_qr_scan", "android": "https://dc.lft.to/lastmile_qr_scan"}, "is_reserved": 0}, {"lon": -77.0225885, "bike_id": "1a866860ced2d8f52a61f9ac240d4f1d", "lat": 38.90408466666667, "fusion_lon": 0.0, "fusion_lat": 0.0, "type": "electric_scooter", "name": "1a866860ced2d8f52a61f9ac240d4f1d", "is_disabled": 0, "rental_uris": {"ios": "https://dc.lft.to/lastmile_qr_scan", "android": "https://dc.lft.to/lastmile_qr_scan"}, "is_reserved": 0}, {"lon": -76.93073516666666, "bike_id": "faf66e827762e636c1605c6f7659c195", "lat": 38.895584666666664, "fusion_lon": 0.0, "fusion_lat": 0.0, "type": "electric_scooter", "name": "faf66e827762e636c1605c6f7659c195", "is_disabled": 0, "rental_uris": {"ios": "https://dc.lft.to/lastmile_qr_scan", "android": "https://dc.lft.to/lastmile_qr_scan"}, "is_reserved": 0}, {"lon": -76.97829083333333, "bike_id": "43c0f05c0e2be4441fd73a7516dee20f", "lat": 38.84367133333333, "fusion_lon": 0.0, "fusion_lat": 0.0, "type": "electric_bike", "name": "43c0f05c0e2be4441fd73a7516dee20f", "is_disabled": 0, "rental_uris": {"ios": "https://dc.lft.to/lastmile_qr_scan", "android": "https://dc.lft.to/lastmile_qr_scan"}, "is_reserved": 0}, {"lon": -76.98266716666667, "bike_id": "c38cc3c386b36b53f343ebe24555a1a8", "lat": 38.901369833333334, "fusion_lon": 0.0, "fusion_lat": 0.0, "type": "electric_scooter", "name": "c38cc3c386b36b53f343ebe24555a1a8", "is_disabled": 0, "rental_uris": {"ios": "https://dc.lft.to/lastmile_qr_scan", "android": "https://dc.lft.to/lastmile_qr_scan"}, "is_reserved": 0}, {"lon": -77.0255735, "bike_id": "1c89338503322011753ca1accf3d8617", "lat": 38.903244666666666, "fusion_lon": 0.0, "fusion_lat": 0.0, "type": "electric_scooter", "name": "1c89338503322011753ca1accf3d8617", "is_disabled": 0, "rental_uris": {"ios": "https://dc.lft.to/lastmile_qr_scan", "android": "https://dc.lft.to/lastmile_qr_scan"}, "is_reserved": 0}, {"lon": -77.090626, "bike_id": "69e92c34671c715ddc37d3f544931868", "lat": 38.862637166666666, "fusion_lon": 0.0, "fusion_lat": 0.0, "type": "electric_bike", "name": "69e92c34671c715ddc37d3f544931868", "is_disabled": 0, "rental_uris": {"ios": "https://dc.lft.to/lastmile_qr_scan", "android": "https://dc.lft.to/lastmile_qr_scan"}, "is_reserved": 0}, {"lon": -77.036524, "bike_id": "742127fc1f2432da3ae7c7fdcdd3ad1e", "lat": 38.95613566666667, "fusion_lon": 0.0, "fusion_lat": 0.0, "type": "electric_scooter", "name": "742127fc1f2432da3ae7c7fdcdd3ad1e", "is_disabled": 0, "rental_uris": {"ios": "https://dc.lft.to/lastmile_qr_scan", "android": "https://dc.lft.to/lastmile_qr_scan"}, "is_reserved": 0}, {"lon": -77.0311105, "bike_id": "6fe575094c931037e420765c1e0c8382", "lat": 38.93324583333333, "fusion_lon": 0.0, "fusion_lat": 0.0, "type": "electric_scooter", "name": "6fe575094c931037e420765c1e0c8382", "is_disabled": 0, "rental_uris": {"ios": "https://dc.lft.to/lastmile_qr_scan", "android": "https://dc.lft.to/lastmile_qr_scan"}, "is_reserved": 0}, {"lon": -77.05510116666666, "bike_id": "01ca3f6e8290952ed082ed6b9dedb3a2", "lat": 38.929865, "fusion_lon": 0.0, "fusion_lat": 0.0, "type": "electric_scooter", "name": "01ca3f6e8290952ed082ed6b9dedb3a2", "is_disabled": 0, "rental_uris": {"ios": "https://dc.lft.to/lastmile_qr_scan", "android": "https://dc.lft.to/lastmile_qr_scan"}, "is_reserved": 0}, {"lon": -76.99429866666667, "bike_id": "1ae49fa20a692d9b6970174eedb81c35", "lat": 38.90025033333333, "fusion_lon": 0.0, "fusion_lat": 0.0, "type": "electric_scooter", "name": "1ae49fa20a692d9b6970174eedb81c35", "is_disabled": 0, "rental_uris": {"ios": "https://dc.lft.to/lastmile_qr_scan", "android": "https://dc.lft.to/lastmile_qr_scan"}, "is_reserved": 0}, {"lon": -77.03672816666666, "bike_id": "f87104a09899d9de8f94796fe9be974f", "lat": 38.90956633333333, "fusion_lon": 0.0, "fusion_lat": 0.0, "type": "electric_scooter", "name": "f87104a09899d9de8f94796fe9be974f", "is_disabled": 0, "rental_uris": {"ios": "https://dc.lft.to/lastmile_qr_scan", "android": "https://dc.lft.to/lastmile_qr_scan"}, "is_reserved": 0}, {"lon": -77.0078125, "bike_id": "0189a5b347e82c2de0edce38dfcba683", "lat": 38.9073445, "fusion_lon": 0.0, "fusion_lat": 0.0, "type": "electric_scooter", "name": "0189a5b347e82c2de0edce38dfcba683", "is_disabled": 0, "rental_uris": {"ios": "https://dc.lft.to/lastmile_qr_scan", "android": "https://dc.lft.to/lastmile_qr_scan"}, "is_reserved": 0}, {"lon": -77.0290055, "bike_id": "be9d90571088b9844302034433447abe", "lat": 38.928177, "fusion_lon": 0.0, "fusion_lat": 0.0, "type": "electric_scooter", "name": "be9d90571088b9844302034433447abe", "is_disabled": 0, "rental_uris": {"ios": "https://dc.lft.to/lastmile_qr_scan", "android": "https://dc.lft.to/lastmile_qr_scan"}, "is_reserved": 0}, {"lon": -77.03180833333333, "bike_id": "a8ef5d52f7c6f084920713c91f635298", "lat": 38.9228365, "fusion_lon": 0.0, "fusion_lat": 0.0, "type": "electric_scooter", "name": "a8ef5d52f7c6f084920713c91f635298", "is_disabled": 0, "rental_uris": {"ios": "https://dc.lft.to/lastmile_qr_scan", "android": "https://dc.lft.to/lastmile_qr_scan"}, "is_reserved": 0}, {"lon": -77.0386395, "bike_id": "677016acc904868c0295582e09740421", "lat": 38.93228366666666, "fusion_lon": 0.0, "fusion_lat": 0.0, "type": "electric_scooter", "name": "677016acc904868c0295582e09740421", "is_disabled": 0, "rental_uris": {"ios": "https://dc.lft.to/lastmile_qr_scan", "android": "https://dc.lft.to/lastmile_qr_scan"}, "is_reserved": 0}, {"lon": -76.998812, "bike_id": "a1cf9a5d917f6688d7d5c97462f7ff6f", "lat": 38.901285333333334, "fusion_lon": 0.0, "fusion_lat": 0.0, "type": "electric_scooter", "name": "a1cf9a5d917f6688d7d5c97462f7ff6f", "is_disabled": 0, "rental_uris": {"ios": "https://dc.lft.to/lastmile_qr_scan", "android": "https://dc.lft.to/lastmile_qr_scan"}, "is_reserved": 0}, {"lon": -77.02378683333333, "bike_id": "bcf38588a55812a08b49b5fe016617aa", "lat": 38.911588, "fusion_lon": 0.0, "fusion_lat": 0.0, "type": "electric_scooter", "name": "bcf38588a55812a08b49b5fe016617aa", "is_disabled": 0, "rental_uris": {"ios": "https://dc.lft.to/lastmile_qr_scan", "android": "https://dc.lft.to/lastmile_qr_scan"}, "is_reserved": 0}, {"lon": -77.021953, "bike_id": "4777da82339b05e4c2b09fa41ddc41c7", "lat": 38.92042333333333, "fusion_lon": 0.0, "fusion_lat": 0.0, "type": "electric_scooter", "name": "4777da82339b05e4c2b09fa41ddc41c7", "is_disabled": 0, "rental_uris": {"ios": "https://dc.lft.to/lastmile_qr_scan", "android": "https://dc.lft.to/lastmile_qr_scan"}, "is_reserved": 0}, {"lon": -77.02772133333333, "bike_id": "e3c7a050374f4e91ca7403aa7dcc6079", "lat": 38.95430666666667, "fusion_lon": 0.0, "fusion_lat": 0.0, "type": "electric_scooter", "name": "e3c7a050374f4e91ca7403aa7dcc6079", "is_disabled": 0, "rental_uris": {"ios": "https://dc.lft.to/lastmile_qr_scan", "android": "https://dc.lft.to/lastmile_qr_scan"}, "is_reserved": 0}, {"lon": -77.019975, "bike_id": "4aff1c4dba934f21b750653de889b301", "lat": 38.96630966666667, "fusion_lon": 0.0, "fusion_lat": 0.0, "type": "electric_scooter", "name": "4aff1c4dba934f21b750653de889b301", "is_disabled": 0, "rental_uris": {"ios": "https://dc.lft.to/lastmile_qr_scan", "android": "https://dc.lft.to/lastmile_qr_scan"}, "is_reserved": 0}, {"lon": -77.01663583333334, "bike_id": "73532a3655b13e9e9e16060e6710403e", "lat": 38.87701083333333, "fusion_lon": 0.0, "fusion_lat": 0.0, "type": "electric_scooter", "name": "73532a3655b13e9e9e16060e6710403e", "is_disabled": 0, "rental_uris": {"ios": "https://dc.lft.to/lastmile_qr_scan", "android": "https://dc.lft.to/lastmile_qr_scan"}, "is_reserved": 0}, {"lon": -77.02142666666667, "bike_id": "92fc63693bb00f22a7de81fffe89fab9", "lat": 38.90202166666667, "fusion_lon": 0.0, "fusion_lat": 0.0, "type": "electric_scooter", "name": "92fc63693bb00f22a7de81fffe89fab9", "is_disabled": 0, "rental_uris": {"ios": "https://dc.lft.to/lastmile_qr_scan", "android": "https://dc.lft.to/lastmile_qr_scan"}, "is_reserved": 0}, {"lon": -77.0486395, "bike_id": "2c33de09e630a095465cfbd371b4f7c5", "lat": 38.892239333333336, "fusion_lon": 0.0, "fusion_lat": 0.0, "type": "electric_scooter", "name": "2c33de09e630a095465cfbd371b4f7c5", "is_disabled": 0, "rental_uris": {"ios": "https://dc.lft.to/lastmile_qr_scan", "android": "https://dc.lft.to/lastmile_qr_scan"}, "is_reserved": 0},