{"data": {"bikes": [{"name": "6d1baa5560a62e9c55c3ce3067806ad1", "type": "electric_scooter", "lat": 38.907976, "is_reserved": 0, "lon": -77.048237, "fusion_lon": 0.0, "is_disabled": 0, "fusion_lat": 0.0, "bike_id": "6d1baa5560a62e9c55c3ce3067806ad1", "rental_uris": {"ios": "https://dc.lft.to/lastmile_qr_scan", "android": "https://dc.lft.to/lastmile_qr_scan"}}, {"name": "3216b75a00d6249a3c5ebf280626dbbf", "type": "electric_bike", "lat": 38.965036833333336, "is_reserved": 0, "lon": -77.10335616666667, "fusion_lon": 0.0, "is_disabled": 0, "fusion_lat": 0.0, "bike_id": "3216b75a00d6249a3c5ebf280626dbbf", "rental_uris": {"ios": "https://dc.lft.to/lastmile_qr_scan", "android": "https://dc.lft.to/lastmile_qr_scan"}}, {"name": "de080a6c9cf0fcf6f5e5b8f43df69848", "type": "electric_scooter", "lat": 38.9214855, "is_reserved": 0, "lon": -77.03511283333333, "fusion_lon": 0.0, "is_disabled": 0, "fusion_lat": 0.0, "bike_id": "de080a6c9cf0fcf6f5e5b8f43df69848", "rental_uris": {"ios": "https://dc.lft.to/lastmile_qr_scan", "android": "https://dc.lft.to/lastmile_qr_scan"}}, {"name": "bc7cf997713db22ce6ca0019e2435284", "type": "electric_scooter", "lat": 38.897414166666664, "is_reserved": 0, "lon": -76.9425365, "fusion_lon": 0.0, "is_disabled": 0, "fusion_lat": 0.0, "bike_id": "bc7cf997713db22ce6ca0019e2435284", "rental_uris": {"ios": "https://dc.lft.to/lastmile_qr_scan", "android": "https://dc.lft.to/lastmile_qr_scan"}}, {"name": "f78ed3955dc3a3d89911f12f67c14825", "type": "electric_scooter", "lat": 38.903674, "is_reserved": 0, "lon": -77.04343166666666, "fusion_lon": 0.0, "is_disabled": 0, "fusion_lat": 0.0, "bike_id": "f78ed3955dc3a3d89911f12f67c14825", "rental_uris": {"ios": "https://dc.lft.to/lastmile_qr_scan", "android": "https://dc.lft.to/lastmile_qr_scan"}}, {"name": "f4f0d8dfb78a0f2a5277250942118b2d", "type": "electric_scooter", "lat": 38.91328083333333, "is_reserved": 0, "lon": -77.02188133333334, "fusion_lon": 0.0, "is_disabled": 0, "fusion_lat": 0.0, "bike_id": "f4f0d8dfb78a0f2a5277250942118b2d", "rental_uris": {"ios": "https://dc.lft.to/lastmile_qr_scan", "android": "https://dc.lft.to/lastmile_qr_scan"}}, {"name": "29f96a1b222a90ac66270b9a0792ed55", "type": "electric_scooter", "lat": 38.908620166666665, "is_reserved": 0, "lon": -77.02483833333334, "fusion_lon": 0.0, "is_disabled": 0, "fusion_lat": 0.0, "bike_id": "29f96a1b222a90ac66270b9a0792ed55", "rental_uris": {"ios": "https://dc.lft.to/lastmile_qr_scan", "android": "https://dc.lft.to/lastmile_qr_scan"}}, {"name": "a8d7f6dd98295ef224623ce854d22510", "type": "electric_scooter", "lat": 38.93381183333333, "is_reserved": 0, "lon": -77.05765083333333, "fusion_lon": 0.0, "is_disabled": 0, "fusion_lat": 0.0, "bike_id": "a8d7f6dd98295ef224623ce854d22510", "rental_uris": {"ios": "https://dc.lft.to/lastmile_qr_scan", "android": "https://dc.lft.to/lastmile_qr_scan"}}, {"name": "2edadcdfb1f85ea379226b73b0d09cbc", "type": "electric_scooter", "lat": 38.90502266666667, "is_reserved": 0, "lon": -77.05690466666667, "fusion_lon": 0.0, "is_disabled": 0, "fusion_lat": 0.0, "bike_id": "2edadcdfb1f85ea379226b73b0d09cbc", "rental_uris": {"ios": "https://dc.lft.to/lastmile_qr_scan", "android": "https://dc.lft.to/lastmile_qr_scan"}}, {"name": "adaa478793131de9e16806859df42409", "type": "electric_scooter", "lat": 38.926460666666664, "is_reserved": 0, "lon": -77.03700616666667, "fusion_lon": 0.0, "is_disabled": 0, "fusion_lat": 0.0, "bike_id": "adaa478793131de9e16806859df42409", "rental_uris": {"ios": "https://dc.lft.to/lastmile_qr_scan", "android": "https://dc.lft.to/lastmile_qr_scan"}}, {"name": "f1b9c440c5c0c0bec12f59a4cce012d1", "type": "electric_scooter", "lat": 38.900360666666664, "is_reserved": 0, "lon": -76.98819966666667, "fusion_lon": 0.0, "is_disabled": 0, "fusion_lat": 0.0, "bike_id": "f1b9c440c5c0c0bec12f59a4cce012d1", "rental_uris": {"ios": "https://dc.lft.to/lastmile_qr_scan", "android": "https://dc.lft.to/lastmile_qr_scan"}}, {"name": "5e3056a2d2b007c6243b8672e01e04fc", "type": "electric_scooter", "lat": 38.90011716666667, "is_reserved": 0, "lon": -77.03308516666667, "fusion_lon": 0.0, "is_disabled": 0, "fusion_lat": 0.0, "bike_id": "5e3056a2d2b007c6243b8672e01e04fc", "rental_uris": {"ios": "https://dc.lft.to/lastmile_qr_scan", "android": "https://dc.lft.to/lastmile_qr_scan"}}, {"name": "a44856bcc735c6334465d7c76e34a510", "type": "electric_scooter", "lat": 38.926074666666665, "is_reserved": 0, "lon": -77.03958033333333, "fusion_lon": 0.0, "is_disabled": 0, "fusion_lat": 0.0, "bike_id": "a44856bcc735c6334465d7c76e34a510", "rental_uris": {"ios": "https://dc.lft.to/lastmile_qr_scan", "android": "https://dc.lft.to/lastmile_qr_scan"}}, {"name": "dbad2a54b34da599db5961c480a6c8a5", "type": "electric_scooter", "lat": 38.931562666666665, "is_reserved": 0, "lon": -77.03890083333333, "fusion_lon": 0.0, "is_disabled": 0, "fusion_lat": 0.0, "bike_id": "dbad2a54b34da599db5961c480a6c8a5", "rental_uris": {"ios": "https://dc.lft.to/lastmile_qr_scan", "android": "https://dc.lft.to/lastmile_qr_scan"}}, {"name": "fc3bc07df7fa4a193c9d1677c3e8477d", "type": "electric_scooter", "lat": 38.94292933333333, "is_reserved": 0, "lon": -77.02170633333333, "fusion_lon": 0.0, "is_disabled": 0, "fusion_lat": 0.0, "bike_id": "fc3bc07df7fa4a193c9d1677c3e8477d", "rental_uris": {"ios": "https://dc.lft.to/lastmile_qr_scan", "android": "https://dc.lft.to/lastmile_qr_scan"}}, {"name": "94589a080dd219fa154c8f5456772681", "type": "electric_scooter", "lat": 38.87760766666667, "is_reserved": 0, "lon": -76.994211, "fusion_lon": 0.0, "is_disabled": 0, "fusion_lat": 0.0, "bike_id": "94589a080dd219fa154c8f5456772681", "rental_uris": {"ios": "https://dc.lft.to/lastmile_qr_scan", "android": "https://dc.lft.to/lastmile_qr_scan"}}, {"name": "7726e552d6ad419b528598be0ec550e5", "type": "electric_scooter", "lat": 38.90512566666666, "is_reserved": 0, "lon": -77.04178916666666, "fusion_lon": 0.0, "is_disabled": 0, "fusion_lat": 0.0, "bike_id": "7726e552d6ad419b528598be0ec550e5", "rental_uris": {"ios": "https://dc.lft.to/lastmile_qr_scan", "android": "https://dc.lft.to/lastmile_qr_scan"}}, {"name": "dba019b1ae1284f45f296ede592a75ff", "type": "electric_scooter", "lat": 38.9339315, "is_reserved": 0, "lon": -77.0358075, "fusion_lon": 0.0, "is_disabled": 0, "fusion_lat": 0.0, "bike_id": "dba019b1ae1284f45f296ede592a75ff", "rental_uris": {"ios": "https://dc.lft.to/lastmile_qr_scan", "android": "https://dc.lft.to/lastmile_qr_scan"}}, {"name": "8552077e11dbfe101c9bf071f49b6839", "type": "electric_scooter", "lat": 38.92690566666667, "is_reserved": 0, "lon": -77.0207135, "fusion_lon": 0.0, "is_disabled": 0, "fusion_lat": 0.0, "bike_id": "8552077e11dbfe101c9bf071f49b6839", "rental_uris": {"ios": "https://dc.lft.to/lastmile_qr_scan", "android": "https://dc.lft.to/lastmile_qr_scan"}}, {"name": "a904f219ee4cbd12c6303b75408dda69", "type": "electric_scooter", "lat": 38.9248015, "is_reserved": 0, "lon": -77.0521325, "fusion_lon": 0.0, "is_disabled": 0, "fusion_lat": 0.0, "bike_id": "a904f219ee4cbd12c6303b75408dda69", "rental_uris": {"ios": "https://dc.lft.to/lastmile_qr_scan", "android": "https://dc.lft.to/lastmile_qr_scan"}}, {"name": "b51379b6b70a4b0515ab254e91d601eb", "type": "electric_scooter", "lat": 38.91117966666667, "is_reserved": 0, "lon": -77.043605, "fusion_lon": 0.0, "is_disabled": 0, "fusion_lat": 0.0, "bike_id": "b51379b6b70a4b0515ab254e91d601eb", "rental_uris": {"ios": "https://dc.lft.to/lastmile_qr_scan", "android": "https://dc.lft.to/lastmile_qr_scan"}}, {"name": "3d2d8a926f296aaf6522ca6b59b652d3", "type": "electric_scooter", "lat": 38.883163, "is_reserved": 0, "lon": -77.02386366666667, "fusion_lon": 0.0, "is_disabled": 0, "fusion_lat": 0.0, "bike_id": "3d2d8a926f296aaf6522ca6b59b652d3", "rental_uris": {"ios": "https://dc.lft.to/lastmile_qr_scan", "android": "https://dc.lft.to/lastmile_qr_scan"}}, {"name": "c9d24ccaf73c737637a83dd0eee4dc04", "type": "electric_scooter", "lat": 38.902249833333336, "is_reserved": 0, "lon": -77.0420435, "fusion_lon": 0.0, "is_disabled": 0, "fusion_lat": 0.0, "bike_id": "c9d24ccaf73c737637a83dd0eee4dc04", "rental_uris": {"ios": "https://dc.lft.to/lastmile_qr_scan", "android": "https://dc.lft.to/lastmile_qr_scan"}}, {"name": "a260e837cb1569a9434700bc450de4a7", "type": "electric_scooter", "lat": 38.91095416666667, "is_reserved": 0, "lon": -77.0735005, "fusion_lon": 0.0, "is_disabled": 0, "fusion_lat": 0.0, "bike_id": "a260e837cb1569a9434700bc450de4a7", "rental_uris": {"ios": "https://dc.lft.to/lastmile_qr_scan", "android": "https://dc.lft.to/lastmile_qr_scan"}}, {"name": "3612b649676c67f271e4ef9715183c81", "type": "electric_scooter", "lat": 38.916951166666664, "is_reserved": 0, "lon": -77.024111, "fusion_lon": 0.0, "is_disabled": 0, "fusion_lat": 0.0, "bike_id": "3612b649676c67f271e4ef9715183c81", "rental_uris": {"ios": "https://dc.lft.to/lastmile_qr_scan", "android": "https://dc.lft.to/lastmile_qr_scan"}}, {"name": "2929c070f4a9db50c390c3a2ba834fd0", "type": "electric_bike", "lat": 38.89215733333333, "is_reserved": 0, "lon": -77.10780533333333, "fusion_lon": 0.0, "is_disabled": 0, "fusion_lat": 0.0, "bike_id": "2929c070f4a9db50c390c3a2ba834fd0", "rental_uris": {"ios": "https://dc.lft.to/lastmile_qr_scan", "android": "https://dc.lft.to/lastmile_qr_scan"}}, {"name": "978daa66bf02539b18deab89bdceaf54", "type": "electric_scooter", "lat": 38.94075383333333, "is_reserved": 0, "lon": -77.02697366666666, "fusion_lon": 0.0, "is_disabled": 0, "fusion_lat": 0.0, "bike_id": "978daa66bf02539b18deab89bdceaf54", "rental_uris": {"ios": "https://dc.lft.to/lastmile_qr_scan", "android": "https://dc.lft.to/lastmile_qr_scan"}}, {"name": "0eb93c492e0054c7b07481f96c8e054b", "type": "electric_scooter", "lat": 38.9110525, "is_reserved": 0, "lon": -77.037127, "fusion_lon": 0.0, "is_disabled": 0, "fusion_lat": 0.0, "bike_id": "0eb93c492e0054c7b07481f96c8e054b", "rental_uris": {"ios": "https://dc.lft.to/lastmile_qr_scan", "android": "https://dc.lft.to/lastmile_qr_scan"}}, {"name": "bc9a92d311b288b2f857784e02d51191", "type": "electric_scooter", "lat": 38.899953833333335, "is_reserved": 0, "lon": -77.027089, "fusion_lon": 0.0, "is_disabled": 0, "fusion_lat": 0.0, "bike_id": "bc9a92d311b288b2f857784e02d51191", "rental_uris": {"ios": "https://dc.lft.to/lastmile_qr_scan", "android": "https://dc.lft.to/lastmile_qr_scan"}}, {"name": "7e9741db565bd3ba2fff429ff86828fd", "type": "electric_scooter", "lat": 38.862460666666664, "is_reserved": 0, "lon": -76.99495316666666, "fusion_lon": 0.0, "is_disabled": 0, "fusion_lat": 0.0, "bike_id": "7e9741db565bd3ba2fff429ff86828fd", "rental_uris": {"ios": "https://dc.lft.to/lastmile_qr_scan", "android": "https://dc.lft.to/lastmile_qr_scan"}}, {"name": "7ae9e068ff9d5696cd74a62a5a246cff", "type": "electric_scooter", "lat": 38.90268733333333, "is_reserved": 0, "lon": -77.04363816666667, "fusion_lon": 0.0, "is_disabled": 0, "fusion_lat": 0.0, "bike_id": "7ae9e068ff9d5696cd74a62a5a246cff", "rental_uris": {"ios": "https://dc.lft.to/lastmile_qr_scan", "android": "https://dc.lft.to/lastmile_qr_scan"}}, {"name": "c76377fd038d0645c43d34633a6d3092", "type": "electric_scooter", "lat": 38.922024, "is_reserved": 0, "lon": -77.04245483333334, "fusion_lon": 0.0, "is_disabled": 0, "fusion_lat": 0.0, "bike_id": "c76377fd038d0645c43d34633a6d3092", "rental_uris": {"ios": "https://dc.lft.to/lastmile_qr_scan", "android": "https://dc.lft.to/lastmile_qr_scan"}}, {"name": "5a6c3b7f8f0e8f8b6d2b2cf3c8760235", "type": "electric_scooter", "lat": 38.937853, "is_reserved": 0, "lon": -77.05997433333333, "fusion_lon": 0.0, "is_disabled": 0, "fusion_lat": 0.0, "bike_id": "5a6c3b7f8f0e8f8b6d2b2cf3c8760235", "rental_uris": {"ios": "https://dc.lft.to/lastmile_qr_scan", "android": "https://dc.lft.to/lastmile_qr_scan"}}, {"name": "179334e510120682c047fc75a7f9b72b", "type": "electric_scooter", "lat": 38.92953333333333, "is_reserved": 0, "lon": -77.03465516666667, "fusion_lon": 0.0, "is_disabled": 0, "fusion_lat": 0.0, "bike_id": "179334e510120682c047fc75a7f9b72b", "rental_uris": {"ios": "https://dc.lft.to/lastmile_qr_scan", "android": "https://dc.lft.to/lastmile_qr_scan"}}, {"name": "734ed8c7f41d5f08cbc4050505411015", "type": "electric_scooter", "lat": 38.87898883333333, "is_reserved": 0, "lon": -77.00714316666667, "fusion_lon": 0.0, "is_disabled": 0, "fusion_lat": 0.0, "bike_id": "734ed8c7f41d5f08cbc4050505411015", "rental_uris": {"ios": "https://dc.lft.to/lastmile_qr_scan", "android": "https://dc.lft.to/lastmile_qr_scan"}}, {"name": "2dc90eeacaad6274bddb9842d36d8074", "type": "electric_bike", "lat": 38.99065866666667, "is_reserved": 0, "lon": -77.10029533333334, "fusion_lon": 0.0, "is_disabled": 0, "fusion_lat": 0.0, "bike_id": "2dc90eeacaad6274bddb9842d36d8074", "rental_uris": {"ios": "https://dc.lft.to/lastmile_qr_scan", "android": "https://dc.lft.to/lastmile_qr_scan"}}, {"name": "9a0a41acd7fdefd1f5d146f7241dcfd1", "type": "electric_scooter", "lat": 38.87648766666667, "is_reserved": 0, "lon": -76.9650705, "fusion_lon": 0.0, "is_disabled": 0, "fusion_lat": 0.0, "bike_id": "9a0a41acd7fdefd1f5d146f7241dcfd1", "rental_uris": {"ios": "https://dc.lft.to/lastmile_qr_scan", "android": "https://dc.lft.to/lastmile_qr_scan"}}, {"name": "b1bbcc84a432787ab51ed4406f053bbe", "type": "electric_scooter", "lat": 38.938402833333335, "is_reserved": 0, "lon": -77.02484866666667, "fusion_lon": 0.0, "is_disabled": 0, "fusion_lat": 0.0, "bike_id": "b1bbcc84a432787ab51ed4406f053bbe", "rental_uris": {"ios": "https://dc.lft.to/lastmile_qr_scan", "android": "https://dc.lft.to/lastmile_qr_scan"}}, {"name": "9ebee3eb7ba03c5735da0815c3e1085f", "type": "electric_scooter", "lat": 38.90674833333333, "is_reserved": 0, "lon": -77.0384885, "fusion_lon": 0.0, "is_disabled": 0, "fusion_lat": 0.0, "bike_id": "9ebee3eb7ba03c5735da0815c3e1085f", "rental_uris": {"ios": "https://dc.lft.to/lastmile_qr_scan", "android": "https://dc.lft.to/lastmile_qr_scan"}}, {"name": "04ed9772fd94189e96339eb269147ed9", "type": "electric_scooter", "lat": 38.917913166666665, "is_reserved": 0, "lon": -77.02713866666667, "fusion_lon": 0.0, "is_disabled": 0, "fusion_lat": 0.0, "bike_id": "04ed9772fd94189e96339eb269147ed9", "rental_uris": {"ios": "https://dc.lft.to/lastmile_qr_scan", "android": "https://dc.lft.to/lastmile_qr_scan"}}, {"name": "3ce6ca042d801c33010fc2815ad29f4f", "type": "electric_scooter", "lat": 38.939522333333336, "is_reserved": 0, "lon": -77.03267066666666, "fusion_lon": 0.0, "is_disabled": 0, "fusion_lat": 0.0, "bike_id": "3ce6ca042d801c33010fc2815ad29f4f", "rental_uris": {"ios": "https://dc.lft.to/lastmile_qr_scan", "android": "https://dc.lft.to/lastmile_qr_scan"}}, {"name": "40f74c89f7ca236d18313dcc794a02c7", "type": "electric_scooter", "lat": 38.9429815, "is_reserved": 0, "lon": -77.02786683333333, "fusion_lon": 0.0, "is_disabled": 0, "fusion_lat": 0.0, "bike_id": "40f74c89f7ca236d18313dcc794a02c7", "rental_uris": {"ios": "https://dc.lft.to/lastmile_qr_scan", "android": "https://dc.lft.to/lastmile_qr_scan"}}, {"name": "e802efd26bbf435f25ed202e0b668a7e", "type": "electric_scooter", "lat": 38.9120425, "is_reserved": 0, "lon": -77.032075, "fusion_lon": 0.0, "is_disabled": 0, "fusion_lat": 0.0, "bike_id": "e802efd26bbf435f25ed202e0b668a7e", "rental_uris": {"ios": "https://dc.lft.to/lastmile_qr_scan", "android": "https://dc.lft.to/lastmile_qr_scan"}}, {"name": "6bcb993367afee4697cbbdbe27190680", "type": "electric_scooter", "lat": 38.9494775, "is_reserved": 0, "lon": -77.0162405, "fusion_lon": 0.0, "is_disabled": 0, "fusion_lat": 0.0, "bike_id": "6bcb993367afee4697cbbdbe27190680", "rental_uris": {"ios": "https://dc.lft.to/lastmile_qr_scan", "android": "https://dc.lft.to/lastmile_qr_scan"}}, {"name": "00e4a2fafc6a0394f53ec660262ecaf4", "type": "electric_scooter", "lat": 38.90310816666667, "is_reserved": 0, "lon": -77.0384775, "fusion_lon": 0.0, "is_disabled": 0, "fusion_lat": 0.0, "bike_id": "00e4a2fafc6a0394f53ec660262ecaf4", "rental_uris": {"ios": "https://dc.lft.to/lastmile_qr_scan", "android": "https://dc.lft.to/lastmile_qr_scan"}}, {"name": "d920118285ba69bddc3824795f035b7f", "type": "electric_scooter", "lat": 38.91760216666667, "is_reserved": 0, "lon": -77.0160765, "fusion_lon": 0.0, "is_disabled": 0, "fusion_lat": 0.0, "bike_id": "d920118285ba69bddc3824795f035b7f", "rental_uris": {"ios": "https://dc.lft.to/lastmile_qr_scan", "android": "https://dc.lft.to/lastmile_qr_scan"}}, {"name": "31670abc1578117bcac3746dd2500cf9", "type": "electric_scooter", "lat": 38.927975833333335, "is_reserved": 0, "lon": -77.04361133333333, "fusion_lon": 0.0, "is_disabled": 0, "fusion_lat": 0.0, "bike_id": "31670abc1578117bcac3746dd2500cf9", "rental_uris": {"ios": "https://dc.lft.to/lastmile_qr_scan", "android": "https://dc.lft.to/lastmile_qr_scan"}}, {"name": "e5f65f7502820a176eadd90226b48e4e", "type": "electric_scooter", "lat": 38.91101033333333, "is_reserved": 0, "lon": -77.0467075, "fusion_lon": 0.0, "is_disabled": 0, "fusion_lat": 0.0, "bike_id": "e5f65f7502820a176eadd90226b48e4e", "rental_uris": {"ios": "https://dc.lft.to/lastmile_qr_scan", "android": "https://dc.lft.to/lastmile_qr_scan"}}, {"name": "df5720bfd4909d8100c1cfc58c2b1b11", "type": "electric_scooter", "lat": 38.9284825, "is_reserved": 0, "lon": -77.054144, "fusion_lon": 0.0, "is_disabled": 0, "fusion_lat": 0.0, "bike_id": "df5720bfd4909d8100c1cfc58c2b1b11", "rental_uris": {"ios": "https://dc.lft.to/lastmile_qr_scan", "android": "https://dc.lft.to/lastmile_qr_scan"}}, {"name": "72dcb779e7eda107802bb2c4140171d2", "type": "electric_scooter", "lat": 38.90830166666667, "is_reserved": 0, "lon": -76.996994, "fusion_lon": 0.0, "is_disabled": 0, "fusion_lat": 0.0, "bike_id": "72dcb779e7eda107802bb2c4140171d2", "rental_uris": {"ios": "https://dc.lft.to/lastmile_qr_scan", "android": "https://dc.lft.to/lastmile_qr_scan"}}, {"name": "1f14180161172349b5fef06fa48d7c75", "type": "electric_scooter", "lat": 38.92017666666667, "is_reserved": 0, "lon": -77.03984933333334, "fusion_lon": 0.0, "is_disabled": 0, "fusion_lat": 0.0, "bike_id": "1f14180161172349b5fef06fa48d7c75", "rental_uris": {"ios": "https://dc.lft.to/lastmile_qr_scan", "android": "https://dc.lft.to/lastmile_qr_scan"}}, {"name": "c863883e9c830c687a73d924781f25a1", "type": "electric_scooter", "lat": 38.88402266666667, "is_reserved": 0, "lon": -77.01966316666666, "fusion_lon": 0.0, "is_disabled": 0, "fusion_lat": 0.0, "bike_id": "c863883e9c830c687a73d924781f25a1", "rental_uris": {"ios": "https://dc.lft.to/lastmile_qr_scan", "android": "https://dc.lft.to/lastmile_qr_scan"}}, {"name": "33ae5e2aace6b422e4002d5d9977256f", "type": "electric_scooter", "lat": 38.9100945, "is_reserved": 0, "lon": -77.04425483333333, "fusion_lon": 0.0, "is_disabled": 0, "fusion_lat": 0.0, "bike_id": "33ae5e2aace6b422e4002d5d9977256f", "rental_uris": {"ios": "https://dc.lft.to/lastmile_qr_scan", "android": "https://dc.lft.to/lastmile_qr_scan"}}, {"name": "879688d25be3cd39de92edd22a59d20c", "type": "electric_scooter", "lat": 38.876741333333335, "is_reserved": 0, "lon": -77.00082866666666, "fusion_lon": 0.0, "is_disabled": 0, "fusion_lat": 0.0, "bike_id": "879688d25be3cd39de92edd22a59d20c", "rental_uris": {"ios": "https://dc.lft.to/lastmile_qr_scan", "android": "https://dc.lft.to/lastmile_qr_scan"}}, {"name": "5049ff594113d9310e0a1c7f896515d2", "type": "electric_scooter", "lat": 38.8921805, "is_reserved": 0, "lon": -77.02146616666667, "fusion_lon": 0.0, "is_disabled": 0, "fusion_lat": 0.0, "bike_id": "5049ff594113d9310e0a1c7f896515d2", "rental_uris": {"ios": "https://dc.lft.to/lastmile_qr_scan", "android": "https://dc.lft.to/lastmile_qr_scan"}}, {"name": "73fdbe1d0191c7c9a0f36e379f6a3b6c", "type": "electric_scooter", "lat": 38.89130566666667, "is_reserved": 0, "lon": -77.003358, "fusion_lon": 0.0, "is_disabled": 0, "fusion_lat": 0.0, "bike_id": "73fdbe1d0191c7c9a0f36e379f6a3b6c", "rental_uris": {"ios": "https://dc.lft.to/lastmile_qr_scan", "android": "https://dc.lft.to/lastmile_qr_scan"}}, {"name": "93aa009a181820d5d833710c1a946b7a", "type": "electric_scooter", "lat": 38.895763333333335, "is_reserved": 0, "lon": -77.02559666666667, "fusion_lon": 0.0, "is_disabled": 0, "fusion_lat": 0.0, "bike_id": "93aa009a181820d5d833710c1a946b7a", "rental_uris": {"ios": "https://dc.lft.to/lastmile_qr_scan", "android": "https://dc.lft.to/lastmile_qr_scan"}}, {"name": "46287f08df80d472a1a759c39bd540d3", "type": "electric_scooter", "lat": 38.9036995, "is_reserved": 0, "lon": -77.05080033333333, "fusion_lon": 0.0, "is_disabled": 0, "fusion_lat": 0.0, "bike_id": "46287f08df80d472a1a759c39bd540d3", "rental_uris": {"ios": "https://dc.lft.to/lastmile_qr_scan", "android": "https://dc.lft.to/lastmile_qr_scan"}}, {"name": "05c2e962ed1248845097850f0912bdd5", "type": "electric_bike", "lat": 39.0304895, "is_reserved": 0, "lon": -77.09482666666666, "fusion_lon": 0.0, "is_disabled": 0, "fusion_lat": 0.0, "bike_id": "05c2e962ed1248845097850f0912bdd5", "rental_uris": {"ios": "https://dc.lft.to/lastmile_qr_scan", "android": "https://dc.lft.to/lastmile_qr_scan"}}, {"name": "5b24b4fd52a0f806f94e2ae7bf784d89", "type": "electric_scooter", "lat": 38.906732166666664, "is_reserved": 0, "lon": -77.027183, "fusion_lon": 0.0, "is_disabled": 0, "fusion_lat": 0.0, "bike_id": "5b24b4fd52a0f806f94e2ae7bf784d89", "rental_uris": {"ios": "https://dc.lft.to/lastmile_qr_scan", "android": "https://dc.lft.to/lastmile_qr_scan"}}, {"name": "315810259ec24512479b803114c471e5", "type": "electric_scooter", "lat": 38.918086833333334, "is_reserved": 0, "lon": -77.00169383333333, "fusion_lon": 0.0, "is_disabled": 0, "fusion_lat": 0.0, "bike_id": "315810259ec24512479b803114c471e5", "rental_uris": {"ios": "https://dc.lft.to/lastmile_qr_scan", "android": "https://dc.lft.to/lastmile_qr_scan"}}, {"name": "7e45666871bd4fe15f96650e1ca2d6d6", "type": "electric_scooter", "lat": 38.913225833333335, "is_reserved": 0, "lon": -77.01968133333334, "fusion_lon": 0.0, "is_disabled": 0, "fusion_lat": 0.0, "bike_id": "7e45666871bd4fe15f96650e1ca2d6d6", "rental_uris": {"ios": "https://dc.lft.to/lastmile_qr_scan", "android": "https://dc.lft.to/lastmile_qr_scan"}}, {"name": "107b6af45801fcfe1361656a63fa64b6", "type": "electric_scooter", "lat": 38.90770883333333, "is_reserved": 0, "lon": -77.02969833333333, "fusion_lon": 0.0, "is_disabled": 0, "fusion_lat": 0.0, "bike_id": "107b6af45801fcfe1361656a63fa64b6", "rental_uris": {"ios": "https://dc.lft.to/lastmile_qr_scan", "android": "https://dc.lft.to/lastmile_qr_scan"}}, {"name": "48a4ee9980b7dd9e879a7c00249f35a7", "type": "electric_scooter", "lat": 38.89363983333333, "is_reserved": 0, "lon": -77.01971916666666, "fusion_lon": 0.0, "is_disabled": 0, "fusion_lat": 0.0, "bike_id": "48a4ee9980b7dd9e879a7c00249f35a7", "rental_uris": {"ios": "https://dc.lft.to/lastmile_qr_scan", "android": "https://dc.lft.to/lastmile_qr_scan"}}, {"name": "630f17de69df4baea98f362dbe23beb7", "type": "electric_scooter", "lat": 38.907198, "is_reserved": 0, "lon": -77.040117, "fusion_lon": 0.0, "is_disabled": 0, "fusion_lat": 0.0, "bike_id": "630f17de69df4baea98f362dbe23beb7", "rental_uris": {"ios": "https://dc.lft.to/lastmile_qr_scan", "android": "https://dc.lft.to/lastmile_qr_scan"}}, {"name": "c83db117e954e22ce12eb9bfda70468c", "type": "electric_scooter", "lat": 38.89765766666667, "is_reserved": 0, "lon": -76.9772495, "fusion_lon": 0.0, "is_disabled": 0, "fusion_lat": 0.0, "bike_id": "c83db117e954e22ce12eb9bfda70468c", "rental_uris": {"ios": "https://dc.lft.to/lastmile_qr_scan", "android": "https://dc.lft.to/lastmile_qr_scan"}}, {"name": "21f0fb48ada4ed0d7a7622c82d5ee62c", "type": "electric_scooter", "lat": 38.94053816666667, "is_reserved": 0, "lon": -77.03287333333333, "fusion_lon": 0.0, "is_disabled": 0, "fusion_lat": 0.0, "bike_id": "21f0fb48ada4ed0d7a7622c82d5ee62c", "rental_uris": {"ios": "https://dc.lft.to/lastmile_qr_scan", "android": "https://dc.lft.to/lastmile_qr_scan"}}, {"name": "4a0cc21b1b6e050f33ea9b0ff296b496", "type": "electric_bike", "lat": 38.911391333333334, "is_reserved": 0, "lon": -77.02688033333334, "fusion_lon": 0.0, "is_disabled": 0, "fusion_lat": 0.0, "bike_id": "4a0cc21b1b6e050f33ea9b0ff296b496", "rental_uris": {"ios": "https://dc.lft.to/lastmile_qr_scan", "android": "https://dc.lft.to/lastmile_qr_scan"}}, {"name": "40d0b4ddf29baadb6f6094b214dc0cdf", "type": "electric_scooter", "lat": 38.863737, "is_reserved": 0, "lon": -76.99060066666667, "fusion_lon": 0.0, "is_disabled": 0, "fusion_lat": 0.0, "bike_id": "40d0b4ddf29baadb6f6094b214dc0cdf", "rental_uris": {"ios": "https://dc.lft.to/lastmile_qr_scan", "android": "https://dc.lft.to/lastmile_qr_scan"}}, {"name": "1699128ecaa31f249c8d1ae73148269b", "type": "electric_scooter", "lat": 38.942733, "is_reserved": 0, "lon": -77.0325745, "fusion_lon": 0.0, "is_disabled": 0, "fusion_lat": 0.0, "bike_id": "1699128ecaa31f249c8d1ae73148269b", "rental_uris": {"ios": "https://dc.lft.to/lastmile_qr_scan", "android": "https://dc.lft.to/lastmile_qr_scan"}}, {"name": "f83c1119f8a3d31262e06b6393f2d09b", "type": "electric_bike", "lat": 38.8922345, "is_reserved": 0, "lon": -76.970266, "fusion_lon": 0.0, "is_disabled": 0, "fusion_lat": 0.0, "bike_id": "f83c1119f8a3d31262e06b6393f2d09b", "rental_uris": {"ios": "https://dc.lft.to/lastmile_qr_scan", "android": "https://dc.lft.to/lastmile_qr_scan"}}, {"name": "2f0361e079f5082e8b712e91d72dbb45", "type": "electric_bike", "lat": 38.854034666666664, "is_reserved": 0, "lon": -77.11823416666667, "fusion_lon": 0.0, "is_disabled": 0, "fusion_lat": 0.0, "bike_id": "2f0361e079f5082e8b712e91d72dbb45", "rental_uris": {"ios": "https://dc.lft.to/lastmile_qr_scan", "android": "https://dc.lft.to/lastmile_qr_scan"}}, {"name": "2828cedc960ab39d8422033a651ea069", "type": "electric_scooter", "lat": 38.94438916666667, "is_reserved": 0, "lon": -77.063517, "fusion_lon": 0.0, "is_disabled": 0, "fusion_lat": 0.0, "bike_id": "2828cedc960ab39d8422033a651ea069", "rental_uris": {"ios": "https://dc.lft.to/lastmile_qr_scan", "android": "https://dc.lft.to/lastmile_qr_scan"}}, {"name": "5568df80b816697dccd23794cffbc116", "type": "electric_scooter", "lat": 38.90269966666666, "is_reserved": 0, "lon": -76.93632716666667, "fusion_lon": 0.0, "is_disabled": 0, "fusion_lat": 0.0, "bike_id": "5568df80b816697dccd23794cffbc116", "rental_uris": {"ios": "https://dc.lft.to/lastmile_qr_scan", "android": "https://dc.lft.to/lastmile_qr_scan"}}, {"name": "d66105462cca21c95b5425209c571f28", "type": "electric_scooter", "lat": 38.92769083333334, "is_reserved": 0, "lon": -77.02708866666667, "fusion_lon": 0.0, "is_disabled": 0, "fusion_lat": 0.0, "bike_id": "d66105462cca21c95b5425209c571f28", "rental_uris": {"ios": "https://dc.lft.to/lastmile_qr_scan", "android": "https://dc.lft.to/lastmile_qr_scan"}}, {"name": "497e07321abfbb3388c755f057c66973", "type": "electric_scooter", "lat": 38.93171016666667, "is_reserved": 0, "lon": -77.03636383333334, "fusion_lon": 0.0, "is_disabled": 0, "fusion_lat": 0.0, "bike_id": "497e07321abfbb3388c755f057c66973", "rental_uris": {"ios": "https://dc.lft.to/lastmile_qr_scan", "android": "https://dc.lft.to/lastmile_qr_scan"}}, {"name": "decac3cd56c611294b8f84570d0c3b8f", "type": "electric_scooter", "lat": 38.911877, "is_reserved": 0, "lon": -76.99624533333333, "fusion_lon": 0.0, "is_disabled": 0, "fusion_lat": 0.0, "bike_id": "decac3cd56c611294b8f84570d0c3b8f", "rental_uris": {"ios": "https://dc.lft.to/lastmile_qr_scan", "android": "https://dc.lft.to/lastmile_qr_scan"}}, {"name": "100cdeb1a50192706c795bd1eee57a6e", "type": "electric_scooter", "lat": 38.96115316666667, "is_reserved": 0, "lon": -77.028135, "fusion_lon": 0.0, "is_disabled": 0, "fusion_lat": 0.0, "bike_id": "100cdeb1a50192706c795bd1eee57a6e", "rental_uris": {"ios": "https://dc.lft.to/lastmile_qr_scan", "android": "https://dc.lft.to/lastmile_qr_scan"}}, {"name": "a081a06bde2273f1a205cfdb4e6ba4da", "type": "electric_scooter", "lat": 38.89222766666666, "is_reserved": 0, "lon": -77.042646, "fusion_lon": 0.0, "is_disabled": 0, "fusion_lat": 0.0, "bike_id": "a081a06bde2273f1a205cfdb4e6ba4da", "rental_uris": {"ios": "https://dc.lft.to/lastmile_qr_scan", "android": "https://dc.lft.to/lastmile_qr_scan"}}, {"name": "f3723e704afc18315ab0a26b61be55a5", "type": "electric_scooter", "lat": 38.91439916666667, "is_reserved": 0, "lon": -77.0220285, "fusion_lon": 0.0, "is_disabled": 0, "fusion_lat": 0.0, "bike_id": "f3723e704afc18315ab0a26b61be55a5", "rental_uris": {"ios": "https://dc.lft.to/lastmile_qr_scan", "android": "https://dc.lft.to/lastmile_qr_scan"}}, {"name": "289ed8c37be0f2073c446842919188e2", "type": "electric_scooter", "lat": 38.92149833333333, "is_reserved": 0, "lon": -77.035077, "fusion_lon": 0.0, "is_disabled": 0, "fusion_lat": 0.0, "bike_id": "289ed8c37be0f2073c446842919188e2", "rental_uris": {"ios": "https://dc.lft.to/lastmile_qr_scan", "android": "https://dc.lft.to/lastmile_qr_scan"}}, {"name": "d114058751142dbde1f2b92bc4ee669e", "type": "electric_scooter", "lat": 38.923399333333336, "is_reserved": 0, "lon": -77.035362, "fusion_lon": 0.0, "is_disabled": 0, "fusion_lat": 0.0, "bike_id": "d114058751142dbde1f2b92bc4ee669e", "rental_uris": {"ios": "https://dc.lft.to/lastmile_qr_scan", "android": "https://dc.lft.to/lastmile_qr_scan"}}, {"name": "bdf2ff460bf005651812a3be7d782f01", "type": "electric_scooter", "lat": 38.90033066666667, "is_reserved": 0, "lon": -77.0022175, "fusion_lon": 0.0, "is_disabled": 0, "fusion_lat": 0.0, "bike_id": "bdf2ff460bf005651812a3be7d782f01", "rental_uris": {"ios": "https://dc.lft.to/lastmile_qr_scan", "android": "https://dc.lft.to/lastmile_qr_scan"}}, {"name": "8accb4cc8ab396b8deb3b5d89fcd069b", "type": "electric_scooter", "lat": 38.90678883333333, "is_reserved": 0, "lon": -77.036656, "fusion_lon": 0.0, "is_disabled": 0, "fusion_lat": 0.0, "bike_id": "8accb4cc8ab396b8deb3b5d89fcd069b", "rental_uris": {"ios": "https://dc.lft.to/lastmile_qr_scan", "android": "https://dc.lft.to/lastmile_qr_scan"}}, {"name": "74de1db08ffdeae2ad709bd23d9a9470", "type": "electric_scooter", "lat": 38.88569, "is_reserved": 0, "lon": -77.005792, "fusion_lon": 0.0, "is_disabled": 0, "fusion_lat": 0.0, "bike_id": "74de1db08ffdeae2ad709bd23d9a9470", "rental_uris": {"ios": "https://dc.lft.to/lastmile_qr_scan", "android": "https://dc.lft.to/lastmile_qr_scan"}}, {"name": "fb14257408c2823c6a103487875a069c", "type": "electric_scooter", "lat": 38.88744466666667, "is_reserved": 0, "lon": -77.02574933333334, "fusion_lon": 0.0, "is_disabled": 0, "fusion_lat": 0.0, "bike_id": "fb14257408c2823c6a103487875a069c", "rental_uris": {"ios": "https://dc.lft.to/lastmile_qr_scan", "android": "https://dc.lft.to/lastmile_qr_scan"}}, {"name": "b62955347e80278b3743a89c2184361d", "type": "electric_scooter", "lat": 38.90257233333333, "is_reserved": 0, "lon": -77.02639, "fusion_lon": 0.0, "is_disabled": 0, "fusion_lat": 0.0, "bike_id": "b62955347e80278b3743a89c2184361d", "rental_uris": {"ios": "https://dc.lft.to/lastmile_qr_scan", "android": "https://dc.lft.to/lastmile_qr_scan"}}, {"name": "0d383431f4e24013c6fdd17e1e16822d", "type": "electric_scooter", "lat": 38.958267666666664, "is_reserved": 0, "lon": -77.029363, "fusion_lon": 0.0, "is_disabled": 0, "fusion_lat": 0.0, "bike_id": "0d383431f4e24013c6fdd17e1e16822d", "rental_uris": {"ios": "https://dc.lft.to/lastmile_qr_scan", "android": "https://dc.lft.to/lastmile_qr_scan"}}, {"name": "2316630f45bf780d122b575d7b23bd08", "type": "electric_scooter", "lat": 38.933733333333336, "is_reserved": 0, "lon": -77.03467016666667, "fusion_lon": 0.0, "is_disabled": 0, "fusion_lat": 0.0, "bike_id": "2316630f45bf780d122b575d7b23bd08", "rental_uris": {"ios": "https://dc.lft.to/lastmile_qr_scan", "android": "https://dc.lft.to/lastmile_qr_scan"}}, {"name": "436b4c9faf798105a754a46c068b6dad", "type": "electric_scooter", "lat": 38.90061683333333, "is_reserved": 0, "lon": -77.045351, "fusion_lon": 0.0, "is_disabled": 0, "fusion_lat": 0.0, "bike_id": "436b4c9faf798105a754a46c068b6dad", "rental_uris": {"ios": "https://dc.lft.to/lastmile_qr_scan", "android": "https://dc.lft.to/lastmile_qr_scan"}}, {"name": "e802a745cf452360e958e65e72bfa310", "type": "electric_bike", "lat": 38.94831516666667, "is_reserved": 0, "lon": -77.0390095, "fusion_lon": 0.0, "is_disabled": 0, "fusion_lat": 0.0, "bike_id": "e802a745cf452360e958e65e72bfa310", "rental_uris": {"ios": "https://dc.lft.to/lastmile_qr_scan", "android": "https://dc.lft.to/lastmile_qr_scan"}}, {"name": "29f60207f6ce00bd1c1d9dd7bc984a4c", "type": "electric_scooter", "lat": 38.9341365, "is_reserved": 0, "lon": -77.07244533333333, "fusion_lon": 0.0, "is_disabled": 0, "fusion_lat": 0.0, "bike_id": "29f60207f6ce00bd1c1d9dd7bc984a4c", "rental_uris": {"ios": "https://dc.lft.to/lastmile_qr_scan", "android": "https://dc.lft.to/lastmile_qr_scan"}}, {"name": "0001a13fa51bdfaeec04111b3060c1d7", "type": "electric_scooter", "lat": 38.92403316666667, "is_reserved": 0, "lon": -77.02545116666667, "fusion_lon": 0.0, "is_disabled": 0, "fusion_lat": 0.0, "bike_id": "0001a13fa51bdfaeec04111b3060c1d7", "rental_uris": {"ios": "https://dc.lft.to/lastmile_qr_scan", "android": "https://dc.lft.to/lastmile_qr_scan"}}, {"name": "b0064c2043a57004ce3792b429b3f30d", "type": "electric_scooter", "lat": 38.894733333333335, "is_reserved": 0, "lon": -77.03067666666666, "fusion_lon": 0.0, "is_disabled": 0, "fusion_lat": 0.0, "bike_id": "b0064c2043a57004ce3792b429b3f30d", "rental_uris": {"ios": "https://dc.lft.to/lastmile_qr_scan", "android": "https://dc.lft.to/lastmile_qr_scan"}}, {"name": "f6f41fd8a078bcc93187c1f0d2abee37", "type": "electric_scooter", "lat": 38.92540233333333, "is_reserved": 0, "lon": -77.0405795, "fusion_lon": 0.0, "is_disabled": 0, "fusion_lat": 0.0, "bike_id": "f6f41fd8a078bcc93187c1f0d2abee37", "rental_uris": {"ios": "https://dc.lft.to/lastmile_qr_scan", "android": "https://dc.lft.to/lastmile_qr_scan"}}, {"name": "1400199b2e692250f65f13270dda03ff", "type": "electric_scooter", "lat": 38.894903, "is_reserved": 0, "lon": -77.0101665, "fusion_lon": 0.0, "is_disabled": 0, "fusion_lat": 0.0, "bike_id": "1400199b2e692250f65f13270dda03ff", "rental_uris": {"ios": "https://dc.lft.to/lastmile_qr_scan", "android": "https://dc.lft.to/lastmile_qr_scan"}}, {"name": "dbc2045921d6b1d31b84374a59cbe817", "type": "electric_bike", "lat": 38.886154833333336, "is_reserved": 0, "lon": -77.10756066666667, "fusion_lon": 0.0, "is_disabled": 0, "fusion_lat": 0.0, "bike_id": "dbc2045921d6b1d31b84374a59cbe817", "rental_uris": {"ios": "https://dc.lft.to/lastmile_qr_scan", "android": "https://dc.lft.to/lastmile_qr_scan"}}, {"name": "ce9fbc92dde97830243089ade048a4db", "type": "electric_scooter", "lat": 38.90310016666667, "is_reserved": 0, "lon": -77.04987133333333, "fusion_lon": 0.0, "is_disabled": 0, "fusion_lat": 0.0, "bike_id": "ce9fbc92dde97830243089ade048a4db", "rental_uris": {"ios": "https://dc.lft.to/lastmile_qr_scan", "android": "https://dc.lft.to/lastmile_qr_scan"}}, {"name": "d27a2bcaff004fc88118e290384e9d63", "type": "electric_scooter", "lat": 38.90980883333334, "is_reserved": 0, "lon": -77.0330235, "fusion_lon": 0.0, "is_disabled": 0, "fusion_lat": 0.0, "bike_id": "d27a2bcaff004fc88118e290384e9d63", "rental_uris": {"ios": "https://dc.lft.to/lastmile_qr_scan", "android": "https://dc.lft.to/lastmile_qr_scan"}}, {"name": "2f7dd1fb46ff92df682360e394cf024b", "type": "electric_bike", "lat": 38.92210433333333, "is_reserved": 0, "lon": -76.98800283333334, "fusion_lon": 0.0, "is_disabled": 0, "fusion_lat": 0.0, "bike_id": "2f7dd1fb46ff92df682360e394cf024b", "rental_uris": {"ios": "https://dc.lft.to/lastmile_qr_scan", "android": "https://dc.lft.to/lastmile_qr_scan"}}, {"name": "a1637f7e0ba7d71cce7c6e34cd6e875c", "type": "electric_scooter", "lat": 38.902772, "is_reserved": 0, "lon": -77.03852383333333, "fusion_lon": 0.0, "is_disabled": 0, "fusion_lat": 0.0, "bike_id": "a1637f7e0ba7d71cce7c6e34cd6e875c", "rental_uris": {"ios": "https://dc.lft.to/lastmile_qr_scan", "android": "https://dc.lft.to/lastmile_qr_scan"}}, {"name": "bf530f4061a02effa8955d85a74ff5ee", "type": "electric_scooter", "lat": 38.887533166666664, "is_reserved": 0, "lon": -76.97984683333334, "fusion_lon": 0.0, "is_disabled": 0, "fusion_lat": 0.0, "bike_id": "bf530f4061a02effa8955d85a74ff5ee", "rental_uris": {"ios": "https://dc.lft.to/lastmile_qr_scan", "android": "https://dc.lft.to/lastmile_qr_scan"}}, {"name": "11b87fa1ab0591fa90638fc50386b0ae", "type": "electric_scooter", "lat": 38.93894566666667, "is_reserved": 0, "lon": -77.024647, "fusion_lon": 0.0, "is_disabled": 0, "fusion_lat": 0.0, "bike_id": "11b87fa1ab0591fa90638fc50386b0ae", "rental_uris": {"ios": "https://dc.lft.to/lastmile_qr_scan", "android": "https://dc.lft.to/lastmile_qr_scan"}}, {"name": "bb9ee9b0c83fae0ffb1d3b31659a0a0c", "type": "electric_scooter", "lat": 38.919178333333335, "is_reserved": 0, "lon": -77.0339115, "fusion_lon": 0.0, "is_disabled": 0, "fusion_lat": 0.0, "bike_id": "bb9ee9b0c83fae0ffb1d3b31659a0a0c", "rental_uris": {"ios": "https://dc.lft.to/lastmile_qr_scan", "android": "https://dc.lft.to/lastmile_qr_scan"}}, {"name": "3ccb9e8d2bcf4091991da8fa79eb4997", "type": "electric_scooter", "lat": 38.91914583333333, "is_reserved": 0, "lon": -77.02619716666666, "fusion_lon": 0.0, "is_disabled": 0, "fusion_lat": 0.0, "bike_id": "3ccb9e8d2bcf4091991da8fa79eb4997", "rental_uris": {"ios": "https://dc.lft.to/lastmile_qr_scan", "android": "https://dc.lft.to/lastmile_qr_scan"}}, {"name": "b5f40965810ec951d48fec316a7731c0", "type": "electric_scooter", "lat": 38.89618733333333, "is_reserved": 0, "lon": -77.0322615, "fusion_lon": 0.0, "is_disabled": 0, "fusion_lat": 0.0, "bike_id": "b5f40965810ec951d48fec316a7731c0", "rental_uris": {"ios": "https://dc.lft.to/lastmile_qr_scan", "android": "https://dc.lft.to/lastmile_qr_scan"}}, {"name": "bb9060707d56e75f5299246482b3df90", "type": "electric_scooter", "lat": 38.903846, "is_reserved": 0, "lon": -77.03192616666666, "fusion_lon": 0.0, "is_disabled": 0, "fusion_lat": 0.0, "bike_id": "bb9060707d56e75f5299246482b3df90", "rental_uris": {"ios": "https://dc.lft.to/lastmile_qr_scan", "android": "https://dc.lft.to/lastmile_qr_scan"}}, {"name": "ea9e0f52e1166bad7fb667a4d12e7dce", "type": "electric_scooter", "lat": 38.88390716666667, "is_reserved": 0, "lon": -76.93043516666667, "fusion_lon": 0.0, "is_disabled": 0, "fusion_lat": 0.0, "bike_id": "ea9e0f52e1166bad7fb667a4d12e7dce", "rental_uris": {"ios": "https://dc.lft.to/lastmile_qr_scan", "android": "https://dc.lft.to/lastmile_qr_scan"}}, {"name": "9ff16ee5b087134504ad0b1ea11d311b", "type": "electric_scooter", "lat": 38.90568966666667, "is_reserved": 0, "lon": -77.02494533333333, "fusion_lon": 0.0, "is_disabled": 0, "fusion_lat": 0.0, "bike_id": "9ff16ee5b087134504ad0b1ea11d311b", "rental_uris": {"ios": "https://dc.lft.to/lastmile_qr_scan", "android": "https://dc.lft.to/lastmile_qr_scan"}}, {"name": "d09d8512010999282784deca1812284b", "type": "electric_scooter", "lat": 38.92031566666667, "is_reserved": 0, "lon": -77.01116616666667, "fusion_lon": 0.0, "is_disabled": 0, "fusion_lat": 0.0, "bike_id": "d09d8512010999282784deca1812284b", "rental_uris": {"ios": "https://dc.lft.to/lastmile_qr_scan", "android": "https://dc.lft.to/lastmile_qr_scan"}}, {"name": "364f4a273ebe1297aee7af8e061d2332", "type": "electric_scooter", "lat": 38.89732566666667, "is_reserved": 0, "lon": -76.94719116666667, "fusion_lon": 0.0, "is_disabled": 0, "fusion_lat": 0.0, "bike_id": "364f4a273ebe1297aee7af8e061d2332", "rental_uris": {"ios": "https://dc.lft.to/lastmile_qr_scan", "android": "https://dc.lft.to/lastmile_qr_scan"}}, {"name": "2e4160a34e48d3b757541aa0a81ff917", "type": "electric_scooter", "lat": 38.905441333333336, "is_reserved": 0, "lon": -77.0503325, "fusion_lon": 0.0, "is_disabled": 0, "fusion_lat": 0.0, "bike_id": "2e4160a34e48d3b757541aa0a81ff917", "rental_uris": {"ios": "https://dc.lft.to/lastmile_qr_scan", "android": "https://dc.lft.to/lastmile_qr_scan"}}, {"name": "5779e7b1fd39be051a856ecb997019af", "type": "electric_scooter", "lat": 38.9024135, "is_reserved": 0, "lon": -77.03171716666667, "fusion_lon": 0.0, "is_disabled": 0, "fusion_lat": 0.0, "bike_id": "5779e7b1fd39be051a856ecb997019af", "rental_uris": {"ios": "https://dc.lft.to/lastmile_qr_scan", "android": "https://dc.lft.to/lastmile_qr_scan"}}, {"name": "227f70cc01400cbb6dcd5a6df3c58f63", "type": "electric_scooter", "lat": 38.921486333333334, "is_reserved": 0, "lon": -77.03509116666666, "fusion_lon": 0.0, "is_disabled": 0, "fusion_lat": 0.0, "bike_id": "227f70cc01400cbb6dcd5a6df3c58f63", "rental_uris": {"ios": "https://dc.lft.to/lastmile_qr_scan", "android": "https://dc.lft.to/lastmile_qr_scan"}}, {"name": "e307b59f346f19f932154ad7f1f08b9e", "type": "electric_scooter", "lat": 38.91214883333333, "is_reserved": 0, "lon": -77.07604133333334, "fusion_lon": 0.0, "is_disabled": 0, "fusion_lat": 0.0, "bike_id": "e307b59f346f19f932154ad7f1f08b9e", "rental_uris": {"ios": "https://dc.lft.to/lastmile_qr_scan", "android": "https://dc.lft.to/lastmile_qr_scan"}}, {"name": "a19d1d9e93d81e2a56c28060743df323", "type": "electric_scooter", "lat": 38.90572866666667, "is_reserved": 0, "lon": -77.057163, "fusion_lon": 0.0, "is_disabled": 0, "fusion_lat": 0.0, "bike_id": "a19d1d9e93d81e2a56c28060743df323", "rental_uris": {"ios": "https://dc.lft.to/lastmile_qr_scan", "android": "https://dc.lft.to/lastmile_qr_scan"}}, {"name": "2b8090160f05335d2d79527821db152a", "type": "electric_scooter", "lat": 38.97473333333333, "is_reserved": 0, "lon": -77.019014, "fusion_lon": 0.0, "is_disabled": 0, "fusion_lat": 0.0, "bike_id": "2b8090160f05335d2d79527821db152a", "rental_uris": {"ios": "https://dc.lft.to/lastmile_qr_scan", "android": "https://dc.lft.to/lastmile_qr_scan"}}, {"name": "4526e3bf67539b8a3465fd520c6e72b1", "type": "electric_scooter", "lat": 38.944503166666664, "is_reserved": 0, "lon": -77.06350216666667, "fusion_lon": 0.0, "is_disabled": 0, "fusion_lat": 0.0, "bike_id": "4526e3bf67539b8a3465fd520c6e72b1", "rental_uris": {"ios": "https://dc.lft.to/lastmile_qr_scan", "android": "https://dc.lft.to/lastmile_qr_scan"}}, {"name": "3a9c89074a0552d3094b42213f0e68e3", "type": "electric_scooter", "lat": 38.842921833333335, "is_reserved": 0, "lon": -76.99944166666667, "fusion_lon": 0.0, "is_disabled": 0, "fusion_lat": 0.0, "bike_id": "3a9c89074a0552d3094b42213f0e68e3", "rental_uris": {"ios": "https://dc.lft.to/lastmile_qr_scan", "android": "https://dc.lft.to/lastmile_qr_scan"}}, {"name": "7705bce1633668a8ad3acc19dfc82977", "type": "electric_scooter", "lat": 38.90147133333333, "is_reserved": 0, "lon": -77.04443783333333, "fusion_lon": 0.0, "is_disabled": 0, "fusion_lat": 0.0, "bike_id": "7705bce1633668a8ad3acc19dfc82977", "rental_uris": {"ios": "https://dc.lft.to/lastmile_qr_scan", "android": "https://dc.lft.to/lastmile_qr_scan"}}, {"name": "205716a3a6c3d82a220bfcc875964fa9", "type": "electric_scooter", "lat": 38.91929666666667, "is_reserved": 0, "lon": -77.0318265, "fusion_lon": 0.0, "is_disabled": 0, "fusion_lat": 0.0, "bike_id": "205716a3a6c3d82a220bfcc875964fa9", "rental_uris": {"ios": "https://dc.lft.to/lastmile_qr_scan", "android": "https://dc.lft.to/lastmile_qr_scan"}}, {"name": "2afd5a3448e1020dc289b1f6af0fba61", "type": "electric_scooter", "lat": 38.89106733333333, "is_reserved": 0, "lon": -76.98704833333333, "fusion_lon": 0.0, "is_disabled": 0, "fusion_lat": 0.0, "bike_id": "2afd5a3448e1020dc289b1f6af0fba61", "rental_uris": {"ios": "https://dc.lft.to/lastmile_qr_scan", "android": "https://dc.lft.to/lastmile_qr_scan"}}, {"name": "501e6994d57544a1792dcf5e8b0a0db9", "type": "electric_scooter", "lat": 38.93256983333333, "is_reserved": 0, "lon": -77.03997083333333, "fusion_lon": 0.0, "is_disabled": 0, "fusion_lat": 0.0, "bike_id": "501e6994d57544a1792dcf5e8b0a0db9", "rental_uris": {"ios": "https://dc.lft.to/lastmile_qr_scan", "android": "https://dc.lft.to/lastmile_qr_scan"}}, {"name": "12fbad98594ba00294646b75f2f96ca6", "type": "electric_scooter", "lat": 38.905599, "is_reserved": 0, "lon": -77.00595483333333, "fusion_lon": 0.0, "is_disabled": 0, "fusion_lat": 0.0, "bike_id": "12fbad98594ba00294646b75f2f96ca6", "rental_uris": {"ios": "https://dc.lft.to/lastmile_qr_scan", "android": "https://dc.lft.to/lastmile_qr_scan"}}, {"name": "b1cf949885f258476549baf532df83a6", "type": "electric_scooter", "lat": 38.904597, "is_reserved": 0, "lon": -77.03551683333333, "fusion_lon": 0.0, "is_disabled": 0, "fusion_lat": 0.0, "bike_id": "b1cf949885f258476549baf532df83a6", "rental_uris": {"ios": "https://dc.lft.to/lastmile_qr_scan", "android": "https://dc.lft.to/lastmile_qr_scan"}}, {"name": "45d27c3e23d0566b63335b91f2ce8a8c", "type": "electric_scooter", "lat": 38.902431166666666, "is_reserved": 0, "lon": -77.00201816666667, "fusion_lon": 0.0, "is_disabled": 0, "fusion_lat": 0.0, "bike_id": "45d27c3e23d0566b63335b91f2ce8a8c", "rental_uris": {"ios": "https://dc.lft.to/lastmile_qr_scan", "android": "https://dc.lft.to/lastmile_qr_scan"}}, {"name": "6cc12804519275e3033e4e3e598d434b", "type": "electric_scooter", "lat": 38.904459333333335, "is_reserved": 0, "lon": -77.05153366666667, "fusion_lon": 0.0, "is_disabled": 0, "fusion_lat": 0.0, "bike_id": "6cc12804519275e3033e4e3e598d434b", "rental_uris": {"ios": "https://dc.lft.to/lastmile_qr_scan", "android": "https://dc.lft.to/lastmile_qr_scan"}}, {"name": "8e5545ec775b6429f1b41b2025ed61a2", "type": "electric_bike", "lat": 38.93689333333333, "is_reserved": 0, "lon": -77.05647683333333, "fusion_lon": 0.0, "is_disabled": 0, "fusion_lat": 0.0, "bike_id": "8e5545ec775b6429f1b41b2025ed61a2", "rental_uris": {"ios": "https://dc.lft.to/lastmile_qr_scan", "android": "https://dc.lft.to/lastmile_qr_scan"}}, {"name": "565d1c9439d1c31219a2cb334d8be2a2", "type": "electric_scooter", "lat": 38.902707666666664, "is_reserved": 0, "lon": -77.03460766666667, "fusion_lon": 0.0, "is_disabled": 0, "fusion_lat": 0.0, "bike_id": "565d1c9439d1c31219a2cb334d8be2a2", "rental_uris": {"ios": "https://dc.lft.to/lastmile_qr_scan", "android": "https://dc.lft.to/lastmile_qr_scan"}}, {"name": "92b0b566640c1191b1cb500872520fa8", "type": "electric_scooter", "lat": 38.86218316666667, "is_reserved": 0, "lon": -76.99492233333334, "fusion_lon": 0.0, "is_disabled": 0, "fusion_lat": 0.0, "bike_id": "92b0b566640c1191b1cb500872520fa8", "rental_uris": {"ios": "https://dc.lft.to/lastmile_qr_scan", "android": "https://dc.lft.to/lastmile_qr_scan"}}, {"name": "10f4a5bc41e3a0db68469ec490e50556", "type": "electric_scooter", "lat": 38.906234833333336, "is_reserved": 0, "lon": -76.9831525, "fusion_lon": 0.0, "is_disabled": 0, "fusion_lat": 0.0, "bike_id": "10f4a5bc41e3a0db68469ec490e50556", "rental_uris": {"ios": "https://dc.lft.to/lastmile_qr_scan", "android": "https://dc.lft.to/lastmile_qr_scan"}}, {"name": "003957954fd607258ddb678ae943cb47", "type": "electric_scooter", "lat": 38.90677266666667, "is_reserved": 0, "lon": -77.07537316666667, "fusion_lon": 0.0, "is_disabled": 0, "fusion_lat": 0.0, "bike_id": "003957954fd607258ddb678ae943cb47", "rental_uris": {"ios": "https://dc.lft.to/lastmile_qr_scan", "android": "https://dc.lft.to/lastmile_qr_scan"}}, {"name": "dbced88f9f6cd69020846019cfaa7567", "type": "electric_scooter", "lat": 38.8836335, "is_reserved": 0, "lon": -77.031763, "fusion_lon": 0.0, "is_disabled": 0, "fusion_lat": 0.0, "bike_id": "dbced88f9f6cd69020846019cfaa7567", "rental_uris": {"ios": "https://dc.lft.to/lastmile_qr_scan", "android": "https://dc.lft.to/lastmile_qr_scan"}}, {"name": "0619e0d3282cb7ef6304aadd234953c7", "type": "electric_bike", "lat": 38.893543666666666, "is_reserved": 0, "lon": -77.1873955, "fusion_lon": 0.0, "is_disabled": 0, "fusion_lat": 0.0, "bike_id": "0619e0d3282cb7ef6304aadd234953c7", "rental_uris": {"ios": "https://dc.lft.to/lastmile_qr_scan", "android": "https://dc.lft.to/lastmile_qr_scan"}}, {"name": "14f452505bbf536d99e5afd400a07da6", "type": "electric_bike", "lat": 38.9508525, "is_reserved": 0, "lon": -77.012308, "fusion_lon": 0.0, "is_disabled": 0, "fusion_lat": 0.0, "bike_id": "14f452505bbf536d99e5afd400a07da6", "rental_uris": {"ios": "https://dc.lft.to/lastmile_qr_scan", "android": "https://dc.lft.to/lastmile_qr_scan"}}, {"name": "9507b5c301b6c83b2b69083aed5c37a3", "type": "electric_scooter", "lat": 38.93531133333333, "is_reserved": 0, "lon": -77.02853616666667, "fusion_lon": 0.0, "is_disabled": 0, "fusion_lat": 0.0, "bike_id": "9507b5c301b6c83b2b69083aed5c37a3", "rental_uris": {"ios": "https://dc.lft.to/lastmile_qr_scan", "android": "https://dc.lft.to/lastmile_qr_scan"}}, {"name": "b4e2e5389d6760e870d33c9ef864345b", "type": "electric_scooter", "lat": 38.91253916666667, "is_reserved": 0, "lon": -77.00955883333333, "fusion_lon": 0.0, "is_disabled": 0, "fusion_lat": 0.0, "bike_id": "b4e2e5389d6760e870d33c9ef864345b", "rental_uris": {"ios": "https://dc.lft.to/lastmile_qr_scan", "android": "https://dc.lft.to/lastmile_qr_scan"}}, {"name": "888a191b4a683fa2a5cb250326b8ea84", "type": "electric_scooter", "lat": 38.93153916666667, "is_reserved": 0, "lon": -77.038919, "fusion_lon": 0.0, "is_disabled": 0, "fusion_lat": 0.0, "bike_id": "888a191b4a683fa2a5cb250326b8ea84", "rental_uris": {"ios": "https://dc.lft.to/lastmile_qr_scan", "android": "https://dc.lft.to/lastmile_qr_scan"}}, {"name": "e6081577cefe0000eb181b70a561e3f0", "type": "electric_scooter", "lat": 38.89230216666667, "is_reserved": 0, "lon": -77.0500435, "fusion_lon": 0.0, "is_disabled": 0, "fusion_lat": 0.0, "bike_id": "e6081577cefe0000eb181b70a561e3f0", "rental_uris": {"ios": "https://dc.lft.to/lastmile_qr_scan", "android": "https://dc.lft.to/lastmile_qr_scan"}}, {"name": "dee1c8b878a882a14455a53dea5510d1", "type": "electric_scooter", "lat": 38.892232, "is_reserved": 0, "lon": -77.04330016666667, "fusion_lon": 0.0, "is_disabled": 0, "fusion_lat": 0.0, "bike_id": "dee1c8b878a882a14455a53dea5510d1", "rental_uris": {"ios": "https://dc.lft.to/lastmile_qr_scan", "android": "https://dc.lft.to/lastmile_qr_scan"}}, {"name": "aafb275e7e5282c5535fe5f21830ae14", "type": "electric_scooter", "lat": 38.89234316666667, "is_reserved": 0, "lon": -77.028085, "fusion_lon": 0.0, "is_disabled": 0, "fusion_lat": 0.0, "bike_id": "aafb275e7e5282c5535fe5f21830ae14", "rental_uris": {"ios": "https://dc.lft.to/lastmile_qr_scan", "android": "https://dc.lft.to/lastmile_qr_scan"}}, {"name": "6372b9059f915e468fb0b76e3a2ebd45", "type": "electric_scooter", "lat": 38.874110333333334, "is_reserved": 0, "lon": -77.00054916666667, "fusion_lon": 0.0, "is_disabled": 0, "fusion_lat": 0.0, "bike_id": "6372b9059f915e468fb0b76e3a2ebd45", "rental_uris": {"ios": "https://dc.lft.to/lastmile_qr_scan", "android": "https://dc.lft.to/lastmile_qr_scan"}}, {"name": "d6a7134e36ab2804fd35fe9f01b18ee1", "type": "electric_scooter", "lat": 38.93354433333333, "is_reserved": 0, "lon": -77.03370083333333, "fusion_lon": 0.0, "is_disabled": 0, "fusion_lat": 0.0, "bike_id": "d6a7134e36ab2804fd35fe9f01b18ee1", "rental_uris": {"ios": "https://dc.lft.to/lastmile_qr_scan", "android": "https://dc.lft.to/lastmile_qr_scan"}}, {"name": "b680fa0720d30dc8b6842375af12ea82", "type": "electric_scooter", "lat": 38.89975833333333, "is_reserved": 0, "lon": -77.02954966666667, "fusion_lon": 0.0, "is_disabled": 0, "fusion_lat": 0.0, "bike_id": "b680fa0720d30dc8b6842375af12ea82", "rental_uris": {"ios": "https://dc.lft.to/lastmile_qr_scan", "android": "https://dc.lft.to/lastmile_qr_scan"}}, {"name": "a1ac3fca297e4583d2f171411cc08172", "type": "electric_scooter", "lat": 38.913803333333334, "is_reserved": 0, "lon": -77.046588, "fusion_lon": 0.0, "is_disabled": 0, "fusion_lat": 0.0, "bike_id": "a1ac3fca297e4583d2f171411cc08172", "rental_uris": {"ios": "https://dc.lft.to/lastmile_qr_scan", "android": "https://dc.lft.to/lastmile_qr_scan"}}, {"name": "b9a1e3459383e7f526f41bbcc3d249d2", "type": "electric_scooter", "lat": 38.902495, "is_reserved": 0, "lon": -77.04480916666667, "fusion_lon": 0.0, "is_disabled": 0, "fusion_lat": 0.0, "bike_id": "b9a1e3459383e7f526f41bbcc3d249d2", "rental_uris": {"ios": "https://dc.lft.to/lastmile_qr_scan", "android": "https://dc.lft.to/lastmile_qr_scan"}}, {"name": "b3a22b39242d65b6d80dfa24a5981e67", "type": "electric_scooter", "lat": 38.895605, "is_reserved": 0, "lon": -77.05000883333334, "fusion_lon": 0.0, "is_disabled": 0, "fusion_lat": 0.0, "bike_id": "b3a22b39242d65b6d80dfa24a5981e67", "rental_uris": {"ios": "https://dc.lft.to/lastmile_qr_scan", "android": "https://dc.lft.to/lastmile_qr_scan"}}, {"name": "ac25c7cecd6eeed950d4e8ab5cbc74cd", "type": "electric_scooter", "lat": 38.955262166666664, "is_reserved": 0, "lon": -77.0698315, "fusion_lon": 0.0, "is_disabled": 0, "fusion_lat": 0.0, "bike_id": "ac25c7cecd6eeed950d4e8ab5cbc74cd", "rental_uris": {"ios": "https://dc.lft.to/lastmile_qr_scan", "android": "https://dc.lft.to/lastmile_qr_scan"}}, {"name": "a2375eadec20854b7b454e55d8f71872", "type": "electric_scooter", "lat": 38.865204166666665, "is_reserved": 0, "lon": -76.990295, "fusion_lon": 0.0, "is_disabled": 0, "fusion_lat": 0.0, "bike_id": "a2375eadec20854b7b454e55d8f71872", "rental_uris": {"ios": "https://dc.lft.to/lastmile_qr_scan", "android": "https://dc.lft.to/lastmile_qr_scan"}}, {"name": "c947d496a615e864a6c0178284d7db00", "type": "electric_scooter", "lat": 38.9212355, "is_reserved": 0, "lon": -77.038897, "fusion_lon": 0.0, "is_disabled": 0, "fusion_lat": 0.0, "bike_id": "c947d496a615e864a6c0178284d7db00", "rental_uris": {"ios": "https://dc.lft.to/lastmile_qr_scan", "android": "https://dc.lft.to/lastmile_qr_scan"}}, {"name": "644ad7e0e4ff6692d8ce315a6faccf6c", "type": "electric_scooter", "lat": 38.9194525, "is_reserved": 0, "lon": -77.04544783333333, "fusion_lon": 0.0, "is_disabled": 0, "fusion_lat": 0.0, "bike_id": "644ad7e0e4ff6692d8ce315a6faccf6c", "rental_uris": {"ios": "https://dc.lft.to/lastmile_qr_scan", "android": "https://dc.lft.to/lastmile_qr_scan"}}, {"name": "3c1fd8be3244128dfaf66778e7816c7d", "type": "electric_scooter", "lat": 38.899422666666666, "is_reserved": 0, "lon": -77.029742, "fusion_lon": 0.0, "is_disabled": 0, "fusion_lat": 0.0, "bike_id": "3c1fd8be3244128dfaf66778e7816c7d", "rental_uris": {"ios": "https://dc.lft.to/lastmile_qr_scan", "android": "https://dc.lft.to/lastmile_qr_scan"}}, {"name": "6e0c57e9b9409b4a91ab30a66e45b4c0", "type": "electric_scooter", "lat": 38.86656683333333, "is_reserved": 0, "lon": -76.9888415, "fusion_lon": 0.0, "is_disabled": 0, "fusion_lat": 0.0, "bike_id": "6e0c57e9b9409b4a91ab30a66e45b4c0", "rental_uris": {"ios": "https://dc.lft.to/lastmile_qr_scan", "android": "https://dc.lft.to/lastmile_qr_scan"}}, {"name": "8934727271b3181cc3507eac1a49dd02", "type": "electric_scooter", "lat": 38.924662, "is_reserved": 0, "lon": -77.03914083333333, "fusion_lon": 0.0, "is_disabled": 0, "fusion_lat": 0.0, "bike_id": "8934727271b3181cc3507eac1a49dd02", "rental_uris": {"ios": "https://dc.lft.to/lastmile_qr_scan", "android": "https://dc.lft.to/lastmile_qr_scan"}}, {"name": "b7c8bc4b56d06fd75149e97cb08624d9", "type": "electric_bike", "lat": 38.9163075, "is_reserved": 0, "lon": -77.00615533333334, "fusion_lon": 0.0, "is_disabled": 0, "fusion_lat": 0.0, "bike_id": "b7c8bc4b56d06fd75149e97cb08624d9", "rental_uris": {"ios": "https://dc.lft.to/lastmile_qr_scan", "android": "https://dc.lft.to/lastmile_qr_scan"}}, {"name": "52831e879437c103f0fb3afa0b4c5437", "type": "electric_scooter", "lat": 38.895976, "is_reserved": 0, "lon": -77.02573283333334, "fusion_lon": 0.0, "is_disabled": 0, "fusion_lat": 0.0, "bike_id": "52831e879437c103f0fb3afa0b4c5437", "rental_uris": {"ios": "https://dc.lft.to/lastmile_qr_scan", "android": "https://dc.lft.to/lastmile_qr_scan"}}, {"name": "bad740b66d97674d68cb2101887d9f83", "type": "electric_scooter", "lat": 38.9110095, "is_reserved": 0, "lon": -77.0365925, "fusion_lon": 0.0, "is_disabled": 0, "fusion_lat": 0.0, "bike_id": "bad740b66d97674d68cb2101887d9f83", "rental_uris": {"ios": "https://dc.lft.to/lastmile_qr_scan", "android": "https://dc.lft.to/lastmile_qr_scan"}}, {"name": "db50ccf477aeb4e779e715b7f81321ee", "type": "electric_bike", "lat": 38.90686933333333, "is_reserved": 0, "lon": -76.95188616666667, "fusion_lon": 0.0, "is_disabled": 0, "fusion_lat": 0.0, "bike_id": "db50ccf477aeb4e779e715b7f81321ee", "rental_uris": {"ios": "https://dc.lft.to/lastmile_qr_scan", "android": "https://dc.lft.to/lastmile_qr_scan"}}, {"name": "5782c3c93ee8fa2828069c6df1939a40", "type": "electric_scooter", "lat": 38.9037375, "is_reserved": 0, "lon": -77.01102066666667, "fusion_lon": 0.0, "is_disabled": 0, "fusion_lat": 0.0, "bike_id": "5782c3c93ee8fa2828069c6df1939a40", "rental_uris": {"ios": "https://dc.lft.to/lastmile_qr_scan", "android": "https://dc.lft.to/lastmile_qr_scan"}}, {"name": "0d0204731cc46e1a39a2e4e4cd57bc50", "type": "electric_scooter", "lat": 38.91771083333333, "is_reserved": 0, "lon": -77.04100966666667, "fusion_lon": 0.0, "is_disabled": 0, "fusion_lat": 0.0, "bike_id": "0d0204731cc46e1a39a2e4e4cd57bc50", "rental_uris": {"ios": "https://dc.lft.to/lastmile_qr_scan", "android": "https://dc.lft.to/lastmile_qr_scan"}}, {"name": "be1880925c4b213ccfa1b9f118389e20", "type": "electric_scooter", "lat": 38.89639483333333, "is_reserved": 0, "lon": -77.04194866666667, "fusion_lon": 0.0, "is_disabled": 0, "fusion_lat": 0.0, "bike_id": "be1880925c4b213ccfa1b9f118389e20", "rental_uris": {"ios": "https://dc.lft.to/lastmile_qr_scan", "android": "https://dc.lft.to/lastmile_qr_scan"}}, {"name": "a5a8f6c1c2a4244a77db3653eff14fcb", "type": "electric_scooter", "lat": 38.903350333333336, "is_reserved": 0, "lon": -76.99849166666667, "fusion_lon": 0.0, "is_disabled": 0, "fusion_lat": 0.0, "bike_id": "a5a8f6c1c2a4244a77db3653eff14fcb", "rental_uris": {"ios": "https://dc.lft.to/lastmile_qr_scan", "android": "https://dc.lft.to/lastmile_qr_scan"}}, {"name": "62d9e1426250c96f09e2644712253060", "type": "electric_scooter", "lat": 38.9064685, "is_reserved": 0, "lon": -77.0249875, "fusion_lon": 0.0, "is_disabled": 0, "fusion_lat": 0.0, "bike_id": "62d9e1426250c96f09e2644712253060", "rental_uris": {"ios": "https://dc.lft.to/lastmile_qr_scan", "android": "https://dc.lft.to/lastmile_qr_scan"}}, {"name": "888bfa43b2ddfa0e4275e26e5114adb1", "type": "electric_scooter", "lat": 38.90528233333333, "is_reserved": 0, "lon": -77.04352033333333, "fusion_lon": 0.0, "is_disabled": 0, "fusion_lat": 0.0, "bike_id": "888bfa43b2ddfa0e4275e26e5114adb1", "rental_uris": {"ios": "https://dc.lft.to/lastmile_qr_scan", "android": "https://dc.lft.to/lastmile_qr_scan"}}, {"name": "ae7c5db05c2830b97264e48182cfa41d", "type": "electric_scooter", "lat": 38.892282333333334, "is_reserved": 0, "lon": -77.04642816666667, "fusion_lon": 0.0, "is_disabled": 0, "fusion_lat": 0.0, "bike_id": "ae7c5db05c2830b97264e48182cfa41d", "rental_uris": {"ios": "https://dc.lft.to/lastmile_qr_scan", "android": "https://dc.lft.to/lastmile_qr_scan"}}, {"name": "c29f793f7c26c4897bcb98a758f5cc06", "type": "electric_scooter", "lat": 38.91746083333334, "is_reserved": 0, "lon": -77.022934, "fusion_lon": 0.0, "is_disabled": 0, "fusion_lat": 0.0, "bike_id": "c29f793f7c26c4897bcb98a758f5cc06", "rental_uris": {"ios": "https://dc.lft.to/lastmile_qr_scan", "android": "https://dc.lft.to/lastmile_qr_scan"}}, {"name": "5b694d00eb998a87854bcde25089522f", "type": "electric_scooter", "lat": 38.9389555, "is_reserved": 0, "lon": -77.02463666666667, "fusion_lon": 0.0, "is_disabled": 0, "fusion_lat": 0.0, "bike_id": "5b694d00eb998a87854bcde25089522f", "rental_uris": {"ios": "https://dc.lft.to/lastmile_qr_scan", "android": "https://dc.lft.to/lastmile_qr_scan"}}, {"name": "44108dfde4ef637f317b3a5536ad0e2b", "type": "electric_scooter", "lat": 38.934161333333336, "is_reserved": 0, "lon": -77.07251616666667, "fusion_lon": 0.0, "is_disabled": 0, "fusion_lat": 0.0, "bike_id": "44108dfde4ef637f317b3a5536ad0e2b", "rental_uris": {"ios": "https://dc.lft.to/lastmile_qr_scan", "android": "https://dc.lft.to/lastmile_qr_scan"}}, {"name": "6d89f3f6decd202f0c8cb302f2e50bc6", "type": "electric_scooter", "lat": 38.904639, "is_reserved": 0, "lon": -77.0465095, "fusion_lon": 0.0, "is_disabled": 0, "fusion_lat": 0.0, "bike_id": "6d89f3f6decd202f0c8cb302f2e50bc6", "rental_uris": {"ios": "https://dc.lft.to/lastmile_qr_scan", "android": "https://dc.lft.to/lastmile_qr_scan"}}, {"name": "1d28f94c05f64c2638efef1962944cb8", "type": "electric_scooter", "lat": 38.905683, "is_reserved": 0, "lon": -77.030723, "fusion_lon": 0.0, "is_disabled": 0, "fusion_lat": 0.0, "bike_id": "1d28f94c05f64c2638efef1962944cb8", "rental_uris": {"ios": "https://dc.lft.to/lastmile_qr_scan", "android": "https://dc.lft.to/lastmile_qr_scan"}}, {"name": "e6d97453ea7e70a00ee655548eff2ffa", "type": "electric_scooter", "lat": 38.93679733333333, "is_reserved": 0, "lon": -77.03627333333333, "fusion_lon": 0.0, "is_disabled": 0, "fusion_lat": 0.0, "bike_id": "e6d97453ea7e70a00ee655548eff2ffa", "rental_uris": {"ios": "https://dc.lft.to/lastmile_qr_scan", "android": "https://dc.lft.to/lastmile_qr_scan"}}, {"name": "278fdd17271eff1473c46cb724c93b01", "type": "electric_scooter", "lat": 38.944463666666664, "is_reserved": 0, "lon": -77.06353616666667, "fusion_lon": 0.0, "is_disabled": 0, "fusion_lat": 0.0, "bike_id": "278fdd17271eff1473c46cb724c93b01", "rental_uris": {"ios": "https://dc.lft.to/lastmile_qr_scan", "android": "https://dc.lft.to/lastmile_qr_scan"}}, {"name": "b41709f13a7104c82f1c6cc528bb2db2", "type": "electric_scooter", "lat": 38.91262366666667, "is_reserved": 0, "lon": -77.03837683333333, "fusion_lon": 0.0, "is_disabled": 0, "fusion_lat": 0.0, "bike_id": "b41709f13a7104c82f1c6cc528bb2db2", "rental_uris": {"ios": "https://dc.lft.to/lastmile_qr_scan", "android": "https://dc.lft.to/lastmile_qr_scan"}}, {"name": "0ddfa23f97e2ffb443a52f07109fccd4", "type": "electric_bike", "lat": 38.80225516666667, "is_reserved": 0, "lon": -77.07915633333333, "fusion_lon": 0.0, "is_disabled": 0, "fusion_lat": 0.0, "bike_id": "0ddfa23f97e2ffb443a52f07109fccd4", "rental_uris": {"ios": "https://dc.lft.to/lastmile_qr_scan", "android": "https://dc.lft.to/lastmile_qr_scan"}}, {"name": "0c3340424dfe74d5d7ecc85af7246449", "type": "electric_scooter", "lat": 38.93429733333333, "is_reserved": 0, "lon": -77.04421566666667, "fusion_lon": 0.0, "is_disabled": 0, "fusion_lat": 0.0, "bike_id": "0c3340424dfe74d5d7ecc85af7246449", "rental_uris": {"ios": "https://dc.lft.to/lastmile_qr_scan", "android": "https://dc.lft.to/lastmile_qr_scan"}}, {"name": "1db3dbd75d572a2380eb7d20c6620ab9", "type": "electric_scooter", "lat": 38.895236833333335, "is_reserved": 0, "lon": -77.011307, "fusion_lon": 0.0, "is_disabled": 0, "fusion_lat": 0.0, "bike_id": "1db3dbd75d572a2380eb7d20c6620ab9", "rental_uris": {"ios": "https://dc.lft.to/lastmile_qr_scan", "android": "https://dc.lft.to/lastmile_qr_scan"}}, {"name": "ac4ed4b21befa0398f560e7d6587411f", "type": "electric_scooter", "lat": 38.905286333333336, "is_reserved": 0, "lon": -77.053422, "fusion_lon": 0.0, "is_disabled": 0, "fusion_lat": 0.0, "bike_id": "ac4ed4b21befa0398f560e7d6587411f", "rental_uris": {"ios": "https://dc.lft.to/lastmile_qr_scan", "android": "https://dc.lft.to/lastmile_qr_scan"}}, {"name": "2ac7eb97f4463818247e9a5247abf81c", "type": "electric_scooter", "lat": 38.9143845, "is_reserved": 0, "lon": -77.0220765, "fusion_lon": 0.0, "is_disabled": 0, "fusion_lat": 0.0, "bike_id": "2ac7eb97f4463818247e9a5247abf81c", "rental_uris": {"ios": "https://dc.lft.to/lastmile_qr_scan", "android": "https://dc.lft.to/lastmile_qr_scan"}}, {"name": "f4ae27d071a565459f4a23feb5cd9aae", "type": "electric_scooter", "lat": 38.90150533333333, "is_reserved": 0, "lon": -77.04383533333333, "fusion_lon": 0.0, "is_disabled": 0, "fusion_lat": 0.0, "bike_id": "f4ae27d071a565459f4a23feb5cd9aae", "rental_uris": {"ios": "https://dc.lft.to/lastmile_qr_scan", "android": "https://dc.lft.to/lastmile_qr_scan"}}, {"name": "bce46bc93e4c72ddaa8fe4c44f654a57", "type": "electric_scooter", "lat": 38.9192325, "is_reserved": 0, "lon": -77.03091166666667, "fusion_lon": 0.0, "is_disabled": 0, "fusion_lat": 0.0, "bike_id": "bce46bc93e4c72ddaa8fe4c44f654a57", "rental_uris": {"ios": "https://dc.lft.to/lastmile_qr_scan", "android": "https://dc.lft.to/lastmile_qr_scan"}}, {"name": "718f6d159342e97fc716338b568162be", "type": "electric_scooter", "lat": 38.912615, "is_reserved": 0, "lon": -77.0372815, "fusion_lon": 0.0, "is_disabled": 0, "fusion_lat": 0.0, "bike_id": "718f6d159342e97fc716338b568162be", "rental_uris": {"ios": "https://dc.lft.to/lastmile_qr_scan", "android": "https://dc.lft.to/lastmile_qr_scan"}}, {"name": "4a0a60e6846fc51007c4ecac8361d0b0", "type": "electric_scooter", "lat": 38.91808016666667, "is_reserved": 0, "lon": -77.02494333333334, "fusion_lon": 0.0, "is_disabled": 0, "fusion_lat": 0.0, "bike_id": "4a0a60e6846fc51007c4ecac8361d0b0", "rental_uris": {"ios": "https://dc.lft.to/lastmile_qr_scan", "android": "https://dc.lft.to/lastmile_qr_scan"}}, {"name": "3ff740f64c903095f46bfd75db069090", "type": "electric_scooter", "lat": 38.88374566666667, "is_reserved": 0, "lon": -76.923706, "fusion_lon": 0.0, "is_disabled": 0, "fusion_lat": 0.0, "bike_id": "3ff740f64c903095f46bfd75db069090", "rental_uris": {"ios": "https://dc.lft.to/lastmile_qr_scan", "android": "https://dc.lft.to/lastmile_qr_scan"}}, {"name": "68186d899844ebfe9f21a6db247b0ada", "type": "electric_scooter", "lat": 38.913217, "is_reserved": 0, "lon": -77.0456035, "fusion_lon": 0.0, "is_disabled": 0, "fusion_lat": 0.0, "bike_id": "68186d899844ebfe9f21a6db247b0ada", "rental_uris": {"ios": "https://dc.lft.to/lastmile_qr_scan", "android": "https://dc.lft.to/lastmile_qr_scan"}}, {"name": "51e469d9232da59c43c55bee92dec0a0", "type": "electric_scooter", "lat": 38.8665815, "is_reserved": 0, "lon": -76.9888665, "fusion_lon": 0.0, "is_disabled": 0, "fusion_lat": 0.0, "bike_id": "51e469d9232da59c43c55bee92dec0a0", "rental_uris": {"ios": "https://dc.lft.to/lastmile_qr_scan", "android": "https://dc.lft.to/lastmile_qr_scan"}}, {"name": "cec4345efae52c3bf9b3373a07c25b38", "type": "electric_scooter", "lat": 38.925105333333335, "is_reserved": 0, "lon": -77.03322383333334, "fusion_lon": 0.0, "is_disabled": 0, "fusion_lat": 0.0, "bike_id": "cec4345efae52c3bf9b3373a07c25b38", "rental_uris": {"ios": "https://dc.lft.to/lastmile_qr_scan", "android": "https://dc.lft.to/lastmile_qr_scan"}}, {"name": "91403fd565f3cc3c085e8ae70dd14950", "type": "electric_scooter", "lat": 38.923598166666665, "is_reserved": 0, "lon": -77.0583895, "fusion_lon": 0.0, "is_disabled": 0, "fusion_lat": 0.0, "bike_id": "91403fd565f3cc3c085e8ae70dd14950", "rental_uris": {"ios": "https://dc.lft.to/lastmile_qr_scan", "android": "https://dc.lft.to/lastmile_qr_scan"}}, {"name": "e0afe51ede29031612209f2a54a2ddcc", "type": "electric_scooter", "lat": 38.925172, "is_reserved": 0, "lon": -77.00172866666666, "fusion_lon": 0.0, "is_disabled": 0, "fusion_lat": 0.0, "bike_id": "e0afe51ede29031612209f2a54a2ddcc", "rental_uris": {"ios": "https://dc.lft.to/lastmile_qr_scan", "android": "https://dc.lft.to/lastmile_qr_scan"}}, {"name": "5bccd1f53f1e890ed1d1640c0353cfa1", "type": "electric_scooter", "lat": 38.9200765, "is_reserved": 0, "lon": -77.03145883333333, "fusion_lon": 0.0, "is_disabled": 0, "fusion_lat": 0.0, "bike_id": "5bccd1f53f1e890ed1d1640c0353cfa1", "rental_uris": {"ios": "https://dc.lft.to/lastmile_qr_scan", "android": "https://dc.lft.to/lastmile_qr_scan"}}, {"name": "0fc7c8c8c6579a86be06fbe18b4f6a59", "type": "electric_scooter", "lat": 38.8985425, "is_reserved": 0, "lon": -77.01207266666667, "fusion_lon": 0.0, "is_disabled": 0, "fusion_lat": 0.0, "bike_id": "0fc7c8c8c6579a86be06fbe18b4f6a59", "rental_uris": {"ios": "https://dc.lft.to/lastmile_qr_scan", "android": "https://dc.lft.to/lastmile_qr_scan"}}, {"name": "63f9069573f5d5e77913ee24128291fd", "type": "electric_scooter", "lat": 38.931163, "is_reserved": 0, "lon": -77.02090016666666, "fusion_lon": 0.0, "is_disabled": 0, "fusion_lat": 0.0, "bike_id": "63f9069573f5d5e77913ee24128291fd", "rental_uris": {"ios": "https://dc.lft.to/lastmile_qr_scan", "android": "https://dc.lft.to/lastmile_qr_scan"}}, {"name": "3b87450a615fe2f84892afc9cdd6e8dd", "type": "electric_bike", "lat": 38.94625883333333, "is_reserved": 0, "lon": -76.94625416666666, "fusion_lon": 0.0, "is_disabled": 0, "fusion_lat": 0.0, "bike_id": "3b87450a615fe2f84892afc9cdd6e8dd", "rental_uris": {"ios": "https://dc.lft.to/lastmile_qr_scan", "android": "https://dc.lft.to/lastmile_qr_scan"}}, {"name": "79e93dea3620281fa0c9af8ca83a6fb9", "type": "electric_scooter", "lat": 38.9058125, "is_reserved": 0, "lon": -77.04385616666667, "fusion_lon": 0.0, "is_disabled": 0, "fusion_lat": 0.0, "bike_id": "79e93dea3620281fa0c9af8ca83a6fb9", "rental_uris": {"ios": "https://dc.lft.to/lastmile_qr_scan", "android": "https://dc.lft.to/lastmile_qr_scan"}}, {"name": "13adeeb5afcd91d4b82ba1b862881a87", "type": "electric_scooter", "lat": 38.867019666666664, "is_reserved": 0, "lon": -76.98713683333334, "fusion_lon": 0.0, "is_disabled": 0, "fusion_lat": 0.0, "bike_id": "13adeeb5afcd91d4b82ba1b862881a87", "rental_uris": {"ios": "https://dc.lft.to/lastmile_qr_scan", "android": "https://dc.lft.to/lastmile_qr_scan"}}, {"name": "d340705f910170ab1063a8fd06d9c795", "type": "electric_scooter", "lat": 38.897594, "is_reserved": 0, "lon": -77.00767516666667, "fusion_lon": 0.0, "is_disabled": 0, "fusion_lat": 0.0, "bike_id": "d340705f910170ab1063a8fd06d9c795", "rental_uris": {"ios": "https://dc.lft.to/lastmile_qr_scan", "android": "https://dc.lft.to/lastmile_qr_scan"}}, {"name": "fc19c16fa6ab9be707cbbefcff101e10", "type": "electric_scooter", "lat": 38.896098333333335, "is_reserved": 0, "lon": -77.0508145, "fusion_lon": 0.0, "is_disabled": 0, "fusion_lat": 0.0, "bike_id": "fc19c16fa6ab9be707cbbefcff101e10", "rental_uris": {"ios": "https://dc.lft.to/lastmile_qr_scan", "android": "https://dc.lft.to/lastmile_qr_scan"}}, {"name": "5052c48a8691487240d85547af3660d8", "type": "electric_scooter", "lat": 38.9222715, "is_reserved": 0, "lon": -77.04240533333333, "fusion_lon": 0.0, "is_disabled": 0, "fusion_lat": 0.0, "bike_id": "5052c48a8691487240d85547af3660d8", "rental_uris": {"ios": "https://dc.lft.to/lastmile_qr_scan", "android": "https://dc.lft.to/lastmile_qr_scan"}}, {"name": "854e4cd8fb07023fd361083ec036ff92", "type": "electric_bike", "lat": 38.908572166666666, "is_reserved": 0, "lon": -77.0228745, "fusion_lon": 0.0, "is_disabled": 0, "fusion_lat": 0.0, "bike_id": "854e4cd8fb07023fd361083ec036ff92", "rental_uris": {"ios": "https://dc.lft.to/lastmile_qr_scan", "android": "https://dc.lft.to/lastmile_qr_scan"}}, {"name": "0f799bf27f9c67837820e5a998db3d73", "type": "electric_scooter", "lat": 38.93127966666667, "is_reserved": 0, "lon": -77.03603266666667, "fusion_lon": 0.0, "is_disabled": 0, "fusion_lat": 0.0, "bike_id": "0f799bf27f9c67837820e5a998db3d73", "rental_uris": {"ios": "https://dc.lft.to/lastmile_qr_scan", "android": "https://dc.lft.to/lastmile_qr_scan"}}, {"name": "a9ecfb7b9add70a90cfff1450936b3fa", "type": "electric_scooter", "lat": 38.93901, "is_reserved": 0, "lon": -77.03283333333333, "fusion_lon": 0.0, "is_disabled": 0, "fusion_lat": 0.0, "bike_id": "a9ecfb7b9add70a90cfff1450936b3fa", "rental_uris": {"ios": "https://dc.lft.to/lastmile_qr_scan", "android": "https://dc.lft.to/lastmile_qr_scan"}}, {"name": "6f83b9718c690126d0c78398ca129da6", "type": "electric_scooter", "lat": 38.898768833333335, "is_reserved": 0, "lon": -77.0333995, "fusion_lon": 0.0, "is_disabled": 0, "fusion_lat": 0.0, "bike_id": "6f83b9718c690126d0c78398ca129da6", "rental_uris": {"ios": "https://dc.lft.to/lastmile_qr_scan", "android": "https://dc.lft.to/lastmile_qr_scan"}}, {"name": "612c275d31186c1e00240ef6670aa0a7", "type": "electric_scooter", "lat": 38.92539033333333, "is_reserved": 0, "lon": -77.03223766666666, "fusion_lon": 0.0, "is_disabled": 0, "fusion_lat": 0.0, "bike_id": "612c275d31186c1e00240ef6670aa0a7", "rental_uris": {"ios": "https://dc.lft.to/lastmile_qr_scan", "android": "https://dc.lft.to/lastmile_qr_scan"}}, {"name": "c52073d258a27e7279644ac48308544c", "type": "electric_scooter", "lat": 38.872884, "is_reserved": 0, "lon": -77.00982783333333, "fusion_lon": 0.0, "is_disabled": 0, "fusion_lat": 0.0, "bike_id": "c52073d258a27e7279644ac48308544c", "rental_uris": {"ios": "https://dc.lft.to/lastmile_qr_scan", "android": "https://dc.lft.to/lastmile_qr_scan"}}, {"name": "6bb49ae879a09b7e8220eca704de5ae1", "type": "electric_bike", "lat": 38.89778716666667, "is_reserved": 0, "lon": -76.90442283333333, "fusion_lon": 0.0, "is_disabled": 0, "fusion_lat": 0.0, "bike_id": "6bb49ae879a09b7e8220eca704de5ae1", "rental_uris": {"ios": "https://dc.lft.to/lastmile_qr_scan", "android": "https://dc.lft.to/lastmile_qr_scan"}}, {"name": "95ac437aaef492e718c4724df1bcbac0", "type": "electric_scooter", "lat": 38.902702833333336, "is_reserved": 0, "lon": -77.0386605, "fusion_lon": 0.0, "is_disabled": 0, "fusion_lat": 0.0, "bike_id": "95ac437aaef492e718c4724df1bcbac0", "rental_uris": {"ios": "https://dc.lft.to/lastmile_qr_scan", "android": "https://dc.lft.to/lastmile_qr_scan"}}, {"name": "fbb314909dc9638bcdbccd2827cce41f", "type": "electric_scooter", "lat": 38.8993675, "is_reserved": 0, "lon": -77.03171283333333, "fusion_lon": 0.0, "is_disabled": 0, "fusion_lat": 0.0, "bike_id": "fbb314909dc9638bcdbccd2827cce41f", "rental_uris": {"ios": "https://dc.lft.to/lastmile_qr_scan", "android": "https://dc.lft.to/lastmile_qr_scan"}}, {"name": "b443bc4e658b3f154161e05852e5f40a", "type": "electric_scooter", "lat": 38.959237, "is_reserved": 0, "lon": -77.03325066666666, "fusion_lon": 0.0, "is_disabled": 0, "fusion_lat": 0.0, "bike_id": "b443bc4e658b3f154161e05852e5f40a", "rental_uris": {"ios": "https://dc.lft.to/lastmile_qr_scan", "android": "https://dc.lft.to/lastmile_qr_scan"}}, {"name": "f1995dffeda86316b8f28fe227d43946", "type": "electric_scooter", "lat": 38.90112533333333, "is_reserved": 0, "lon": -77.0516195, "fusion_lon": 0.0, "is_disabled": 0, "fusion_lat": 0.0, "bike_id": "f1995dffeda86316b8f28fe227d43946", "rental_uris": {"ios": "https://dc.lft.to/lastmile_qr_scan", "android": "https://dc.lft.to/lastmile_qr_scan"}}, {"name": "558fede314e3564781c7d9885ee6fa99", "type": "electric_scooter", "lat": 38.92344116666666, "is_reserved": 0, "lon": -77.05097083333334, "fusion_lon": 0.0, "is_disabled": 0, "fusion_lat": 0.0, "bike_id": "558fede314e3564781c7d9885ee6fa99", "rental_uris": {"ios": "https://dc.lft.to/lastmile_qr_scan", "android": "https://dc.lft.to/lastmile_qr_scan"}}, {"name": "b4185ba16cde45e11dbf4d4fcebb0754", "type": "electric_scooter", "lat": 38.89807783333333, "is_reserved": 0, "lon": -76.99498983333334, "fusion_lon": 0.0, "is_disabled": 0, "fusion_lat": 0.0, "bike_id": "b4185ba16cde45e11dbf4d4fcebb0754", "rental_uris": {"ios": "https://dc.lft.to/lastmile_qr_scan", "android": "https://dc.lft.to/lastmile_qr_scan"}}, {"name": "92e66e093f888b1ec9a34f166b0ad628", "type": "electric_scooter", "lat": 38.904249, "is_reserved": 0, "lon": -77.02090133333333, "fusion_lon": 0.0, "is_disabled": 0, "fusion_lat": 0.0, "bike_id": "92e66e093f888b1ec9a34f166b0ad628", "rental_uris": {"ios": "https://dc.lft.to/lastmile_qr_scan", "android": "https://dc.lft.to/lastmile_qr_scan"}}, {"name": "1cb230ce7864e235c39f9115e5bc6641", "type": "electric_scooter", "lat": 38.91603883333333, "is_reserved": 0, "lon": -77.03848583333334, "fusion_lon": 0.0, "is_disabled": 0, "fusion_lat": 0.0, "bike_id": "1cb230ce7864e235c39f9115e5bc6641", "rental_uris": {"ios": "https://dc.lft.to/lastmile_qr_scan", "android": "https://dc.lft.to/lastmile_qr_scan"}}, {"name": "1e63f24274ff4b2e04b3e9cd4587d7d1", "type": "electric_scooter", "lat": 38.86221366666667, "is_reserved": 0, "lon": -76.99486833333333, "fusion_lon": 0.0, "is_disabled": 0, "fusion_lat": 0.0, "bike_id": "1e63f24274ff4b2e04b3e9cd4587d7d1", "rental_uris": {"ios": "https://dc.lft.to/lastmile_qr_scan", "android": "https://dc.lft.to/lastmile_qr_scan"}}, {"name": "6e01c7d7748f03d824a4ceca8af5ea84", "type": "electric_scooter", "lat": 38.90338, "is_reserved": 0, "lon": -77.03836416666667, "fusion_lon": 0.0, "is_disabled": 0, "fusion_lat": 0.0, "bike_id": "6e01c7d7748f03d824a4ceca8af5ea84", "rental_uris": {"ios": "https://dc.lft.to/lastmile_qr_scan", "android": "https://dc.lft.to/lastmile_qr_scan"}}, {"name": "cbdec04d71f3a92d86547befc75b17e8", "type": "electric_scooter", "lat": 38.92126666666667, "is_reserved": 0, "lon": -77.04211933333333, "fusion_lon": 0.0, "is_disabled": 0, "fusion_lat": 0.0, "bike_id": "cbdec04d71f3a92d86547befc75b17e8", "rental_uris": {"ios": "https://dc.lft.to/lastmile_qr_scan", "android": "https://dc.lft.to/lastmile_qr_scan"}}, {"name": "088b7903cf3ef2c7162d3f96c39d2200", "type": "electric_scooter", "lat": 38.92958133333333, "is_reserved": 0, "lon": -77.0234185, "fusion_lon": 0.0, "is_disabled": 0, "fusion_lat": 0.0, "bike_id": "088b7903cf3ef2c7162d3f96c39d2200", "rental_uris": {"ios": "https://dc.lft.to/lastmile_qr_scan", "android": "https://dc.lft.to/lastmile_qr_scan"}}, {"name": "a0043c4367ae61530ac6c8a03d97e26f", "type": "electric_scooter", "lat": 38.899717333333335, "is_reserved": 0, "lon": -77.015944, "fusion_lon": 0.0, "is_disabled": 0, "fusion_lat": 0.0, "bike_id": "a0043c4367ae61530ac6c8a03d97e26f", "rental_uris": {"ios": "https://dc.lft.to/lastmile_qr_scan", "android": "https://dc.lft.to/lastmile_qr_scan"}}, {"name": "4f730b75258a6bffc63d335a76c402c1", "type": "electric_scooter", "lat": 38.90462433333333, "is_reserved": 0, "lon": -77.01428016666667, "fusion_lon": 0.0, "is_disabled": 0, "fusion_lat": 0.0, "bike_id": "4f730b75258a6bffc63d335a76c402c1", "rental_uris": {"ios": "https://dc.lft.to/lastmile_qr_scan", "android": "https://dc.lft.to/lastmile_qr_scan"}}, {"name": "65a23ab39d99fe04c89a754db66c0a1b", "type": "electric_bike", "lat": 38.8579015, "is_reserved": 0, "lon": -76.98740916666667, "fusion_lon": 0.0, "is_disabled": 0, "fusion_lat": 0.0, "bike_id": "65a23ab39d99fe04c89a754db66c0a1b", "rental_uris": {"ios": "https://dc.lft.to/lastmile_qr_scan", "android": "https://dc.lft.to/lastmile_qr_scan"}}, {"name": "06a6d23ae5648fe23502e503c48c89de", "type": "electric_scooter", "lat": 38.9187875, "is_reserved": 0, "lon": -77.03760833333334, "fusion_lon": 0.0, "is_disabled": 0, "fusion_lat": 0.0, "bike_id": "06a6d23ae5648fe23502e503c48c89de", "rental_uris": {"ios": "https://dc.lft.to/lastmile_qr_scan", "android": "https://dc.lft.to/lastmile_qr_scan"}}, {"name": "ffc6775e8bf3e299eb9c587140a11163", "type": "electric_scooter", "lat": 38.904053833333336, "is_reserved": 0, "lon": -77.0434625, "fusion_lon": 0.0, "is_disabled": 0, "fusion_lat": 0.0, "bike_id": "ffc6775e8bf3e299eb9c587140a11163", "rental_uris": {"ios": "https://dc.lft.to/lastmile_qr_scan", "android": "https://dc.lft.to/lastmile_qr_scan"}}, {"name": "41405e01f9d04a7dd91a0e02f53c776e", "type": "electric_scooter", "lat": 38.9279305, "is_reserved": 0, "lon": -77.03984566666666, "fusion_lon": 0.0, "is_disabled": 0, "fusion_lat": 0.0, "bike_id": "41405e01f9d04a7dd91a0e02f53c776e", "rental_uris": {"ios": "https://dc.lft.to/lastmile_qr_scan", "android": "https://dc.lft.to/lastmile_qr_scan"}}, {"name": "91d2bad073b5e43167197e951f84f2fe", "type": "electric_scooter", "lat": 38.90670866666667, "is_reserved": 0, "lon": -77.00901116666667, "fusion_lon": 0.0, "is_disabled": 0, "fusion_lat": 0.0, "bike_id": "91d2bad073b5e43167197e951f84f2fe", "rental_uris": {"ios": "https://dc.lft.to/lastmile_qr_scan", "android": "https://dc.lft.to/lastmile_qr_scan"}}, {"name": "f1375228aaae2dc1f585ae718bc5f7bf", "type": "electric_bike", "lat": 38.95954616666667, "is_reserved": 0, "lon": -77.10090016666666, "fusion_lon": 0.0, "is_disabled": 0, "fusion_lat": 0.0, "bike_id": "f1375228aaae2dc1f585ae718bc5f7bf", "rental_uris": {"ios": "https://dc.lft.to/lastmile_qr_scan", "android": "https://dc.lft.to/lastmile_qr_scan"}}, {"name": "9156b9cf6d960c58b2788f6413053a3b", "type": "electric_scooter", "lat": 38.900225, "is_reserved": 0, "lon": -76.99832916666666, "fusion_lon": 0.0, "is_disabled": 0, "fusion_lat": 0.0, "bike_id": "9156b9cf6d960c58b2788f6413053a3b", "rental_uris": {"ios": "https://dc.lft.to/lastmile_qr_scan", "android": "https://dc.lft.to/lastmile_qr_scan"}}, {"name": "0ba337808229c08ec4d3787188dda503", "type": "electric_scooter", "lat": 38.929941166666666, "is_reserved": 0, "lon": -77.02484133333333, "fusion_lon": 0.0, "is_disabled": 0, "fusion_lat": 0.0, "bike_id": "0ba337808229c08ec4d3787188dda503", "rental_uris": {"ios": "https://dc.lft.to/lastmile_qr_scan", "android": "https://dc.lft.to/lastmile_qr_scan"}}, {"name": "63d2956440b0108f2de41698c823e885", "type": "electric_scooter", "lat": 38.90237416666667, "is_reserved": 0, "lon": -77.026882, "fusion_lon": 0.0, "is_disabled": 0, "fusion_lat": 0.0, "bike_id": "63d2956440b0108f2de41698c823e885", "rental_uris": {"ios": "https://dc.lft.to/lastmile_qr_scan", "android": "https://dc.lft.to/lastmile_qr_scan"}}, {"name": "752724d9dbbbe2b91a96095919429fbc", "type": "electric_scooter", "lat": 38.92845033333333, "is_reserved": 0, "lon": -77.05429, "fusion_lon": 0.0, "is_disabled": 0, "fusion_lat": 0.0, "bike_id": "752724d9dbbbe2b91a96095919429fbc", "rental_uris": {"ios": "https://dc.lft.to/lastmile_qr_scan", "android": "https://dc.lft.to/lastmile_qr_scan"}}, {"name": "6da7c98fc5e2c8b3a8dbb4d4a9f7c632", "type": "electric_scooter", "lat": 38.930858666666666, "is_reserved": 0, "lon": -77.02401033333334, "fusion_lon": 0.0, "is_disabled": 0, "fusion_lat": 0.0, "bike_id": "6da7c98fc5e2c8b3a8dbb4d4a9f7c632", "rental_uris": {"ios": "https://dc.lft.to/lastmile_qr_scan", "android": "https://dc.lft.to/lastmile_qr_scan"}}, {"name": "0caffcdcb8bf24261572fbe32ad0495b", "type": "electric_scooter", "lat": 38.88932333333333, "is_reserved": 0, "lon": -76.94782866666667, "fusion_lon": 0.0, "is_disabled": 0, "fusion_lat": 0.0, "bike_id": "0caffcdcb8bf24261572fbe32ad0495b", "rental_uris": {"ios": "https://dc.lft.to/lastmile_qr_scan", "android": "https://dc.lft.to/lastmile_qr_scan"}}, {"name": "fc87d43cb422510ffaa98b2958f5adea", "type": "electric_bike", "lat": 38.903577166666665, "is_reserved": 0, "lon": -76.98092833333334, "fusion_lon": 0.0, "is_disabled": 0, "fusion_lat": 0.0, "bike_id": "fc87d43cb422510ffaa98b2958f5adea", "rental_uris": {"ios": "https://dc.lft.to/lastmile_qr_scan", "android": "https://dc.lft.to/lastmile_qr_scan"}}, {"name": "53c30339575bccbd3f184d1797d4ad00", "type": "electric_bike", "lat": 38.8386065, "is_reserved": 0, "lon": -77.08863983333333, "fusion_lon": 0.0, "is_disabled": 0, "fusion_lat": 0.0, "bike_id": "53c30339575bccbd3f184d1797d4ad00", "rental_uris": {"ios": "https://dc.lft.to/lastmile_qr_scan", "android": "https://dc.lft.to/lastmile_qr_scan"}}, {"name": "7d78f6609faf5e99130a951474cb58f2", "type": "electric_scooter", "lat": 38.903485333333336, "is_reserved": 0, "lon": -77.039646, "fusion_lon": 0.0, "is_disabled": 0, "fusion_lat": 0.0, "bike_id": "7d78f6609faf5e99130a951474cb58f2", "rental_uris": {"ios": "https://dc.lft.to/lastmile_qr_scan", "android": "https://dc.lft.to/lastmile_qr_scan"}}, {"name": "6262524d1a67e81554c324672cae1373", "type": "electric_bike", "lat": 38.9732295, "is_reserved": 0, "lon": -77.02149316666667, "fusion_lon": 0.0, "is_disabled": 0, "fusion_lat": 0.0, "bike_id": "6262524d1a67e81554c324672cae1373", "rental_uris": {"ios": "https://dc.lft.to/lastmile_qr_scan", "android": "https://dc.lft.to/lastmile_qr_scan"}}, {"name": "7369749e8432d061c66ceeb7f735eb31", "type": "electric_scooter", "lat": 38.932259333333334, "is_reserved": 0, "lon": -77.03541966666667, "fusion_lon": 0.0, "is_disabled": 0, "fusion_lat": 0.0, "bike_id": "7369749e8432d061c66ceeb7f735eb31", "rental_uris": {"ios": "https://dc.lft.to/lastmile_qr_scan", "android": "https://dc.lft.to/lastmile_qr_scan"}}, {"name": "a6cb3e11607ec43552431aaa5d391b79", "type": "electric_scooter", "lat": 38.91740516666667, "is_reserved": 0, "lon": -77.0363905, "fusion_lon": 0.0, "is_disabled": 0, "fusion_lat": 0.0, "bike_id": "a6cb3e11607ec43552431aaa5d391b79", "rental_uris": {"ios": "https://dc.lft.to/lastmile_qr_scan", "android": "https://dc.lft.to/lastmile_qr_scan"}}, {"name": "ebd6953270f3c60674e7417ecac04145", "type": "electric_scooter", "lat": 38.901259, "is_reserved": 0, "lon": -77.00046833333333, "fusion_lon": 0.0, "is_disabled": 0, "fusion_lat": 0.0, "bike_id": "ebd6953270f3c60674e7417ecac04145", "rental_uris": {"ios": "https://dc.lft.to/lastmile_qr_scan", "android": "https://dc.lft.to/lastmile_qr_scan"}}, {"name": "0bb716e3abdbcccdb86e943bf833ee8e", "type": "electric_scooter", "lat": 38.92210816666667, "is_reserved": 0, "lon": -77.04238733333334, "fusion_lon": 0.0, "is_disabled": 0, "fusion_lat": 0.0, "bike_id": "0bb716e3abdbcccdb86e943bf833ee8e", "rental_uris": {"ios": "https://dc.lft.to/lastmile_qr_scan", "android": "https://dc.lft.to/lastmile_qr_scan"}}, {"name": "37ecb854bca12b87cc0da4211c33b4be", "type": "electric_scooter", "lat": 38.90318883333333, "is_reserved": 0, "lon": -77.03830116666667, "fusion_lon": 0.0, "is_disabled": 0, "fusion_lat": 0.0, "bike_id": "37ecb854bca12b87cc0da4211c33b4be", "rental_uris": {"ios": "https://dc.lft.to/lastmile_qr_scan", "android": "https://dc.lft.to/lastmile_qr_scan"}}, {"name": "6d6638ee5501a6d49dbffc6894ea91b7", "type": "electric_scooter", "lat": 38.92734033333333, "is_reserved": 0, "lon": -77.02493166666666, "fusion_lon": 0.0, "is_disabled": 0, "fusion_lat": 0.0, "bike_id": "6d6638ee5501a6d49dbffc6894ea91b7", "rental_uris": {"ios": "https://dc.lft.to/lastmile_qr_scan", "android": "https://dc.lft.to/lastmile_qr_scan"}}, {"name": "c2583ccaa6c4ee9e3787b743cc7da89e", "type": "electric_scooter", "lat": 38.90056883333333, "is_reserved": 0, "lon": -77.0187545, "fusion_lon": 0.0, "is_disabled": 0, "fusion_lat": 0.0, "bike_id": "c2583ccaa6c4ee9e3787b743cc7da89e", "rental_uris": {"ios": "https://dc.lft.to/lastmile_qr_scan", "android": "https://dc.lft.to/lastmile_qr_scan"}}, {"name": "b1b134ba3f7df9b5fe5ee4d5aeaea4af", "type": "electric_bike", "lat": 38.839364, "is_reserved": 0, "lon": -77.0790005, "fusion_lon": 0.0, "is_disabled": 0, "fusion_lat": 0.0, "bike_id": "b1b134ba3f7df9b5fe5ee4d5aeaea4af", "rental_uris": {"ios": "https://dc.lft.to/lastmile_qr_scan", "android": "https://dc.lft.to/lastmile_qr_scan"}}, {"name": "dab8ae43be35bb410ce96b3b29964895", "type": "electric_scooter", "lat": 38.94955066666667, "is_reserved": 0, "lon": -77.02722816666666, "fusion_lon": 0.0, "is_disabled": 0, "fusion_lat": 0.0, "bike_id": "dab8ae43be35bb410ce96b3b29964895", "rental_uris": {"ios": "https://dc.lft.to/lastmile_qr_scan", "android": "https://dc.lft.to/lastmile_qr_scan"}}, {"name": "36097f1f18fc0c94ea721e38b28c64a8", "type": "electric_scooter", "lat": 38.93325883333333, "is_reserved": 0, "lon": -77.034399, "fusion_lon": 0.0, "is_disabled": 0, "fusion_lat": 0.0, "bike_id": "36097f1f18fc0c94ea721e38b28c64a8", "rental_uris": {"ios": "https://dc.lft.to/lastmile_qr_scan", "android": "https://dc.lft.to/lastmile_qr_scan"}}, {"name": "e29f50a038c8d2fca6b49057f8f2c36d", "type": "electric_scooter", "lat": 38.906706666666665, "is_reserved": 0, "lon": -77.03444916666666, "fusion_lon": 0.0, "is_disabled": 0, "fusion_lat": 0.0, "bike_id": "e29f50a038c8d2fca6b49057f8f2c36d", "rental_uris": {"ios": "https://dc.lft.to/lastmile_qr_scan", "android": "https://dc.lft.to/lastmile_qr_scan"}}, {"name": "92c215f50684674e75fa2823cfe25e6f", "type": "electric_scooter", "lat": 38.899606666666664, "is_reserved": 0, "lon": -77.04366633333333, "fusion_lon": 0.0, "is_disabled": 0, "fusion_lat": 0.0, "bike_id": "92c215f50684674e75fa2823cfe25e6f", "rental_uris": {"ios": "https://dc.lft.to/lastmile_qr_scan", "android": "https://dc.lft.to/lastmile_qr_scan"}}, {"name": "2ad98a8f334028fdad3f67414d6f805b", "type": "electric_scooter", "lat": 38.9053445, "is_reserved": 0, "lon": -77.04562483333333, "fusion_lon": 0.0, "is_disabled": 0, "fusion_lat": 0.0, "bike_id": "2ad98a8f334028fdad3f67414d6f805b", "rental_uris": {"ios": "https://dc.lft.to/lastmile_qr_scan", "android": "https://dc.lft.to/lastmile_qr_scan"}}, {"name": "56c48701e7b9ca8d633bc5f95bb0396a", "type": "electric_scooter", "lat": 38.91821616666667, "is_reserved": 0, "lon": -77.023173, "fusion_lon": 0.0, "is_disabled": 0, "fusion_lat": 0.0, "bike_id": "56c48701e7b9ca8d633bc5f95bb0396a", "rental_uris": {"ios": "https://dc.lft.to/lastmile_qr_scan", "android": "https://dc.lft.to/lastmile_qr_scan"}}, {"name": "6cbf95f8ba9f5f4d3495016b2820d4af", "type": "electric_bike", "lat": 38.8804345, "is_reserved": 0, "lon": -77.00543366666666, "fusion_lon": 0.0, "is_disabled": 0, "fusion_lat": 0.0, "bike_id": "6cbf95f8ba9f5f4d3495016b2820d4af", "rental_uris": {"ios": "https://dc.lft.to/lastmile_qr_scan", "android": "https://dc.lft.to/lastmile_qr_scan"}}, {"name": "28e480f872632fc319a0e0037b88a698", "type": "electric_scooter", "lat": 38.93445283333333, "is_reserved": 0, "lon": -77.02984383333333, "fusion_lon": 0.0, "is_disabled": 0, "fusion_lat": 0.0, "bike_id": "28e480f872632fc319a0e0037b88a698", "rental_uris": {"ios": "https://dc.lft.to/lastmile_qr_scan", "android": "https://dc.lft.to/lastmile_qr_scan"}}, {"name": "e21be5741c76910fe9a2bfe81134a97e", "type": "electric_scooter", "lat": 38.92183333333333, "is_reserved": 0, "lon": -77.04276983333334, "fusion_lon": 0.0, "is_disabled": 0, "fusion_lat": 0.0, "bike_id": "e21be5741c76910fe9a2bfe81134a97e", "rental_uris": {"ios": "https://dc.lft.to/lastmile_qr_scan", "android": "https://dc.lft.to/lastmile_qr_scan"}}, {"name": "8ad499a253ab8c12228eb69f8f4e380b", "type": "electric_scooter", "lat": 38.910227, "is_reserved": 0, "lon": -77.04876083333333, "fusion_lon": 0.0, "is_disabled": 0, "fusion_lat": 0.0, "bike_id": "8ad499a253ab8c12228eb69f8f4e380b", "rental_uris": {"ios": "https://dc.lft.to/lastmile_qr_scan", "android": "https://dc.lft.to/lastmile_qr_scan"}}, {"name": "43af5a4f773447d4fbfde8a7b9f492b6", "type": "electric_scooter", "lat": 38.892353166666666, "is_reserved": 0, "lon": -77.03363483333334, "fusion_lon": 0.0, "is_disabled": 0, "fusion_lat": 0.0, "bike_id": "43af5a4f773447d4fbfde8a7b9f492b6", "rental_uris": {"ios": "https://dc.lft.to/lastmile_qr_scan", "android": "https://dc.lft.to/lastmile_qr_scan"}}, {"name": "469a712fc7359d1110339fc64387f4c6", "type": "electric_scooter", "lat": 38.94276283333333, "is_reserved": 0, "lon": -77.02503916666667, "fusion_lon": 0.0, "is_disabled": 0, "fusion_lat": 0.0, "bike_id": "469a712fc7359d1110339fc64387f4c6", "rental_uris": {"ios": "https://dc.lft.to/lastmile_qr_scan", "android": "https://dc.lft.to/lastmile_qr_scan"}}, {"name": "33c764fbf7b1c8970b1d9405fee384db", "type": "electric_scooter", "lat": 38.89222733333333, "is_reserved": 0, "lon": -77.0464215, "fusion_lon": 0.0, "is_disabled": 0, "fusion_lat": 0.0, "bike_id": "33c764fbf7b1c8970b1d9405fee384db", "rental_uris": {"ios": "https://dc.lft.to/lastmile_qr_scan", "android": "https://dc.lft.to/lastmile_qr_scan"}}, {"name": "2e0b21a615325f3d7d7d075fd4ce2e57", "type": "electric_scooter", "lat": 38.918328833333334, "is_reserved": 0, "lon": -77.0351825, "fusion_lon": 0.0, "is_disabled": 0, "fusion_lat": 0.0, "bike_id": "2e0b21a615325f3d7d7d075fd4ce2e57", "rental_uris": {"ios": "https://dc.lft.to/lastmile_qr_scan", "android": "https://dc.lft.to/lastmile_qr_scan"}}, {"name": "1148061dd432bcbf0f45c7fbc26610a5", "type": "electric_bike", "lat": 38.903755833333335, "is_reserved": 0, "lon": -77.0328885, "fusion_lon": 0.0, "is_disabled": 0, "fusion_lat": 0.0, "bike_id": "1148061dd432bcbf0f45c7fbc26610a5", "rental_uris": {"ios": "https://dc.lft.to/lastmile_qr_scan", "android": "https://dc.lft.to/lastmile_qr_scan"}}, {"name": "b47f1d068d70e13c5b361dd151d61318", "type": "electric_scooter", "lat": 38.925905166666666, "is_reserved": 0, "lon": -77.02968133333333, "fusion_lon": 0.0, "is_disabled": 0, "fusion_lat": 0.0, "bike_id": "b47f1d068d70e13c5b361dd151d61318", "rental_uris": {"ios": "https://dc.lft.to/lastmile_qr_scan", "android": "https://dc.lft.to/lastmile_qr_scan"}}, {"name": "c5225cb2ecf99e23f25db3c2acf19c54", "type": "electric_scooter", "lat": 38.899415833333336, "is_reserved": 0, "lon": -77.02161733333334, "fusion_lon": 0.0, "is_disabled": 0, "fusion_lat": 0.0, "bike_id": "c5225cb2ecf99e23f25db3c2acf19c54", "rental_uris": {"ios": "https://dc.lft.to/lastmile_qr_scan", "android": "https://dc.lft.to/lastmile_qr_scan"}}, {"name": "e42397687c487214bbf705f510df5292", "type": "electric_bike", "lat": 38.9367115, "is_reserved": 0, "lon": -76.9521035, "fusion_lon": 0.0, "is_disabled": 0, "fusion_lat": 0.0, "bike_id": "e42397687c487214bbf705f510df5292", "rental_uris": {"ios": "https://dc.lft.to/lastmile_qr_scan", "android": "https://dc.lft.to/lastmile_qr_scan"}}, {"name": "614cccc7d781371b6511a617cd9dd865", "type": "electric_scooter", "lat": 38.876233, "is_reserved": 0, "lon": -77.00651716666667, "fusion_lon": 0.0, "is_disabled": 0, "fusion_lat": 0.0, "bike_id": "614cccc7d781371b6511a617cd9dd865", "rental_uris": {"ios": "https://dc.lft.to/lastmile_qr_scan", "android": "https://dc.lft.to/lastmile_qr_scan"}}, {"name": "a44a344641fe7f496f413e4dcc53754f", "type": "electric_scooter", "lat": 38.923095, "is_reserved": 0, "lon": -77.02980033333333, "fusion_lon": 0.0, "is_disabled": 0, "fusion_lat": 0.0, "bike_id": "a44a344641fe7f496f413e4dcc53754f", "rental_uris": {"ios": "https://dc.lft.to/lastmile_qr_scan", "android": "https://dc.lft.to/lastmile_qr_scan"}}, {"name": "cfb8d7a8d26e59e2c89b4978a3b8029f", "type": "electric_scooter", "lat": 38.901218666666665, "is_reserved": 0, "lon": -77.03048866666667, "fusion_lon": 0.0, "is_disabled": 0, "fusion_lat": 0.0, "bike_id": "cfb8d7a8d26e59e2c89b4978a3b8029f", "rental_uris": {"ios": "https://dc.lft.to/lastmile_qr_scan", "android": "https://dc.lft.to/lastmile_qr_scan"}}, {"name": "bd25ff35cd19af108e03829ed11bb691", "type": "electric_scooter", "lat": 38.928746333333336, "is_reserved": 0, "lon": -77.0405065, "fusion_lon": 0.0, "is_disabled": 0, "fusion_lat": 0.0, "bike_id": "bd25ff35cd19af108e03829ed11bb691", "rental_uris": {"ios": "https://dc.lft.to/lastmile_qr_scan", "android": "https://dc.lft.to/lastmile_qr_scan"}}, {"name": "8aba5c409db9d6f14975d4a26292543d", "type": "electric_scooter", "lat": 38.921603, "is_reserved": 0, "lon": -77.04218883333333, "fusion_lon": 0.0, "is_disabled": 0, "fusion_lat": 0.0, "bike_id": "8aba5c409db9d6f14975d4a26292543d", "rental_uris": {"ios": "https://dc.lft.to/lastmile_qr_scan", "android": "https://dc.lft.to/lastmile_qr_scan"}}, {"name": "75d95e3e87e3c85518aba4b3dac6371f", "type": "electric_scooter", "lat": 38.89485633333334, "is_reserved": 0, "lon": -76.99518666666667, "fusion_lon": 0.0, "is_disabled": 0, "fusion_lat": 0.0, "bike_id": "75d95e3e87e3c85518aba4b3dac6371f", "rental_uris": {"ios": "https://dc.lft.to/lastmile_qr_scan", "android": "https://dc.lft.to/lastmile_qr_scan"}}, {"name": "b392010be987f46c0507cd40e93c0f43", "type": "electric_scooter", "lat": 38.917658833333334, "is_reserved": 0, "lon": -77.023625, "fusion_lon": 0.0, "is_disabled": 0, "fusion_lat": 0.0, "bike_id": "b392010be987f46c0507cd40e93c0f43", "rental_uris": {"ios": "https://dc.lft.to/lastmile_qr_scan", "android": "https://dc.lft.to/lastmile_qr_scan"}}, {"name": "e464881a84d76a1d0a9940fd93b48ce7", "type": "electric_scooter", "lat": 38.93290233333333, "is_reserved": 0, "lon": -77.03981966666667, "fusion_lon": 0.0, "is_disabled": 0, "fusion_lat": 0.0, "bike_id": "e464881a84d76a1d0a9940fd93b48ce7", "rental_uris": {"ios": "https://dc.lft.to/lastmile_qr_scan", "android": "https://dc.lft.to/lastmile_qr_scan"}}, {"name": "bf359f4f376450a32e4f91c45f0c46b2", "type": "electric_scooter", "lat": 38.912664166666666, "is_reserved": 0, "lon": -77.02945333333334, "fusion_lon": 0.0, "is_disabled": 0, "fusion_lat": 0.0, "bike_id": "bf359f4f376450a32e4f91c45f0c46b2", "rental_uris": {"ios": "https://dc.lft.to/lastmile_qr_scan", "android": "https://dc.lft.to/lastmile_qr_scan"}}, {"name": "e16c685f10e7092793ab339e60573bfc", "type": "electric_scooter", "lat": 38.88688066666667, "is_reserved": 0, "lon": -76.9576095, "fusion_lon": 0.0, "is_disabled": 0, "fusion_lat": 0.0, "bike_id": "e16c685f10e7092793ab339e60573bfc", "rental_uris": {"ios": "https://dc.lft.to/lastmile_qr_scan", "android": "https://dc.lft.to/lastmile_qr_scan"}}, {"name": "1977dbcd357ae81243093087bd91fccb", "type": "electric_scooter", "lat": 38.89458416666667, "is_reserved": 0, "lon": -77.01920433333333, "fusion_lon": 0.0, "is_disabled": 0, "fusion_lat": 0.0, "bike_id": "1977dbcd357ae81243093087bd91fccb", "rental_uris": {"ios": "https://dc.lft.to/lastmile_qr_scan", "android": "https://dc.lft.to/lastmile_qr_scan"}}, {"name": "465f75abf595fe603cf099f8c225dec1", "type": "electric_scooter", "lat": 38.86521533333333, "is_reserved": 0, "lon": -76.9902655, "fusion_lon": 0.0, "is_disabled": 0, "fusion_lat": 0.0, "bike_id": "465f75abf595fe603cf099f8c225dec1", "rental_uris": {"ios": "https://dc.lft.to/lastmile_qr_scan", "android": "https://dc.lft.to/lastmile_qr_scan"}}, {"name": "6a6f1944539ffdfc1bcdae389ed42817", "type": "electric_bike", "lat": 38.838237, "is_reserved": 0, "lon": -76.99680566666666, "fusion_lon": 0.0, "is_disabled": 0, "fusion_lat": 0.0, "bike_id": "6a6f1944539ffdfc1bcdae389ed42817", "rental_uris": {"ios": "https://dc.lft.to/lastmile_qr_scan", "android": "https://dc.lft.to/lastmile_qr_scan"}}, {"name": "c178dbf354bcf024d2c10af8066a9bee", "type": "electric_scooter", "lat": 38.89739633333333, "is_reserved": 0, "lon": -76.93841366666666, "fusion_lon": 0.0, "is_disabled": 0, "fusion_lat": 0.0, "bike_id": "c178dbf354bcf024d2c10af8066a9bee", "rental_uris": {"ios": "https://dc.lft.to/lastmile_qr_scan", "android": "https://dc.lft.to/lastmile_qr_scan"}}, {"name": "81ad3e126cd2657c23d3e0852336f821", "type": "electric_bike", "lat": 38.88843333333333, "is_reserved": 0, "lon": -77.08277333333334, "fusion_lon": 0.0, "is_disabled": 0, "fusion_lat": 0.0, "bike_id": "81ad3e126cd2657c23d3e0852336f821", "rental_uris": {"ios": "https://dc.lft.to/lastmile_qr_scan", "android": "https://dc.lft.to/lastmile_qr_scan"}}, {"name": "235fed36d8e0a748e68f240472a9ea09", "type": "electric_scooter", "lat": 38.905864, "is_reserved": 0, "lon": -77.06519983333334, "fusion_lon": 0.0, "is_disabled": 0, "fusion_lat": 0.0, "bike_id": "235fed36d8e0a748e68f240472a9ea09", "rental_uris": {"ios": "https://dc.lft.to/lastmile_qr_scan", "android": "https://dc.lft.to/lastmile_qr_scan"}}, {"name": "c8da338e9bbf811b6c6eb9a4c71c0c99", "type": "electric_scooter", "lat": 38.8992395, "is_reserved": 0, "lon": -76.93379983333334, "fusion_lon": 0.0, "is_disabled": 0, "fusion_lat": 0.0, "bike_id": "c8da338e9bbf811b6c6eb9a4c71c0c99", "rental_uris": {"ios": "https://dc.lft.to/lastmile_qr_scan", "android": "https://dc.lft.to/lastmile_qr_scan"}}, {"name": "e8c1120e104d3be41db0c4046f50822e", "type": "electric_bike", "lat": 38.880444833333335, "is_reserved": 0, "lon": -77.025215, "fusion_lon": 0.0, "is_disabled": 0, "fusion_lat": 0.0, "bike_id": "e8c1120e104d3be41db0c4046f50822e", "rental_uris": {"ios": "https://dc.lft.to/lastmile_qr_scan", "android": "https://dc.lft.to/lastmile_qr_scan"}}, {"name": "85209c7a2d4940862afce27c12089986", "type": "electric_scooter", "lat": 38.9031175, "is_reserved": 0, "lon": -76.97646316666666, "fusion_lon": 0.0, "is_disabled": 0, "fusion_lat": 0.0, "bike_id": "85209c7a2d4940862afce27c12089986", "rental_uris": {"ios": "https://dc.lft.to/lastmile_qr_scan", "android": "https://dc.lft.to/lastmile_qr_scan"}}, {"name": "0e02d80bcfb34693d9b39bdfbfd82226", "type": "electric_scooter", "lat": 38.95732433333333, "is_reserved": 0, "lon": -77.02402733333334, "fusion_lon": 0.0, "is_disabled": 0, "fusion_lat": 0.0, "bike_id": "0e02d80bcfb34693d9b39bdfbfd82226", "rental_uris": {"ios": "https://dc.lft.to/lastmile_qr_scan", "android": "https://dc.lft.to/lastmile_qr_scan"}}, {"name": "cadfb31a3b083eed01895356dad655db", "type": "electric_bike", "lat": 38.911673, "is_reserved": 0, "lon": -77.00265183333333, "fusion_lon": 0.0, "is_disabled": 0, "fusion_lat": 0.0, "bike_id": "cadfb31a3b083eed01895356dad655db", "rental_uris": {"ios": "https://dc.lft.to/lastmile_qr_scan", "android": "https://dc.lft.to/lastmile_qr_scan"}}, {"name": "0230baf7e58f7893f46152dcd1df5042", "type": "electric_scooter", "lat": 38.925026833333334, "is_reserved": 0, "lon": -77.03568316666667, "fusion_lon": 0.0, "is_disabled": 0, "fusion_lat": 0.0, "bike_id": "0230baf7e58f7893f46152dcd1df5042", "rental_uris": {"ios": "https://dc.lft.to/lastmile_qr_scan", "android": "https://dc.lft.to/lastmile_qr_scan"}},