{"data": {"bikes": [{"fusion_lat": 0.0, "type": "electric_scooter", "name": "cd231f47ec18183bb7529f9008685ed6", "fusion_lon": 0.0, "bike_id": "cd231f47ec18183bb7529f9008685ed6", "is_reserved": 0, "rental_uris": {"android": "https://dc.lft.to/lastmile_qr_scan", "ios": "https://dc.lft.to/lastmile_qr_scan"}, "lat": 38.9533635, "is_disabled": 0, "lon": -77.009617}, {"fusion_lat": 0.0, "type": "electric_scooter", "name": "bbd60ee899862865f4ec7aa0fc0efe93", "fusion_lon": 0.0, "bike_id": "bbd60ee899862865f4ec7aa0fc0efe93", "is_reserved": 0, "rental_uris": {"android": "https://dc.lft.to/lastmile_qr_scan", "ios": "https://dc.lft.to/lastmile_qr_scan"}, "lat": 38.8921725, "is_disabled": 0, "lon": -77.043759}, {"fusion_lat": 0.0, "type": "electric_scooter", "name": "8c1c526cc5bf8b3b671b6333ff1a8b2e", "fusion_lon": 0.0, "bike_id": "8c1c526cc5bf8b3b671b6333ff1a8b2e", "is_reserved": 0, "rental_uris": {"android": "https://dc.lft.to/lastmile_qr_scan", "ios": "https://dc.lft.to/lastmile_qr_scan"}, "lat": 38.89343983333333, "is_disabled": 0, "lon": -77.04189083333333}, {"fusion_lat": 0.0, "type": "electric_scooter", "name": "125d8c0520f2d9a1a13ed353b17ac729", "fusion_lon": 0.0, "bike_id": "125d8c0520f2d9a1a13ed353b17ac729", "is_reserved": 0, "rental_uris": {"android": "https://dc.lft.to/lastmile_qr_scan", "ios": "https://dc.lft.to/lastmile_qr_scan"}, "lat": 38.90469983333333, "is_disabled": 0, "lon": -77.0282955}, {"fusion_lat": 0.0, "type": "electric_scooter", "name": "22d8b88c180f4a3bc8317f32b29652b8", "fusion_lon": 0.0, "bike_id": "22d8b88c180f4a3bc8317f32b29652b8", "is_reserved": 0, "rental_uris": {"android": "https://dc.lft.to/lastmile_qr_scan", "ios": "https://dc.lft.to/lastmile_qr_scan"}, "lat": 38.920618833333336, "is_disabled": 0, "lon": -77.0422035}, {"fusion_lat": 0.0, "type": "electric_scooter", "name": "6066e07f2e6ff641fbb3964a4f790a18", "fusion_lon": 0.0, "bike_id": "6066e07f2e6ff641fbb3964a4f790a18", "is_reserved": 0, "rental_uris": {"android": "https://dc.lft.to/lastmile_qr_scan", "ios": "https://dc.lft.to/lastmile_qr_scan"}, "lat": 38.868927666666664, "is_disabled": 0, "lon": -76.98224933333333}, {"fusion_lat": 0.0, "type": "electric_scooter", "name": "5a13443747039d3455007340ee49786a", "fusion_lon": 0.0, "bike_id": "5a13443747039d3455007340ee49786a", "is_reserved": 0, "rental_uris": {"android": "https://dc.lft.to/lastmile_qr_scan", "ios": "https://dc.lft.to/lastmile_qr_scan"}, "lat": 38.903788, "is_disabled": 0, "lon": -77.038546}, {"fusion_lat": 0.0, "type": "electric_scooter", "name": "413070717b9c3a4984c23a035d5b4f02", "fusion_lon": 0.0, "bike_id": "413070717b9c3a4984c23a035d5b4f02", "is_reserved": 0, "rental_uris": {"android": "https://dc.lft.to/lastmile_qr_scan", "ios": "https://dc.lft.to/lastmile_qr_scan"}, "lat": 38.901338833333334, "is_disabled": 0, "lon": -77.0280145}, {"fusion_lat": 0.0, "type": "electric_scooter", "name": "6fc79901a660e7403a7bbf3261fb5fb0", "fusion_lon": 0.0, "bike_id": "6fc79901a660e7403a7bbf3261fb5fb0", "is_reserved": 0, "rental_uris": {"android": "https://dc.lft.to/lastmile_qr_scan", "ios": "https://dc.lft.to/lastmile_qr_scan"}, "lat": 38.898366833333334, "is_disabled": 0, "lon": -77.02711666666667}, {"fusion_lat": 0.0, "type": "electric_scooter", "name": "e40bbd04a5334377ee90ccb61cbfa7a8", "fusion_lon": 0.0, "bike_id": "e40bbd04a5334377ee90ccb61cbfa7a8", "is_reserved": 0, "rental_uris": {"android": "https://dc.lft.to/lastmile_qr_scan", "ios": "https://dc.lft.to/lastmile_qr_scan"}, "lat": 38.89222816666667, "is_disabled": 0, "lon": -77.04374466666667}, {"fusion_lat": 0.0, "type": "electric_scooter", "name": "9738b3fd2cfe68fab2fd5c5d38f1e945", "fusion_lon": 0.0, "bike_id": "9738b3fd2cfe68fab2fd5c5d38f1e945", "is_reserved": 0, "rental_uris": {"android": "https://dc.lft.to/lastmile_qr_scan", "ios": "https://dc.lft.to/lastmile_qr_scan"}, "lat": 38.887296, "is_disabled": 0, "lon": -77.02579}, {"fusion_lat": 0.0, "type": "electric_scooter", "name": "8fdc30d6847bc2afc0b7e2019d756146", "fusion_lon": 0.0, "bike_id": "8fdc30d6847bc2afc0b7e2019d756146", "is_reserved": 0, "rental_uris": {"android": "https://dc.lft.to/lastmile_qr_scan", "ios": "https://dc.lft.to/lastmile_qr_scan"}, "lat": 38.911883333333336, "is_disabled": 0, "lon": -77.030237}, {"fusion_lat": 0.0, "type": "electric_scooter", "name": "a61b2d2945a7c11d655142730bee8741", "fusion_lon": 0.0, "bike_id": "a61b2d2945a7c11d655142730bee8741", "is_reserved": 0, "rental_uris": {"android": "https://dc.lft.to/lastmile_qr_scan", "ios": "https://dc.lft.to/lastmile_qr_scan"}, "lat": 38.9243335, "is_disabled": 0, "lon": -77.05208983333333}, {"fusion_lat": 0.0, "type": "electric_scooter", "name": "2659604292d5be3bcc7c68bbd9be7dc9", "fusion_lon": 0.0, "bike_id": "2659604292d5be3bcc7c68bbd9be7dc9", "is_reserved": 0, "rental_uris": {"android": "https://dc.lft.to/lastmile_qr_scan", "ios": "https://dc.lft.to/lastmile_qr_scan"}, "lat": 38.92781216666667, "is_disabled": 0, "lon": -77.01406466666667}, {"fusion_lat": 0.0, "type": "electric_scooter", "name": "05163b1fccbc224fcb63ab95aea3a6cd", "fusion_lon": 0.0, "bike_id": "05163b1fccbc224fcb63ab95aea3a6cd", "is_reserved": 0, "rental_uris": {"android": "https://dc.lft.to/lastmile_qr_scan", "ios": "https://dc.lft.to/lastmile_qr_scan"}, "lat": 38.89493016666667, "is_disabled": 0, "lon": -77.02145666666667}, {"fusion_lat": 0.0, "type": "electric_scooter", "name": "9e397536a6e13f1727b611548176de80", "fusion_lon": 0.0, "bike_id": "9e397536a6e13f1727b611548176de80", "is_reserved": 0, "rental_uris": {"android": "https://dc.lft.to/lastmile_qr_scan", "ios": "https://dc.lft.to/lastmile_qr_scan"}, "lat": 38.86696966666667, "is_disabled": 0, "lon": -76.98712366666666}, {"fusion_lat": 0.0, "type": "electric_scooter", "name": "5fbd5e5c2f3494818c8be2c31cbc5611", "fusion_lon": 0.0, "bike_id": "5fbd5e5c2f3494818c8be2c31cbc5611", "is_reserved": 0, "rental_uris": {"android": "https://dc.lft.to/lastmile_qr_scan", "ios": "https://dc.lft.to/lastmile_qr_scan"}, "lat": 38.90146566666667, "is_disabled": 0, "lon": -77.022734}, {"fusion_lat": 0.0, "type": "electric_scooter", "name": "122dc66dbdf932298073a8d9d13e2b54", "fusion_lon": 0.0, "bike_id": "122dc66dbdf932298073a8d9d13e2b54", "is_reserved": 0, "rental_uris": {"android": "https://dc.lft.to/lastmile_qr_scan", "ios": "https://dc.lft.to/lastmile_qr_scan"}, "lat": 38.893686833333334, "is_disabled": 0, "lon": -76.9499645}, {"fusion_lat": 0.0, "type": "electric_scooter", "name": "3675a8c20e43a78a4a35c90ce07b0b3a", "fusion_lon": 0.0, "bike_id": "3675a8c20e43a78a4a35c90ce07b0b3a", "is_reserved": 0, "rental_uris": {"android": "https://dc.lft.to/lastmile_qr_scan", "ios": "https://dc.lft.to/lastmile_qr_scan"}, "lat": 38.93082533333333, "is_disabled": 0, "lon": -77.004129}, {"fusion_lat": 0.0, "type": "electric_bike", "name": "6304ea9108a8760401dc4fbede6c361d", "fusion_lon": 0.0, "bike_id": "6304ea9108a8760401dc4fbede6c361d", "is_reserved": 0, "rental_uris": {"android": "https://dc.lft.to/lastmile_qr_scan", "ios": "https://dc.lft.to/lastmile_qr_scan"}, "lat": 38.95928583333333, "is_disabled": 0, "lon": -76.92533033333333}, {"fusion_lat": 0.0, "type": "electric_scooter", "name": "c72f98731344c19695fd17db1516477a", "fusion_lon": 0.0, "bike_id": "c72f98731344c19695fd17db1516477a", "is_reserved": 0, "rental_uris": {"android": "https://dc.lft.to/lastmile_qr_scan", "ios": "https://dc.lft.to/lastmile_qr_scan"}, "lat": 38.877198166666666, "is_disabled": 0, "lon": -77.01767983333333}, {"fusion_lat": 0.0, "type": "electric_scooter", "name": "4cdc7aa8f29582444b0baf89ff188b0b", "fusion_lon": 0.0, "bike_id": "4cdc7aa8f29582444b0baf89ff188b0b", "is_reserved": 0, "rental_uris": {"android": "https://dc.lft.to/lastmile_qr_scan", "ios": "https://dc.lft.to/lastmile_qr_scan"}, "lat": 38.94085916666667, "is_disabled": 0, "lon": -77.02754333333333}, {"fusion_lat": 0.0, "type": "electric_scooter", "name": "e90a8eb3d2227d54ed92d035eb888c17", "fusion_lon": 0.0, "bike_id": "e90a8eb3d2227d54ed92d035eb888c17", "is_reserved": 0, "rental_uris": {"android": "https://dc.lft.to/lastmile_qr_scan", "ios": "https://dc.lft.to/lastmile_qr_scan"}, "lat": 38.8762635, "is_disabled": 0, "lon": -77.01258766666666}, {"fusion_lat": 0.0, "type": "electric_scooter", "name": "f6608ed6cd355cd4d9cc702fed347526", "fusion_lon": 0.0, "bike_id": "f6608ed6cd355cd4d9cc702fed347526", "is_reserved": 0, "rental_uris": {"android": "https://dc.lft.to/lastmile_qr_scan", "ios": "https://dc.lft.to/lastmile_qr_scan"}, "lat": 38.87288816666667, "is_disabled": 0, "lon": -77.0098435}, {"fusion_lat": 0.0, "type": "electric_scooter", "name": "825929889e8e3c06910eba629dfd71b9", "fusion_lon": 0.0, "bike_id": "825929889e8e3c06910eba629dfd71b9", "is_reserved": 0, "rental_uris": {"android": "https://dc.lft.to/lastmile_qr_scan", "ios": "https://dc.lft.to/lastmile_qr_scan"}, "lat": 38.88085483333333, "is_disabled": 0, "lon": -76.998364}, {"fusion_lat": 0.0, "type": "electric_scooter", "name": "26915f995b82025144a510cd90de7a53", "fusion_lon": 0.0, "bike_id": "26915f995b82025144a510cd90de7a53", "is_reserved": 0, "rental_uris": {"android": "https://dc.lft.to/lastmile_qr_scan", "ios": "https://dc.lft.to/lastmile_qr_scan"}, "lat": 38.903293, "is_disabled": 0, "lon": -76.99119416666667}, {"fusion_lat": 0.0, "type": "electric_scooter", "name": "ea934e3fdac41828e716b660700b560e", "fusion_lon": 0.0, "bike_id": "ea934e3fdac41828e716b660700b560e", "is_reserved": 0, "rental_uris": {"android": "https://dc.lft.to/lastmile_qr_scan", "ios": "https://dc.lft.to/lastmile_qr_scan"}, "lat": 38.8600745, "is_disabled": 0, "lon": -76.9851845}, {"fusion_lat": 0.0, "type": "electric_scooter", "name": "4eff43e4b1c528d903c7797de4dcb99b", "fusion_lon": 0.0, "bike_id": "4eff43e4b1c528d903c7797de4dcb99b", "is_reserved": 0, "rental_uris": {"android": "https://dc.lft.to/lastmile_qr_scan", "ios": "https://dc.lft.to/lastmile_qr_scan"}, "lat": 38.9240805, "is_disabled": 0, "lon": -77.0297365}, {"fusion_lat": 0.0, "type": "electric_scooter", "name": "a755c6d3d0cdbb0b8b2e8cbdcd7c8753", "fusion_lon": 0.0, "bike_id": "a755c6d3d0cdbb0b8b2e8cbdcd7c8753", "is_reserved": 0, "rental_uris": {"android": "https://dc.lft.to/lastmile_qr_scan", "ios": "https://dc.lft.to/lastmile_qr_scan"}, "lat": 38.9095225, "is_disabled": 0, "lon": -76.98536383333334}, {"fusion_lat": 0.0, "type": "electric_scooter", "name": "2673b9ec053562a8ada938049d2c1e12", "fusion_lon": 0.0, "bike_id": "2673b9ec053562a8ada938049d2c1e12", "is_reserved": 0, "rental_uris": {"android": "https://dc.lft.to/lastmile_qr_scan", "ios": "https://dc.lft.to/lastmile_qr_scan"}, "lat": 38.88530683333333, "is_disabled": 0, "lon": -77.005765}, {"fusion_lat": 0.0, "type": "electric_scooter", "name": "de4d27b5d22b07b008318303842b0414", "fusion_lon": 0.0, "bike_id": "de4d27b5d22b07b008318303842b0414", "is_reserved": 0, "rental_uris": {"android": "https://dc.lft.to/lastmile_qr_scan", "ios": "https://dc.lft.to/lastmile_qr_scan"}, "lat": 38.924774166666666, "is_disabled": 0, "lon": -77.04158033333333}, {"fusion_lat": 0.0, "type": "electric_scooter", "name": "e3ac49f6c73293894093eac65dea6643", "fusion_lon": 0.0, "bike_id": "e3ac49f6c73293894093eac65dea6643", "is_reserved": 0, "rental_uris": {"android": "https://dc.lft.to/lastmile_qr_scan", "ios": "https://dc.lft.to/lastmile_qr_scan"}, "lat": 38.9432445, "is_disabled": 0, "lon": -77.02681016666666}, {"fusion_lat": 0.0, "type": "electric_bike", "name": "d0538f7a0373bfdbdef082fe8f31e0c2", "fusion_lon": 0.0, "bike_id": "d0538f7a0373bfdbdef082fe8f31e0c2", "is_reserved": 0, "rental_uris": {"android": "https://dc.lft.to/lastmile_qr_scan", "ios": "https://dc.lft.to/lastmile_qr_scan"}, "lat": 38.9003015, "is_disabled": 0, "lon": -76.97215516666667}, {"fusion_lat": 0.0, "type": "electric_scooter", "name": "ef42796ac2e079b6c36d272fb24f23a5", "fusion_lon": 0.0, "bike_id": "ef42796ac2e079b6c36d272fb24f23a5", "is_reserved": 0, "rental_uris": {"android": "https://dc.lft.to/lastmile_qr_scan", "ios": "https://dc.lft.to/lastmile_qr_scan"}, "lat": 38.89890166666667, "is_disabled": 0, "lon": -77.0394225}, {"fusion_lat": 0.0, "type": "electric_scooter", "name": "f3601fe031e65ca4757266447e0d48bd", "fusion_lon": 0.0, "bike_id": "f3601fe031e65ca4757266447e0d48bd", "is_reserved": 0, "rental_uris": {"android": "https://dc.lft.to/lastmile_qr_scan", "ios": "https://dc.lft.to/lastmile_qr_scan"}, "lat": 38.952744333333335, "is_disabled": 0, "lon": -77.06977883333333}, {"fusion_lat": 0.0, "type": "electric_scooter", "name": "fd4a12f074b3c2043a30db26ef506b42", "fusion_lon": 0.0, "bike_id": "fd4a12f074b3c2043a30db26ef506b42", "is_reserved": 0, "rental_uris": {"android": "https://dc.lft.to/lastmile_qr_scan", "ios": "https://dc.lft.to/lastmile_qr_scan"}, "lat": 38.874648666666666, "is_disabled": 0, "lon": -77.01894866666666}, {"fusion_lat": 0.0, "type": "electric_scooter", "name": "6a353a0a53d116cbe1581b7cab53e025", "fusion_lon": 0.0, "bike_id": "6a353a0a53d116cbe1581b7cab53e025", "is_reserved": 0, "rental_uris": {"android": "https://dc.lft.to/lastmile_qr_scan", "ios": "https://dc.lft.to/lastmile_qr_scan"}, "lat": 38.916345, "is_disabled": 0, "lon": -77.04255383333333}, {"fusion_lat": 0.0, "type": "electric_scooter", "name": "4dc2cbab59bb7a1337b250990ba51fd4", "fusion_lon": 0.0, "bike_id": "4dc2cbab59bb7a1337b250990ba51fd4", "is_reserved": 0, "rental_uris": {"android": "https://dc.lft.to/lastmile_qr_scan", "ios": "https://dc.lft.to/lastmile_qr_scan"}, "lat": 38.9593325, "is_disabled": 0, "lon": -77.03126833333333}, {"fusion_lat": 0.0, "type": "electric_scooter", "name": "a092237377f3d9e20d116f4c6dd84df6", "fusion_lon": 0.0, "bike_id": "a092237377f3d9e20d116f4c6dd84df6", "is_reserved": 0, "rental_uris": {"android": "https://dc.lft.to/lastmile_qr_scan", "ios": "https://dc.lft.to/lastmile_qr_scan"}, "lat": 38.87357933333333, "is_disabled": 0, "lon": -76.97002116666667}, {"fusion_lat": 0.0, "type": "electric_scooter", "name": "60356888687525e40816b781d5cc36d2", "fusion_lon": 0.0, "bike_id": "60356888687525e40816b781d5cc36d2", "is_reserved": 0, "rental_uris": {"android": "https://dc.lft.to/lastmile_qr_scan", "ios": "https://dc.lft.to/lastmile_qr_scan"}, "lat": 38.91279383333333, "is_disabled": 0, "lon": -77.022454}, {"fusion_lat": 0.0, "type": "electric_scooter", "name": "179e9093edeb1e032cc26ead30f42641", "fusion_lon": 0.0, "bike_id": "179e9093edeb1e032cc26ead30f42641", "is_reserved": 0, "rental_uris": {"android": "https://dc.lft.to/lastmile_qr_scan", "ios": "https://dc.lft.to/lastmile_qr_scan"}, "lat": 38.942894333333335, "is_disabled": 0, "lon": -77.021751}, {"fusion_lat": 0.0, "type": "electric_scooter", "name": "de376e26f14cf4fea95c693c449cdb1d", "fusion_lon": 0.0, "bike_id": "de376e26f14cf4fea95c693c449cdb1d", "is_reserved": 0, "rental_uris": {"android": "https://dc.lft.to/lastmile_qr_scan", "ios": "https://dc.lft.to/lastmile_qr_scan"}, "lat": 38.92713883333333, "is_disabled": 0, "lon": -77.02412466666667}, {"fusion_lat": 0.0, "type": "electric_scooter", "name": "35904b920428f956e47a2aa66c20cad1", "fusion_lon": 0.0, "bike_id": "35904b920428f956e47a2aa66c20cad1", "is_reserved": 0, "rental_uris": {"android": "https://dc.lft.to/lastmile_qr_scan", "ios": "https://dc.lft.to/lastmile_qr_scan"}, "lat": 38.905574, "is_disabled": 0, "lon": -77.03926833333334}, {"fusion_lat": 0.0, "type": "electric_scooter", "name": "a7a4d2a56bb3b1f2b4dcfe36acf04d32", "fusion_lon": 0.0, "bike_id": "a7a4d2a56bb3b1f2b4dcfe36acf04d32", "is_reserved": 0, "rental_uris": {"android": "https://dc.lft.to/lastmile_qr_scan", "ios": "https://dc.lft.to/lastmile_qr_scan"}, "lat": 38.906365666666666, "is_disabled": 0, "lon": -77.0513265}, {"fusion_lat": 0.0, "type": "electric_scooter", "name": "0425ee4ed8b4366405cb958c122ac58c", "fusion_lon": 0.0, "bike_id": "0425ee4ed8b4366405cb958c122ac58c", "is_reserved": 0, "rental_uris": {"android": "https://dc.lft.to/lastmile_qr_scan", "ios": "https://dc.lft.to/lastmile_qr_scan"}, "lat": 38.928532833333335, "is_disabled": 0, "lon": -77.03300816666666}, {"fusion_lat": 0.0, "type": "electric_scooter", "name": "2df072c24654e6b15debd32f78a9f7c8", "fusion_lon": 0.0, "bike_id": "2df072c24654e6b15debd32f78a9f7c8", "is_reserved": 0, "rental_uris": {"android": "https://dc.lft.to/lastmile_qr_scan", "ios": "https://dc.lft.to/lastmile_qr_scan"}, "lat": 38.9133815, "is_disabled": 0, "lon": -77.03638483333333}, {"fusion_lat": 0.0, "type": "electric_scooter", "name": "97084ce485fea5cd2145825aa7da33d9", "fusion_lon": 0.0, "bike_id": "97084ce485fea5cd2145825aa7da33d9", "is_reserved": 0, "rental_uris": {"android": "https://dc.lft.to/lastmile_qr_scan", "ios": "https://dc.lft.to/lastmile_qr_scan"}, "lat": 38.907608, "is_disabled": 0, "lon": -77.00096183333333}, {"fusion_lat": 0.0, "type": "electric_scooter", "name": "3322a3ec6b7e4a1ee32fabc4852f6a26", "fusion_lon": 0.0, "bike_id": "3322a3ec6b7e4a1ee32fabc4852f6a26", "is_reserved": 0, "rental_uris": {"android": "https://dc.lft.to/lastmile_qr_scan", "ios": "https://dc.lft.to/lastmile_qr_scan"}, "lat": 38.871727, "is_disabled": 0, "lon": -77.00624816666667}, {"fusion_lat": 0.0, "type": "electric_bike", "name": "81150c0ca8b36341ea1c62ede26201d3", "fusion_lon": 0.0, "bike_id": "81150c0ca8b36341ea1c62ede26201d3", "is_reserved": 0, "rental_uris": {"android": "https://dc.lft.to/lastmile_qr_scan", "ios": "https://dc.lft.to/lastmile_qr_scan"}, "lat": 38.846128666666665, "is_disabled": 0, "lon": -76.96912733333333}, {"fusion_lat": 0.0, "type": "electric_bike", "name": "d4462f466ac32310b3187b81c661f1ff", "fusion_lon": 0.0, "bike_id": "d4462f466ac32310b3187b81c661f1ff", "is_reserved": 0, "rental_uris": {"android": "https://dc.lft.to/lastmile_qr_scan", "ios": "https://dc.lft.to/lastmile_qr_scan"}, "lat": 38.88041116666667, "is_disabled": 0, "lon": -77.01126483333333}, {"fusion_lat": 0.0, "type": "electric_scooter", "name": "dd60c83f7234041a33d845af1959b9ca", "fusion_lon": 0.0, "bike_id": "dd60c83f7234041a33d845af1959b9ca", "is_reserved": 0, "rental_uris": {"android": "https://dc.lft.to/lastmile_qr_scan", "ios": "https://dc.lft.to/lastmile_qr_scan"}, "lat": 38.86736166666667, "is_disabled": 0, "lon": -76.9878405}, {"fusion_lat": 0.0, "type": "electric_scooter", "name": "5f9ce8c13c9d8dacfffd7548ded83a98", "fusion_lon": 0.0, "bike_id": "5f9ce8c13c9d8dacfffd7548ded83a98", "is_reserved": 0, "rental_uris": {"android": "https://dc.lft.to/lastmile_qr_scan", "ios": "https://dc.lft.to/lastmile_qr_scan"}, "lat": 38.931892833333336, "is_disabled": 0, "lon": -77.038525}, {"fusion_lat": 0.0, "type": "electric_scooter", "name": "2858b14643be84166bfce78c35bb138b", "fusion_lon": 0.0, "bike_id": "2858b14643be84166bfce78c35bb138b", "is_reserved": 0, "rental_uris": {"android": "https://dc.lft.to/lastmile_qr_scan", "ios": "https://dc.lft.to/lastmile_qr_scan"}, "lat": 38.91112283333333, "is_disabled": 0, "lon": -77.04501333333333}, {"fusion_lat": 0.0, "type": "electric_scooter", "name": "9b7f5cb6263fa516362313a53cbb3a2b", "fusion_lon": 0.0, "bike_id": "9b7f5cb6263fa516362313a53cbb3a2b", "is_reserved": 0, "rental_uris": {"android": "https://dc.lft.to/lastmile_qr_scan", "ios": "https://dc.lft.to/lastmile_qr_scan"}, "lat": 38.905213333333336, "is_disabled": 0, "lon": -77.05045366666667}, {"fusion_lat": 0.0, "type": "electric_scooter", "name": "f306d5eb9370480e784b7113f4cbae0b", "fusion_lon": 0.0, "bike_id": "f306d5eb9370480e784b7113f4cbae0b", "is_reserved": 0, "rental_uris": {"android": "https://dc.lft.to/lastmile_qr_scan", "ios": "https://dc.lft.to/lastmile_qr_scan"}, "lat": 38.86695116666667, "is_disabled": 0, "lon": -76.987076}, {"fusion_lat": 0.0, "type": "electric_scooter", "name": "94b37913028cc15cdf83588dafb1d76f", "fusion_lon": 0.0, "bike_id": "94b37913028cc15cdf83588dafb1d76f", "is_reserved": 0, "rental_uris": {"android": "https://dc.lft.to/lastmile_qr_scan", "ios": "https://dc.lft.to/lastmile_qr_scan"}, "lat": 38.90465616666667, "is_disabled": 0, "lon": -77.0390655}, {"fusion_lat": 0.0, "type": "electric_scooter", "name": "373555a6fcf584fa7e55de5190c96beb", "fusion_lon": 0.0, "bike_id": "373555a6fcf584fa7e55de5190c96beb", "is_reserved": 0, "rental_uris": {"android": "https://dc.lft.to/lastmile_qr_scan", "ios": "https://dc.lft.to/lastmile_qr_scan"}, "lat": 38.892191, "is_disabled": 0, "lon": -77.03181316666667}, {"fusion_lat": 0.0, "type": "electric_scooter", "name": "ea60659b2db3e766217cdc18b14954af", "fusion_lon": 0.0, "bike_id": "ea60659b2db3e766217cdc18b14954af", "is_reserved": 0, "rental_uris": {"android": "https://dc.lft.to/lastmile_qr_scan", "ios": "https://dc.lft.to/lastmile_qr_scan"}, "lat": 38.823787333333335, "is_disabled": 0, "lon": -77.01183133333333}, {"fusion_lat": 0.0, "type": "electric_scooter", "name": "2fbebd9e4bf8f7360d681c218e522091", "fusion_lon": 0.0, "bike_id": "2fbebd9e4bf8f7360d681c218e522091", "is_reserved": 0, "rental_uris": {"android": "https://dc.lft.to/lastmile_qr_scan", "ios": "https://dc.lft.to/lastmile_qr_scan"}, "lat": 38.9294535, "is_disabled": 0, "lon": -77.016403}, {"fusion_lat": 0.0, "type": "electric_scooter", "name": "0a1a0fb96730aa61aae4059aebaa4c46", "fusion_lon": 0.0, "bike_id": "0a1a0fb96730aa61aae4059aebaa4c46", "is_reserved": 0, "rental_uris": {"android": "https://dc.lft.to/lastmile_qr_scan", "ios": "https://dc.lft.to/lastmile_qr_scan"}, "lat": 38.89355533333333, "is_disabled": 0, "lon": -77.00336333333334}, {"fusion_lat": 0.0, "type": "electric_scooter", "name": "5a3684efc1e335bd369c705eeeb86ac3", "fusion_lon": 0.0, "bike_id": "5a3684efc1e335bd369c705eeeb86ac3", "is_reserved": 0, "rental_uris": {"android": "https://dc.lft.to/lastmile_qr_scan", "ios": "https://dc.lft.to/lastmile_qr_scan"}, "lat": 38.936985666666665, "is_disabled": 0, "lon": -77.023971}, {"fusion_lat": 0.0, "type": "electric_scooter", "name": "05ee750762c7987c51b554993bef3556", "fusion_lon": 0.0, "bike_id": "05ee750762c7987c51b554993bef3556", "is_reserved": 0, "rental_uris": {"android": "https://dc.lft.to/lastmile_qr_scan", "ios": "https://dc.lft.to/lastmile_qr_scan"}, "lat": 38.91071683333333, "is_disabled": 0, "lon": -77.03457816666666}, {"fusion_lat": 0.0, "type": "electric_scooter", "name": "0587639523d89435b6cdb124f1e2033e", "fusion_lon": 0.0, "bike_id": "0587639523d89435b6cdb124f1e2033e", "is_reserved": 0, "rental_uris": {"android": "https://dc.lft.to/lastmile_qr_scan", "ios": "https://dc.lft.to/lastmile_qr_scan"}, "lat": 38.90286583333334, "is_disabled": 0, "lon": -77.03837933333334}, {"fusion_lat": 0.0, "type": "electric_scooter", "name": "8562fab68e78d88ac1e49f72b83ae7d7", "fusion_lon": 0.0, "bike_id": "8562fab68e78d88ac1e49f72b83ae7d7", "is_reserved": 0, "rental_uris": {"android": "https://dc.lft.to/lastmile_qr_scan", "ios": "https://dc.lft.to/lastmile_qr_scan"}, "lat": 38.92269616666667, "is_disabled": 0, "lon": -77.034105}, {"fusion_lat": 0.0, "type": "electric_scooter", "name": "228b95c65081ec1526d7a9e908cf0e1f", "fusion_lon": 0.0, "bike_id": "228b95c65081ec1526d7a9e908cf0e1f", "is_reserved": 0, "rental_uris": {"android": "https://dc.lft.to/lastmile_qr_scan", "ios": "https://dc.lft.to/lastmile_qr_scan"}, "lat": 38.88717483333333, "is_disabled": 0, "lon": -77.02183483333333}, {"fusion_lat": 0.0, "type": "electric_scooter", "name": "307158597abd825afff456c0c98087b1", "fusion_lon": 0.0, "bike_id": "307158597abd825afff456c0c98087b1", "is_reserved": 0, "rental_uris": {"android": "https://dc.lft.to/lastmile_qr_scan", "ios": "https://dc.lft.to/lastmile_qr_scan"}, "lat": 38.957301333333334, "is_disabled": 0, "lon": -77.0240125}, {"fusion_lat": 0.0, "type": "electric_scooter", "name": "56d1632f8eeb411f8ea3a61e8126165a", "fusion_lon": 0.0, "bike_id": "56d1632f8eeb411f8ea3a61e8126165a", "is_reserved": 0, "rental_uris": {"android": "https://dc.lft.to/lastmile_qr_scan", "ios": "https://dc.lft.to/lastmile_qr_scan"}, "lat": 38.92405983333333, "is_disabled": 0, "lon": -77.05171016666667}, {"fusion_lat": 0.0, "type": "electric_scooter", "name": "95055607394bfc9e3f83d7ff2210e01b", "fusion_lon": 0.0, "bike_id": "95055607394bfc9e3f83d7ff2210e01b", "is_reserved": 0, "rental_uris": {"android": "https://dc.lft.to/lastmile_qr_scan", "ios": "https://dc.lft.to/lastmile_qr_scan"}, "lat": 38.92122533333333, "is_disabled": 0, "lon": -77.0179685}, {"fusion_lat": 0.0, "type": "electric_scooter", "name": "23b149889b7755a2bfedd71af44c8391", "fusion_lon": 0.0, "bike_id": "23b149889b7755a2bfedd71af44c8391", "is_reserved": 0, "rental_uris": {"android": "https://dc.lft.to/lastmile_qr_scan", "ios": "https://dc.lft.to/lastmile_qr_scan"}, "lat": 38.90656083333333, "is_disabled": 0, "lon": -77.03872916666667}, {"fusion_lat": 0.0, "type": "electric_scooter", "name": "85894c30cfd1f13a9e1e00749af1011d", "fusion_lon": 0.0, "bike_id": "85894c30cfd1f13a9e1e00749af1011d", "is_reserved": 0, "rental_uris": {"android": "https://dc.lft.to/lastmile_qr_scan", "ios": "https://dc.lft.to/lastmile_qr_scan"}, "lat": 38.904695333333336, "is_disabled": 0, "lon": -77.03559}, {"fusion_lat": 0.0, "type": "electric_bike", "name": "c9155908a3eebd1fcb3f081b67310cac", "fusion_lon": 0.0, "bike_id": "c9155908a3eebd1fcb3f081b67310cac", "is_reserved": 0, "rental_uris": {"android": "https://dc.lft.to/lastmile_qr_scan", "ios": "https://dc.lft.to/lastmile_qr_scan"}, "lat": 38.853746666666666, "is_disabled": 0, "lon": -77.12464883333334}, {"fusion_lat": 0.0, "type": "electric_scooter", "name": "3c047f93fd20f11a448486984bbaa022", "fusion_lon": 0.0, "bike_id": "3c047f93fd20f11a448486984bbaa022", "is_reserved": 0, "rental_uris": {"android": "https://dc.lft.to/lastmile_qr_scan", "ios": "https://dc.lft.to/lastmile_qr_scan"}, "lat": 38.918045166666666, "is_disabled": 0, "lon": -77.0343445}, {"fusion_lat": 0.0, "type": "electric_bike", "name": "0098347a826b0071824eb7e8ae2f570c", "fusion_lon": 0.0, "bike_id": "0098347a826b0071824eb7e8ae2f570c", "is_reserved": 0, "rental_uris": {"android": "https://dc.lft.to/lastmile_qr_scan", "ios": "https://dc.lft.to/lastmile_qr_scan"}, "lat": 38.87297683333333, "is_disabled": 0, "lon": -77.139322}, {"fusion_lat": 0.0, "type": "electric_scooter", "name": "0bc151254ebdeb0be632ee0c6d2db674", "fusion_lon": 0.0, "bike_id": "0bc151254ebdeb0be632ee0c6d2db674", "is_reserved": 0, "rental_uris": {"android": "https://dc.lft.to/lastmile_qr_scan", "ios": "https://dc.lft.to/lastmile_qr_scan"}, "lat": 38.89228416666667, "is_disabled": 0, "lon": -77.05001783333333}, {"fusion_lat": 0.0, "type": "electric_scooter", "name": "54058ac949c41482bfd481b916c54359", "fusion_lon": 0.0, "bike_id": "54058ac949c41482bfd481b916c54359", "is_reserved": 0, "rental_uris": {"android": "https://dc.lft.to/lastmile_qr_scan", "ios": "https://dc.lft.to/lastmile_qr_scan"}, "lat": 38.9006985, "is_disabled": 0, "lon": -77.02310083333333}, {"fusion_lat": 0.0, "type": "electric_scooter", "name": "510578451fedefdf79cbf8e94f1aab9e", "fusion_lon": 0.0, "bike_id": "510578451fedefdf79cbf8e94f1aab9e", "is_reserved": 0, "rental_uris": {"android": "https://dc.lft.to/lastmile_qr_scan", "ios": "https://dc.lft.to/lastmile_qr_scan"}, "lat": 38.8923735, "is_disabled": 0, "lon": -77.04159766666666}, {"fusion_lat": 0.0, "type": "electric_scooter", "name": "cbe28b364d4655b75608b7682e0878d3", "fusion_lon": 0.0, "bike_id": "cbe28b364d4655b75608b7682e0878d3", "is_reserved": 0, "rental_uris": {"android": "https://dc.lft.to/lastmile_qr_scan", "ios": "https://dc.lft.to/lastmile_qr_scan"}, "lat": 38.8972875, "is_disabled": 0, "lon": -77.02730083333333}, {"fusion_lat": 0.0, "type": "electric_scooter", "name": "5ad61d079396838dbc670893e72fd6db", "fusion_lon": 0.0, "bike_id": "5ad61d079396838dbc670893e72fd6db", "is_reserved": 0, "rental_uris": {"android": "https://dc.lft.to/lastmile_qr_scan", "ios": "https://dc.lft.to/lastmile_qr_scan"}, "lat": 38.89756233333333, "is_disabled": 0, "lon": -77.02682083333333}, {"fusion_lat": 0.0, "type": "electric_scooter", "name": "ebcd24d9a7c12bf0d3269f1281ae78b9", "fusion_lon": 0.0, "bike_id": "ebcd24d9a7c12bf0d3269f1281ae78b9", "is_reserved": 0, "rental_uris": {"android": "https://dc.lft.to/lastmile_qr_scan", "ios": "https://dc.lft.to/lastmile_qr_scan"}, "lat": 38.918905333333335, "is_disabled": 0, "lon": -77.03144783333333}, {"fusion_lat": 0.0, "type": "electric_scooter", "name": "494315a65161de7656ce81e0d844d11d", "fusion_lon": 0.0, "bike_id": "494315a65161de7656ce81e0d844d11d", "is_reserved": 0, "rental_uris": {"android": "https://dc.lft.to/lastmile_qr_scan", "ios": "https://dc.lft.to/lastmile_qr_scan"}, "lat": 38.89419516666667, "is_disabled": 0, "lon": -77.02086016666667}, {"fusion_lat": 0.0, "type": "electric_scooter", "name": "db45893c4fe6aa18041ede71bba0bd49", "fusion_lon": 0.0, "bike_id": "db45893c4fe6aa18041ede71bba0bd49", "is_reserved": 0, "rental_uris": {"android": "https://dc.lft.to/lastmile_qr_scan", "ios": "https://dc.lft.to/lastmile_qr_scan"}, "lat": 38.8931255, "is_disabled": 0, "lon": -76.95119483333333}, {"fusion_lat": 0.0, "type": "electric_scooter", "name": "f8190b8cbba65db81b1b16e40e922827", "fusion_lon": 0.0, "bike_id": "f8190b8cbba65db81b1b16e40e922827", "is_reserved": 0, "rental_uris": {"android": "https://dc.lft.to/lastmile_qr_scan", "ios": "https://dc.lft.to/lastmile_qr_scan"}, "lat": 38.94182166666667, "is_disabled": 0, "lon": -77.02532083333334}, {"fusion_lat": 0.0, "type": "electric_scooter", "name": "488966f18b8f6aa0643deca703fbab02", "fusion_lon": 0.0, "bike_id": "488966f18b8f6aa0643deca703fbab02", "is_reserved": 0, "rental_uris": {"android": "https://dc.lft.to/lastmile_qr_scan", "ios": "https://dc.lft.to/lastmile_qr_scan"}, "lat": 38.903229, "is_disabled": 0, "lon": -77.03316}, {"fusion_lat": 0.0, "type": "electric_scooter", "name": "f15004688a5bc7c2c69fded01e136a9b", "fusion_lon": 0.0, "bike_id": "f15004688a5bc7c2c69fded01e136a9b", "is_reserved": 0, "rental_uris": {"android": "https://dc.lft.to/lastmile_qr_scan", "ios": "https://dc.lft.to/lastmile_qr_scan"}, "lat": 38.90131866666667, "is_disabled": 0, "lon": -77.0489045}, {"fusion_lat": 0.0, "type": "electric_scooter", "name": "949c3a3260c18dc01dc5aa12738bf1f8", "fusion_lon": 0.0, "bike_id": "949c3a3260c18dc01dc5aa12738bf1f8", "is_reserved": 0, "rental_uris": {"android": "https://dc.lft.to/lastmile_qr_scan", "ios": "https://dc.lft.to/lastmile_qr_scan"}, "lat": 38.897082833333336, "is_disabled": 0, "lon": -77.02664183333333}, {"fusion_lat": 0.0, "type": "electric_scooter", "name": "49b28ccdcfad0e4951d16517c826dedc", "fusion_lon": 0.0, "bike_id": "49b28ccdcfad0e4951d16517c826dedc", "is_reserved": 0, "rental_uris": {"android": "https://dc.lft.to/lastmile_qr_scan", "ios": "https://dc.lft.to/lastmile_qr_scan"}, "lat": 38.913275166666665, "is_disabled": 0, "lon": -77.04814}, {"fusion_lat": 0.0, "type": "electric_scooter", "name": "ff352c98bde2880c858886958c9b36c3", "fusion_lon": 0.0, "bike_id": "ff352c98bde2880c858886958c9b36c3", "is_reserved": 0, "rental_uris": {"android": "https://dc.lft.to/lastmile_qr_scan", "ios": "https://dc.lft.to/lastmile_qr_scan"}, "lat": 38.8921875, "is_disabled": 0, "lon": -77.03160866666667}, {"fusion_lat": 0.0, "type": "electric_scooter", "name": "19421d59e348887b7070c63d4074e2bf", "fusion_lon": 0.0, "bike_id": "19421d59e348887b7070c63d4074e2bf", "is_reserved": 0, "rental_uris": {"android": "https://dc.lft.to/lastmile_qr_scan", "ios": "https://dc.lft.to/lastmile_qr_scan"}, "lat": 38.89611883333333, "is_disabled": 0, "lon": -76.99294716666667}, {"fusion_lat": 0.0, "type": "electric_scooter", "name": "381468f22dbccc45a5202c1de29a0c19", "fusion_lon": 0.0, "bike_id": "381468f22dbccc45a5202c1de29a0c19", "is_reserved": 0, "rental_uris": {"android": "https://dc.lft.to/lastmile_qr_scan", "ios": "https://dc.lft.to/lastmile_qr_scan"}, "lat": 38.95257766666667, "is_disabled": 0, "lon": -77.00208316666667}, {"fusion_lat": 0.0, "type": "electric_scooter", "name": "5d3d8214e16337eee33613c212ed027a", "fusion_lon": 0.0, "bike_id": "5d3d8214e16337eee33613c212ed027a", "is_reserved": 0, "rental_uris": {"android": "https://dc.lft.to/lastmile_qr_scan", "ios": "https://dc.lft.to/lastmile_qr_scan"}, "lat": 38.916854666666666, "is_disabled": 0, "lon": -77.03220716666667}, {"fusion_lat": 0.0, "type": "electric_scooter", "name": "a6f3e760bdc1fdddec56a5e211a8f79e", "fusion_lon": 0.0, "bike_id": "a6f3e760bdc1fdddec56a5e211a8f79e", "is_reserved": 0, "rental_uris": {"android": "https://dc.lft.to/lastmile_qr_scan", "ios": "https://dc.lft.to/lastmile_qr_scan"}, "lat": 38.884273666666665, "is_disabled": 0, "lon": -77.0304695}, {"fusion_lat": 0.0, "type": "electric_scooter", "name": "da4acc86d4cd702cf83edfd59effac9a", "fusion_lon": 0.0, "bike_id": "da4acc86d4cd702cf83edfd59effac9a", "is_reserved": 0, "rental_uris": {"android": "https://dc.lft.to/lastmile_qr_scan", "ios": "https://dc.lft.to/lastmile_qr_scan"}, "lat": 38.919846666666665, "is_disabled": 0, "lon": -76.97303933333333}, {"fusion_lat": 0.0, "type": "electric_scooter", "name": "c272fcdf007e4401fb8cf2ce05aed545", "fusion_lon": 0.0, "bike_id": "c272fcdf007e4401fb8cf2ce05aed545", "is_reserved": 0, "rental_uris": {"android": "https://dc.lft.to/lastmile_qr_scan", "ios": "https://dc.lft.to/lastmile_qr_scan"}, "lat": 38.90833816666667, "is_disabled": 0, "lon": -77.042601}, {"fusion_lat": 0.0, "type": "electric_scooter", "name": "2bc124d11d8c8cff38431758d9a34fa9", "fusion_lon": 0.0, "bike_id": "2bc124d11d8c8cff38431758d9a34fa9", "is_reserved": 0, "rental_uris": {"android": "https://dc.lft.to/lastmile_qr_scan", "ios": "https://dc.lft.to/lastmile_qr_scan"}, "lat": 38.889897500000004, "is_disabled": 0, "lon": -76.93112033333334}, {"fusion_lat": 0.0, "type": "electric_scooter", "name": "08cad8f7043f903bdf91b0628a9f9d16", "fusion_lon": 0.0, "bike_id": "08cad8f7043f903bdf91b0628a9f9d16", "is_reserved": 0, "rental_uris": {"android": "https://dc.lft.to/lastmile_qr_scan", "ios": "https://dc.lft.to/lastmile_qr_scan"}, "lat": 38.91913916666667, "is_disabled": 0, "lon": -77.03262466666666}, {"fusion_lat": 0.0, "type": "electric_scooter", "name": "50ec95e7a2812c1322dc9f208a529e52", "fusion_lon": 0.0, "bike_id": "50ec95e7a2812c1322dc9f208a529e52", "is_reserved": 0, "rental_uris": {"android": "https://dc.lft.to/lastmile_qr_scan", "ios": "https://dc.lft.to/lastmile_qr_scan"}, "lat": 38.9175145, "is_disabled": 0, "lon": -77.031373}, {"fusion_lat": 0.0, "type": "electric_scooter", "name": "58b37cd19a2f1f31930d85f1e1b4c751", "fusion_lon": 0.0, "bike_id": "58b37cd19a2f1f31930d85f1e1b4c751", "is_reserved": 0, "rental_uris": {"android": "https://dc.lft.to/lastmile_qr_scan", "ios": "https://dc.lft.to/lastmile_qr_scan"}, "lat": 38.91793216666667, "is_disabled": 0, "lon": -77.04039816666666}, {"fusion_lat": 0.0, "type": "electric_scooter", "name": "8ae5ede048047ff537c1c842083b8732", "fusion_lon": 0.0, "bike_id": "8ae5ede048047ff537c1c842083b8732", "is_reserved": 0, "rental_uris": {"android": "https://dc.lft.to/lastmile_qr_scan", "ios": "https://dc.lft.to/lastmile_qr_scan"}, "lat": 38.900183, "is_disabled": 0, "lon": -77.01842833333333}, {"fusion_lat": 0.0, "type": "electric_scooter", "name": "58c437c1bb2a06d140dc4186bf87d2aa", "fusion_lon": 0.0, "bike_id": "58c437c1bb2a06d140dc4186bf87d2aa", "is_reserved": 0, "rental_uris": {"android": "https://dc.lft.to/lastmile_qr_scan", "ios": "https://dc.lft.to/lastmile_qr_scan"}, "lat": 38.87476183333333, "is_disabled": 0, "lon": -77.01069066666666}, {"fusion_lat": 0.0, "type": "electric_scooter", "name": "c8126dfa79874433b563cd66bc11834f", "fusion_lon": 0.0, "bike_id": "c8126dfa79874433b563cd66bc11834f", "is_reserved": 0, "rental_uris": {"android": "https://dc.lft.to/lastmile_qr_scan", "ios": "https://dc.lft.to/lastmile_qr_scan"}, "lat": 38.957119166666665, "is_disabled": 0, "lon": -77.00282}, {"fusion_lat": 0.0, "type": "electric_scooter", "name": "ae8168fec8ea4316ee8e380fb5b16117", "fusion_lon": 0.0, "bike_id": "ae8168fec8ea4316ee8e380fb5b16117", "is_reserved": 0, "rental_uris": {"android": "https://dc.lft.to/lastmile_qr_scan", "ios": "https://dc.lft.to/lastmile_qr_scan"}, "lat": 38.89788583333333, "is_disabled": 0, "lon": -77.03291666666667}, {"fusion_lat": 0.0, "type": "electric_scooter", "name": "0ba611b16f9e4e16f98ef3522b93a02c", "fusion_lon": 0.0, "bike_id": "0ba611b16f9e4e16f98ef3522b93a02c", "is_reserved": 0, "rental_uris": {"android": "https://dc.lft.to/lastmile_qr_scan", "ios": "https://dc.lft.to/lastmile_qr_scan"}, "lat": 38.91464933333334, "is_disabled": 0, "lon": -77.02199183333333}, {"fusion_lat": 0.0, "type": "electric_scooter", "name": "6cce7d277630069e97c1afe02d3d6146", "fusion_lon": 0.0, "bike_id": "6cce7d277630069e97c1afe02d3d6146", "is_reserved": 0, "rental_uris": {"android": "https://dc.lft.to/lastmile_qr_scan", "ios": "https://dc.lft.to/lastmile_qr_scan"}, "lat": 38.898366833333334, "is_disabled": 0, "lon": -77.02275733333333}, {"fusion_lat": 0.0, "type": "electric_scooter", "name": "c2834abf62578e25ec25802e14547b10", "fusion_lon": 0.0, "bike_id": "c2834abf62578e25ec25802e14547b10", "is_reserved": 0, "rental_uris": {"android": "https://dc.lft.to/lastmile_qr_scan", "ios": "https://dc.lft.to/lastmile_qr_scan"}, "lat": 38.9111745, "is_disabled": 0, "lon": -77.04370616666667}, {"fusion_lat": 0.0, "type": "electric_scooter", "name": "dea5f097dcd41749a14bcf9d95948ddc", "fusion_lon": 0.0, "bike_id": "dea5f097dcd41749a14bcf9d95948ddc", "is_reserved": 0, "rental_uris": {"android": "https://dc.lft.to/lastmile_qr_scan", "ios": "https://dc.lft.to/lastmile_qr_scan"}, "lat": 38.91868733333333, "is_disabled": 0, "lon": -77.03761783333333}, {"fusion_lat": 0.0, "type": "electric_scooter", "name": "0542a39d359c09ac39c9e65268be2045", "fusion_lon": 0.0, "bike_id": "0542a39d359c09ac39c9e65268be2045", "is_reserved": 0, "rental_uris": {"android": "https://dc.lft.to/lastmile_qr_scan", "ios": "https://dc.lft.to/lastmile_qr_scan"}, "lat": 38.88744633333334, "is_disabled": 0, "lon": -77.02733183333333}, {"fusion_lat": 0.0, "type": "electric_scooter", "name": "790725541933019f13c1f59dd5506c0d", "fusion_lon": 0.0, "bike_id": "790725541933019f13c1f59dd5506c0d", "is_reserved": 0, "rental_uris": {"android": "https://dc.lft.to/lastmile_qr_scan", "ios": "https://dc.lft.to/lastmile_qr_scan"}, "lat": 38.92473733333333, "is_disabled": 0, "lon": -77.02268333333333}, {"fusion_lat": 0.0, "type": "electric_scooter", "name": "da9adb1362be491a35cb7bc5b639d403", "fusion_lon": 0.0, "bike_id": "da9adb1362be491a35cb7bc5b639d403", "is_reserved": 0, "rental_uris": {"android": "https://dc.lft.to/lastmile_qr_scan", "ios": "https://dc.lft.to/lastmile_qr_scan"}, "lat": 38.89221, "is_disabled": 0, "lon": -77.0235065}, {"fusion_lat": 0.0, "type": "electric_scooter", "name": "1510a17c421837760c8a758cf7be03ea", "fusion_lon": 0.0, "bike_id": "1510a17c421837760c8a758cf7be03ea", "is_reserved": 0, "rental_uris": {"android": "https://dc.lft.to/lastmile_qr_scan", "ios": "https://dc.lft.to/lastmile_qr_scan"}, "lat": 38.877821, "is_disabled": 0, "lon": -76.9935845}, {"fusion_lat": 0.0, "type": "electric_scooter", "name": "74fcb497d46ea03ff9b3a89976d9a112", "fusion_lon": 0.0, "bike_id": "74fcb497d46ea03ff9b3a89976d9a112", "is_reserved": 0, "rental_uris": {"android": "https://dc.lft.to/lastmile_qr_scan", "ios": "https://dc.lft.to/lastmile_qr_scan"}, "lat": 38.903542333333334, "is_disabled": 0, "lon": -77.04328633333333}, {"fusion_lat": 0.0, "type": "electric_scooter", "name": "ac54b93245b57e9986243090680c4ee7", "fusion_lon": 0.0, "bike_id": "ac54b93245b57e9986243090680c4ee7", "is_reserved": 0, "rental_uris": {"android": "https://dc.lft.to/lastmile_qr_scan", "ios": "https://dc.lft.to/lastmile_qr_scan"}, "lat": 38.89366916666667, "is_disabled": 0, "lon": -77.0477585}, {"fusion_lat": 0.0, "type": "electric_scooter", "name": "5c33e4b064ed3917b01339e1ea9e1ae9", "fusion_lon": 0.0, "bike_id": "5c33e4b064ed3917b01339e1ea9e1ae9", "is_reserved": 0, "rental_uris": {"android": "https://dc.lft.to/lastmile_qr_scan", "ios": "https://dc.lft.to/lastmile_qr_scan"}, "lat": 38.86578133333333, "is_disabled": 0, "lon": -76.99038166666666}, {"fusion_lat": 0.0, "type": "electric_scooter", "name": "66a31a18adf14a5bb4b7695dc51a7cf6", "fusion_lon": 0.0, "bike_id": "66a31a18adf14a5bb4b7695dc51a7cf6", "is_reserved": 0, "rental_uris": {"android": "https://dc.lft.to/lastmile_qr_scan", "ios": "https://dc.lft.to/lastmile_qr_scan"}, "lat": 38.922862333333335, "is_disabled": 0, "lon": -77.03904433333334}, {"fusion_lat": 0.0, "type": "electric_scooter", "name": "7963e5b6604326a7474ac1189f8b9574", "fusion_lon": 0.0, "bike_id": "7963e5b6604326a7474ac1189f8b9574", "is_reserved": 0, "rental_uris": {"android": "https://dc.lft.to/lastmile_qr_scan", "ios": "https://dc.lft.to/lastmile_qr_scan"}, "lat": 38.91804033333333, "is_disabled": 0, "lon": -77.033756}, {"fusion_lat": 0.0, "type": "electric_scooter", "name": "cc61970d8f746055af1b85ddc8772aac", "fusion_lon": 0.0, "bike_id": "cc61970d8f746055af1b85ddc8772aac", "is_reserved": 0, "rental_uris": {"android": "https://dc.lft.to/lastmile_qr_scan", "ios": "https://dc.lft.to/lastmile_qr_scan"}, "lat": 38.914221166666664, "is_disabled": 0, "lon": -77.0392165}, {"fusion_lat": 0.0, "type": "electric_scooter", "name": "454dce6ced48664803ceaf75b16ab61e", "fusion_lon": 0.0, "bike_id": "454dce6ced48664803ceaf75b16ab61e", "is_reserved": 0, "rental_uris": {"android": "https://dc.lft.to/lastmile_qr_scan", "ios": "https://dc.lft.to/lastmile_qr_scan"}, "lat": 38.91400816666667, "is_disabled": 0, "lon": -77.04550733333333}, {"fusion_lat": 0.0, "type": "electric_bike", "name": "4623555b35a0c549b5ad5e098a557021", "fusion_lon": 0.0, "bike_id": "4623555b35a0c549b5ad5e098a557021", "is_reserved": 0, "rental_uris": {"android": "https://dc.lft.to/lastmile_qr_scan", "ios": "https://dc.lft.to/lastmile_qr_scan"}, "lat": 38.99642516666667, "is_disabled": 0, "lon": -77.03995016666667}, {"fusion_lat": 0.0, "type": "electric_scooter", "name": "2a5ee8e2f488987a156b26430e468e8d", "fusion_lon": 0.0, "bike_id": "2a5ee8e2f488987a156b26430e468e8d", "is_reserved": 0, "rental_uris": {"android": "https://dc.lft.to/lastmile_qr_scan", "ios": "https://dc.lft.to/lastmile_qr_scan"}, "lat": 38.921905333333335, "is_disabled": 0, "lon": -76.98875916666667}, {"fusion_lat": 0.0, "type": "electric_scooter", "name": "7ffbde4105ba304b878ee182ca4f10b1", "fusion_lon": 0.0, "bike_id": "7ffbde4105ba304b878ee182ca4f10b1", "is_reserved": 0, "rental_uris": {"android": "https://dc.lft.to/lastmile_qr_scan", "ios": "https://dc.lft.to/lastmile_qr_scan"}, "lat": 38.926078, "is_disabled": 0, "lon": -77.0216025}, {"fusion_lat": 0.0, "type": "electric_scooter", "name": "e9278bba9d242a0c0659a3ad386db68d", "fusion_lon": 0.0, "bike_id": "e9278bba9d242a0c0659a3ad386db68d", "is_reserved": 0, "rental_uris": {"android": "https://dc.lft.to/lastmile_qr_scan", "ios": "https://dc.lft.to/lastmile_qr_scan"}, "lat": 38.90958166666667, "is_disabled": 0, "lon": -77.04748583333334}, {"fusion_lat": 0.0, "type": "electric_scooter", "name": "734dc416b3c4703357da3e1e63b5b277", "fusion_lon": 0.0, "bike_id": "734dc416b3c4703357da3e1e63b5b277", "is_reserved": 0, "rental_uris": {"android": "https://dc.lft.to/lastmile_qr_scan", "ios": "https://dc.lft.to/lastmile_qr_scan"}, "lat": 38.928015, "is_disabled": 0, "lon": -77.03367583333333}, {"fusion_lat": 0.0, "type": "electric_scooter", "name": "97c81839f4271d34fd6543f4d291f9aa", "fusion_lon": 0.0, "bike_id": "97c81839f4271d34fd6543f4d291f9aa", "is_reserved": 0, "rental_uris": {"android": "https://dc.lft.to/lastmile_qr_scan", "ios": "https://dc.lft.to/lastmile_qr_scan"}, "lat": 38.898801, "is_disabled": 0, "lon": -77.0401115}, {"fusion_lat": 0.0, "type": "electric_scooter", "name": "fa1bd059b8e1be78810fcd85f16d485b", "fusion_lon": 0.0, "bike_id": "fa1bd059b8e1be78810fcd85f16d485b", "is_reserved": 0, "rental_uris": {"android": "https://dc.lft.to/lastmile_qr_scan", "ios": "https://dc.lft.to/lastmile_qr_scan"}, "lat": 38.897254833333335, "is_disabled": 0, "lon": -77.030657}, {"fusion_lat": 0.0, "type": "electric_scooter", "name": "51a49086ad7c0cee839e79442a510c09", "fusion_lon": 0.0, "bike_id": "51a49086ad7c0cee839e79442a510c09", "is_reserved": 0, "rental_uris": {"android": "https://dc.lft.to/lastmile_qr_scan", "ios": "https://dc.lft.to/lastmile_qr_scan"}, "lat": 38.9361975, "is_disabled": 0, "lon": -77.08186133333334}, {"fusion_lat": 0.0, "type": "electric_scooter", "name": "8f9d79b15b48d58144ac533cf5142b94", "fusion_lon": 0.0, "bike_id": "8f9d79b15b48d58144ac533cf5142b94", "is_reserved": 0, "rental_uris": {"android": "https://dc.lft.to/lastmile_qr_scan", "ios": "https://dc.lft.to/lastmile_qr_scan"}, "lat": 38.9008465, "is_disabled": 0, "lon": -76.93868766666667}, {"fusion_lat": 0.0, "type": "electric_scooter", "name": "b97a5cfe24e42b07f258c77b03441d6e", "fusion_lon": 0.0, "bike_id": "b97a5cfe24e42b07f258c77b03441d6e", "is_reserved": 0, "rental_uris": {"android": "https://dc.lft.to/lastmile_qr_scan", "ios": "https://dc.lft.to/lastmile_qr_scan"}, "lat": 38.9049835, "is_disabled": 0, "lon": -77.03872016666666}, {"fusion_lat": 0.0, "type": "electric_scooter", "name": "1d24a5b2f6a7df6f1013f42fc3466286", "fusion_lon": 0.0, "bike_id": "1d24a5b2f6a7df6f1013f42fc3466286", "is_reserved": 0, "rental_uris": {"android": "https://dc.lft.to/lastmile_qr_scan", "ios": "https://dc.lft.to/lastmile_qr_scan"}, "lat": 38.89620516666667, "is_disabled": 0, "lon": -77.04460733333333}, {"fusion_lat": 0.0, "type": "electric_scooter", "name": "ed8042a7d95f107eb21f179a8e372e20", "fusion_lon": 0.0, "bike_id": "ed8042a7d95f107eb21f179a8e372e20", "is_reserved": 0, "rental_uris": {"android": "https://dc.lft.to/lastmile_qr_scan", "ios": "https://dc.lft.to/lastmile_qr_scan"}, "lat": 38.899679, "is_disabled": 0, "lon": -77.03076466666667}, {"fusion_lat": 0.0, "type": "electric_scooter", "name": "7d3f0ded2a9bc520251b3faa0fd66a2e", "fusion_lon": 0.0, "bike_id": "7d3f0ded2a9bc520251b3faa0fd66a2e", "is_reserved": 0, "rental_uris": {"android": "https://dc.lft.to/lastmile_qr_scan", "ios": "https://dc.lft.to/lastmile_qr_scan"}, "lat": 38.8935515, "is_disabled": 0, "lon": -77.003287}, {"fusion_lat": 0.0, "type": "electric_scooter", "name": "6a154302709d94e53541899a87a80ab0", "fusion_lon": 0.0, "bike_id": "6a154302709d94e53541899a87a80ab0", "is_reserved": 0, "rental_uris": {"android": "https://dc.lft.to/lastmile_qr_scan", "ios": "https://dc.lft.to/lastmile_qr_scan"}, "lat": 38.89722166666667, "is_disabled": 0, "lon": -77.04297383333333}, {"fusion_lat": 0.0, "type": "electric_scooter", "name": "16fc5e3a484be652ecca88d6e6ed6aad", "fusion_lon": 0.0, "bike_id": "16fc5e3a484be652ecca88d6e6ed6aad", "is_reserved": 0, "rental_uris": {"android": "https://dc.lft.to/lastmile_qr_scan", "ios": "https://dc.lft.to/lastmile_qr_scan"}, "lat": 38.922544333333335, "is_disabled": 0, "lon": -77.01925883333334}, {"fusion_lat": 0.0, "type": "electric_scooter", "name": "981fe56b535b392b7e7394525cadf3bb", "fusion_lon": 0.0, "bike_id": "981fe56b535b392b7e7394525cadf3bb", "is_reserved": 0, "rental_uris": {"android": "https://dc.lft.to/lastmile_qr_scan", "ios": "https://dc.lft.to/lastmile_qr_scan"}, "lat": 38.8836625, "is_disabled": 0, "lon": -76.99505566666667}, {"fusion_lat": 0.0, "type": "electric_scooter", "name": "8b2f61bfe9bde83cf9ac266489f7b94b", "fusion_lon": 0.0, "bike_id": "8b2f61bfe9bde83cf9ac266489f7b94b", "is_reserved": 0, "rental_uris": {"android": "https://dc.lft.to/lastmile_qr_scan", "ios": "https://dc.lft.to/lastmile_qr_scan"}, "lat": 38.899136166666665, "is_disabled": 0, "lon": -76.9337125}, {"fusion_lat": 0.0, "type": "electric_scooter", "name": "79c172056fecbd8842164c098ed1998c", "fusion_lon": 0.0, "bike_id": "79c172056fecbd8842164c098ed1998c", "is_reserved": 0, "rental_uris": {"android": "https://dc.lft.to/lastmile_qr_scan", "ios": "https://dc.lft.to/lastmile_qr_scan"}, "lat": 38.92912583333333, "is_disabled": 0, "lon": -77.021913}, {"fusion_lat": 0.0, "type": "electric_scooter", "name": "e7f289bd0bbc9ff38632fabf12ef84a7", "fusion_lon": 0.0, "bike_id": "e7f289bd0bbc9ff38632fabf12ef84a7", "is_reserved": 0, "rental_uris": {"android": "https://dc.lft.to/lastmile_qr_scan", "ios": "https://dc.lft.to/lastmile_qr_scan"}, "lat": 38.910550666666666, "is_disabled": 0, "lon": -77.02190533333334}, {"fusion_lat": 0.0, "type": "electric_bike", "name": "7d00e89bab444f813d4d9f20019ed87e", "fusion_lon": 0.0, "bike_id": "7d00e89bab444f813d4d9f20019ed87e", "is_reserved": 0, "rental_uris": {"android": "https://dc.lft.to/lastmile_qr_scan", "ios": "https://dc.lft.to/lastmile_qr_scan"}, "lat": 38.85312866666666, "is_disabled": 0, "lon": -76.980181}, {"fusion_lat": 0.0, "type": "electric_scooter", "name": "1acccb3082f91a92f759e31f503f491d", "fusion_lon": 0.0, "bike_id": "1acccb3082f91a92f759e31f503f491d", "is_reserved": 0, "rental_uris": {"android": "https://dc.lft.to/lastmile_qr_scan", "ios": "https://dc.lft.to/lastmile_qr_scan"}, "lat": 38.89220783333333, "is_disabled": 0, "lon": -77.0423865}, {"fusion_lat": 0.0, "type": "electric_scooter", "name": "4c4b59b26503aa12098a843b5a227147", "fusion_lon": 0.0, "bike_id": "4c4b59b26503aa12098a843b5a227147", "is_reserved": 0, "rental_uris": {"android": "https://dc.lft.to/lastmile_qr_scan", "ios": "https://dc.lft.to/lastmile_qr_scan"}, "lat": 38.885667, "is_disabled": 0, "lon": -77.01544083333333}, {"fusion_lat": 0.0, "type": "electric_scooter", "name": "caf44ec9b59c532096b6622744d5795a", "fusion_lon": 0.0, "bike_id": "caf44ec9b59c532096b6622744d5795a", "is_reserved": 0, "rental_uris": {"android": "https://dc.lft.to/lastmile_qr_scan", "ios": "https://dc.lft.to/lastmile_qr_scan"}, "lat": 38.91744933333333, "is_disabled": 0, "lon": -77.031847}, {"fusion_lat": 0.0, "type": "electric_scooter", "name": "2739378636b90241fa248d86932c33a8", "fusion_lon": 0.0, "bike_id": "2739378636b90241fa248d86932c33a8", "is_reserved": 0, "rental_uris": {"android": "https://dc.lft.to/lastmile_qr_scan", "ios": "https://dc.lft.to/lastmile_qr_scan"}, "lat": 38.92735966666667, "is_disabled": 0, "lon": -77.03276816666667}, {"fusion_lat": 0.0, "type": "electric_scooter", "name": "3a6f8d50760075f938534f2b2b473c43", "fusion_lon": 0.0, "bike_id": "3a6f8d50760075f938534f2b2b473c43", "is_reserved": 0, "rental_uris": {"android": "https://dc.lft.to/lastmile_qr_scan", "ios": "https://dc.lft.to/lastmile_qr_scan"}, "lat": 38.886169333333335, "is_disabled": 0, "lon": -76.95578166666667}, {"fusion_lat": 0.0, "type": "electric_scooter", "name": "ec3a422a9374d0fa781389d9e8559ba9", "fusion_lon": 0.0, "bike_id": "ec3a422a9374d0fa781389d9e8559ba9", "is_reserved": 0, "rental_uris": {"android": "https://dc.lft.to/lastmile_qr_scan", "ios": "https://dc.lft.to/lastmile_qr_scan"}, "lat": 38.874795166666665, "is_disabled": 0, "lon": -77.006597}, {"fusion_lat": 0.0, "type": "electric_scooter", "name": "f6a7ad1d8f77181566e99de6ab46c2d8", "fusion_lon": 0.0, "bike_id": "f6a7ad1d8f77181566e99de6ab46c2d8", "is_reserved": 0, "rental_uris": {"android": "https://dc.lft.to/lastmile_qr_scan", "ios": "https://dc.lft.to/lastmile_qr_scan"}, "lat": 38.92789416666667, "is_disabled": 0, "lon": -77.01404883333333}, {"fusion_lat": 0.0, "type": "electric_scooter", "name": "56fc40ddabd841b80452d99ed49b5952", "fusion_lon": 0.0, "bike_id": "56fc40ddabd841b80452d99ed49b5952", "is_reserved": 0, "rental_uris": {"android": "https://dc.lft.to/lastmile_qr_scan", "ios": "https://dc.lft.to/lastmile_qr_scan"}, "lat": 38.8773805, "is_disabled": 0, "lon": -77.00725983333334}, {"fusion_lat": 0.0, "type": "electric_scooter", "name": "8fb169cfa88ce7a8addabcbf54d38bfe", "fusion_lon": 0.0, "bike_id": "8fb169cfa88ce7a8addabcbf54d38bfe", "is_reserved": 0, "rental_uris": {"android": "https://dc.lft.to/lastmile_qr_scan", "ios": "https://dc.lft.to/lastmile_qr_scan"}, "lat": 38.88729033333333, "is_disabled": 0, "lon": -77.02827233333333}, {"fusion_lat": 0.0, "type": "electric_bike", "name": "52d1cc8dfe69eff3abbb2e7968346dfb", "fusion_lon": 0.0, "bike_id": "52d1cc8dfe69eff3abbb2e7968346dfb", "is_reserved": 0, "rental_uris": {"android": "https://dc.lft.to/lastmile_qr_scan", "ios": "https://dc.lft.to/lastmile_qr_scan"}, "lat": 38.8075145, "is_disabled": 0, "lon": -77.0944935}, {"fusion_lat": 0.0, "type": "electric_scooter", "name": "476ca990e138c1dfc420807b41f23286", "fusion_lon": 0.0, "bike_id": "476ca990e138c1dfc420807b41f23286", "is_reserved": 0, "rental_uris": {"android": "https://dc.lft.to/lastmile_qr_scan", "ios": "https://dc.lft.to/lastmile_qr_scan"}, "lat": 38.905051, "is_disabled": 0, "lon": -77.03465166666666}, {"fusion_lat": 0.0, "type": "electric_scooter", "name": "3932c278d90130cab32fb527090ca561", "fusion_lon": 0.0, "bike_id": "3932c278d90130cab32fb527090ca561", "is_reserved": 0, "rental_uris": {"android": "https://dc.lft.to/lastmile_qr_scan", "ios": "https://dc.lft.to/lastmile_qr_scan"}, "lat": 38.90069183333333, "is_disabled": 0, "lon": -77.01319116666667}, {"fusion_lat": 0.0, "type": "electric_scooter", "name": "200ef81060a9cf8f12b0ff47f21998ed", "fusion_lon": 0.0, "bike_id": "200ef81060a9cf8f12b0ff47f21998ed", "is_reserved": 0, "rental_uris": {"android": "https://dc.lft.to/lastmile_qr_scan", "ios": "https://dc.lft.to/lastmile_qr_scan"}, "lat": 38.89837, "is_disabled": 0, "lon": -77.02272366666666}, {"fusion_lat": 0.0, "type": "electric_scooter", "name": "b675044db901912aa39f698a8f75e43e", "fusion_lon": 0.0, "bike_id": "b675044db901912aa39f698a8f75e43e", "is_reserved": 0, "rental_uris": {"android": "https://dc.lft.to/lastmile_qr_scan", "ios": "https://dc.lft.to/lastmile_qr_scan"}, "lat": 38.897889666666664, "is_disabled": 0, "lon": -77.05014666666666}, {"fusion_lat": 0.0, "type": "electric_scooter", "name": "c9507e3867666cca4ca7cc0579a60668", "fusion_lon": 0.0, "bike_id": "c9507e3867666cca4ca7cc0579a60668", "is_reserved": 0, "rental_uris": {"android": "https://dc.lft.to/lastmile_qr_scan", "ios": "https://dc.lft.to/lastmile_qr_scan"}, "lat": 38.921684166666665, "is_disabled": 0, "lon": -77.0423235}, {"fusion_lat": 0.0, "type": "electric_scooter", "name": "65123bc7d48fdbf3a24b51c30399224a", "fusion_lon": 0.0, "bike_id": "65123bc7d48fdbf3a24b51c30399224a", "is_reserved": 0, "rental_uris": {"android": "https://dc.lft.to/lastmile_qr_scan", "ios": "https://dc.lft.to/lastmile_qr_scan"}, "lat": 38.866961, "is_disabled": 0, "lon": -76.98590883333334}, {"fusion_lat": 0.0, "type": "electric_scooter", "name": "1ad20f7e3921d41b2b689f65818214da", "fusion_lon": 0.0, "bike_id": "1ad20f7e3921d41b2b689f65818214da", "is_reserved": 0, "rental_uris": {"android": "https://dc.lft.to/lastmile_qr_scan", "ios": "https://dc.lft.to/lastmile_qr_scan"}, "lat": 38.876544833333334, "is_disabled": 0, "lon": -77.00885783333334}, {"fusion_lat": 0.0, "type": "electric_scooter", "name": "b02deeb8d05be141849ae73cd914cb71", "fusion_lon": 0.0, "bike_id": "b02deeb8d05be141849ae73cd914cb71", "is_reserved": 0, "rental_uris": {"android": "https://dc.lft.to/lastmile_qr_scan", "ios": "https://dc.lft.to/lastmile_qr_scan"}, "lat": 38.93864516666667, "is_disabled": 0, "lon": -77.0604415}, {"fusion_lat": 0.0, "type": "electric_scooter", "name": "be52b8daa8035facbc16a06d6c90ae24", "fusion_lon": 0.0, "bike_id": "be52b8daa8035facbc16a06d6c90ae24", "is_reserved": 0, "rental_uris": {"android": "https://dc.lft.to/lastmile_qr_scan", "ios": "https://dc.lft.to/lastmile_qr_scan"}, "lat": 38.905304666666666, "is_disabled": 0, "lon": -77.0500025}, {"fusion_lat": 0.0, "type": "electric_scooter", "name": "c1cf96dcf5fe7588c858e6f4f5e3f071", "fusion_lon": 0.0, "bike_id": "c1cf96dcf5fe7588c858e6f4f5e3f071", "is_reserved": 0, "rental_uris": {"android": "https://dc.lft.to/lastmile_qr_scan", "ios": "https://dc.lft.to/lastmile_qr_scan"}, "lat": 38.92191583333334, "is_disabled": 0, "lon": -77.0730975}, {"fusion_lat": 0.0, "type": "electric_bike", "name": "7c4fbeaf3b05d7aa8c32017cb5002bf3", "fusion_lon": 0.0, "bike_id": "7c4fbeaf3b05d7aa8c32017cb5002bf3", "is_reserved": 0, "rental_uris": {"android": "https://dc.lft.to/lastmile_qr_scan", "ios": "https://dc.lft.to/lastmile_qr_scan"}, "lat": 38.89353466666667, "is_disabled": 0, "lon": -77.1873885}, {"fusion_lat": 0.0, "type": "electric_scooter", "name": "67dbf17b380361108f7cc4b814d2d22a", "fusion_lon": 0.0, "bike_id": "67dbf17b380361108f7cc4b814d2d22a", "is_reserved": 0, "rental_uris": {"android": "https://dc.lft.to/lastmile_qr_scan", "ios": "https://dc.lft.to/lastmile_qr_scan"}, "lat": 38.8960195, "is_disabled": 0, "lon": -77.05438133333334}, {"fusion_lat": 0.0, "type": "electric_scooter", "name": "a8ee4a587c2c73a8690decdf0e9dc4c7", "fusion_lon": 0.0, "bike_id": "a8ee4a587c2c73a8690decdf0e9dc4c7", "is_reserved": 0, "rental_uris": {"android": "https://dc.lft.to/lastmile_qr_scan", "ios": "https://dc.lft.to/lastmile_qr_scan"}, "lat": 38.91222583333333, "is_disabled": 0, "lon": -77.02276133333334}, {"fusion_lat": 0.0, "type": "electric_scooter", "name": "619dbb0b351af406b8934a6965ee8445", "fusion_lon": 0.0, "bike_id": "619dbb0b351af406b8934a6965ee8445", "is_reserved": 0, "rental_uris": {"android": "https://dc.lft.to/lastmile_qr_scan", "ios": "https://dc.lft.to/lastmile_qr_scan"}, "lat": 38.911724666666665, "is_disabled": 0, "lon": -77.04916833333333}, {"fusion_lat": 0.0, "type": "electric_scooter", "name": "afda446700857515fd96d92d70d03dda", "fusion_lon": 0.0, "bike_id": "afda446700857515fd96d92d70d03dda", "is_reserved": 0, "rental_uris": {"android": "https://dc.lft.to/lastmile_qr_scan", "ios": "https://dc.lft.to/lastmile_qr_scan"}, "lat": 38.9235575, "is_disabled": 0, "lon": -77.05047483333334}, {"fusion_lat": 0.0, "type": "electric_scooter", "name": "19b935205e3f71809f645b7eaa3a588b", "fusion_lon": 0.0, "bike_id": "19b935205e3f71809f645b7eaa3a588b", "is_reserved": 0, "rental_uris": {"android": "https://dc.lft.to/lastmile_qr_scan", "ios": "https://dc.lft.to/lastmile_qr_scan"}, "lat": 38.88739533333333, "is_disabled": 0, "lon": -77.008751}, {"fusion_lat": 0.0, "type": "electric_scooter", "name": "b3610bb0fdd2fad56836d2b3c296a19c", "fusion_lon": 0.0, "bike_id": "b3610bb0fdd2fad56836d2b3c296a19c", "is_reserved": 0, "rental_uris": {"android": "https://dc.lft.to/lastmile_qr_scan", "ios": "https://dc.lft.to/lastmile_qr_scan"}, "lat": 38.905041, "is_disabled": 0, "lon": -76.9792755}, {"fusion_lat": 0.0, "type": "electric_scooter", "name": "cc5bb4a1b2d392dc15e151391bbcc3e9", "fusion_lon": 0.0, "bike_id": "cc5bb4a1b2d392dc15e151391bbcc3e9", "is_reserved": 0, "rental_uris": {"android": "https://dc.lft.to/lastmile_qr_scan", "ios": "https://dc.lft.to/lastmile_qr_scan"}, "lat": 38.905585, "is_disabled": 0, "lon": -76.97391883333333}, {"fusion_lat": 0.0, "type": "electric_scooter", "name": "21df44f6324cb2031f04c6483e4d88e2", "fusion_lon": 0.0, "bike_id": "21df44f6324cb2031f04c6483e4d88e2", "is_reserved": 0, "rental_uris": {"android": "https://dc.lft.to/lastmile_qr_scan", "ios": "https://dc.lft.to/lastmile_qr_scan"}, "lat": 38.893197, "is_disabled": 0, "lon": -76.9438295}, {"fusion_lat": 0.0, "type": "electric_scooter", "name": "618c4382a33087b05074c3d2c9aea43e", "fusion_lon": 0.0, "bike_id": "618c4382a33087b05074c3d2c9aea43e", "is_reserved": 0, "rental_uris": {"android": "https://dc.lft.to/lastmile_qr_scan", "ios": "https://dc.lft.to/lastmile_qr_scan"}, "lat": 38.903719, "is_disabled": 0, "lon": -77.03673683333334}, {"fusion_lat": 0.0, "type": "electric_scooter", "name": "51ba0a1579a068847d8b79288581ae5e", "fusion_lon": 0.0, "bike_id": "51ba0a1579a068847d8b79288581ae5e", "is_reserved": 0, "rental_uris": {"android": "https://dc.lft.to/lastmile_qr_scan", "ios": "https://dc.lft.to/lastmile_qr_scan"}, "lat": 38.898783333333334, "is_disabled": 0, "lon": -77.04326883333333}, {"fusion_lat": 0.0, "type": "electric_bike", "name": "8d28011979561659c25c6a15fa83002d", "fusion_lon": 0.0, "bike_id": "8d28011979561659c25c6a15fa83002d", "is_reserved": 0, "rental_uris": {"android": "https://dc.lft.to/lastmile_qr_scan", "ios": "https://dc.lft.to/lastmile_qr_scan"}, "lat": 38.8541875, "is_disabled": 0, "lon": -77.1207425}, {"fusion_lat": 0.0, "type": "electric_scooter", "name": "fbdf2a06092d61e1b8c153072831affc", "fusion_lon": 0.0, "bike_id": "fbdf2a06092d61e1b8c153072831affc", "is_reserved": 0, "rental_uris": {"android": "https://dc.lft.to/lastmile_qr_scan", "ios": "https://dc.lft.to/lastmile_qr_scan"}, "lat": 38.89226016666667, "is_disabled": 0, "lon": -77.02797633333333}, {"fusion_lat": 0.0, "type": "electric_scooter", "name": "da39f17cacec089e95caae6eb079d820", "fusion_lon": 0.0, "bike_id": "da39f17cacec089e95caae6eb079d820", "is_reserved": 0, "rental_uris": {"android": "https://dc.lft.to/lastmile_qr_scan", "ios": "https://dc.lft.to/lastmile_qr_scan"}, "lat": 38.905054, "is_disabled": 0, "lon": -76.9942815}, {"fusion_lat": 0.0, "type": "electric_scooter", "name": "f63533ae4360afed8b4434f15b5f711b", "fusion_lon": 0.0, "bike_id": "f63533ae4360afed8b4434f15b5f711b", "is_reserved": 0, "rental_uris": {"android": "https://dc.lft.to/lastmile_qr_scan", "ios": "https://dc.lft.to/lastmile_qr_scan"}, "lat": 38.89722833333333, "is_disabled": 0, "lon": -77.00329683333334}, {"fusion_lat": 0.0, "type": "electric_scooter", "name": "2df3b4efd88918d6ce9d1203a22065f9", "fusion_lon": 0.0, "bike_id": "2df3b4efd88918d6ce9d1203a22065f9", "is_reserved": 0, "rental_uris": {"android": "https://dc.lft.to/lastmile_qr_scan", "ios": "https://dc.lft.to/lastmile_qr_scan"}, "lat": 38.899145833333336, "is_disabled": 0, "lon": -76.93378533333333}, {"fusion_lat": 0.0, "type": "electric_scooter", "name": "10d24235298460e89bcb3c8fc10351be", "fusion_lon": 0.0, "bike_id": "10d24235298460e89bcb3c8fc10351be", "is_reserved": 0, "rental_uris": {"android": "https://dc.lft.to/lastmile_qr_scan", "ios": "https://dc.lft.to/lastmile_qr_scan"}, "lat": 38.90246583333333, "is_disabled": 0, "lon": -77.02644233333334}, {"fusion_lat": 0.0, "type": "electric_scooter", "name": "04f4c438cdf85f22e9389362a9254638", "fusion_lon": 0.0, "bike_id": "04f4c438cdf85f22e9389362a9254638", "is_reserved": 0, "rental_uris": {"android": "https://dc.lft.to/lastmile_qr_scan", "ios": "https://dc.lft.to/lastmile_qr_scan"}, "lat": 38.88361916666667, "is_disabled": 0, "lon": -76.9950505}, {"fusion_lat": 0.0, "type": "electric_scooter", "name": "4f33ea582baddec41208bd47c4afa1be", "fusion_lon": 0.0, "bike_id": "4f33ea582baddec41208bd47c4afa1be", "is_reserved": 0, "rental_uris": {"android": "https://dc.lft.to/lastmile_qr_scan", "ios": "https://dc.lft.to/lastmile_qr_scan"}, "lat": 38.92247483333333, "is_disabled": 0, "lon": -77.0091635}, {"fusion_lat": 0.0, "type": "electric_scooter", "name": "296bcdedb5ccaa147644ee57fa15d4bd", "fusion_lon": 0.0, "bike_id": "296bcdedb5ccaa147644ee57fa15d4bd", "is_reserved": 0, "rental_uris": {"android": "https://dc.lft.to/lastmile_qr_scan", "ios": "https://dc.lft.to/lastmile_qr_scan"}, "lat": 38.864187333333334, "is_disabled": 0, "lon": -77.01211766666667}, {"fusion_lat": 0.0, "type": "electric_scooter", "name": "ac9c426eec9b122a4ea687c837fcfcc9", "fusion_lon": 0.0, "bike_id": "ac9c426eec9b122a4ea687c837fcfcc9", "is_reserved": 0, "rental_uris": {"android": "https://dc.lft.to/lastmile_qr_scan", "ios": "https://dc.lft.to/lastmile_qr_scan"}, "lat": 38.87362366666667, "is_disabled": 0, "lon": -77.00607016666666}, {"fusion_lat": 0.0, "type": "electric_scooter", "name": "e9c94e30fcebf7ffb80416e77d54b09c", "fusion_lon": 0.0, "bike_id": "e9c94e30fcebf7ffb80416e77d54b09c", "is_reserved": 0, "rental_uris": {"android": "https://dc.lft.to/lastmile_qr_scan", "ios": "https://dc.lft.to/lastmile_qr_scan"}, "lat": 38.91559933333333, "is_disabled": 0, "lon": -77.02585533333334}, {"fusion_lat": 0.0, "type": "electric_bike", "name": "a145f144029bd3589557ebd8592f0504", "fusion_lon": 0.0, "bike_id": "a145f144029bd3589557ebd8592f0504", "is_reserved": 0, "rental_uris": {"android": "https://dc.lft.to/lastmile_qr_scan", "ios": "https://dc.lft.to/lastmile_qr_scan"}, "lat": 38.9287385, "is_disabled": 0, "lon": -77.0123815}, {"fusion_lat": 0.0, "type": "electric_scooter", "name": "7b180e9e044554974e6acdcbed68dba8", "fusion_lon": 0.0, "bike_id": "7b180e9e044554974e6acdcbed68dba8", "is_reserved": 0, "rental_uris": {"android": "https://dc.lft.to/lastmile_qr_scan", "ios": "https://dc.lft.to/lastmile_qr_scan"}, "lat": 38.914219333333335, "is_disabled": 0, "lon": -77.02597783333333}, {"fusion_lat": 0.0, "type": "electric_scooter", "name": "c02045fde5be0bd43146e63ef2bcae86", "fusion_lon": 0.0, "bike_id": "c02045fde5be0bd43146e63ef2bcae86", "is_reserved": 0, "rental_uris": {"android": "https://dc.lft.to/lastmile_qr_scan", "ios": "https://dc.lft.to/lastmile_qr_scan"}, "lat": 38.90814233333333, "is_disabled": 0, "lon": -77.03940883333334}, {"fusion_lat": 0.0, "type": "electric_scooter", "name": "2bf98fa79b5e2859cd774c95cc562776", "fusion_lon": 0.0, "bike_id": "2bf98fa79b5e2859cd774c95cc562776", "is_reserved": 0, "rental_uris": {"android": "https://dc.lft.to/lastmile_qr_scan", "ios": "https://dc.lft.to/lastmile_qr_scan"}, "lat": 38.908032, "is_disabled": 0, "lon": -77.04331916666666}, {"fusion_lat": 0.0, "type": "electric_scooter", "name": "33dec4947cff2cdf576f9681374c1997", "fusion_lon": 0.0, "bike_id": "33dec4947cff2cdf576f9681374c1997", "is_reserved": 0, "rental_uris": {"android": "https://dc.lft.to/lastmile_qr_scan", "ios": "https://dc.lft.to/lastmile_qr_scan"}, "lat": 38.873392833333334, "is_disabled": 0, "lon": -76.9678755}, {"fusion_lat": 0.0, "type": "electric_scooter", "name": "964bbe6190eae026a479b89a916f22ab", "fusion_lon": 0.0, "bike_id": "964bbe6190eae026a479b89a916f22ab", "is_reserved": 0, "rental_uris": {"android": "https://dc.lft.to/lastmile_qr_scan", "ios": "https://dc.lft.to/lastmile_qr_scan"}, "lat": 38.92425433333333, "is_disabled": 0, "lon": -77.0447305}, {"fusion_lat": 0.0, "type": "electric_scooter", "name": "b7ea29ca1e0e0c26bc6816fef32cbf48", "fusion_lon": 0.0, "bike_id": "b7ea29ca1e0e0c26bc6816fef32cbf48", "is_reserved": 0, "rental_uris": {"android": "https://dc.lft.to/lastmile_qr_scan", "ios": "https://dc.lft.to/lastmile_qr_scan"}, "lat": 38.92026216666667, "is_disabled": 0, "lon": -76.99561733333333}, {"fusion_lat": 0.0, "type": "electric_scooter", "name": "1add63fc72e62d7d06c23ef4b605b1d6", "fusion_lon": 0.0, "bike_id": "1add63fc72e62d7d06c23ef4b605b1d6", "is_reserved": 0, "rental_uris": {"android": "https://dc.lft.to/lastmile_qr_scan", "ios": "https://dc.lft.to/lastmile_qr_scan"}, "lat": 38.893066166666664, "is_disabled": 0, "lon": -77.021611}, {"fusion_lat": 0.0, "type": "electric_scooter", "name": "504b3fec905a6663b55254b6c4776168", "fusion_lon": 0.0, "bike_id": "504b3fec905a6663b55254b6c4776168", "is_reserved": 0, "rental_uris": {"android": "https://dc.lft.to/lastmile_qr_scan", "ios": "https://dc.lft.to/lastmile_qr_scan"}, "lat": 38.883212666666665, "is_disabled": 0, "lon": -77.017662}, {"fusion_lat": 0.0, "type": "electric_scooter", "name": "0c480ebde72274166ec32937ae1395b4", "fusion_lon": 0.0, "bike_id": "0c480ebde72274166ec32937ae1395b4", "is_reserved": 0, "rental_uris": {"android": "https://dc.lft.to/lastmile_qr_scan", "ios": "https://dc.lft.to/lastmile_qr_scan"}, "lat": 38.92412866666667, "is_disabled": 0, "lon": -77.01941733333334}, {"fusion_lat": 0.0, "type": "electric_scooter", "name": "5ef98a236fb058154e112d7181928f91", "fusion_lon": 0.0, "bike_id": "5ef98a236fb058154e112d7181928f91", "is_reserved": 0, "rental_uris": {"android": "https://dc.lft.to/lastmile_qr_scan", "ios": "https://dc.lft.to/lastmile_qr_scan"}, "lat": 38.90616133333333, "is_disabled": 0, "lon": -77.04123016666667}, {"fusion_lat": 0.0, "type": "electric_scooter", "name": "aad97cf4be634fe7ce95fad88ace8f4d", "fusion_lon": 0.0, "bike_id": "aad97cf4be634fe7ce95fad88ace8f4d", "is_reserved": 0, "rental_uris": {"android": "https://dc.lft.to/lastmile_qr_scan", "ios": "https://dc.lft.to/lastmile_qr_scan"}, "lat": 38.927548, "is_disabled": 0, "lon": -77.03281633333333}, {"fusion_lat": 0.0, "type": "electric_scooter", "name": "51749453ed253843b0fbd61bf08fede2", "fusion_lon": 0.0, "bike_id": "51749453ed253843b0fbd61bf08fede2", "is_reserved": 0, "rental_uris": {"android": "https://dc.lft.to/lastmile_qr_scan", "ios": "https://dc.lft.to/lastmile_qr_scan"}, "lat": 38.95790983333333, "is_disabled": 0, "lon": -77.02004716666667}, {"fusion_lat": 0.0, "type": "electric_scooter", "name": "07ce88334a46d916c2029c49aaa87662", "fusion_lon": 0.0, "bike_id": "07ce88334a46d916c2029c49aaa87662", "is_reserved": 0, "rental_uris": {"android": "https://dc.lft.to/lastmile_qr_scan", "ios": "https://dc.lft.to/lastmile_qr_scan"}, "lat": 38.8861355, "is_disabled": 0, "lon": -77.00064483333334}, {"fusion_lat": 0.0, "type": "electric_scooter", "name": "6af5c4f8f3a93adbe4d337fbe8ef1a31", "fusion_lon": 0.0, "bike_id": "6af5c4f8f3a93adbe4d337fbe8ef1a31", "is_reserved": 0, "rental_uris": {"android": "https://dc.lft.to/lastmile_qr_scan", "ios": "https://dc.lft.to/lastmile_qr_scan"}, "lat": 38.904998166666665, "is_disabled": 0, "lon": -77.068561}, {"fusion_lat": 0.0, "type": "electric_scooter", "name": "6fcb4ffd380c35192f06c0077492db07", "fusion_lon": 0.0, "bike_id": "6fcb4ffd380c35192f06c0077492db07", "is_reserved": 0, "rental_uris": {"android": "https://dc.lft.to/lastmile_qr_scan", "ios": "https://dc.lft.to/lastmile_qr_scan"}, "lat": 38.903766166666664, "is_disabled": 0, "lon": -77.04513066666667}, {"fusion_lat": 0.0, "type": "electric_scooter", "name": "972a8ca97f8ce503706fafcf73cc7953", "fusion_lon": 0.0, "bike_id": "972a8ca97f8ce503706fafcf73cc7953", "is_reserved": 0, "rental_uris": {"android": "https://dc.lft.to/lastmile_qr_scan", "ios": "https://dc.lft.to/lastmile_qr_scan"}, "lat": 38.9236255, "is_disabled": 0, "lon": -77.05131783333333}, {"fusion_lat": 0.0, "type": "electric_scooter", "name": "d26e9c2aaa8bcdacb9328af477f79f8e", "fusion_lon": 0.0, "bike_id": "d26e9c2aaa8bcdacb9328af477f79f8e", "is_reserved": 0, "rental_uris": {"android": "https://dc.lft.to/lastmile_qr_scan", "ios": "https://dc.lft.to/lastmile_qr_scan"}, "lat": 38.974520166666665, "is_disabled": 0, "lon": -77.017899}, {"fusion_lat": 0.0, "type": "electric_bike", "name": "30a5284de5777f103b7aaf6c53d1f5ed", "fusion_lon": 0.0, "bike_id": "30a5284de5777f103b7aaf6c53d1f5ed", "is_reserved": 0, "rental_uris": {"android": "https://dc.lft.to/lastmile_qr_scan", "ios": "https://dc.lft.to/lastmile_qr_scan"}, "lat": 38.903741333333336, "is_disabled": 0, "lon": -77.06279266666667}, {"fusion_lat": 0.0, "type": "electric_scooter", "name": "c49fa42fde7374fc5ea0d44fddc11aed", "fusion_lon": 0.0, "bike_id": "c49fa42fde7374fc5ea0d44fddc11aed", "is_reserved": 0, "rental_uris": {"android": "https://dc.lft.to/lastmile_qr_scan", "ios": "https://dc.lft.to/lastmile_qr_scan"}, "lat": 38.89834616666667, "is_disabled": 0, "lon": -77.029665}, {"fusion_lat": 0.0, "type": "electric_scooter", "name": "963f68d65dea3a007e5d8633272b8dcc", "fusion_lon": 0.0, "bike_id": "963f68d65dea3a007e5d8633272b8dcc", "is_reserved": 0, "rental_uris": {"android": "https://dc.lft.to/lastmile_qr_scan", "ios": "https://dc.lft.to/lastmile_qr_scan"}, "lat": 38.892964166666665, "is_disabled": 0, "lon": -77.01234766666667}, {"fusion_lat": 0.0, "type": "electric_scooter", "name": "68c393d4582c6036b7e2bf45b901a471", "fusion_lon": 0.0, "bike_id": "68c393d4582c6036b7e2bf45b901a471", "is_reserved": 0, "rental_uris": {"android": "https://dc.lft.to/lastmile_qr_scan", "ios": "https://dc.lft.to/lastmile_qr_scan"}, "lat": 38.8959485, "is_disabled": 0, "lon": -77.02066766666667}, {"fusion_lat": 0.0, "type": "electric_scooter", "name": "1fb14383a0d13d743ba2f03d6aa8e02c", "fusion_lon": 0.0, "bike_id": "1fb14383a0d13d743ba2f03d6aa8e02c", "is_reserved": 0, "rental_uris": {"android": "https://dc.lft.to/lastmile_qr_scan", "ios": "https://dc.lft.to/lastmile_qr_scan"}, "lat": 38.89837433333334, "is_disabled": 0, "lon": -77.03262066666667}, {"fusion_lat": 0.0, "type": "electric_scooter", "name": "8d531286ce7479703b48790911c21676", "fusion_lon": 0.0, "bike_id": "8d531286ce7479703b48790911c21676", "is_reserved": 0, "rental_uris": {"android": "https://dc.lft.to/lastmile_qr_scan", "ios": "https://dc.lft.to/lastmile_qr_scan"}, "lat": 38.9188925, "is_disabled": 0, "lon": -77.04827333333333}, {"fusion_lat": 0.0, "type": "electric_bike", "name": "d4cdae72d4b72d52dbecb8dcc43e74ef", "fusion_lon": 0.0, "bike_id": "d4cdae72d4b72d52dbecb8dcc43e74ef", "is_reserved": 0, "rental_uris": {"android": "https://dc.lft.to/lastmile_qr_scan", "ios": "https://dc.lft.to/lastmile_qr_scan"}, "lat": 38.8295435, "is_disabled": 0, "lon": -77.12355716666667}, {"fusion_lat": 0.0, "type": "electric_bike", "name": "7112d07d3c36bfeb764adfbcb0e6a06d", "fusion_lon": 0.0, "bike_id": "7112d07d3c36bfeb764adfbcb0e6a06d", "is_reserved": 0, "rental_uris": {"android": "https://dc.lft.to/lastmile_qr_scan", "ios": "https://dc.lft.to/lastmile_qr_scan"}, "lat": 38.908599, "is_disabled": 0, "lon": -76.99953966666666}, {"fusion_lat": 0.0, "type": "electric_scooter", "name": "0b50e84b8a7fe3e934e24151e22e96c5", "fusion_lon": 0.0, "bike_id": "0b50e84b8a7fe3e934e24151e22e96c5", "is_reserved": 0, "rental_uris": {"android": "https://dc.lft.to/lastmile_qr_scan", "ios": "https://dc.lft.to/lastmile_qr_scan"}, "lat": 38.92045933333333, "is_disabled": 0, "lon": -76.9894395}, {"fusion_lat": 0.0, "type": "electric_scooter", "name": "271677f954faff2df5c375e635461c19", "fusion_lon": 0.0, "bike_id": "271677f954faff2df5c375e635461c19", "is_reserved": 0, "rental_uris": {"android": "https://dc.lft.to/lastmile_qr_scan", "ios": "https://dc.lft.to/lastmile_qr_scan"}, "lat": 38.881165, "is_disabled": 0, "lon": -76.99008266666667}, {"fusion_lat": 0.0, "type": "electric_scooter", "name": "329594c07f19b354160a355ac25d27fa", "fusion_lon": 0.0, "bike_id": "329594c07f19b354160a355ac25d27fa", "is_reserved": 0, "rental_uris": {"android": "https://dc.lft.to/lastmile_qr_scan", "ios": "https://dc.lft.to/lastmile_qr_scan"}, "lat": 38.920449, "is_disabled": 0, "lon": -77.01659766666667}, {"fusion_lat": 0.0, "type": "electric_scooter", "name": "d34224ef8c6d1564d3fc8cf9d4d13717", "fusion_lon": 0.0, "bike_id": "d34224ef8c6d1564d3fc8cf9d4d13717", "is_reserved": 0, "rental_uris": {"android": "https://dc.lft.to/lastmile_qr_scan", "ios": "https://dc.lft.to/lastmile_qr_scan"}, "lat": 38.92660766666667, "is_disabled": 0, "lon": -77.0146995}, {"fusion_lat": 0.0, "type": "electric_scooter", "name": "806b06b16b220bc96f3145129835bd0c", "fusion_lon": 0.0, "bike_id": "806b06b16b220bc96f3145129835bd0c", "is_reserved": 0, "rental_uris": {"android": "https://dc.lft.to/lastmile_qr_scan", "ios": "https://dc.lft.to/lastmile_qr_scan"}, "lat": 38.90011466666667, "is_disabled": 0, "lon": -77.03955966666666}, {"fusion_lat": 0.0, "type": "electric_scooter", "name": "75c1926f1d2d776c0f131e9029892546", "fusion_lon": 0.0, "bike_id": "75c1926f1d2d776c0f131e9029892546", "is_reserved": 0, "rental_uris": {"android": "https://dc.lft.to/lastmile_qr_scan", "ios": "https://dc.lft.to/lastmile_qr_scan"}, "lat": 38.93094166666667, "is_disabled": 0, "lon": -77.03816133333333}, {"fusion_lat": 0.0, "type": "electric_scooter", "name": "28ca21916715df2510d70e866aaee839", "fusion_lon": 0.0, "bike_id": "28ca21916715df2510d70e866aaee839", "is_reserved": 0, "rental_uris": {"android": "https://dc.lft.to/lastmile_qr_scan", "ios": "https://dc.lft.to/lastmile_qr_scan"}, "lat": 38.923318, "is_disabled": 0, "lon": -77.01897533333333}, {"fusion_lat": 0.0, "type": "electric_scooter", "name": "54e3fd4d47007bc70bbe51e20867c89b", "fusion_lon": 0.0, "bike_id": "54e3fd4d47007bc70bbe51e20867c89b", "is_reserved": 0, "rental_uris": {"android": "https://dc.lft.to/lastmile_qr_scan", "ios": "https://dc.lft.to/lastmile_qr_scan"}, "lat": 38.91026866666667, "is_disabled": 0, "lon": -77.03443233333333}, {"fusion_lat": 0.0, "type": "electric_scooter", "name": "ef872a7987adf1a01c04a69dcf7cf61b", "fusion_lon": 0.0, "bike_id": "ef872a7987adf1a01c04a69dcf7cf61b", "is_reserved": 0, "rental_uris": {"android": "https://dc.lft.to/lastmile_qr_scan", "ios": "https://dc.lft.to/lastmile_qr_scan"}, "lat": 38.91062316666667, "is_disabled": 0, "lon": -77.05474983333333}, {"fusion_lat": 0.0, "type": "electric_scooter", "name": "98aa991f3f3699255bd4c8abc48703c7", "fusion_lon": 0.0, "bike_id": "98aa991f3f3699255bd4c8abc48703c7", "is_reserved": 0, "rental_uris": {"android": "https://dc.lft.to/lastmile_qr_scan", "ios": "https://dc.lft.to/lastmile_qr_scan"}, "lat": 38.9095885, "is_disabled": 0, "lon": -77.03235016666666}, {"fusion_lat": 0.0, "type": "electric_scooter", "name": "8c3508e32ae1f86021f8b36737120ca0", "fusion_lon": 0.0, "bike_id": "8c3508e32ae1f86021f8b36737120ca0", "is_reserved": 0, "rental_uris": {"android": "https://dc.lft.to/lastmile_qr_scan", "ios": "https://dc.lft.to/lastmile_qr_scan"}, "lat": 38.9274335, "is_disabled": 0, "lon": -77.02149166666666}, {"fusion_lat": 0.0, "type": "electric_scooter", "name": "14c7f251b96e6e1e401886b2f13cb989", "fusion_lon": 0.0, "bike_id": "14c7f251b96e6e1e401886b2f13cb989", "is_reserved": 0, "rental_uris": {"android": "https://dc.lft.to/lastmile_qr_scan", "ios": "https://dc.lft.to/lastmile_qr_scan"}, "lat": 38.9106225, "is_disabled": 0, "lon": -77.05309833333334}, {"fusion_lat": 0.0, "type": "electric_scooter", "name": "f7b35e737acd52c1b263f7335b86e0a6", "fusion_lon": 0.0, "bike_id": "f7b35e737acd52c1b263f7335b86e0a6", "is_reserved": 0, "rental_uris": {"android": "https://dc.lft.to/lastmile_qr_scan", "ios": "https://dc.lft.to/lastmile_qr_scan"}, "lat": 38.92462066666667, "is_disabled": 0, "lon": -77.0221365}, {"fusion_lat": 0.0, "type": "electric_scooter", "name": "82d8728c909a22268f28099491a8df69", "fusion_lon": 0.0, "bike_id": "82d8728c909a22268f28099491a8df69", "is_reserved": 0, "rental_uris": {"android": "https://dc.lft.to/lastmile_qr_scan", "ios": "https://dc.lft.to/lastmile_qr_scan"}, "lat": 38.9181875, "is_disabled": 0, "lon": -77.03448216666666}, {"fusion_lat": 0.0, "type": "electric_scooter", "name": "1bc4590934cf3a6a34780d87545faa28", "fusion_lon": 0.0, "bike_id": "1bc4590934cf3a6a34780d87545faa28", "is_reserved": 0, "rental_uris": {"android": "https://dc.lft.to/lastmile_qr_scan", "ios": "https://dc.lft.to/lastmile_qr_scan"}, "lat": 38.91951566666667, "is_disabled": 0, "lon": -76.980768}, {"fusion_lat": 0.0, "type": "electric_bike", "name": "2a9b59a063e67f5559e7ff1edd9740d2", "fusion_lon": 0.0, "bike_id": "2a9b59a063e67f5559e7ff1edd9740d2", "is_reserved": 0, "rental_uris": {"android": "https://dc.lft.to/lastmile_qr_scan", "ios": "https://dc.lft.to/lastmile_qr_scan"}, "lat": 38.89645766666667, "is_disabled": 0, "lon": -76.93012916666666}, {"fusion_lat": 0.0, "type": "electric_scooter", "name": "73f6aaa169bf2c8a4dad93636d2cb631", "fusion_lon": 0.0, "bike_id": "73f6aaa169bf2c8a4dad93636d2cb631", "is_reserved": 0, "rental_uris": {"android": "https://dc.lft.to/lastmile_qr_scan", "ios": "https://dc.lft.to/lastmile_qr_scan"}, "lat": 38.90556483333334, "is_disabled": 0, "lon": -77.04690366666667}, {"fusion_lat": 0.0, "type": "electric_scooter", "name": "2b4d6cf99922e589d0e5cc9fb40697af", "fusion_lon": 0.0, "bike_id": "2b4d6cf99922e589d0e5cc9fb40697af", "is_reserved": 0, "rental_uris": {"android": "https://dc.lft.to/lastmile_qr_scan", "ios": "https://dc.lft.to/lastmile_qr_scan"}, "lat": 38.91324483333333, "is_disabled": 0, "lon": -77.0453585}, {"fusion_lat": 0.0, "type": "electric_scooter", "name": "6d3f384893bf902ad46fd37a30dbc6f9", "fusion_lon": 0.0, "bike_id": "6d3f384893bf902ad46fd37a30dbc6f9", "is_reserved": 0, "rental_uris": {"android": "https://dc.lft.to/lastmile_qr_scan", "ios": "https://dc.lft.to/lastmile_qr_scan"}, "lat": 38.935258833333336, "is_disabled": 0, "lon": -77.072796}, {"fusion_lat": 0.0, "type": "electric_scooter", "name": "64e0a8db0f15f45fb23afb629d1496d0", "fusion_lon": 0.0, "bike_id": "64e0a8db0f15f45fb23afb629d1496d0", "is_reserved": 0, "rental_uris": {"android": "https://dc.lft.to/lastmile_qr_scan", "ios": "https://dc.lft.to/lastmile_qr_scan"}, "lat": 38.90860383333333, "is_disabled": 0, "lon": -77.04257966666667}, {"fusion_lat": 0.0, "type": "electric_scooter", "name": "30b97c9dc73e76f0941bac1fa5ff4a67", "fusion_lon": 0.0, "bike_id": "30b97c9dc73e76f0941bac1fa5ff4a67", "is_reserved": 0, "rental_uris": {"android": "https://dc.lft.to/lastmile_qr_scan", "ios": "https://dc.lft.to/lastmile_qr_scan"}, "lat": 38.886092833333336, "is_disabled": 0, "lon": -76.99512366666667}, {"fusion_lat": 0.0, "type": "electric_scooter", "name": "5567d8d8e17b1b18b73a7691e9794910", "fusion_lon": 0.0, "bike_id": "5567d8d8e17b1b18b73a7691e9794910", "is_reserved": 0, "rental_uris": {"android": "https://dc.lft.to/lastmile_qr_scan", "ios": "https://dc.lft.to/lastmile_qr_scan"}, "lat": 38.922373, "is_disabled": 0, "lon": -77.04363266666667}, {"fusion_lat": 0.0, "type": "electric_scooter", "name": "3e8d0e1d8884f734e5b7bffb047c8385", "fusion_lon": 0.0, "bike_id": "3e8d0e1d8884f734e5b7bffb047c8385", "is_reserved": 0, "rental_uris": {"android": "https://dc.lft.to/lastmile_qr_scan", "ios": "https://dc.lft.to/lastmile_qr_scan"}, "lat": 38.908202333333335, "is_disabled": 0, "lon": -77.03965033333333}, {"fusion_lat": 0.0, "type": "electric_scooter", "name": "0360948c05ad3b37c8431857dce52d4f", "fusion_lon": 0.0, "bike_id": "0360948c05ad3b37c8431857dce52d4f", "is_reserved": 0, "rental_uris": {"android": "https://dc.lft.to/lastmile_qr_scan", "ios": "https://dc.lft.to/lastmile_qr_scan"}, "lat": 38.903475, "is_disabled": 0, "lon": -77.06115716666666}, {"fusion_lat": 0.0, "type": "electric_scooter", "name": "f1deeb4d2e0a855d0c49067277b71097", "fusion_lon": 0.0, "bike_id": "f1deeb4d2e0a855d0c49067277b71097", "is_reserved": 0, "rental_uris": {"android": "https://dc.lft.to/lastmile_qr_scan", "ios": "https://dc.lft.to/lastmile_qr_scan"}, "lat": 38.93602416666667, "is_disabled": 0, "lon": -77.0291805}, {"fusion_lat": 0.0, "type": "electric_scooter", "name": "6be2d876b4d800faa1e8779987337687", "fusion_lon": 0.0, "bike_id": "6be2d876b4d800faa1e8779987337687", "is_reserved": 0, "rental_uris": {"android": "https://dc.lft.to/lastmile_qr_scan", "ios": "https://dc.lft.to/lastmile_qr_scan"}, "lat": 38.902809500000004, "is_disabled": 0, "lon": -77.0335475}, {"fusion_lat": 0.0, "type": "electric_scooter", "name": "fdda26476e869124bd4544846415ad87", "fusion_lon": 0.0, "bike_id": "fdda26476e869124bd4544846415ad87", "is_reserved": 0, "rental_uris": {"android": "https://dc.lft.to/lastmile_qr_scan", "ios": "https://dc.lft.to/lastmile_qr_scan"}, "lat": 38.90145183333333, "is_disabled": 0, "lon": -77.02272216666667}, {"fusion_lat": 0.0, "type": "electric_scooter", "name": "8017e3ae8146e093359d680169b0c242", "fusion_lon": 0.0, "bike_id": "8017e3ae8146e093359d680169b0c242", "is_reserved": 0, "rental_uris": {"android": "https://dc.lft.to/lastmile_qr_scan", "ios": "https://dc.lft.to/lastmile_qr_scan"}, "lat": 38.918047666666666, "is_disabled": 0, "lon": -77.03020333333333}, {"fusion_lat": 0.0, "type": "electric_scooter", "name": "e90d2f6ec4dc2fcfa72794035e1b01ed", "fusion_lon": 0.0, "bike_id": "e90d2f6ec4dc2fcfa72794035e1b01ed", "is_reserved": 0, "rental_uris": {"android": "https://dc.lft.to/lastmile_qr_scan", "ios": "https://dc.lft.to/lastmile_qr_scan"}, "lat": 38.94112666666667, "is_disabled": 0, "lon": -77.01535883333334}, {"fusion_lat": 0.0, "type": "electric_scooter", "name": "0d0a4a0a598f9d0c12b8889d02aaabf6", "fusion_lon": 0.0, "bike_id": "0d0a4a0a598f9d0c12b8889d02aaabf6", "is_reserved": 0, "rental_uris": {"android": "https://dc.lft.to/lastmile_qr_scan", "ios": "https://dc.lft.to/lastmile_qr_scan"}, "lat": 38.891924, "is_disabled": 0, "lon": -77.02623616666666}, {"fusion_lat": 0.0, "type": "electric_scooter", "name": "fb249b20634119657f620e7aea8f888d", "fusion_lon": 0.0, "bike_id": "fb249b20634119657f620e7aea8f888d", "is_reserved": 0, "rental_uris": {"android": "https://dc.lft.to/lastmile_qr_scan", "ios": "https://dc.lft.to/lastmile_qr_scan"}, "lat": 38.836979166666666, "is_disabled": 0, "lon": -77.00567433333333}, {"fusion_lat": 0.0, "type": "electric_bike", "name": "882a9863bb2e5a5cf894c636b6d3be99", "fusion_lon": 0.0, "bike_id": "882a9863bb2e5a5cf894c636b6d3be99", "is_reserved": 0, "rental_uris": {"android": "https://dc.lft.to/lastmile_qr_scan", "ios": "https://dc.lft.to/lastmile_qr_scan"}, "lat": 38.9043605, "is_disabled": 0, "lon": -77.03169616666666}, {"fusion_lat": 0.0, "type": "electric_scooter", "name": "f8d8ad7615626eb59966c897676c01b2", "fusion_lon": 0.0, "bike_id": "f8d8ad7615626eb59966c897676c01b2", "is_reserved": 0, "rental_uris": {"android": "https://dc.lft.to/lastmile_qr_scan", "ios": "https://dc.lft.to/lastmile_qr_scan"}, "lat": 38.844248, "is_disabled": 0, "lon": -76.9977605}, {"fusion_lat": 0.0, "type": "electric_scooter", "name": "6e3999f7782b779b1d96b6e1e7ad2686", "fusion_lon": 0.0, "bike_id": "6e3999f7782b779b1d96b6e1e7ad2686", "is_reserved": 0, "rental_uris": {"android": "https://dc.lft.to/lastmile_qr_scan", "ios": "https://dc.lft.to/lastmile_qr_scan"}, "lat": 38.9056725, "is_disabled": 0, "lon": -77.03453966666666}, {"fusion_lat": 0.0, "type": "electric_scooter", "name": "0ad6415f589c2a02b437106b23fc6266", "fusion_lon": 0.0, "bike_id": "0ad6415f589c2a02b437106b23fc6266", "is_reserved": 0, "rental_uris": {"android": "https://dc.lft.to/lastmile_qr_scan", "ios": "https://dc.lft.to/lastmile_qr_scan"}, "lat": 38.926445666666666, "is_disabled": 0, "lon": -77.04133716666666}, {"fusion_lat": 0.0, "type": "electric_scooter", "name": "7f1df99717f8f1c87557248c01c7c823", "fusion_lon": 0.0, "bike_id": "7f1df99717f8f1c87557248c01c7c823", "is_reserved": 0, "rental_uris": {"android": "https://dc.lft.to/lastmile_qr_scan", "ios": "https://dc.lft.to/lastmile_qr_scan"}, "lat": 38.923626666666664, "is_disabled": 0, "lon": -77.020462}, {"fusion_lat": 0.0, "type": "electric_scooter", "name": "f3f45b2ebee5672a5a9d8e25ad3035fb", "fusion_lon": 0.0, "bike_id": "f3f45b2ebee5672a5a9d8e25ad3035fb", "is_reserved": 0, "rental_uris": {"android": "https://dc.lft.to/lastmile_qr_scan", "ios": "https://dc.lft.to/lastmile_qr_scan"}, "lat": 38.92238833333333, "is_disabled": 0, "lon": -77.0731385}, {"fusion_lat": 0.0, "type": "electric_scooter", "name": "7c2bf18b301401bc3b51b50139daed25", "fusion_lon": 0.0, "bike_id": "7c2bf18b301401bc3b51b50139daed25", "is_reserved": 0, "rental_uris": {"android": "https://dc.lft.to/lastmile_qr_scan", "ios": "https://dc.lft.to/lastmile_qr_scan"}, "lat": 38.913568, "is_disabled": 0, "lon": -77.038544}, {"fusion_lat": 0.0, "type": "electric_bike", "name": "90214756879c88d4e370a728f74c6b2e", "fusion_lon": 0.0, "bike_id": "90214756879c88d4e370a728f74c6b2e", "is_reserved": 0, "rental_uris": {"android": "https://dc.lft.to/lastmile_qr_scan", "ios": "https://dc.lft.to/lastmile_qr_scan"}, "lat": 38.82781216666667, "is_disabled": 0, "lon": -77.00912666666666}, {"fusion_lat": 0.0, "type": "electric_scooter", "name": "76a734ca46f6abe98bcd6743258a804d", "fusion_lon": 0.0, "bike_id": "76a734ca46f6abe98bcd6743258a804d", "is_reserved": 0, "rental_uris": {"android": "https://dc.lft.to/lastmile_qr_scan", "ios": "https://dc.lft.to/lastmile_qr_scan"}, "lat": 38.892275, "is_disabled": 0, "lon": -77.043652}, {"fusion_lat": 0.0, "type": "electric_scooter", "name": "48c00c161caa542ddeb4dcd1d92d2638", "fusion_lon": 0.0, "bike_id": "48c00c161caa542ddeb4dcd1d92d2638", "is_reserved": 0, "rental_uris": {"android": "https://dc.lft.to/lastmile_qr_scan", "ios": "https://dc.lft.to/lastmile_qr_scan"}, "lat": 38.928044666666665, "is_disabled": 0, "lon": -77.0435205}, {"fusion_lat": 0.0, "type": "electric_scooter", "name": "ec965990dd80a7c580cf8bdffc237948", "fusion_lon": 0.0, "bike_id": "ec965990dd80a7c580cf8bdffc237948", "is_reserved": 0, "rental_uris": {"android": "https://dc.lft.to/lastmile_qr_scan", "ios": "https://dc.lft.to/lastmile_qr_scan"}, "lat": 38.90557, "is_disabled": 0, "lon": -76.98380733333333}, {"fusion_lat": 0.0, "type": "electric_scooter", "name": "52b607980e9dc0415d26b68bf52e94ef", "fusion_lon": 0.0, "bike_id": "52b607980e9dc0415d26b68bf52e94ef", "is_reserved": 0, "rental_uris": {"android": "https://dc.lft.to/lastmile_qr_scan", "ios": "https://dc.lft.to/lastmile_qr_scan"}, "lat": 38.88497, "is_disabled": 0, "lon": -77.01583883333333}, {"fusion_lat": 0.0, "type": "electric_scooter", "name": "5c03ebe9089c57711a05ae23d35e326b", "fusion_lon": 0.0, "bike_id": "5c03ebe9089c57711a05ae23d35e326b", "is_reserved": 0, "rental_uris": {"android": "https://dc.lft.to/lastmile_qr_scan", "ios": "https://dc.lft.to/lastmile_qr_scan"}, "lat": 38.91827833333333, "is_disabled": 0, "lon": -77.0394235}, {"fusion_lat": 0.0, "type": "electric_scooter", "name": "33eae10c673503134f2da16434899f38", "fusion_lon": 0.0, "bike_id": "33eae10c673503134f2da16434899f38", "is_reserved": 0, "rental_uris": {"android": "https://dc.lft.to/lastmile_qr_scan", "ios": "https://dc.lft.to/lastmile_qr_scan"}, "lat": 38.92361983333333, "is_disabled": 0, "lon": -77.05048166666667}, {"fusion_lat": 0.0, "type": "electric_scooter", "name": "163dca5abd7048d29a51d348157daed8", "fusion_lon": 0.0, "bike_id": "163dca5abd7048d29a51d348157daed8", "is_reserved": 0, "rental_uris": {"android": "https://dc.lft.to/lastmile_qr_scan", "ios": "https://dc.lft.to/lastmile_qr_scan"}, "lat": 38.90370733333334, "is_disabled": 0, "lon": -77.04486583333333}, {"fusion_lat": 0.0, "type": "electric_scooter", "name": "28d804808ebd7c66e77707753f86f1d2", "fusion_lon": 0.0, "bike_id": "28d804808ebd7c66e77707753f86f1d2", "is_reserved": 0, "rental_uris": {"android": "https://dc.lft.to/lastmile_qr_scan", "ios": "https://dc.lft.to/lastmile_qr_scan"}, "lat": 38.8927365, "is_disabled": 0, "lon": -77.0487225}, {"fusion_lat": 0.0, "type": "electric_scooter", "name": "2b3d0dfdf9be8f0e97d8226118e38231", "fusion_lon": 0.0, "bike_id": "2b3d0dfdf9be8f0e97d8226118e38231", "is_reserved": 0, "rental_uris": {"android": "https://dc.lft.to/lastmile_qr_scan", "ios": "https://dc.lft.to/lastmile_qr_scan"}, "lat": 38.89224466666667, "is_disabled": 0, "lon": -77.03189266666666}, {"fusion_lat": 0.0, "type": "electric_bike", "name": "f97fe6bda14d91688244cf6b74f99caf", "fusion_lon": 0.0, "bike_id": "f97fe6bda14d91688244cf6b74f99caf", "is_reserved": 0, "rental_uris": {"android": "https://dc.lft.to/lastmile_qr_scan", "ios": "https://dc.lft.to/lastmile_qr_scan"}, "lat": 38.920411333333334, "is_disabled": 0, "lon": -76.99905716666666}, {"fusion_lat": 0.0, "type": "electric_scooter", "name": "95f7c402213c13c547191937791ec0bb", "fusion_lon": 0.0, "bike_id": "95f7c402213c13c547191937791ec0bb", "is_reserved": 0, "rental_uris": {"android": "https://dc.lft.to/lastmile_qr_scan", "ios": "https://dc.lft.to/lastmile_qr_scan"}, "lat": 38.93168766666667, "is_disabled": 0, "lon": -77.071022}, {"fusion_lat": 0.0, "type": "electric_scooter", "name": "8ee9540f239ba0077cd7b6a2abcd3305", "fusion_lon": 0.0, "bike_id": "8ee9540f239ba0077cd7b6a2abcd3305", "is_reserved": 0, "rental_uris": {"android": "https://dc.lft.to/lastmile_qr_scan", "ios": "https://dc.lft.to/lastmile_qr_scan"}, "lat": 38.9007955, "is_disabled": 0, "lon": -76.93020333333334}, {"fusion_lat": 0.0, "type": "electric_scooter", "name": "87a1c9d255a88e71ec2f843f5c9e0fbe", "fusion_lon": 0.0, "bike_id": "87a1c9d255a88e71ec2f843f5c9e0fbe", "is_reserved": 0, "rental_uris": {"android": "https://dc.lft.to/lastmile_qr_scan", "ios": "https://dc.lft.to/lastmile_qr_scan"}, "lat": 38.9443005, "is_disabled": 0, "lon": -77.02599483333333}, {"fusion_lat": 0.0, "type": "electric_scooter", "name": "788f6f7320f1bb5fdd03710282f0ebe1", "fusion_lon": 0.0, "bike_id": "788f6f7320f1bb5fdd03710282f0ebe1", "is_reserved": 0, "rental_uris": {"android": "https://dc.lft.to/lastmile_qr_scan", "ios": "https://dc.lft.to/lastmile_qr_scan"}, "lat": 38.916448, "is_disabled": 0, "lon": -77.02177666666667}, {"fusion_lat": 0.0, "type": "electric_scooter", "name": "6d80cbd5c702c488d5bd1efac747c5f0", "fusion_lon": 0.0, "bike_id": "6d80cbd5c702c488d5bd1efac747c5f0", "is_reserved": 0, "rental_uris": {"android": "https://dc.lft.to/lastmile_qr_scan", "ios": "https://dc.lft.to/lastmile_qr_scan"}, "lat": 38.89194083333334, "is_disabled": 0, "lon": -77.026231}, {"fusion_lat": 0.0, "type": "electric_scooter", "name": "166b4542af172ef3bdb0a07909b1940f", "fusion_lon": 0.0, "bike_id": "166b4542af172ef3bdb0a07909b1940f", "is_reserved": 0, "rental_uris": {"android": "https://dc.lft.to/lastmile_qr_scan", "ios": "https://dc.lft.to/lastmile_qr_scan"}, "lat": 38.87202516666667, "is_disabled": 0, "lon": -76.9783535}, {"fusion_lat": 0.0, "type": "electric_scooter", "name": "069c7d5af6bd91f1a69f0d23874847eb", "fusion_lon": 0.0, "bike_id": "069c7d5af6bd91f1a69f0d23874847eb", "is_reserved": 0, "rental_uris": {"android": "https://dc.lft.to/lastmile_qr_scan", "ios": "https://dc.lft.to/lastmile_qr_scan"}, "lat": 38.8553615, "is_disabled": 0, "lon": -76.98419083333333}, {"fusion_lat": 0.0, "type": "electric_scooter", "name": "d254fd29aaae0768b50559cad9e2175c", "fusion_lon": 0.0, "bike_id": "d254fd29aaae0768b50559cad9e2175c", "is_reserved": 0, "rental_uris": {"android": "https://dc.lft.to/lastmile_qr_scan", "ios": "https://dc.lft.to/lastmile_qr_scan"}, "lat": 38.88481766666666, "is_disabled": 0, "lon": -76.92617716666666}, {"fusion_lat": 0.0, "type": "electric_scooter", "name": "a2b4b3e63ae3c0e4bd4de397b1dd6ff3", "fusion_lon": 0.0, "bike_id": "a2b4b3e63ae3c0e4bd4de397b1dd6ff3", "is_reserved": 0, "rental_uris": {"android": "https://dc.lft.to/lastmile_qr_scan", "ios": "https://dc.lft.to/lastmile_qr_scan"}, "lat": 38.9357425, "is_disabled": 0, "lon": -77.0811525}, {"fusion_lat": 0.0, "type": "electric_bike", "name": "c400f3c560069b94f8e60806d6d359ca", "fusion_lon": 0.0, "bike_id": "c400f3c560069b94f8e60806d6d359ca", "is_reserved": 0, "rental_uris": {"android": "https://dc.lft.to/lastmile_qr_scan", "ios": "https://dc.lft.to/lastmile_qr_scan"}, "lat": 38.90945933333333, "is_disabled": 0, "lon": -77.0547055}, {"fusion_lat": 0.0, "type": "electric_scooter", "name": "f1c6eefe38aecd356ccdad7f95215c9d", "fusion_lon": 0.0, "bike_id": "f1c6eefe38aecd356ccdad7f95215c9d", "is_reserved": 0, "rental_uris": {"android": "https://dc.lft.to/lastmile_qr_scan", "ios": "https://dc.lft.to/lastmile_qr_scan"}, "lat": 38.89722733333333, "is_disabled": 0, "lon": -77.02727783333333}, {"fusion_lat": 0.0, "type": "electric_scooter", "name": "f9aba1c2a18bc737778e03427bd55034", "fusion_lon": 0.0, "bike_id": "f9aba1c2a18bc737778e03427bd55034", "is_reserved": 0, "rental_uris": {"android": "https://dc.lft.to/lastmile_qr_scan", "ios": "https://dc.lft.to/lastmile_qr_scan"}, "lat": 38.950641, "is_disabled": 0, "lon": -77.0801625}, {"fusion_lat": 0.0, "type": "electric_scooter", "name": "ddab5db49050a6d6e6cc26f76ed1a766", "fusion_lon": 0.0, "bike_id": "ddab5db49050a6d6e6cc26f76ed1a766", "is_reserved": 0, "rental_uris": {"android": "https://dc.lft.to/lastmile_qr_scan", "ios": "https://dc.lft.to/lastmile_qr_scan"}, "lat": 38.904342, "is_disabled": 0, "lon": -77.04330733333333}, {"fusion_lat": 0.0, "type": "electric_scooter", "name": "a0f4d627c465b2935304528077c69cdd", "fusion_lon": 0.0, "bike_id": "a0f4d627c465b2935304528077c69cdd", "is_reserved": 0, "rental_uris": {"android": "https://dc.lft.to/lastmile_qr_scan", "ios": "https://dc.lft.to/lastmile_qr_scan"}, "lat": 38.900639, "is_disabled": 0, "lon": -77.04531333333334}, {"fusion_lat": 0.0, "type": "electric_scooter", "name": "a3fd4227755b2201772884847b403b39", "fusion_lon": 0.0, "bike_id": "a3fd4227755b2201772884847b403b39", "is_reserved": 0, "rental_uris": {"android": "https://dc.lft.to/lastmile_qr_scan", "ios": "https://dc.lft.to/lastmile_qr_scan"}, "lat": 38.920397333333334, "is_disabled": 0, "lon": -77.03641883333333}, {"fusion_lat": 0.0, "type": "electric_scooter", "name": "cdbda2007f5b070110079a157d943f69", "fusion_lon": 0.0, "bike_id": "cdbda2007f5b070110079a157d943f69", "is_reserved": 0, "rental_uris": {"android": "https://dc.lft.to/lastmile_qr_scan", "ios": "https://dc.lft.to/lastmile_qr_scan"}, "lat": 38.8984775, "is_disabled": 0, "lon": -76.99028233333334}, {"fusion_lat": 0.0, "type": "electric_scooter", "name": "05cef3d682e3666ccb778323aef2c62a", "fusion_lon": 0.0, "bike_id": "05cef3d682e3666ccb778323aef2c62a", "is_reserved": 0, "rental_uris": {"android": "https://dc.lft.to/lastmile_qr_scan", "ios": "https://dc.lft.to/lastmile_qr_scan"}, "lat": 38.899381166666664, "is_disabled": 0, "lon": -77.01446516666667}, {"fusion_lat": 0.0, "type": "electric_scooter", "name": "603295e0ba07126764048e8d6ccaa352", "fusion_lon": 0.0, "bike_id": "603295e0ba07126764048e8d6ccaa352", "is_reserved": 0, "rental_uris": {"android": "https://dc.lft.to/lastmile_qr_scan", "ios": "https://dc.lft.to/lastmile_qr_scan"}, "lat": 38.9159545, "is_disabled": 0, "lon": -77.03522366666667}, {"fusion_lat": 0.0, "type": "electric_scooter", "name": "a4610e649a100b821b2ac0b171af0dd4", "fusion_lon": 0.0, "bike_id": "a4610e649a100b821b2ac0b171af0dd4", "is_reserved": 0, "rental_uris": {"android": "https://dc.lft.to/lastmile_qr_scan", "ios": "https://dc.lft.to/lastmile_qr_scan"}, "lat": 38.934167333333335, "is_disabled": 0, "lon": -77.04407516666667}, {"fusion_lat": 0.0, "type": "electric_scooter", "name": "777e1463ae6586219bec60729a6d6f98", "fusion_lon": 0.0, "bike_id": "777e1463ae6586219bec60729a6d6f98", "is_reserved": 0, "rental_uris": {"android": "https://dc.lft.to/lastmile_qr_scan", "ios": "https://dc.lft.to/lastmile_qr_scan"}, "lat": 38.9072825, "is_disabled": 0, "lon": -77.03193983333334}, {"fusion_lat": 0.0, "type": "electric_scooter", "name": "4fb6d262013b5cd4e5c7b12907b0120b", "fusion_lon": 0.0, "bike_id": "4fb6d262013b5cd4e5c7b12907b0120b", "is_reserved": 0, "rental_uris": {"android": "https://dc.lft.to/lastmile_qr_scan", "ios": "https://dc.lft.to/lastmile_qr_scan"}, "lat": 38.90609533333333, "is_disabled": 0, "lon": -77.05154733333333}, {"fusion_lat": 0.0, "type": "electric_scooter", "name": "2e7d9f0232daabe6e96eb5123df2ba73", "fusion_lon": 0.0, "bike_id": "2e7d9f0232daabe6e96eb5123df2ba73", "is_reserved": 0, "rental_uris": {"android": "https://dc.lft.to/lastmile_qr_scan", "ios": "https://dc.lft.to/lastmile_qr_scan"}, "lat": 38.943128, "is_disabled": 0, "lon": -77.01729083333333}, {"fusion_lat": 0.0, "type": "electric_scooter", "name": "4a6c0504d3e9a182264471e62c74936b", "fusion_lon": 0.0, "bike_id": "4a6c0504d3e9a182264471e62c74936b", "is_reserved": 0, "rental_uris": {"android": "https://dc.lft.to/lastmile_qr_scan", "ios": "https://dc.lft.to/lastmile_qr_scan"}, "lat": 38.886654666666665, "is_disabled": 0, "lon": -76.9360895}, {"fusion_lat": 0.0, "type": "electric_scooter", "name": "4038a263a0ec8a40305438c096ae32a9", "fusion_lon": 0.0, "bike_id": "4038a263a0ec8a40305438c096ae32a9", "is_reserved": 0, "rental_uris": {"android": "https://dc.lft.to/lastmile_qr_scan", "ios": "https://dc.lft.to/lastmile_qr_scan"}, "lat": 38.920708166666664, "is_disabled": 0, "lon": -77.03457766666666}, {"fusion_lat": 0.0, "type": "electric_scooter", "name": "57f3aa6c4b1843faab2f520656dc7426", "fusion_lon": 0.0, "bike_id": "57f3aa6c4b1843faab2f520656dc7426", "is_reserved": 0, "rental_uris": {"android": "https://dc.lft.to/lastmile_qr_scan", "ios": "https://dc.lft.to/lastmile_qr_scan"}, "lat": 38.898750166666666, "is_disabled": 0, "lon": -77.0331555}, {"fusion_lat": 0.0, "type": "electric_scooter", "name": "0e8b5df3d7227f0a0e7d138f18bcf3d0", "fusion_lon": 0.0, "bike_id": "0e8b5df3d7227f0a0e7d138f18bcf3d0", "is_reserved": 0, "rental_uris": {"android": "https://dc.lft.to/lastmile_qr_scan", "ios": "https://dc.lft.to/lastmile_qr_scan"}, "lat": 38.914244333333336, "is_disabled": 0, "lon": -77.03922233333333}, {"fusion_lat": 0.0, "type": "electric_scooter", "name": "eea210a0966f947c21761626701a34d4", "fusion_lon": 0.0, "bike_id": "eea210a0966f947c21761626701a34d4", "is_reserved": 0, "rental_uris": {"android": "https://dc.lft.to/lastmile_qr_scan", "ios": "https://dc.lft.to/lastmile_qr_scan"}, "lat": 38.9055765, "is_disabled": 0, "lon": -77.040678}, {"fusion_lat": 0.0, "type": "electric_scooter", "name": "34e17b6b31cbc5939d9ef36d221f0428", "fusion_lon": 0.0, "bike_id": "34e17b6b31cbc5939d9ef36d221f0428", "is_reserved": 0, "rental_uris": {"android": "https://dc.lft.to/lastmile_qr_scan", "ios": "https://dc.lft.to/lastmile_qr_scan"}, "lat": 38.905532666666666, "is_disabled": 0, "lon": -77.04696116666666}, {"fusion_lat": 0.0, "type": "electric_scooter", "name": "d8c8cf52f0451a84e54af3251e72be91", "fusion_lon": 0.0, "bike_id": "d8c8cf52f0451a84e54af3251e72be91", "is_reserved": 0, "rental_uris": {"android": "https://dc.lft.to/lastmile_qr_scan", "ios": "https://dc.lft.to/lastmile_qr_scan"}, "lat": 38.915980166666664, "is_disabled": 0, "lon": -77.0448365},