{"data": {"bikes": [{"bike_id": "b611add2ad4ce5b4df09fd8dbff804da", "fusion_lon": 0.0, "type": "electric_scooter", "name": "b611add2ad4ce5b4df09fd8dbff804da", "rental_uris": {"android": "https://dc.lft.to/lastmile_qr_scan", "ios": "https://dc.lft.to/lastmile_qr_scan"}, "fusion_lat": 0.0, "lat": 38.911718, "is_disabled": 0, "lon": -77.036689, "is_reserved": 0}, {"bike_id": "7f38b6e1f0ec76059d6d5532bcf582f5", "fusion_lon": 0.0, "type": "electric_scooter", "name": "7f38b6e1f0ec76059d6d5532bcf582f5", "rental_uris": {"android": "https://dc.lft.to/lastmile_qr_scan", "ios": "https://dc.lft.to/lastmile_qr_scan"}, "fusion_lat": 0.0, "lat": 38.89219283333333, "is_disabled": 0, "lon": -77.02632733333333, "is_reserved": 0}, {"bike_id": "f900d7bb9c2d2e728d8be2199b366ffc", "fusion_lon": 0.0, "type": "electric_scooter", "name": "f900d7bb9c2d2e728d8be2199b366ffc", "rental_uris": {"android": "https://dc.lft.to/lastmile_qr_scan", "ios": "https://dc.lft.to/lastmile_qr_scan"}, "fusion_lat": 0.0, "lat": 38.92914666666667, "is_disabled": 0, "lon": -77.03625316666667, "is_reserved": 0}, {"bike_id": "8e12a8a46e749dd5c74ae6145f2f0b06", "fusion_lon": 0.0, "type": "electric_scooter", "name": "8e12a8a46e749dd5c74ae6145f2f0b06", "rental_uris": {"android": "https://dc.lft.to/lastmile_qr_scan", "ios": "https://dc.lft.to/lastmile_qr_scan"}, "fusion_lat": 0.0, "lat": 38.928656, "is_disabled": 0, "lon": -77.03482116666666, "is_reserved": 0}, {"bike_id": "c52eab0cb4fedbe9bab94283d3b5aeb5", "fusion_lon": 0.0, "type": "electric_scooter", "name": "c52eab0cb4fedbe9bab94283d3b5aeb5", "rental_uris": {"android": "https://dc.lft.to/lastmile_qr_scan", "ios": "https://dc.lft.to/lastmile_qr_scan"}, "fusion_lat": 0.0, "lat": 38.86066066666667, "is_disabled": 0, "lon": -76.99028733333333, "is_reserved": 0}, {"bike_id": "4673cc23c1093d9f1e29181aaace063a", "fusion_lon": 0.0, "type": "electric_scooter", "name": "4673cc23c1093d9f1e29181aaace063a", "rental_uris": {"android": "https://dc.lft.to/lastmile_qr_scan", "ios": "https://dc.lft.to/lastmile_qr_scan"}, "fusion_lat": 0.0, "lat": 38.877767166666665, "is_disabled": 0, "lon": -77.0144725, "is_reserved": 0}, {"bike_id": "56c9001c42e8b4724d70862865e3ac5e", "fusion_lon": 0.0, "type": "electric_bike", "name": "56c9001c42e8b4724d70862865e3ac5e", "rental_uris": {"android": "https://dc.lft.to/lastmile_qr_scan", "ios": "https://dc.lft.to/lastmile_qr_scan"}, "fusion_lat": 0.0, "lat": 39.053443666666666, "is_disabled": 0, "lon": -77.13600083333333, "is_reserved": 0}, {"bike_id": "2d991e73fb49374b326218d75c74875e", "fusion_lon": 0.0, "type": "electric_scooter", "name": "2d991e73fb49374b326218d75c74875e", "rental_uris": {"android": "https://dc.lft.to/lastmile_qr_scan", "ios": "https://dc.lft.to/lastmile_qr_scan"}, "fusion_lat": 0.0, "lat": 38.844976333333335, "is_disabled": 0, "lon": -76.9875515, "is_reserved": 0}, {"bike_id": "141c7cbba3884c5102363ea8cc628c1d", "fusion_lon": 0.0, "type": "electric_scooter", "name": "141c7cbba3884c5102363ea8cc628c1d", "rental_uris": {"android": "https://dc.lft.to/lastmile_qr_scan", "ios": "https://dc.lft.to/lastmile_qr_scan"}, "fusion_lat": 0.0, "lat": 38.918075333333334, "is_disabled": 0, "lon": -77.03438366666667, "is_reserved": 0}, {"bike_id": "fb72b2b3c27a7a9db865f3e495448c0a", "fusion_lon": 0.0, "type": "electric_scooter", "name": "fb72b2b3c27a7a9db865f3e495448c0a", "rental_uris": {"android": "https://dc.lft.to/lastmile_qr_scan", "ios": "https://dc.lft.to/lastmile_qr_scan"}, "fusion_lat": 0.0, "lat": 38.934776666666664, "is_disabled": 0, "lon": -77.06534516666666, "is_reserved": 0}, {"bike_id": "07f3e92ab749be2186e1a1cff66b6633", "fusion_lon": 0.0, "type": "electric_scooter", "name": "07f3e92ab749be2186e1a1cff66b6633", "rental_uris": {"android": "https://dc.lft.to/lastmile_qr_scan", "ios": "https://dc.lft.to/lastmile_qr_scan"}, "fusion_lat": 0.0, "lat": 38.90653533333333, "is_disabled": 0, "lon": -77.000588, "is_reserved": 0}, {"bike_id": "86e6037d53a78d57edc3077e90d938fc", "fusion_lon": 0.0, "type": "electric_scooter", "name": "86e6037d53a78d57edc3077e90d938fc", "rental_uris": {"android": "https://dc.lft.to/lastmile_qr_scan", "ios": "https://dc.lft.to/lastmile_qr_scan"}, "fusion_lat": 0.0, "lat": 38.903066, "is_disabled": 0, "lon": -77.02126133333333, "is_reserved": 0}, {"bike_id": "03b9704687eeaa7271472be6fc5ba9c6", "fusion_lon": 0.0, "type": "electric_scooter", "name": "03b9704687eeaa7271472be6fc5ba9c6", "rental_uris": {"android": "https://dc.lft.to/lastmile_qr_scan", "ios": "https://dc.lft.to/lastmile_qr_scan"}, "fusion_lat": 0.0, "lat": 38.933665, "is_disabled": 0, "lon": -77.05735033333333, "is_reserved": 0}, {"bike_id": "6079eef6a0cc208c5bf654d4b8e66774", "fusion_lon": 0.0, "type": "electric_scooter", "name": "6079eef6a0cc208c5bf654d4b8e66774", "rental_uris": {"android": "https://dc.lft.to/lastmile_qr_scan", "ios": "https://dc.lft.to/lastmile_qr_scan"}, "fusion_lat": 0.0, "lat": 38.8621735, "is_disabled": 0, "lon": -76.99464666666667, "is_reserved": 0}, {"bike_id": "4c3f90462a697bfe1a5767fe9823067a", "fusion_lon": 0.0, "type": "electric_scooter", "name": "4c3f90462a697bfe1a5767fe9823067a", "rental_uris": {"android": "https://dc.lft.to/lastmile_qr_scan", "ios": "https://dc.lft.to/lastmile_qr_scan"}, "fusion_lat": 0.0, "lat": 38.914030833333335, "is_disabled": 0, "lon": -77.041839, "is_reserved": 0}, {"bike_id": "546e6bb89bf72c9d2410f05614534b97", "fusion_lon": 0.0, "type": "electric_bike", "name": "546e6bb89bf72c9d2410f05614534b97", "rental_uris": {"android": "https://dc.lft.to/lastmile_qr_scan", "ios": "https://dc.lft.to/lastmile_qr_scan"}, "fusion_lat": 0.0, "lat": 38.994499, "is_disabled": 0, "lon": -76.90816733333334, "is_reserved": 0}, {"bike_id": "7ab0e0d62161c8bf2733099befc824b3", "fusion_lon": 0.0, "type": "electric_scooter", "name": "7ab0e0d62161c8bf2733099befc824b3", "rental_uris": {"android": "https://dc.lft.to/lastmile_qr_scan", "ios": "https://dc.lft.to/lastmile_qr_scan"}, "fusion_lat": 0.0, "lat": 38.88031016666667, "is_disabled": 0, "lon": -76.99506566666666, "is_reserved": 0}, {"bike_id": "c6d6f07cbcb1e64a0b4dd2b40c639b10", "fusion_lon": 0.0, "type": "electric_scooter", "name": "c6d6f07cbcb1e64a0b4dd2b40c639b10", "rental_uris": {"android": "https://dc.lft.to/lastmile_qr_scan", "ios": "https://dc.lft.to/lastmile_qr_scan"}, "fusion_lat": 0.0, "lat": 38.92981366666667, "is_disabled": 0, "lon": -77.03191433333333, "is_reserved": 0}, {"bike_id": "69d648eac5e8a207beccc55a928282f1", "fusion_lon": 0.0, "type": "electric_scooter", "name": "69d648eac5e8a207beccc55a928282f1", "rental_uris": {"android": "https://dc.lft.to/lastmile_qr_scan", "ios": "https://dc.lft.to/lastmile_qr_scan"}, "fusion_lat": 0.0, "lat": 38.90269933333333, "is_disabled": 0, "lon": -77.0218345, "is_reserved": 0}, {"bike_id": "31f7cf16b6486981e766ee5a01a4bc17", "fusion_lon": 0.0, "type": "electric_bike", "name": "31f7cf16b6486981e766ee5a01a4bc17", "rental_uris": {"android": "https://dc.lft.to/lastmile_qr_scan", "ios": "https://dc.lft.to/lastmile_qr_scan"}, "fusion_lat": 0.0, "lat": 38.8801045, "is_disabled": 0, "lon": -76.91595783333334, "is_reserved": 0}, {"bike_id": "15a5f698b485a668d10736ab77139fba", "fusion_lon": 0.0, "type": "electric_bike", "name": "15a5f698b485a668d10736ab77139fba", "rental_uris": {"android": "https://dc.lft.to/lastmile_qr_scan", "ios": "https://dc.lft.to/lastmile_qr_scan"}, "fusion_lat": 0.0, "lat": 38.8453725, "is_disabled": 0, "lon": -76.987873, "is_reserved": 0}, {"bike_id": "2925ceb5a3443ad04d0fe056ba72521c", "fusion_lon": 0.0, "type": "electric_scooter", "name": "2925ceb5a3443ad04d0fe056ba72521c", "rental_uris": {"android": "https://dc.lft.to/lastmile_qr_scan", "ios": "https://dc.lft.to/lastmile_qr_scan"}, "fusion_lat": 0.0, "lat": 38.91333, "is_disabled": 0, "lon": -77.04816416666667, "is_reserved": 0}, {"bike_id": "fdc7a2f1fa4e09fbe540606b4b7728e2", "fusion_lon": 0.0, "type": "electric_scooter", "name": "fdc7a2f1fa4e09fbe540606b4b7728e2", "rental_uris": {"android": "https://dc.lft.to/lastmile_qr_scan", "ios": "https://dc.lft.to/lastmile_qr_scan"}, "fusion_lat": 0.0, "lat": 38.91882566666666, "is_disabled": 0, "lon": -77.02205716666667, "is_reserved": 0}, {"bike_id": "1d4d9ed8fc889e75d6c49a275750304b", "fusion_lon": 0.0, "type": "electric_scooter", "name": "1d4d9ed8fc889e75d6c49a275750304b", "rental_uris": {"android": "https://dc.lft.to/lastmile_qr_scan", "ios": "https://dc.lft.to/lastmile_qr_scan"}, "fusion_lat": 0.0, "lat": 38.8921595, "is_disabled": 0, "lon": -77.02688, "is_reserved": 0}, {"bike_id": "4c59e7b03a4c431b8743f771817045c8", "fusion_lon": 0.0, "type": "electric_scooter", "name": "4c59e7b03a4c431b8743f771817045c8", "rental_uris": {"android": "https://dc.lft.to/lastmile_qr_scan", "ios": "https://dc.lft.to/lastmile_qr_scan"}, "fusion_lat": 0.0, "lat": 38.89518133333333, "is_disabled": 0, "lon": -76.94903233333334, "is_reserved": 0}, {"bike_id": "b1ba93852d0b133e52dcfb0b6ec7c846", "fusion_lon": 0.0, "type": "electric_scooter", "name": "b1ba93852d0b133e52dcfb0b6ec7c846", "rental_uris": {"android": "https://dc.lft.to/lastmile_qr_scan", "ios": "https://dc.lft.to/lastmile_qr_scan"}, "fusion_lat": 0.0, "lat": 38.9352815, "is_disabled": 0, "lon": -77.03389966666667, "is_reserved": 0}, {"bike_id": "7292864e54749442ad8e9499906ef718", "fusion_lon": 0.0, "type": "electric_scooter", "name": "7292864e54749442ad8e9499906ef718", "rental_uris": {"android": "https://dc.lft.to/lastmile_qr_scan", "ios": "https://dc.lft.to/lastmile_qr_scan"}, "fusion_lat": 0.0, "lat": 38.906728, "is_disabled": 0, "lon": -77.07307283333333, "is_reserved": 0}, {"bike_id": "0d5d0c35d68730963747340f598a208a", "fusion_lon": 0.0, "type": "electric_scooter", "name": "0d5d0c35d68730963747340f598a208a", "rental_uris": {"android": "https://dc.lft.to/lastmile_qr_scan", "ios": "https://dc.lft.to/lastmile_qr_scan"}, "fusion_lat": 0.0, "lat": 38.89825583333333, "is_disabled": 0, "lon": -76.946548, "is_reserved": 0}, {"bike_id": "a53cabf3af571ec182101e99260c8f5a", "fusion_lon": 0.0, "type": "electric_scooter", "name": "a53cabf3af571ec182101e99260c8f5a", "rental_uris": {"android": "https://dc.lft.to/lastmile_qr_scan", "ios": "https://dc.lft.to/lastmile_qr_scan"}, "fusion_lat": 0.0, "lat": 38.91754483333333, "is_disabled": 0, "lon": -77.01614033333334, "is_reserved": 0}, {"bike_id": "7e7528fb32c4754551f1dde6aae81932", "fusion_lon": 0.0, "type": "electric_scooter", "name": "7e7528fb32c4754551f1dde6aae81932", "rental_uris": {"android": "https://dc.lft.to/lastmile_qr_scan", "ios": "https://dc.lft.to/lastmile_qr_scan"}, "fusion_lat": 0.0, "lat": 38.909740166666666, "is_disabled": 0, "lon": -77.0327595, "is_reserved": 0}, {"bike_id": "a3791e3232d065687f93c5f820093733", "fusion_lon": 0.0, "type": "electric_scooter", "name": "a3791e3232d065687f93c5f820093733", "rental_uris": {"android": "https://dc.lft.to/lastmile_qr_scan", "ios": "https://dc.lft.to/lastmile_qr_scan"}, "fusion_lat": 0.0, "lat": 38.895567, "is_disabled": 0, "lon": -77.00924333333333, "is_reserved": 0}, {"bike_id": "68642bd8dbe4ac4716e206009b6da0b2", "fusion_lon": 0.0, "type": "electric_scooter", "name": "68642bd8dbe4ac4716e206009b6da0b2", "rental_uris": {"android": "https://dc.lft.to/lastmile_qr_scan", "ios": "https://dc.lft.to/lastmile_qr_scan"}, "fusion_lat": 0.0, "lat": 38.9248815, "is_disabled": 0, "lon": -77.0214305, "is_reserved": 0}, {"bike_id": "5a8b5a228e1a66278a7b26773209646c", "fusion_lon": 0.0, "type": "electric_scooter", "name": "5a8b5a228e1a66278a7b26773209646c", "rental_uris": {"android": "https://dc.lft.to/lastmile_qr_scan", "ios": "https://dc.lft.to/lastmile_qr_scan"}, "fusion_lat": 0.0, "lat": 38.898820666666666, "is_disabled": 0, "lon": -76.98573416666666, "is_reserved": 0}, {"bike_id": "01ca13d81bd625bb8040f893594a7e2b", "fusion_lon": 0.0, "type": "electric_scooter", "name": "01ca13d81bd625bb8040f893594a7e2b", "rental_uris": {"android": "https://dc.lft.to/lastmile_qr_scan", "ios": "https://dc.lft.to/lastmile_qr_scan"}, "fusion_lat": 0.0, "lat": 38.897615, "is_disabled": 0, "lon": -76.97000616666666, "is_reserved": 0}, {"bike_id": "6ceb98e3fa16a81015a499d943190b64", "fusion_lon": 0.0, "type": "electric_scooter", "name": "6ceb98e3fa16a81015a499d943190b64", "rental_uris": {"android": "https://dc.lft.to/lastmile_qr_scan", "ios": "https://dc.lft.to/lastmile_qr_scan"}, "fusion_lat": 0.0, "lat": 38.91256716666667, "is_disabled": 0, "lon": -77.04096316666667, "is_reserved": 0}, {"bike_id": "d54f6cc98ed41a0f364b2a57e86da8df", "fusion_lon": 0.0, "type": "electric_scooter", "name": "d54f6cc98ed41a0f364b2a57e86da8df", "rental_uris": {"android": "https://dc.lft.to/lastmile_qr_scan", "ios": "https://dc.lft.to/lastmile_qr_scan"}, "fusion_lat": 0.0, "lat": 38.93879166666667, "is_disabled": 0, "lon": -77.0248075, "is_reserved": 0}, {"bike_id": "da3c850583582e75733ec45a8b6ff74c", "fusion_lon": 0.0, "type": "electric_scooter", "name": "da3c850583582e75733ec45a8b6ff74c", "rental_uris": {"android": "https://dc.lft.to/lastmile_qr_scan", "ios": "https://dc.lft.to/lastmile_qr_scan"}, "fusion_lat": 0.0, "lat": 38.91975, "is_disabled": 0, "lon": -77.0396845, "is_reserved": 0}, {"bike_id": "123d1055bec496dbc39e137808b65540", "fusion_lon": 0.0, "type": "electric_bike", "name": "123d1055bec496dbc39e137808b65540", "rental_uris": {"android": "https://dc.lft.to/lastmile_qr_scan", "ios": "https://dc.lft.to/lastmile_qr_scan"}, "fusion_lat": 0.0, "lat": 38.87493416666667, "is_disabled": 0, "lon": -77.0490535, "is_reserved": 0}, {"bike_id": "4a3d7fdf87a0da063dcfcf13bcd669d1", "fusion_lon": 0.0, "type": "electric_scooter", "name": "4a3d7fdf87a0da063dcfcf13bcd669d1", "rental_uris": {"android": "https://dc.lft.to/lastmile_qr_scan", "ios": "https://dc.lft.to/lastmile_qr_scan"}, "fusion_lat": 0.0, "lat": 38.91188483333333, "is_disabled": 0, "lon": -77.0181255, "is_reserved": 0}, {"bike_id": "40f62612edceb4ccd19166b7dc16a33e", "fusion_lon": 0.0, "type": "electric_scooter", "name": "40f62612edceb4ccd19166b7dc16a33e", "rental_uris": {"android": "https://dc.lft.to/lastmile_qr_scan", "ios": "https://dc.lft.to/lastmile_qr_scan"}, "fusion_lat": 0.0, "lat": 38.900098, "is_disabled": 0, "lon": -76.99125916666667, "is_reserved": 0}, {"bike_id": "4e79708260facce9dbca4bde23dbc971", "fusion_lon": 0.0, "type": "electric_bike", "name": "4e79708260facce9dbca4bde23dbc971", "rental_uris": {"android": "https://dc.lft.to/lastmile_qr_scan", "ios": "https://dc.lft.to/lastmile_qr_scan"}, "fusion_lat": 0.0, "lat": 38.99060033333333, "is_disabled": 0, "lon": -77.10030566666667, "is_reserved": 0}, {"bike_id": "cc22933d1e464c78696e6018b2e3cead", "fusion_lon": 0.0, "type": "electric_scooter", "name": "cc22933d1e464c78696e6018b2e3cead", "rental_uris": {"android": "https://dc.lft.to/lastmile_qr_scan", "ios": "https://dc.lft.to/lastmile_qr_scan"}, "fusion_lat": 0.0, "lat": 38.90715816666667, "is_disabled": 0, "lon": -77.00600316666667, "is_reserved": 0}, {"bike_id": "401c67b9c9e0eaaefbe1b0d8ca136b71", "fusion_lon": 0.0, "type": "electric_scooter", "name": "401c67b9c9e0eaaefbe1b0d8ca136b71", "rental_uris": {"android": "https://dc.lft.to/lastmile_qr_scan", "ios": "https://dc.lft.to/lastmile_qr_scan"}, "fusion_lat": 0.0, "lat": 38.9117715, "is_disabled": 0, "lon": -77.03187083333333, "is_reserved": 0}, {"bike_id": "1a1ed84ec58e13bc11a5bb91b9b43ac3", "fusion_lon": 0.0, "type": "electric_scooter", "name": "1a1ed84ec58e13bc11a5bb91b9b43ac3", "rental_uris": {"android": "https://dc.lft.to/lastmile_qr_scan", "ios": "https://dc.lft.to/lastmile_qr_scan"}, "fusion_lat": 0.0, "lat": 38.90696716666667, "is_disabled": 0, "lon": -77.01002833333334, "is_reserved": 0}, {"bike_id": "53845492645e7a46483faec01ff39b3d", "fusion_lon": 0.0, "type": "electric_scooter", "name": "53845492645e7a46483faec01ff39b3d", "rental_uris": {"android": "https://dc.lft.to/lastmile_qr_scan", "ios": "https://dc.lft.to/lastmile_qr_scan"}, "fusion_lat": 0.0, "lat": 38.9327095, "is_disabled": 0, "lon": -77.04433516666667, "is_reserved": 0}, {"bike_id": "9fd4579adfd7dba1e7694917ecc86b16", "fusion_lon": 0.0, "type": "electric_scooter", "name": "9fd4579adfd7dba1e7694917ecc86b16", "rental_uris": {"android": "https://dc.lft.to/lastmile_qr_scan", "ios": "https://dc.lft.to/lastmile_qr_scan"}, "fusion_lat": 0.0, "lat": 38.93225266666666, "is_disabled": 0, "lon": -77.020275, "is_reserved": 0}, {"bike_id": "85f1495701aaf6061fca600a143994f5", "fusion_lon": 0.0, "type": "electric_scooter", "name": "85f1495701aaf6061fca600a143994f5", "rental_uris": {"android": "https://dc.lft.to/lastmile_qr_scan", "ios": "https://dc.lft.to/lastmile_qr_scan"}, "fusion_lat": 0.0, "lat": 38.92344, "is_disabled": 0, "lon": -77.01909, "is_reserved": 0}, {"bike_id": "3af662c720771f594c122df531a35d35", "fusion_lon": 0.0, "type": "electric_scooter", "name": "3af662c720771f594c122df531a35d35", "rental_uris": {"android": "https://dc.lft.to/lastmile_qr_scan", "ios": "https://dc.lft.to/lastmile_qr_scan"}, "fusion_lat": 0.0, "lat": 38.9163725, "is_disabled": 0, "lon": -77.025529, "is_reserved": 0}, {"bike_id": "c72401696e6fb1ae8cfaebaded3ac6dd", "fusion_lon": 0.0, "type": "electric_scooter", "name": "c72401696e6fb1ae8cfaebaded3ac6dd", "rental_uris": {"android": "https://dc.lft.to/lastmile_qr_scan", "ios": "https://dc.lft.to/lastmile_qr_scan"}, "fusion_lat": 0.0, "lat": 38.876417333333336, "is_disabled": 0, "lon": -77.00334483333333, "is_reserved": 0}, {"bike_id": "a3e4306dd7562fbfe4011103db4b1190", "fusion_lon": 0.0, "type": "electric_scooter", "name": "a3e4306dd7562fbfe4011103db4b1190", "rental_uris": {"android": "https://dc.lft.to/lastmile_qr_scan", "ios": "https://dc.lft.to/lastmile_qr_scan"}, "fusion_lat": 0.0, "lat": 38.898975166666666, "is_disabled": 0, "lon": -76.978487, "is_reserved": 0}, {"bike_id": "55e83f2e837436fb95ce550a7dc88158", "fusion_lon": 0.0, "type": "electric_bike", "name": "55e83f2e837436fb95ce550a7dc88158", "rental_uris": {"android": "https://dc.lft.to/lastmile_qr_scan", "ios": "https://dc.lft.to/lastmile_qr_scan"}, "fusion_lat": 0.0, "lat": 38.999665, "is_disabled": 0, "lon": -77.05123916666666, "is_reserved": 0}, {"bike_id": "acb16d23689f5c8c74b4b4b62cf9b471", "fusion_lon": 0.0, "type": "electric_scooter", "name": "acb16d23689f5c8c74b4b4b62cf9b471", "rental_uris": {"android": "https://dc.lft.to/lastmile_qr_scan", "ios": "https://dc.lft.to/lastmile_qr_scan"}, "fusion_lat": 0.0, "lat": 38.917819, "is_disabled": 0, "lon": -76.97335633333333, "is_reserved": 0}, {"bike_id": "e64cde656bed299c4098357d30669246", "fusion_lon": 0.0, "type": "electric_bike", "name": "e64cde656bed299c4098357d30669246", "rental_uris": {"android": "https://dc.lft.to/lastmile_qr_scan", "ios": "https://dc.lft.to/lastmile_qr_scan"}, "fusion_lat": 0.0, "lat": 39.1151235, "is_disabled": 0, "lon": -77.19550383333333, "is_reserved": 0}, {"bike_id": "6074fa92919cbaec041edd7876ea6ebc", "fusion_lon": 0.0, "type": "electric_scooter", "name": "6074fa92919cbaec041edd7876ea6ebc", "rental_uris": {"android": "https://dc.lft.to/lastmile_qr_scan", "ios": "https://dc.lft.to/lastmile_qr_scan"}, "fusion_lat": 0.0, "lat": 38.90748933333333, "is_disabled": 0, "lon": -77.0316735, "is_reserved": 0}, {"bike_id": "28fe5590b9460286509c3efc7a46cf12", "fusion_lon": 0.0, "type": "electric_scooter", "name": "28fe5590b9460286509c3efc7a46cf12", "rental_uris": {"android": "https://dc.lft.to/lastmile_qr_scan", "ios": "https://dc.lft.to/lastmile_qr_scan"}, "fusion_lat": 0.0, "lat": 38.92214766666667, "is_disabled": 0, "lon": -77.04339433333334, "is_reserved": 0}, {"bike_id": "15cdbf8bb036fa52c5309ee77f734138", "fusion_lon": 0.0, "type": "electric_scooter", "name": "15cdbf8bb036fa52c5309ee77f734138", "rental_uris": {"android": "https://dc.lft.to/lastmile_qr_scan", "ios": "https://dc.lft.to/lastmile_qr_scan"}, "fusion_lat": 0.0, "lat": 38.93671533333333, "is_disabled": 0, "lon": -77.03646716666667, "is_reserved": 0}, {"bike_id": "e4db7e4f640f006f86354dab42408260", "fusion_lon": 0.0, "type": "electric_scooter", "name": "e4db7e4f640f006f86354dab42408260", "rental_uris": {"android": "https://dc.lft.to/lastmile_qr_scan", "ios": "https://dc.lft.to/lastmile_qr_scan"}, "fusion_lat": 0.0, "lat": 38.8901055, "is_disabled": 0, "lon": -76.93840016666667, "is_reserved": 0}, {"bike_id": "9790633cce70d07f774bcc90b0ef55a7", "fusion_lon": 0.0, "type": "electric_scooter", "name": "9790633cce70d07f774bcc90b0ef55a7", "rental_uris": {"android": "https://dc.lft.to/lastmile_qr_scan", "ios": "https://dc.lft.to/lastmile_qr_scan"}, "fusion_lat": 0.0, "lat": 38.9328695, "is_disabled": 0, "lon": -77.0362755, "is_reserved": 0}, {"bike_id": "d7fe4d177fe2eb218f7a9a174dbc6259", "fusion_lon": 0.0, "type": "electric_scooter", "name": "d7fe4d177fe2eb218f7a9a174dbc6259", "rental_uris": {"android": "https://dc.lft.to/lastmile_qr_scan", "ios": "https://dc.lft.to/lastmile_qr_scan"}, "fusion_lat": 0.0, "lat": 38.962064833333336, "is_disabled": 0, "lon": -77.02348966666666, "is_reserved": 0}, {"bike_id": "c665396dd02fdf75107fd96cdfc9e5c1", "fusion_lon": 0.0, "type": "electric_scooter", "name": "c665396dd02fdf75107fd96cdfc9e5c1", "rental_uris": {"android": "https://dc.lft.to/lastmile_qr_scan", "ios": "https://dc.lft.to/lastmile_qr_scan"}, "fusion_lat": 0.0, "lat": 38.904369, "is_disabled": 0, "lon": -77.0200135, "is_reserved": 0}, {"bike_id": "58ea44dc6b491394bfbca3e0986e30e4", "fusion_lon": 0.0, "type": "electric_scooter", "name": "58ea44dc6b491394bfbca3e0986e30e4", "rental_uris": {"android": "https://dc.lft.to/lastmile_qr_scan", "ios": "https://dc.lft.to/lastmile_qr_scan"}, "fusion_lat": 0.0, "lat": 38.89989583333333, "is_disabled": 0, "lon": -77.02504316666666, "is_reserved": 0}, {"bike_id": "7d90c1753cb2b858c1bfe03ce4620848", "fusion_lon": 0.0, "type": "electric_scooter", "name": "7d90c1753cb2b858c1bfe03ce4620848", "rental_uris": {"android": "https://dc.lft.to/lastmile_qr_scan", "ios": "https://dc.lft.to/lastmile_qr_scan"}, "fusion_lat": 0.0, "lat": 38.903945666666665, "is_disabled": 0, "lon": -77.04360316666667, "is_reserved": 0}, {"bike_id": "6d581d76a532e394f9b2f07626d0095d", "fusion_lon": 0.0, "type": "electric_scooter", "name": "6d581d76a532e394f9b2f07626d0095d", "rental_uris": {"android": "https://dc.lft.to/lastmile_qr_scan", "ios": "https://dc.lft.to/lastmile_qr_scan"}, "fusion_lat": 0.0, "lat": 38.903783, "is_disabled": 0, "lon": -77.03574716666667, "is_reserved": 0}, {"bike_id": "2b02167d51c260504776f83cf3da0b99", "fusion_lon": 0.0, "type": "electric_scooter", "name": "2b02167d51c260504776f83cf3da0b99", "rental_uris": {"android": "https://dc.lft.to/lastmile_qr_scan", "ios": "https://dc.lft.to/lastmile_qr_scan"}, "fusion_lat": 0.0, "lat": 38.91284433333333, "is_disabled": 0, "lon": -77.00897083333334, "is_reserved": 0}, {"bike_id": "1deea47a2e541ede4761ddac0f7ec2be", "fusion_lon": 0.0, "type": "electric_scooter", "name": "1deea47a2e541ede4761ddac0f7ec2be", "rental_uris": {"android": "https://dc.lft.to/lastmile_qr_scan", "ios": "https://dc.lft.to/lastmile_qr_scan"}, "fusion_lat": 0.0, "lat": 38.91964816666667, "is_disabled": 0, "lon": -77.071279, "is_reserved": 0}, {"bike_id": "b68edc19e0f883395807212910e95e14", "fusion_lon": 0.0, "type": "electric_scooter", "name": "b68edc19e0f883395807212910e95e14", "rental_uris": {"android": "https://dc.lft.to/lastmile_qr_scan", "ios": "https://dc.lft.to/lastmile_qr_scan"}, "fusion_lat": 0.0, "lat": 38.915604, "is_disabled": 0, "lon": -77.00590566666666, "is_reserved": 0}, {"bike_id": "3fd4270fc8d3a1fe89bf1eb05a68f7fc", "fusion_lon": 0.0, "type": "electric_bike", "name": "3fd4270fc8d3a1fe89bf1eb05a68f7fc", "rental_uris": {"android": "https://dc.lft.to/lastmile_qr_scan", "ios": "https://dc.lft.to/lastmile_qr_scan"}, "fusion_lat": 0.0, "lat": 39.02415466666667, "is_disabled": 0, "lon": -77.12505866666666, "is_reserved": 0}, {"bike_id": "8f5e6e6b51f375c01546c3363f753a97", "fusion_lon": 0.0, "type": "electric_scooter", "name": "8f5e6e6b51f375c01546c3363f753a97", "rental_uris": {"android": "https://dc.lft.to/lastmile_qr_scan", "ios": "https://dc.lft.to/lastmile_qr_scan"}, "fusion_lat": 0.0, "lat": 38.92379366666667, "is_disabled": 0, "lon": -77.03100366666666, "is_reserved": 0}, {"bike_id": "0c6e2a20102f053a4d2ba274483e6ef5", "fusion_lon": 0.0, "type": "electric_scooter", "name": "0c6e2a20102f053a4d2ba274483e6ef5", "rental_uris": {"android": "https://dc.lft.to/lastmile_qr_scan", "ios": "https://dc.lft.to/lastmile_qr_scan"}, "fusion_lat": 0.0, "lat": 38.92999116666667, "is_disabled": 0, "lon": -77.0235695, "is_reserved": 0}, {"bike_id": "8e978c73221131ae356ff615ea9c8a16", "fusion_lon": 0.0, "type": "electric_bike", "name": "8e978c73221131ae356ff615ea9c8a16", "rental_uris": {"android": "https://dc.lft.to/lastmile_qr_scan", "ios": "https://dc.lft.to/lastmile_qr_scan"}, "fusion_lat": 0.0, "lat": 39.05447683333333, "is_disabled": 0, "lon": -77.0430725, "is_reserved": 0}, {"bike_id": "24c4fc8e7fabd60b3ca2ab44a3cc83fe", "fusion_lon": 0.0, "type": "electric_scooter", "name": "24c4fc8e7fabd60b3ca2ab44a3cc83fe", "rental_uris": {"android": "https://dc.lft.to/lastmile_qr_scan", "ios": "https://dc.lft.to/lastmile_qr_scan"}, "fusion_lat": 0.0, "lat": 38.909647666666665, "is_disabled": 0, "lon": -77.04614816666667, "is_reserved": 0}, {"bike_id": "f7e7ffb56cdc1a6e27166f1a64627b95", "fusion_lon": 0.0, "type": "electric_scooter", "name": "f7e7ffb56cdc1a6e27166f1a64627b95", "rental_uris": {"android": "https://dc.lft.to/lastmile_qr_scan", "ios": "https://dc.lft.to/lastmile_qr_scan"}, "fusion_lat": 0.0, "lat": 38.935467, "is_disabled": 0, "lon": -77.082125, "is_reserved": 0}, {"bike_id": "27b8ad3175b7a86dc11563f16604a547", "fusion_lon": 0.0, "type": "electric_scooter", "name": "27b8ad3175b7a86dc11563f16604a547", "rental_uris": {"android": "https://dc.lft.to/lastmile_qr_scan", "ios": "https://dc.lft.to/lastmile_qr_scan"}, "fusion_lat": 0.0, "lat": 38.94995866666667, "is_disabled": 0, "lon": -77.02710566666667, "is_reserved": 0}, {"bike_id": "e636b2c7af6e1684562b4a22ccd08214", "fusion_lon": 0.0, "type": "electric_bike", "name": "e636b2c7af6e1684562b4a22ccd08214", "rental_uris": {"android": "https://dc.lft.to/lastmile_qr_scan", "ios": "https://dc.lft.to/lastmile_qr_scan"}, "fusion_lat": 0.0, "lat": 39.08856933333333, "is_disabled": 0, "lon": -77.17844733333334, "is_reserved": 0}, {"bike_id": "764298bef43d792ea7f3332b4f2eb478", "fusion_lon": 0.0, "type": "electric_scooter", "name": "764298bef43d792ea7f3332b4f2eb478", "rental_uris": {"android": "https://dc.lft.to/lastmile_qr_scan", "ios": "https://dc.lft.to/lastmile_qr_scan"}, "fusion_lat": 0.0, "lat": 38.89918766666667, "is_disabled": 0, "lon": -77.01898266666667, "is_reserved": 0}, {"bike_id": "9c036f92868e2749ffa98f1148651ac7", "fusion_lon": 0.0, "type": "electric_scooter", "name": "9c036f92868e2749ffa98f1148651ac7", "rental_uris": {"android": "https://dc.lft.to/lastmile_qr_scan", "ios": "https://dc.lft.to/lastmile_qr_scan"}, "fusion_lat": 0.0, "lat": 38.917218166666665, "is_disabled": 0, "lon": -77.03669666666667, "is_reserved": 0}, {"bike_id": "19610f56d99ce4d8e7a7ae3e4502f94e", "fusion_lon": 0.0, "type": "electric_scooter", "name": "19610f56d99ce4d8e7a7ae3e4502f94e", "rental_uris": {"android": "https://dc.lft.to/lastmile_qr_scan", "ios": "https://dc.lft.to/lastmile_qr_scan"}, "fusion_lat": 0.0, "lat": 38.9217105, "is_disabled": 0, "lon": -77.03910033333334, "is_reserved": 0}, {"bike_id": "c163a5f14c5fbfa0bfd0e5273ec8cbd1", "fusion_lon": 0.0, "type": "electric_scooter", "name": "c163a5f14c5fbfa0bfd0e5273ec8cbd1", "rental_uris": {"android": "https://dc.lft.to/lastmile_qr_scan", "ios": "https://dc.lft.to/lastmile_qr_scan"}, "fusion_lat": 0.0, "lat": 38.900181333333336, "is_disabled": 0, "lon": -77.00028633333334, "is_reserved": 0}, {"bike_id": "af8b24e8dd225ef489b0373bcd14e739", "fusion_lon": 0.0, "type": "electric_scooter", "name": "af8b24e8dd225ef489b0373bcd14e739", "rental_uris": {"android": "https://dc.lft.to/lastmile_qr_scan", "ios": "https://dc.lft.to/lastmile_qr_scan"}, "fusion_lat": 0.0, "lat": 38.916547333333334, "is_disabled": 0, "lon": -77.03662116666666, "is_reserved": 0}, {"bike_id": "bb103b1776d543e1d547330b66a3c3b2", "fusion_lon": 0.0, "type": "electric_scooter", "name": "bb103b1776d543e1d547330b66a3c3b2", "rental_uris": {"android": "https://dc.lft.to/lastmile_qr_scan", "ios": "https://dc.lft.to/lastmile_qr_scan"}, "fusion_lat": 0.0, "lat": 38.911780666666665, "is_disabled": 0, "lon": -77.08442583333333, "is_reserved": 0}, {"bike_id": "7faa45ae296324796f03af14b0f02603", "fusion_lon": 0.0, "type": "electric_scooter", "name": "7faa45ae296324796f03af14b0f02603", "rental_uris": {"android": "https://dc.lft.to/lastmile_qr_scan", "ios": "https://dc.lft.to/lastmile_qr_scan"}, "fusion_lat": 0.0, "lat": 38.93027266666667, "is_disabled": 0, "lon": -77.01296616666667, "is_reserved": 0}, {"bike_id": "cfb0849414cc7fccebc8420a6aa0882f", "fusion_lon": 0.0, "type": "electric_scooter", "name": "cfb0849414cc7fccebc8420a6aa0882f", "rental_uris": {"android": "https://dc.lft.to/lastmile_qr_scan", "ios": "https://dc.lft.to/lastmile_qr_scan"}, "fusion_lat": 0.0, "lat": 38.91102566666667, "is_disabled": 0, "lon": -77.02414916666666, "is_reserved": 0}, {"bike_id": "07f9173d11dd5d7cf161bd6b6bbb2ad6", "fusion_lon": 0.0, "type": "electric_scooter", "name": "07f9173d11dd5d7cf161bd6b6bbb2ad6", "rental_uris": {"android": "https://dc.lft.to/lastmile_qr_scan", "ios": "https://dc.lft.to/lastmile_qr_scan"}, "fusion_lat": 0.0, "lat": 38.9148615, "is_disabled": 0, "lon": -77.04158633333333, "is_reserved": 0}, {"bike_id": "8e4b7e91c9961deef28efb28a9ba34a5", "fusion_lon": 0.0, "type": "electric_scooter", "name": "8e4b7e91c9961deef28efb28a9ba34a5", "rental_uris": {"android": "https://dc.lft.to/lastmile_qr_scan", "ios": "https://dc.lft.to/lastmile_qr_scan"}, "fusion_lat": 0.0, "lat": 38.9201675, "is_disabled": 0, "lon": -77.01705183333333, "is_reserved": 0}, {"bike_id": "54ed259fb519db13406fb57930c6443d", "fusion_lon": 0.0, "type": "electric_scooter", "name": "54ed259fb519db13406fb57930c6443d", "rental_uris": {"android": "https://dc.lft.to/lastmile_qr_scan", "ios": "https://dc.lft.to/lastmile_qr_scan"}, "fusion_lat": 0.0, "lat": 38.902876666666664, "is_disabled": 0, "lon": -76.936564, "is_reserved": 0}, {"bike_id": "27124633e68a6094d76241d188309093", "fusion_lon": 0.0, "type": "electric_bike", "name": "27124633e68a6094d76241d188309093", "rental_uris": {"android": "https://dc.lft.to/lastmile_qr_scan", "ios": "https://dc.lft.to/lastmile_qr_scan"}, "fusion_lat": 0.0, "lat": 38.88820033333333, "is_disabled": 0, "lon": -77.1274255, "is_reserved": 0}, {"bike_id": "97d801529a00b1efb070e529f69b0714", "fusion_lon": 0.0, "type": "electric_scooter", "name": "97d801529a00b1efb070e529f69b0714", "rental_uris": {"android": "https://dc.lft.to/lastmile_qr_scan", "ios": "https://dc.lft.to/lastmile_qr_scan"}, "fusion_lat": 0.0, "lat": 38.91412316666667, "is_disabled": 0, "lon": -77.040206, "is_reserved": 0}, {"bike_id": "5a10e68e3892d5c18c8098f089fed043", "fusion_lon": 0.0, "type": "electric_scooter", "name": "5a10e68e3892d5c18c8098f089fed043", "rental_uris": {"android": "https://dc.lft.to/lastmile_qr_scan", "ios": "https://dc.lft.to/lastmile_qr_scan"}, "fusion_lat": 0.0, "lat": 38.887424833333334, "is_disabled": 0, "lon": -77.023973, "is_reserved": 0}, {"bike_id": "7814cf7eca4aafd1d42a57b5dbe8579a", "fusion_lon": 0.0, "type": "electric_scooter", "name": "7814cf7eca4aafd1d42a57b5dbe8579a", "rental_uris": {"android": "https://dc.lft.to/lastmile_qr_scan", "ios": "https://dc.lft.to/lastmile_qr_scan"}, "fusion_lat": 0.0, "lat": 38.910758, "is_disabled": 0, "lon": -77.02206233333334, "is_reserved": 0}, {"bike_id": "9d73587749402ca1c31f2de026db2c53", "fusion_lon": 0.0, "type": "electric_scooter", "name": "9d73587749402ca1c31f2de026db2c53", "rental_uris": {"android": "https://dc.lft.to/lastmile_qr_scan", "ios": "https://dc.lft.to/lastmile_qr_scan"}, "fusion_lat": 0.0, "lat": 38.855639, "is_disabled": 0, "lon": -76.98698166666667, "is_reserved": 0}, {"bike_id": "7fbddc4f48b1f4c386dd2dff8aae0117", "fusion_lon": 0.0, "type": "electric_scooter", "name": "7fbddc4f48b1f4c386dd2dff8aae0117", "rental_uris": {"android": "https://dc.lft.to/lastmile_qr_scan", "ios": "https://dc.lft.to/lastmile_qr_scan"}, "fusion_lat": 0.0, "lat": 38.94227016666667, "is_disabled": 0, "lon": -77.06166866666666, "is_reserved": 0}, {"bike_id": "4aaf3a9ccb0deeb18007b2a25696027b", "fusion_lon": 0.0, "type": "electric_scooter", "name": "4aaf3a9ccb0deeb18007b2a25696027b", "rental_uris": {"android": "https://dc.lft.to/lastmile_qr_scan", "ios": "https://dc.lft.to/lastmile_qr_scan"}, "fusion_lat": 0.0, "lat": 38.89877233333333, "is_disabled": 0, "lon": -76.93159266666666, "is_reserved": 0}, {"bike_id": "e8ed6ae20c4d9e518fbc4b87a27d2324", "fusion_lon": 0.0, "type": "electric_scooter", "name": "e8ed6ae20c4d9e518fbc4b87a27d2324", "rental_uris": {"android": "https://dc.lft.to/lastmile_qr_scan", "ios": "https://dc.lft.to/lastmile_qr_scan"}, "fusion_lat": 0.0, "lat": 38.924010833333334, "is_disabled": 0, "lon": -77.025437, "is_reserved": 0}, {"bike_id": "78359cab1146ef1276285872694f15fb", "fusion_lon": 0.0, "type": "electric_scooter", "name": "78359cab1146ef1276285872694f15fb", "rental_uris": {"android": "https://dc.lft.to/lastmile_qr_scan", "ios": "https://dc.lft.to/lastmile_qr_scan"}, "fusion_lat": 0.0, "lat": 38.91107933333333, "is_disabled": 0, "lon": -77.038334, "is_reserved": 0}, {"bike_id": "c10caa4e8942ce510fc0e70136afb874", "fusion_lon": 0.0, "type": "electric_scooter", "name": "c10caa4e8942ce510fc0e70136afb874", "rental_uris": {"android": "https://dc.lft.to/lastmile_qr_scan", "ios": "https://dc.lft.to/lastmile_qr_scan"}, "fusion_lat": 0.0, "lat": 38.918495, "is_disabled": 0, "lon": -77.04185516666666, "is_reserved": 0}, {"bike_id": "b94da30bccc9c753c2ab48ae54702557", "fusion_lon": 0.0, "type": "electric_scooter", "name": "b94da30bccc9c753c2ab48ae54702557", "rental_uris": {"android": "https://dc.lft.to/lastmile_qr_scan", "ios": "https://dc.lft.to/lastmile_qr_scan"}, "fusion_lat": 0.0, "lat": 38.923625333333334, "is_disabled": 0, "lon": -77.051256, "is_reserved": 0}, {"bike_id": "f6f4fe812b8b22f1d29cd0f865f232e5", "fusion_lon": 0.0, "type": "electric_scooter", "name": "f6f4fe812b8b22f1d29cd0f865f232e5", "rental_uris": {"android": "https://dc.lft.to/lastmile_qr_scan", "ios": "https://dc.lft.to/lastmile_qr_scan"}, "fusion_lat": 0.0, "lat": 38.911656666666666, "is_disabled": 0, "lon": -76.98777566666666, "is_reserved": 0}, {"bike_id": "ffe8cfad48ee319ead359b5a6e07bdda", "fusion_lon": 0.0, "type": "electric_scooter", "name": "ffe8cfad48ee319ead359b5a6e07bdda", "rental_uris": {"android": "https://dc.lft.to/lastmile_qr_scan", "ios": "https://dc.lft.to/lastmile_qr_scan"}, "fusion_lat": 0.0, "lat": 38.90354083333333, "is_disabled": 0, "lon": -77.02904316666667, "is_reserved": 0}, {"bike_id": "94dae718075f7c362111b64bb9cf17f5", "fusion_lon": 0.0, "type": "electric_scooter", "name": "94dae718075f7c362111b64bb9cf17f5", "rental_uris": {"android": "https://dc.lft.to/lastmile_qr_scan", "ios": "https://dc.lft.to/lastmile_qr_scan"}, "fusion_lat": 0.0, "lat": 38.90426816666667, "is_disabled": 0, "lon": -77.046562, "is_reserved": 0}, {"bike_id": "fb2b185efd9c03ec75e56710b31b2006", "fusion_lon": 0.0, "type": "electric_scooter", "name": "fb2b185efd9c03ec75e56710b31b2006", "rental_uris": {"android": "https://dc.lft.to/lastmile_qr_scan", "ios": "https://dc.lft.to/lastmile_qr_scan"}, "fusion_lat": 0.0, "lat": 38.907919166666666, "is_disabled": 0, "lon": -76.94120483333333, "is_reserved": 0}, {"bike_id": "cf6dcdeb955b8e2a7a930421210ef87e", "fusion_lon": 0.0, "type": "electric_scooter", "name": "cf6dcdeb955b8e2a7a930421210ef87e", "rental_uris": {"android": "https://dc.lft.to/lastmile_qr_scan", "ios": "https://dc.lft.to/lastmile_qr_scan"}, "fusion_lat": 0.0, "lat": 38.898442333333335, "is_disabled": 0, "lon": -77.017792, "is_reserved": 0}, {"bike_id": "0b3a0e9506958ce67072e38b17b65943", "fusion_lon": 0.0, "type": "electric_scooter", "name": "0b3a0e9506958ce67072e38b17b65943", "rental_uris": {"android": "https://dc.lft.to/lastmile_qr_scan", "ios": "https://dc.lft.to/lastmile_qr_scan"}, "fusion_lat": 0.0, "lat": 38.90166416666667, "is_disabled": 0, "lon": -77.02237216666667, "is_reserved": 0}, {"bike_id": "22e5989ec04f14f492cf0563d33fadd8", "fusion_lon": 0.0, "type": "electric_scooter", "name": "22e5989ec04f14f492cf0563d33fadd8", "rental_uris": {"android": "https://dc.lft.to/lastmile_qr_scan", "ios": "https://dc.lft.to/lastmile_qr_scan"}, "fusion_lat": 0.0, "lat": 38.894803, "is_disabled": 0, "lon": -76.995198, "is_reserved": 0}, {"bike_id": "58bd6656958fda1db4a1bdcafb25759b", "fusion_lon": 0.0, "type": "electric_bike", "name": "58bd6656958fda1db4a1bdcafb25759b", "rental_uris": {"android": "https://dc.lft.to/lastmile_qr_scan", "ios": "https://dc.lft.to/lastmile_qr_scan"}, "fusion_lat": 0.0, "lat": 38.852190666666665, "is_disabled": 0, "lon": -77.12964966666667, "is_reserved": 0}, {"bike_id": "acf3e30a839b2d1f9bf3a11af6768af4", "fusion_lon": 0.0, "type": "electric_scooter", "name": "acf3e30a839b2d1f9bf3a11af6768af4", "rental_uris": {"android": "https://dc.lft.to/lastmile_qr_scan", "ios": "https://dc.lft.to/lastmile_qr_scan"}, "fusion_lat": 0.0, "lat": 38.91317133333333, "is_disabled": 0, "lon": -77.04549333333334, "is_reserved": 0}, {"bike_id": "b31390e9e3ac14ea7751878422201bf1", "fusion_lon": 0.0, "type": "electric_scooter", "name": "b31390e9e3ac14ea7751878422201bf1", "rental_uris": {"android": "https://dc.lft.to/lastmile_qr_scan", "ios": "https://dc.lft.to/lastmile_qr_scan"}, "fusion_lat": 0.0, "lat": 38.9056565, "is_disabled": 0, "lon": -77.0059825, "is_reserved": 0}, {"bike_id": "eaa97094bb7d991ea9d0a53b96d2d3c7", "fusion_lon": 0.0, "type": "electric_scooter", "name": "eaa97094bb7d991ea9d0a53b96d2d3c7", "rental_uris": {"android": "https://dc.lft.to/lastmile_qr_scan", "ios": "https://dc.lft.to/lastmile_qr_scan"}, "fusion_lat": 0.0, "lat": 38.955643333333335, "is_disabled": 0, "lon": -77.00636933333334, "is_reserved": 0}, {"bike_id": "9b03fe437cdac83af55b292862a1080b", "fusion_lon": 0.0, "type": "electric_scooter", "name": "9b03fe437cdac83af55b292862a1080b", "rental_uris": {"android": "https://dc.lft.to/lastmile_qr_scan", "ios": "https://dc.lft.to/lastmile_qr_scan"}, "fusion_lat": 0.0, "lat": 38.941346, "is_disabled": 0, "lon": -77.0920355, "is_reserved": 0}, {"bike_id": "6b4d8621ef5f42fb2d2a9163e1712a05", "fusion_lon": 0.0, "type": "electric_bike", "name": "6b4d8621ef5f42fb2d2a9163e1712a05", "rental_uris": {"android": "https://dc.lft.to/lastmile_qr_scan", "ios": "https://dc.lft.to/lastmile_qr_scan"}, "fusion_lat": 0.0, "lat": 38.865939, "is_disabled": 0, "lon": -76.93233583333334, "is_reserved": 0}, {"bike_id": "9f2a8c37ddd6f884c49edb70817a93ec", "fusion_lon": 0.0, "type": "electric_scooter", "name": "9f2a8c37ddd6f884c49edb70817a93ec", "rental_uris": {"android": "https://dc.lft.to/lastmile_qr_scan", "ios": "https://dc.lft.to/lastmile_qr_scan"}, "fusion_lat": 0.0, "lat": 38.9279535, "is_disabled": 0, "lon": -77.0272655, "is_reserved": 0}, {"bike_id": "47b0b256158b5aa062b77e188abc6833", "fusion_lon": 0.0, "type": "electric_scooter", "name": "47b0b256158b5aa062b77e188abc6833", "rental_uris": {"android": "https://dc.lft.to/lastmile_qr_scan", "ios": "https://dc.lft.to/lastmile_qr_scan"}, "fusion_lat": 0.0, "lat": 38.900685333333335, "is_disabled": 0, "lon": -77.00214733333334, "is_reserved": 0}, {"bike_id": "708ffdcb39a8447699318c8b39ac4f75", "fusion_lon": 0.0, "type": "electric_scooter", "name": "708ffdcb39a8447699318c8b39ac4f75", "rental_uris": {"android": "https://dc.lft.to/lastmile_qr_scan", "ios": "https://dc.lft.to/lastmile_qr_scan"}, "fusion_lat": 0.0, "lat": 38.917525833333336, "is_disabled": 0, "lon": -77.0249135, "is_reserved": 0}, {"bike_id": "7e1400886c8bc6962dc92401c702464a", "fusion_lon": 0.0, "type": "electric_scooter", "name": "7e1400886c8bc6962dc92401c702464a", "rental_uris": {"android": "https://dc.lft.to/lastmile_qr_scan", "ios": "https://dc.lft.to/lastmile_qr_scan"}, "fusion_lat": 0.0, "lat": 38.905110666666666, "is_disabled": 0, "lon": -77.040716, "is_reserved": 0}, {"bike_id": "d0e033da0acb5fe7af02f96677e60d5e", "fusion_lon": 0.0, "type": "electric_scooter", "name": "d0e033da0acb5fe7af02f96677e60d5e", "rental_uris": {"android": "https://dc.lft.to/lastmile_qr_scan", "ios": "https://dc.lft.to/lastmile_qr_scan"}, "fusion_lat": 0.0, "lat": 38.903781, "is_disabled": 0, "lon": -77.01642383333333, "is_reserved": 0}, {"bike_id": "c64616bf9b2d36514f2851cd63eaab2b", "fusion_lon": 0.0, "type": "electric_scooter", "name": "c64616bf9b2d36514f2851cd63eaab2b", "rental_uris": {"android": "https://dc.lft.to/lastmile_qr_scan", "ios": "https://dc.lft.to/lastmile_qr_scan"}, "fusion_lat": 0.0, "lat": 38.89428916666667, "is_disabled": 0, "lon": -76.97910616666667, "is_reserved": 0}, {"bike_id": "3db10741502b5171423c16a5d9256304", "fusion_lon": 0.0, "type": "electric_scooter", "name": "3db10741502b5171423c16a5d9256304", "rental_uris": {"android": "https://dc.lft.to/lastmile_qr_scan", "ios": "https://dc.lft.to/lastmile_qr_scan"}, "fusion_lat": 0.0, "lat": 38.93044, "is_disabled": 0, "lon": -77.03221133333334, "is_reserved": 0}, {"bike_id": "26e9cfe1a1b2a79065bfbcc5ce539ca5", "fusion_lon": 0.0, "type": "electric_bike", "name": "26e9cfe1a1b2a79065bfbcc5ce539ca5", "rental_uris": {"android": "https://dc.lft.to/lastmile_qr_scan", "ios": "https://dc.lft.to/lastmile_qr_scan"}, "fusion_lat": 0.0, "lat": 38.93583366666667, "is_disabled": 0, "lon": -77.10687766666666, "is_reserved": 0}, {"bike_id": "b169de6bc927c09a9f768195ee91827c", "fusion_lon": 0.0, "type": "electric_scooter", "name": "b169de6bc927c09a9f768195ee91827c", "rental_uris": {"android": "https://dc.lft.to/lastmile_qr_scan", "ios": "https://dc.lft.to/lastmile_qr_scan"}, "fusion_lat": 0.0, "lat": 38.900275, "is_disabled": 0, "lon": -76.99123733333333, "is_reserved": 0}, {"bike_id": "20cf21d14f309c74e3bd0ca076a25caf", "fusion_lon": 0.0, "type": "electric_scooter", "name": "20cf21d14f309c74e3bd0ca076a25caf", "rental_uris": {"android": "https://dc.lft.to/lastmile_qr_scan", "ios": "https://dc.lft.to/lastmile_qr_scan"}, "fusion_lat": 0.0, "lat": 38.89338383333333, "is_disabled": 0, "lon": -77.04661483333334, "is_reserved": 0}, {"bike_id": "d4ce62f8fa7285f465ea33d9c5d82b40", "fusion_lon": 0.0, "type": "electric_scooter", "name": "d4ce62f8fa7285f465ea33d9c5d82b40", "rental_uris": {"android": "https://dc.lft.to/lastmile_qr_scan", "ios": "https://dc.lft.to/lastmile_qr_scan"}, "fusion_lat": 0.0, "lat": 38.904314166666666, "is_disabled": 0, "lon": -77.0242455, "is_reserved": 0}, {"bike_id": "036b3a5387afad8ca77d826ce8b5c656", "fusion_lon": 0.0, "type": "electric_scooter", "name": "036b3a5387afad8ca77d826ce8b5c656", "rental_uris": {"android": "https://dc.lft.to/lastmile_qr_scan", "ios": "https://dc.lft.to/lastmile_qr_scan"}, "fusion_lat": 0.0, "lat": 38.902609, "is_disabled": 0, "lon": -77.0450215, "is_reserved": 0}, {"bike_id": "b05c764c26974eadd6c13c5e509ea30d", "fusion_lon": 0.0, "type": "electric_scooter", "name": "b05c764c26974eadd6c13c5e509ea30d", "rental_uris": {"android": "https://dc.lft.to/lastmile_qr_scan", "ios": "https://dc.lft.to/lastmile_qr_scan"}, "fusion_lat": 0.0, "lat": 38.92126866666667, "is_disabled": 0, "lon": -77.0102635, "is_reserved": 0}, {"bike_id": "e51d9d6d00b640ee8f3bae6d2535b26c", "fusion_lon": 0.0, "type": "electric_scooter", "name": "e51d9d6d00b640ee8f3bae6d2535b26c", "rental_uris": {"android": "https://dc.lft.to/lastmile_qr_scan", "ios": "https://dc.lft.to/lastmile_qr_scan"}, "fusion_lat": 0.0, "lat": 38.914062, "is_disabled": 0, "lon": -77.03918083333333, "is_reserved": 0}, {"bike_id": "74d65b9a064498e7f52d1294c4aa8bed", "fusion_lon": 0.0, "type": "electric_scooter", "name": "74d65b9a064498e7f52d1294c4aa8bed", "rental_uris": {"android": "https://dc.lft.to/lastmile_qr_scan", "ios": "https://dc.lft.to/lastmile_qr_scan"}, "fusion_lat": 0.0, "lat": 38.91729266666667, "is_disabled": 0, "lon": -77.02280783333333, "is_reserved": 0}, {"bike_id": "5980cf198525a2896239717cfe918b66", "fusion_lon": 0.0, "type": "electric_scooter", "name": "5980cf198525a2896239717cfe918b66", "rental_uris": {"android": "https://dc.lft.to/lastmile_qr_scan", "ios": "https://dc.lft.to/lastmile_qr_scan"}, "fusion_lat": 0.0, "lat": 38.933979666666666, "is_disabled": 0, "lon": -76.98032733333334, "is_reserved": 0}, {"bike_id": "212f22d99034e7f9ca8b1b06ca5d3428", "fusion_lon": 0.0, "type": "electric_scooter", "name": "212f22d99034e7f9ca8b1b06ca5d3428", "rental_uris": {"android": "https://dc.lft.to/lastmile_qr_scan", "ios": "https://dc.lft.to/lastmile_qr_scan"}, "fusion_lat": 0.0, "lat": 38.956331, "is_disabled": 0, "lon": -77.03635933333334, "is_reserved": 0}, {"bike_id": "a8e4f1300b9a61cc6e5aac729198bc92", "fusion_lon": 0.0, "type": "electric_scooter", "name": "a8e4f1300b9a61cc6e5aac729198bc92", "rental_uris": {"android": "https://dc.lft.to/lastmile_qr_scan", "ios": "https://dc.lft.to/lastmile_qr_scan"}, "fusion_lat": 0.0, "lat": 38.95634416666667, "is_disabled": 0, "lon": -77.0329865, "is_reserved": 0}, {"bike_id": "01eb145fd1e004b13d6df077b672e561", "fusion_lon": 0.0, "type": "electric_scooter", "name": "01eb145fd1e004b13d6df077b672e561", "rental_uris": {"android": "https://dc.lft.to/lastmile_qr_scan", "ios": "https://dc.lft.to/lastmile_qr_scan"}, "fusion_lat": 0.0, "lat": 38.91689983333333, "is_disabled": 0, "lon": -77.092214, "is_reserved": 0}, {"bike_id": "fb393b66959686bc5d36c203b02267c9", "fusion_lon": 0.0, "type": "electric_scooter", "name": "fb393b66959686bc5d36c203b02267c9", "rental_uris": {"android": "https://dc.lft.to/lastmile_qr_scan", "ios": "https://dc.lft.to/lastmile_qr_scan"}, "fusion_lat": 0.0, "lat": 38.894786, "is_disabled": 0, "lon": -77.021187, "is_reserved": 0}, {"bike_id": "93c047d74dbda876d9311af8188a9fc2", "fusion_lon": 0.0, "type": "electric_scooter", "name": "93c047d74dbda876d9311af8188a9fc2", "rental_uris": {"android": "https://dc.lft.to/lastmile_qr_scan", "ios": "https://dc.lft.to/lastmile_qr_scan"}, "fusion_lat": 0.0, "lat": 38.9242155, "is_disabled": 0, "lon": -77.05629133333333, "is_reserved": 0}, {"bike_id": "37b05cb10b0fb9322d5f848aa37847d1", "fusion_lon": 0.0, "type": "electric_scooter", "name": "37b05cb10b0fb9322d5f848aa37847d1", "rental_uris": {"android": "https://dc.lft.to/lastmile_qr_scan", "ios": "https://dc.lft.to/lastmile_qr_scan"}, "fusion_lat": 0.0, "lat": 38.918289, "is_disabled": 0, "lon": -76.96554216666667, "is_reserved": 0}, {"bike_id": "aaaf5cfdc8a14027ec9fd3b31afad50d", "fusion_lon": 0.0, "type": "electric_scooter", "name": "aaaf5cfdc8a14027ec9fd3b31afad50d", "rental_uris": {"android": "https://dc.lft.to/lastmile_qr_scan", "ios": "https://dc.lft.to/lastmile_qr_scan"}, "fusion_lat": 0.0, "lat": 38.90307633333333, "is_disabled": 0, "lon": -77.03445616666667, "is_reserved": 0}, {"bike_id": "0eb36474d6543bc4e4f8b334aa5d1227", "fusion_lon": 0.0, "type": "electric_scooter", "name": "0eb36474d6543bc4e4f8b334aa5d1227", "rental_uris": {"android": "https://dc.lft.to/lastmile_qr_scan", "ios": "https://dc.lft.to/lastmile_qr_scan"}, "fusion_lat": 0.0, "lat": 38.90429483333333, "is_disabled": 0, "lon": -77.03965216666667, "is_reserved": 0}, {"bike_id": "f18e810886fc87d419e7998d8194cad3", "fusion_lon": 0.0, "type": "electric_scooter", "name": "f18e810886fc87d419e7998d8194cad3", "rental_uris": {"android": "https://dc.lft.to/lastmile_qr_scan", "ios": "https://dc.lft.to/lastmile_qr_scan"}, "fusion_lat": 0.0, "lat": 38.91351216666666, "is_disabled": 0, "lon": -77.0224315, "is_reserved": 0}, {"bike_id": "f71b7276dedce9f1a64a42d3fdd49de5", "fusion_lon": 0.0, "type": "electric_scooter", "name": "f71b7276dedce9f1a64a42d3fdd49de5", "rental_uris": {"android": "https://dc.lft.to/lastmile_qr_scan", "ios": "https://dc.lft.to/lastmile_qr_scan"}, "fusion_lat": 0.0, "lat": 38.91700483333334, "is_disabled": 0, "lon": -77.04262966666667, "is_reserved": 0}, {"bike_id": "534df7430059bb52bb0c7fb240d93d9e", "fusion_lon": 0.0, "type": "electric_scooter", "name": "534df7430059bb52bb0c7fb240d93d9e", "rental_uris": {"android": "https://dc.lft.to/lastmile_qr_scan", "ios": "https://dc.lft.to/lastmile_qr_scan"}, "fusion_lat": 0.0, "lat": 38.93701816666667, "is_disabled": 0, "lon": -77.03222683333334, "is_reserved": 0}, {"bike_id": "248e8d2f0f0100551d273cae4667467d", "fusion_lon": 0.0, "type": "electric_scooter", "name": "248e8d2f0f0100551d273cae4667467d", "rental_uris": {"android": "https://dc.lft.to/lastmile_qr_scan", "ios": "https://dc.lft.to/lastmile_qr_scan"}, "fusion_lat": 0.0, "lat": 38.901005166666664, "is_disabled": 0, "lon": -77.01695616666667, "is_reserved": 0}, {"bike_id": "e693e95de7d1c63e0dad5a8d63e65bd0", "fusion_lon": 0.0, "type": "electric_scooter", "name": "e693e95de7d1c63e0dad5a8d63e65bd0", "rental_uris": {"android": "https://dc.lft.to/lastmile_qr_scan", "ios": "https://dc.lft.to/lastmile_qr_scan"}, "fusion_lat": 0.0, "lat": 38.89553633333333, "is_disabled": 0, "lon": -77.00903, "is_reserved": 0}, {"bike_id": "cc842d7b55b16acdecf137088300cc6f", "fusion_lon": 0.0, "type": "electric_scooter", "name": "cc842d7b55b16acdecf137088300cc6f", "rental_uris": {"android": "https://dc.lft.to/lastmile_qr_scan", "ios": "https://dc.lft.to/lastmile_qr_scan"}, "fusion_lat": 0.0, "lat": 38.911963666666665, "is_disabled": 0, "lon": -77.02952833333333, "is_reserved": 0}, {"bike_id": "d592c6da68c064f2416d52dbc38d3f2d", "fusion_lon": 0.0, "type": "electric_scooter", "name": "d592c6da68c064f2416d52dbc38d3f2d", "rental_uris": {"android": "https://dc.lft.to/lastmile_qr_scan", "ios": "https://dc.lft.to/lastmile_qr_scan"}, "fusion_lat": 0.0, "lat": 38.92018683333333, "is_disabled": 0, "lon": -76.99575616666667, "is_reserved": 0}, {"bike_id": "f6f0178de61c770f8d434e789883aa6f", "fusion_lon": 0.0, "type": "electric_scooter", "name": "f6f0178de61c770f8d434e789883aa6f", "rental_uris": {"android": "https://dc.lft.to/lastmile_qr_scan", "ios": "https://dc.lft.to/lastmile_qr_scan"}, "fusion_lat": 0.0, "lat": 38.922781666666666, "is_disabled": 0, "lon": -76.9978305, "is_reserved": 0}, {"bike_id": "d205bfed01169775afd435e8413b2963", "fusion_lon": 0.0, "type": "electric_bike", "name": "d205bfed01169775afd435e8413b2963", "rental_uris": {"android": "https://dc.lft.to/lastmile_qr_scan", "ios": "https://dc.lft.to/lastmile_qr_scan"}, "fusion_lat": 0.0, "lat": 38.93563283333334, "is_disabled": 0, "lon": -76.954645, "is_reserved": 0}, {"bike_id": "5af4ae67a9bfd95375fb626bc35c325b", "fusion_lon": 0.0, "type": "electric_scooter", "name": "5af4ae67a9bfd95375fb626bc35c325b", "rental_uris": {"android": "https://dc.lft.to/lastmile_qr_scan", "ios": "https://dc.lft.to/lastmile_qr_scan"}, "fusion_lat": 0.0, "lat": 38.89852233333333, "is_disabled": 0, "lon": -76.9903685, "is_reserved": 0}, {"bike_id": "d14fa81ede3e11cd8f0aba4feb686f52", "fusion_lon": 0.0, "type": "electric_scooter", "name": "d14fa81ede3e11cd8f0aba4feb686f52", "rental_uris": {"android": "https://dc.lft.to/lastmile_qr_scan", "ios": "https://dc.lft.to/lastmile_qr_scan"}, "fusion_lat": 0.0, "lat": 38.9201125, "is_disabled": 0, "lon": -77.03155083333333, "is_reserved": 0}, {"bike_id": "017bd42ce1feb932679cc13b0ee0cc9d", "fusion_lon": 0.0, "type": "electric_bike", "name": "017bd42ce1feb932679cc13b0ee0cc9d", "rental_uris": {"android": "https://dc.lft.to/lastmile_qr_scan", "ios": "https://dc.lft.to/lastmile_qr_scan"}, "fusion_lat": 0.0, "lat": 38.938615, "is_disabled": 0, "lon": -77.04235816666667, "is_reserved": 0}, {"bike_id": "9213cdf5b4b15a5ea98d36a1f5e4fbe6", "fusion_lon": 0.0, "type": "electric_scooter", "name": "9213cdf5b4b15a5ea98d36a1f5e4fbe6", "rental_uris": {"android": "https://dc.lft.to/lastmile_qr_scan", "ios": "https://dc.lft.to/lastmile_qr_scan"}, "fusion_lat": 0.0, "lat": 38.908788666666666, "is_disabled": 0, "lon": -77.01840583333333, "is_reserved": 0}, {"bike_id": "24b83d1ecac28d82142a8d6c014719cb", "fusion_lon": 0.0, "type": "electric_scooter", "name": "24b83d1ecac28d82142a8d6c014719cb", "rental_uris": {"android": "https://dc.lft.to/lastmile_qr_scan", "ios": "https://dc.lft.to/lastmile_qr_scan"}, "fusion_lat": 0.0, "lat": 38.953274, "is_disabled": 0, "lon": -77.016549, "is_reserved": 0}, {"bike_id": "acc8f09f1f8213d5ed98a21898ca477d", "fusion_lon": 0.0, "type": "electric_scooter", "name": "acc8f09f1f8213d5ed98a21898ca477d", "rental_uris": {"android": "https://dc.lft.to/lastmile_qr_scan", "ios": "https://dc.lft.to/lastmile_qr_scan"}, "fusion_lat": 0.0, "lat": 38.914116666666665, "is_disabled": 0, "lon": -77.03006983333333, "is_reserved": 0}, {"bike_id": "143c9cb5db143444e3e57f00d232a439", "fusion_lon": 0.0, "type": "electric_scooter", "name": "143c9cb5db143444e3e57f00d232a439", "rental_uris": {"android": "https://dc.lft.to/lastmile_qr_scan", "ios": "https://dc.lft.to/lastmile_qr_scan"}, "fusion_lat": 0.0, "lat": 38.885041666666666, "is_disabled": 0, "lon": -77.00565316666666, "is_reserved": 0}, {"bike_id": "ca5e716aa021a131e3cfcc62341e5e8f", "fusion_lon": 0.0, "type": "electric_scooter", "name": "ca5e716aa021a131e3cfcc62341e5e8f", "rental_uris": {"android": "https://dc.lft.to/lastmile_qr_scan", "ios": "https://dc.lft.to/lastmile_qr_scan"}, "fusion_lat": 0.0, "lat": 38.90402816666667, "is_disabled": 0, "lon": -77.062721, "is_reserved": 0}, {"bike_id": "e7af80541af5511f5c0f827ae34d23b9", "fusion_lon": 0.0, "type": "electric_scooter", "name": "e7af80541af5511f5c0f827ae34d23b9", "rental_uris": {"android": "https://dc.lft.to/lastmile_qr_scan", "ios": "https://dc.lft.to/lastmile_qr_scan"}, "fusion_lat": 0.0, "lat": 38.911933, "is_disabled": 0, "lon": -77.03359333333333, "is_reserved": 0}, {"bike_id": "fda76d7f1d6d9e5ecb1469b7057668e8", "fusion_lon": 0.0, "type": "electric_scooter", "name": "fda76d7f1d6d9e5ecb1469b7057668e8", "rental_uris": {"android": "https://dc.lft.to/lastmile_qr_scan", "ios": "https://dc.lft.to/lastmile_qr_scan"}, "fusion_lat": 0.0, "lat": 38.89635333333333, "is_disabled": 0, "lon": -77.02205666666667, "is_reserved": 0}, {"bike_id": "980701d972f4a0c9cf5a26db4d64002b", "fusion_lon": 0.0, "type": "electric_scooter", "name": "980701d972f4a0c9cf5a26db4d64002b", "rental_uris": {"android": "https://dc.lft.to/lastmile_qr_scan", "ios": "https://dc.lft.to/lastmile_qr_scan"}, "fusion_lat": 0.0, "lat": 38.900408666666664, "is_disabled": 0, "lon": -77.0333425, "is_reserved": 0}, {"bike_id": "6cb35004cf67a73ae7d94aa0868ef14b", "fusion_lon": 0.0, "type": "electric_scooter", "name": "6cb35004cf67a73ae7d94aa0868ef14b", "rental_uris": {"android": "https://dc.lft.to/lastmile_qr_scan", "ios": "https://dc.lft.to/lastmile_qr_scan"}, "fusion_lat": 0.0, "lat": 38.887365, "is_disabled": 0, "lon": -77.01534333333333, "is_reserved": 0}, {"bike_id": "8fb2d881e1119056599346b422a1f6de", "fusion_lon": 0.0, "type": "electric_scooter", "name": "8fb2d881e1119056599346b422a1f6de", "rental_uris": {"android": "https://dc.lft.to/lastmile_qr_scan", "ios": "https://dc.lft.to/lastmile_qr_scan"}, "fusion_lat": 0.0, "lat": 38.917343333333335, "is_disabled": 0, "lon": -77.02289016666667, "is_reserved": 0}, {"bike_id": "27232c3362621ae0176b48c8657592a0", "fusion_lon": 0.0, "type": "electric_scooter", "name": "27232c3362621ae0176b48c8657592a0", "rental_uris": {"android": "https://dc.lft.to/lastmile_qr_scan", "ios": "https://dc.lft.to/lastmile_qr_scan"}, "fusion_lat": 0.0, "lat": 38.90226583333333, "is_disabled": 0, "lon": -77.01922683333333, "is_reserved": 0}, {"bike_id": "e4ebf13c779acfab8d9f3abf5d9919ca", "fusion_lon": 0.0, "type": "electric_scooter", "name": "e4ebf13c779acfab8d9f3abf5d9919ca", "rental_uris": {"android": "https://dc.lft.to/lastmile_qr_scan", "ios": "https://dc.lft.to/lastmile_qr_scan"}, "fusion_lat": 0.0, "lat": 38.9278655, "is_disabled": 0, "lon": -77.03085716666666, "is_reserved": 0}, {"bike_id": "a1ffab3129787797ab4f9c18c0f9b56d", "fusion_lon": 0.0, "type": "electric_bike", "name": "a1ffab3129787797ab4f9c18c0f9b56d", "rental_uris": {"android": "https://dc.lft.to/lastmile_qr_scan", "ios": "https://dc.lft.to/lastmile_qr_scan"}, "fusion_lat": 0.0, "lat": 38.9740375, "is_disabled": 0, "lon": -77.024999, "is_reserved": 0}, {"bike_id": "1546940d356d0da128b4014dc582c44b", "fusion_lon": 0.0, "type": "electric_scooter", "name": "1546940d356d0da128b4014dc582c44b", "rental_uris": {"android": "https://dc.lft.to/lastmile_qr_scan", "ios": "https://dc.lft.to/lastmile_qr_scan"}, "fusion_lat": 0.0, "lat": 38.916815666666665, "is_disabled": 0, "lon": -76.98052383333334, "is_reserved": 0}, {"bike_id": "5eaf6ee2298354215f14f3f6a4fc3b48", "fusion_lon": 0.0, "type": "electric_scooter", "name": "5eaf6ee2298354215f14f3f6a4fc3b48", "rental_uris": {"android": "https://dc.lft.to/lastmile_qr_scan", "ios": "https://dc.lft.to/lastmile_qr_scan"}, "fusion_lat": 0.0, "lat": 38.84292033333333, "is_disabled": 0, "lon": -76.99951083333333, "is_reserved": 0}, {"bike_id": "8284c514021961bea4ff1a0494eee06f", "fusion_lon": 0.0, "type": "electric_scooter", "name": "8284c514021961bea4ff1a0494eee06f", "rental_uris": {"android": "https://dc.lft.to/lastmile_qr_scan", "ios": "https://dc.lft.to/lastmile_qr_scan"}, "fusion_lat": 0.0, "lat": 38.89598383333333, "is_disabled": 0, "lon": -77.054466, "is_reserved": 0}, {"bike_id": "722bd5b42d0793ef20d601d0edcb8bad", "fusion_lon": 0.0, "type": "electric_scooter", "name": "722bd5b42d0793ef20d601d0edcb8bad", "rental_uris": {"android": "https://dc.lft.to/lastmile_qr_scan", "ios": "https://dc.lft.to/lastmile_qr_scan"}, "fusion_lat": 0.0, "lat": 38.92787883333333, "is_disabled": 0, "lon": -77.03146833333334, "is_reserved": 0}, {"bike_id": "1c714de1d1beb02fce287062f33e96fb", "fusion_lon": 0.0, "type": "electric_scooter", "name": "1c714de1d1beb02fce287062f33e96fb", "rental_uris": {"android": "https://dc.lft.to/lastmile_qr_scan", "ios": "https://dc.lft.to/lastmile_qr_scan"}, "fusion_lat": 0.0, "lat": 38.90012866666667, "is_disabled": 0, "lon": -76.98849166666666, "is_reserved": 0}, {"bike_id": "80a2f5140720ca14b57c5e3cb5fbc522", "fusion_lon": 0.0, "type": "electric_scooter", "name": "80a2f5140720ca14b57c5e3cb5fbc522", "rental_uris": {"android": "https://dc.lft.to/lastmile_qr_scan", "ios": "https://dc.lft.to/lastmile_qr_scan"}, "fusion_lat": 0.0, "lat": 38.919455166666665, "is_disabled": 0, "lon": -77.01354166666667, "is_reserved": 0}, {"bike_id": "8bbb9a522bc6a3c1e24b6be119e24a4b", "fusion_lon": 0.0, "type": "electric_scooter", "name": "8bbb9a522bc6a3c1e24b6be119e24a4b", "rental_uris": {"android": "https://dc.lft.to/lastmile_qr_scan", "ios": "https://dc.lft.to/lastmile_qr_scan"}, "fusion_lat": 0.0, "lat": 38.906184, "is_disabled": 0, "lon": -77.00574933333333, "is_reserved": 0}, {"bike_id": "0d106d8a0a5fffcf03444fae7d21e700", "fusion_lon": 0.0, "type": "electric_bike", "name": "0d106d8a0a5fffcf03444fae7d21e700", "rental_uris": {"android": "https://dc.lft.to/lastmile_qr_scan", "ios": "https://dc.lft.to/lastmile_qr_scan"}, "fusion_lat": 0.0, "lat": 38.9065815, "is_disabled": 0, "lon": -77.01632166666667, "is_reserved": 0}, {"bike_id": "9aa7e0c126d421c77805786aad31932b", "fusion_lon": 0.0, "type": "electric_scooter", "name": "9aa7e0c126d421c77805786aad31932b", "rental_uris": {"android": "https://dc.lft.to/lastmile_qr_scan", "ios": "https://dc.lft.to/lastmile_qr_scan"}, "fusion_lat": 0.0, "lat": 38.908681333333334, "is_disabled": 0, "lon": -77.0124835, "is_reserved": 0}, {"bike_id": "84709dd22f72a4312dd08ac041019422", "fusion_lon": 0.0, "type": "electric_scooter", "name": "84709dd22f72a4312dd08ac041019422", "rental_uris": {"android": "https://dc.lft.to/lastmile_qr_scan", "ios": "https://dc.lft.to/lastmile_qr_scan"}, "fusion_lat": 0.0, "lat": 38.93332866666667, "is_disabled": 0, "lon": -77.03270833333333, "is_reserved": 0}, {"bike_id": "fe2449095c492058d1ed8c3df7a30e05", "fusion_lon": 0.0, "type": "electric_scooter", "name": "fe2449095c492058d1ed8c3df7a30e05", "rental_uris": {"android": "https://dc.lft.to/lastmile_qr_scan", "ios": "https://dc.lft.to/lastmile_qr_scan"}, "fusion_lat": 0.0, "lat": 38.9264795, "is_disabled": 0, "lon": -77.037008, "is_reserved": 0}, {"bike_id": "5c4e6d0f07deb8fb332f2fb3832ed22e", "fusion_lon": 0.0, "type": "electric_scooter", "name": "5c4e6d0f07deb8fb332f2fb3832ed22e", "rental_uris": {"android": "https://dc.lft.to/lastmile_qr_scan", "ios": "https://dc.lft.to/lastmile_qr_scan"}, "fusion_lat": 0.0, "lat": 38.87481233333333, "is_disabled": 0, "lon": -76.96521983333334, "is_reserved": 0}, {"bike_id": "b2ed90877cd2970f77f31d201b6d9bac", "fusion_lon": 0.0, "type": "electric_scooter", "name": "b2ed90877cd2970f77f31d201b6d9bac", "rental_uris": {"android": "https://dc.lft.to/lastmile_qr_scan", "ios": "https://dc.lft.to/lastmile_qr_scan"}, "fusion_lat": 0.0, "lat": 38.9228335, "is_disabled": 0, "lon": -76.99420166666667, "is_reserved": 0}, {"bike_id": "d4f146e0869739041010b4fe3d930f49", "fusion_lon": 0.0, "type": "electric_scooter", "name": "d4f146e0869739041010b4fe3d930f49", "rental_uris": {"android": "https://dc.lft.to/lastmile_qr_scan", "ios": "https://dc.lft.to/lastmile_qr_scan"}, "fusion_lat": 0.0, "lat": 38.949996666666664, "is_disabled": 0, "lon": -77.0271035, "is_reserved": 0}, {"bike_id": "2b766dfa412a302f96ed68c27910d9b3", "fusion_lon": 0.0, "type": "electric_scooter", "name": "2b766dfa412a302f96ed68c27910d9b3", "rental_uris": {"android": "https://dc.lft.to/lastmile_qr_scan", "ios": "https://dc.lft.to/lastmile_qr_scan"}, "fusion_lat": 0.0, "lat": 38.92453233333333, "is_disabled": 0, "lon": -77.0523135, "is_reserved": 0}, {"bike_id": "776778c1936d2caa0bf2503c32b7446c", "fusion_lon": 0.0, "type": "electric_scooter", "name": "776778c1936d2caa0bf2503c32b7446c", "rental_uris": {"android": "https://dc.lft.to/lastmile_qr_scan", "ios": "https://dc.lft.to/lastmile_qr_scan"}, "fusion_lat": 0.0, "lat": 38.91260366666667, "is_disabled": 0, "lon": -77.02223716666667, "is_reserved": 0}, {"bike_id": "15502a62e2fb32f44302fc89920dc1e1", "fusion_lon": 0.0, "type": "electric_scooter", "name": "15502a62e2fb32f44302fc89920dc1e1", "rental_uris": {"android": "https://dc.lft.to/lastmile_qr_scan", "ios": "https://dc.lft.to/lastmile_qr_scan"}, "fusion_lat": 0.0, "lat": 38.917095833333335, "is_disabled": 0, "lon": -77.03869383333334, "is_reserved": 0}, {"bike_id": "41b6a85d6e42a10134c87c7cbb65dd3d", "fusion_lon": 0.0, "type": "electric_scooter", "name": "41b6a85d6e42a10134c87c7cbb65dd3d", "rental_uris": {"android": "https://dc.lft.to/lastmile_qr_scan", "ios": "https://dc.lft.to/lastmile_qr_scan"}, "fusion_lat": 0.0, "lat": 38.94156616666667, "is_disabled": 0, "lon": -77.025598, "is_reserved": 0}, {"bike_id": "3f2ba8e7769120c36ccfa8da5d40a33b", "fusion_lon": 0.0, "type": "electric_bike", "name": "3f2ba8e7769120c36ccfa8da5d40a33b", "rental_uris": {"android": "https://dc.lft.to/lastmile_qr_scan", "ios": "https://dc.lft.to/lastmile_qr_scan"}, "fusion_lat": 0.0, "lat": 38.917387166666664, "is_disabled": 0, "lon": -77.001636, "is_reserved": 0}, {"bike_id": "8c77a9eececacc6e51b9dd8c24722859", "fusion_lon": 0.0, "type": "electric_scooter", "name": "8c77a9eececacc6e51b9dd8c24722859", "rental_uris": {"android": "https://dc.lft.to/lastmile_qr_scan", "ios": "https://dc.lft.to/lastmile_qr_scan"}, "fusion_lat": 0.0, "lat": 38.898835, "is_disabled": 0, "lon": -76.9317595, "is_reserved": 0}, {"bike_id": "2f44d349e154aec59eb834589897c08c", "fusion_lon": 0.0, "type": "electric_scooter", "name": "2f44d349e154aec59eb834589897c08c", "rental_uris": {"android": "https://dc.lft.to/lastmile_qr_scan", "ios": "https://dc.lft.to/lastmile_qr_scan"}, "fusion_lat": 0.0, "lat": 38.916865333333334, "is_disabled": 0, "lon": -77.03775716666667, "is_reserved": 0}, {"bike_id": "f287e8bcd134bf9ec37410d8dcc60200", "fusion_lon": 0.0, "type": "electric_scooter", "name": "f287e8bcd134bf9ec37410d8dcc60200", "rental_uris": {"android": "https://dc.lft.to/lastmile_qr_scan", "ios": "https://dc.lft.to/lastmile_qr_scan"}, "fusion_lat": 0.0, "lat": 38.886245833333334, "is_disabled": 0, "lon": -77.03179083333333, "is_reserved": 0}, {"bike_id": "0fcee0ac2f1e619557b2a4f8eaa20936", "fusion_lon": 0.0, "type": "electric_scooter", "name": "0fcee0ac2f1e619557b2a4f8eaa20936", "rental_uris": {"android": "https://dc.lft.to/lastmile_qr_scan", "ios": "https://dc.lft.to/lastmile_qr_scan"}, "fusion_lat": 0.0, "lat": 38.90282533333333, "is_disabled": 0, "lon": -77.02205216666667, "is_reserved": 0}, {"bike_id": "6fbffdfaede4f8e114ccf981edc84cba", "fusion_lon": 0.0, "type": "electric_scooter", "name": "6fbffdfaede4f8e114ccf981edc84cba", "rental_uris": {"android": "https://dc.lft.to/lastmile_qr_scan", "ios": "https://dc.lft.to/lastmile_qr_scan"}, "fusion_lat": 0.0, "lat": 38.904235666666665, "is_disabled": 0, "lon": -77.032634, "is_reserved": 0}, {"bike_id": "59accc4275fec33e6a4ef2106f3b2dc7", "fusion_lon": 0.0, "type": "electric_scooter", "name": "59accc4275fec33e6a4ef2106f3b2dc7", "rental_uris": {"android": "https://dc.lft.to/lastmile_qr_scan", "ios": "https://dc.lft.to/lastmile_qr_scan"}, "fusion_lat": 0.0, "lat": 38.8932235, "is_disabled": 0, "lon": -77.04662466666667, "is_reserved": 0}, {"bike_id": "f953bd228925a3b77647743e05c2f751", "fusion_lon": 0.0, "type": "electric_scooter", "name": "f953bd228925a3b77647743e05c2f751", "rental_uris": {"android": "https://dc.lft.to/lastmile_qr_scan", "ios": "https://dc.lft.to/lastmile_qr_scan"}, "fusion_lat": 0.0, "lat": 38.92825466666667, "is_disabled": 0, "lon": -77.0216165, "is_reserved": 0}, {"bike_id": "383bd37b55c4e76b94f46fa1c81238c4", "fusion_lon": 0.0, "type": "electric_scooter", "name": "383bd37b55c4e76b94f46fa1c81238c4", "rental_uris": {"android": "https://dc.lft.to/lastmile_qr_scan", "ios": "https://dc.lft.to/lastmile_qr_scan"}, "fusion_lat": 0.0, "lat": 38.85970616666667, "is_disabled": 0, "lon": -76.98417533333334, "is_reserved": 0}, {"bike_id": "904bbe3f8ba876b8df7624fb9fa5cb70", "fusion_lon": 0.0, "type": "electric_bike", "name": "904bbe3f8ba876b8df7624fb9fa5cb70", "rental_uris": {"android": "https://dc.lft.to/lastmile_qr_scan", "ios": "https://dc.lft.to/lastmile_qr_scan"}, "fusion_lat": 0.0, "lat": 38.92845466666667, "is_disabled": 0, "lon": -77.10508816666666, "is_reserved": 0}, {"bike_id": "848fcf01ec084f4b9700e54ea3bd58c4", "fusion_lon": 0.0, "type": "electric_scooter", "name": "848fcf01ec084f4b9700e54ea3bd58c4", "rental_uris": {"android": "https://dc.lft.to/lastmile_qr_scan", "ios": "https://dc.lft.to/lastmile_qr_scan"}, "fusion_lat": 0.0, "lat": 38.90788, "is_disabled": 0, "lon": -77.04525816666667, "is_reserved": 0}, {"bike_id": "d0db1cc48b446899acbd99458e4a1209", "fusion_lon": 0.0, "type": "electric_scooter", "name": "d0db1cc48b446899acbd99458e4a1209", "rental_uris": {"android": "https://dc.lft.to/lastmile_qr_scan", "ios": "https://dc.lft.to/lastmile_qr_scan"}, "fusion_lat": 0.0, "lat": 38.942927166666664, "is_disabled": 0, "lon": -77.02760316666667, "is_reserved": 0}, {"bike_id": "71034a31052e74870cb615723c75479a", "fusion_lon": 0.0, "type": "electric_scooter", "name": "71034a31052e74870cb615723c75479a", "rental_uris": {"android": "https://dc.lft.to/lastmile_qr_scan", "ios": "https://dc.lft.to/lastmile_qr_scan"}, "fusion_lat": 0.0, "lat": 38.899287666666666, "is_disabled": 0, "lon": -77.05517283333333, "is_reserved": 0}, {"bike_id": "cf4b858343e3b74293ea3481f5d9d100", "fusion_lon": 0.0, "type": "electric_bike", "name": "cf4b858343e3b74293ea3481f5d9d100", "rental_uris": {"android": "https://dc.lft.to/lastmile_qr_scan", "ios": "https://dc.lft.to/lastmile_qr_scan"}, "fusion_lat": 0.0, "lat": 38.91960983333333, "is_disabled": 0, "lon": -76.9995025, "is_reserved": 0}, {"bike_id": "60f4b03d423928804681b07e9d5c79c4", "fusion_lon": 0.0, "type": "electric_scooter", "name": "60f4b03d423928804681b07e9d5c79c4", "rental_uris": {"android": "https://dc.lft.to/lastmile_qr_scan", "ios": "https://dc.lft.to/lastmile_qr_scan"}, "fusion_lat": 0.0, "lat": 38.91781616666667, "is_disabled": 0, "lon": -77.04251333333333, "is_reserved": 0}, {"bike_id": "468413861383046da19342164e42dc3e", "fusion_lon": 0.0, "type": "electric_bike", "name": "468413861383046da19342164e42dc3e", "rental_uris": {"android": "https://dc.lft.to/lastmile_qr_scan", "ios": "https://dc.lft.to/lastmile_qr_scan"}, "fusion_lat": 0.0, "lat": 38.84896833333333, "is_disabled": 0, "lon": -77.10120233333333, "is_reserved": 0}, {"bike_id": "9d2fc345fe891a10fea00a80c97de96f", "fusion_lon": 0.0, "type": "electric_scooter", "name": "9d2fc345fe891a10fea00a80c97de96f", "rental_uris": {"android": "https://dc.lft.to/lastmile_qr_scan", "ios": "https://dc.lft.to/lastmile_qr_scan"}, "fusion_lat": 0.0, "lat": 38.888615, "is_disabled": 0, "lon": -76.99602883333333, "is_reserved": 0}, {"bike_id": "5b0516cb2b55c74285cfcbc0fe8c29f5", "fusion_lon": 0.0, "type": "electric_scooter", "name": "5b0516cb2b55c74285cfcbc0fe8c29f5", "rental_uris": {"android": "https://dc.lft.to/lastmile_qr_scan", "ios": "https://dc.lft.to/lastmile_qr_scan"}, "fusion_lat": 0.0, "lat": 38.90389583333334, "is_disabled": 0, "lon": -76.97908766666667, "is_reserved": 0}, {"bike_id": "02a59eeafe1bb6b225c8280308ceaf12", "fusion_lon": 0.0, "type": "electric_scooter", "name": "02a59eeafe1bb6b225c8280308ceaf12", "rental_uris": {"android": "https://dc.lft.to/lastmile_qr_scan", "ios": "https://dc.lft.to/lastmile_qr_scan"}, "fusion_lat": 0.0, "lat": 38.90032083333333, "is_disabled": 0, "lon": -77.03370816666667, "is_reserved": 0}, {"bike_id": "c1cff1a602febd6d1e820f822b0daedf", "fusion_lon": 0.0, "type": "electric_scooter", "name": "c1cff1a602febd6d1e820f822b0daedf", "rental_uris": {"android": "https://dc.lft.to/lastmile_qr_scan", "ios": "https://dc.lft.to/lastmile_qr_scan"}, "fusion_lat": 0.0, "lat": 38.879379166666666, "is_disabled": 0, "lon": -77.01718983333333, "is_reserved": 0}, {"bike_id": "0d5fb464ed3a1f18d11bb52315de8ef8", "fusion_lon": 0.0, "type": "electric_scooter", "name": "0d5fb464ed3a1f18d11bb52315de8ef8", "rental_uris": {"android": "https://dc.lft.to/lastmile_qr_scan", "ios": "https://dc.lft.to/lastmile_qr_scan"}, "fusion_lat": 0.0, "lat": 38.879255666666666, "is_disabled": 0, "lon": -77.00539833333333, "is_reserved": 0}, {"bike_id": "5e0d32c8162a7790f8f8f1bed2b78a2e", "fusion_lon": 0.0, "type": "electric_scooter", "name": "5e0d32c8162a7790f8f8f1bed2b78a2e", "rental_uris": {"android": "https://dc.lft.to/lastmile_qr_scan", "ios": "https://dc.lft.to/lastmile_qr_scan"}, "fusion_lat": 0.0, "lat": 38.911914333333335, "is_disabled": 0, "lon": -77.03859533333333, "is_reserved": 0}, {"bike_id": "a31fd4908f0d1edaa8af6a1dec6c589d", "fusion_lon": 0.0, "type": "electric_bike", "name": "a31fd4908f0d1edaa8af6a1dec6c589d", "rental_uris": {"android": "https://dc.lft.to/lastmile_qr_scan", "ios": "https://dc.lft.to/lastmile_qr_scan"}, "fusion_lat": 0.0, "lat": 38.906435333333334, "is_disabled": 0, "lon": -77.01141233333334, "is_reserved": 0}, {"bike_id": "4b77d404833bb463a662df2b04029513", "fusion_lon": 0.0, "type": "electric_scooter", "name": "4b77d404833bb463a662df2b04029513", "rental_uris": {"android": "https://dc.lft.to/lastmile_qr_scan", "ios": "https://dc.lft.to/lastmile_qr_scan"}, "fusion_lat": 0.0, "lat": 38.88444783333333, "is_disabled": 0, "lon": -77.01046383333333, "is_reserved": 0}, {"bike_id": "f4f49fde756e05c7800a0ec5769633b1", "fusion_lon": 0.0, "type": "electric_scooter", "name": "f4f49fde756e05c7800a0ec5769633b1", "rental_uris": {"android": "https://dc.lft.to/lastmile_qr_scan", "ios": "https://dc.lft.to/lastmile_qr_scan"}, "fusion_lat": 0.0, "lat": 38.88591783333333, "is_disabled": 0, "lon": -76.952556, "is_reserved": 0}, {"bike_id": "9a01b74947c2e9a296ca03cdd0c1665e", "fusion_lon": 0.0, "type": "electric_scooter", "name": "9a01b74947c2e9a296ca03cdd0c1665e", "rental_uris": {"android": "https://dc.lft.to/lastmile_qr_scan", "ios": "https://dc.lft.to/lastmile_qr_scan"}, "fusion_lat": 0.0, "lat": 38.92328416666667, "is_disabled": 0, "lon": -77.03614833333333, "is_reserved": 0}, {"bike_id": "7d152a30f50b6b56cd15e4f2582d98f8", "fusion_lon": 0.0, "type": "electric_scooter", "name": "7d152a30f50b6b56cd15e4f2582d98f8", "rental_uris": {"android": "https://dc.lft.to/lastmile_qr_scan", "ios": "https://dc.lft.to/lastmile_qr_scan"}, "fusion_lat": 0.0, "lat": 38.91138, "is_disabled": 0, "lon": -76.9901465, "is_reserved": 0}, {"bike_id": "d07a6cd6cd282c3d299b1879376ab4d4", "fusion_lon": 0.0, "type": "electric_scooter", "name": "d07a6cd6cd282c3d299b1879376ab4d4", "rental_uris": {"android": "https://dc.lft.to/lastmile_qr_scan", "ios": "https://dc.lft.to/lastmile_qr_scan"}, "fusion_lat": 0.0, "lat": 38.92884183333334, "is_disabled": 0, "lon": -77.02706216666667, "is_reserved": 0}, {"bike_id": "b3c5c3f3a7b984aac7483bdc3f9078e4", "fusion_lon": 0.0, "type": "electric_scooter", "name": "b3c5c3f3a7b984aac7483bdc3f9078e4", "rental_uris": {"android": "https://dc.lft.to/lastmile_qr_scan", "ios": "https://dc.lft.to/lastmile_qr_scan"}, "fusion_lat": 0.0, "lat": 38.910449166666666, "is_disabled": 0, "lon": -77.06458433333333, "is_reserved": 0}, {"bike_id": "0100aa9b57b3ad36cd8a50b3a5bb8dca", "fusion_lon": 0.0, "type": "electric_scooter", "name": "0100aa9b57b3ad36cd8a50b3a5bb8dca", "rental_uris": {"android": "https://dc.lft.to/lastmile_qr_scan", "ios": "https://dc.lft.to/lastmile_qr_scan"}, "fusion_lat": 0.0, "lat": 38.907237, "is_disabled": 0, "lon": -77.02469216666667, "is_reserved": 0}, {"bike_id": "bf69d2eddff1248314f06bf0766a161c", "fusion_lon": 0.0, "type": "electric_scooter", "name": "bf69d2eddff1248314f06bf0766a161c", "rental_uris": {"android": "https://dc.lft.to/lastmile_qr_scan", "ios": "https://dc.lft.to/lastmile_qr_scan"}, "fusion_lat": 0.0, "lat": 38.89384283333333, "is_disabled": 0, "lon": -77.02329366666666, "is_reserved": 0}, {"bike_id": "1d55aebd9d3a724acb69e5d5cbdfdfff", "fusion_lon": 0.0, "type": "electric_bike", "name": "1d55aebd9d3a724acb69e5d5cbdfdfff", "rental_uris": {"android": "https://dc.lft.to/lastmile_qr_scan", "ios": "https://dc.lft.to/lastmile_qr_scan"}, "fusion_lat": 0.0, "lat": 38.850601, "is_disabled": 0, "lon": -76.97333833333333, "is_reserved": 0}, {"bike_id": "1ea163962a64e4d5a512f0c6849bb961", "fusion_lon": 0.0, "type": "electric_scooter", "name": "1ea163962a64e4d5a512f0c6849bb961", "rental_uris": {"android": "https://dc.lft.to/lastmile_qr_scan", "ios": "https://dc.lft.to/lastmile_qr_scan"}, "fusion_lat": 0.0, "lat": 38.906740666666664, "is_disabled": 0, "lon": -77.0245495, "is_reserved": 0}, {"bike_id": "989285f19235c3d997da1f5854da681c", "fusion_lon": 0.0, "type": "electric_scooter", "name": "989285f19235c3d997da1f5854da681c", "rental_uris": {"android": "https://dc.lft.to/lastmile_qr_scan", "ios": "https://dc.lft.to/lastmile_qr_scan"}, "fusion_lat": 0.0, "lat": 38.928865, "is_disabled": 0, "lon": -77.0270515, "is_reserved": 0}, {"bike_id": "7bec89ecd986403d2423046eca58027d", "fusion_lon": 0.0, "type": "electric_scooter", "name": "7bec89ecd986403d2423046eca58027d", "rental_uris": {"android": "https://dc.lft.to/lastmile_qr_scan", "ios": "https://dc.lft.to/lastmile_qr_scan"}, "fusion_lat": 0.0, "lat": 38.918245, "is_disabled": 0, "lon": -77.03209116666666, "is_reserved": 0}, {"bike_id": "0c30c9c54034efb51cc27a3f0cad216d", "fusion_lon": 0.0, "type": "electric_scooter", "name": "0c30c9c54034efb51cc27a3f0cad216d", "rental_uris": {"android": "https://dc.lft.to/lastmile_qr_scan", "ios": "https://dc.lft.to/lastmile_qr_scan"}, "fusion_lat": 0.0, "lat": 38.93405116666667, "is_disabled": 0, "lon": -77.0246885, "is_reserved": 0}, {"bike_id": "c0df6b5fd7d2085bf0a96488927679be", "fusion_lon": 0.0, "type": "electric_scooter", "name": "c0df6b5fd7d2085bf0a96488927679be", "rental_uris": {"android": "https://dc.lft.to/lastmile_qr_scan", "ios": "https://dc.lft.to/lastmile_qr_scan"}, "fusion_lat": 0.0, "lat": 38.9188965, "is_disabled": 0, "lon": -77.03770133333333, "is_reserved": 0}, {"bike_id": "298c9b340446c8b1aed8eb32790a839e", "fusion_lon": 0.0, "type": "electric_scooter", "name": "298c9b340446c8b1aed8eb32790a839e", "rental_uris": {"android": "https://dc.lft.to/lastmile_qr_scan", "ios": "https://dc.lft.to/lastmile_qr_scan"}, "fusion_lat": 0.0, "lat": 38.90590233333333, "is_disabled": 0, "lon": -77.07017316666666, "is_reserved": 0}, {"bike_id": "63eab5fbd8db9df85a05ec391a9dc2e3", "fusion_lon": 0.0, "type": "electric_scooter", "name": "63eab5fbd8db9df85a05ec391a9dc2e3", "rental_uris": {"android": "https://dc.lft.to/lastmile_qr_scan", "ios": "https://dc.lft.to/lastmile_qr_scan"}, "fusion_lat": 0.0, "lat": 38.9037015, "is_disabled": 0, "lon": -77.033393, "is_reserved": 0}, {"bike_id": "2092832aaf269ffeee2f966974ac12ce", "fusion_lon": 0.0, "type": "electric_scooter", "name": "2092832aaf269ffeee2f966974ac12ce", "rental_uris": {"android": "https://dc.lft.to/lastmile_qr_scan", "ios": "https://dc.lft.to/lastmile_qr_scan"}, "fusion_lat": 0.0, "lat": 38.9102085, "is_disabled": 0, "lon": -77.02210983333333, "is_reserved": 0}, {"bike_id": "f51f5c61cea92a16620777e2207f874c", "fusion_lon": 0.0, "type": "electric_scooter", "name": "f51f5c61cea92a16620777e2207f874c", "rental_uris": {"android": "https://dc.lft.to/lastmile_qr_scan", "ios": "https://dc.lft.to/lastmile_qr_scan"}, "fusion_lat": 0.0, "lat": 38.9094615, "is_disabled": 0, "lon": -77.03200316666667, "is_reserved": 0}, {"bike_id": "a46f2d462e8bb9b1d22855039bf222ba", "fusion_lon": 0.0, "type": "electric_scooter", "name": "a46f2d462e8bb9b1d22855039bf222ba", "rental_uris": {"android": "https://dc.lft.to/lastmile_qr_scan", "ios": "https://dc.lft.to/lastmile_qr_scan"}, "fusion_lat": 0.0, "lat": 38.91706583333333, "is_disabled": 0, "lon": -77.038666, "is_reserved": 0}, {"bike_id": "2fb41cba46aa59768a951f19dc1117a1", "fusion_lon": 0.0, "type": "electric_scooter", "name": "2fb41cba46aa59768a951f19dc1117a1", "rental_uris": {"android": "https://dc.lft.to/lastmile_qr_scan", "ios": "https://dc.lft.to/lastmile_qr_scan"}, "fusion_lat": 0.0, "lat": 38.91014883333333, "is_disabled": 0, "lon": -77.05269883333334, "is_reserved": 0}, {"bike_id": "6f417c407339f106c4c8f2fcf6962474", "fusion_lon": 0.0, "type": "electric_scooter", "name": "6f417c407339f106c4c8f2fcf6962474", "rental_uris": {"android": "https://dc.lft.to/lastmile_qr_scan", "ios": "https://dc.lft.to/lastmile_qr_scan"}, "fusion_lat": 0.0, "lat": 38.897342333333334, "is_disabled": 0, "lon": -77.05567616666667, "is_reserved": 0}, {"bike_id": "051a68207ef50360e46c2b170cb75a15", "fusion_lon": 0.0, "type": "electric_scooter", "name": "051a68207ef50360e46c2b170cb75a15", "rental_uris": {"android": "https://dc.lft.to/lastmile_qr_scan", "ios": "https://dc.lft.to/lastmile_qr_scan"}, "fusion_lat": 0.0, "lat": 38.91139483333333, "is_disabled": 0, "lon": -77.02808216666666, "is_reserved": 0}, {"bike_id": "a76a0370c219084afc945452185c7116", "fusion_lon": 0.0, "type": "electric_scooter", "name": "a76a0370c219084afc945452185c7116", "rental_uris": {"android": "https://dc.lft.to/lastmile_qr_scan", "ios": "https://dc.lft.to/lastmile_qr_scan"}, "fusion_lat": 0.0, "lat": 38.90849166666667, "is_disabled": 0, "lon": -77.01259616666667, "is_reserved": 0}, {"bike_id": "4fcbf78fd30a7ffd87c923f915980d3c", "fusion_lon": 0.0, "type": "electric_scooter", "name": "4fcbf78fd30a7ffd87c923f915980d3c", "rental_uris": {"android": "https://dc.lft.to/lastmile_qr_scan", "ios": "https://dc.lft.to/lastmile_qr_scan"}, "fusion_lat": 0.0, "lat": 38.887346, "is_disabled": 0, "lon": -77.01539833333334, "is_reserved": 0}, {"bike_id": "43dcfcae66d12c996e19ec7aa84ada7f", "fusion_lon": 0.0, "type": "electric_scooter", "name": "43dcfcae66d12c996e19ec7aa84ada7f", "rental_uris": {"android": "https://dc.lft.to/lastmile_qr_scan", "ios": "https://dc.lft.to/lastmile_qr_scan"}, "fusion_lat": 0.0, "lat": 38.88461566666667, "is_disabled": 0, "lon": -77.02910566666667, "is_reserved": 0}, {"bike_id": "fcc0e8a49da5de8a0b88ae114b45cfb7", "fusion_lon": 0.0, "type": "electric_scooter", "name": "fcc0e8a49da5de8a0b88ae114b45cfb7", "rental_uris": {"android": "https://dc.lft.to/lastmile_qr_scan", "ios": "https://dc.lft.to/lastmile_qr_scan"}, "fusion_lat": 0.0, "lat": 38.90480933333333, "is_disabled": 0, "lon": -77.029713, "is_reserved": 0}, {"bike_id": "93360f7a8c76a579f8d47f7673fa6f91", "fusion_lon": 0.0, "type": "electric_scooter", "name": "93360f7a8c76a579f8d47f7673fa6f91", "rental_uris": {"android": "https://dc.lft.to/lastmile_qr_scan", "ios": "https://dc.lft.to/lastmile_qr_scan"}, "fusion_lat": 0.0, "lat": 38.914785, "is_disabled": 0, "lon": -77.0133015, "is_reserved": 0}, {"bike_id": "4d411801ac0bf39eca7236ebec1d98a2", "fusion_lon": 0.0, "type": "electric_scooter", "name": "4d411801ac0bf39eca7236ebec1d98a2", "rental_uris": {"android": "https://dc.lft.to/lastmile_qr_scan", "ios": "https://dc.lft.to/lastmile_qr_scan"}, "fusion_lat": 0.0, "lat": 38.91456483333333, "is_disabled": 0, "lon": -77.0415225, "is_reserved": 0}, {"bike_id": "a6a6c642b74ece4c116e237c504541d7", "fusion_lon": 0.0, "type": "electric_bike", "name": "a6a6c642b74ece4c116e237c504541d7", "rental_uris": {"android": "https://dc.lft.to/lastmile_qr_scan", "ios": "https://dc.lft.to/lastmile_qr_scan"}, "fusion_lat": 0.0, "lat": 38.843089166666665, "is_disabled": 0, "lon": -77.1143565, "is_reserved": 0}, {"bike_id": "1d365cc130deccd6d35b0f8337663851", "fusion_lon": 0.0, "type": "electric_scooter", "name": "1d365cc130deccd6d35b0f8337663851", "rental_uris": {"android": "https://dc.lft.to/lastmile_qr_scan", "ios": "https://dc.lft.to/lastmile_qr_scan"}, "fusion_lat": 0.0, "lat": 38.869468833333336, "is_disabled": 0, "lon": -77.0086005, "is_reserved": 0}, {"bike_id": "f7c61bf6079731278940ab0fbe80336d", "fusion_lon": 0.0, "type": "electric_bike", "name": "f7c61bf6079731278940ab0fbe80336d", "rental_uris": {"android": "https://dc.lft.to/lastmile_qr_scan", "ios": "https://dc.lft.to/lastmile_qr_scan"}, "fusion_lat": 0.0, "lat": 38.81329316666667, "is_disabled": 0, "lon": -77.05093333333333, "is_reserved": 0}, {"bike_id": "233227b29d2175cb08203b11f6f2e735", "fusion_lon": 0.0, "type": "electric_scooter", "name": "233227b29d2175cb08203b11f6f2e735", "rental_uris": {"android": "https://dc.lft.to/lastmile_qr_scan", "ios": "https://dc.lft.to/lastmile_qr_scan"}, "fusion_lat": 0.0, "lat": 38.905221833333336, "is_disabled": 0, "lon": -77.00152566666667, "is_reserved": 0}, {"bike_id": "2d356c0cafe9a6d138e485168b5201d2", "fusion_lon": 0.0, "type": "electric_scooter", "name": "2d356c0cafe9a6d138e485168b5201d2", "rental_uris": {"android": "https://dc.lft.to/lastmile_qr_scan", "ios": "https://dc.lft.to/lastmile_qr_scan"}, "fusion_lat": 0.0, "lat": 38.916746333333336, "is_disabled": 0, "lon": -77.03211966666667, "is_reserved": 0}, {"bike_id": "767e2c21f82c99011531c231897be183", "fusion_lon": 0.0, "type": "electric_bike", "name": "767e2c21f82c99011531c231897be183", "rental_uris": {"android": "https://dc.lft.to/lastmile_qr_scan", "ios": "https://dc.lft.to/lastmile_qr_scan"}, "fusion_lat": 0.0, "lat": 38.9354455, "is_disabled": 0, "lon": -77.03702933333334, "is_reserved": 0}, {"bike_id": "67341ef85dcf399f93b344f9ba83d47b", "fusion_lon": 0.0, "type": "electric_scooter", "name": "67341ef85dcf399f93b344f9ba83d47b", "rental_uris": {"android": "https://dc.lft.to/lastmile_qr_scan", "ios": "https://dc.lft.to/lastmile_qr_scan"}, "fusion_lat": 0.0, "lat": 38.90524933333333, "is_disabled": 0, "lon": -77.006928, "is_reserved": 0}, {"bike_id": "c0242d07e5e13bf8cdce07726e58f3ca", "fusion_lon": 0.0, "type": "electric_scooter", "name": "c0242d07e5e13bf8cdce07726e58f3ca", "rental_uris": {"android": "https://dc.lft.to/lastmile_qr_scan", "ios": "https://dc.lft.to/lastmile_qr_scan"}, "fusion_lat": 0.0, "lat": 38.91844566666666, "is_disabled": 0, "lon": -76.9656015, "is_reserved": 0}, {"bike_id": "1e1959208cd0562f8450b4d9f96178e7", "fusion_lon": 0.0, "type": "electric_bike", "name": "1e1959208cd0562f8450b4d9f96178e7", "rental_uris": {"android": "https://dc.lft.to/lastmile_qr_scan", "ios": "https://dc.lft.to/lastmile_qr_scan"}, "fusion_lat": 0.0, "lat": 39.02419783333333, "is_disabled": 0, "lon": -77.12510683333333, "is_reserved": 0}, {"bike_id": "7988c0f08fbb96964ef028049f1278b5", "fusion_lon": 0.0, "type": "electric_scooter", "name": "7988c0f08fbb96964ef028049f1278b5", "rental_uris": {"android": "https://dc.lft.to/lastmile_qr_scan", "ios": "https://dc.lft.to/lastmile_qr_scan"}, "fusion_lat": 0.0, "lat": 38.92108, "is_disabled": 0, "lon": -77.01772566666666, "is_reserved": 0}, {"bike_id": "9ee7a17c92821fca8d3d6660a326a6df", "fusion_lon": 0.0, "type": "electric_scooter", "name": "9ee7a17c92821fca8d3d6660a326a6df", "rental_uris": {"android": "https://dc.lft.to/lastmile_qr_scan", "ios": "https://dc.lft.to/lastmile_qr_scan"}, "fusion_lat": 0.0, "lat": 38.86697983333333, "is_disabled": 0, "lon": -76.9871725, "is_reserved": 0}, {"bike_id": "404525c8a1c23206a354481bdcb63b11", "fusion_lon": 0.0, "type": "electric_scooter", "name": "404525c8a1c23206a354481bdcb63b11", "rental_uris": {"android": "https://dc.lft.to/lastmile_qr_scan", "ios": "https://dc.lft.to/lastmile_qr_scan"}, "fusion_lat": 0.0, "lat": 38.88020316666667, "is_disabled": 0, "lon": -77.0217525, "is_reserved": 0}, {"bike_id": "d6351cf195f2a4f3fcf5b611871af9e4", "fusion_lon": 0.0, "type": "electric_scooter", "name": "d6351cf195f2a4f3fcf5b611871af9e4", "rental_uris": {"android": "https://dc.lft.to/lastmile_qr_scan", "ios": "https://dc.lft.to/lastmile_qr_scan"}, "fusion_lat": 0.0, "lat": 38.91401333333334, "is_disabled": 0, "lon": -77.041852, "is_reserved": 0}, {"bike_id": "4e599c31cc4cf87480d36aed3dbdeacb", "fusion_lon": 0.0, "type": "electric_scooter", "name": "4e599c31cc4cf87480d36aed3dbdeacb", "rental_uris": {"android": "https://dc.lft.to/lastmile_qr_scan", "ios": "https://dc.lft.to/lastmile_qr_scan"}, "fusion_lat": 0.0, "lat": 38.9035795, "is_disabled": 0, "lon": -77.02722016666667, "is_reserved": 0}, {"bike_id": "a2621a08b0027ec663b9afa67779ecd7", "fusion_lon": 0.0, "type": "electric_scooter", "name": "a2621a08b0027ec663b9afa67779ecd7", "rental_uris": {"android": "https://dc.lft.to/lastmile_qr_scan", "ios": "https://dc.lft.to/lastmile_qr_scan"}, "fusion_lat": 0.0, "lat": 38.917050833333334, "is_disabled": 0, "lon": -77.031767, "is_reserved": 0}, {"bike_id": "31afe6c9bc70f3311f258678902e3520", "fusion_lon": 0.0, "type": "electric_scooter", "name": "31afe6c9bc70f3311f258678902e3520", "rental_uris": {"android": "https://dc.lft.to/lastmile_qr_scan", "ios": "https://dc.lft.to/lastmile_qr_scan"}, "fusion_lat": 0.0, "lat": 38.903468, "is_disabled": 0, "lon": -76.98853133333333, "is_reserved": 0}, {"bike_id": "ad60320131708697d9abf0bb432d31ce", "fusion_lon": 0.0, "type": "electric_scooter", "name": "ad60320131708697d9abf0bb432d31ce", "rental_uris": {"android": "https://dc.lft.to/lastmile_qr_scan", "ios": "https://dc.lft.to/lastmile_qr_scan"}, "fusion_lat": 0.0, "lat": 38.91541683333333, "is_disabled": 0, "lon": -77.03839866666667, "is_reserved": 0}, {"bike_id": "641f357b0216036288fb6e06dc67195a", "fusion_lon": 0.0, "type": "electric_bike", "name": "641f357b0216036288fb6e06dc67195a", "rental_uris": {"android": "https://dc.lft.to/lastmile_qr_scan", "ios": "https://dc.lft.to/lastmile_qr_scan"}, "fusion_lat": 0.0, "lat": 38.8640345, "is_disabled": 0, "lon": -76.97445316666666, "is_reserved": 0}, {"bike_id": "0be85b4b9ecae42237426905821af329", "fusion_lon": 0.0, "type": "electric_scooter", "name": "0be85b4b9ecae42237426905821af329", "rental_uris": {"android": "https://dc.lft.to/lastmile_qr_scan", "ios": "https://dc.lft.to/lastmile_qr_scan"}, "fusion_lat": 0.0, "lat": 38.89604033333333, "is_disabled": 0, "lon": -76.97825416666667, "is_reserved": 0}, {"bike_id": "b2704e20b9a1e7cca67e0cf3c6dd9128", "fusion_lon": 0.0, "type": "electric_scooter", "name": "b2704e20b9a1e7cca67e0cf3c6dd9128", "rental_uris": {"android": "https://dc.lft.to/lastmile_qr_scan", "ios": "https://dc.lft.to/lastmile_qr_scan"}, "fusion_lat": 0.0, "lat": 38.892213166666664, "is_disabled": 0, "lon": -77.02775033333333, "is_reserved": 0}, {"bike_id": "8f8f888aeeca3c8bf31847916085458f", "fusion_lon": 0.0, "type": "electric_scooter", "name": "8f8f888aeeca3c8bf31847916085458f", "rental_uris": {"android": "https://dc.lft.to/lastmile_qr_scan", "ios": "https://dc.lft.to/lastmile_qr_scan"}, "fusion_lat": 0.0, "lat": 38.91622016666667, "is_disabled": 0, "lon": -77.03987783333334, "is_reserved": 0}, {"bike_id": "b5e0bed2bf78e50036aee9080ab1cdc2", "fusion_lon": 0.0, "type": "electric_scooter", "name": "b5e0bed2bf78e50036aee9080ab1cdc2", "rental_uris": {"android": "https://dc.lft.to/lastmile_qr_scan", "ios": "https://dc.lft.to/lastmile_qr_scan"}, "fusion_lat": 0.0, "lat": 38.89294, "is_disabled": 0, "lon": -77.0465795, "is_reserved": 0}, {"bike_id": "a8ede80b0f898ede931f793596381bc5", "fusion_lon": 0.0, "type": "electric_scooter", "name": "a8ede80b0f898ede931f793596381bc5", "rental_uris": {"android": "https://dc.lft.to/lastmile_qr_scan", "ios": "https://dc.lft.to/lastmile_qr_scan"}, "fusion_lat": 0.0, "lat": 38.93753483333333, "is_disabled": 0, "lon": -77.0328575, "is_reserved": 0}, {"bike_id": "6920efa20966378b908a5f606144d9df", "fusion_lon": 0.0, "type": "electric_bike", "name": "6920efa20966378b908a5f606144d9df", "rental_uris": {"android": "https://dc.lft.to/lastmile_qr_scan", "ios": "https://dc.lft.to/lastmile_qr_scan"}, "fusion_lat": 0.0, "lat": 38.967585166666666, "is_disabled": 0, "lon": -77.09167533333333, "is_reserved": 0}, {"bike_id": "cf2165c136e983de61d05b86edf5601f", "fusion_lon": 0.0, "type": "electric_scooter", "name": "cf2165c136e983de61d05b86edf5601f", "rental_uris": {"android": "https://dc.lft.to/lastmile_qr_scan", "ios": "https://dc.lft.to/lastmile_qr_scan"}, "fusion_lat": 0.0, "lat": 38.910287833333335, "is_disabled": 0, "lon": -77.0338705, "is_reserved": 0}, {"bike_id": "f2814e298745bb66fc9a8c16ae0f0063", "fusion_lon": 0.0, "type": "electric_bike", "name": "f2814e298745bb66fc9a8c16ae0f0063", "rental_uris": {"android": "https://dc.lft.to/lastmile_qr_scan", "ios": "https://dc.lft.to/lastmile_qr_scan"}, "fusion_lat": 0.0, "lat": 38.95624983333333, "is_disabled": 0, "lon": -77.03620283333333, "is_reserved": 0}, {"bike_id": "fb33dd484268eb36201068973ceb6dad", "fusion_lon": 0.0, "type": "electric_scooter", "name": "fb33dd484268eb36201068973ceb6dad", "rental_uris": {"android": "https://dc.lft.to/lastmile_qr_scan", "ios": "https://dc.lft.to/lastmile_qr_scan"}, "fusion_lat": 0.0, "lat": 38.90628916666667, "is_disabled": 0, "lon": -77.0346335, "is_reserved": 0}, {"bike_id": "89449f60aa8d7f65bab9d6509524ea8c", "fusion_lon": 0.0, "type": "electric_scooter", "name": "89449f60aa8d7f65bab9d6509524ea8c", "rental_uris": {"android": "https://dc.lft.to/lastmile_qr_scan", "ios": "https://dc.lft.to/lastmile_qr_scan"}, "fusion_lat": 0.0, "lat": 38.855272, "is_disabled": 0, "lon": -76.96918683333334, "is_reserved": 0}, {"bike_id": "8cdd0e2b10a601cfba7dc8e8f30133dd", "fusion_lon": 0.0, "type": "electric_scooter", "name": "8cdd0e2b10a601cfba7dc8e8f30133dd", "rental_uris": {"android": "https://dc.lft.to/lastmile_qr_scan", "ios": "https://dc.lft.to/lastmile_qr_scan"}, "fusion_lat": 0.0, "lat": 38.912546, "is_disabled": 0, "lon": -77.03270766666667, "is_reserved": 0}, {"bike_id": "129caedfeb9729d5a23a38a26e2e9d67", "fusion_lon": 0.0, "type": "electric_scooter", "name": "129caedfeb9729d5a23a38a26e2e9d67", "rental_uris": {"android": "https://dc.lft.to/lastmile_qr_scan", "ios": "https://dc.lft.to/lastmile_qr_scan"}, "fusion_lat": 0.0, "lat": 38.9034665, "is_disabled": 0, "lon": -77.03438366666667, "is_reserved": 0}, {"bike_id": "1f0f71c99d291513d58b748965a70838", "fusion_lon": 0.0, "type": "electric_scooter", "name": "1f0f71c99d291513d58b748965a70838", "rental_uris": {"android": "https://dc.lft.to/lastmile_qr_scan", "ios": "https://dc.lft.to/lastmile_qr_scan"}, "fusion_lat": 0.0, "lat": 38.921631833333336, "is_disabled": 0, "lon": -77.04128866666667, "is_reserved": 0}, {"bike_id": "8ae550024c764424e8b870dc9642f8e3", "fusion_lon": 0.0, "type": "electric_scooter", "name": "8ae550024c764424e8b870dc9642f8e3", "rental_uris": {"android": "https://dc.lft.to/lastmile_qr_scan", "ios": "https://dc.lft.to/lastmile_qr_scan"}, "fusion_lat": 0.0, "lat": 38.8709565, "is_disabled": 0, "lon": -77.011993, "is_reserved": 0}, {"bike_id": "1de6c771131c10be8b3ded06c6b2a459", "fusion_lon": 0.0, "type": "electric_scooter", "name": "1de6c771131c10be8b3ded06c6b2a459", "rental_uris": {"android": "https://dc.lft.to/lastmile_qr_scan", "ios": "https://dc.lft.to/lastmile_qr_scan"}, "fusion_lat": 0.0, "lat": 38.91041666666667, "is_disabled": 0, "lon": -77.04262716666666, "is_reserved": 0}, {"bike_id": "821b4f00128ec4ff8b56bc4bbaa721d7", "fusion_lon": 0.0, "type": "electric_scooter", "name": "821b4f00128ec4ff8b56bc4bbaa721d7", "rental_uris": {"android": "https://dc.lft.to/lastmile_qr_scan", "ios": "https://dc.lft.to/lastmile_qr_scan"}, "fusion_lat": 0.0, "lat": 38.97375516666666, "is_disabled": 0, "lon": -77.03123583333333, "is_reserved": 0}, {"bike_id": "47138d89e123bf95973cd23a151107d7", "fusion_lon": 0.0, "type": "electric_scooter", "name": "47138d89e123bf95973cd23a151107d7", "rental_uris": {"android": "https://dc.lft.to/lastmile_qr_scan", "ios": "https://dc.lft.to/lastmile_qr_scan"}, "fusion_lat": 0.0, "lat": 38.90233883333333, "is_disabled": 0, "lon": -77.02062733333334, "is_reserved": 0}, {"bike_id": "37b809ddbbf19baed78a523c5c02043a", "fusion_lon": 0.0, "type": "electric_scooter", "name": "37b809ddbbf19baed78a523c5c02043a", "rental_uris": {"android": "https://dc.lft.to/lastmile_qr_scan", "ios": "https://dc.lft.to/lastmile_qr_scan"}, "fusion_lat": 0.0, "lat": 38.86353116666667, "is_disabled": 0, "lon": -76.99096466666667, "is_reserved": 0}, {"bike_id": "fdc565aa20f8ffe40a8b8ed1e8e3b8c7", "fusion_lon": 0.0, "type": "electric_scooter", "name": "fdc565aa20f8ffe40a8b8ed1e8e3b8c7", "rental_uris": {"android": "https://dc.lft.to/lastmile_qr_scan", "ios": "https://dc.lft.to/lastmile_qr_scan"}, "fusion_lat": 0.0, "lat": 38.900383, "is_disabled": 0, "lon": -76.993688, "is_reserved": 0}, {"bike_id": "ba0875cbeebeeebf260c27803d71c05f", "fusion_lon": 0.0, "type": "electric_bike", "name": "ba0875cbeebeeebf260c27803d71c05f", "rental_uris": {"android": "https://dc.lft.to/lastmile_qr_scan", "ios": "https://dc.lft.to/lastmile_qr_scan"}, "fusion_lat": 0.0, "lat": 38.936677, "is_disabled": 0, "lon": -76.95205866666667, "is_reserved": 0}, {"bike_id": "fbc3331ced6d79ab3e3cf204c3fa0e53", "fusion_lon": 0.0, "type": "electric_scooter", "name": "fbc3331ced6d79ab3e3cf204c3fa0e53", "rental_uris": {"android": "https://dc.lft.to/lastmile_qr_scan", "ios": "https://dc.lft.to/lastmile_qr_scan"}, "fusion_lat": 0.0, "lat": 38.935927666666664, "is_disabled": 0, "lon": -77.03520733333333, "is_reserved": 0}, {"bike_id": "1e9fe137175ed5804025149e92173392", "fusion_lon": 0.0, "type": "electric_scooter", "name": "1e9fe137175ed5804025149e92173392", "rental_uris": {"android": "https://dc.lft.to/lastmile_qr_scan", "ios": "https://dc.lft.to/lastmile_qr_scan"}, "fusion_lat": 0.0, "lat": 38.957075333333336, "is_disabled": 0, "lon": -77.024038, "is_reserved": 0}, {"bike_id": "6e0a03a124792cd137e656bca0cf1c6c", "fusion_lon": 0.0, "type": "electric_scooter", "name": "6e0a03a124792cd137e656bca0cf1c6c", "rental_uris": {"android": "https://dc.lft.to/lastmile_qr_scan", "ios": "https://dc.lft.to/lastmile_qr_scan"}, "fusion_lat": 0.0, "lat": 38.939763, "is_disabled": 0, "lon": -77.0270925, "is_reserved": 0}, {"bike_id": "690f6bebe56f316433914c5a4b2bd9a8", "fusion_lon": 0.0, "type": "electric_scooter", "name": "690f6bebe56f316433914c5a4b2bd9a8", "rental_uris": {"android": "https://dc.lft.to/lastmile_qr_scan", "ios": "https://dc.lft.to/lastmile_qr_scan"}, "fusion_lat": 0.0, "lat": 38.929769666666665, "is_disabled": 0, "lon": -77.032383, "is_reserved": 0}, {"bike_id": "08ee80a0a0fed4fd109e5412e2c5a6b7", "fusion_lon": 0.0, "type": "electric_scooter", "name": "08ee80a0a0fed4fd109e5412e2c5a6b7", "rental_uris": {"android": "https://dc.lft.to/lastmile_qr_scan", "ios": "https://dc.lft.to/lastmile_qr_scan"}, "fusion_lat": 0.0, "lat": 38.887419666666666, "is_disabled": 0, "lon": -77.02831033333334, "is_reserved": 0}, {"bike_id": "b2e57dcffcc4b703436f8fdd8530a93e", "fusion_lon": 0.0, "type": "electric_scooter", "name": "b2e57dcffcc4b703436f8fdd8530a93e", "rental_uris": {"android": "https://dc.lft.to/lastmile_qr_scan", "ios": "https://dc.lft.to/lastmile_qr_scan"}, "fusion_lat": 0.0, "lat": 38.86707466666667, "is_disabled": 0, "lon": -76.987309, "is_reserved": 0}, {"bike_id": "5ff46d855c9ccc823dea6d9b13bfd287", "fusion_lon": 0.0, "type": "electric_scooter", "name": "5ff46d855c9ccc823dea6d9b13bfd287", "rental_uris": {"android": "https://dc.lft.to/lastmile_qr_scan", "ios": "https://dc.lft.to/lastmile_qr_scan"}, "fusion_lat": 0.0, "lat": 38.938575, "is_disabled": 0, "lon": -77.0265035, "is_reserved": 0}, {"bike_id": "b68e9e5d6e0924312f4ab0e628a08e1d", "fusion_lon": 0.0, "type": "electric_scooter", "name": "b68e9e5d6e0924312f4ab0e628a08e1d", "rental_uris": {"android": "https://dc.lft.to/lastmile_qr_scan", "ios": "https://dc.lft.to/lastmile_qr_scan"}, "fusion_lat": 0.0, "lat": 38.926696, "is_disabled": 0, "lon": -77.07835816666666, "is_reserved": 0}, {"bike_id": "02451734435926f39e8d694d3fbf9994", "fusion_lon": 0.0, "type": "electric_scooter", "name": "02451734435926f39e8d694d3fbf9994", "rental_uris": {"android": "https://dc.lft.to/lastmile_qr_scan", "ios": "https://dc.lft.to/lastmile_qr_scan"}, "fusion_lat": 0.0, "lat": 38.887364166666664, "is_disabled": 0, "lon": -77.02276083333334, "is_reserved": 0}, {"bike_id": "f643273e4fa5f714bc495574e23cba42", "fusion_lon": 0.0, "type": "electric_scooter", "name": "f643273e4fa5f714bc495574e23cba42", "rental_uris": {"android": "https://dc.lft.to/lastmile_qr_scan", "ios": "https://dc.lft.to/lastmile_qr_scan"}, "fusion_lat": 0.0, "lat": 38.90068933333333, "is_disabled": 0, "lon": -77.00211683333333, "is_reserved": 0}, {"bike_id": "15440e0df77a8d0a7e9f3c36e2d00572", "fusion_lon": 0.0, "type": "electric_scooter", "name": "15440e0df77a8d0a7e9f3c36e2d00572", "rental_uris": {"android": "https://dc.lft.to/lastmile_qr_scan", "ios": "https://dc.lft.to/lastmile_qr_scan"}, "fusion_lat": 0.0, "lat": 38.900120333333334, "is_disabled": 0, "lon": -76.9870555, "is_reserved": 0}, {"bike_id": "67cd937b45569de8ced3ac2b50d5210d", "fusion_lon": 0.0, "type": "electric_scooter", "name": "67cd937b45569de8ced3ac2b50d5210d", "rental_uris": {"android": "https://dc.lft.to/lastmile_qr_scan", "ios": "https://dc.lft.to/lastmile_qr_scan"}, "fusion_lat": 0.0, "lat": 38.915427, "is_disabled": 0, "lon": -77.04620733333333, "is_reserved": 0}, {"bike_id": "b783eb883b8c7b5852085d740c36038e", "fusion_lon": 0.0, "type": "electric_scooter", "name": "b783eb883b8c7b5852085d740c36038e", "rental_uris": {"android": "https://dc.lft.to/lastmile_qr_scan", "ios": "https://dc.lft.to/lastmile_qr_scan"}, "fusion_lat": 0.0, "lat": 38.887510666666664, "is_disabled": 0, "lon": -77.01610983333333, "is_reserved": 0}, {"bike_id": "e9516aed63482bbd4323495e102b0c6d", "fusion_lon": 0.0, "type": "electric_scooter", "name": "e9516aed63482bbd4323495e102b0c6d", "rental_uris": {"android": "https://dc.lft.to/lastmile_qr_scan", "ios": "https://dc.lft.to/lastmile_qr_scan"}, "fusion_lat": 0.0, "lat": 38.916984, "is_disabled": 0, "lon": -77.04708983333333, "is_reserved": 0}, {"bike_id": "8693ac5db7da91685f4a887531e97231", "fusion_lon": 0.0, "type": "electric_scooter", "name": "8693ac5db7da91685f4a887531e97231", "rental_uris": {"android": "https://dc.lft.to/lastmile_qr_scan", "ios": "https://dc.lft.to/lastmile_qr_scan"}, "fusion_lat": 0.0, "lat": 38.92235066666667, "is_disabled": 0, "lon": -77.09964516666666, "is_reserved": 0}, {"bike_id": "ba5313fa9f13bd7e77efdb782838115c", "fusion_lon": 0.0, "type": "electric_scooter", "name": "ba5313fa9f13bd7e77efdb782838115c", "rental_uris": {"android": "https://dc.lft.to/lastmile_qr_scan", "ios": "https://dc.lft.to/lastmile_qr_scan"}, "fusion_lat": 0.0, "lat": 38.88630083333334, "is_disabled": 0, "lon": -77.02211783333334, "is_reserved": 0}, {"bike_id": "e68ffe5005756609a68aae995455bc56", "fusion_lon": 0.0, "type": "electric_bike", "name": "e68ffe5005756609a68aae995455bc56", "rental_uris": {"android": "https://dc.lft.to/lastmile_qr_scan", "ios": "https://dc.lft.to/lastmile_qr_scan"}, "fusion_lat": 0.0, "lat": 38.942126, "is_disabled": 0, "lon": -76.9661535, "is_reserved": 0},