{"data": {"bikes": [{"rental_uris": {"ios": "https://dc.lft.to/lastmile_qr_scan", "android": "https://dc.lft.to/lastmile_qr_scan"}, "lat": 38.903738, "lon": -77.0365325, "fusion_lat": 0.0, "name": "355a153978882beb201eb5464d405ea2", "is_disabled": 0, "is_reserved": 0, "bike_id": "355a153978882beb201eb5464d405ea2", "fusion_lon": 0.0, "type": "electric_scooter"}, {"rental_uris": {"ios": "https://dc.lft.to/lastmile_qr_scan", "android": "https://dc.lft.to/lastmile_qr_scan"}, "lat": 38.866760166666666, "lon": -76.98544866666667, "fusion_lat": 0.0, "name": "9125d62d7978ce58ee1c389cab1a5581", "is_disabled": 0, "is_reserved": 0, "bike_id": "9125d62d7978ce58ee1c389cab1a5581", "fusion_lon": 0.0, "type": "electric_scooter"}, {"rental_uris": {"ios": "https://dc.lft.to/lastmile_qr_scan", "android": "https://dc.lft.to/lastmile_qr_scan"}, "lat": 38.901633333333336, "lon": -76.93075266666666, "fusion_lat": 0.0, "name": "a8dab913b257cb3db49d42e69684145e", "is_disabled": 0, "is_reserved": 0, "bike_id": "a8dab913b257cb3db49d42e69684145e", "fusion_lon": 0.0, "type": "electric_scooter"}, {"rental_uris": {"ios": "https://dc.lft.to/lastmile_qr_scan", "android": "https://dc.lft.to/lastmile_qr_scan"}, "lat": 38.90522983333334, "lon": -77.04342883333334, "fusion_lat": 0.0, "name": "4f2d6305bb5dc09de584e8a1ed887d3a", "is_disabled": 0, "is_reserved": 0, "bike_id": "4f2d6305bb5dc09de584e8a1ed887d3a", "fusion_lon": 0.0, "type": "electric_scooter"}, {"rental_uris": {"ios": "https://dc.lft.to/lastmile_qr_scan", "android": "https://dc.lft.to/lastmile_qr_scan"}, "lat": 38.89508816666667, "lon": -77.003367, "fusion_lat": 0.0, "name": "e832879884aef949c05aa7e462b87927", "is_disabled": 0, "is_reserved": 0, "bike_id": "e832879884aef949c05aa7e462b87927", "fusion_lon": 0.0, "type": "electric_scooter"}, {"rental_uris": {"ios": "https://dc.lft.to/lastmile_qr_scan", "android": "https://dc.lft.to/lastmile_qr_scan"}, "lat": 38.91305233333333, "lon": -77.02175166666666, "fusion_lat": 0.0, "name": "5af18beb4b2817457328818bf3682517", "is_disabled": 0, "is_reserved": 0, "bike_id": "5af18beb4b2817457328818bf3682517", "fusion_lon": 0.0, "type": "electric_scooter"}, {"rental_uris": {"ios": "https://dc.lft.to/lastmile_qr_scan", "android": "https://dc.lft.to/lastmile_qr_scan"}, "lat": 38.951611666666665, "lon": -77.05676483333333, "fusion_lat": 0.0, "name": "522cc312df683b5231bf8b190328c8a9", "is_disabled": 0, "is_reserved": 0, "bike_id": "522cc312df683b5231bf8b190328c8a9", "fusion_lon": 0.0, "type": "electric_scooter"}, {"rental_uris": {"ios": "https://dc.lft.to/lastmile_qr_scan", "android": "https://dc.lft.to/lastmile_qr_scan"}, "lat": 38.94893416666667, "lon": -76.96371416666666, "fusion_lat": 0.0, "name": "0601c00a8999c02f9dcbcdd520b8a2cb", "is_disabled": 0, "is_reserved": 0, "bike_id": "0601c00a8999c02f9dcbcdd520b8a2cb", "fusion_lon": 0.0, "type": "electric_bike"}, {"rental_uris": {"ios": "https://dc.lft.to/lastmile_qr_scan", "android": "https://dc.lft.to/lastmile_qr_scan"}, "lat": 38.936162333333336, "lon": -77.058846, "fusion_lat": 0.0, "name": "ed65bc2b32008bd07bc369ffd1dc2f2b", "is_disabled": 0, "is_reserved": 0, "bike_id": "ed65bc2b32008bd07bc369ffd1dc2f2b", "fusion_lon": 0.0, "type": "electric_scooter"}, {"rental_uris": {"ios": "https://dc.lft.to/lastmile_qr_scan", "android": "https://dc.lft.to/lastmile_qr_scan"}, "lat": 38.907252166666666, "lon": -77.02981816666667, "fusion_lat": 0.0, "name": "df2c2ac78a84b59e99941a292d5ff8d3", "is_disabled": 0, "is_reserved": 0, "bike_id": "df2c2ac78a84b59e99941a292d5ff8d3", "fusion_lon": 0.0, "type": "electric_scooter"}, {"rental_uris": {"ios": "https://dc.lft.to/lastmile_qr_scan", "android": "https://dc.lft.to/lastmile_qr_scan"}, "lat": 38.91670083333333, "lon": -76.98173933333334, "fusion_lat": 0.0, "name": "34f265ff8112b26dc05c91e3fe3dc047", "is_disabled": 0, "is_reserved": 0, "bike_id": "34f265ff8112b26dc05c91e3fe3dc047", "fusion_lon": 0.0, "type": "electric_scooter"}, {"rental_uris": {"ios": "https://dc.lft.to/lastmile_qr_scan", "android": "https://dc.lft.to/lastmile_qr_scan"}, "lat": 38.892408833333334, "lon": -77.044983, "fusion_lat": 0.0, "name": "cf72be2a1767389beecfa2a6c0fb8840", "is_disabled": 0, "is_reserved": 0, "bike_id": "cf72be2a1767389beecfa2a6c0fb8840", "fusion_lon": 0.0, "type": "electric_scooter"}, {"rental_uris": {"ios": "https://dc.lft.to/lastmile_qr_scan", "android": "https://dc.lft.to/lastmile_qr_scan"}, "lat": 38.90335316666667, "lon": -77.017458, "fusion_lat": 0.0, "name": "3ef4f98df84f46d6570d8d40211137b6", "is_disabled": 0, "is_reserved": 0, "bike_id": "3ef4f98df84f46d6570d8d40211137b6", "fusion_lon": 0.0, "type": "electric_scooter"}, {"rental_uris": {"ios": "https://dc.lft.to/lastmile_qr_scan", "android": "https://dc.lft.to/lastmile_qr_scan"}, "lat": 38.87813933333334, "lon": -76.971699, "fusion_lat": 0.0, "name": "b13dd5bda418f1acdbe33ab3c48f163a", "is_disabled": 0, "is_reserved": 0, "bike_id": "b13dd5bda418f1acdbe33ab3c48f163a", "fusion_lon": 0.0, "type": "electric_scooter"}, {"rental_uris": {"ios": "https://dc.lft.to/lastmile_qr_scan", "android": "https://dc.lft.to/lastmile_qr_scan"}, "lat": 38.85898916666667, "lon": -76.99737316666666, "fusion_lat": 0.0, "name": "a7803bdb543c90c2444d84c6c3865c8f", "is_disabled": 0, "is_reserved": 0, "bike_id": "a7803bdb543c90c2444d84c6c3865c8f", "fusion_lon": 0.0, "type": "electric_scooter"}, {"rental_uris": {"ios": "https://dc.lft.to/lastmile_qr_scan", "android": "https://dc.lft.to/lastmile_qr_scan"}, "lat": 38.9909805, "lon": -76.99360266666666, "fusion_lat": 0.0, "name": "b4bbf22ef4a6848750ccd7897ed54453", "is_disabled": 0, "is_reserved": 0, "bike_id": "b4bbf22ef4a6848750ccd7897ed54453", "fusion_lon": 0.0, "type": "electric_bike"}, {"rental_uris": {"ios": "https://dc.lft.to/lastmile_qr_scan", "android": "https://dc.lft.to/lastmile_qr_scan"}, "lat": 38.8967645, "lon": -77.00519066666666, "fusion_lat": 0.0, "name": "d7141a0c6a885e75f18cbd879ef5e5e9", "is_disabled": 0, "is_reserved": 0, "bike_id": "d7141a0c6a885e75f18cbd879ef5e5e9", "fusion_lon": 0.0, "type": "electric_bike"}, {"rental_uris": {"ios": "https://dc.lft.to/lastmile_qr_scan", "android": "https://dc.lft.to/lastmile_qr_scan"}, "lat": 38.915677, "lon": -77.03137816666667, "fusion_lat": 0.0, "name": "726e38ac745fccae512fcec78ff7c545", "is_disabled": 0, "is_reserved": 0, "bike_id": "726e38ac745fccae512fcec78ff7c545", "fusion_lon": 0.0, "type": "electric_scooter"}, {"rental_uris": {"ios": "https://dc.lft.to/lastmile_qr_scan", "android": "https://dc.lft.to/lastmile_qr_scan"}, "lat": 38.92633166666667, "lon": -77.03781766666667, "fusion_lat": 0.0, "name": "fa2b6c9e1a2c7cb65b23ec68863f8df4", "is_disabled": 0, "is_reserved": 0, "bike_id": "fa2b6c9e1a2c7cb65b23ec68863f8df4", "fusion_lon": 0.0, "type": "electric_scooter"}, {"rental_uris": {"ios": "https://dc.lft.to/lastmile_qr_scan", "android": "https://dc.lft.to/lastmile_qr_scan"}, "lat": 38.88498416666667, "lon": -77.0072725, "fusion_lat": 0.0, "name": "cae1a422af2468a62ba8c6d90e63e764", "is_disabled": 0, "is_reserved": 0, "bike_id": "cae1a422af2468a62ba8c6d90e63e764", "fusion_lon": 0.0, "type": "electric_scooter"}, {"rental_uris": {"ios": "https://dc.lft.to/lastmile_qr_scan", "android": "https://dc.lft.to/lastmile_qr_scan"}, "lat": 38.8831365, "lon": -77.00342183333333, "fusion_lat": 0.0, "name": "7013f169b78d6c8b8d40dfc0c5319743", "is_disabled": 0, "is_reserved": 0, "bike_id": "7013f169b78d6c8b8d40dfc0c5319743", "fusion_lon": 0.0, "type": "electric_scooter"}, {"rental_uris": {"ios": "https://dc.lft.to/lastmile_qr_scan", "android": "https://dc.lft.to/lastmile_qr_scan"}, "lat": 38.915694, "lon": -77.03939, "fusion_lat": 0.0, "name": "c185fe3ade99f9e0cc92e5d207f77020", "is_disabled": 0, "is_reserved": 0, "bike_id": "c185fe3ade99f9e0cc92e5d207f77020", "fusion_lon": 0.0, "type": "electric_scooter"}, {"rental_uris": {"ios": "https://dc.lft.to/lastmile_qr_scan", "android": "https://dc.lft.to/lastmile_qr_scan"}, "lat": 38.928924, "lon": -77.023115, "fusion_lat": 0.0, "name": "53144421fbe39d42b15bcb529923f4ac", "is_disabled": 0, "is_reserved": 0, "bike_id": "53144421fbe39d42b15bcb529923f4ac", "fusion_lon": 0.0, "type": "electric_scooter"}, {"rental_uris": {"ios": "https://dc.lft.to/lastmile_qr_scan", "android": "https://dc.lft.to/lastmile_qr_scan"}, "lat": 38.90560333333333, "lon": -77.02176, "fusion_lat": 0.0, "name": "1c0e9f3757805384007dda7d9bba3452", "is_disabled": 0, "is_reserved": 0, "bike_id": "1c0e9f3757805384007dda7d9bba3452", "fusion_lon": 0.0, "type": "electric_scooter"}, {"rental_uris": {"ios": "https://dc.lft.to/lastmile_qr_scan", "android": "https://dc.lft.to/lastmile_qr_scan"}, "lat": 38.89733433333333, "lon": -76.94725, "fusion_lat": 0.0, "name": "83df8df0df654d09c7794178e4200933", "is_disabled": 0, "is_reserved": 0, "bike_id": "83df8df0df654d09c7794178e4200933", "fusion_lon": 0.0, "type": "electric_scooter"}, {"rental_uris": {"ios": "https://dc.lft.to/lastmile_qr_scan", "android": "https://dc.lft.to/lastmile_qr_scan"}, "lat": 38.929769666666665, "lon": -77.01302733333333, "fusion_lat": 0.0, "name": "cb5268edd45d6225d48b571641113dd3", "is_disabled": 0, "is_reserved": 0, "bike_id": "cb5268edd45d6225d48b571641113dd3", "fusion_lon": 0.0, "type": "electric_scooter"}, {"rental_uris": {"ios": "https://dc.lft.to/lastmile_qr_scan", "android": "https://dc.lft.to/lastmile_qr_scan"}, "lat": 38.89359, "lon": -77.03168583333333, "fusion_lat": 0.0, "name": "0cd4587454ffd15d0d5566fe37c0e991", "is_disabled": 0, "is_reserved": 0, "bike_id": "0cd4587454ffd15d0d5566fe37c0e991", "fusion_lon": 0.0, "type": "electric_scooter"}, {"rental_uris": {"ios": "https://dc.lft.to/lastmile_qr_scan", "android": "https://dc.lft.to/lastmile_qr_scan"}, "lat": 38.900526, "lon": -77.00068283333333, "fusion_lat": 0.0, "name": "2391b73a595493204410a9de299fe6a6", "is_disabled": 0, "is_reserved": 0, "bike_id": "2391b73a595493204410a9de299fe6a6", "fusion_lon": 0.0, "type": "electric_scooter"}, {"rental_uris": {"ios": "https://dc.lft.to/lastmile_qr_scan", "android": "https://dc.lft.to/lastmile_qr_scan"}, "lat": 38.90378966666667, "lon": -77.03643883333334, "fusion_lat": 0.0, "name": "ff63b04163c734420d20135a482b83a6", "is_disabled": 0, "is_reserved": 0, "bike_id": "ff63b04163c734420d20135a482b83a6", "fusion_lon": 0.0, "type": "electric_scooter"}, {"rental_uris": {"ios": "https://dc.lft.to/lastmile_qr_scan", "android": "https://dc.lft.to/lastmile_qr_scan"}, "lat": 38.91871866666666, "lon": -76.99945783333334, "fusion_lat": 0.0, "name": "1d724c844f338e3f7a7205689ccceec2", "is_disabled": 0, "is_reserved": 0, "bike_id": "1d724c844f338e3f7a7205689ccceec2", "fusion_lon": 0.0, "type": "electric_scooter"}, {"rental_uris": {"ios": "https://dc.lft.to/lastmile_qr_scan", "android": "https://dc.lft.to/lastmile_qr_scan"}, "lat": 38.92873, "lon": -77.03408783333333, "fusion_lat": 0.0, "name": "224c70d01f5b056801e4f22d4f48535d", "is_disabled": 0, "is_reserved": 0, "bike_id": "224c70d01f5b056801e4f22d4f48535d", "fusion_lon": 0.0, "type": "electric_scooter"}, {"rental_uris": {"ios": "https://dc.lft.to/lastmile_qr_scan", "android": "https://dc.lft.to/lastmile_qr_scan"}, "lat": 38.918444, "lon": -77.048288, "fusion_lat": 0.0, "name": "0312e6226db19f258f5ff689299bdddd", "is_disabled": 0, "is_reserved": 0, "bike_id": "0312e6226db19f258f5ff689299bdddd", "fusion_lon": 0.0, "type": "electric_scooter"}, {"rental_uris": {"ios": "https://dc.lft.to/lastmile_qr_scan", "android": "https://dc.lft.to/lastmile_qr_scan"}, "lat": 38.9153035, "lon": -76.98350183333334, "fusion_lat": 0.0, "name": "0fd70840ce345dea5328f3f136cb7800", "is_disabled": 0, "is_reserved": 0, "bike_id": "0fd70840ce345dea5328f3f136cb7800", "fusion_lon": 0.0, "type": "electric_scooter"}, {"rental_uris": {"ios": "https://dc.lft.to/lastmile_qr_scan", "android": "https://dc.lft.to/lastmile_qr_scan"}, "lat": 38.901917833333336, "lon": -76.978799, "fusion_lat": 0.0, "name": "9125381c74c010056c10a236fbeb6144", "is_disabled": 0, "is_reserved": 0, "bike_id": "9125381c74c010056c10a236fbeb6144", "fusion_lon": 0.0, "type": "electric_scooter"}, {"rental_uris": {"ios": "https://dc.lft.to/lastmile_qr_scan", "android": "https://dc.lft.to/lastmile_qr_scan"}, "lat": 38.90134033333333, "lon": -77.02732483333334, "fusion_lat": 0.0, "name": "a51baee0e52800aff854b1b50735c9f9", "is_disabled": 0, "is_reserved": 0, "bike_id": "a51baee0e52800aff854b1b50735c9f9", "fusion_lon": 0.0, "type": "electric_scooter"}, {"rental_uris": {"ios": "https://dc.lft.to/lastmile_qr_scan", "android": "https://dc.lft.to/lastmile_qr_scan"}, "lat": 38.9162595, "lon": -77.02590766666667, "fusion_lat": 0.0, "name": "249aaf35f7f522ad3df0313856cfd664", "is_disabled": 0, "is_reserved": 0, "bike_id": "249aaf35f7f522ad3df0313856cfd664", "fusion_lon": 0.0, "type": "electric_scooter"}, {"rental_uris": {"ios": "https://dc.lft.to/lastmile_qr_scan", "android": "https://dc.lft.to/lastmile_qr_scan"}, "lat": 38.922767, "lon": -77.01838766666667, "fusion_lat": 0.0, "name": "5de0da58d168c99c04392e68024184c3", "is_disabled": 0, "is_reserved": 0, "bike_id": "5de0da58d168c99c04392e68024184c3", "fusion_lon": 0.0, "type": "electric_scooter"}, {"rental_uris": {"ios": "https://dc.lft.to/lastmile_qr_scan", "android": "https://dc.lft.to/lastmile_qr_scan"}, "lat": 38.9191505, "lon": -77.01347833333334, "fusion_lat": 0.0, "name": "43f5c30d8c03cd374960b761243c6579", "is_disabled": 0, "is_reserved": 0, "bike_id": "43f5c30d8c03cd374960b761243c6579", "fusion_lon": 0.0, "type": "electric_scooter"}, {"rental_uris": {"ios": "https://dc.lft.to/lastmile_qr_scan", "android": "https://dc.lft.to/lastmile_qr_scan"}, "lat": 38.89226583333333, "lon": -77.031602, "fusion_lat": 0.0, "name": "65d93b98c42211e6ad7bd85017fd2841", "is_disabled": 0, "is_reserved": 0, "bike_id": "65d93b98c42211e6ad7bd85017fd2841", "fusion_lon": 0.0, "type": "electric_scooter"}, {"rental_uris": {"ios": "https://dc.lft.to/lastmile_qr_scan", "android": "https://dc.lft.to/lastmile_qr_scan"}, "lat": 38.906924, "lon": -77.00032166666666, "fusion_lat": 0.0, "name": "c50bbe91ac765a1be7d513683d19f912", "is_disabled": 0, "is_reserved": 0, "bike_id": "c50bbe91ac765a1be7d513683d19f912", "fusion_lon": 0.0, "type": "electric_scooter"}, {"rental_uris": {"ios": "https://dc.lft.to/lastmile_qr_scan", "android": "https://dc.lft.to/lastmile_qr_scan"}, "lat": 38.93421333333333, "lon": -77.02844316666666, "fusion_lat": 0.0, "name": "8dc6c6020fa21c7aff6ec28bd3de3dd0", "is_disabled": 0, "is_reserved": 0, "bike_id": "8dc6c6020fa21c7aff6ec28bd3de3dd0", "fusion_lon": 0.0, "type": "electric_scooter"}, {"rental_uris": {"ios": "https://dc.lft.to/lastmile_qr_scan", "android": "https://dc.lft.to/lastmile_qr_scan"}, "lat": 38.91926333333333, "lon": -77.00930316666667, "fusion_lat": 0.0, "name": "239b3b6108da870e71e801a8b004e6a2", "is_disabled": 0, "is_reserved": 0, "bike_id": "239b3b6108da870e71e801a8b004e6a2", "fusion_lon": 0.0, "type": "electric_scooter"}, {"rental_uris": {"ios": "https://dc.lft.to/lastmile_qr_scan", "android": "https://dc.lft.to/lastmile_qr_scan"}, "lat": 38.823677833333335, "lon": -77.00215216666666, "fusion_lat": 0.0, "name": "e6186a8b6ae48108683ad2c92ee13061", "is_disabled": 0, "is_reserved": 0, "bike_id": "e6186a8b6ae48108683ad2c92ee13061", "fusion_lon": 0.0, "type": "electric_bike"}, {"rental_uris": {"ios": "https://dc.lft.to/lastmile_qr_scan", "android": "https://dc.lft.to/lastmile_qr_scan"}, "lat": 38.859366666666666, "lon": -77.1182605, "fusion_lat": 0.0, "name": "475cf493dcd8abab2ebe73a5ce5b2f8e", "is_disabled": 0, "is_reserved": 0, "bike_id": "475cf493dcd8abab2ebe73a5ce5b2f8e", "fusion_lon": 0.0, "type": "electric_bike"}, {"rental_uris": {"ios": "https://dc.lft.to/lastmile_qr_scan", "android": "https://dc.lft.to/lastmile_qr_scan"}, "lat": 38.90737016666667, "lon": -77.06898466666667, "fusion_lat": 0.0, "name": "728306ed7e4c796b19a4146a802bad19", "is_disabled": 0, "is_reserved": 0, "bike_id": "728306ed7e4c796b19a4146a802bad19", "fusion_lon": 0.0, "type": "electric_scooter"}, {"rental_uris": {"ios": "https://dc.lft.to/lastmile_qr_scan", "android": "https://dc.lft.to/lastmile_qr_scan"}, "lat": 38.874675333333336, "lon": -77.0005495, "fusion_lat": 0.0, "name": "12a56e2bd4319c5f6d797e4cf6b08575", "is_disabled": 0, "is_reserved": 0, "bike_id": "12a56e2bd4319c5f6d797e4cf6b08575", "fusion_lon": 0.0, "type": "electric_scooter"}, {"rental_uris": {"ios": "https://dc.lft.to/lastmile_qr_scan", "android": "https://dc.lft.to/lastmile_qr_scan"}, "lat": 38.90233583333333, "lon": -77.037238, "fusion_lat": 0.0, "name": "8e0e0973527c561265a8114d1bcdda1a", "is_disabled": 0, "is_reserved": 0, "bike_id": "8e0e0973527c561265a8114d1bcdda1a", "fusion_lon": 0.0, "type": "electric_scooter"}, {"rental_uris": {"ios": "https://dc.lft.to/lastmile_qr_scan", "android": "https://dc.lft.to/lastmile_qr_scan"}, "lat": 38.900127, "lon": -77.04486516666667, "fusion_lat": 0.0, "name": "a4131fcc4837836658a3643f32386062", "is_disabled": 0, "is_reserved": 0, "bike_id": "a4131fcc4837836658a3643f32386062", "fusion_lon": 0.0, "type": "electric_scooter"}, {"rental_uris": {"ios": "https://dc.lft.to/lastmile_qr_scan", "android": "https://dc.lft.to/lastmile_qr_scan"}, "lat": 38.90032883333333, "lon": -77.00072616666667, "fusion_lat": 0.0, "name": "9467e143ebb6b16e4e870f9bbb9350fd", "is_disabled": 0, "is_reserved": 0, "bike_id": "9467e143ebb6b16e4e870f9bbb9350fd", "fusion_lon": 0.0, "type": "electric_scooter"}, {"rental_uris": {"ios": "https://dc.lft.to/lastmile_qr_scan", "android": "https://dc.lft.to/lastmile_qr_scan"}, "lat": 38.874915666666666, "lon": -76.999812, "fusion_lat": 0.0, "name": "9276c5ba054337ae9fe3ee2763c8571d", "is_disabled": 0, "is_reserved": 0, "bike_id": "9276c5ba054337ae9fe3ee2763c8571d", "fusion_lon": 0.0, "type": "electric_scooter"}, {"rental_uris": {"ios": "https://dc.lft.to/lastmile_qr_scan", "android": "https://dc.lft.to/lastmile_qr_scan"}, "lat": 38.914071, "lon": -77.02008566666666, "fusion_lat": 0.0, "name": "e3b7c448d1e6c986de82c842f00bcae1", "is_disabled": 0, "is_reserved": 0, "bike_id": "e3b7c448d1e6c986de82c842f00bcae1", "fusion_lon": 0.0, "type": "electric_scooter"}, {"rental_uris": {"ios": "https://dc.lft.to/lastmile_qr_scan", "android": "https://dc.lft.to/lastmile_qr_scan"}, "lat": 38.91420033333333, "lon": -77.0240485, "fusion_lat": 0.0, "name": "c0114a116cef60a91350a14016d5ecb8", "is_disabled": 0, "is_reserved": 0, "bike_id": "c0114a116cef60a91350a14016d5ecb8", "fusion_lon": 0.0, "type": "electric_scooter"}, {"rental_uris": {"ios": "https://dc.lft.to/lastmile_qr_scan", "android": "https://dc.lft.to/lastmile_qr_scan"}, "lat": 38.86697133333333, "lon": -76.98535266666667, "fusion_lat": 0.0, "name": "c1863b04b26cc093be943db710d93e46", "is_disabled": 0, "is_reserved": 0, "bike_id": "c1863b04b26cc093be943db710d93e46", "fusion_lon": 0.0, "type": "electric_scooter"}, {"rental_uris": {"ios": "https://dc.lft.to/lastmile_qr_scan", "android": "https://dc.lft.to/lastmile_qr_scan"}, "lat": 38.911068, "lon": -77.031813, "fusion_lat": 0.0, "name": "db4a2201d86723a2ff4bbbcae40d27ad", "is_disabled": 0, "is_reserved": 0, "bike_id": "db4a2201d86723a2ff4bbbcae40d27ad", "fusion_lon": 0.0, "type": "electric_scooter"}, {"rental_uris": {"ios": "https://dc.lft.to/lastmile_qr_scan", "android": "https://dc.lft.to/lastmile_qr_scan"}, "lat": 38.87709433333333, "lon": -77.00364066666667, "fusion_lat": 0.0, "name": "a2626fffcdeebba2710eb54ccfae64ca", "is_disabled": 0, "is_reserved": 0, "bike_id": "a2626fffcdeebba2710eb54ccfae64ca", "fusion_lon": 0.0, "type": "electric_scooter"}, {"rental_uris": {"ios": "https://dc.lft.to/lastmile_qr_scan", "android": "https://dc.lft.to/lastmile_qr_scan"}, "lat": 38.9037415, "lon": -77.04028433333333, "fusion_lat": 0.0, "name": "ecc74ed3d3b733d78ec2c1d3f81f6c2f", "is_disabled": 0, "is_reserved": 0, "bike_id": "ecc74ed3d3b733d78ec2c1d3f81f6c2f", "fusion_lon": 0.0, "type": "electric_scooter"}, {"rental_uris": {"ios": "https://dc.lft.to/lastmile_qr_scan", "android": "https://dc.lft.to/lastmile_qr_scan"}, "lat": 38.94183733333333, "lon": -77.02486583333334, "fusion_lat": 0.0, "name": "e108b68eb594b4a5c9c9bc9d310a1966", "is_disabled": 0, "is_reserved": 0, "bike_id": "e108b68eb594b4a5c9c9bc9d310a1966", "fusion_lon": 0.0, "type": "electric_scooter"}, {"rental_uris": {"ios": "https://dc.lft.to/lastmile_qr_scan", "android": "https://dc.lft.to/lastmile_qr_scan"}, "lat": 38.8959665, "lon": -77.02362233333334, "fusion_lat": 0.0, "name": "7c2f11d2cc7c2f78f3ccfd3c5c4d4c68", "is_disabled": 0, "is_reserved": 0, "bike_id": "7c2f11d2cc7c2f78f3ccfd3c5c4d4c68", "fusion_lon": 0.0, "type": "electric_scooter"}, {"rental_uris": {"ios": "https://dc.lft.to/lastmile_qr_scan", "android": "https://dc.lft.to/lastmile_qr_scan"}, "lat": 38.91890166666666, "lon": -77.02436666666667, "fusion_lat": 0.0, "name": "8825f3bccec6410ace1e2adae352e536", "is_disabled": 0, "is_reserved": 0, "bike_id": "8825f3bccec6410ace1e2adae352e536", "fusion_lon": 0.0, "type": "electric_scooter"}, {"rental_uris": {"ios": "https://dc.lft.to/lastmile_qr_scan", "android": "https://dc.lft.to/lastmile_qr_scan"}, "lat": 38.8974655, "lon": -77.02461716666667, "fusion_lat": 0.0, "name": "496db6745cbff310be062b7b940ee38d", "is_disabled": 0, "is_reserved": 0, "bike_id": "496db6745cbff310be062b7b940ee38d", "fusion_lon": 0.0, "type": "electric_scooter"}, {"rental_uris": {"ios": "https://dc.lft.to/lastmile_qr_scan", "android": "https://dc.lft.to/lastmile_qr_scan"}, "lat": 38.8843085, "lon": -76.95756016666667, "fusion_lat": 0.0, "name": "56237941b9ed13e6c6b493f1f6218b19", "is_disabled": 0, "is_reserved": 0, "bike_id": "56237941b9ed13e6c6b493f1f6218b19", "fusion_lon": 0.0, "type": "electric_scooter"}, {"rental_uris": {"ios": "https://dc.lft.to/lastmile_qr_scan", "android": "https://dc.lft.to/lastmile_qr_scan"}, "lat": 38.942436666666666, "lon": -77.03582966666667, "fusion_lat": 0.0, "name": "1971c48efdd7766f49c535492ecf8070", "is_disabled": 0, "is_reserved": 0, "bike_id": "1971c48efdd7766f49c535492ecf8070", "fusion_lon": 0.0, "type": "electric_scooter"}, {"rental_uris": {"ios": "https://dc.lft.to/lastmile_qr_scan", "android": "https://dc.lft.to/lastmile_qr_scan"}, "lat": 38.903729, "lon": -77.0269125, "fusion_lat": 0.0, "name": "c6aee33408da60c98348fd82f7ce8730", "is_disabled": 0, "is_reserved": 0, "bike_id": "c6aee33408da60c98348fd82f7ce8730", "fusion_lon": 0.0, "type": "electric_scooter"}, {"rental_uris": {"ios": "https://dc.lft.to/lastmile_qr_scan", "android": "https://dc.lft.to/lastmile_qr_scan"}, "lat": 38.92154583333333, "lon": -77.03865333333333, "fusion_lat": 0.0, "name": "852329f7584fc4daa10632bbad891672", "is_disabled": 0, "is_reserved": 0, "bike_id": "852329f7584fc4daa10632bbad891672", "fusion_lon": 0.0, "type": "electric_scooter"}, {"rental_uris": {"ios": "https://dc.lft.to/lastmile_qr_scan", "android": "https://dc.lft.to/lastmile_qr_scan"}, "lat": 38.89759316666667, "lon": -76.947048, "fusion_lat": 0.0, "name": "c50eabeb25edbe59264a05a0226e69e5", "is_disabled": 0, "is_reserved": 0, "bike_id": "c50eabeb25edbe59264a05a0226e69e5", "fusion_lon": 0.0, "type": "electric_scooter"}, {"rental_uris": {"ios": "https://dc.lft.to/lastmile_qr_scan", "android": "https://dc.lft.to/lastmile_qr_scan"}, "lat": 38.914457, "lon": -77.02592333333334, "fusion_lat": 0.0, "name": "d37481d86f8eea84be8575861db9350a", "is_disabled": 0, "is_reserved": 0, "bike_id": "d37481d86f8eea84be8575861db9350a", "fusion_lon": 0.0, "type": "electric_scooter"}, {"rental_uris": {"ios": "https://dc.lft.to/lastmile_qr_scan", "android": "https://dc.lft.to/lastmile_qr_scan"}, "lat": 38.933898166666665, "lon": -77.05740616666667, "fusion_lat": 0.0, "name": "7b096b00a7d0edf8e6d08a4a4d36d83c", "is_disabled": 0, "is_reserved": 0, "bike_id": "7b096b00a7d0edf8e6d08a4a4d36d83c", "fusion_lon": 0.0, "type": "electric_scooter"}, {"rental_uris": {"ios": "https://dc.lft.to/lastmile_qr_scan", "android": "https://dc.lft.to/lastmile_qr_scan"}, "lat": 38.92421266666667, "lon": -77.03922, "fusion_lat": 0.0, "name": "49e67c20ac24b84990bc4c3c89350751", "is_disabled": 0, "is_reserved": 0, "bike_id": "49e67c20ac24b84990bc4c3c89350751", "fusion_lon": 0.0, "type": "electric_scooter"}, {"rental_uris": {"ios": "https://dc.lft.to/lastmile_qr_scan", "android": "https://dc.lft.to/lastmile_qr_scan"}, "lat": 38.903509, "lon": -77.0396805, "fusion_lat": 0.0, "name": "ee194b1eefb33bf5c60fa0b637d19c33", "is_disabled": 0, "is_reserved": 0, "bike_id": "ee194b1eefb33bf5c60fa0b637d19c33", "fusion_lon": 0.0, "type": "electric_scooter"}, {"rental_uris": {"ios": "https://dc.lft.to/lastmile_qr_scan", "android": "https://dc.lft.to/lastmile_qr_scan"}, "lat": 38.916243, "lon": -77.022925, "fusion_lat": 0.0, "name": "38e0fcc172f18ea3e86fe3eb11b3bef5", "is_disabled": 0, "is_reserved": 0, "bike_id": "38e0fcc172f18ea3e86fe3eb11b3bef5", "fusion_lon": 0.0, "type": "electric_scooter"}, {"rental_uris": {"ios": "https://dc.lft.to/lastmile_qr_scan", "android": "https://dc.lft.to/lastmile_qr_scan"}, "lat": 38.90950516666667, "lon": -77.044083, "fusion_lat": 0.0, "name": "c4d0a0d3ea1175052c7e5e577670a22e", "is_disabled": 0, "is_reserved": 0, "bike_id": "c4d0a0d3ea1175052c7e5e577670a22e", "fusion_lon": 0.0, "type": "electric_scooter"}, {"rental_uris": {"ios": "https://dc.lft.to/lastmile_qr_scan", "android": "https://dc.lft.to/lastmile_qr_scan"}, "lat": 38.9057075, "lon": -76.97777716666667, "fusion_lat": 0.0, "name": "cfaf2e31c6fd1c7483ece4bb8d1a05fc", "is_disabled": 0, "is_reserved": 0, "bike_id": "cfaf2e31c6fd1c7483ece4bb8d1a05fc", "fusion_lon": 0.0, "type": "electric_scooter"}, {"rental_uris": {"ios": "https://dc.lft.to/lastmile_qr_scan", "android": "https://dc.lft.to/lastmile_qr_scan"}, "lat": 38.91478933333333, "lon": -77.043463, "fusion_lat": 0.0, "name": "c349151c96bd7d2eb6ac49f74c50d1d5", "is_disabled": 0, "is_reserved": 0, "bike_id": "c349151c96bd7d2eb6ac49f74c50d1d5", "fusion_lon": 0.0, "type": "electric_scooter"}, {"rental_uris": {"ios": "https://dc.lft.to/lastmile_qr_scan", "android": "https://dc.lft.to/lastmile_qr_scan"}, "lat": 38.90958966666667, "lon": -77.03402366666667, "fusion_lat": 0.0, "name": "2075beaee70c6c9d930e864b8f59edb6", "is_disabled": 0, "is_reserved": 0, "bike_id": "2075beaee70c6c9d930e864b8f59edb6", "fusion_lon": 0.0, "type": "electric_scooter"}, {"rental_uris": {"ios": "https://dc.lft.to/lastmile_qr_scan", "android": "https://dc.lft.to/lastmile_qr_scan"}, "lat": 38.92862983333333, "lon": -77.00553866666667, "fusion_lat": 0.0, "name": "4e0af48b0c449cc7470a8bc897735d33", "is_disabled": 0, "is_reserved": 0, "bike_id": "4e0af48b0c449cc7470a8bc897735d33", "fusion_lon": 0.0, "type": "electric_scooter"}, {"rental_uris": {"ios": "https://dc.lft.to/lastmile_qr_scan", "android": "https://dc.lft.to/lastmile_qr_scan"}, "lat": 38.87759, "lon": -76.98681666666667, "fusion_lat": 0.0, "name": "730eaf7abf0b4a853c45590702753d43", "is_disabled": 0, "is_reserved": 0, "bike_id": "730eaf7abf0b4a853c45590702753d43", "fusion_lon": 0.0, "type": "electric_scooter"}, {"rental_uris": {"ios": "https://dc.lft.to/lastmile_qr_scan", "android": "https://dc.lft.to/lastmile_qr_scan"}, "lat": 38.914212, "lon": -77.02407316666667, "fusion_lat": 0.0, "name": "82d406c7065a6f9e99aa28de4d40cbfb", "is_disabled": 0, "is_reserved": 0, "bike_id": "82d406c7065a6f9e99aa28de4d40cbfb", "fusion_lon": 0.0, "type": "electric_scooter"}, {"rental_uris": {"ios": "https://dc.lft.to/lastmile_qr_scan", "android": "https://dc.lft.to/lastmile_qr_scan"}, "lat": 38.88472333333333, "lon": -76.95656083333333, "fusion_lat": 0.0, "name": "364cc32ce27504690f3388128a10ed5b", "is_disabled": 0, "is_reserved": 0, "bike_id": "364cc32ce27504690f3388128a10ed5b", "fusion_lon": 0.0, "type": "electric_bike"}, {"rental_uris": {"ios": "https://dc.lft.to/lastmile_qr_scan", "android": "https://dc.lft.to/lastmile_qr_scan"}, "lat": 38.921026, "lon": -77.017708, "fusion_lat": 0.0, "name": "fe7aa9716bdb715a8902c1f9b73321ab", "is_disabled": 0, "is_reserved": 0, "bike_id": "fe7aa9716bdb715a8902c1f9b73321ab", "fusion_lon": 0.0, "type": "electric_scooter"}, {"rental_uris": {"ios": "https://dc.lft.to/lastmile_qr_scan", "android": "https://dc.lft.to/lastmile_qr_scan"}, "lat": 38.884490166666666, "lon": -76.99611766666666, "fusion_lat": 0.0, "name": "0e50bbd5338efa68e88a00edd17d557e", "is_disabled": 0, "is_reserved": 0, "bike_id": "0e50bbd5338efa68e88a00edd17d557e", "fusion_lon": 0.0, "type": "electric_scooter"}, {"rental_uris": {"ios": "https://dc.lft.to/lastmile_qr_scan", "android": "https://dc.lft.to/lastmile_qr_scan"}, "lat": 38.898134, "lon": -77.03052416666667, "fusion_lat": 0.0, "name": "f2c0560565296fff4017d765696c9257", "is_disabled": 0, "is_reserved": 0, "bike_id": "f2c0560565296fff4017d765696c9257", "fusion_lon": 0.0, "type": "electric_scooter"}, {"rental_uris": {"ios": "https://dc.lft.to/lastmile_qr_scan", "android": "https://dc.lft.to/lastmile_qr_scan"}, "lat": 38.8324565, "lon": -76.9462505, "fusion_lat": 0.0, "name": "1932b3e378cad6fd8d070b0f8ea9d7b2", "is_disabled": 0, "is_reserved": 0, "bike_id": "1932b3e378cad6fd8d070b0f8ea9d7b2", "fusion_lon": 0.0, "type": "electric_bike"}, {"rental_uris": {"ios": "https://dc.lft.to/lastmile_qr_scan", "android": "https://dc.lft.to/lastmile_qr_scan"}, "lat": 38.9231895, "lon": -77.045147, "fusion_lat": 0.0, "name": "ced1085ae182d62e67f32fff60c30698", "is_disabled": 0, "is_reserved": 0, "bike_id": "ced1085ae182d62e67f32fff60c30698", "fusion_lon": 0.0, "type": "electric_scooter"}, {"rental_uris": {"ios": "https://dc.lft.to/lastmile_qr_scan", "android": "https://dc.lft.to/lastmile_qr_scan"}, "lat": 39.03428916666667, "lon": -77.04296183333334, "fusion_lat": 0.0, "name": "d74ea25b87ccac6f39c05b869c5641da", "is_disabled": 0, "is_reserved": 0, "bike_id": "d74ea25b87ccac6f39c05b869c5641da", "fusion_lon": 0.0, "type": "electric_bike"}, {"rental_uris": {"ios": "https://dc.lft.to/lastmile_qr_scan", "android": "https://dc.lft.to/lastmile_qr_scan"}, "lat": 38.932117833333336, "lon": -77.02733416666666, "fusion_lat": 0.0, "name": "a938a75b9e241a82a405e621168c4a27", "is_disabled": 0, "is_reserved": 0, "bike_id": "a938a75b9e241a82a405e621168c4a27", "fusion_lon": 0.0, "type": "electric_scooter"}, {"rental_uris": {"ios": "https://dc.lft.to/lastmile_qr_scan", "android": "https://dc.lft.to/lastmile_qr_scan"}, "lat": 38.908528833333335, "lon": -76.99802933333333, "fusion_lat": 0.0, "name": "b1b3185b716b477f0c081514714c7acf", "is_disabled": 0, "is_reserved": 0, "bike_id": "b1b3185b716b477f0c081514714c7acf", "fusion_lon": 0.0, "type": "electric_scooter"}, {"rental_uris": {"ios": "https://dc.lft.to/lastmile_qr_scan", "android": "https://dc.lft.to/lastmile_qr_scan"}, "lat": 38.89569433333333, "lon": -76.930252, "fusion_lat": 0.0, "name": "08ba5f2d7ed485bde4b7a229ae2570fa", "is_disabled": 0, "is_reserved": 0, "bike_id": "08ba5f2d7ed485bde4b7a229ae2570fa", "fusion_lon": 0.0, "type": "electric_scooter"}, {"rental_uris": {"ios": "https://dc.lft.to/lastmile_qr_scan", "android": "https://dc.lft.to/lastmile_qr_scan"}, "lat": 38.9061375, "lon": -77.0121, "fusion_lat": 0.0, "name": "f0ef178ad21b76c60145558e87ebdcb5", "is_disabled": 0, "is_reserved": 0, "bike_id": "f0ef178ad21b76c60145558e87ebdcb5", "fusion_lon": 0.0, "type": "electric_scooter"}, {"rental_uris": {"ios": "https://dc.lft.to/lastmile_qr_scan", "android": "https://dc.lft.to/lastmile_qr_scan"}, "lat": 38.9007645, "lon": -77.02711516666666, "fusion_lat": 0.0, "name": "a317345ef1e95d18d7704e44b525956f", "is_disabled": 0, "is_reserved": 0, "bike_id": "a317345ef1e95d18d7704e44b525956f", "fusion_lon": 0.0, "type": "electric_scooter"}, {"rental_uris": {"ios": "https://dc.lft.to/lastmile_qr_scan", "android": "https://dc.lft.to/lastmile_qr_scan"}, "lat": 38.85418833333333, "lon": -77.12073716666667, "fusion_lat": 0.0, "name": "b83fb37c282f295c76fa9d44b22113d5", "is_disabled": 0, "is_reserved": 0, "bike_id": "b83fb37c282f295c76fa9d44b22113d5", "fusion_lon": 0.0, "type": "electric_bike"}, {"rental_uris": {"ios": "https://dc.lft.to/lastmile_qr_scan", "android": "https://dc.lft.to/lastmile_qr_scan"}, "lat": 38.92123633333333, "lon": -77.01206166666667, "fusion_lat": 0.0, "name": "a08235e5a1ba49760ff7059f0d8bf013", "is_disabled": 0, "is_reserved": 0, "bike_id": "a08235e5a1ba49760ff7059f0d8bf013", "fusion_lon": 0.0, "type": "electric_scooter"}, {"rental_uris": {"ios": "https://dc.lft.to/lastmile_qr_scan", "android": "https://dc.lft.to/lastmile_qr_scan"}, "lat": 38.904201, "lon": -76.97376416666667, "fusion_lat": 0.0, "name": "ee2f77f6eb9c6f20de33dcf058d850fd", "is_disabled": 0, "is_reserved": 0, "bike_id": "ee2f77f6eb9c6f20de33dcf058d850fd", "fusion_lon": 0.0, "type": "electric_scooter"}, {"rental_uris": {"ios": "https://dc.lft.to/lastmile_qr_scan", "android": "https://dc.lft.to/lastmile_qr_scan"}, "lat": 38.904153666666666, "lon": -77.0533705, "fusion_lat": 0.0, "name": "53f75d3cb36dc41a7e276637efdfbaea", "is_disabled": 0, "is_reserved": 0, "bike_id": "53f75d3cb36dc41a7e276637efdfbaea", "fusion_lon": 0.0, "type": "electric_scooter"}, {"rental_uris": {"ios": "https://dc.lft.to/lastmile_qr_scan", "android": "https://dc.lft.to/lastmile_qr_scan"}, "lat": 38.898271333333334, "lon": -77.03323833333333, "fusion_lat": 0.0, "name": "13fcc966a7349025a3007086eb5791d8", "is_disabled": 0, "is_reserved": 0, "bike_id": "13fcc966a7349025a3007086eb5791d8", "fusion_lon": 0.0, "type": "electric_scooter"}, {"rental_uris": {"ios": "https://dc.lft.to/lastmile_qr_scan", "android": "https://dc.lft.to/lastmile_qr_scan"}, "lat": 38.90553883333333, "lon": -77.04185833333334, "fusion_lat": 0.0, "name": "47d5ec850e7340e319b00667893a7300", "is_disabled": 0, "is_reserved": 0, "bike_id": "47d5ec850e7340e319b00667893a7300", "fusion_lon": 0.0, "type": "electric_scooter"}, {"rental_uris": {"ios": "https://dc.lft.to/lastmile_qr_scan", "android": "https://dc.lft.to/lastmile_qr_scan"}, "lat": 38.846139666666666, "lon": -76.96911466666667, "fusion_lat": 0.0, "name": "2d4390f0672b1a5c1b003ca5954a1c9f", "is_disabled": 0, "is_reserved": 0, "bike_id": "2d4390f0672b1a5c1b003ca5954a1c9f", "fusion_lon": 0.0, "type": "electric_bike"}, {"rental_uris": {"ios": "https://dc.lft.to/lastmile_qr_scan", "android": "https://dc.lft.to/lastmile_qr_scan"}, "lat": 38.865722, "lon": -76.98217233333334, "fusion_lat": 0.0, "name": "6fcd3789020529ccb33c1dbc499fed6b", "is_disabled": 0, "is_reserved": 0, "bike_id": "6fcd3789020529ccb33c1dbc499fed6b", "fusion_lon": 0.0, "type": "electric_scooter"}, {"rental_uris": {"ios": "https://dc.lft.to/lastmile_qr_scan", "android": "https://dc.lft.to/lastmile_qr_scan"}, "lat": 38.900336, "lon": -76.99900816666667, "fusion_lat": 0.0, "name": "9838b533164a64086bf123ba5016d4d1", "is_disabled": 0, "is_reserved": 0, "bike_id": "9838b533164a64086bf123ba5016d4d1", "fusion_lon": 0.0, "type": "electric_scooter"}, {"rental_uris": {"ios": "https://dc.lft.to/lastmile_qr_scan", "android": "https://dc.lft.to/lastmile_qr_scan"}, "lat": 38.91413333333333, "lon": -77.03810216666666, "fusion_lat": 0.0, "name": "21e2a01becf4ce2a8b38af83d47636be", "is_disabled": 0, "is_reserved": 0, "bike_id": "21e2a01becf4ce2a8b38af83d47636be", "fusion_lon": 0.0, "type": "electric_scooter"}, {"rental_uris": {"ios": "https://dc.lft.to/lastmile_qr_scan", "android": "https://dc.lft.to/lastmile_qr_scan"}, "lat": 38.892330333333334, "lon": -77.02452716666667, "fusion_lat": 0.0, "name": "46efe8b89930bbe05e93b066f93eab00", "is_disabled": 0, "is_reserved": 0, "bike_id": "46efe8b89930bbe05e93b066f93eab00", "fusion_lon": 0.0, "type": "electric_scooter"}, {"rental_uris": {"ios": "https://dc.lft.to/lastmile_qr_scan", "android": "https://dc.lft.to/lastmile_qr_scan"}, "lat": 38.93793016666667, "lon": -77.03334283333334, "fusion_lat": 0.0, "name": "70c8b3c061c038bcfe83cb106723718d", "is_disabled": 0, "is_reserved": 0, "bike_id": "70c8b3c061c038bcfe83cb106723718d", "fusion_lon": 0.0, "type": "electric_scooter"}, {"rental_uris": {"ios": "https://dc.lft.to/lastmile_qr_scan", "android": "https://dc.lft.to/lastmile_qr_scan"}, "lat": 38.90177833333333, "lon": -77.02487816666667, "fusion_lat": 0.0, "name": "c4d6bac4143a5b0f1a6510ba46e4a71e", "is_disabled": 0, "is_reserved": 0, "bike_id": "c4d6bac4143a5b0f1a6510ba46e4a71e", "fusion_lon": 0.0, "type": "electric_scooter"}, {"rental_uris": {"ios": "https://dc.lft.to/lastmile_qr_scan", "android": "https://dc.lft.to/lastmile_qr_scan"}, "lat": 38.89243716666667, "lon": -77.0334605, "fusion_lat": 0.0, "name": "51ff207939c83243addcc5936a232df1", "is_disabled": 0, "is_reserved": 0, "bike_id": "51ff207939c83243addcc5936a232df1", "fusion_lon": 0.0, "type": "electric_scooter"}, {"rental_uris": {"ios": "https://dc.lft.to/lastmile_qr_scan", "android": "https://dc.lft.to/lastmile_qr_scan"}, "lat": 38.86658416666667, "lon": -76.988883, "fusion_lat": 0.0, "name": "c2698bbb9e539698703f8e487600d065", "is_disabled": 0, "is_reserved": 0, "bike_id": "c2698bbb9e539698703f8e487600d065", "fusion_lon": 0.0, "type": "electric_scooter"}, {"rental_uris": {"ios": "https://dc.lft.to/lastmile_qr_scan", "android": "https://dc.lft.to/lastmile_qr_scan"}, "lat": 38.925790166666665, "lon": -77.0542115, "fusion_lat": 0.0, "name": "4f50c7ddea2485b27b5bcd7a575b88e8", "is_disabled": 0, "is_reserved": 0, "bike_id": "4f50c7ddea2485b27b5bcd7a575b88e8", "fusion_lon": 0.0, "type": "electric_scooter"}, {"rental_uris": {"ios": "https://dc.lft.to/lastmile_qr_scan", "android": "https://dc.lft.to/lastmile_qr_scan"}, "lat": 38.899597166666666, "lon": -76.97533183333333, "fusion_lat": 0.0, "name": "e5a212e7bfd112bfab765509fc5ad53b", "is_disabled": 0, "is_reserved": 0, "bike_id": "e5a212e7bfd112bfab765509fc5ad53b", "fusion_lon": 0.0, "type": "electric_scooter"}, {"rental_uris": {"ios": "https://dc.lft.to/lastmile_qr_scan", "android": "https://dc.lft.to/lastmile_qr_scan"}, "lat": 38.862478, "lon": -76.9949675, "fusion_lat": 0.0, "name": "60b61acbf491dd6d46d238eb90af62f1", "is_disabled": 0, "is_reserved": 0, "bike_id": "60b61acbf491dd6d46d238eb90af62f1", "fusion_lon": 0.0, "type": "electric_scooter"}, {"rental_uris": {"ios": "https://dc.lft.to/lastmile_qr_scan", "android": "https://dc.lft.to/lastmile_qr_scan"}, "lat": 38.91616333333333, "lon": -77.03218833333334, "fusion_lat": 0.0, "name": "81ee0b27e7f4917056e0f6b17e207fb6", "is_disabled": 0, "is_reserved": 0, "bike_id": "81ee0b27e7f4917056e0f6b17e207fb6", "fusion_lon": 0.0, "type": "electric_scooter"}, {"rental_uris": {"ios": "https://dc.lft.to/lastmile_qr_scan", "android": "https://dc.lft.to/lastmile_qr_scan"}, "lat": 38.86685933333333, "lon": -76.98573733333333, "fusion_lat": 0.0, "name": "c43892bdd694545c9882c3038ae9db1c", "is_disabled": 0, "is_reserved": 0, "bike_id": "c43892bdd694545c9882c3038ae9db1c", "fusion_lon": 0.0, "type": "electric_scooter"}, {"rental_uris": {"ios": "https://dc.lft.to/lastmile_qr_scan", "android": "https://dc.lft.to/lastmile_qr_scan"}, "lat": 38.95419733333333, "lon": -76.9813415, "fusion_lat": 0.0, "name": "6f32911061d89cffef8e5279f089e333", "is_disabled": 0, "is_reserved": 0, "bike_id": "6f32911061d89cffef8e5279f089e333", "fusion_lon": 0.0, "type": "electric_bike"}, {"rental_uris": {"ios": "https://dc.lft.to/lastmile_qr_scan", "android": "https://dc.lft.to/lastmile_qr_scan"}, "lat": 38.925394833333335, "lon": -77.02139333333334, "fusion_lat": 0.0, "name": "71304b2be035ab24df0866441b1d1608", "is_disabled": 0, "is_reserved": 0, "bike_id": "71304b2be035ab24df0866441b1d1608", "fusion_lon": 0.0, "type": "electric_scooter"}, {"rental_uris": {"ios": "https://dc.lft.to/lastmile_qr_scan", "android": "https://dc.lft.to/lastmile_qr_scan"}, "lat": 38.900296166666664, "lon": -77.0118095, "fusion_lat": 0.0, "name": "b15faf7e9bbb1fa7eec544c3a3f1f502", "is_disabled": 0, "is_reserved": 0, "bike_id": "b15faf7e9bbb1fa7eec544c3a3f1f502", "fusion_lon": 0.0, "type": "electric_scooter"}, {"rental_uris": {"ios": "https://dc.lft.to/lastmile_qr_scan", "android": "https://dc.lft.to/lastmile_qr_scan"}, "lat": 38.906944833333334, "lon": -77.023878, "fusion_lat": 0.0, "name": "2f65f3cd94579635be0306325ba98c9e", "is_disabled": 0, "is_reserved": 0, "bike_id": "2f65f3cd94579635be0306325ba98c9e", "fusion_lon": 0.0, "type": "electric_scooter"}, {"rental_uris": {"ios": "https://dc.lft.to/lastmile_qr_scan", "android": "https://dc.lft.to/lastmile_qr_scan"}, "lat": 38.9322715, "lon": -77.03859233333333, "fusion_lat": 0.0, "name": "77a2601d22fe21d55fcb008786171c8f", "is_disabled": 0, "is_reserved": 0, "bike_id": "77a2601d22fe21d55fcb008786171c8f", "fusion_lon": 0.0, "type": "electric_scooter"}, {"rental_uris": {"ios": "https://dc.lft.to/lastmile_qr_scan", "android": "https://dc.lft.to/lastmile_qr_scan"}, "lat": 38.922715333333336, "lon": -77.03675816666667, "fusion_lat": 0.0, "name": "2f4ed6274122e62013bb83e003b7b879", "is_disabled": 0, "is_reserved": 0, "bike_id": "2f4ed6274122e62013bb83e003b7b879", "fusion_lon": 0.0, "type": "electric_scooter"}, {"rental_uris": {"ios": "https://dc.lft.to/lastmile_qr_scan", "android": "https://dc.lft.to/lastmile_qr_scan"}, "lat": 38.900855666666665, "lon": -77.02732233333333, "fusion_lat": 0.0, "name": "f1fe7e64b468bbd39daa3390e999a6b9", "is_disabled": 0, "is_reserved": 0, "bike_id": "f1fe7e64b468bbd39daa3390e999a6b9", "fusion_lon": 0.0, "type": "electric_scooter"}, {"rental_uris": {"ios": "https://dc.lft.to/lastmile_qr_scan", "android": "https://dc.lft.to/lastmile_qr_scan"}, "lat": 38.933462166666665, "lon": -77.06205, "fusion_lat": 0.0, "name": "a0a22c9ba517b39c93e2367f222bc64d", "is_disabled": 0, "is_reserved": 0, "bike_id": "a0a22c9ba517b39c93e2367f222bc64d", "fusion_lon": 0.0, "type": "electric_scooter"}, {"rental_uris": {"ios": "https://dc.lft.to/lastmile_qr_scan", "android": "https://dc.lft.to/lastmile_qr_scan"}, "lat": 38.916924333333334, "lon": -77.04083216666666, "fusion_lat": 0.0, "name": "d1cf4b54e0d217df6e3c4bfa1cc383b7", "is_disabled": 0, "is_reserved": 0, "bike_id": "d1cf4b54e0d217df6e3c4bfa1cc383b7", "fusion_lon": 0.0, "type": "electric_scooter"}, {"rental_uris": {"ios": "https://dc.lft.to/lastmile_qr_scan", "android": "https://dc.lft.to/lastmile_qr_scan"}, "lat": 38.912447, "lon": -76.98997366666667, "fusion_lat": 0.0, "name": "2248ceff588ceb9507ae41b4528f4c2e", "is_disabled": 0, "is_reserved": 0, "bike_id": "2248ceff588ceb9507ae41b4528f4c2e", "fusion_lon": 0.0, "type": "electric_bike"}, {"rental_uris": {"ios": "https://dc.lft.to/lastmile_qr_scan", "android": "https://dc.lft.to/lastmile_qr_scan"}, "lat": 38.89827866666667, "lon": -77.02727833333333, "fusion_lat": 0.0, "name": "677f82d4e28e57cec18affed31b3115f", "is_disabled": 0, "is_reserved": 0, "bike_id": "677f82d4e28e57cec18affed31b3115f", "fusion_lon": 0.0, "type": "electric_scooter"}, {"rental_uris": {"ios": "https://dc.lft.to/lastmile_qr_scan", "android": "https://dc.lft.to/lastmile_qr_scan"}, "lat": 38.92284183333334, "lon": -77.0423675, "fusion_lat": 0.0, "name": "59b95aa3c5378e151e03128b2a2c35f1", "is_disabled": 0, "is_reserved": 0, "bike_id": "59b95aa3c5378e151e03128b2a2c35f1", "fusion_lon": 0.0, "type": "electric_scooter"}, {"rental_uris": {"ios": "https://dc.lft.to/lastmile_qr_scan", "android": "https://dc.lft.to/lastmile_qr_scan"}, "lat": 38.90364783333333, "lon": -77.04501, "fusion_lat": 0.0, "name": "a4750a606af5a2d2b84f564c934c6724", "is_disabled": 0, "is_reserved": 0, "bike_id": "a4750a606af5a2d2b84f564c934c6724", "fusion_lon": 0.0, "type": "electric_scooter"}, {"rental_uris": {"ios": "https://dc.lft.to/lastmile_qr_scan", "android": "https://dc.lft.to/lastmile_qr_scan"}, "lat": 38.865066166666665, "lon": -76.99001316666667, "fusion_lat": 0.0, "name": "3dc952cc608e3b3ce26087f773f60f86", "is_disabled": 0, "is_reserved": 0, "bike_id": "3dc952cc608e3b3ce26087f773f60f86", "fusion_lon": 0.0, "type": "electric_scooter"}, {"rental_uris": {"ios": "https://dc.lft.to/lastmile_qr_scan", "android": "https://dc.lft.to/lastmile_qr_scan"}, "lat": 38.85361433333333, "lon": -77.08683016666667, "fusion_lat": 0.0, "name": "4b1bb34d8ad2deb31a96a1fc7bd2eeae", "is_disabled": 0, "is_reserved": 0, "bike_id": "4b1bb34d8ad2deb31a96a1fc7bd2eeae", "fusion_lon": 0.0, "type": "electric_bike"}, {"rental_uris": {"ios": "https://dc.lft.to/lastmile_qr_scan", "android": "https://dc.lft.to/lastmile_qr_scan"}, "lat": 38.92323616666667, "lon": -77.03672283333333, "fusion_lat": 0.0, "name": "e00eda762bf797eddd95f9bef51c6138", "is_disabled": 0, "is_reserved": 0, "bike_id": "e00eda762bf797eddd95f9bef51c6138", "fusion_lon": 0.0, "type": "electric_scooter"}, {"rental_uris": {"ios": "https://dc.lft.to/lastmile_qr_scan", "android": "https://dc.lft.to/lastmile_qr_scan"}, "lat": 38.955678, "lon": -77.0271935, "fusion_lat": 0.0, "name": "ecad9cf9444644504b935c0d86c1deae", "is_disabled": 0, "is_reserved": 0, "bike_id": "ecad9cf9444644504b935c0d86c1deae", "fusion_lon": 0.0, "type": "electric_scooter"}, {"rental_uris": {"ios": "https://dc.lft.to/lastmile_qr_scan", "android": "https://dc.lft.to/lastmile_qr_scan"}, "lat": 38.91557233333333, "lon": -77.02565066666666, "fusion_lat": 0.0, "name": "5597b51a61e71c33d4dcf605c7405b06", "is_disabled": 0, "is_reserved": 0, "bike_id": "5597b51a61e71c33d4dcf605c7405b06", "fusion_lon": 0.0, "type": "electric_scooter"}, {"rental_uris": {"ios": "https://dc.lft.to/lastmile_qr_scan", "android": "https://dc.lft.to/lastmile_qr_scan"}, "lat": 38.91412866666667, "lon": -77.026135, "fusion_lat": 0.0, "name": "8b168f357abecf90f33d4ac6c8f12f8f", "is_disabled": 0, "is_reserved": 0, "bike_id": "8b168f357abecf90f33d4ac6c8f12f8f", "fusion_lon": 0.0, "type": "electric_scooter"}, {"rental_uris": {"ios": "https://dc.lft.to/lastmile_qr_scan", "android": "https://dc.lft.to/lastmile_qr_scan"}, "lat": 38.914761166666665, "lon": -77.04345433333333, "fusion_lat": 0.0, "name": "37f0aa1bee88dbea11338da1155c044b", "is_disabled": 0, "is_reserved": 0, "bike_id": "37f0aa1bee88dbea11338da1155c044b", "fusion_lon": 0.0, "type": "electric_scooter"}, {"rental_uris": {"ios": "https://dc.lft.to/lastmile_qr_scan", "android": "https://dc.lft.to/lastmile_qr_scan"}, "lat": 38.93672133333333, "lon": -76.95205283333334, "fusion_lat": 0.0, "name": "fa4a7f1abf92e00f8a566628cae98f91", "is_disabled": 0, "is_reserved": 0, "bike_id": "fa4a7f1abf92e00f8a566628cae98f91", "fusion_lon": 0.0, "type": "electric_bike"}, {"rental_uris": {"ios": "https://dc.lft.to/lastmile_qr_scan", "android": "https://dc.lft.to/lastmile_qr_scan"}, "lat": 38.9419805, "lon": -77.02434916666667, "fusion_lat": 0.0, "name": "7826637c5781a9b9812f1bfda93b8ad5", "is_disabled": 0, "is_reserved": 0, "bike_id": "7826637c5781a9b9812f1bfda93b8ad5", "fusion_lon": 0.0, "type": "electric_scooter"}, {"rental_uris": {"ios": "https://dc.lft.to/lastmile_qr_scan", "android": "https://dc.lft.to/lastmile_qr_scan"}, "lat": 38.9845195, "lon": -77.02643316666666, "fusion_lat": 0.0, "name": "ec4fc2f9357fff426762de4c8986e0c9", "is_disabled": 0, "is_reserved": 0, "bike_id": "ec4fc2f9357fff426762de4c8986e0c9", "fusion_lon": 0.0, "type": "electric_scooter"}, {"rental_uris": {"ios": "https://dc.lft.to/lastmile_qr_scan", "android": "https://dc.lft.to/lastmile_qr_scan"}, "lat": 38.92642033333333, "lon": -76.98421633333334, "fusion_lat": 0.0, "name": "7aa0735f227486b84f1a8dad3440b27f", "is_disabled": 0, "is_reserved": 0, "bike_id": "7aa0735f227486b84f1a8dad3440b27f", "fusion_lon": 0.0, "type": "electric_bike"}, {"rental_uris": {"ios": "https://dc.lft.to/lastmile_qr_scan", "android": "https://dc.lft.to/lastmile_qr_scan"}, "lat": 38.90207016666667, "lon": -76.97411016666666, "fusion_lat": 0.0, "name": "57e463d2fece54170ebba7cbf1d934f7", "is_disabled": 0, "is_reserved": 0, "bike_id": "57e463d2fece54170ebba7cbf1d934f7", "fusion_lon": 0.0, "type": "electric_bike"}, {"rental_uris": {"ios": "https://dc.lft.to/lastmile_qr_scan", "android": "https://dc.lft.to/lastmile_qr_scan"}, "lat": 38.924568666666666, "lon": -77.22555066666666, "fusion_lat": 0.0, "name": "5163e0e5bbe060776327391c4cd7c364", "is_disabled": 0, "is_reserved": 0, "bike_id": "5163e0e5bbe060776327391c4cd7c364", "fusion_lon": 0.0, "type": "electric_bike"}, {"rental_uris": {"ios": "https://dc.lft.to/lastmile_qr_scan", "android": "https://dc.lft.to/lastmile_qr_scan"}, "lat": 38.90685366666666, "lon": -77.0237985, "fusion_lat": 0.0, "name": "f2ffd71b97b58043907ddbb7358ca7e2", "is_disabled": 0, "is_reserved": 0, "bike_id": "f2ffd71b97b58043907ddbb7358ca7e2", "fusion_lon": 0.0, "type": "electric_scooter"}, {"rental_uris": {"ios": "https://dc.lft.to/lastmile_qr_scan", "android": "https://dc.lft.to/lastmile_qr_scan"}, "lat": 38.9020285, "lon": -77.0129945, "fusion_lat": 0.0, "name": "590228d96acd52562191d3a3c6752576", "is_disabled": 0, "is_reserved": 0, "bike_id": "590228d96acd52562191d3a3c6752576", "fusion_lon": 0.0, "type": "electric_scooter"}, {"rental_uris": {"ios": "https://dc.lft.to/lastmile_qr_scan", "android": "https://dc.lft.to/lastmile_qr_scan"}, "lat": 38.905297, "lon": -77.0417785, "fusion_lat": 0.0, "name": "9b146dce26a823e066a8ed6bce920c86", "is_disabled": 0, "is_reserved": 0, "bike_id": "9b146dce26a823e066a8ed6bce920c86", "fusion_lon": 0.0, "type": "electric_scooter"}, {"rental_uris": {"ios": "https://dc.lft.to/lastmile_qr_scan", "android": "https://dc.lft.to/lastmile_qr_scan"}, "lat": 38.927284666666665, "lon": -77.00561116666667, "fusion_lat": 0.0, "name": "1695fddfe40e106e53e70e99e08b23a2", "is_disabled": 0, "is_reserved": 0, "bike_id": "1695fddfe40e106e53e70e99e08b23a2", "fusion_lon": 0.0, "type": "electric_scooter"}, {"rental_uris": {"ios": "https://dc.lft.to/lastmile_qr_scan", "android": "https://dc.lft.to/lastmile_qr_scan"}, "lat": 38.90362233333333, "lon": -77.031676, "fusion_lat": 0.0, "name": "2678b8628789d31dab5bac0ea06613de", "is_disabled": 0, "is_reserved": 0, "bike_id": "2678b8628789d31dab5bac0ea06613de", "fusion_lon": 0.0, "type": "electric_scooter"}, {"rental_uris": {"ios": "https://dc.lft.to/lastmile_qr_scan", "android": "https://dc.lft.to/lastmile_qr_scan"}, "lat": 38.9168655, "lon": -77.0295395, "fusion_lat": 0.0, "name": "7e62f788623889915b99acd7c916ad46", "is_disabled": 0, "is_reserved": 0, "bike_id": "7e62f788623889915b99acd7c916ad46", "fusion_lon": 0.0, "type": "electric_scooter"}, {"rental_uris": {"ios": "https://dc.lft.to/lastmile_qr_scan", "android": "https://dc.lft.to/lastmile_qr_scan"}, "lat": 38.9126695, "lon": -77.02212333333334, "fusion_lat": 0.0, "name": "351997f8149b2a6c2a0750e7536d8dc3", "is_disabled": 0, "is_reserved": 0, "bike_id": "351997f8149b2a6c2a0750e7536d8dc3", "fusion_lon": 0.0, "type": "electric_scooter"}, {"rental_uris": {"ios": "https://dc.lft.to/lastmile_qr_scan", "android": "https://dc.lft.to/lastmile_qr_scan"}, "lat": 38.891069, "lon": -77.00193766666666, "fusion_lat": 0.0, "name": "a4cf62acbfff2ee4c698f17a55eccf87", "is_disabled": 0, "is_reserved": 0, "bike_id": "a4cf62acbfff2ee4c698f17a55eccf87", "fusion_lon": 0.0, "type": "electric_scooter"}, {"rental_uris": {"ios": "https://dc.lft.to/lastmile_qr_scan", "android": "https://dc.lft.to/lastmile_qr_scan"}, "lat": 38.8950835, "lon": -77.043437, "fusion_lat": 0.0, "name": "29e3cafc2e913d4f82ffa98d413b0714", "is_disabled": 0, "is_reserved": 0, "bike_id": "29e3cafc2e913d4f82ffa98d413b0714", "fusion_lon": 0.0, "type": "electric_scooter"}, {"rental_uris": {"ios": "https://dc.lft.to/lastmile_qr_scan", "android": "https://dc.lft.to/lastmile_qr_scan"}, "lat": 38.95637983333334, "lon": -77.03629666666667, "fusion_lat": 0.0, "name": "a829f83d0f2c0118ac46c559ef06106d", "is_disabled": 0, "is_reserved": 0, "bike_id": "a829f83d0f2c0118ac46c559ef06106d", "fusion_lon": 0.0, "type": "electric_scooter"}, {"rental_uris": {"ios": "https://dc.lft.to/lastmile_qr_scan", "android": "https://dc.lft.to/lastmile_qr_scan"}, "lat": 38.925273, "lon": -77.041148, "fusion_lat": 0.0, "name": "23bd8e0f41e61bdddba041074d9604ff", "is_disabled": 0, "is_reserved": 0, "bike_id": "23bd8e0f41e61bdddba041074d9604ff", "fusion_lon": 0.0, "type": "electric_scooter"}, {"rental_uris": {"ios": "https://dc.lft.to/lastmile_qr_scan", "android": "https://dc.lft.to/lastmile_qr_scan"}, "lat": 38.907889833333336, "lon": -77.02690883333334, "fusion_lat": 0.0, "name": "96eb4da0e52516555ec004104050168b", "is_disabled": 0, "is_reserved": 0, "bike_id": "96eb4da0e52516555ec004104050168b", "fusion_lon": 0.0, "type": "electric_scooter"}, {"rental_uris": {"ios": "https://dc.lft.to/lastmile_qr_scan", "android": "https://dc.lft.to/lastmile_qr_scan"}, "lat": 38.88398316666667, "lon": -76.96053516666667, "fusion_lat": 0.0, "name": "d98b60f9942b1d8c071439c86e1fda1b", "is_disabled": 0, "is_reserved": 0, "bike_id": "d98b60f9942b1d8c071439c86e1fda1b", "fusion_lon": 0.0, "type": "electric_bike"}, {"rental_uris": {"ios": "https://dc.lft.to/lastmile_qr_scan", "android": "https://dc.lft.to/lastmile_qr_scan"}, "lat": 38.89242333333333, "lon": -77.03346966666666, "fusion_lat": 0.0, "name": "5906023052ad20b9516c7086ab1d800d", "is_disabled": 0, "is_reserved": 0, "bike_id": "5906023052ad20b9516c7086ab1d800d", "fusion_lon": 0.0, "type": "electric_scooter"}, {"rental_uris": {"ios": "https://dc.lft.to/lastmile_qr_scan", "android": "https://dc.lft.to/lastmile_qr_scan"}, "lat": 38.91558366666667, "lon": -77.03046733333333, "fusion_lat": 0.0, "name": "41a1b02ce3744003937b9cc5878f4551", "is_disabled": 0, "is_reserved": 0, "bike_id": "41a1b02ce3744003937b9cc5878f4551", "fusion_lon": 0.0, "type": "electric_scooter"}, {"rental_uris": {"ios": "https://dc.lft.to/lastmile_qr_scan", "android": "https://dc.lft.to/lastmile_qr_scan"}, "lat": 38.90976966666667, "lon": -77.03440983333333, "fusion_lat": 0.0, "name": "8f9bb042e0d117d7489cdba11670d103", "is_disabled": 0, "is_reserved": 0, "bike_id": "8f9bb042e0d117d7489cdba11670d103", "fusion_lon": 0.0, "type": "electric_scooter"}, {"rental_uris": {"ios": "https://dc.lft.to/lastmile_qr_scan", "android": "https://dc.lft.to/lastmile_qr_scan"}, "lat": 39.05117583333333, "lon": -77.11736283333333, "fusion_lat": 0.0, "name": "00e2381d2c85d455f7ff3c5195b4c948", "is_disabled": 0, "is_reserved": 0, "bike_id": "00e2381d2c85d455f7ff3c5195b4c948", "fusion_lon": 0.0, "type": "electric_bike"}, {"rental_uris": {"ios": "https://dc.lft.to/lastmile_qr_scan", "android": "https://dc.lft.to/lastmile_qr_scan"}, "lat": 38.928790666666664, "lon": -77.033345, "fusion_lat": 0.0, "name": "ebe9180b0183c94e067d064957acf407", "is_disabled": 0, "is_reserved": 0, "bike_id": "ebe9180b0183c94e067d064957acf407", "fusion_lon": 0.0, "type": "electric_scooter"}, {"rental_uris": {"ios": "https://dc.lft.to/lastmile_qr_scan", "android": "https://dc.lft.to/lastmile_qr_scan"}, "lat": 38.90627416666667, "lon": -77.02600316666667, "fusion_lat": 0.0, "name": "25bd2a86ad5f6ca7d63131c117c270a9", "is_disabled": 0, "is_reserved": 0, "bike_id": "25bd2a86ad5f6ca7d63131c117c270a9", "fusion_lon": 0.0, "type": "electric_scooter"}, {"rental_uris": {"ios": "https://dc.lft.to/lastmile_qr_scan", "android": "https://dc.lft.to/lastmile_qr_scan"}, "lat": 38.895176, "lon": -77.022837, "fusion_lat": 0.0, "name": "bcb2fb28b9e026e1d48bfced0fd4d3bb", "is_disabled": 0, "is_reserved": 0, "bike_id": "bcb2fb28b9e026e1d48bfced0fd4d3bb", "fusion_lon": 0.0, "type": "electric_scooter"}, {"rental_uris": {"ios": "https://dc.lft.to/lastmile_qr_scan", "android": "https://dc.lft.to/lastmile_qr_scan"}, "lat": 38.915078, "lon": -77.017692, "fusion_lat": 0.0, "name": "05ff82057453d50ef2113d1df05deab0", "is_disabled": 0, "is_reserved": 0, "bike_id": "05ff82057453d50ef2113d1df05deab0", "fusion_lon": 0.0, "type": "electric_scooter"}, {"rental_uris": {"ios": "https://dc.lft.to/lastmile_qr_scan", "android": "https://dc.lft.to/lastmile_qr_scan"}, "lat": 38.95633216666667, "lon": -77.01151683333333, "fusion_lat": 0.0, "name": "a5eacafcdb6526671eece0456b1f5e48", "is_disabled": 0, "is_reserved": 0, "bike_id": "a5eacafcdb6526671eece0456b1f5e48", "fusion_lon": 0.0, "type": "electric_scooter"}, {"rental_uris": {"ios": "https://dc.lft.to/lastmile_qr_scan", "android": "https://dc.lft.to/lastmile_qr_scan"}, "lat": 38.876575, "lon": -77.00443333333334, "fusion_lat": 0.0, "name": "f424b1bb1b239292f221b32adc010cfc", "is_disabled": 0, "is_reserved": 0, "bike_id": "f424b1bb1b239292f221b32adc010cfc", "fusion_lon": 0.0, "type": "electric_scooter"}, {"rental_uris": {"ios": "https://dc.lft.to/lastmile_qr_scan", "android": "https://dc.lft.to/lastmile_qr_scan"}, "lat": 38.886535333333335, "lon": -77.0011835, "fusion_lat": 0.0, "name": "68351b35ce3b3b08c91a3fee347728cc", "is_disabled": 0, "is_reserved": 0, "bike_id": "68351b35ce3b3b08c91a3fee347728cc", "fusion_lon": 0.0, "type": "electric_scooter"}, {"rental_uris": {"ios": "https://dc.lft.to/lastmile_qr_scan", "android": "https://dc.lft.to/lastmile_qr_scan"}, "lat": 38.901957333333335, "lon": -77.02119533333334, "fusion_lat": 0.0, "name": "d5265384c8959c141d830577270e38dc", "is_disabled": 0, "is_reserved": 0, "bike_id": "d5265384c8959c141d830577270e38dc", "fusion_lon": 0.0, "type": "electric_scooter"}, {"rental_uris": {"ios": "https://dc.lft.to/lastmile_qr_scan", "android": "https://dc.lft.to/lastmile_qr_scan"}, "lat": 38.7986035, "lon": -77.06302316666667, "fusion_lat": 0.0, "name": "873697b50fc0a75088b3682a5ab35415", "is_disabled": 0, "is_reserved": 0, "bike_id": "873697b50fc0a75088b3682a5ab35415", "fusion_lon": 0.0, "type": "electric_bike"}, {"rental_uris": {"ios": "https://dc.lft.to/lastmile_qr_scan", "android": "https://dc.lft.to/lastmile_qr_scan"}, "lat": 38.917739166666664, "lon": -77.011288, "fusion_lat": 0.0, "name": "913b8138ac61d381754809a61b4c349a", "is_disabled": 0, "is_reserved": 0, "bike_id": "913b8138ac61d381754809a61b4c349a", "fusion_lon": 0.0, "type": "electric_scooter"}, {"rental_uris": {"ios": "https://dc.lft.to/lastmile_qr_scan", "android": "https://dc.lft.to/lastmile_qr_scan"}, "lat": 38.8747985, "lon": -76.96524966666667, "fusion_lat": 0.0, "name": "5958d40d0808ddc9a76232f1245156a2", "is_disabled": 0, "is_reserved": 0, "bike_id": "5958d40d0808ddc9a76232f1245156a2", "fusion_lon": 0.0, "type": "electric_bike"}, {"rental_uris": {"ios": "https://dc.lft.to/lastmile_qr_scan", "android": "https://dc.lft.to/lastmile_qr_scan"}, "lat": 38.901703166666664, "lon": -76.9302115, "fusion_lat": 0.0, "name": "9021553ded9a4b5e3600ed91041e9bb1", "is_disabled": 0, "is_reserved": 0, "bike_id": "9021553ded9a4b5e3600ed91041e9bb1", "fusion_lon": 0.0, "type": "electric_scooter"}, {"rental_uris": {"ios": "https://dc.lft.to/lastmile_qr_scan", "android": "https://dc.lft.to/lastmile_qr_scan"}, "lat": 38.956549, "lon": -77.01000416666666, "fusion_lat": 0.0, "name": "59077889a7f0e80552e7b03d6f774264", "is_disabled": 0, "is_reserved": 0, "bike_id": "59077889a7f0e80552e7b03d6f774264", "fusion_lon": 0.0, "type": "electric_scooter"}, {"rental_uris": {"ios": "https://dc.lft.to/lastmile_qr_scan", "android": "https://dc.lft.to/lastmile_qr_scan"}, "lat": 38.920407166666664, "lon": -77.017624, "fusion_lat": 0.0, "name": "6779ed0d03f1a6931b8c62934052ee7c", "is_disabled": 0, "is_reserved": 0, "bike_id": "6779ed0d03f1a6931b8c62934052ee7c", "fusion_lon": 0.0, "type": "electric_scooter"}, {"rental_uris": {"ios": "https://dc.lft.to/lastmile_qr_scan", "android": "https://dc.lft.to/lastmile_qr_scan"}, "lat": 38.915629333333335, "lon": -77.020053, "fusion_lat": 0.0, "name": "9d82dc08575302d474175f46222956a3", "is_disabled": 0, "is_reserved": 0, "bike_id": "9d82dc08575302d474175f46222956a3", "fusion_lon": 0.0, "type": "electric_scooter"}, {"rental_uris": {"ios": "https://dc.lft.to/lastmile_qr_scan", "android": "https://dc.lft.to/lastmile_qr_scan"}, "lat": 38.922431333333336, "lon": -77.02209966666666, "fusion_lat": 0.0, "name": "5fd4d9c071eedd7326f168216a529f24", "is_disabled": 0, "is_reserved": 0, "bike_id": "5fd4d9c071eedd7326f168216a529f24", "fusion_lon": 0.0, "type": "electric_scooter"}, {"rental_uris": {"ios": "https://dc.lft.to/lastmile_qr_scan", "android": "https://dc.lft.to/lastmile_qr_scan"}, "lat": 38.90247866666667, "lon": -77.0396155, "fusion_lat": 0.0, "name": "5806121061b83b22a96f75371041aa0a", "is_disabled": 0, "is_reserved": 0, "bike_id": "5806121061b83b22a96f75371041aa0a", "fusion_lon": 0.0, "type": "electric_scooter"}, {"rental_uris": {"ios": "https://dc.lft.to/lastmile_qr_scan", "android": "https://dc.lft.to/lastmile_qr_scan"}, "lat": 38.915628, "lon": -77.010383, "fusion_lat": 0.0, "name": "1496734ba3902a7e94303860bfd16b31", "is_disabled": 0, "is_reserved": 0, "bike_id": "1496734ba3902a7e94303860bfd16b31", "fusion_lon": 0.0, "type": "electric_scooter"}, {"rental_uris": {"ios": "https://dc.lft.to/lastmile_qr_scan", "android": "https://dc.lft.to/lastmile_qr_scan"}, "lat": 38.91730966666667, "lon": -77.031949, "fusion_lat": 0.0, "name": "0920420353dd0746f10554dd7115de64", "is_disabled": 0, "is_reserved": 0, "bike_id": "0920420353dd0746f10554dd7115de64", "fusion_lon": 0.0, "type": "electric_scooter"}, {"rental_uris": {"ios": "https://dc.lft.to/lastmile_qr_scan", "android": "https://dc.lft.to/lastmile_qr_scan"}, "lat": 38.920577, "lon": -77.03254566666666, "fusion_lat": 0.0, "name": "a0ca28b5673c0a4e422d5ca541c95254", "is_disabled": 0, "is_reserved": 0, "bike_id": "a0ca28b5673c0a4e422d5ca541c95254", "fusion_lon": 0.0, "type": "electric_scooter"}, {"rental_uris": {"ios": "https://dc.lft.to/lastmile_qr_scan", "android": "https://dc.lft.to/lastmile_qr_scan"}, "lat": 38.8977545, "lon": -77.01206383333333, "fusion_lat": 0.0, "name": "c980e6a055c082c141bac7f1cdd240e6", "is_disabled": 0, "is_reserved": 0, "bike_id": "c980e6a055c082c141bac7f1cdd240e6", "fusion_lon": 0.0, "type": "electric_scooter"}, {"rental_uris": {"ios": "https://dc.lft.to/lastmile_qr_scan", "android": "https://dc.lft.to/lastmile_qr_scan"}, "lat": 38.91679583333333, "lon": -77.01572633333333, "fusion_lat": 0.0, "name": "f9eb873b2b7e8329896d02ec0cdf8de7", "is_disabled": 0, "is_reserved": 0, "bike_id": "f9eb873b2b7e8329896d02ec0cdf8de7", "fusion_lon": 0.0, "type": "electric_scooter"}, {"rental_uris": {"ios": "https://dc.lft.to/lastmile_qr_scan", "android": "https://dc.lft.to/lastmile_qr_scan"}, "lat": 38.903165333333334, "lon": -77.00567183333334, "fusion_lat": 0.0, "name": "1a528ac5f2d393e2d668a8b711b5cd16", "is_disabled": 0, "is_reserved": 0, "bike_id": "1a528ac5f2d393e2d668a8b711b5cd16", "fusion_lon": 0.0, "type": "electric_scooter"}, {"rental_uris": {"ios": "https://dc.lft.to/lastmile_qr_scan", "android": "https://dc.lft.to/lastmile_qr_scan"}, "lat": 38.91559616666667, "lon": -77.044402, "fusion_lat": 0.0, "name": "4735dd3831eb21d89bb5acda808e2ba5", "is_disabled": 0, "is_reserved": 0, "bike_id": "4735dd3831eb21d89bb5acda808e2ba5", "fusion_lon": 0.0, "type": "electric_scooter"}, {"rental_uris": {"ios": "https://dc.lft.to/lastmile_qr_scan", "android": "https://dc.lft.to/lastmile_qr_scan"}, "lat": 38.897240333333336, "lon": -77.0269125, "fusion_lat": 0.0, "name": "b4834fc6f76c547d0b5e3c265b988a88", "is_disabled": 0, "is_reserved": 0, "bike_id": "b4834fc6f76c547d0b5e3c265b988a88", "fusion_lon": 0.0, "type": "electric_scooter"}, {"rental_uris": {"ios": "https://dc.lft.to/lastmile_qr_scan", "android": "https://dc.lft.to/lastmile_qr_scan"}, "lat": 38.89430733333333, "lon": -77.03967066666667, "fusion_lat": 0.0, "name": "b8fc39177a067baa1b5f6d7fd1395272", "is_disabled": 0, "is_reserved": 0, "bike_id": "b8fc39177a067baa1b5f6d7fd1395272", "fusion_lon": 0.0, "type": "electric_scooter"}, {"rental_uris": {"ios": "https://dc.lft.to/lastmile_qr_scan", "android": "https://dc.lft.to/lastmile_qr_scan"}, "lat": 38.94919816666667, "lon": -77.01861366666667, "fusion_lat": 0.0, "name": "33491ed2ce0e5c8335b9fe229ed426b2", "is_disabled": 0, "is_reserved": 0, "bike_id": "33491ed2ce0e5c8335b9fe229ed426b2", "fusion_lon": 0.0, "type": "electric_scooter"}, {"rental_uris": {"ios": "https://dc.lft.to/lastmile_qr_scan", "android": "https://dc.lft.to/lastmile_qr_scan"}, "lat": 38.8971, "lon": -77.04881816666666, "fusion_lat": 0.0, "name": "c3f76cdf80293face1f6ed94db71d5b0", "is_disabled": 0, "is_reserved": 0, "bike_id": "c3f76cdf80293face1f6ed94db71d5b0", "fusion_lon": 0.0, "type": "electric_scooter"}, {"rental_uris": {"ios": "https://dc.lft.to/lastmile_qr_scan", "android": "https://dc.lft.to/lastmile_qr_scan"}, "lat": 38.90979766666667, "lon": -77.0343725, "fusion_lat": 0.0, "name": "de681d0a8e3169bf018888b5ade6e07e", "is_disabled": 0, "is_reserved": 0, "bike_id": "de681d0a8e3169bf018888b5ade6e07e", "fusion_lon": 0.0, "type": "electric_scooter"}, {"rental_uris": {"ios": "https://dc.lft.to/lastmile_qr_scan", "android": "https://dc.lft.to/lastmile_qr_scan"}, "lat": 38.903191, "lon": -77.05170733333334, "fusion_lat": 0.0, "name": "13ef374a7b782c5d300d7d37989326f7", "is_disabled": 0, "is_reserved": 0, "bike_id": "13ef374a7b782c5d300d7d37989326f7", "fusion_lon": 0.0, "type": "electric_scooter"}, {"rental_uris": {"ios": "https://dc.lft.to/lastmile_qr_scan", "android": "https://dc.lft.to/lastmile_qr_scan"}, "lat": 38.918254833333336, "lon": -77.04931066666667, "fusion_lat": 0.0, "name": "549a80de8cb2a2c8593bc6a0a44680b6", "is_disabled": 0, "is_reserved": 0, "bike_id": "549a80de8cb2a2c8593bc6a0a44680b6", "fusion_lon": 0.0, "type": "electric_scooter"}, {"rental_uris": {"ios": "https://dc.lft.to/lastmile_qr_scan", "android": "https://dc.lft.to/lastmile_qr_scan"}, "lat": 38.86213133333333, "lon": -76.99479266666667, "fusion_lat": 0.0, "name": "a77e584425da3df002eca765b096fe7e", "is_disabled": 0, "is_reserved": 0, "bike_id": "a77e584425da3df002eca765b096fe7e", "fusion_lon": 0.0, "type": "electric_scooter"}, {"rental_uris": {"ios": "https://dc.lft.to/lastmile_qr_scan", "android": "https://dc.lft.to/lastmile_qr_scan"}, "lat": 38.910622833333335, "lon": -77.05519516666666, "fusion_lat": 0.0, "name": "15d6242a143eb42c97672a9f62b3062f", "is_disabled": 0, "is_reserved": 0, "bike_id": "15d6242a143eb42c97672a9f62b3062f", "fusion_lon": 0.0, "type": "electric_bike"}, {"rental_uris": {"ios": "https://dc.lft.to/lastmile_qr_scan", "android": "https://dc.lft.to/lastmile_qr_scan"}, "lat": 38.90747433333333, "lon": -77.03205033333333, "fusion_lat": 0.0, "name": "e9d0dd8b85d35e687fccebade9ea4589", "is_disabled": 0, "is_reserved": 0, "bike_id": "e9d0dd8b85d35e687fccebade9ea4589", "fusion_lon": 0.0, "type": "electric_scooter"}, {"rental_uris": {"ios": "https://dc.lft.to/lastmile_qr_scan", "android": "https://dc.lft.to/lastmile_qr_scan"}, "lat": 38.9215525, "lon": -77.03865816666666, "fusion_lat": 0.0, "name": "b92894f3cc80ad68bcd980d1eaeee112", "is_disabled": 0, "is_reserved": 0, "bike_id": "b92894f3cc80ad68bcd980d1eaeee112", "fusion_lon": 0.0, "type": "electric_scooter"}, {"rental_uris": {"ios": "https://dc.lft.to/lastmile_qr_scan", "android": "https://dc.lft.to/lastmile_qr_scan"}, "lat": 38.925109166666665, "lon": -77.00222733333334, "fusion_lat": 0.0, "name": "e90675641003a2bc5522e8e372855f50", "is_disabled": 0, "is_reserved": 0, "bike_id": "e90675641003a2bc5522e8e372855f50", "fusion_lon": 0.0, "type": "electric_scooter"}, {"rental_uris": {"ios": "https://dc.lft.to/lastmile_qr_scan", "android": "https://dc.lft.to/lastmile_qr_scan"}, "lat": 38.920387166666664, "lon": -77.03362016666667, "fusion_lat": 0.0, "name": "a941e836244f1409ef058ae917090193", "is_disabled": 0, "is_reserved": 0, "bike_id": "a941e836244f1409ef058ae917090193", "fusion_lon": 0.0, "type": "electric_scooter"}, {"rental_uris": {"ios": "https://dc.lft.to/lastmile_qr_scan", "android": "https://dc.lft.to/lastmile_qr_scan"}, "lat": 38.90046016666667, "lon": -76.98288216666667, "fusion_lat": 0.0, "name": "41c150d1a3c34c7a6d74a59324cda167", "is_disabled": 0, "is_reserved": 0, "bike_id": "41c150d1a3c34c7a6d74a59324cda167", "fusion_lon": 0.0, "type": "electric_scooter"}, {"rental_uris": {"ios": "https://dc.lft.to/lastmile_qr_scan", "android": "https://dc.lft.to/lastmile_qr_scan"}, "lat": 38.94825216666667, "lon": -77.02484216666667, "fusion_lat": 0.0, "name": "4933132eab7cda424b01cef33d5e832f", "is_disabled": 0, "is_reserved": 0, "bike_id": "4933132eab7cda424b01cef33d5e832f", "fusion_lon": 0.0, "type": "electric_scooter"}, {"rental_uris": {"ios": "https://dc.lft.to/lastmile_qr_scan", "android": "https://dc.lft.to/lastmile_qr_scan"}, "lat": 38.89851866666667, "lon": -76.929059, "fusion_lat": 0.0, "name": "860aed37524b2241fc906683751d5bc4", "is_disabled": 0, "is_reserved": 0, "bike_id": "860aed37524b2241fc906683751d5bc4", "fusion_lon": 0.0, "type": "electric_scooter"}, {"rental_uris": {"ios": "https://dc.lft.to/lastmile_qr_scan", "android": "https://dc.lft.to/lastmile_qr_scan"}, "lat": 38.91545083333333, "lon": -77.03196833333334, "fusion_lat": 0.0, "name": "36109953c4213e59897c4bdb016ed5d9", "is_disabled": 0, "is_reserved": 0, "bike_id": "36109953c4213e59897c4bdb016ed5d9", "fusion_lon": 0.0, "type": "electric_scooter"}, {"rental_uris": {"ios": "https://dc.lft.to/lastmile_qr_scan", "android": "https://dc.lft.to/lastmile_qr_scan"}, "lat": 38.931856833333335, "lon": -77.04296016666666, "fusion_lat": 0.0, "name": "b36215549d7574a89a7896224a9ef299", "is_disabled": 0, "is_reserved": 0, "bike_id": "b36215549d7574a89a7896224a9ef299", "fusion_lon": 0.0, "type": "electric_scooter"}, {"rental_uris": {"ios": "https://dc.lft.to/lastmile_qr_scan", "android": "https://dc.lft.to/lastmile_qr_scan"}, "lat": 38.893890166666665, "lon": -77.02266183333333, "fusion_lat": 0.0, "name": "b6b6de5e4847256f789fd41ba536e0ec", "is_disabled": 0, "is_reserved": 0, "bike_id": "b6b6de5e4847256f789fd41ba536e0ec", "fusion_lon": 0.0, "type": "electric_scooter"}, {"rental_uris": {"ios": "https://dc.lft.to/lastmile_qr_scan", "android": "https://dc.lft.to/lastmile_qr_scan"}, "lat": 38.87923216666667, "lon": -77.0234785, "fusion_lat": 0.0, "name": "1cd3a2aed49f16f1a572b1b889aec916", "is_disabled": 0, "is_reserved": 0, "bike_id": "1cd3a2aed49f16f1a572b1b889aec916", "fusion_lon": 0.0, "type": "electric_scooter"}, {"rental_uris": {"ios": "https://dc.lft.to/lastmile_qr_scan", "android": "https://dc.lft.to/lastmile_qr_scan"}, "lat": 38.914271, "lon": -77.03182666666666, "fusion_lat": 0.0, "name": "9347235c655fb93b43230801b094abb6", "is_disabled": 0, "is_reserved": 0, "bike_id": "9347235c655fb93b43230801b094abb6", "fusion_lon": 0.0, "type": "electric_scooter"}, {"rental_uris": {"ios": "https://dc.lft.to/lastmile_qr_scan", "android": "https://dc.lft.to/lastmile_qr_scan"}, "lat": 38.91903883333333, "lon": -77.024637, "fusion_lat": 0.0, "name": "f1c778f9ec2bdb7bf0dd831846585959", "is_disabled": 0, "is_reserved": 0, "bike_id": "f1c778f9ec2bdb7bf0dd831846585959", "fusion_lon": 0.0, "type": "electric_scooter"}, {"rental_uris": {"ios": "https://dc.lft.to/lastmile_qr_scan", "android": "https://dc.lft.to/lastmile_qr_scan"}, "lat": 38.924461, "lon": -77.02248033333333, "fusion_lat": 0.0, "name": "b3caed8d9f38b7cdce23df267d0f09d9", "is_disabled": 0, "is_reserved": 0, "bike_id": "b3caed8d9f38b7cdce23df267d0f09d9", "fusion_lon": 0.0, "type": "electric_scooter"}, {"rental_uris": {"ios": "https://dc.lft.to/lastmile_qr_scan", "android": "https://dc.lft.to/lastmile_qr_scan"}, "lat": 38.902506333333335, "lon": -77.03426533333334, "fusion_lat": 0.0, "name": "518a7180ce5faa5bcfc6690ac222fed1", "is_disabled": 0, "is_reserved": 0, "bike_id": "518a7180ce5faa5bcfc6690ac222fed1", "fusion_lon": 0.0, "type": "electric_scooter"}, {"rental_uris": {"ios": "https://dc.lft.to/lastmile_qr_scan", "android": "https://dc.lft.to/lastmile_qr_scan"}, "lat": 38.89838183333333, "lon": -77.0483955, "fusion_lat": 0.0, "name": "424d84348296a86cff498a3ba5124d99", "is_disabled": 0, "is_reserved": 0, "bike_id": "424d84348296a86cff498a3ba5124d99", "fusion_lon": 0.0, "type": "electric_scooter"}, {"rental_uris": {"ios": "https://dc.lft.to/lastmile_qr_scan", "android": "https://dc.lft.to/lastmile_qr_scan"}, "lat": 38.877628666666666, "lon": -77.01049633333334, "fusion_lat": 0.0, "name": "8d66e1efeac9af6b334a5a77a77bfeb5", "is_disabled": 0, "is_reserved": 0, "bike_id": "8d66e1efeac9af6b334a5a77a77bfeb5", "fusion_lon": 0.0, "type": "electric_bike"}, {"rental_uris": {"ios": "https://dc.lft.to/lastmile_qr_scan", "android": "https://dc.lft.to/lastmile_qr_scan"}, "lat": 38.90906616666667, "lon": -77.0456045, "fusion_lat": 0.0, "name": "d80d1ce081c99bc9e7e828922117952e", "is_disabled": 0, "is_reserved": 0, "bike_id": "d80d1ce081c99bc9e7e828922117952e", "fusion_lon": 0.0, "type": "electric_scooter"}, {"rental_uris": {"ios": "https://dc.lft.to/lastmile_qr_scan", "android": "https://dc.lft.to/lastmile_qr_scan"}, "lat": 38.908686333333335, "lon": -76.99800383333333, "fusion_lat": 0.0, "name": "21d790285b1da787de0ea716d225066b", "is_disabled": 0, "is_reserved": 0, "bike_id": "21d790285b1da787de0ea716d225066b", "fusion_lon": 0.0, "type": "electric_scooter"}, {"rental_uris": {"ios": "https://dc.lft.to/lastmile_qr_scan", "android": "https://dc.lft.to/lastmile_qr_scan"}, "lat": 38.838119666666664, "lon": -77.09523483333334, "fusion_lat": 0.0, "name": "f164f15f321893a30a703cb96c6ebc93", "is_disabled": 0, "is_reserved": 0, "bike_id": "f164f15f321893a30a703cb96c6ebc93", "fusion_lon": 0.0, "type": "electric_bike"}, {"rental_uris": {"ios": "https://dc.lft.to/lastmile_qr_scan", "android": "https://dc.lft.to/lastmile_qr_scan"}, "lat": 38.965468, "lon": -77.0362735, "fusion_lat": 0.0, "name": "d335cce11fa20c235ab7a723feeeb834", "is_disabled": 0, "is_reserved": 0, "bike_id": "d335cce11fa20c235ab7a723feeeb834", "fusion_lon": 0.0, "type": "electric_scooter"}, {"rental_uris": {"ios": "https://dc.lft.to/lastmile_qr_scan", "android": "https://dc.lft.to/lastmile_qr_scan"}, "lat": 38.89955783333333, "lon": -77.0451195, "fusion_lat": 0.0, "name": "93d5495fb34b72d06bae1f8b3f13daa4", "is_disabled": 0, "is_reserved": 0, "bike_id": "93d5495fb34b72d06bae1f8b3f13daa4", "fusion_lon": 0.0, "type": "electric_scooter"}, {"rental_uris": {"ios": "https://dc.lft.to/lastmile_qr_scan", "android": "https://dc.lft.to/lastmile_qr_scan"}, "lat": 38.90255416666667, "lon": -77.0395335, "fusion_lat": 0.0, "name": "ab1d6e36e822e81d103cff0e3623b85d", "is_disabled": 0, "is_reserved": 0, "bike_id": "ab1d6e36e822e81d103cff0e3623b85d", "fusion_lon": 0.0, "type": "electric_scooter"}, {"rental_uris": {"ios": "https://dc.lft.to/lastmile_qr_scan", "android": "https://dc.lft.to/lastmile_qr_scan"}, "lat": 38.88515983333333, "lon": -76.99091066666666, "fusion_lat": 0.0, "name": "fb2ba0a02c3e8ee1f4b15ae3eba06690", "is_disabled": 0, "is_reserved": 0, "bike_id": "fb2ba0a02c3e8ee1f4b15ae3eba06690", "fusion_lon": 0.0, "type": "electric_scooter"}, {"rental_uris": {"ios": "https://dc.lft.to/lastmile_qr_scan", "android": "https://dc.lft.to/lastmile_qr_scan"}, "lat": 38.9285705, "lon": -77.03012983333333, "fusion_lat": 0.0, "name": "930a4873e9b6d641a15e26586299b9a6", "is_disabled": 0, "is_reserved": 0, "bike_id": "930a4873e9b6d641a15e26586299b9a6", "fusion_lon": 0.0, "type": "electric_scooter"}, {"rental_uris": {"ios": "https://dc.lft.to/lastmile_qr_scan", "android": "https://dc.lft.to/lastmile_qr_scan"}, "lat": 38.908347166666665, "lon": -77.03467966666666, "fusion_lat": 0.0, "name": "b5ffc32596ebdd162ac73676151324ca", "is_disabled": 0, "is_reserved": 0, "bike_id": "b5ffc32596ebdd162ac73676151324ca", "fusion_lon": 0.0, "type": "electric_scooter"}, {"rental_uris": {"ios": "https://dc.lft.to/lastmile_qr_scan", "android": "https://dc.lft.to/lastmile_qr_scan"}, "lat": 38.9200295, "lon": -77.02176183333333, "fusion_lat": 0.0, "name": "e356344eb6e44cd67c9ebb089a219c17", "is_disabled": 0, "is_reserved": 0, "bike_id": "e356344eb6e44cd67c9ebb089a219c17", "fusion_lon": 0.0, "type": "electric_scooter"}, {"rental_uris": {"ios": "https://dc.lft.to/lastmile_qr_scan", "android": "https://dc.lft.to/lastmile_qr_scan"}, "lat": 38.89975866666666, "lon": -76.99607216666666, "fusion_lat": 0.0, "name": "e8b446da3874576f0c6ff5aa6fc063f1", "is_disabled": 0, "is_reserved": 0, "bike_id": "e8b446da3874576f0c6ff5aa6fc063f1", "fusion_lon": 0.0, "type": "electric_scooter"}, {"rental_uris": {"ios": "https://dc.lft.to/lastmile_qr_scan", "android": "https://dc.lft.to/lastmile_qr_scan"}, "lat": 38.900913833333334, "lon": -76.98332833333333, "fusion_lat": 0.0, "name": "f17ffe3a57d50fb5701ddc8f441e6b68", "is_disabled": 0, "is_reserved": 0, "bike_id": "f17ffe3a57d50fb5701ddc8f441e6b68", "fusion_lon": 0.0, "type": "electric_scooter"}, {"rental_uris": {"ios": "https://dc.lft.to/lastmile_qr_scan", "android": "https://dc.lft.to/lastmile_qr_scan"}, "lat": 38.93309566666667, "lon": -77.072536, "fusion_lat": 0.0, "name": "f7e96bd8dc0d3d7d0d5b9ce296ea4437", "is_disabled": 0, "is_reserved": 0, "bike_id": "f7e96bd8dc0d3d7d0d5b9ce296ea4437", "fusion_lon": 0.0, "type": "electric_scooter"}, {"rental_uris": {"ios": "https://dc.lft.to/lastmile_qr_scan", "android": "https://dc.lft.to/lastmile_qr_scan"}, "lat": 38.89831316666667, "lon": -77.02780616666666, "fusion_lat": 0.0, "name": "4508d9641d2fba592fbeec6e7a45ca85", "is_disabled": 0, "is_reserved": 0, "bike_id": "4508d9641d2fba592fbeec6e7a45ca85", "fusion_lon": 0.0, "type": "electric_scooter"}, {"rental_uris": {"ios": "https://dc.lft.to/lastmile_qr_scan", "android": "https://dc.lft.to/lastmile_qr_scan"}, "lat": 38.915382666666666, "lon": -77.01225066666667, "fusion_lat": 0.0, "name": "3182c4ab9621c2388fa313c535fbfc5a", "is_disabled": 0, "is_reserved": 0, "bike_id": "3182c4ab9621c2388fa313c535fbfc5a", "fusion_lon": 0.0, "type": "electric_scooter"}, {"rental_uris": {"ios": "https://dc.lft.to/lastmile_qr_scan", "android": "https://dc.lft.to/lastmile_qr_scan"}, "lat": 38.887141166666666, "lon": -77.017776, "fusion_lat": 0.0, "name": "d38974263e690ba398d9458820c033f6", "is_disabled": 0, "is_reserved": 0, "bike_id": "d38974263e690ba398d9458820c033f6", "fusion_lon": 0.0, "type": "electric_scooter"}, {"rental_uris": {"ios": "https://dc.lft.to/lastmile_qr_scan", "android": "https://dc.lft.to/lastmile_qr_scan"}, "lat": 38.89719433333333, "lon": -77.0079535, "fusion_lat": 0.0, "name": "8a049f74cbf841987dbc0c8e2d351117", "is_disabled": 0, "is_reserved": 0, "bike_id": "8a049f74cbf841987dbc0c8e2d351117", "fusion_lon": 0.0, "type": "electric_scooter"}, {"rental_uris": {"ios": "https://dc.lft.to/lastmile_qr_scan", "android": "https://dc.lft.to/lastmile_qr_scan"}, "lat": 38.8970385, "lon": -77.02454733333333, "fusion_lat": 0.0, "name": "10f251d6b85bba08e9e64daa9e0c0774", "is_disabled": 0, "is_reserved": 0, "bike_id": "10f251d6b85bba08e9e64daa9e0c0774", "fusion_lon": 0.0, "type": "electric_scooter"}, {"rental_uris": {"ios": "https://dc.lft.to/lastmile_qr_scan", "android": "https://dc.lft.to/lastmile_qr_scan"}, "lat": 38.93701216666667, "lon": -77.0560565, "fusion_lat": 0.0, "name": "6d8a6bf3e7e931d3a78a5e14a16fa5ca", "is_disabled": 0, "is_reserved": 0, "bike_id": "6d8a6bf3e7e931d3a78a5e14a16fa5ca", "fusion_lon": 0.0, "type": "electric_bike"}, {"rental_uris": {"ios": "https://dc.lft.to/lastmile_qr_scan", "android": "https://dc.lft.to/lastmile_qr_scan"}, "lat": 38.917865666666664, "lon": -77.04352433333334, "fusion_lat": 0.0, "name": "1cb3e503dc661865f26e5296432bda28", "is_disabled": 0, "is_reserved": 0, "bike_id": "1cb3e503dc661865f26e5296432bda28", "fusion_lon": 0.0, "type": "electric_scooter"}, {"rental_uris": {"ios": "https://dc.lft.to/lastmile_qr_scan", "android": "https://dc.lft.to/lastmile_qr_scan"}, "lat": 38.92045233333333, "lon": -77.03400166666667, "fusion_lat": 0.0, "name": "90aef3cc2807594d940bc782c56588ed", "is_disabled": 0, "is_reserved": 0, "bike_id": "90aef3cc2807594d940bc782c56588ed", "fusion_lon": 0.0, "type": "electric_scooter"}, {"rental_uris": {"ios": "https://dc.lft.to/lastmile_qr_scan", "android": "https://dc.lft.to/lastmile_qr_scan"}, "lat": 38.94068433333333, "lon": -77.024848, "fusion_lat": 0.0, "name": "6fb939db178b7918b85785e5873c9e51", "is_disabled": 0, "is_reserved": 0, "bike_id": "6fb939db178b7918b85785e5873c9e51", "fusion_lon": 0.0, "type": "electric_bike"}, {"rental_uris": {"ios": "https://dc.lft.to/lastmile_qr_scan", "android": "https://dc.lft.to/lastmile_qr_scan"}, "lat": 38.905007499999996, "lon": -77.068845, "fusion_lat": 0.0, "name": "c29149383d31b00edb3f8b0b2aed41e9", "is_disabled": 0, "is_reserved": 0, "bike_id": "c29149383d31b00edb3f8b0b2aed41e9", "fusion_lon": 0.0, "type": "electric_scooter"}, {"rental_uris": {"ios": "https://dc.lft.to/lastmile_qr_scan", "android": "https://dc.lft.to/lastmile_qr_scan"}, "lat": 38.9548175, "lon": -77.0770905, "fusion_lat": 0.0, "name": "1e2fd06a72d49adddb9c642d4322226f", "is_disabled": 0, "is_reserved": 0, "bike_id": "1e2fd06a72d49adddb9c642d4322226f", "fusion_lon": 0.0, "type": "electric_bike"}, {"rental_uris": {"ios": "https://dc.lft.to/lastmile_qr_scan", "android": "https://dc.lft.to/lastmile_qr_scan"}, "lat": 38.831612, "lon": -76.9954235, "fusion_lat": 0.0, "name": "09d082d683581d348ecc9976e7818390", "is_disabled": 0, "is_reserved": 0, "bike_id": "09d082d683581d348ecc9976e7818390", "fusion_lon": 0.0, "type": "electric_bike"}, {"rental_uris": {"ios": "https://dc.lft.to/lastmile_qr_scan", "android": "https://dc.lft.to/lastmile_qr_scan"}, "lat": 38.92362833333333, "lon": -77.05044866666667, "fusion_lat": 0.0, "name": "8efc47cceaf9bddf154ecffc218ac997", "is_disabled": 0, "is_reserved": 0, "bike_id": "8efc47cceaf9bddf154ecffc218ac997", "fusion_lon": 0.0, "type": "electric_scooter"}, {"rental_uris": {"ios": "https://dc.lft.to/lastmile_qr_scan", "android": "https://dc.lft.to/lastmile_qr_scan"}, "lat": 38.918974166666665, "lon": -77.02448216666667, "fusion_lat": 0.0, "name": "518414d79d465903de47d3e348b3c437", "is_disabled": 0, "is_reserved": 0, "bike_id": "518414d79d465903de47d3e348b3c437", "fusion_lon": 0.0, "type": "electric_scooter"}, {"rental_uris": {"ios": "https://dc.lft.to/lastmile_qr_scan", "android": "https://dc.lft.to/lastmile_qr_scan"}, "lat": 38.90529133333333, "lon": -77.01702683333333, "fusion_lat": 0.0, "name": "ad03f52a414fae7bd45496354a6057c4", "is_disabled": 0, "is_reserved": 0, "bike_id": "ad03f52a414fae7bd45496354a6057c4", "fusion_lon": 0.0, "type": "electric_scooter"}, {"rental_uris": {"ios": "https://dc.lft.to/lastmile_qr_scan", "android": "https://dc.lft.to/lastmile_qr_scan"}, "lat": 38.86686066666667, "lon": -76.98574366666666, "fusion_lat": 0.0, "name": "500e6c2f7b68c85b9b480a4efc6b2302", "is_disabled": 0, "is_reserved": 0, "bike_id": "500e6c2f7b68c85b9b480a4efc6b2302", "fusion_lon": 0.0, "type": "electric_scooter"}, {"rental_uris": {"ios": "https://dc.lft.to/lastmile_qr_scan", "android": "https://dc.lft.to/lastmile_qr_scan"}, "lat": 38.9073445, "lon": -77.02372683333333, "fusion_lat": 0.0, "name": "e794cecbafd7a9dbe055c5d1a2250953", "is_disabled": 0, "is_reserved": 0, "bike_id": "e794cecbafd7a9dbe055c5d1a2250953", "fusion_lon": 0.0, "type": "electric_scooter"}, {"rental_uris": {"ios": "https://dc.lft.to/lastmile_qr_scan", "android": "https://dc.lft.to/lastmile_qr_scan"}, "lat": 38.91950333333333, "lon": -77.003332, "fusion_lat": 0.0, "name": "a341f95a8f12ea73eeffd9f939a5ca4f", "is_disabled": 0, "is_reserved": 0, "bike_id": "a341f95a8f12ea73eeffd9f939a5ca4f", "fusion_lon": 0.0, "type": "electric_scooter"}, {"rental_uris": {"ios": "https://dc.lft.to/lastmile_qr_scan", "android": "https://dc.lft.to/lastmile_qr_scan"}, "lat": 38.91562916666667, "lon": -77.01201216666666, "fusion_lat": 0.0, "name": "4f08de559f4241f50c086f6ba77e3e9c", "is_disabled": 0, "is_reserved": 0, "bike_id": "4f08de559f4241f50c086f6ba77e3e9c", "fusion_lon": 0.0, "type": "electric_scooter"}, {"rental_uris": {"ios": "https://dc.lft.to/lastmile_qr_scan", "android": "https://dc.lft.to/lastmile_qr_scan"}, "lat": 38.87865733333334, "lon": -76.96982216666666, "fusion_lat": 0.0, "name": "fb640ccca3950552e8598c4b17108706", "is_disabled": 0, "is_reserved": 0, "bike_id": "fb640ccca3950552e8598c4b17108706", "fusion_lon": 0.0, "type": "electric_scooter"}, {"rental_uris": {"ios": "https://dc.lft.to/lastmile_qr_scan", "android": "https://dc.lft.to/lastmile_qr_scan"}, "lat": 38.874210833333336, "lon": -76.96905666666666, "fusion_lat": 0.0, "name": "e0190e4266cdec387ef658be171eb5af", "is_disabled": 0, "is_reserved": 0, "bike_id": "e0190e4266cdec387ef658be171eb5af", "fusion_lon": 0.0, "type": "electric_scooter"}, {"rental_uris": {"ios": "https://dc.lft.to/lastmile_qr_scan", "android": "https://dc.lft.to/lastmile_qr_scan"}, "lat": 38.8874545, "lon": -77.02576166666667, "fusion_lat": 0.0, "name": "ffb8f3b899bcf7c30b2c51361a7bee15", "is_disabled": 0, "is_reserved": 0, "bike_id": "ffb8f3b899bcf7c30b2c51361a7bee15", "fusion_lon": 0.0, "type": "electric_scooter"}, {"rental_uris": {"ios": "https://dc.lft.to/lastmile_qr_scan", "android": "https://dc.lft.to/lastmile_qr_scan"}, "lat": 38.88844183333333, "lon": -76.92682733333334, "fusion_lat": 0.0, "name": "eb09e6da7505138f1f3b4e98cb854899", "is_disabled": 0, "is_reserved": 0, "bike_id": "eb09e6da7505138f1f3b4e98cb854899", "fusion_lon": 0.0, "type": "electric_scooter"}, {"rental_uris": {"ios": "https://dc.lft.to/lastmile_qr_scan", "android": "https://dc.lft.to/lastmile_qr_scan"}, "lat": 38.88136133333333, "lon": -77.02260916666667, "fusion_lat": 0.0, "name": "4cfcee0cf8d042deb9776784387c66d2", "is_disabled": 0, "is_reserved": 0, "bike_id": "4cfcee0cf8d042deb9776784387c66d2", "fusion_lon": 0.0, "type": "electric_scooter"}, {"rental_uris": {"ios": "https://dc.lft.to/lastmile_qr_scan", "android": "https://dc.lft.to/lastmile_qr_scan"}, "lat": 38.926907, "lon": -77.02286583333333, "fusion_lat": 0.0, "name": "5aaffd1599c9fef4c8ba3f8f2720a03e", "is_disabled": 0, "is_reserved": 0, "bike_id": "5aaffd1599c9fef4c8ba3f8f2720a03e", "fusion_lon": 0.0, "type": "electric_scooter"}, {"rental_uris": {"ios": "https://dc.lft.to/lastmile_qr_scan", "android": "https://dc.lft.to/lastmile_qr_scan"}, "lat": 38.91262366666667, "lon": -77.0168675, "fusion_lat": 0.0, "name": "ea32d214822fcd5b707ae1e4514a2257", "is_disabled": 0, "is_reserved": 0, "bike_id": "ea32d214822fcd5b707ae1e4514a2257", "fusion_lon": 0.0, "type": "electric_scooter"}, {"rental_uris": {"ios": "https://dc.lft.to/lastmile_qr_scan", "android": "https://dc.lft.to/lastmile_qr_scan"}, "lat": 38.906090166666665, "lon": -77.00584883333333, "fusion_lat": 0.0, "name": "fe4eb56cac32328042b67d7f1c47f8da", "is_disabled": 0, "is_reserved": 0, "bike_id": "fe4eb56cac32328042b67d7f1c47f8da", "fusion_lon": 0.0, "type": "electric_scooter"}, {"rental_uris": {"ios": "https://dc.lft.to/lastmile_qr_scan", "android": "https://dc.lft.to/lastmile_qr_scan"}, "lat": 38.878796666666666, "lon": -77.017452, "fusion_lat": 0.0, "name": "47816c20de2becc898531a2446e88d57", "is_disabled": 0, "is_reserved": 0, "bike_id": "47816c20de2becc898531a2446e88d57", "fusion_lon": 0.0, "type": "electric_scooter"}, {"rental_uris": {"ios": "https://dc.lft.to/lastmile_qr_scan", "android": "https://dc.lft.to/lastmile_qr_scan"}, "lat": 38.8934985, "lon": -77.00338816666667, "fusion_lat": 0.0, "name": "9656abc5d5ae7a43a79949e2e8faacf3", "is_disabled": 0, "is_reserved": 0, "bike_id": "9656abc5d5ae7a43a79949e2e8faacf3", "fusion_lon": 0.0, "type": "electric_scooter"}, {"rental_uris": {"ios": "https://dc.lft.to/lastmile_qr_scan", "android": "https://dc.lft.to/lastmile_qr_scan"}, "lat": 38.921417, "lon": -77.04353866666666, "fusion_lat": 0.0, "name": "456e2287ee0de5d140d154c1ec41af77", "is_disabled": 0, "is_reserved": 0, "bike_id": "456e2287ee0de5d140d154c1ec41af77", "fusion_lon": 0.0, "type": "electric_scooter"}, {"rental_uris": {"ios": "https://dc.lft.to/lastmile_qr_scan", "android": "https://dc.lft.to/lastmile_qr_scan"}, "lat": 38.95334583333333, "lon": -76.98252533333333, "fusion_lat": 0.0, "name": "decaa3082934b12e44351ddd1934acd6", "is_disabled": 0, "is_reserved": 0, "bike_id": "decaa3082934b12e44351ddd1934acd6", "fusion_lon": 0.0, "type": "electric_bike"}, {"rental_uris": {"ios": "https://dc.lft.to/lastmile_qr_scan", "android": "https://dc.lft.to/lastmile_qr_scan"}, "lat": 38.9037195, "lon": -77.04194483333333, "fusion_lat": 0.0, "name": "8afc4ae0ce3646a45c22aef70d5faebc", "is_disabled": 0, "is_reserved": 0, "bike_id": "8afc4ae0ce3646a45c22aef70d5faebc", "fusion_lon": 0.0, "type": "electric_scooter"}, {"rental_uris": {"ios": "https://dc.lft.to/lastmile_qr_scan", "android": "https://dc.lft.to/lastmile_qr_scan"}, "lat": 38.92160583333333, "lon": -76.99550033333334, "fusion_lat": 0.0, "name": "dfa9cc19d4c5a5387bd2137b3e347e10", "is_disabled": 0, "is_reserved": 0, "bike_id": "dfa9cc19d4c5a5387bd2137b3e347e10", "fusion_lon": 0.0, "type": "electric_scooter"}, {"rental_uris": {"ios": "https://dc.lft.to/lastmile_qr_scan", "android": "https://dc.lft.to/lastmile_qr_scan"}, "lat": 38.935194833333334, "lon": -77.03353733333333, "fusion_lat": 0.0, "name": "dd66df31b14e1ee6859a6a7286c2a891", "is_disabled": 0, "is_reserved": 0, "bike_id": "dd66df31b14e1ee6859a6a7286c2a891", "fusion_lon": 0.0, "type": "electric_scooter"}, {"rental_uris": {"ios": "https://dc.lft.to/lastmile_qr_scan", "android": "https://dc.lft.to/lastmile_qr_scan"}, "lat": 38.92250666666666, "lon": -77.041963, "fusion_lat": 0.0, "name": "c8e1b04f5b6442dabd62b5fa3924a21a", "is_disabled": 0, "is_reserved": 0, "bike_id": "c8e1b04f5b6442dabd62b5fa3924a21a", "fusion_lon": 0.0, "type": "electric_scooter"}, {"rental_uris": {"ios": "https://dc.lft.to/lastmile_qr_scan", "android": "https://dc.lft.to/lastmile_qr_scan"}, "lat": 38.93462816666667, "lon": -77.04530116666666, "fusion_lat": 0.0, "name": "0c64d68ff0c3c23499cd830d6110b358", "is_disabled": 0, "is_reserved": 0, "bike_id": "0c64d68ff0c3c23499cd830d6110b358", "fusion_lon": 0.0, "type": "electric_scooter"}, {"rental_uris": {"ios": "https://dc.lft.to/lastmile_qr_scan", "android": "https://dc.lft.to/lastmile_qr_scan"}, "lat": 38.8991685, "lon": -76.93364516666666, "fusion_lat": 0.0, "name": "8f4533ba58a816d6c73d5360a4b16539", "is_disabled": 0, "is_reserved": 0, "bike_id": "8f4533ba58a816d6c73d5360a4b16539", "fusion_lon": 0.0, "type": "electric_scooter"}, {"rental_uris": {"ios": "https://dc.lft.to/lastmile_qr_scan", "android": "https://dc.lft.to/lastmile_qr_scan"}, "lat": 38.89898483333333, "lon": -77.0417135, "fusion_lat": 0.0, "name": "97c4af240e81042ee57a771b8bd6d22c", "is_disabled": 0, "is_reserved": 0, "bike_id": "97c4af240e81042ee57a771b8bd6d22c", "fusion_lon": 0.0, "type": "electric_scooter"}, {"rental_uris": {"ios": "https://dc.lft.to/lastmile_qr_scan", "android": "https://dc.lft.to/lastmile_qr_scan"}, "lat": 38.91565766666667, "lon": -77.0258875, "fusion_lat": 0.0, "name": "fcce4e1916320b5f98c2a82626fc91bc", "is_disabled": 0, "is_reserved": 0, "bike_id": "fcce4e1916320b5f98c2a82626fc91bc", "fusion_lon": 0.0, "type": "electric_scooter"}, {"rental_uris": {"ios": "https://dc.lft.to/lastmile_qr_scan", "android": "https://dc.lft.to/lastmile_qr_scan"}, "lat": 39.03741333333333, "lon": -77.05481616666667, "fusion_lat": 0.0, "name": "02a8dc4022ad917779618aaa03b44979", "is_disabled": 0, "is_reserved": 0, "bike_id": "02a8dc4022ad917779618aaa03b44979", "fusion_lon": 0.0, "type": "electric_bike"}, {"rental_uris": {"ios": "https://dc.lft.to/lastmile_qr_scan", "android": "https://dc.lft.to/lastmile_qr_scan"}, "lat": 38.91452666666667, "lon": -77.0019905, "fusion_lat": 0.0, "name": "1f649456108db8fe9eff2e1858e5cd94", "is_disabled": 0, "is_reserved": 0, "bike_id": "1f649456108db8fe9eff2e1858e5cd94", "fusion_lon": 0.0, "type": "electric_scooter"}, {"rental_uris": {"ios": "https://dc.lft.to/lastmile_qr_scan", "android": "https://dc.lft.to/lastmile_qr_scan"}, "lat": 38.898004, "lon": -77.00341766666666, "fusion_lat": 0.0, "name": "8f420fae4e781b3a43deff076905137d", "is_disabled": 0, "is_reserved": 0, "bike_id": "8f420fae4e781b3a43deff076905137d", "fusion_lon": 0.0, "type": "electric_scooter"}, {"rental_uris": {"ios": "https://dc.lft.to/lastmile_qr_scan", "android": "https://dc.lft.to/lastmile_qr_scan"}, "lat": 38.876855666666664, "lon": -77.00827816666667, "fusion_lat": 0.0, "name": "f0089669349e50c767c1c2601d8431ae", "is_disabled": 0, "is_reserved": 0, "bike_id": "f0089669349e50c767c1c2601d8431ae", "fusion_lon": 0.0, "type": "electric_scooter"}, {"rental_uris": {"ios": "https://dc.lft.to/lastmile_qr_scan", "android": "https://dc.lft.to/lastmile_qr_scan"}, "lat": 38.87177483333333, "lon": -77.006093, "fusion_lat": 0.0, "name": "3b711a440439ee722cd16ccbd531ead6", "is_disabled": 0, "is_reserved": 0, "bike_id": "3b711a440439ee722cd16ccbd531ead6", "fusion_lon": 0.0, "type": "electric_scooter"}, {"rental_uris": {"ios": "https://dc.lft.to/lastmile_qr_scan", "android": "https://dc.lft.to/lastmile_qr_scan"}, "lat": 38.89351666666666, "lon": -77.0283925, "fusion_lat": 0.0, "name": "8f62e6beef83b3149c9e1c2927c13ba2", "is_disabled": 0, "is_reserved": 0, "bike_id": "8f62e6beef83b3149c9e1c2927c13ba2", "fusion_lon": 0.0, "type": "electric_scooter"}, {"rental_uris": {"ios": "https://dc.lft.to/lastmile_qr_scan", "android": "https://dc.lft.to/lastmile_qr_scan"}, "lat": 38.903741333333336, "lon": -77.01734066666667, "fusion_lat": 0.0, "name": "9d29b3442d2cf583deba09cd9371e085", "is_disabled": 0, "is_reserved": 0, "bike_id": "9d29b3442d2cf583deba09cd9371e085", "fusion_lon": 0.0, "type": "electric_scooter"}, {"rental_uris": {"ios": "https://dc.lft.to/lastmile_qr_scan", "android": "https://dc.lft.to/lastmile_qr_scan"}, "lat": 38.9093785, "lon": -77.04396816666667, "fusion_lat": 0.0, "name": "d50945987f2028d6233def2a88816c72", "is_disabled": 0, "is_reserved": 0, "bike_id": "d50945987f2028d6233def2a88816c72", "fusion_lon": 0.0, "type": "electric_scooter"}, {"rental_uris": {"ios": "https://dc.lft.to/lastmile_qr_scan", "android": "https://dc.lft.to/lastmile_qr_scan"}, "lat": 39.0549705, "lon": -77.11787983333333, "fusion_lat": 0.0, "name": "aca2d2cbe6e4c9f9cec665902b6ecb79", "is_disabled": 0, "is_reserved": 0, "bike_id": "aca2d2cbe6e4c9f9cec665902b6ecb79", "fusion_lon": 0.0, "type": "electric_bike"}, {"rental_uris": {"ios": "https://dc.lft.to/lastmile_qr_scan", "android": "https://dc.lft.to/lastmile_qr_scan"}, "lat": 38.87648133333333, "lon": -76.96506816666667, "fusion_lat": 0.0, "name": "ae56a1bf539360a5aa93f6b3c476d96d", "is_disabled": 0, "is_reserved": 0, "bike_id": "ae56a1bf539360a5aa93f6b3c476d96d", "fusion_lon": 0.0, "type": "electric_scooter"}, {"rental_uris": {"ios": "https://dc.lft.to/lastmile_qr_scan", "android": "https://dc.lft.to/lastmile_qr_scan"}, "lat": 38.9274165, "lon": -77.03433883333334, "fusion_lat": 0.0, "name": "8467263e413431b7455b0efa8e281e46", "is_disabled": 0, "is_reserved": 0, "bike_id": "8467263e413431b7455b0efa8e281e46", "fusion_lon": 0.0, "type": "electric_scooter"}, {"rental_uris": {"ios": "https://dc.lft.to/lastmile_qr_scan", "android": "https://dc.lft.to/lastmile_qr_scan"}, "lat": 38.90866, "lon": -76.99125166666667, "fusion_lat": 0.0, "name": "1abd0988d3bf56bd0bb6787a481b54f7", "is_disabled": 0, "is_reserved": 0, "bike_id": "1abd0988d3bf56bd0bb6787a481b54f7", "fusion_lon": 0.0, "type": "electric_bike"}, {"rental_uris": {"ios": "https://dc.lft.to/lastmile_qr_scan", "android": "https://dc.lft.to/lastmile_qr_scan"}, "lat": 38.907286, "lon": -77.02374466666667, "fusion_lat": 0.0, "name": "585e97445911296be44ab726a2dad6b5", "is_disabled": 0, "is_reserved": 0, "bike_id": "585e97445911296be44ab726a2dad6b5", "fusion_lon": 0.0, "type": "electric_scooter"}, {"rental_uris": {"ios": "https://dc.lft.to/lastmile_qr_scan", "android": "https://dc.lft.to/lastmile_qr_scan"}, "lat": 38.916196, "lon": -77.03192666666666, "fusion_lat": 0.0, "name": "a19b4238996c48c9f9c87f0bed2ce8ee", "is_disabled": 0, "is_reserved": 0, "bike_id": "a19b4238996c48c9f9c87f0bed2ce8ee", "fusion_lon": 0.0, "type": "electric_scooter"}, {"rental_uris": {"ios": "https://dc.lft.to/lastmile_qr_scan", "android": "https://dc.lft.to/lastmile_qr_scan"}, "lat": 38.90778983333333, "lon": -77.0347395, "fusion_lat": 0.0, "name": "84e3a3d0e8667fb8d5286ba3cb97d3b8", "is_disabled": 0, "is_reserved": 0, "bike_id": "84e3a3d0e8667fb8d5286ba3cb97d3b8", "fusion_lon": 0.0, "type": "electric_scooter"}, {"rental_uris": {"ios": "https://dc.lft.to/lastmile_qr_scan", "android": "https://dc.lft.to/lastmile_qr_scan"}, "lat": 38.9285805, "lon": -77.0141485, "fusion_lat": 0.0, "name": "e0b6fcc116911c064a16cd2ff6f0930b", "is_disabled": 0, "is_reserved": 0, "bike_id": "e0b6fcc116911c064a16cd2ff6f0930b", "fusion_lon": 0.0, "type": "electric_scooter"}, {"rental_uris": {"ios": "https://dc.lft.to/lastmile_qr_scan", "android": "https://dc.lft.to/lastmile_qr_scan"}, "lat": 38.90142933333333, "lon": -76.99161016666666, "fusion_lat": 0.0, "name": "7db8cc6cad3579ffe9c5127c20beddac", "is_disabled": 0, "is_reserved": 0, "bike_id": "7db8cc6cad3579ffe9c5127c20beddac", "fusion_lon": 0.0, "type": "electric_scooter"}, {"rental_uris": {"ios": "https://dc.lft.to/lastmile_qr_scan", "android": "https://dc.lft.to/lastmile_qr_scan"}, "lat": 38.915625, "lon": -77.03332866666666, "fusion_lat": 0.0, "name": "c5c8509ac0e3375da2da267022f083fe", "is_disabled": 0, "is_reserved": 0, "bike_id": "c5c8509ac0e3375da2da267022f083fe", "fusion_lon": 0.0, "type": "electric_scooter"}, {"rental_uris": {"ios": "https://dc.lft.to/lastmile_qr_scan", "android": "https://dc.lft.to/lastmile_qr_scan"}, "lat": 38.90073483333333, "lon": -77.0487785, "fusion_lat": 0.0, "name": "489fa1b9137a7839101e51dad73634bf", "is_disabled": 0, "is_reserved": 0, "bike_id": "489fa1b9137a7839101e51dad73634bf", "fusion_lon": 0.0, "type": "electric_scooter"}, {"rental_uris": {"ios": "https://dc.lft.to/lastmile_qr_scan", "android": "https://dc.lft.to/lastmile_qr_scan"}, "lat": 38.947353666666665, "lon": -76.99581166666667, "fusion_lat": 0.0, "name": "f2e6e9ee18bb58910cc3f7f36a341b62", "is_disabled": 0, "is_reserved": 0, "bike_id": "f2e6e9ee18bb58910cc3f7f36a341b62", "fusion_lon": 0.0, "type": "electric_bike"}, {"rental_uris": {"ios": "https://dc.lft.to/lastmile_qr_scan", "android": "https://dc.lft.to/lastmile_qr_scan"}, "lat": 38.914209, "lon": -77.0240625, "fusion_lat": 0.0, "name": "650fc46e8b75be259fdf2e0c0e8973e4", "is_disabled": 0, "is_reserved": 0, "bike_id": "650fc46e8b75be259fdf2e0c0e8973e4", "fusion_lon": 0.0, "type": "electric_scooter"}, {"rental_uris": {"ios": "https://dc.lft.to/lastmile_qr_scan", "android": "https://dc.lft.to/lastmile_qr_scan"}, "lat": 38.90224766666667, "lon": -77.03207233333333, "fusion_lat": 0.0, "name": "68d24476355e114e2602e99065964a40", "is_disabled": 0, "is_reserved": 0, "bike_id": "68d24476355e114e2602e99065964a40", "fusion_lon": 0.0, "type": "electric_scooter"}, {"rental_uris": {"ios": "https://dc.lft.to/lastmile_qr_scan", "android": "https://dc.lft.to/lastmile_qr_scan"}, "lat": 38.904098, "lon": -76.9733245, "fusion_lat": 0.0, "name": "75c755811012086c9dd8fc06dadddaa4", "is_disabled": 0, "is_reserved": 0, "bike_id": "75c755811012086c9dd8fc06dadddaa4", "fusion_lon": 0.0, "type": "electric_scooter"}, {"rental_uris": {"ios": "https://dc.lft.to/lastmile_qr_scan", "android": "https://dc.lft.to/lastmile_qr_scan"}, "lat": 38.910312166666664, "lon": -76.9855385, "fusion_lat": 0.0, "name": "9d41c29c9b48e6479f450f3f706898b7", "is_disabled": 0, "is_reserved": 0, "bike_id": "9d41c29c9b48e6479f450f3f706898b7", "fusion_lon": 0.0, "type": "electric_scooter"}, {"rental_uris": {"ios": "https://dc.lft.to/lastmile_qr_scan", "android": "https://dc.lft.to/lastmile_qr_scan"}, "lat": 38.905650333333334, "lon": -77.02828183333334, "fusion_lat": 0.0, "name": "0cae45559f4b55a2d8b24c7a98982a83", "is_disabled": 0, "is_reserved": 0, "bike_id": "0cae45559f4b55a2d8b24c7a98982a83", "fusion_lon": 0.0, "type": "electric_scooter"}, {"rental_uris": {"ios": "https://dc.lft.to/lastmile_qr_scan", "android": "https://dc.lft.to/lastmile_qr_scan"}, "lat": 38.905180333333334, "lon": -77.04869766666667, "fusion_lat": 0.0, "name": "3323a553715aa3d49ee2226bb95e58a3", "is_disabled": 0, "is_reserved": 0, "bike_id": "3323a553715aa3d49ee2226bb95e58a3", "fusion_lon": 0.0, "type": "electric_scooter"}, {"rental_uris": {"ios": "https://dc.lft.to/lastmile_qr_scan", "android": "https://dc.lft.to/lastmile_qr_scan"}, "lat": 38.901895, "lon": -77.0129785, "fusion_lat": 0.0, "name": "55b7b577ef0e8d2e6289e2e0ccac50a3", "is_disabled": 0, "is_reserved": 0, "bike_id": "55b7b577ef0e8d2e6289e2e0ccac50a3", "fusion_lon": 0.0, "type": "electric_scooter"}, {"rental_uris": {"ios": "https://dc.lft.to/lastmile_qr_scan", "android": "https://dc.lft.to/lastmile_qr_scan"}, "lat": 38.914182333333336, "lon": -77.02208166666667, "fusion_lat": 0.0, "name": "506dabc8c1d201ad1910ab4884127376", "is_disabled": 0, "is_reserved": 0, "bike_id": "506dabc8c1d201ad1910ab4884127376", "fusion_lon": 0.0, "type": "electric_scooter"}, {"rental_uris": {"ios": "https://dc.lft.to/lastmile_qr_scan", "android": "https://dc.lft.to/lastmile_qr_scan"},